~Version Information
 VERS.                  2.0:   CWLS log ASCII Standard -VERSION 2.0
 WRAP.                   NO:   One line per depth step
~Well Information Block
#MNEM.UNIT     VALUE/NAME     DESCRIPTION
#---------     -----------    ---------------------------
 STRT.S             21:13:20 18-May-20: START TIME 21:13:20 18-May-20
 STOP.S             21:20:25 18-May-20: STOP TIME  21:20:25 18-May-20
 STEP.S                   0.00: STEP TIME
 NULL.                 -999.25: NULL VALUE
 UNIT.                     N/A:  LOGGING EQUIPMENT ID
 DCON.         Sperry Drilling:  DIRECTNL CONTR
 DOE .                     N/A:  DOE NUMBER
 JOBN.        AZ-XX-0906252240:  JOB TICKET NUMB
 MWDS.                     N/A:  MWD SHOP
 PROV.                    Baku:  PROVINCE
 STAT.                    Baku:  STATE NAME
 REGN.                   EESSA:  REGION
 BASE.              Azerbaijan:  LOGGING EQUIPMENT BASE LOCATION
 UWI .                     N/A:  UNIQUE WELL IDENTIFIER
 API .                     N/A:  API NUMBER
 MDS .        Operator Entered:  MAG DATA SOURCE
 WTYP.                Deviated:  WELL TYPE
 COMP.     BP Exploration (Caspian Sea) Ltd.:  COMPANY
 SRVC.          Turan Drilling:  CONTRACTOR
 WELL.           J23 (Slot 07):  WELL NAME
 CTRY.              Azerbaijan:  COUNTRY NAME
 FLD .                     ACG:  FIELD NAME
 PDAT.          Mean Sea Level:  PERMANENT DATUM
 RIG .             West Chirag:  RIG NAME
 SON .        AZ-XX-0906252240:  JOB NUMBER
 FTOP.          Formation Tops:  FORM TOPS DESC
 ILTD.               Lithology:  INTERP LTH DESC
 SVYD.                  Survey:  SURVEY DESC
 DMOD.             Drill Model:  DRILL MOD DESC
 HPTY.       Minimum Curvature:  HOLE POS TYPE
 NREF.                    Grid:  NORTH REFERENCE
 SPUD.               27-Aug-20:  SPUD DATE
 DATE.      00.00.00 19-May-20:  END TIME
 STIM.      03.00.00 25-Mar-20:  START TIME
 DMF .             Drill Floor:  DRILL MEAS FROM
 DFST.                        :  DIST FSL TEXT
 DFWT.                        :  DIST FWL TEXT
 CNTY.                        :  COUNTY
 LOC .                        :  LOCATION
 LMF .             Drill Floor:  LOG MEASURED FROM
 VSNS.m                   9.43:  VERT SEC N/S
 VSEW.m                  -8.91:  VERT SEC E/W
 AGAP.m                  43.00:  AIR GAP
 DEP .m                 354.17:  DEPTH
 APD .m                  43.00:  DEPTH ABOVE PD
 WDMS.m                 169.80:  WD ELEV
 EGL .m                   0.00:  GROUND ELEVATION
 EPD .m                   0.00:  ELEVATION
 AZTC.deg                 6.31:  AZM TOTAL CORR
 GRDC.deg                 0.14:  GRID CORRECTION
 MDEC.deg                 6.45:  MAGNETIC DECL
 MDIP.deg                59.56:  MAGNETIC DIP
 MFLD.nT              50295.00:  MAGNETIC FIELD
 GVFD.g                   1.00:  GRAVITY FIELD
 VSDR.deg               179.88:  VERT SEC DIRECT
 TDD .m                5150.01:  TOTAL DEPTH (DRILLER)
 SDEP.m                 864.00:  START DEPTH
 DFSL.m                   0.00:  DISTANCE FSL
 DFWL.m                   0.00:  DISTANCE FWL
 UTMY.m             4443793.85:  UTM Y
 UTMX.m              519005.06:  UTM X
 WHEW.m                  -8.91:  WELL HEAD E/W
 WHNS.m                   9.43:  WELL HEAD N/S
 LONG.deg                51.22:  LONGITUDE
 LATI.deg                40.13:  LATITUDE
 TVDS.m                  43.00:  TVDSS CORRECTN
 EKB .m                   0.00:  KB ELEVATION
 EDF .m                  43.00:  DF ELEVATION
 TDL .m                 363.00:  TOTAL DEPTH (LOGGER)
 MAGU.                 1850802:  MAGUTM CHECKSUM
 VSC .                       0:  VS TO CLOSURE
~Parameter Information Block
#MNEM.UNIT       Value        Description
#---------     -----------    ---------------------------
 AV  .mps                 2.30:  Ann Velocity 
 AVMX.mps                 4.40:  Max Ann Veloc 
 AZIF.deg               110.24:  Azm, Final 
 BHAT.        Rotary Steerable:  BHA Type 
 BREV.rev               331.00:  Rev Bit Total 
 BROT.°/30m               0.00:  Build Rotating 
 BS  .in                  8.50:  Bit Size 
 BSZ .in                  8.50:  Bit Size 
 BTPL.psig              585.00:  Bit Press Loss 
 CABU.                     Yes:  Customer Abuse 
 TCS .hr                122.75:  Time Ciculation Ended 
 CV  .mps                 2.67:  Crit Velocity 
 CVMX.mps                 3.56:  Max Crit Veloc 
 DD1 .          Rashad Habibov:  Direct Drillr 1 
 DD2 .         Rasim Ibrahimov:  Direct Drillr 2 
 DDSV.               Geo-Pilot:  DD Service 
 DEFF.%                  98.00:  % Det Eff 
 DLRX.°/30m               0.75:  Dogleg Rot Max 
 DLSO.°/30m               1.25:  Dogleg Oriented 
 DLSX.°/30m               2.06:  Dogleg Str Max 
 DRET.      07.45.00 17-May-20:  Drill End Time 
 DRST.      22.50.00 15-May-20:  Drill Start Tim 
 DTIM.hr                 20.75:  Time Drilling 
 EDEP.m                5124.01:  End Depth 
 ENG1.           Eldar Hajiyev:  Engineer 1 
 ENG2.        Marcelo Sandoval:  Engineer 2 
 ENG3.        Davud huseynzada:  Engineer 3 
 ENG4.          Ruslan Safarov:  Engineer 4 
 ETIM.      04.33.00 23-May-20:  End Time 
 FLOI.gpm               450.00:  Flow In 
 FLON.gpm               400.00:  Flow In Min 
 FLOS.cptm                0.00:  Fluid Loss 
 FLOX.gpm               500.00:  Flow In Max 
 FTRO.       Formation Presure:  FTWD Run Obj 
 HFLO.                      No:  High Flow 
 HPRE.                     Yes:  High Pressure 
 HTEM.                      No:  High Temp 
 HYDO.m                   1.80:  Hydro Offset 
 IFIN.deg                75.06:  Inc, Final 
 IMAX.deg                75.38:  Inc Max 
 IMIN.deg                74.69:  Inc Min 
 IMND.m                5027.38:  Inc Min Depth 
 IMXD.m                4771.61:  Inc Max Depth 
 JARR.                      No:  Jarring 
 LETM.      07.45.00 17-May-20:  Log End Time 
 LOST.hr                     0:  Lost Rig Time 
 LSTM.      22.50.00 15-May-20:  Log Start Time 
 MDCL.ppm             42000.00:  Mud Chlorides 
 MDES.     Inversion Oil/Synthetic:  Mud Desc 
 DFD .sg                  1.34:  Mud Density 
 MDMN.sg                  1.34:  Dens Mud Min 
 MDMX.sg                  1.34:  Dens Mud Max 
 MOIL.                       0:  Run Mud Oil % 
 MOWR.                   67:33:  Run Mud OWR 
 MSND.                       0:  Run Mud Sand % 
 MSOL.                     1.8:  Run Mud Solids% 
 DFV .spqt               76.00:  Mud Viscosity 
 MWOD.in                  6.75:  MWD Tool OD 
 MWSI.                      No:  Serv Intrp, MWD 
 OTIM.hr                228.19:  Time Operating 
 PCON.           Look Like New:  Pad Condition 
 PMAX.psia             6164.70:  Press Op, Max 
 PV  .cP                 28.00:  Mud PV 
 RUN .                     900:  Run Number 
 ROPA.m/hr               19.00:  ROP Avg 
 ROPN.m/hr               11.00:  ROP Min 
 ROPX.m/hr               36.00:  ROP Max 
 RPMA.rpm               120.00:  RPM Surface Avg 
 RPMN.rpm               120.00:  RPM Surface Min 
 RPMX.rpm               120.00:  RPM Surface Max 
 RRUN.                    L604:  Rig Run Number 
 RTIM.hr                  7.00:  Time Reaming 
 SAZI.deg               109.27:  Azm, Start 
 SDEP.m                4761.01:  Start Depth 
 SIDD.                      No:  Serv Intrp, DD 
 SINC.deg                75.38:  Inc, Start 
 SPPA.psig             3574.00:  SPP Avg 
 SPPN.psig             3475.00:  SPP Min 
 SPPX.psig             3791.00:  SPP Max 
 STIM.      07.08.48 13-May-20:  Start Time 
 SVCS.                 DD, MWD:  Services 
 SVER.                    9.20:  Sperry Version 
 TDAT.m                 363.00:  Tot Depth Attmp 
 TDDF.                      No:  Trip for DD 
 TDLG.m                 363.00:  Tot Depth Loggd 
 TFF .                      No:  Trip for Fail 
 TQAA.f-kp               20.00:  Torque Abs Avg 
 TQAN.f-kp               18.00:  Torque Abs Min 
 TQAX.f-kp               22.00:  Torque Abs Max 
 TRRT.°/30m              -0.35:  Turn Rotating 
 MRT .                    HCIM:  Maximum Recorded Temperature 
 TTMX.degC               92.16:  Max Tool Temp 
 VS01.                90586518:  Virtual Str1 SN 
 VS02.        AZ90560654Z1W1C6:  Virtual Str2 SN 
 VS03.           AZ90610398F11:  Virtual Str3 SN 
 VS04.                90514975:  Virtual Str4 SN 
 VS05.                90514972:  Virtual Str5 SN 
 VS06.     AZ90603282F11V7D1A6:  Virtual Str6 SN 
 WBMN.klb                 7.00:  WOB Min 
 WOBA.klb                12.00:  WOB Avg 
 WOBX.klb                14.00:  WOB Max 
 YP  .lhf2               32.00:  Yield Point 
~Curve Information Block
#MNEM.UNIT                 API CODE     Curve Description
#---------               -----------    ---------------------------
 TIME.HHMMSS            00 000 000 000:  GT Time & Date
 GTDEPTH.m              00 000 000 000:  GT Depth
 GTPQH.psia             00 000 000 000:  GT HR Quartz Pressure
 GTTQ.degC              00 000 000 000:  GT Quartz Temperature
 GTTN.NONE              00 000 000 000:  GT Test Number
 GTET.sec               00 000 000 000:  GT Elapsed Test Time
 GTTVD.m                00 000 000 000:  GT True Vertical Depth
#Other Information
#
#WARRANTY: Halliburton will use its best efforts to furnish customers with 
#accurate information and interpretations that are part of, and incident to, the services 
#provided.  However, Halliburton cannot and does not warrant the accuracy 
#or correctness of such information and interpretations.  Under no circumstances should any 
#such information or interpretation be relied upon as the sole basis for any drilling, 
#completion, production, or financial decision or any procedure involving any risk to the 
#safety of any drilling venture, drilling rig or its crew or any other third party.  The 
#Customer has full responsibility for all drilling, completion and production operation.  
#Halliburton makes no representations or warranties, either expressed or 
#implied, including, but not limited to, the implied warranties of merchantability or fitness 
#for a particular purpose, with respect to the services rendered.  In no event will 
#Halliburton be liable for failure to obtain any particular results or for 
#any damages, including, but not limited to, indirect, special or consequential damages, 
#resulting from the use of any information or interpretation provided by Halliburton.
#
~A           TIME           GTDEPTH  GTPQH  GTTQ  GTTN   GTET   GTTVD  
   21:13:20.465.18-May-2020 4766.01 5457.01 60.65 14.00   0.00 2532.29
   21:13:20.665.18-May-2020 4766.01 5457.01 60.65 14.00   0.20 2532.29
   21:13:20.866.18-May-2020 4766.01 5443.57 60.65 14.00   0.40 2532.29
   21:13:21.066.18-May-2020 4766.01 5444.59 60.65 14.00   0.60 2532.29
   21:13:21.266.18-May-2020 4766.01 5457.98 60.65 14.00   0.80 2532.29
   21:13:21.466.18-May-2020 4766.01 5448.31 60.65 14.00   1.00 2532.29
   21:13:21.666.18-May-2020 4766.01 5448.31 60.65 14.00   1.20 2532.29
   21:13:21.866.18-May-2020 4766.01 5444.66 60.65 14.00   1.40 2532.29
   21:13:22.066.18-May-2020 4766.01 5449.31 60.65 14.00   1.60 2532.29
   21:13:22.266.18-May-2020 4766.01 5450.13 60.65 14.00   1.80 2532.29
   21:13:22.466.18-May-2020 4766.01 5444.73 60.65 14.00   2.00 2532.29
   21:13:22.666.18-May-2020 4766.01 5444.36 60.65 14.00   2.20 2532.29
   21:13:22.866.18-May-2020 4766.01 5446.03 60.65 14.00   2.40 2532.29
   21:13:23.066.18-May-2020 4766.01 5446.65 60.65 14.00   2.60 2532.29
   21:13:23.266.18-May-2020 4766.01 5444.55 60.65 14.00   2.80 2532.29
   21:13:23.466.18-May-2020 4766.01 5444.95 60.65 14.00   3.00 2532.29
   21:13:23.666.18-May-2020 4766.01 5444.95 60.65 14.00   3.20 2532.29
   21:13:23.866.18-May-2020 4766.01 5442.71 60.65 14.00   3.40 2532.29
   21:13:24.066.18-May-2020 4766.01 5446.06 60.65 14.00   3.60 2532.29
   21:13:24.266.18-May-2020 4766.01 5445.44 60.65 14.00   3.80 2532.29
   21:13:24.466.18-May-2020 4766.01 5455.34 60.65 14.00   4.00 2532.29
   21:13:24.667.18-May-2020 4766.01 5455.34 60.65 14.00   4.20 2532.29
   21:13:24.867.18-May-2020 4766.01 5447.32 60.65 14.00   4.40 2532.29
   21:13:25.067.18-May-2020 4766.01 5448.78 60.65 14.00   4.60 2532.29
   21:13:25.267.18-May-2020 4766.01 5450.89 60.65 14.00   4.80 2532.29
   21:13:25.467.18-May-2020 4766.01 5450.17 60.65 14.00   5.00 2532.29
   21:13:25.667.18-May-2020 4766.01 5450.17 60.65 14.00   5.20 2532.29
   21:13:25.867.18-May-2020 4766.01 5458.86 60.65 14.00   5.40 2532.29
   21:13:26.067.18-May-2020 4766.01 5455.59 60.65 14.00   5.60 2532.29
   21:13:26.267.18-May-2020 4766.01 5452.34 60.65 14.00   5.80 2532.29
   21:13:26.467.18-May-2020 4766.01 5452.07 60.65 14.00   6.00 2532.29
   21:13:26.667.18-May-2020 4766.01 5460.46 60.65 14.00   6.20 2532.29
   21:13:26.867.18-May-2020 4766.01 5467.10 60.65 14.00   6.40 2532.29
   21:13:27.067.18-May-2020 4766.01 5454.61 60.65 14.00   6.60 2532.29
   21:13:27.267.18-May-2020 4766.01 5454.91 60.65 14.00   6.80 2532.29
   21:13:27.467.18-May-2020 4766.01 5457.99 60.65 14.00   7.00 2532.29
   21:13:27.667.18-May-2020 4766.01 5457.99 60.65 14.00   7.20 2532.29
   21:13:27.867.18-May-2020 4766.01 5455.49 60.65 14.00   7.40 2532.29
   21:13:28.067.18-May-2020 4766.01 5457.00 60.65 14.00   7.60 2532.29
   21:13:28.267.18-May-2020 4766.01 5456.90 60.65 14.00   7.80 2532.29
   21:13:28.468.18-May-2020 4766.01 5482.73 60.65 14.00   8.00 2532.29
   21:13:28.668.18-May-2020 4766.01 5482.73 60.65 14.00   8.20 2532.29
   21:13:28.868.18-May-2020 4766.01 5482.73 60.65 14.00   8.40 2532.29
   21:13:29.068.18-May-2020 4766.01 5467.45 60.65 14.00   8.60 2532.29
   21:13:29.268.18-May-2020 4766.01 5471.07 60.65 14.00   8.80 2532.29
   21:13:29.468.18-May-2020 4766.01 5463.88 60.65 14.00   9.00 2532.29
   21:13:29.668.18-May-2020 4766.01 5463.88 60.65 14.00   9.20 2532.29
   21:13:29.868.18-May-2020 4766.01 5479.37 60.65 14.00   9.40 2532.29
   21:13:30.068.18-May-2020 4766.01 5464.02 60.65 14.00   9.60 2532.29
   21:13:30.268.18-May-2020 4766.01 5463.29 60.65 14.00   9.80 2532.29
   21:13:30.468.18-May-2020 4766.01 5460.28 60.65 14.00  10.00 2532.29
   21:13:30.668.18-May-2020 4766.01 5471.07 60.65 14.00  10.20 2532.29
   21:13:30.868.18-May-2020 4766.01 5464.66 60.65 14.00  10.40 2532.29
   21:13:31.068.18-May-2020 4766.01 5461.83 60.65 14.00  10.60 2532.29
   21:13:31.268.18-May-2020 4766.01 5461.33 60.65 14.00  10.80 2532.29
   21:13:31.468.18-May-2020 4766.01 5463.62 60.65 14.00  11.00 2532.29
   21:13:31.668.18-May-2020 4766.01 5463.62 60.65 14.00  11.20 2532.29
   21:13:31.868.18-May-2020 4766.01 5473.19 60.65 14.00  11.40 2532.29
   21:13:32.068.18-May-2020 4766.01 5461.95 60.65 14.00  11.60 2532.29
   21:13:32.269.18-May-2020 4766.01 5463.13 60.65 14.00  11.80 2532.29
   21:13:32.469.18-May-2020 4766.01 5462.48 60.65 14.00  12.00 2532.29
   21:13:32.669.18-May-2020 4766.01 5462.48 60.65 14.00  12.20 2532.29
   21:13:32.869.18-May-2020 4766.01 5465.97 60.65 14.00  12.40 2532.29
   21:13:33.069.18-May-2020 4766.01 5463.09 60.65 14.00  12.60 2532.29
   21:13:33.269.18-May-2020 4766.01 5463.36 60.65 14.00  12.80 2532.29
   21:13:33.469.18-May-2020 4766.01 5464.78 60.65 14.00  13.00 2532.29
   21:13:33.669.18-May-2020 4766.01 5464.78 60.65 14.00  13.20 2532.29
   21:13:33.869.18-May-2020 4766.01 5464.28 60.65 14.00  13.40 2532.29
   21:13:34.069.18-May-2020 4766.01 5469.96 60.65 14.00  13.60 2532.29
   21:13:34.269.18-May-2020 4766.01 5470.93 60.65 14.00  13.80 2532.29
   21:13:34.469.18-May-2020 4766.01 5465.36 60.65 14.00  14.00 2532.29
   21:13:34.669.18-May-2020 4766.01 5465.07 60.65 14.00  14.20 2532.29
   21:13:34.869.18-May-2020 4766.01 5481.16 60.65 14.00  14.40 2532.29
   21:13:35.069.18-May-2020 4766.01 5471.06 60.65 14.00  14.60 2532.29
   21:13:35.269.18-May-2020 4766.01 5467.75 60.65 14.00  14.80 2532.29
   21:13:35.469.18-May-2020 4766.01 5465.66 60.65 14.00  15.00 2532.29
   21:13:35.669.18-May-2020 4766.01 5465.66 60.65 14.00  15.20 2532.29
   21:13:35.869.18-May-2020 4766.01 5471.18 60.65 14.00  15.40 2532.29
   21:13:36.070.18-May-2020 4766.01 5467.95 60.65 14.00  15.60 2532.29
   21:13:36.270.18-May-2020 4766.01 5466.84 60.65 14.00  15.80 2532.29
   21:13:36.470.18-May-2020 4766.01 5477.07 60.65 14.00  16.00 2532.29
   21:13:36.670.18-May-2020 4766.01 5477.07 60.65 14.00  16.20 2532.29
   21:13:36.870.18-May-2020 4766.01 5476.70 60.65 14.00  16.40 2532.29
   21:13:37.070.18-May-2020 4766.01 5468.48 60.65 14.00  16.60 2532.29
   21:13:37.270.18-May-2020 4766.01 5472.19 60.65 14.00  16.80 2532.29
   21:13:37.470.18-May-2020 4766.01 5474.29 60.65 14.00  17.00 2532.29
   21:13:37.670.18-May-2020 4766.01 5474.29 60.65 14.00  17.20 2532.29
   21:13:37.870.18-May-2020 4766.01 5470.08 60.65 14.00  17.40 2532.29
   21:13:38.070.18-May-2020 4766.01 5471.30 60.65 14.00  17.60 2532.29
   21:13:38.270.18-May-2020 4766.01 5472.29 60.65 14.00  17.80 2532.29
   21:13:38.470.18-May-2020 4766.01 5471.92 60.65 14.00  18.00 2532.29
   21:13:38.670.18-May-2020 4766.01 5471.92 60.65 14.00  18.20 2532.29
   21:13:38.870.18-May-2020 4766.01 5482.07 60.65 14.00  18.40 2532.29
   21:13:39.070.18-May-2020 4766.01 5469.52 60.65 14.00  18.60 2532.29
   21:13:39.270.18-May-2020 4766.01 5471.51 60.65 14.00  18.80 2532.29
   21:13:39.470.18-May-2020 4766.01 5470.50 60.65 14.00  19.01 2532.29
   21:13:39.671.18-May-2020 4766.01 5479.69 60.65 14.00  19.21 2532.29
   21:13:39.871.18-May-2020 4766.01 5471.93 60.65 14.00  19.41 2532.29
   21:13:40.071.18-May-2020 4766.01 5471.69 60.65 14.00  19.61 2532.29
   21:13:40.271.18-May-2020 4766.01 5472.56 60.65 14.00  19.81 2532.29
   21:13:40.471.18-May-2020 4766.01 5473.99 60.65 14.00  20.01 2532.29
   21:13:40.671.18-May-2020 4766.01 5473.99 60.65 14.00  20.21 2532.29
   21:13:40.871.18-May-2020 4766.01 5472.36 60.65 14.00  20.41 2532.29
   21:13:41.071.18-May-2020 4766.01 5486.02 60.65 14.00  20.61 2532.29
   21:13:41.271.18-May-2020 4766.01 5469.66 60.65 14.00  20.81 2532.29
   21:13:41.471.18-May-2020 4766.01 5473.54 60.65 14.00  21.01 2532.29
   21:13:41.671.18-May-2020 4766.01 5482.09 60.65 14.00  21.21 2532.29
   21:13:41.871.18-May-2020 4766.01 5483.44 60.65 14.00  21.41 2532.29
   21:13:42.071.18-May-2020 4766.01 5475.01 60.65 14.00  21.61 2532.29
   21:13:42.271.18-May-2020 4766.01 5473.96 60.65 14.00  21.81 2532.29
   21:13:42.471.18-May-2020 4766.01 5481.15 60.65 14.00  22.01 2532.29
   21:13:42.671.18-May-2020 4766.01 5492.03 60.65 14.00  22.21 2532.29
   21:13:42.871.18-May-2020 4766.01 5475.71 60.65 14.00  22.41 2532.29
