~Version Information
 VERS.                  2.0:   CWLS log ASCII Standard -VERSION 2.0
 WRAP.                   NO:   One line per depth step
~Well Information Block
#MNEM.UNIT     VALUE/NAME     DESCRIPTION
#---------     -----------    ---------------------------
 STRT.S             23:36:46 17-May-20: START TIME 23:36:46 17-May-20
 STOP.S             23:44:24 17-May-20: STOP TIME  23:44:24 17-May-20
 STEP.S                   0.00: STEP TIME
 NULL.                 -999.25: NULL VALUE
 UNIT.                     N/A:  LOGGING EQUIPMENT ID
 DCON.         Sperry Drilling:  DIRECTNL CONTR
 DOE .                     N/A:  DOE NUMBER
 JOBN.        AZ-XX-0906252240:  JOB TICKET NUMB
 MWDS.                     N/A:  MWD SHOP
 PROV.                    Baku:  PROVINCE
 STAT.                    Baku:  STATE NAME
 REGN.                   EESSA:  REGION
 BASE.              Azerbaijan:  LOGGING EQUIPMENT BASE LOCATION
 UWI .                     N/A:  UNIQUE WELL IDENTIFIER
 API .                     N/A:  API NUMBER
 MDS .        Operator Entered:  MAG DATA SOURCE
 WTYP.                Deviated:  WELL TYPE
 COMP.     BP Exploration (Caspian Sea) Ltd.:  COMPANY
 SRVC.          Turan Drilling:  CONTRACTOR
 WELL.           J23 (Slot 07):  WELL NAME
 CTRY.              Azerbaijan:  COUNTRY NAME
 FLD .                     ACG:  FIELD NAME
 PDAT.          Mean Sea Level:  PERMANENT DATUM
 RIG .             West Chirag:  RIG NAME
 SON .        AZ-XX-0906252240:  JOB NUMBER
 FTOP.          Formation Tops:  FORM TOPS DESC
 ILTD.               Lithology:  INTERP LTH DESC
 SVYD.                  Survey:  SURVEY DESC
 DMOD.             Drill Model:  DRILL MOD DESC
 HPTY.       Minimum Curvature:  HOLE POS TYPE
 NREF.                    Grid:  NORTH REFERENCE
 SPUD.               27-Aug-20:  SPUD DATE
 DATE.      00.00.00 19-May-20:  END TIME
 STIM.      03.00.00 25-Mar-20:  START TIME
 DMF .             Drill Floor:  DRILL MEAS FROM
 DFST.                        :  DIST FSL TEXT
 DFWT.                        :  DIST FWL TEXT
 CNTY.                        :  COUNTY
 LOC .                        :  LOCATION
 LMF .             Drill Floor:  LOG MEASURED FROM
 VSNS.m                   9.43:  VERT SEC N/S
 VSEW.m                  -8.91:  VERT SEC E/W
 AGAP.m                  43.00:  AIR GAP
 DEP .m                 354.17:  DEPTH
 APD .m                  43.00:  DEPTH ABOVE PD
 WDMS.m                 169.80:  WD ELEV
 EGL .m                   0.00:  GROUND ELEVATION
 EPD .m                   0.00:  ELEVATION
 AZTC.deg                 6.31:  AZM TOTAL CORR
 GRDC.deg                 0.14:  GRID CORRECTION
 MDEC.deg                 6.45:  MAGNETIC DECL
 MDIP.deg                59.56:  MAGNETIC DIP
 MFLD.nT              50295.00:  MAGNETIC FIELD
 GVFD.g                   1.00:  GRAVITY FIELD
 VSDR.deg               179.88:  VERT SEC DIRECT
 TDD .m                5150.01:  TOTAL DEPTH (DRILLER)
 SDEP.m                 864.00:  START DEPTH
 DFSL.m                   0.00:  DISTANCE FSL
 DFWL.m                   0.00:  DISTANCE FWL
 UTMY.m             4443793.85:  UTM Y
 UTMX.m              519005.06:  UTM X
 WHEW.m                  -8.91:  WELL HEAD E/W
 WHNS.m                   9.43:  WELL HEAD N/S
 LONG.deg                51.22:  LONGITUDE
 LATI.deg                40.13:  LATITUDE
 TVDS.m                  43.00:  TVDSS CORRECTN
 EKB .m                   0.00:  KB ELEVATION
 EDF .m                  43.00:  DF ELEVATION
 TDL .m                 363.00:  TOTAL DEPTH (LOGGER)
 MAGU.                 1850802:  MAGUTM CHECKSUM
 VSC .                       0:  VS TO CLOSURE
~Parameter Information Block
#MNEM.UNIT       Value        Description
#---------     -----------    ---------------------------
 AV  .mps                 2.30:  Ann Velocity 
 AVMX.mps                 4.40:  Max Ann Veloc 
 AZIF.deg               110.24:  Azm, Final 
 BHAT.        Rotary Steerable:  BHA Type 
 BREV.rev               331.00:  Rev Bit Total 
 BROT.°/30m               0.00:  Build Rotating 
 BS  .in                  8.50:  Bit Size 
 BSZ .in                  8.50:  Bit Size 
 BTPL.psig              585.00:  Bit Press Loss 
 CABU.                     Yes:  Customer Abuse 
 TCS .hr                122.75:  Time Ciculation Ended 
 CV  .mps                 2.67:  Crit Velocity 
 CVMX.mps                 3.56:  Max Crit Veloc 
 DD1 .          Rashad Habibov:  Direct Drillr 1 
 DD2 .         Rasim Ibrahimov:  Direct Drillr 2 
 DDSV.               Geo-Pilot:  DD Service 
 DEFF.%                  98.00:  % Det Eff 
 DLRX.°/30m               0.75:  Dogleg Rot Max 
 DLSO.°/30m               1.25:  Dogleg Oriented 
 DLSX.°/30m               2.06:  Dogleg Str Max 
 DRET.      07.45.00 17-May-20:  Drill End Time 
 DRST.      22.50.00 15-May-20:  Drill Start Tim 
 DTIM.hr                 20.75:  Time Drilling 
 EDEP.m                5124.01:  End Depth 
 ENG1.           Eldar Hajiyev:  Engineer 1 
 ENG2.        Marcelo Sandoval:  Engineer 2 
 ENG3.        Davud huseynzada:  Engineer 3 
 ENG4.          Ruslan Safarov:  Engineer 4 
 ETIM.      04.33.00 23-May-20:  End Time 
 FLOI.gpm               450.00:  Flow In 
 FLON.gpm               400.00:  Flow In Min 
 FLOS.cptm                0.00:  Fluid Loss 
 FLOX.gpm               500.00:  Flow In Max 
 FTRO.       Formation Presure:  FTWD Run Obj 
 HFLO.                      No:  High Flow 
 HPRE.                     Yes:  High Pressure 
 HTEM.                      No:  High Temp 
 HYDO.m                   1.80:  Hydro Offset 
 IFIN.deg                75.06:  Inc, Final 
 IMAX.deg                75.38:  Inc Max 
 IMIN.deg                74.69:  Inc Min 
 IMND.m                5027.38:  Inc Min Depth 
 IMXD.m                4771.61:  Inc Max Depth 
 JARR.                      No:  Jarring 
 LETM.      07.45.00 17-May-20:  Log End Time 
 LOST.hr                     0:  Lost Rig Time 
 LSTM.      22.50.00 15-May-20:  Log Start Time 
 MDCL.ppm             42000.00:  Mud Chlorides 
 MDES.     Inversion Oil/Synthetic:  Mud Desc 
 DFD .sg                  1.34:  Mud Density 
 MDMN.sg                  1.34:  Dens Mud Min 
 MDMX.sg                  1.34:  Dens Mud Max 
 MOIL.                       0:  Run Mud Oil % 
 MOWR.                   67:33:  Run Mud OWR 
 MSND.                       0:  Run Mud Sand % 
 MSOL.                     1.8:  Run Mud Solids% 
 DFV .spqt               76.00:  Mud Viscosity 
 MWOD.in                  6.75:  MWD Tool OD 
 MWSI.                      No:  Serv Intrp, MWD 
 OTIM.hr                228.19:  Time Operating 
 PCON.           Look Like New:  Pad Condition 
 PMAX.psia             6164.70:  Press Op, Max 
 PV  .cP                 28.00:  Mud PV 
 RUN .                     900:  Run Number 
 ROPA.m/hr               19.00:  ROP Avg 
 ROPN.m/hr               11.00:  ROP Min 
 ROPX.m/hr               36.00:  ROP Max 
 RPMA.rpm               120.00:  RPM Surface Avg 
 RPMN.rpm               120.00:  RPM Surface Min 
 RPMX.rpm               120.00:  RPM Surface Max 
 RRUN.                    L604:  Rig Run Number 
 RTIM.hr                  7.00:  Time Reaming 
 SAZI.deg               109.27:  Azm, Start 
 SDEP.m                4761.01:  Start Depth 
 SIDD.                      No:  Serv Intrp, DD 
 SINC.deg                75.38:  Inc, Start 
 SPPA.psig             3574.00:  SPP Avg 
 SPPN.psig             3475.00:  SPP Min 
 SPPX.psig             3791.00:  SPP Max 
 STIM.      07.08.48 13-May-20:  Start Time 
 SVCS.                 DD, MWD:  Services 
 SVER.                    9.20:  Sperry Version 
 TDAT.m                 363.00:  Tot Depth Attmp 
 TDDF.                      No:  Trip for DD 
 TDLG.m                 363.00:  Tot Depth Loggd 
 TFF .                      No:  Trip for Fail 
 TQAA.f-kp               20.00:  Torque Abs Avg 
 TQAN.f-kp               18.00:  Torque Abs Min 
 TQAX.f-kp               22.00:  Torque Abs Max 
 TRRT.°/30m              -0.35:  Turn Rotating 
 MRT .                    HCIM:  Maximum Recorded Temperature 
 TTMX.degC               92.16:  Max Tool Temp 
 VS01.                90586518:  Virtual Str1 SN 
 VS02.        AZ90560654Z1W1C6:  Virtual Str2 SN 
 VS03.           AZ90610398F11:  Virtual Str3 SN 
 VS04.                90514975:  Virtual Str4 SN 
 VS05.                90514972:  Virtual Str5 SN 
 VS06.     AZ90603282F11V7D1A6:  Virtual Str6 SN 
 WBMN.klb                 7.00:  WOB Min 
 WOBA.klb                12.00:  WOB Avg 
 WOBX.klb                14.00:  WOB Max 
 YP  .lhf2               32.00:  Yield Point 
~Curve Information Block
#MNEM.UNIT                 API CODE     Curve Description
#---------               -----------    ---------------------------
 TIME.HHMMSS            00 000 000 000:  GT Time & Date
 GTDEPTH.m              00 000 000 000:  GT Depth
 GTPQH.psia             00 000 000 000:  GT HR Quartz Pressure
 GTTQ.degC              00 000 000 000:  GT Quartz Temperature
 GTTN.NONE              00 000 000 000:  GT Test Number
 GTET.sec               00 000 000 000:  GT Elapsed Test Time
 GTTVD.m                00 000 000 000:  GT True Vertical Depth
#Other Information
#
#WARRANTY: Halliburton will use its best efforts to furnish customers with 
#accurate information and interpretations that are part of, and incident to, the services 
#provided.  However, Halliburton cannot and does not warrant the accuracy 
#or correctness of such information and interpretations.  Under no circumstances should any 
#such information or interpretation be relied upon as the sole basis for any drilling, 
#completion, production, or financial decision or any procedure involving any risk to the 
#safety of any drilling venture, drilling rig or its crew or any other third party.  The 
#Customer has full responsibility for all drilling, completion and production operation.  
#Halliburton makes no representations or warranties, either expressed or 
#implied, including, but not limited to, the implied warranties of merchantability or fitness 
#for a particular purpose, with respect to the services rendered.  In no event will 
#Halliburton be liable for failure to obtain any particular results or for 
#any damages, including, but not limited to, indirect, special or consequential damages, 
#resulting from the use of any information or interpretation provided by Halliburton.
#
~A           TIME           GTDEPTH  GTPQH  GTTQ  GTTN  GTET   GTTVD  
# ...
   23:44:02.848.17-May-2020 4902.01 5503.24 66.30 9.00 436.78 2567.50
   23:44:03.048.17-May-2020 4902.01 5503.24 66.30 9.00 436.98 2567.50
   23:44:03.248.17-May-2020 4902.01 5500.51 66.30 9.00 437.18 2567.50
   23:44:03.448.17-May-2020 4902.01 5504.01 66.30 9.00 437.38 2567.50
   23:44:03.647.17-May-2020 4902.01 5500.41 66.30 9.00 437.58 2567.50
   23:44:03.847.17-May-2020 4902.01 5500.83 66.30 9.00 437.78 2567.50
   23:44:04.047.17-May-2020 4902.01 5500.83 66.30 9.00 437.98 2567.50
   23:44:04.247.17-May-2020 4902.01 5499.95 66.30 9.00 438.18 2567.50
   23:44:04.447.17-May-2020 4902.01 5498.74 66.30 9.00 438.38 2567.50
   23:44:04.647.17-May-2020 4902.01 5511.32 66.30 9.00 438.57 2567.50
   23:44:04.847.17-May-2020 4902.01 5494.41 66.30 9.00 438.77 2567.50
   23:44:05.047.17-May-2020 4902.01 5494.41 66.30 9.00 438.97 2567.50
   23:44:05.247.17-May-2020 4902.01 5496.79 66.30 9.00 439.17 2567.50
   23:44:05.447.17-May-2020 4902.01 5503.83 66.30 9.00 439.37 2567.50
   23:44:05.646.17-May-2020 4902.01 5496.94 66.30 9.00 439.57 2567.50
   23:44:05.846.17-May-2020 4902.01 5500.41 66.30 9.00 439.77 2567.50
   23:44:06.046.17-May-2020 4902.01 5500.41 66.30 9.00 439.97 2567.50
   23:44:06.246.17-May-2020 4902.01 5498.89 66.29 9.00 440.17 2567.50
   23:44:06.446.17-May-2020 4902.01 5497.89 66.30 9.00 440.37 2567.50
   23:44:06.646.17-May-2020 4902.01 5498.15 66.29 9.00 440.57 2567.50
   23:44:06.846.17-May-2020 4902.01 5513.34 66.29 9.00 440.77 2567.50
   23:44:07.046.17-May-2020 4902.01 5513.34 66.29 9.00 440.97 2567.50
   23:44:07.246.17-May-2020 4902.01 5506.30 66.29 9.00 441.17 2567.50
   23:44:07.445.17-May-2020 4902.01 5499.27 66.29 9.00 441.37 2567.50
   23:44:07.645.17-May-2020 4902.01 5517.56 66.29 9.00 441.57 2567.50
   23:44:07.845.17-May-2020 4902.01 5491.51 66.29 9.00 441.77 2567.50
   23:44:08.045.17-May-2020 4902.01 5491.51 66.29 9.00 441.97 2567.50
   23:44:08.245.17-May-2020 4902.01 5498.07 66.29 9.00 442.17 2567.50
   23:44:08.445.17-May-2020 4902.01 5504.29 66.29 9.00 442.37 2567.50
   23:44:08.645.17-May-2020 4902.01 5512.28 66.29 9.00 442.57 2567.50
   23:44:08.845.17-May-2020 4902.01 5495.86 66.29 9.00 442.77 2567.50
   23:44:09.045.17-May-2020 4902.01 5495.86 66.29 9.00 442.97 2567.50
   23:44:09.245.17-May-2020 4902.01 5514.00 66.29 9.00 443.17 2567.50
   23:44:09.444.17-May-2020 4902.01 5498.76 66.29 9.00 443.37 2567.50
   23:44:09.644.17-May-2020 4902.01 5509.45 66.29 9.00 443.57 2567.50
   23:44:09.844.17-May-2020 4902.01 5501.53 66.29 9.00 443.77 2567.50
   23:44:10.044.17-May-2020 4902.01 5501.53 66.29 9.00 443.97 2567.50
   23:44:10.244.17-May-2020 4902.01 5499.53 66.29 9.00 444.17 2567.50
   23:44:10.444.17-May-2020 4902.01 5503.06 66.29 9.00 444.37 2567.50
   23:44:10.644.17-May-2020 4902.01 5499.69 66.29 9.00 444.57 2567.50
   23:44:10.844.17-May-2020 4902.01 5500.21 66.29 9.00 444.77 2567.50
   23:44:11.044.17-May-2020 4902.01 5500.21 66.29 9.00 444.97 2567.50
   23:44:11.244.17-May-2020 4902.01 5515.39 66.29 9.00 445.17 2567.50
   23:44:11.443.17-May-2020 4902.01 5491.09 66.29 9.00 445.37 2567.50
   23:44:11.643.17-May-2020 4902.01 5506.82 66.29 9.00 445.57 2567.50
   23:44:11.843.17-May-2020 4902.01 5499.33 66.29 9.00 445.77 2567.50
   23:44:12.043.17-May-2020 4902.01 5499.33 66.29 9.00 445.97 2567.50
   23:44:12.243.17-May-2020 4902.01 5498.63 66.29 9.00 446.17 2567.50
   23:44:12.443.17-May-2020 4902.01 5500.25 66.29 9.00 446.37 2567.50
   23:44:12.643.17-May-2020 4902.01 5497.79 66.29 9.00 446.57 2567.50
   23:44:12.843.17-May-2020 4902.01 5498.48 66.29 9.00 446.77 2567.50
   23:44:13.043.17-May-2020 4902.01 5498.48 66.29 9.00 446.97 2567.50
   23:44:13.243.17-May-2020 4902.01 5497.72 66.29 9.00 447.17 2567.50
   23:44:13.442.17-May-2020 4902.01 5508.38 66.29 9.00 447.37 2567.50
   23:44:13.642.17-May-2020 4902.01 5496.37 66.29 9.00 447.57 2567.50
   23:44:13.842.17-May-2020 4902.01 5501.56 66.29 9.00 447.77 2567.50
   23:44:14.042.17-May-2020 4902.01 5501.56 66.29 9.00 447.97 2567.50
   23:44:14.242.17-May-2020 4902.01 5512.55 66.29 9.00 448.17 2567.50
   23:44:14.442.17-May-2020 4902.01 5496.85 66.29 9.00 448.37 2567.50
   23:44:14.642.17-May-2020 4902.01 5504.85 66.29 9.00 448.57 2567.50
   23:44:14.842.17-May-2020 4902.01 5502.90 66.29 9.00 448.77 2567.50
   23:44:15.042.17-May-2020 4902.01 5502.90 66.29 9.00 448.97 2567.50
   23:44:15.241.17-May-2020 4902.01 5517.43 66.29 9.00 449.17 2567.50
   23:44:15.441.17-May-2020 4902.01 5492.26 66.29 9.00 449.37 2567.50
   23:44:15.641.17-May-2020 4902.01 5507.86 66.29 9.00 449.57 2567.50
   23:44:15.841.17-May-2020 4902.01 5511.16 66.29 9.00 449.77 2567.50
   23:44:16.041.17-May-2020 4902.01 5511.16 66.29 9.00 449.97 2567.50
   23:44:16.241.17-May-2020 4902.01 5502.77 66.29 9.00 450.17 2567.50
   23:44:16.441.17-May-2020 4902.01 5508.25 66.29 9.00 450.37 2567.50
   23:44:16.641.17-May-2020 4902.01 5499.13 66.29 9.00 450.57 2567.50
   23:44:16.841.17-May-2020 4902.01 5503.06 66.29 9.00 450.77 2567.50
   23:44:17.041.17-May-2020 4902.01 5503.06 66.29 9.00 450.97 2567.50
   23:44:17.240.17-May-2020 4902.01 5500.68 66.29 9.00 451.17 2567.50
   23:44:17.440.17-May-2020 4902.01 5498.75 66.29 9.00 451.37 2567.50
   23:44:17.640.17-May-2020 4902.01 5499.50 66.29 9.00 451.57 2567.50
   23:44:17.840.17-May-2020 4902.01 5502.27 66.29 9.00 451.77 2567.50
   23:44:18.040.17-May-2020 4902.01 5502.27 66.29 9.00 451.97 2567.50
   23:44:18.240.17-May-2020 4902.01 5498.01 66.29 9.00 452.17 2567.50
   23:44:18.440.17-May-2020 4902.01 5506.58 66.29 9.00 452.37 2567.50
   23:44:18.640.17-May-2020 4902.01 5496.84 66.29 9.00 452.57 2567.50
   23:44:18.840.17-May-2020 4902.01 5501.59 66.29 9.00 452.77 2567.50
   23:44:19.040.17-May-2020 4902.01 5501.59 66.29 9.00 452.97 2567.50
   23:44:19.239.17-May-2020 4902.01 5498.68 66.29 9.00 453.17 2567.50
   23:44:19.439.17-May-2020 4902.01 5496.87 66.29 9.00 453.37 2567.50
   23:44:19.639.17-May-2020 4902.01 5498.03 66.29 9.00 453.57 2567.50
   23:44:19.839.17-May-2020 4902.01 5496.84 66.29 9.00 453.77 2567.50
   23:44:20.039.17-May-2020 4902.01 5496.84 66.29 9.00 453.97 2567.50
   23:44:20.239.17-May-2020 4902.01 5509.61 66.29 9.00 454.17 2567.50
   23:44:20.439.17-May-2020 4902.01 5492.96 66.29 9.00 454.37 2567.50
   23:44:20.639.17-May-2020 4902.01 5508.06 66.29 9.00 454.57 2567.50
   23:44:20.839.17-May-2020 4902.01 5497.02 66.29 9.00 454.77 2567.50
   23:44:21.039.17-May-2020 4902.01 5497.02 66.29 9.00 454.97 2567.50
   23:44:21.238.17-May-2020 4902.01 5494.36 66.29 9.00 455.17 2567.50
   23:44:21.438.17-May-2020 4902.01 5510.85 66.29 9.00 455.37 2567.50
   23:44:21.638.17-May-2020 4902.01 5495.99 66.29 9.00 455.57 2567.50
   23:44:21.838.17-May-2020 4902.01 5504.36 66.29 9.00 455.77 2567.50
   23:44:22.038.17-May-2020 4902.01 5504.36 66.29 9.00 455.97 2567.50
   23:44:22.238.17-May-2020 4902.01 5496.56 66.29 9.00 456.17 2567.50
   23:44:22.438.17-May-2020 4902.01 5508.41 66.29 9.00 456.37 2567.50
   23:44:22.638.17-May-2020 4902.01 5499.34 66.29 9.00 456.57 2567.50
   23:44:22.838.17-May-2020 4902.01 5514.80 66.29 9.00 456.77 2567.50
   23:44:23.037.17-May-2020 4902.01 5514.80 66.29 9.00 456.97 2567.50
   23:44:23.237.17-May-2020 4902.01 5512.13 66.29 9.00 457.17 2567.50
   23:44:23.437.17-May-2020 4902.01 5497.52 66.29 9.00 457.37 2567.50
   23:44:23.637.17-May-2020 4902.01 5505.30 66.29 9.00 457.57 2567.50
   23:44:23.837.17-May-2020 4902.01 5498.43 66.29 9.00 457.77 2567.50
   23:44:24.037.17-May-2020 4902.01 5498.43 66.29 9.00 457.96 2567.50
   23:44:24.237.17-May-2020 4902.01 5498.75 66.29 9.00 458.16 2567.50
   23:44:24.437.17-May-2020 4902.01 5499.27 66.29 9.00 458.36 2567.50
   23:44:24.637.17-May-2020 4902.01 5497.96 66.29 9.00 458.56 2567.50
