~Version Information
 VERS.                  2.0:   CWLS log ASCII Standard -VERSION 2.0
 WRAP.                   NO:   One line per depth step
~Well Information Block
#MNEM.UNIT     VALUE/NAME     DESCRIPTION
#---------     -----------    ---------------------------
 STRT.S             12:13:26 20-May-20: START TIME 12:13:26 20-May-20
 STOP.S             12:20:31 20-May-20: STOP TIME  12:20:31 20-May-20
 STEP.S                   0.00: STEP TIME
 NULL.                 -999.25: NULL VALUE
 UNIT.                     N/A:  LOGGING EQUIPMENT ID
 DCON.         Sperry Drilling:  DIRECTNL CONTR
 DOE .                     N/A:  DOE NUMBER
 JOBN.        AZ-XX-0906252240:  JOB TICKET NUMB
 MWDS.                     N/A:  MWD SHOP
 PROV.                    Baku:  PROVINCE
 STAT.                    Baku:  STATE NAME
 REGN.                   EESSA:  REGION
 BASE.              Azerbaijan:  LOGGING EQUIPMENT BASE LOCATION
 UWI .                     N/A:  UNIQUE WELL IDENTIFIER
 API .                     N/A:  API NUMBER
 MDS .        Operator Entered:  MAG DATA SOURCE
 WTYP.                Deviated:  WELL TYPE
 COMP.     BP Exploration (Caspian Sea) Ltd.:  COMPANY
 SRVC.          Turan Drilling:  CONTRACTOR
 WELL.           J23 (Slot 07):  WELL NAME
 CTRY.              Azerbaijan:  COUNTRY NAME
 FLD .                     ACG:  FIELD NAME
 PDAT.          Mean Sea Level:  PERMANENT DATUM
 RIG .             West Chirag:  RIG NAME
 SON .        AZ-XX-0906252240:  JOB NUMBER
 FTOP.          Formation Tops:  FORM TOPS DESC
 ILTD.               Lithology:  INTERP LTH DESC
 SVYD.                  Survey:  SURVEY DESC
 DMOD.             Drill Model:  DRILL MOD DESC
 HPTY.       Minimum Curvature:  HOLE POS TYPE
 NREF.                    Grid:  NORTH REFERENCE
 SPUD.               27-Aug-20:  SPUD DATE
 DATE.      00.00.00 19-May-20:  END TIME
 STIM.      03.00.00 25-Mar-20:  START TIME
 DMF .             Drill Floor:  DRILL MEAS FROM
 DFST.                        :  DIST FSL TEXT
 DFWT.                        :  DIST FWL TEXT
 CNTY.                        :  COUNTY
 LOC .                        :  LOCATION
 LMF .             Drill Floor:  LOG MEASURED FROM
 VSNS.m                   9.43:  VERT SEC N/S
 VSEW.m                  -8.91:  VERT SEC E/W
 AGAP.m                  43.00:  AIR GAP
 DEP .m                 354.17:  DEPTH
 APD .m                  43.00:  DEPTH ABOVE PD
 WDMS.m                 169.80:  WD ELEV
 EGL .m                   0.00:  GROUND ELEVATION
 EPD .m                   0.00:  ELEVATION
 AZTC.deg                 6.31:  AZM TOTAL CORR
 GRDC.deg                 0.14:  GRID CORRECTION
 MDEC.deg                 6.45:  MAGNETIC DECL
 MDIP.deg                59.56:  MAGNETIC DIP
 MFLD.nT              50295.00:  MAGNETIC FIELD
 GVFD.g                   1.00:  GRAVITY FIELD
 VSDR.deg               179.88:  VERT SEC DIRECT
 TDD .m                5150.01:  TOTAL DEPTH (DRILLER)
 SDEP.m                 864.00:  START DEPTH
 DFSL.m                   0.00:  DISTANCE FSL
 DFWL.m                   0.00:  DISTANCE FWL
 UTMY.m             4443793.85:  UTM Y
 UTMX.m              519005.06:  UTM X
 WHEW.m                  -8.91:  WELL HEAD E/W
 WHNS.m                   9.43:  WELL HEAD N/S
 LONG.deg                51.22:  LONGITUDE
 LATI.deg                40.13:  LATITUDE
 TVDS.m                  43.00:  TVDSS CORRECTN
 EKB .m                   0.00:  KB ELEVATION
 EDF .m                  43.00:  DF ELEVATION
 TDL .m                 363.00:  TOTAL DEPTH (LOGGER)
 MAGU.                 1850802:  MAGUTM CHECKSUM
 VSC .                       0:  VS TO CLOSURE
~Parameter Information Block
#MNEM.UNIT       Value        Description
#---------     -----------    ---------------------------
 AV  .mps                 2.30:  Ann Velocity 
 AVMX.mps                 4.40:  Max Ann Veloc 
 AZIF.deg               110.24:  Azm, Final 
 BHAT.        Rotary Steerable:  BHA Type 
 BREV.rev               331.00:  Rev Bit Total 
 BROT.°/30m               0.00:  Build Rotating 
 BS  .in                  8.50:  Bit Size 
 BSZ .in                  8.50:  Bit Size 
 BTPL.psig              585.00:  Bit Press Loss 
 CABU.                     Yes:  Customer Abuse 
 COMM.                     моЊ:  Run Comments 1 
 TCS .hr                122.75:  Time Ciculation Ended 
 CV  .mps                 2.67:  Crit Velocity 
 CVMX.mps                 3.56:  Max Crit Veloc 
 DD1 .          Rashad Habibov:  Direct Drillr 1 
 DD2 .         Rasim Ibrahimov:  Direct Drillr 2 
 DDSV.               Geo-Pilot:  DD Service 
 DEFF.%                  98.00:  % Det Eff 
 DLRX.°/30m               0.75:  Dogleg Rot Max 
 DLSO.°/30m               1.25:  Dogleg Oriented 
 DLSX.°/30m               2.06:  Dogleg Str Max 
 DRET.      07.45.00 17-May-20:  Drill End Time 
 DRST.      22.50.00 15-May-20:  Drill Start Tim 
 DTIM.hr                 20.75:  Time Drilling 
 EDEP.m                5124.01:  End Depth 
 ENG1.           Eldar Hajiyev:  Engineer 1 
 ENG2.        Marcelo Sandoval:  Engineer 2 
 ENG3.        Davud huseynzada:  Engineer 3 
 ENG4.          Ruslan Safarov:  Engineer 4 
 ETIM.      04.33.00 23-May-20:  End Time 
 FLOI.gpm               450.00:  Flow In 
 FLON.gpm               400.00:  Flow In Min 
 FLOS.cptm                0.00:  Fluid Loss 
 FLOX.gpm               500.00:  Flow In Max 
 FTRO.       Formation Presure:  FTWD Run Obj 
 HFLO.                      No:  High Flow 
 HPRE.                     Yes:  High Pressure 
 HTEM.                      No:  High Temp 
 HYDO.m                   1.80:  Hydro Offset 
 IFIN.deg                75.06:  Inc, Final 
 IMAX.deg                75.38:  Inc Max 
 IMIN.deg                74.69:  Inc Min 
 IMND.m                5027.38:  Inc Min Depth 
 IMXD.m                4771.61:  Inc Max Depth 
 JARR.                      No:  Jarring 
 LETM.      07.45.00 17-May-20:  Log End Time 
 LOST.hr                     0:  Lost Rig Time 
 LSTM.      22.50.00 15-May-20:  Log Start Time 
 MDCL.ppm             42000.00:  Mud Chlorides 
 MDES.     Inversion Oil/Synthetic:  Mud Desc 
 DFD .sg                  1.34:  Mud Density 
 MDMN.sg                  1.34:  Dens Mud Min 
 MDMX.sg                  1.34:  Dens Mud Max 
 MOIL.                       0:  Run Mud Oil % 
 MOWR.                   67:33:  Run Mud OWR 
 MSND.                       0:  Run Mud Sand % 
 MSOL.                     1.8:  Run Mud Solids% 
 DFV .spqt               76.00:  Mud Viscosity 
 MWOD.in                  6.75:  MWD Tool OD 
 MWSI.                      No:  Serv Intrp, MWD 
 OTIM.hr                228.19:  Time Operating 
 PCON.           Look Like New:  Pad Condition 
 PMAX.psia             6164.70:  Press Op, Max 
 PV  .cP                 28.00:  Mud PV 
 RUN .                     900:  Run Number 
 ROPA.m/hr               19.00:  ROP Avg 
 ROPN.m/hr               11.00:  ROP Min 
 ROPX.m/hr               36.00:  ROP Max 
 RPMA.rpm               120.00:  RPM Surface Avg 
 RPMN.rpm               120.00:  RPM Surface Min 
 RPMX.rpm               120.00:  RPM Surface Max 
 RRUN.                    L604:  Rig Run Number 
 RTIM.hr                  7.00:  Time Reaming 
 SAZI.deg               109.27:  Azm, Start 
 SDEP.m                4761.01:  Start Depth 
 SIDD.                      No:  Serv Intrp, DD 
 SINC.deg                75.38:  Inc, Start 
 SPPA.psig             3574.00:  SPP Avg 
 SPPN.psig             3475.00:  SPP Min 
 SPPX.psig             3791.00:  SPP Max 
 STIM.      07.08.48 13-May-20:  Start Time 
 SVCS.                 DD, MWD:  Services 
 SVER.                    9.20:  Sperry Version 
 TDAT.m                 363.00:  Tot Depth Attmp 
 TDDF.                      No:  Trip for DD 
 TDLG.m                 363.00:  Tot Depth Loggd 
 TFF .                      No:  Trip for Fail 
 TQAA.f-kp               20.00:  Torque Abs Avg 
 TQAN.f-kp               18.00:  Torque Abs Min 
 TQAX.f-kp               22.00:  Torque Abs Max 
 TRRT.°/30m              -0.35:  Turn Rotating 
 MRT .                    HCIM:  Maximum Recorded Temperature 
 TTMX.degC               92.16:  Max Tool Temp 
 VS01.                90586518:  Virtual Str1 SN 
 VS02.        AZ90560654Z1W1C6:  Virtual Str2 SN 
 VS03.           AZ90610398F11:  Virtual Str3 SN 
 VS04.                90514975:  Virtual Str4 SN 
 VS05.                90514972:  Virtual Str5 SN 
 VS06.     AZ90603282F11V7D1A6:  Virtual Str6 SN 
 WBMN.klb                 7.00:  WOB Min 
 WOBA.klb                12.00:  WOB Avg 
 WOBX.klb                14.00:  WOB Max 
 YP  .lhf2               32.00:  Yield Point 
~Curve Information Block
#MNEM.UNIT                 API CODE     Curve Description
#---------               -----------    ---------------------------
 TIME.HHMMSS            00 000 000 000:  GT Time & Date
 GTDEPTH.m              00 000 000 000:  GT Depth
 GTPQH.psia             00 000 000 000:  GT HR Quartz Pressure
 GTTQ.degC              00 000 000 000:  GT Quartz Temperature
 GTTN.NONE              00 000 000 000:  GT Test Number
 GTET.sec               00 000 000 000:  GT Elapsed Test Time
 GTTVD.m                00 000 000 000:  GT True Vertical Depth
#Other Information
#
#WARRANTY: Halliburton will use its best efforts to furnish customers with 
#accurate information and interpretations that are part of, and incident to, the services 
#provided.  However, Halliburton cannot and does not warrant the accuracy 
#or correctness of such information and interpretations.  Under no circumstances should any 
#such information or interpretation be relied upon as the sole basis for any drilling, 
#completion, production, or financial decision or any procedure involving any risk to the 
#safety of any drilling venture, drilling rig or its crew or any other third party.  The 
#Customer has full responsibility for all drilling, completion and production operation.  
#Halliburton makes no representations or warranties, either expressed or 
#implied, including, but not limited to, the implied warranties of merchantability or fitness 
#for a particular purpose, with respect to the services rendered.  In no event will 
#Halliburton be liable for failure to obtain any particular results or for 
#any damages, including, but not limited to, indirect, special or consequential damages, 
#resulting from the use of any information or interpretation provided by Halliburton.
#
~A           TIME           GTDEPTH  GTPQH  GTTQ  GTTN   GTET   GTTVD  
# ...
   12:18:43.202.20-May-2020 4766.51 5485.38 69.14 15.00 316.50 2532.42
   12:18:43.402.20-May-2020 4766.51 5483.35 69.14 15.00 316.70 2532.42
   12:18:43.602.20-May-2020 4766.51 5482.34 69.14 15.00 316.90 2532.42
   12:18:43.802.20-May-2020 4766.51 5494.56 69.14 15.00 317.10 2532.42
   12:18:44.002.20-May-2020 4766.51 5494.56 69.14 15.00 317.30 2532.42
   12:18:44.202.20-May-2020 4766.51 5483.70 69.14 15.00 317.50 2532.42
   12:18:44.402.20-May-2020 4766.51 5483.00 69.14 15.00 317.70 2532.42
   12:18:44.602.20-May-2020 4766.51 5483.21 69.14 15.00 317.90 2532.42
   12:18:44.802.20-May-2020 4766.51 5494.54 69.14 15.00 318.10 2532.42
   12:18:45.003.20-May-2020 4766.51 5494.54 69.14 15.00 318.30 2532.42
   12:18:45.203.20-May-2020 4766.51 5483.68 69.14 15.00 318.50 2532.42
   12:18:45.403.20-May-2020 4766.51 5484.03 69.14 15.00 318.70 2532.42
   12:18:45.603.20-May-2020 4766.51 5482.93 69.14 15.00 318.90 2532.42
   12:18:45.803.20-May-2020 4766.51 5485.02 69.14 15.00 319.10 2532.42
   12:18:46.003.20-May-2020 4766.51 5483.31 69.14 15.00 319.30 2532.42
   12:18:46.203.20-May-2020 4766.51 5482.54 69.14 15.00 319.50 2532.42
   12:18:46.403.20-May-2020 4766.51 5482.64 69.14 15.00 319.70 2532.42
   12:18:46.603.20-May-2020 4766.51 5482.02 69.14 15.00 319.90 2532.42
   12:18:46.803.20-May-2020 4766.51 5486.38 69.14 15.00 320.10 2532.42
   12:18:47.003.20-May-2020 4766.51 5486.38 69.14 15.00 320.30 2532.42
   12:18:47.203.20-May-2020 4766.51 5482.24 69.14 15.00 320.50 2532.42
   12:18:47.403.20-May-2020 4766.51 5482.07 69.14 15.00 320.70 2532.42
   12:18:47.603.20-May-2020 4766.51 5481.38 69.14 15.00 320.90 2532.42
   12:18:47.803.20-May-2020 4766.51 5483.73 69.14 15.00 321.10 2532.42
   12:18:48.003.20-May-2020 4766.51 5483.73 69.14 15.00 321.30 2532.42
   12:18:48.204.20-May-2020 4766.51 5482.18 69.14 15.00 321.50 2532.42
   12:18:48.404.20-May-2020 4766.51 5482.37 69.14 15.00 321.70 2532.42
   12:18:48.604.20-May-2020 4766.51 5482.08 69.14 15.00 321.90 2532.42
   12:18:48.804.20-May-2020 4766.51 5481.39 69.14 15.00 322.10 2532.42
   12:18:49.004.20-May-2020 4766.51 5481.39 69.14 15.00 322.30 2532.42
   12:18:49.204.20-May-2020 4766.51 5493.51 69.14 15.00 322.50 2532.42
   12:18:49.404.20-May-2020 4766.51 5482.01 69.14 15.00 322.70 2532.42
   12:18:49.604.20-May-2020 4766.51 5481.65 69.14 15.00 322.90 2532.42
   12:18:49.804.20-May-2020 4766.51 5481.44 69.14 15.00 323.10 2532.42
   12:18:50.004.20-May-2020 4766.51 5481.44 69.14 15.00 323.30 2532.42
   12:18:50.204.20-May-2020 4766.51 5484.48 69.13 15.00 323.50 2532.42
   12:18:50.404.20-May-2020 4766.51 5483.13 69.13 15.00 323.70 2532.42
   12:18:50.604.20-May-2020 4766.51 5482.39 69.13 15.00 323.90 2532.42
   12:18:50.804.20-May-2020 4766.51 5496.63 69.13 15.00 324.10 2532.42
   12:18:51.004.20-May-2020 4766.51 5496.63 69.13 15.00 324.30 2532.42
   12:18:51.204.20-May-2020 4766.51 5483.39 69.13 15.00 324.50 2532.42
   12:18:51.405.20-May-2020 4766.51 5482.82 69.13 15.00 324.70 2532.42
   12:18:51.605.20-May-2020 4766.51 5483.50 69.13 15.00 324.90 2532.42
   12:18:51.805.20-May-2020 4766.51 5497.01 69.13 15.00 325.10 2532.42
   12:18:52.005.20-May-2020 4766.51 5497.01 69.13 15.00 325.30 2532.42
   12:18:52.205.20-May-2020 4766.51 5483.41 69.13 15.00 325.50 2532.42
   12:18:52.405.20-May-2020 4766.51 5483.58 69.13 15.00 325.70 2532.42
   12:18:52.605.20-May-2020 4766.51 5482.77 69.13 15.00 325.90 2532.42
   12:18:52.805.20-May-2020 4766.51 5484.59 69.13 15.00 326.10 2532.42
   12:18:53.005.20-May-2020 4766.51 5484.59 69.13 15.00 326.30 2532.42
   12:18:53.205.20-May-2020 4766.51 5482.43 69.13 15.00 326.50 2532.42
   12:18:53.405.20-May-2020 4766.51 5482.55 69.13 15.00 326.70 2532.42
   12:18:53.605.20-May-2020 4766.51 5481.81 69.13 15.00 326.90 2532.42
   12:18:53.805.20-May-2020 4766.51 5490.46 69.13 15.00 327.10 2532.42
   12:18:54.005.20-May-2020 4766.51 5486.01 69.13 15.00 327.30 2532.42
   12:18:54.205.20-May-2020 4766.51 5482.08 69.13 15.00 327.50 2532.42
   12:18:54.406.20-May-2020 4766.51 5481.97 69.13 15.00 327.70 2532.42
   12:18:54.606.20-May-2020 4766.51 5481.54 69.13 15.00 327.90 2532.42
   12:18:54.806.20-May-2020 4766.51 5484.06 69.13 15.00 328.10 2532.42
   12:18:55.006.20-May-2020 4766.51 5484.06 69.13 15.00 328.30 2532.42
   12:18:55.206.20-May-2020 4766.51 5482.05 69.13 15.00 328.51 2532.42
   12:18:55.406.20-May-2020 4766.51 5482.38 69.13 15.00 328.71 2532.42
   12:18:55.606.20-May-2020 4766.51 5481.97 69.13 15.00 328.91 2532.42
   12:18:55.806.20-May-2020 4766.51 5481.31 69.13 15.00 329.11 2532.42
   12:18:56.006.20-May-2020 4766.51 5481.31 69.13 15.00 329.31 2532.42
   12:18:56.206.20-May-2020 4766.51 5490.57 69.13 15.00 329.51 2532.42
   12:18:56.406.20-May-2020 4766.51 5481.91 69.13 15.00 329.71 2532.42
   12:18:56.606.20-May-2020 4766.51 5481.77 69.13 15.00 329.91 2532.42
   12:18:56.806.20-May-2020 4766.51 5484.16 69.13 15.00 330.11 2532.42
   12:18:57.006.20-May-2020 4766.51 5484.16 69.13 15.00 330.31 2532.42
   12:18:57.206.20-May-2020 4766.51 5483.53 69.12 15.00 330.51 2532.42
   12:18:57.406.20-May-2020 4766.51 5482.72 69.12 15.00 330.71 2532.42
   12:18:57.607.20-May-2020 4766.51 5482.62 69.12 15.00 330.91 2532.42
   12:18:57.807.20-May-2020 4766.51 5498.10 69.12 15.00 331.11 2532.42
   12:18:58.007.20-May-2020 4766.51 5485.17 69.12 15.00 331.31 2532.42
   12:18:58.207.20-May-2020 4766.51 5483.94 69.12 15.00 331.51 2532.42
   12:18:58.407.20-May-2020 4766.51 5483.03 69.12 15.00 331.71 2532.42
   12:18:58.607.20-May-2020 4766.51 5484.13 69.12 15.00 331.91 2532.42
   12:18:58.807.20-May-2020 4766.51 5497.12 69.12 15.00 332.11 2532.42
   12:18:59.007.20-May-2020 4766.51 5497.12 69.12 15.00 332.31 2532.42
   12:18:59.207.20-May-2020 4766.51 5483.34 69.12 15.00 332.51 2532.42
   12:18:59.407.20-May-2020 4766.51 5483.15 69.12 15.00 332.71 2532.42
   12:18:59.607.20-May-2020 4766.51 5482.79 69.12 15.00 332.91 2532.42
   12:18:59.807.20-May-2020 4766.51 5483.80 69.12 15.00 333.11 2532.42
   12:19:00.007.20-May-2020 4766.51 5483.80 69.12 15.00 333.31 2532.42
   12:19:00.207.20-May-2020 4766.51 5481.96 69.12 15.00 333.51 2532.42
   12:19:00.407.20-May-2020 4766.51 5482.01 69.12 15.00 333.71 2532.42
   12:19:00.607.20-May-2020 4766.51 5481.17 69.12 15.00 333.91 2532.42
   12:19:00.808.20-May-2020 4766.51 5492.90 69.12 15.00 334.11 2532.42
   12:19:01.008.20-May-2020 4766.51 5492.90 69.12 15.00 334.31 2532.42
   12:19:01.208.20-May-2020 4766.51 5481.36 69.12 15.00 334.51 2532.42
   12:19:01.408.20-May-2020 4766.51 5481.25 69.12 15.00 334.71 2532.42
   12:19:01.608.20-May-2020 4766.51 5481.28 69.12 15.00 334.91 2532.42
   12:19:01.808.20-May-2020 4766.51 5483.50 69.12 15.00 335.11 2532.42
   12:19:02.008.20-May-2020 4766.51 5482.07 69.12 15.00 335.31 2532.42
   12:19:02.208.20-May-2020 4766.51 5481.74 69.12 15.00 335.51 2532.42
   12:19:02.408.20-May-2020 4766.51 5482.10 69.12 15.00 335.71 2532.42
   12:19:02.608.20-May-2020 4766.51 5481.44 69.12 15.00 335.91 2532.42
   12:19:02.808.20-May-2020 4766.51 5481.02 69.12 15.00 336.11 2532.42
   12:19:03.008.20-May-2020 4766.51 5481.02 69.12 15.00 336.31 2532.42
   12:19:03.208.20-May-2020 4766.51 5486.77 69.12 15.00 336.51 2532.42
   12:19:03.408.20-May-2020 4766.51 5481.44 69.12 15.00 336.71 2532.42
   12:19:03.608.20-May-2020 4766.51 5481.12 69.12 15.00 336.91 2532.42
   12:19:03.809.20-May-2020 4766.51 5487.37 69.12 15.00 337.11 2532.42
   12:19:04.009.20-May-2020 4766.51 5487.37 69.12 15.00 337.31 2532.42
   12:19:04.209.20-May-2020 4766.51 5483.23 69.11 15.00 337.51 2532.42
   12:19:04.409.20-May-2020 4766.51 5482.33 69.11 15.00 337.71 2532.42
   12:19:04.609.20-May-2020 4766.51 5484.69 69.11 15.00 337.91 2532.42
   12:19:04.809.20-May-2020 4766.51 5495.20 69.11 15.00 338.11 2532.42
   12:19:05.009.20-May-2020 4766.51 5495.20 69.11 15.00 338.31 2532.42
   12:19:05.209.20-May-2020 4766.51 5482.84 69.11 15.00 338.51 2532.42
   12:19:05.409.20-May-2020 4766.51 5482.22 69.11 15.00 338.71 2532.42
   12:19:05.609.20-May-2020 4766.51 5485.43 69.11 15.00 338.91 2532.42
