~Version Information
 VERS.                  2.0:   CWLS log ASCII Standard -VERSION 2.0
 WRAP.                   NO:   One line per depth step
~Well Information Block
#MNEM.UNIT     VALUE/NAME     DESCRIPTION
#---------     -----------    ---------------------------
 STRT.S             03:21:16 18-May-20: START TIME 03:21:16 18-May-20
 STOP.S             03:28:29 18-May-20: STOP TIME  03:28:29 18-May-20
 STEP.S                   0.00: STEP TIME
 NULL.                 -999.25: NULL VALUE
 UNIT.                     N/A:  LOGGING EQUIPMENT ID
 DCON.         Sperry Drilling:  DIRECTNL CONTR
 DOE .                     N/A:  DOE NUMBER
 JOBN.        AZ-XX-0906252240:  JOB TICKET NUMB
 MWDS.                     N/A:  MWD SHOP
 PROV.                    Baku:  PROVINCE
 STAT.                    Baku:  STATE NAME
 REGN.                   EESSA:  REGION
 BASE.              Azerbaijan:  LOGGING EQUIPMENT BASE LOCATION
 UWI .                     N/A:  UNIQUE WELL IDENTIFIER
 API .                     N/A:  API NUMBER
 MDS .        Operator Entered:  MAG DATA SOURCE
 WTYP.                Deviated:  WELL TYPE
 COMP.     BP Exploration (Caspian Sea) Ltd.:  COMPANY
 SRVC.          Turan Drilling:  CONTRACTOR
 WELL.           J23 (Slot 07):  WELL NAME
 CTRY.              Azerbaijan:  COUNTRY NAME
 FLD .                     ACG:  FIELD NAME
 PDAT.          Mean Sea Level:  PERMANENT DATUM
 RIG .             West Chirag:  RIG NAME
 SON .        AZ-XX-0906252240:  JOB NUMBER
 FTOP.          Formation Tops:  FORM TOPS DESC
 ILTD.               Lithology:  INTERP LTH DESC
 SVYD.                  Survey:  SURVEY DESC
 DMOD.             Drill Model:  DRILL MOD DESC
 HPTY.       Minimum Curvature:  HOLE POS TYPE
 NREF.                    Grid:  NORTH REFERENCE
 SPUD.               27-Aug-20:  SPUD DATE
 DATE.      00.00.00 19-May-20:  END TIME
 STIM.      03.00.00 25-Mar-20:  START TIME
 DMF .             Drill Floor:  DRILL MEAS FROM
 DFST.                        :  DIST FSL TEXT
 DFWT.                        :  DIST FWL TEXT
 CNTY.                        :  COUNTY
 LOC .                        :  LOCATION
 LMF .             Drill Floor:  LOG MEASURED FROM
 VSNS.m                   9.43:  VERT SEC N/S
 VSEW.m                  -8.91:  VERT SEC E/W
 AGAP.m                  43.00:  AIR GAP
 DEP .m                 354.17:  DEPTH
 APD .m                  43.00:  DEPTH ABOVE PD
 WDMS.m                 169.80:  WD ELEV
 EGL .m                   0.00:  GROUND ELEVATION
 EPD .m                   0.00:  ELEVATION
 AZTC.deg                 6.31:  AZM TOTAL CORR
 GRDC.deg                 0.14:  GRID CORRECTION
 MDEC.deg                 6.45:  MAGNETIC DECL
 MDIP.deg                59.56:  MAGNETIC DIP
 MFLD.nT              50295.00:  MAGNETIC FIELD
 GVFD.g                   1.00:  GRAVITY FIELD
 VSDR.deg               179.88:  VERT SEC DIRECT
 TDD .m                5150.01:  TOTAL DEPTH (DRILLER)
 SDEP.m                 864.00:  START DEPTH
 DFSL.m                   0.00:  DISTANCE FSL
 DFWL.m                   0.00:  DISTANCE FWL
 UTMY.m             4443793.85:  UTM Y
 UTMX.m              519005.06:  UTM X
 WHEW.m                  -8.91:  WELL HEAD E/W
 WHNS.m                   9.43:  WELL HEAD N/S
 LONG.deg                51.22:  LONGITUDE
 LATI.deg                40.13:  LATITUDE
 TVDS.m                  43.00:  TVDSS CORRECTN
 EKB .m                   0.00:  KB ELEVATION
 EDF .m                  43.00:  DF ELEVATION
 TDL .m                 363.00:  TOTAL DEPTH (LOGGER)
 MAGU.                 1850802:  MAGUTM CHECKSUM
 VSC .                       0:  VS TO CLOSURE
~Parameter Information Block
#MNEM.UNIT       Value        Description
#---------     -----------    ---------------------------
 AV  .mps                 2.30:  Ann Velocity 
 AVMX.mps                 4.40:  Max Ann Veloc 
 AZIF.deg               110.24:  Azm, Final 
 BHAT.        Rotary Steerable:  BHA Type 
 BREV.rev               331.00:  Rev Bit Total 
 BROT.°/30m               0.00:  Build Rotating 
 BS  .in                  8.50:  Bit Size 
 BSZ .in                  8.50:  Bit Size 
 BTPL.psig              585.00:  Bit Press Loss 
 CABU.                     Yes:  Customer Abuse 
 TCS .hr                122.75:  Time Ciculation Ended 
 CV  .mps                 2.67:  Crit Velocity 
 CVMX.mps                 3.56:  Max Crit Veloc 
 DD1 .          Rashad Habibov:  Direct Drillr 1 
 DD2 .         Rasim Ibrahimov:  Direct Drillr 2 
 DDSV.               Geo-Pilot:  DD Service 
 DEFF.%                  98.00:  % Det Eff 
 DLRX.°/30m               0.75:  Dogleg Rot Max 
 DLSO.°/30m               1.25:  Dogleg Oriented 
 DLSX.°/30m               2.06:  Dogleg Str Max 
 DRET.      07.45.00 17-May-20:  Drill End Time 
 DRST.      22.50.00 15-May-20:  Drill Start Tim 
 DTIM.hr                 20.75:  Time Drilling 
 EDEP.m                5124.01:  End Depth 
 ENG1.           Eldar Hajiyev:  Engineer 1 
 ENG2.        Marcelo Sandoval:  Engineer 2 
 ENG3.        Davud huseynzada:  Engineer 3 
 ENG4.          Ruslan Safarov:  Engineer 4 
 ETIM.      04.33.00 23-May-20:  End Time 
 FLOI.gpm               450.00:  Flow In 
 FLON.gpm               400.00:  Flow In Min 
 FLOS.cptm                0.00:  Fluid Loss 
 FLOX.gpm               500.00:  Flow In Max 
 FTRO.       Formation Presure:  FTWD Run Obj 
 HFLO.                      No:  High Flow 
 HPRE.                     Yes:  High Pressure 
 HTEM.                      No:  High Temp 
 HYDO.m                   1.80:  Hydro Offset 
 IFIN.deg                75.06:  Inc, Final 
 IMAX.deg                75.38:  Inc Max 
 IMIN.deg                74.69:  Inc Min 
 IMND.m                5027.38:  Inc Min Depth 
 IMXD.m                4771.61:  Inc Max Depth 
 JARR.                      No:  Jarring 
 LETM.      07.45.00 17-May-20:  Log End Time 
 LOST.hr                     0:  Lost Rig Time 
 LSTM.      22.50.00 15-May-20:  Log Start Time 
 MDCL.ppm             42000.00:  Mud Chlorides 
 MDES.     Inversion Oil/Synthetic:  Mud Desc 
 DFD .sg                  1.34:  Mud Density 
 MDMN.sg                  1.34:  Dens Mud Min 
 MDMX.sg                  1.34:  Dens Mud Max 
 MOIL.                       0:  Run Mud Oil % 
 MOWR.                   67:33:  Run Mud OWR 
 MSND.                       0:  Run Mud Sand % 
 MSOL.                     1.8:  Run Mud Solids% 
 DFV .spqt               76.00:  Mud Viscosity 
 MWOD.in                  6.75:  MWD Tool OD 
 MWSI.                      No:  Serv Intrp, MWD 
 OTIM.hr                228.19:  Time Operating 
 PCON.           Look Like New:  Pad Condition 
 PMAX.psia             6164.70:  Press Op, Max 
 PV  .cP                 28.00:  Mud PV 
 RUN .                     900:  Run Number 
 ROPA.m/hr               19.00:  ROP Avg 
 ROPN.m/hr               11.00:  ROP Min 
 ROPX.m/hr               36.00:  ROP Max 
 RPMA.rpm               120.00:  RPM Surface Avg 
 RPMN.rpm               120.00:  RPM Surface Min 
 RPMX.rpm               120.00:  RPM Surface Max 
 RRUN.                    L604:  Rig Run Number 
 RTIM.hr                  7.00:  Time Reaming 
 SAZI.deg               109.27:  Azm, Start 
 SDEP.m                4761.01:  Start Depth 
 SIDD.                      No:  Serv Intrp, DD 
 SINC.deg                75.38:  Inc, Start 
 SPPA.psig             3574.00:  SPP Avg 
 SPPN.psig             3475.00:  SPP Min 
 SPPX.psig             3791.00:  SPP Max 
 STIM.      07.08.48 13-May-20:  Start Time 
 SVCS.                 DD, MWD:  Services 
 SVER.                    9.20:  Sperry Version 
 TDAT.m                 363.00:  Tot Depth Attmp 
 TDDF.                      No:  Trip for DD 
 TDLG.m                 363.00:  Tot Depth Loggd 
 TFF .                      No:  Trip for Fail 
 TQAA.f-kp               20.00:  Torque Abs Avg 
 TQAN.f-kp               18.00:  Torque Abs Min 
 TQAX.f-kp               22.00:  Torque Abs Max 
 TRRT.°/30m              -0.35:  Turn Rotating 
 MRT .                    HCIM:  Maximum Recorded Temperature 
 TTMX.degC               92.16:  Max Tool Temp 
 VS01.                90586518:  Virtual Str1 SN 
 VS02.        AZ90560654Z1W1C6:  Virtual Str2 SN 
 VS03.           AZ90610398F11:  Virtual Str3 SN 
 VS04.                90514975:  Virtual Str4 SN 
 VS05.                90514972:  Virtual Str5 SN 
 VS06.     AZ90603282F11V7D1A6:  Virtual Str6 SN 
 WBMN.klb                 7.00:  WOB Min 
 WOBA.klb                12.00:  WOB Avg 
 WOBX.klb                14.00:  WOB Max 
 YP  .lhf2               32.00:  Yield Point 
~Curve Information Block
#MNEM.UNIT                 API CODE     Curve Description
#---------               -----------    ---------------------------
 TIME.HHMMSS            00 000 000 000:  GT Time & Date
 GTDEPTH.m              00 000 000 000:  GT Depth
 GTPQH.psia             00 000 000 000:  GT HR Quartz Pressure
 GTTQ.degC              00 000 000 000:  GT Quartz Temperature
 GTTN.NONE              00 000 000 000:  GT Test Number
 GTET.sec               00 000 000 000:  GT Elapsed Test Time
 GTTVD.m                00 000 000 000:  GT True Vertical Depth
#Other Information
#
#WARRANTY: Halliburton will use its best efforts to furnish customers with 
#accurate information and interpretations that are part of, and incident to, the services 
#provided.  However, Halliburton cannot and does not warrant the accuracy 
#or correctness of such information and interpretations.  Under no circumstances should any 
#such information or interpretation be relied upon as the sole basis for any drilling, 
#completion, production, or financial decision or any procedure involving any risk to the 
#safety of any drilling venture, drilling rig or its crew or any other third party.  The 
#Customer has full responsibility for all drilling, completion and production operation.  
#Halliburton makes no representations or warranties, either expressed or 
#implied, including, but not limited to, the implied warranties of merchantability or fitness 
#for a particular purpose, with respect to the services rendered.  In no event will 
#Halliburton be liable for failure to obtain any particular results or for 
#any damages, including, but not limited to, indirect, special or consequential damages, 
#resulting from the use of any information or interpretation provided by Halliburton.
#
~A           TIME           GTDEPTH  GTPQH  GTTQ  GTTN   GTET   GTTVD  
# ...
   03:21:39.198.18-May-2020 4797.01 5442.14 66.05 13.00  22.61 2540.22
   03:21:39.398.18-May-2020 4797.01 5438.28 66.05 13.00  22.81 2540.22
   03:21:39.598.18-May-2020 4797.01 5437.49 66.05 13.00  23.01 2540.22
   03:21:39.798.18-May-2020 4797.01 5437.49 66.05 13.00  23.21 2540.22
   03:21:39.999.18-May-2020 4797.01 5437.91 66.05 13.00  23.41 2540.22
   03:21:40.199.18-May-2020 4797.01 5437.12 66.05 13.00  23.61 2540.22
   03:21:40.399.18-May-2020 4797.01 5437.45 66.05 13.00  23.81 2540.22
   03:21:40.599.18-May-2020 4797.01 5448.86 66.05 13.00  24.01 2540.22
   03:21:40.799.18-May-2020 4797.01 5448.86 66.05 13.00  24.21 2540.22
   03:21:40.999.18-May-2020 4797.01 5438.00 66.05 13.00  24.41 2540.22
   03:21:41.199.18-May-2020 4797.01 5438.68 66.05 13.00  24.61 2540.22
   03:21:41.399.18-May-2020 4797.01 5454.50 66.05 13.00  24.81 2540.22
   03:21:41.599.18-May-2020 4797.01 5442.75 66.05 13.00  25.01 2540.22
   03:21:41.799.18-May-2020 4797.01 5442.75 66.05 13.00  25.21 2540.22
   03:21:41.999.18-May-2020 4797.01 5440.64 66.05 13.00  25.41 2540.22
   03:21:42.199.18-May-2020 4797.01 5458.76 66.05 13.00  25.61 2540.22
   03:21:42.399.18-May-2020 4797.01 5441.48 66.05 13.00  25.81 2540.22
   03:21:42.600.18-May-2020 4797.01 5440.80 66.05 13.00  26.01 2540.22
   03:21:42.800.18-May-2020 4797.01 5440.80 66.05 13.00  26.21 2540.22
   03:21:43.000.18-May-2020 4797.01 5458.04 66.05 13.00  26.41 2540.22
   03:21:43.200.18-May-2020 4797.01 5441.37 66.05 13.00  26.61 2540.22
   03:21:43.400.18-May-2020 4797.01 5442.55 66.04 13.00  26.81 2540.22
   03:21:43.600.18-May-2020 4797.01 5445.10 66.05 13.00  27.01 2540.22
   03:21:43.800.18-May-2020 4797.01 5445.10 66.05 13.00  27.21 2540.22
   03:21:44.000.18-May-2020 4797.01 5442.39 66.04 13.00  27.41 2540.22
   03:21:44.200.18-May-2020 4797.01 5441.69 66.04 13.00  27.61 2540.22
   03:21:44.400.18-May-2020 4797.01 5442.37 66.04 13.00  27.81 2540.22
   03:21:44.600.18-May-2020 4797.01 5441.30 66.04 13.00  28.01 2540.22
   03:21:44.800.18-May-2020 4797.01 5441.30 66.04 13.00  28.21 2540.22
   03:21:45.001.18-May-2020 4797.01 5452.73 66.04 13.00  28.41 2540.22
   03:21:45.201.18-May-2020 4797.01 5440.51 66.04 13.00  28.61 2540.22
   03:21:45.401.18-May-2020 4797.01 5441.31 66.04 13.00  28.81 2540.22
   03:21:45.601.18-May-2020 4797.01 5441.76 66.04 13.00  29.01 2540.22
   03:21:45.801.18-May-2020 4797.01 5441.76 66.04 13.00  29.21 2540.22
   03:21:46.001.18-May-2020 4797.01 5442.49 66.04 13.00  29.41 2540.22
   03:21:46.201.18-May-2020 4797.01 5441.54 66.04 13.00  29.61 2540.22
   03:21:46.401.18-May-2020 4797.01 5442.69 66.04 13.00  29.81 2540.22
   03:21:46.601.18-May-2020 4797.01 5442.09 66.04 13.00  30.01 2540.22
   03:21:46.801.18-May-2020 4797.01 5442.09 66.04 13.00  30.21 2540.22
   03:21:47.001.18-May-2020 4797.01 5440.74 66.04 13.00  30.41 2540.22
   03:21:47.201.18-May-2020 4797.01 5449.90 66.04 13.00  30.61 2540.22
   03:21:47.401.18-May-2020 4797.01 5445.18 66.04 13.00  30.81 2540.22
   03:21:47.602.18-May-2020 4797.01 5440.64 66.04 13.00  31.01 2540.22
   03:21:47.802.18-May-2020 4797.01 5440.64 66.04 13.00  31.21 2540.22
   03:21:48.002.18-May-2020 4797.01 5455.67 66.04 13.00  31.41 2540.22
   03:21:48.202.18-May-2020 4797.01 5449.26 66.04 13.00  31.61 2540.22
   03:21:48.402.18-May-2020 4797.01 5441.53 66.04 13.00  31.81 2540.22
   03:21:48.602.18-May-2020 4797.01 5443.49 66.04 13.00  32.01 2540.22
   03:21:48.802.18-May-2020 4797.01 5443.49 66.04 13.00  32.21 2540.22
   03:21:49.002.18-May-2020 4797.01 5448.95 66.04 13.00  32.41 2540.22
   03:21:49.202.18-May-2020 4797.01 5442.90 66.04 13.00  32.61 2540.22
   03:21:49.402.18-May-2020 4797.01 5444.51 66.04 13.00  32.81 2540.22
   03:21:49.602.18-May-2020 4797.01 5464.15 66.04 13.00  33.01 2540.22
   03:21:49.802.18-May-2020 4797.01 5445.86 66.04 13.00  33.21 2540.22
   03:21:50.003.18-May-2020 4797.01 5444.44 66.04 13.00  33.41 2540.22
   03:21:50.203.18-May-2020 4797.01 5449.76 66.04 13.00  33.61 2540.22
   03:21:50.403.18-May-2020 4797.01 5449.94 66.04 13.00  33.81 2540.22
   03:21:50.603.18-May-2020 4797.01 5445.86 66.04 13.00  34.01 2540.22
   03:21:50.803.18-May-2020 4797.01 5445.86 66.04 13.00  34.21 2540.22
   03:21:51.003.18-May-2020 4797.01 5445.80 66.04 13.00  34.41 2540.22
   03:21:51.203.18-May-2020 4797.01 5445.08 66.04 13.00  34.61 2540.22
   03:21:51.403.18-May-2020 4797.01 5444.52 66.04 13.00  34.81 2540.22
   03:21:51.603.18-May-2020 4797.01 5443.86 66.04 13.00  35.01 2540.22
   03:21:51.803.18-May-2020 4797.01 5443.86 66.04 13.00  35.21 2540.22
   03:21:52.003.18-May-2020 4797.01 5446.72 66.04 13.00  35.41 2540.22
   03:21:52.203.18-May-2020 4797.01 5443.33 66.04 13.00  35.61 2540.22
   03:21:52.404.18-May-2020 4797.01 5444.11 66.04 13.00  35.81 2540.22
   03:21:52.604.18-May-2020 4797.01 5449.84 66.04 13.00  36.01 2540.22
   03:21:52.804.18-May-2020 4797.01 5449.84 66.04 13.00  36.21 2540.22
   03:21:53.004.18-May-2020 4797.01 5444.28 66.04 13.00  36.41 2540.22
   03:21:53.204.18-May-2020 4797.01 5445.18 66.04 13.00  36.61 2540.22
   03:21:53.404.18-May-2020 4797.01 5444.69 66.04 13.00  36.81 2540.22
   03:21:53.604.18-May-2020 4797.01 5443.68 66.04 13.00  37.01 2540.22
   03:21:53.804.18-May-2020 4797.01 5444.09 66.04 13.00  37.22 2540.22
   03:21:54.004.18-May-2020 4797.01 5445.08 66.04 13.00  37.42 2540.22
   03:21:54.204.18-May-2020 4797.01 5456.70 66.04 13.00  37.62 2540.22
   03:21:54.404.18-May-2020 4797.01 5443.56 66.04 13.00  37.82 2540.22
   03:21:54.604.18-May-2020 4797.01 5445.17 66.04 13.00  38.02 2540.22
   03:21:54.804.18-May-2020 4797.01 5445.17 66.04 13.00  38.22 2540.22
   03:21:55.005.18-May-2020 4797.01 5461.11 66.04 13.00  38.42 2540.22
   03:21:55.205.18-May-2020 4797.01 5445.69 66.04 13.00  38.62 2540.22
   03:21:55.405.18-May-2020 4797.01 5446.31 66.04 13.00  38.82 2540.22
   03:21:55.605.18-May-2020 4797.01 5448.71 66.04 13.00  39.02 2540.22
   03:21:55.805.18-May-2020 4797.01 5461.00 66.04 13.00  39.22 2540.22
   03:21:56.005.18-May-2020 4797.01 5449.84 66.04 13.00  39.42 2540.22
   03:21:56.205.18-May-2020 4797.01 5446.91 66.04 13.00  39.62 2540.22
   03:21:56.405.18-May-2020 4797.01 5447.84 66.04 13.00  39.82 2540.22
   03:21:56.605.18-May-2020 4797.01 5459.01 66.04 13.00  40.02 2540.22
   03:21:56.805.18-May-2020 4797.01 5459.01 66.04 13.00  40.22 2540.22
   03:21:57.005.18-May-2020 4797.01 5446.50 66.04 13.00  40.42 2540.22
   03:21:57.205.18-May-2020 4797.01 5451.90 66.04 13.00  40.62 2540.22
   03:21:57.406.18-May-2020 4797.01 5463.18 66.04 13.00  40.82 2540.22
   03:21:57.606.18-May-2020 4797.01 5448.07 66.04 13.00  41.02 2540.22
   03:21:57.806.18-May-2020 4797.01 5448.07 66.04 13.00  41.22 2540.22
   03:21:58.006.18-May-2020 4797.01 5462.11 66.04 13.00  41.42 2540.22
   03:21:58.206.18-May-2020 4797.01 5454.91 66.04 13.00  41.62 2540.22
   03:21:58.406.18-May-2020 4797.01 5448.41 66.04 13.00  41.82 2540.22
   03:21:58.606.18-May-2020 4797.01 5449.12 66.04 13.00  42.02 2540.22
   03:21:58.806.18-May-2020 4797.01 5449.12 66.04 13.00  42.22 2540.22
   03:21:59.006.18-May-2020 4797.01 5449.84 66.04 13.00  42.42 2540.22
   03:21:59.206.18-May-2020 4797.01 5447.06 66.04 13.00  42.62 2540.22
   03:21:59.406.18-May-2020 4797.01 5447.88 66.04 13.00  42.82 2540.22
   03:21:59.606.18-May-2020 4797.01 5447.23 66.04 13.00  43.02 2540.22
   03:21:59.806.18-May-2020 4797.01 5447.23 66.04 13.00  43.22 2540.22
   03:22:00.007.18-May-2020 4797.01 5451.40 66.04 13.00  43.42 2540.22
   03:22:00.207.18-May-2020 4797.01 5456.92 66.03 13.00  43.62 2540.22
   03:22:00.407.18-May-2020 4797.01 5445.05 66.03 13.00  43.82 2540.22
   03:22:00.607.18-May-2020 4797.01 5447.44 66.03 13.00  44.02 2540.22
   03:22:00.807.18-May-2020 4797.01 5452.70 66.03 13.00  44.22 2540.22
   03:22:01.007.18-May-2020 4797.01 5449.87 66.03 13.00  44.42 2540.22
   03:22:01.207.18-May-2020 4797.01 5447.56 66.03 13.00  44.62 2540.22
   03:22:01.407.18-May-2020 4797.01 5447.98 66.03 13.00  44.82 2540.22
   03:22:01.607.18-May-2020 4797.01 5448.04 66.03 13.00  45.02 2540.22
