~Version Information
 VERS.                  2.0:   CWLS log ASCII Standard -VERSION 2.0
 WRAP.                   NO:   One line per depth step
~Well Information Block
#MNEM.UNIT     VALUE/NAME     DESCRIPTION
#---------     -----------    ---------------------------
 STRT.S             21:11:08 17-May-20: START TIME 21:11:08 17-May-20
 STOP.S             21:18:11 17-May-20: STOP TIME  21:18:11 17-May-20
 STEP.S                   0.00: STEP TIME
 NULL.                 -999.25: NULL VALUE
 UNIT.                     N/A:  LOGGING EQUIPMENT ID
 DCON.         Sperry Drilling:  DIRECTNL CONTR
 DOE .                     N/A:  DOE NUMBER
 JOBN.        AZ-XX-0906252240:  JOB TICKET NUMB
 MWDS.                     N/A:  MWD SHOP
 PROV.                    Baku:  PROVINCE
 STAT.                    Baku:  STATE NAME
 REGN.                   EESSA:  REGION
 BASE.              Azerbaijan:  LOGGING EQUIPMENT BASE LOCATION
 UWI .                     N/A:  UNIQUE WELL IDENTIFIER
 API .                     N/A:  API NUMBER
 MDS .        Operator Entered:  MAG DATA SOURCE
 WTYP.                Deviated:  WELL TYPE
 COMP.     BP Exploration (Caspian Sea) Ltd.:  COMPANY
 SRVC.          Turan Drilling:  CONTRACTOR
 WELL.           J23 (Slot 07):  WELL NAME
 CTRY.              Azerbaijan:  COUNTRY NAME
 FLD .                     ACG:  FIELD NAME
 PDAT.          Mean Sea Level:  PERMANENT DATUM
 RIG .             West Chirag:  RIG NAME
 SON .        AZ-XX-0906252240:  JOB NUMBER
 FTOP.          Formation Tops:  FORM TOPS DESC
 ILTD.               Lithology:  INTERP LTH DESC
 SVYD.                  Survey:  SURVEY DESC
 DMOD.             Drill Model:  DRILL MOD DESC
 HPTY.       Minimum Curvature:  HOLE POS TYPE
 NREF.                    Grid:  NORTH REFERENCE
 SPUD.               27-Aug-20:  SPUD DATE
 DATE.      00.00.00 19-May-20:  END TIME
 STIM.      03.00.00 25-Mar-20:  START TIME
 DMF .             Drill Floor:  DRILL MEAS FROM
 DFST.                        :  DIST FSL TEXT
 DFWT.                        :  DIST FWL TEXT
 CNTY.                        :  COUNTY
 LOC .                        :  LOCATION
 LMF .             Drill Floor:  LOG MEASURED FROM
 VSNS.m                   9.43:  VERT SEC N/S
 VSEW.m                  -8.91:  VERT SEC E/W
 AGAP.m                  43.00:  AIR GAP
 DEP .m                 354.17:  DEPTH
 APD .m                  43.00:  DEPTH ABOVE PD
 WDMS.m                 169.80:  WD ELEV
 EGL .m                   0.00:  GROUND ELEVATION
 EPD .m                   0.00:  ELEVATION
 AZTC.deg                 6.31:  AZM TOTAL CORR
 GRDC.deg                 0.14:  GRID CORRECTION
 MDEC.deg                 6.45:  MAGNETIC DECL
 MDIP.deg                59.56:  MAGNETIC DIP
 MFLD.nT              50295.00:  MAGNETIC FIELD
 GVFD.g                   1.00:  GRAVITY FIELD
 VSDR.deg               179.88:  VERT SEC DIRECT
 TDD .m                5150.01:  TOTAL DEPTH (DRILLER)
 SDEP.m                 864.00:  START DEPTH
 DFSL.m                   0.00:  DISTANCE FSL
 DFWL.m                   0.00:  DISTANCE FWL
 UTMY.m             4443793.85:  UTM Y
 UTMX.m              519005.06:  UTM X
 WHEW.m                  -8.91:  WELL HEAD E/W
 WHNS.m                   9.43:  WELL HEAD N/S
 LONG.deg                51.22:  LONGITUDE
 LATI.deg                40.13:  LATITUDE
 TVDS.m                  43.00:  TVDSS CORRECTN
 EKB .m                   0.00:  KB ELEVATION
 EDF .m                  43.00:  DF ELEVATION
 TDL .m                 363.00:  TOTAL DEPTH (LOGGER)
 MAGU.                 1850802:  MAGUTM CHECKSUM
 VSC .                       0:  VS TO CLOSURE
~Parameter Information Block
#MNEM.UNIT       Value        Description
#---------     -----------    ---------------------------
 AV  .mps                 2.30:  Ann Velocity 
 AVMX.mps                 4.40:  Max Ann Veloc 
 AZIF.deg               110.24:  Azm, Final 
 BHAT.        Rotary Steerable:  BHA Type 
 BREV.rev               331.00:  Rev Bit Total 
 BROT.°/30m               0.00:  Build Rotating 
 BS  .in                  8.50:  Bit Size 
 BSZ .in                  8.50:  Bit Size 
 BTPL.psig              585.00:  Bit Press Loss 
 CABU.                     Yes:  Customer Abuse 
 COMM.                     Ô‹p:  Run Comments 1 
 TCS .hr                122.75:  Time Ciculation Ended 
 CV  .mps                 2.67:  Crit Velocity 
 CVMX.mps                 3.56:  Max Crit Veloc 
 DD1 .          Rashad Habibov:  Direct Drillr 1 
 DD2 .         Rasim Ibrahimov:  Direct Drillr 2 
 DDSV.               Geo-Pilot:  DD Service 
 DEFF.%                  98.00:  % Det Eff 
 DLRX.°/30m               0.75:  Dogleg Rot Max 
 DLSO.°/30m               1.25:  Dogleg Oriented 
 DLSX.°/30m               2.06:  Dogleg Str Max 
 DRET.      07.45.00 17-May-20:  Drill End Time 
 DRST.      22.50.00 15-May-20:  Drill Start Tim 
 DTIM.hr                 20.75:  Time Drilling 
 EDEP.m                5124.01:  End Depth 
 ENG1.           Eldar Hajiyev:  Engineer 1 
 ENG2.        Marcelo Sandoval:  Engineer 2 
 ENG3.        Davud huseynzada:  Engineer 3 
 ENG4.          Ruslan Safarov:  Engineer 4 
 ETIM.      04.33.00 23-May-20:  End Time 
 FLOI.gpm               450.00:  Flow In 
 FLON.gpm               400.00:  Flow In Min 
 FLOS.cptm                0.00:  Fluid Loss 
 FLOX.gpm               500.00:  Flow In Max 
 FTRO.       Formation Presure:  FTWD Run Obj 
 HFLO.                      No:  High Flow 
 HPRE.                     Yes:  High Pressure 
 HTEM.                      No:  High Temp 
 HYDO.m                   1.80:  Hydro Offset 
 IFIN.deg                75.06:  Inc, Final 
 IMAX.deg                75.38:  Inc Max 
 IMIN.deg                74.69:  Inc Min 
 IMND.m                5027.38:  Inc Min Depth 
 IMXD.m                4771.61:  Inc Max Depth 
 JARR.                      No:  Jarring 
 LETM.      07.45.00 17-May-20:  Log End Time 
 LOST.hr                     0:  Lost Rig Time 
 LSTM.      22.50.00 15-May-20:  Log Start Time 
 MDCL.ppm             42000.00:  Mud Chlorides 
 MDES.     Inversion Oil/Synthetic:  Mud Desc 
 DFD .sg                  1.34:  Mud Density 
 MDMN.sg                  1.34:  Dens Mud Min 
 MDMX.sg                  1.34:  Dens Mud Max 
 MOIL.                       0:  Run Mud Oil % 
 MOWR.                   67:33:  Run Mud OWR 
 MSND.                       0:  Run Mud Sand % 
 MSOL.                     1.8:  Run Mud Solids% 
 DFV .spqt               76.00:  Mud Viscosity 
 MWOD.in                  6.75:  MWD Tool OD 
 MWSI.                      No:  Serv Intrp, MWD 
 OTIM.hr                228.19:  Time Operating 
 PCON.           Look Like New:  Pad Condition 
 PMAX.psia             6164.70:  Press Op, Max 
 PV  .cP                 28.00:  Mud PV 
 RUN .                     900:  Run Number 
 ROPA.m/hr               19.00:  ROP Avg 
 ROPN.m/hr               11.00:  ROP Min 
 ROPX.m/hr               36.00:  ROP Max 
 RPMA.rpm               120.00:  RPM Surface Avg 
 RPMN.rpm               120.00:  RPM Surface Min 
 RPMX.rpm               120.00:  RPM Surface Max 
 RRUN.                    L604:  Rig Run Number 
 RTIM.hr                  7.00:  Time Reaming 
 SAZI.deg               109.27:  Azm, Start 
 SDEP.m                4761.01:  Start Depth 
 SIDD.                      No:  Serv Intrp, DD 
 SINC.deg                75.38:  Inc, Start 
 SPPA.psig             3574.00:  SPP Avg 
 SPPN.psig             3475.00:  SPP Min 
 SPPX.psig             3791.00:  SPP Max 
 STIM.      07.08.48 13-May-20:  Start Time 
 SVCS.                 DD, MWD:  Services 
 SVER.                    9.20:  Sperry Version 
 TDAT.m                 363.00:  Tot Depth Attmp 
 TDDF.                      No:  Trip for DD 
 TDLG.m                 363.00:  Tot Depth Loggd 
 TFF .                      No:  Trip for Fail 
 TQAA.f-kp               20.00:  Torque Abs Avg 
 TQAN.f-kp               18.00:  Torque Abs Min 
 TQAX.f-kp               22.00:  Torque Abs Max 
 TRRT.°/30m              -0.35:  Turn Rotating 
 MRT .                    HCIM:  Maximum Recorded Temperature 
 TTMX.degC               92.16:  Max Tool Temp 
 VS01.                90586518:  Virtual Str1 SN 
 VS02.        AZ90560654Z1W1C6:  Virtual Str2 SN 
 VS03.           AZ90610398F11:  Virtual Str3 SN 
 VS04.                90514975:  Virtual Str4 SN 
 VS05.                90514972:  Virtual Str5 SN 
 VS06.     AZ90603282F11V7D1A6:  Virtual Str6 SN 
 WBMN.klb                 7.00:  WOB Min 
 WOBA.klb                12.00:  WOB Avg 
 WOBX.klb                14.00:  WOB Max 
 YP  .lhf2               32.00:  Yield Point 
~Curve Information Block
#MNEM.UNIT                 API CODE     Curve Description
#---------               -----------    ---------------------------
 TIME.HHMMSS            00 000 000 000:  GT Time & Date
 GTDEPTH.m              00 000 000 000:  GT Depth
 GTPQH.psia             00 000 000 000:  GT HR Quartz Pressure
 GTTQ.degC              00 000 000 000:  GT Quartz Temperature
 GTTN.NONE              00 000 000 000:  GT Test Number
 GTET.sec               00 000 000 000:  GT Elapsed Test Time
 GTTVD.m                00 000 000 000:  GT True Vertical Depth
#Other Information
#
#WARRANTY: Halliburton will use its best efforts to furnish customers with 
#accurate information and interpretations that are part of, and incident to, the services 
#provided.  However, Halliburton cannot and does not warrant the accuracy 
#or correctness of such information and interpretations.  Under no circumstances should any 
#such information or interpretation be relied upon as the sole basis for any drilling, 
#completion, production, or financial decision or any procedure involving any risk to the 
#safety of any drilling venture, drilling rig or its crew or any other third party.  The 
#Customer has full responsibility for all drilling, completion and production operation.  
#Halliburton makes no representations or warranties, either expressed or 
#implied, including, but not limited to, the implied warranties of merchantability or fitness 
#for a particular purpose, with respect to the services rendered.  In no event will 
#Halliburton be liable for failure to obtain any particular results or for 
#any damages, including, but not limited to, indirect, special or consequential damages, 
#resulting from the use of any information or interpretation provided by Halliburton.
#
~A           TIME           GTDEPTH  GTPQH  GTTQ  GTTN  GTET   GTTVD  
# ...
   21:16:53.147.17-May-2020 4958.01 2923.81 68.01 6.00 344.97 2581.85
   21:16:53.347.17-May-2020 4958.01 2923.81 68.01 6.00 345.17 2581.85
   21:16:53.547.17-May-2020 4958.01 2923.89 68.01 6.00 345.37 2581.85
   21:16:53.747.17-May-2020 4958.01 2923.75 68.01 6.00 345.57 2581.85
   21:16:53.947.17-May-2020 4958.01 2923.83 68.01 6.00 345.77 2581.85
   21:16:54.147.17-May-2020 4958.01 2923.81 68.01 6.00 345.97 2581.85
   21:16:54.347.17-May-2020 4958.01 2923.82 68.01 6.00 346.17 2581.85
   21:16:54.547.17-May-2020 4958.01 2923.80 68.01 6.00 346.37 2581.85
   21:16:54.747.17-May-2020 4958.01 2923.79 68.01 6.00 346.57 2581.85
   21:16:54.947.17-May-2020 4958.01 2923.81 68.01 6.00 346.77 2581.85
   21:16:55.147.17-May-2020 4958.01 2923.81 68.01 6.00 346.97 2581.85
   21:16:55.347.17-May-2020 4958.01 2923.81 68.01 6.00 347.17 2581.85
   21:16:55.547.17-May-2020 4958.01 2923.92 68.00 6.00 347.37 2581.85
   21:16:55.747.17-May-2020 4958.01 2923.72 68.01 6.00 347.57 2581.85
   21:16:55.947.17-May-2020 4958.01 2923.84 68.00 6.00 347.77 2581.85
   21:16:56.147.17-May-2020 4958.01 2923.82 68.00 6.00 347.97 2581.85
   21:16:56.347.17-May-2020 4958.01 2923.82 68.00 6.00 348.17 2581.85
   21:16:56.547.17-May-2020 4958.01 2923.74 68.00 6.00 348.37 2581.85
   21:16:56.747.17-May-2020 4958.01 2923.84 68.00 6.00 348.57 2581.85
   21:16:56.947.17-May-2020 4958.01 2923.82 68.00 6.00 348.77 2581.85
   21:16:57.147.17-May-2020 4958.01 2923.80 68.00 6.00 348.97 2581.85
   21:16:57.347.17-May-2020 4958.01 2923.80 68.00 6.00 349.17 2581.85
   21:16:57.547.17-May-2020 4958.01 2923.88 68.00 6.00 349.37 2581.85
   21:16:57.747.17-May-2020 4958.01 2923.87 68.00 6.00 349.57 2581.85
   21:16:57.947.17-May-2020 4958.01 2923.77 68.00 6.00 349.77 2581.85
   21:16:58.147.17-May-2020 4958.01 2923.83 68.00 6.00 349.97 2581.85
   21:16:58.347.17-May-2020 4958.01 2923.85 68.00 6.00 350.17 2581.85
   21:16:58.547.17-May-2020 4958.01 2923.81 68.00 6.00 350.37 2581.85
   21:16:58.747.17-May-2020 4958.01 2923.83 68.00 6.00 350.57 2581.85
   21:16:58.947.17-May-2020 4958.01 2923.78 68.00 6.00 350.77 2581.85
   21:16:59.147.17-May-2020 4958.01 2923.83 68.00 6.00 350.97 2581.85
   21:16:59.347.17-May-2020 4958.01 2923.80 68.00 6.00 351.17 2581.85
   21:16:59.547.17-May-2020 4958.01 2923.81 68.00 6.00 351.37 2581.85
   21:16:59.747.17-May-2020 4958.01 2923.80 68.00 6.00 351.57 2581.85
   21:16:59.947.17-May-2020 4958.01 2923.80 68.00 6.00 351.77 2581.85
   21:17:00.147.17-May-2020 4958.01 2923.81 68.00 6.00 351.97 2581.85
   21:17:00.347.17-May-2020 4958.01 2923.81 68.00 6.00 352.17 2581.85
   21:17:00.547.17-May-2020 4958.01 2923.76 68.00 6.00 352.37 2581.85
   21:17:00.747.17-May-2020 4958.01 2923.82 68.00 6.00 352.57 2581.85
   21:17:00.947.17-May-2020 4958.01 2923.81 68.00 6.00 352.77 2581.85
   21:17:01.147.17-May-2020 4958.01 2923.81 68.00 6.00 352.97 2581.85
   21:17:01.347.17-May-2020 4958.01 2923.81 68.00 6.00 353.17 2581.85
   21:17:01.547.17-May-2020 4958.01 2923.81 68.00 6.00 353.37 2581.85
   21:17:01.746.17-May-2020 4958.01 2923.81 68.00 6.00 353.57 2581.85
   21:17:01.946.17-May-2020 4958.01 2923.81 68.00 6.00 353.77 2581.85
   21:17:02.146.17-May-2020 4958.01 2923.81 68.00 6.00 353.97 2581.85
   21:17:02.346.17-May-2020 4958.01 2923.81 68.00 6.00 354.17 2581.85
   21:17:02.546.17-May-2020 4958.01 2923.83 68.00 6.00 354.37 2581.85
   21:17:02.746.17-May-2020 4958.01 2923.82 68.00 6.00 354.57 2581.85
   21:17:02.946.17-May-2020 4958.01 2923.83 68.00 6.00 354.77 2581.85
   21:17:03.146.17-May-2020 4958.01 2923.78 68.00 6.00 354.97 2581.85
   21:17:03.346.17-May-2020 4958.01 2923.85 68.00 6.00 355.17 2581.85
   21:17:03.546.17-May-2020 4958.01 2923.82 68.00 6.00 355.37 2581.85
   21:17:03.746.17-May-2020 4958.01 2923.83 68.00 6.00 355.57 2581.85
   21:17:03.946.17-May-2020 4958.01 2923.78 68.00 6.00 355.77 2581.85
   21:17:04.146.17-May-2020 4958.01 2923.89 68.00 6.00 355.97 2581.85
   21:17:04.346.17-May-2020 4958.01 2923.89 68.00 6.00 356.17 2581.85
   21:17:04.546.17-May-2020 4958.01 2923.84 68.00 6.00 356.37 2581.85
   21:17:04.746.17-May-2020 4958.01 2923.80 68.00 6.00 356.57 2581.85
   21:17:04.946.17-May-2020 4958.01 2923.83 68.00 6.00 356.77 2581.85
   21:17:05.146.17-May-2020 4958.01 2923.78 68.00 6.00 356.97 2581.85
   21:17:05.346.17-May-2020 4958.01 2923.78 68.00 6.00 357.17 2581.85
   21:17:05.546.17-May-2020 4958.01 2923.87 68.00 6.00 357.37 2581.85
   21:17:05.746.17-May-2020 4958.01 2923.76 68.00 6.00 357.57 2581.85
   21:17:05.946.17-May-2020 4958.01 2923.82 68.00 6.00 357.77 2581.85
   21:17:06.146.17-May-2020 4958.01 2923.79 68.00 6.00 357.97 2581.85
   21:17:06.346.17-May-2020 4958.01 2923.79 68.00 6.00 358.17 2581.85
   21:17:06.546.17-May-2020 4958.01 2923.80 68.00 6.00 358.37 2581.85
   21:17:06.746.17-May-2020 4958.01 2923.81 68.00 6.00 358.57 2581.85
   21:17:06.946.17-May-2020 4958.01 2923.80 68.00 6.00 358.77 2581.85
   21:17:07.146.17-May-2020 4958.01 2923.88 68.00 6.00 358.97 2581.85
   21:17:07.346.17-May-2020 4958.01 2923.88 68.00 6.00 359.17 2581.85
   21:17:07.546.17-May-2020 4958.01 2923.82 68.00 6.00 359.37 2581.85
   21:17:07.746.17-May-2020 4958.01 2923.82 68.00 6.00 359.57 2581.85
   21:17:07.946.17-May-2020 4958.01 2923.80 68.00 6.00 359.77 2581.85
   21:17:08.146.17-May-2020 4958.01 2923.81 68.00 6.00 359.97 2581.85
   21:17:08.346.17-May-2020 4958.01 2923.81 68.00 6.00 360.17 2581.85
   21:17:08.546.17-May-2020 4958.01 2923.81 68.00 6.00 360.37 2581.85
   21:17:08.746.17-May-2020 4958.01 2923.80 68.00 6.00 360.57 2581.85
   21:17:08.946.17-May-2020 4958.01 2923.80 68.00 6.00 360.77 2581.85
   21:17:09.146.17-May-2020 4958.01 2923.80 68.00 6.00 360.97 2581.85
   21:17:09.346.17-May-2020 4958.01 2923.77 68.00 6.00 361.17 2581.85
   21:17:09.546.17-May-2020 4958.01 2923.87 68.00 6.00 361.37 2581.85
   21:17:09.746.17-May-2020 4958.01 2923.86 68.00 6.00 361.57 2581.85
   21:17:09.946.17-May-2020 4958.01 2923.78 68.00 6.00 361.77 2581.85
   21:17:10.146.17-May-2020 4958.01 2923.82 68.00 6.00 361.97 2581.85
   21:17:10.346.17-May-2020 4958.01 2923.82 68.00 6.00 362.17 2581.85
   21:17:10.546.17-May-2020 4958.01 2923.84 68.00 6.00 362.37 2581.85
   21:17:10.746.17-May-2020 4958.01 2923.77 68.00 6.00 362.57 2581.85
   21:17:10.946.17-May-2020 4958.01 2923.90 68.00 6.00 362.77 2581.85
   21:17:11.146.17-May-2020 4958.01 2923.76 68.00 6.00 362.97 2581.85
   21:17:11.346.17-May-2020 4958.01 2923.76 68.00 6.00 363.17 2581.85
   21:17:11.546.17-May-2020 4958.01 2923.80 68.00 6.00 363.37 2581.85
   21:17:11.746.17-May-2020 4958.01 2923.81 68.00 6.00 363.57 2581.85
   21:17:11.946.17-May-2020 4958.01 2923.89 68.00 6.00 363.77 2581.85
   21:17:12.146.17-May-2020 4958.01 2923.72 68.00 6.00 363.97 2581.85
   21:17:12.346.17-May-2020 4958.01 2923.72 68.00 6.00 364.17 2581.85
   21:17:12.546.17-May-2020 4958.01 2923.79 68.00 6.00 364.37 2581.85
   21:17:12.746.17-May-2020 4958.01 2923.82 68.00 6.00 364.57 2581.85
   21:17:12.946.17-May-2020 4958.01 2923.80 68.00 6.00 364.77 2581.85
   21:17:13.146.17-May-2020 4958.01 2923.79 68.00 6.00 364.97 2581.85
   21:17:13.346.17-May-2020 4958.01 2923.79 68.00 6.00 365.17 2581.85
   21:17:13.546.17-May-2020 4958.01 2923.79 68.00 6.00 365.37 2581.85
   21:17:13.746.17-May-2020 4958.01 2923.80 68.00 6.00 365.57 2581.85
   21:17:13.946.17-May-2020 4958.01 2923.80 68.00 6.00 365.77 2581.85
   21:17:14.146.17-May-2020 4958.01 2923.82 68.00 6.00 365.97 2581.85
   21:17:14.346.17-May-2020 4958.01 2923.82 68.00 6.00 366.17 2581.85
   21:17:14.546.17-May-2020 4958.01 2923.82 68.00 6.00 366.37 2581.85
   21:17:14.745.17-May-2020 4958.01 2923.77 68.00 6.00 366.57 2581.85
   21:17:14.945.17-May-2020 4958.01 2923.81 68.00 6.00 366.77 2581.85
   21:17:15.145.17-May-2020 4958.01 2923.80 68.00 6.00 366.97 2581.85
   21:17:15.345.17-May-2020 4958.01 2923.78 68.00 6.00 367.17 2581.85
   21:17:15.545.17-May-2020 4958.01 2924.04 68.00 6.00 367.37 2581.85
   21:17:15.745.17-May-2020 4958.01 2927.95 68.00 6.00 367.57 2581.85
   21:17:15.945.17-May-2020 4958.01 2927.44 68.00 6.00 367.77 2581.85
