~Version Information
 VERS.                  2.0:   CWLS log ASCII Standard -VERSION 2.0
 WRAP.                   NO:   One line per depth step
~Well Information Block
#MNEM.UNIT     VALUE/NAME     DESCRIPTION
#---------     -----------    ---------------------------
 STRT.S             00:24:31 18-May-20: START TIME 00:24:31 18-May-20
 STOP.S             00:32:03 18-May-20: STOP TIME  00:32:03 18-May-20
 STEP.S                   0.00: STEP TIME
 NULL.                 -999.25: NULL VALUE
 UNIT.                     N/A:  LOGGING EQUIPMENT ID
 DCON.         Sperry Drilling:  DIRECTNL CONTR
 DOE .                     N/A:  DOE NUMBER
 JOBN.        AZ-XX-0906252240:  JOB TICKET NUMB
 MWDS.                     N/A:  MWD SHOP
 PROV.                    Baku:  PROVINCE
 STAT.                    Baku:  STATE NAME
 REGN.                   EESSA:  REGION
 BASE.              Azerbaijan:  LOGGING EQUIPMENT BASE LOCATION
 UWI .                     N/A:  UNIQUE WELL IDENTIFIER
 API .                     N/A:  API NUMBER
 MDS .        Operator Entered:  MAG DATA SOURCE
 WTYP.                Deviated:  WELL TYPE
 COMP.     BP Exploration (Caspian Sea) Ltd.:  COMPANY
 SRVC.          Turan Drilling:  CONTRACTOR
 WELL.           J23 (Slot 07):  WELL NAME
 CTRY.              Azerbaijan:  COUNTRY NAME
 FLD .                     ACG:  FIELD NAME
 PDAT.          Mean Sea Level:  PERMANENT DATUM
 RIG .             West Chirag:  RIG NAME
 SON .        AZ-XX-0906252240:  JOB NUMBER
 FTOP.          Formation Tops:  FORM TOPS DESC
 ILTD.               Lithology:  INTERP LTH DESC
 SVYD.                  Survey:  SURVEY DESC
 DMOD.             Drill Model:  DRILL MOD DESC
 HPTY.       Minimum Curvature:  HOLE POS TYPE
 NREF.                    Grid:  NORTH REFERENCE
 SPUD.               27-Aug-20:  SPUD DATE
 DATE.      00.00.00 19-May-20:  END TIME
 STIM.      03.00.00 25-Mar-20:  START TIME
 DMF .             Drill Floor:  DRILL MEAS FROM
 DFST.                        :  DIST FSL TEXT
 DFWT.                        :  DIST FWL TEXT
 CNTY.                        :  COUNTY
 LOC .                        :  LOCATION
 LMF .             Drill Floor:  LOG MEASURED FROM
 VSNS.m                   9.43:  VERT SEC N/S
 VSEW.m                  -8.91:  VERT SEC E/W
 AGAP.m                  43.00:  AIR GAP
 DEP .m                 354.17:  DEPTH
 APD .m                  43.00:  DEPTH ABOVE PD
 WDMS.m                 169.80:  WD ELEV
 EGL .m                   0.00:  GROUND ELEVATION
 EPD .m                   0.00:  ELEVATION
 AZTC.deg                 6.31:  AZM TOTAL CORR
 GRDC.deg                 0.14:  GRID CORRECTION
 MDEC.deg                 6.45:  MAGNETIC DECL
 MDIP.deg                59.56:  MAGNETIC DIP
 MFLD.nT              50295.00:  MAGNETIC FIELD
 GVFD.g                   1.00:  GRAVITY FIELD
 VSDR.deg               179.88:  VERT SEC DIRECT
 TDD .m                5150.01:  TOTAL DEPTH (DRILLER)
 SDEP.m                 864.00:  START DEPTH
 DFSL.m                   0.00:  DISTANCE FSL
 DFWL.m                   0.00:  DISTANCE FWL
 UTMY.m             4443793.85:  UTM Y
 UTMX.m              519005.06:  UTM X
 WHEW.m                  -8.91:  WELL HEAD E/W
 WHNS.m                   9.43:  WELL HEAD N/S
 LONG.deg                51.22:  LONGITUDE
 LATI.deg                40.13:  LATITUDE
 TVDS.m                  43.00:  TVDSS CORRECTN
 EKB .m                   0.00:  KB ELEVATION
 EDF .m                  43.00:  DF ELEVATION
 TDL .m                 363.00:  TOTAL DEPTH (LOGGER)
 MAGU.                 1850802:  MAGUTM CHECKSUM
 VSC .                       0:  VS TO CLOSURE
~Parameter Information Block
#MNEM.UNIT       Value        Description
#---------     -----------    ---------------------------
 AV  .mps                 2.30:  Ann Velocity 
 AVMX.mps                 4.40:  Max Ann Veloc 
 AZIF.deg               110.24:  Azm, Final 
 BHAT.        Rotary Steerable:  BHA Type 
 BREV.rev               331.00:  Rev Bit Total 
 BROT.°/30m               0.00:  Build Rotating 
 BS  .in                  8.50:  Bit Size 
 BSZ .in                  8.50:  Bit Size 
 BTPL.psig              585.00:  Bit Press Loss 
 CABU.                     Yes:  Customer Abuse 
 COMM.                     ô®q:  Run Comments 1 
 TCS .hr                122.75:  Time Ciculation Ended 
 CV  .mps                 2.67:  Crit Velocity 
 CVMX.mps                 3.56:  Max Crit Veloc 
 DD1 .          Rashad Habibov:  Direct Drillr 1 
 DD2 .         Rasim Ibrahimov:  Direct Drillr 2 
 DDSV.               Geo-Pilot:  DD Service 
 DEFF.%                  98.00:  % Det Eff 
 DLRX.°/30m               0.75:  Dogleg Rot Max 
 DLSO.°/30m               1.25:  Dogleg Oriented 
 DLSX.°/30m               2.06:  Dogleg Str Max 
 DRET.      07.45.00 17-May-20:  Drill End Time 
 DRST.      22.50.00 15-May-20:  Drill Start Tim 
 DTIM.hr                 20.75:  Time Drilling 
 EDEP.m                5124.01:  End Depth 
 ENG1.           Eldar Hajiyev:  Engineer 1 
 ENG2.        Marcelo Sandoval:  Engineer 2 
 ENG3.        Davud huseynzada:  Engineer 3 
 ENG4.          Ruslan Safarov:  Engineer 4 
 ETIM.      04.33.00 23-May-20:  End Time 
 FLOI.gpm               450.00:  Flow In 
 FLON.gpm               400.00:  Flow In Min 
 FLOS.cptm                0.00:  Fluid Loss 
 FLOX.gpm               500.00:  Flow In Max 
 FTRO.       Formation Presure:  FTWD Run Obj 
 HFLO.                      No:  High Flow 
 HPRE.                     Yes:  High Pressure 
 HTEM.                      No:  High Temp 
 HYDO.m                   1.80:  Hydro Offset 
 IFIN.deg                75.06:  Inc, Final 
 IMAX.deg                75.38:  Inc Max 
 IMIN.deg                74.69:  Inc Min 
 IMND.m                5027.38:  Inc Min Depth 
 IMXD.m                4771.61:  Inc Max Depth 
 JARR.                      No:  Jarring 
 LETM.      07.45.00 17-May-20:  Log End Time 
 LOST.hr                     0:  Lost Rig Time 
 LSTM.      22.50.00 15-May-20:  Log Start Time 
 MDCL.ppm             42000.00:  Mud Chlorides 
 MDES.     Inversion Oil/Synthetic:  Mud Desc 
 DFD .sg                  1.34:  Mud Density 
 MDMN.sg                  1.34:  Dens Mud Min 
 MDMX.sg                  1.34:  Dens Mud Max 
 MOIL.                       0:  Run Mud Oil % 
 MOWR.                   67:33:  Run Mud OWR 
 MSND.                       0:  Run Mud Sand % 
 MSOL.                     1.8:  Run Mud Solids% 
 DFV .spqt               76.00:  Mud Viscosity 
 MWOD.in                  6.75:  MWD Tool OD 
 MWSI.                      No:  Serv Intrp, MWD 
 OTIM.hr                228.19:  Time Operating 
 PCON.           Look Like New:  Pad Condition 
 PMAX.psia             6164.70:  Press Op, Max 
 PV  .cP                 28.00:  Mud PV 
 RUN .                     900:  Run Number 
 ROPA.m/hr               19.00:  ROP Avg 
 ROPN.m/hr               11.00:  ROP Min 
 ROPX.m/hr               36.00:  ROP Max 
 RPMA.rpm               120.00:  RPM Surface Avg 
 RPMN.rpm               120.00:  RPM Surface Min 
 RPMX.rpm               120.00:  RPM Surface Max 
 RRUN.                    L604:  Rig Run Number 
 RTIM.hr                  7.00:  Time Reaming 
 SAZI.deg               109.27:  Azm, Start 
 SDEP.m                4761.01:  Start Depth 
 SIDD.                      No:  Serv Intrp, DD 
 SINC.deg                75.38:  Inc, Start 
 SPPA.psig             3574.00:  SPP Avg 
 SPPN.psig             3475.00:  SPP Min 
 SPPX.psig             3791.00:  SPP Max 
 STIM.      07.08.48 13-May-20:  Start Time 
 SVCS.                 DD, MWD:  Services 
 SVER.                    9.20:  Sperry Version 
 TDAT.m                 363.00:  Tot Depth Attmp 
 TDDF.                      No:  Trip for DD 
 TDLG.m                 363.00:  Tot Depth Loggd 
 TFF .                      No:  Trip for Fail 
 TQAA.f-kp               20.00:  Torque Abs Avg 
 TQAN.f-kp               18.00:  Torque Abs Min 
 TQAX.f-kp               22.00:  Torque Abs Max 
 TRRT.°/30m              -0.35:  Turn Rotating 
 MRT .                    HCIM:  Maximum Recorded Temperature 
 TTMX.degC               92.16:  Max Tool Temp 
 VS01.                90586518:  Virtual Str1 SN 
 VS02.        AZ90560654Z1W1C6:  Virtual Str2 SN 
 VS03.           AZ90610398F11:  Virtual Str3 SN 
 VS04.                90514975:  Virtual Str4 SN 
 VS05.                90514972:  Virtual Str5 SN 
 VS06.     AZ90603282F11V7D1A6:  Virtual Str6 SN 
 WBMN.klb                 7.00:  WOB Min 
 WOBA.klb                12.00:  WOB Avg 
 WOBX.klb                14.00:  WOB Max 
 YP  .lhf2               32.00:  Yield Point 
~Curve Information Block
#MNEM.UNIT                 API CODE     Curve Description
#---------               -----------    ---------------------------
 TIME.HHMMSS            00 000 000 000:  GT Time & Date
 GTDEPTH.m              00 000 000 000:  GT Depth
 GTPQH.psia             00 000 000 000:  GT HR Quartz Pressure
 GTTQ.degC              00 000 000 000:  GT Quartz Temperature
 GTTN.NONE              00 000 000 000:  GT Test Number
 GTET.sec               00 000 000 000:  GT Elapsed Test Time
 GTTVD.m                00 000 000 000:  GT True Vertical Depth
#Other Information
#
#WARRANTY: Halliburton will use its best efforts to furnish customers with 
#accurate information and interpretations that are part of, and incident to, the services 
#provided.  However, Halliburton cannot and does not warrant the accuracy 
#or correctness of such information and interpretations.  Under no circumstances should any 
#such information or interpretation be relied upon as the sole basis for any drilling, 
#completion, production, or financial decision or any procedure involving any risk to the 
#safety of any drilling venture, drilling rig or its crew or any other third party.  The 
#Customer has full responsibility for all drilling, completion and production operation.  
#Halliburton makes no representations or warranties, either expressed or 
#implied, including, but not limited to, the implied warranties of merchantability or fitness 
#for a particular purpose, with respect to the services rendered.  In no event will 
#Halliburton be liable for failure to obtain any particular results or for 
#any damages, including, but not limited to, indirect, special or consequential damages, 
#resulting from the use of any information or interpretation provided by Halliburton.
#
~A           TIME           GTDEPTH  GTPQH  GTTQ  GTTN   GTET   GTTVD  
# ...
   00:26:46.967.18-May-2020 4886.01 3643.79 66.40 10.00 135.65 2563.39
   00:26:47.167.18-May-2020 4886.01 3643.79 66.40 10.00 135.85 2563.39
   00:26:47.367.18-May-2020 4886.01 3643.88 66.40 10.00 136.05 2563.39
   00:26:47.567.18-May-2020 4886.01 3643.88 66.40 10.00 136.25 2563.39
   00:26:47.767.18-May-2020 4886.01 3643.78 66.40 10.00 136.46 2563.39
   00:26:47.967.18-May-2020 4886.01 3643.90 66.40 10.00 136.66 2563.39
   00:26:48.167.18-May-2020 4886.01 3643.79 66.40 10.00 136.86 2563.39
   00:26:48.367.18-May-2020 4886.01 3643.88 66.40 10.00 137.06 2563.39
   00:26:48.568.18-May-2020 4886.01 3643.88 66.40 10.00 137.26 2563.39
   00:26:48.768.18-May-2020 4886.01 3643.84 66.40 10.00 137.46 2563.39
   00:26:48.968.18-May-2020 4886.01 3643.83 66.40 10.00 137.66 2563.39
   00:26:49.168.18-May-2020 4886.01 3643.75 66.40 10.00 137.86 2563.39
   00:26:49.368.18-May-2020 4886.01 3643.98 66.40 10.00 138.06 2563.39
   00:26:49.568.18-May-2020 4886.01 3643.98 66.40 10.00 138.26 2563.39
   00:26:49.768.18-May-2020 4886.01 3643.98 66.40 10.00 138.46 2563.39
   00:26:49.968.18-May-2020 4886.01 3643.77 66.40 10.00 138.66 2563.39
   00:26:50.168.18-May-2020 4886.01 3644.04 66.40 10.00 138.86 2563.39
   00:26:50.368.18-May-2020 4886.01 3643.72 66.40 10.00 139.06 2563.39
   00:26:50.568.18-May-2020 4886.01 3644.00 66.40 10.00 139.26 2563.39
   00:26:50.768.18-May-2020 4886.01 3643.41 66.40 10.00 139.46 2563.39
   00:26:50.968.18-May-2020 4886.01 3644.31 66.40 10.00 139.66 2563.39
   00:26:51.169.18-May-2020 4886.01 3644.03 66.40 10.00 139.86 2563.39
   00:26:51.369.18-May-2020 4886.01 3643.92 66.40 10.00 140.06 2563.39
   00:26:51.569.18-May-2020 4886.01 3643.77 66.41 10.00 140.26 2563.39
   00:26:51.769.18-May-2020 4886.01 3643.85 66.40 10.00 140.46 2563.39
   00:26:51.969.18-May-2020 4886.01 3643.97 66.40 10.00 140.66 2563.39
   00:26:52.169.18-May-2020 4886.01 3643.99 66.41 10.00 140.86 2563.39
   00:26:52.369.18-May-2020 4886.01 3643.77 66.41 10.00 141.06 2563.39
   00:26:52.569.18-May-2020 4886.01 3643.77 66.41 10.00 141.26 2563.39
   00:26:52.769.18-May-2020 4886.01 3643.76 66.41 10.00 141.46 2563.39
   00:26:52.969.18-May-2020 4886.01 3643.88 66.41 10.00 141.66 2563.39
   00:26:53.169.18-May-2020 4886.01 3643.83 66.41 10.00 141.86 2563.39
   00:26:53.369.18-May-2020 4886.01 3643.84 66.41 10.00 142.06 2563.39
   00:26:53.570.18-May-2020 4886.01 3643.84 66.41 10.00 142.26 2563.39
   00:26:53.770.18-May-2020 4886.01 3643.80 66.41 10.00 142.46 2563.39
   00:26:53.970.18-May-2020 4886.01 3644.17 66.41 10.00 142.66 2563.39
   00:26:54.170.18-May-2020 4886.01 3643.52 66.41 10.00 142.86 2563.39
   00:26:54.370.18-May-2020 4886.01 3643.96 66.41 10.00 143.06 2563.39
   00:26:54.570.18-May-2020 4886.01 3643.96 66.41 10.00 143.26 2563.39
   00:26:54.770.18-May-2020 4886.01 3643.84 66.41 10.00 143.46 2563.39
   00:26:54.970.18-May-2020 4886.01 3643.74 66.41 10.00 143.66 2563.39
   00:26:55.170.18-May-2020 4886.01 3643.74 66.41 10.00 143.86 2563.39
   00:26:55.370.18-May-2020 4886.01 3643.80 66.41 10.00 144.06 2563.39
   00:26:55.570.18-May-2020 4886.01 3643.80 66.41 10.00 144.26 2563.39
   00:26:55.770.18-May-2020 4886.01 3643.81 66.41 10.00 144.46 2563.39
   00:26:55.971.18-May-2020 4886.01 3643.48 66.41 10.00 144.66 2563.39
   00:26:56.171.18-May-2020 4886.01 3644.23 66.41 10.00 144.86 2563.39
   00:26:56.371.18-May-2020 4886.01 3643.99 66.41 10.00 145.06 2563.39
   00:26:56.571.18-May-2020 4886.01 3643.99 66.41 10.00 145.26 2563.39
   00:26:56.771.18-May-2020 4886.01 3643.45 66.41 10.00 145.46 2563.39
   00:26:56.971.18-May-2020 4886.01 3644.20 66.41 10.00 145.66 2563.39
   00:26:57.171.18-May-2020 4886.01 3644.01 66.41 10.00 145.86 2563.39
   00:26:57.371.18-May-2020 4886.01 3643.84 66.41 10.00 146.06 2563.39
   00:26:57.571.18-May-2020 4886.01 3643.84 66.41 10.00 146.26 2563.39
   00:26:57.771.18-May-2020 4886.01 3643.93 66.41 10.00 146.46 2563.39
   00:26:57.971.18-May-2020 4886.01 3643.90 66.41 10.00 146.66 2563.39
   00:26:58.171.18-May-2020 4886.01 3643.79 66.41 10.00 146.86 2563.39
   00:26:58.371.18-May-2020 4886.01 3643.86 66.41 10.00 147.06 2563.39
   00:26:58.572.18-May-2020 4886.01 3643.95 66.41 10.00 147.26 2563.39
   00:26:58.772.18-May-2020 4886.01 3643.77 66.41 10.00 147.46 2563.39
   00:26:58.972.18-May-2020 4886.01 3643.96 66.41 10.00 147.66 2563.39
   00:26:59.172.18-May-2020 4886.01 3643.83 66.41 10.00 147.86 2563.39
   00:26:59.372.18-May-2020 4886.01 3643.87 66.41 10.00 148.06 2563.39
   00:26:59.572.18-May-2020 4886.01 3643.74 66.41 10.00 148.26 2563.39
   00:26:59.772.18-May-2020 4886.01 3643.89 66.41 10.00 148.46 2563.39
   00:26:59.972.18-May-2020 4886.01 3643.80 66.41 10.00 148.66 2563.39
   00:27:00.172.18-May-2020 4886.01 3643.84 66.41 10.00 148.86 2563.39
   00:27:00.372.18-May-2020 4886.01 3643.82 66.41 10.00 149.06 2563.39
   00:27:00.572.18-May-2020 4886.01 3643.82 66.41 10.00 149.26 2563.39
   00:27:00.772.18-May-2020 4886.01 3643.96 66.41 10.00 149.46 2563.39
   00:27:00.973.18-May-2020 4886.01 3643.86 66.41 10.00 149.66 2563.39
   00:27:01.173.18-May-2020 4886.01 3643.99 66.41 10.00 149.86 2563.39
   00:27:01.373.18-May-2020 4886.01 3643.77 66.41 10.00 150.06 2563.39
   00:27:01.573.18-May-2020 4886.01 3643.77 66.41 10.00 150.26 2563.39
   00:27:01.773.18-May-2020 4886.01 3643.77 66.41 10.00 150.46 2563.39
   00:27:01.973.18-May-2020 4886.01 3643.89 66.41 10.00 150.66 2563.39
   00:27:02.173.18-May-2020 4886.01 3643.83 66.41 10.00 150.86 2563.39
   00:27:02.373.18-May-2020 4886.01 3643.86 66.41 10.00 151.06 2563.39
   00:27:02.573.18-May-2020 4886.01 3643.86 66.41 10.00 151.26 2563.39
   00:27:02.773.18-May-2020 4886.01 3643.80 66.41 10.00 151.46 2563.39
   00:27:02.973.18-May-2020 4886.01 3643.94 66.41 10.00 151.66 2563.39
   00:27:03.173.18-May-2020 4886.01 3643.96 66.41 10.00 151.86 2563.39
   00:27:03.373.18-May-2020 4886.01 3643.77 66.41 10.00 152.06 2563.39
   00:27:03.574.18-May-2020 4886.01 3643.77 66.41 10.00 152.26 2563.39
   00:27:03.774.18-May-2020 4886.01 3643.88 66.41 10.00 152.46 2563.39
   00:27:03.974.18-May-2020 4886.01 3644.00 66.41 10.00 152.66 2563.39
   00:27:04.174.18-May-2020 4886.01 3643.72 66.41 10.00 152.86 2563.39
   00:27:04.374.18-May-2020 4886.01 3644.10 66.41 10.00 153.06 2563.39
   00:27:04.574.18-May-2020 4886.01 3644.10 66.41 10.00 153.26 2563.39
   00:27:04.774.18-May-2020 4886.01 3643.98 66.41 10.00 153.46 2563.39
   00:27:04.974.18-May-2020 4886.01 3643.86 66.41 10.00 153.66 2563.39
   00:27:05.174.18-May-2020 4886.01 3643.91 66.41 10.00 153.86 2563.39
   00:27:05.374.18-May-2020 4886.01 3644.03 66.41 10.00 154.06 2563.39
   00:27:05.574.18-May-2020 4886.01 3644.03 66.41 10.00 154.26 2563.39
   00:27:05.774.18-May-2020 4886.01 3643.97 66.41 10.00 154.46 2563.39
   00:27:05.975.18-May-2020 4886.01 3643.83 66.41 10.00 154.66 2563.39
   00:27:06.175.18-May-2020 4886.01 3643.83 66.41 10.00 154.86 2563.39
   00:27:06.375.18-May-2020 4886.01 3643.76 66.41 10.00 155.06 2563.39
   00:27:06.575.18-May-2020 4886.01 3643.90 66.41 10.00 155.26 2563.39
   00:27:06.775.18-May-2020 4886.01 3643.98 66.41 10.00 155.46 2563.39
   00:27:06.975.18-May-2020 4886.01 3643.89 66.41 10.00 155.66 2563.39
   00:27:07.175.18-May-2020 4886.01 3643.79 66.41 10.00 155.86 2563.39
   00:27:07.375.18-May-2020 4886.01 3643.47 66.41 10.00 156.06 2563.39
   00:27:07.575.18-May-2020 4886.01 3643.47 66.41 10.00 156.26 2563.39
   00:27:07.775.18-May-2020 4886.01 3643.97 66.41 10.00 156.46 2563.39
   00:27:07.975.18-May-2020 4886.01 3643.80 66.41 10.00 156.66 2563.39
   00:27:08.175.18-May-2020 4886.01 3643.77 66.41 10.00 156.86 2563.39
   00:27:08.376.18-May-2020 4886.01 3643.82 66.41 10.00 157.06 2563.39
   00:27:08.576.18-May-2020 4886.01 3643.82 66.41 10.00 157.26 2563.39
   00:27:08.776.18-May-2020 4886.01 3643.81 66.41 10.00 157.46 2563.39
   00:27:08.976.18-May-2020 4886.01 3643.85 66.41 10.00 157.66 2563.39
   00:27:09.176.18-May-2020 4886.01 3643.84 66.41 10.00 157.86 2563.39
   00:27:09.376.18-May-2020 4886.01 3643.79 66.41 10.00 158.06 2563.39
