~Version Information
 VERS.                  2.0:   CWLS log ASCII Standard -VERSION 2.0
 WRAP.                   NO:   One line per depth step
~Well Information Block
#MNEM.UNIT     VALUE/NAME     DESCRIPTION
#---------     -----------    ---------------------------
 STRT.S             23:36:46 17-May-20: START TIME 23:36:46 17-May-20
 STOP.S             23:44:24 17-May-20: STOP TIME  23:44:24 17-May-20
 STEP.S                   0.00: STEP TIME
 NULL.                 -999.25: NULL VALUE
 UNIT.                     N/A:  LOGGING EQUIPMENT ID
 DCON.         Sperry Drilling:  DIRECTNL CONTR
 DOE .                     N/A:  DOE NUMBER
 JOBN.        AZ-XX-0906252240:  JOB TICKET NUMB
 MWDS.                     N/A:  MWD SHOP
 PROV.                    Baku:  PROVINCE
 STAT.                    Baku:  STATE NAME
 REGN.                   EESSA:  REGION
 BASE.              Azerbaijan:  LOGGING EQUIPMENT BASE LOCATION
 UWI .                     N/A:  UNIQUE WELL IDENTIFIER
 API .                     N/A:  API NUMBER
 MDS .        Operator Entered:  MAG DATA SOURCE
 WTYP.                Deviated:  WELL TYPE
 COMP.     BP Exploration (Caspian Sea) Ltd.:  COMPANY
 SRVC.          Turan Drilling:  CONTRACTOR
 WELL.           J23 (Slot 07):  WELL NAME
 CTRY.              Azerbaijan:  COUNTRY NAME
 FLD .                     ACG:  FIELD NAME
 PDAT.          Mean Sea Level:  PERMANENT DATUM
 RIG .             West Chirag:  RIG NAME
 SON .        AZ-XX-0906252240:  JOB NUMBER
 FTOP.          Formation Tops:  FORM TOPS DESC
 ILTD.               Lithology:  INTERP LTH DESC
 SVYD.                  Survey:  SURVEY DESC
 DMOD.             Drill Model:  DRILL MOD DESC
 HPTY.       Minimum Curvature:  HOLE POS TYPE
 NREF.                    Grid:  NORTH REFERENCE
 SPUD.               27-Aug-20:  SPUD DATE
 DATE.      00.00.00 19-May-20:  END TIME
 STIM.      03.00.00 25-Mar-20:  START TIME
 DMF .             Drill Floor:  DRILL MEAS FROM
 DFST.                        :  DIST FSL TEXT
 DFWT.                        :  DIST FWL TEXT
 CNTY.                        :  COUNTY
 LOC .                        :  LOCATION
 LMF .             Drill Floor:  LOG MEASURED FROM
 VSNS.m                   9.43:  VERT SEC N/S
 VSEW.m                  -8.91:  VERT SEC E/W
 AGAP.m                  43.00:  AIR GAP
 DEP .m                 354.17:  DEPTH
 APD .m                  43.00:  DEPTH ABOVE PD
 WDMS.m                 169.80:  WD ELEV
 EGL .m                   0.00:  GROUND ELEVATION
 EPD .m                   0.00:  ELEVATION
 AZTC.deg                 6.31:  AZM TOTAL CORR
 GRDC.deg                 0.14:  GRID CORRECTION
 MDEC.deg                 6.45:  MAGNETIC DECL
 MDIP.deg                59.56:  MAGNETIC DIP
 MFLD.nT              50295.00:  MAGNETIC FIELD
 GVFD.g                   1.00:  GRAVITY FIELD
 VSDR.deg               179.88:  VERT SEC DIRECT
 TDD .m                5150.01:  TOTAL DEPTH (DRILLER)
 SDEP.m                 864.00:  START DEPTH
 DFSL.m                   0.00:  DISTANCE FSL
 DFWL.m                   0.00:  DISTANCE FWL
 UTMY.m             4443793.85:  UTM Y
 UTMX.m              519005.06:  UTM X
 WHEW.m                  -8.91:  WELL HEAD E/W
 WHNS.m                   9.43:  WELL HEAD N/S
 LONG.deg                51.22:  LONGITUDE
 LATI.deg                40.13:  LATITUDE
 TVDS.m                  43.00:  TVDSS CORRECTN
 EKB .m                   0.00:  KB ELEVATION
 EDF .m                  43.00:  DF ELEVATION
 TDL .m                 363.00:  TOTAL DEPTH (LOGGER)
 MAGU.                 1850802:  MAGUTM CHECKSUM
 VSC .                       0:  VS TO CLOSURE
~Parameter Information Block
#MNEM.UNIT       Value        Description
#---------     -----------    ---------------------------
 AV  .mps                 2.30:  Ann Velocity 
 AVMX.mps                 4.40:  Max Ann Veloc 
 AZIF.deg               110.24:  Azm, Final 
 BHAT.        Rotary Steerable:  BHA Type 
 BREV.rev               331.00:  Rev Bit Total 
 BROT.°/30m               0.00:  Build Rotating 
 BS  .in                  8.50:  Bit Size 
 BSZ .in                  8.50:  Bit Size 
 BTPL.psig              585.00:  Bit Press Loss 
 CABU.                     Yes:  Customer Abuse 
 TCS .hr                122.75:  Time Ciculation Ended 
 CV  .mps                 2.67:  Crit Velocity 
 CVMX.mps                 3.56:  Max Crit Veloc 
 DD1 .          Rashad Habibov:  Direct Drillr 1 
 DD2 .         Rasim Ibrahimov:  Direct Drillr 2 
 DDSV.               Geo-Pilot:  DD Service 
 DEFF.%                  98.00:  % Det Eff 
 DLRX.°/30m               0.75:  Dogleg Rot Max 
 DLSO.°/30m               1.25:  Dogleg Oriented 
 DLSX.°/30m               2.06:  Dogleg Str Max 
 DRET.      07.45.00 17-May-20:  Drill End Time 
 DRST.      22.50.00 15-May-20:  Drill Start Tim 
 DTIM.hr                 20.75:  Time Drilling 
 EDEP.m                5124.01:  End Depth 
 ENG1.           Eldar Hajiyev:  Engineer 1 
 ENG2.        Marcelo Sandoval:  Engineer 2 
 ENG3.        Davud huseynzada:  Engineer 3 
 ENG4.          Ruslan Safarov:  Engineer 4 
 ETIM.      04.33.00 23-May-20:  End Time 
 FLOI.gpm               450.00:  Flow In 
 FLON.gpm               400.00:  Flow In Min 
 FLOS.cptm                0.00:  Fluid Loss 
 FLOX.gpm               500.00:  Flow In Max 
 FTRO.       Formation Presure:  FTWD Run Obj 
 HFLO.                      No:  High Flow 
 HPRE.                     Yes:  High Pressure 
 HTEM.                      No:  High Temp 
 HYDO.m                   1.80:  Hydro Offset 
 IFIN.deg                75.06:  Inc, Final 
 IMAX.deg                75.38:  Inc Max 
 IMIN.deg                74.69:  Inc Min 
 IMND.m                5027.38:  Inc Min Depth 
 IMXD.m                4771.61:  Inc Max Depth 
 JARR.                      No:  Jarring 
 LETM.      07.45.00 17-May-20:  Log End Time 
 LOST.hr                     0:  Lost Rig Time 
 LSTM.      22.50.00 15-May-20:  Log Start Time 
 MDCL.ppm             42000.00:  Mud Chlorides 
 MDES.     Inversion Oil/Synthetic:  Mud Desc 
 DFD .sg                  1.34:  Mud Density 
 MDMN.sg                  1.34:  Dens Mud Min 
 MDMX.sg                  1.34:  Dens Mud Max 
 MOIL.                       0:  Run Mud Oil % 
 MOWR.                   67:33:  Run Mud OWR 
 MSND.                       0:  Run Mud Sand % 
 MSOL.                     1.8:  Run Mud Solids% 
 DFV .spqt               76.00:  Mud Viscosity 
 MWOD.in                  6.75:  MWD Tool OD 
 MWSI.                      No:  Serv Intrp, MWD 
 OTIM.hr                228.19:  Time Operating 
 PCON.           Look Like New:  Pad Condition 
 PMAX.psia             6164.70:  Press Op, Max 
 PV  .cP                 28.00:  Mud PV 
 RUN .                     900:  Run Number 
 ROPA.m/hr               19.00:  ROP Avg 
 ROPN.m/hr               11.00:  ROP Min 
 ROPX.m/hr               36.00:  ROP Max 
 RPMA.rpm               120.00:  RPM Surface Avg 
 RPMN.rpm               120.00:  RPM Surface Min 
 RPMX.rpm               120.00:  RPM Surface Max 
 RRUN.                    L604:  Rig Run Number 
 RTIM.hr                  7.00:  Time Reaming 
 SAZI.deg               109.27:  Azm, Start 
 SDEP.m                4761.01:  Start Depth 
 SIDD.                      No:  Serv Intrp, DD 
 SINC.deg                75.38:  Inc, Start 
 SPPA.psig             3574.00:  SPP Avg 
 SPPN.psig             3475.00:  SPP Min 
 SPPX.psig             3791.00:  SPP Max 
 STIM.      07.08.48 13-May-20:  Start Time 
 SVCS.                 DD, MWD:  Services 
 SVER.                    9.20:  Sperry Version 
 TDAT.m                 363.00:  Tot Depth Attmp 
 TDDF.                      No:  Trip for DD 
 TDLG.m                 363.00:  Tot Depth Loggd 
 TFF .                      No:  Trip for Fail 
 TQAA.f-kp               20.00:  Torque Abs Avg 
 TQAN.f-kp               18.00:  Torque Abs Min 
 TQAX.f-kp               22.00:  Torque Abs Max 
 TRRT.°/30m              -0.35:  Turn Rotating 
 MRT .                    HCIM:  Maximum Recorded Temperature 
 TTMX.degC               92.16:  Max Tool Temp 
 VS01.                90586518:  Virtual Str1 SN 
 VS02.        AZ90560654Z1W1C6:  Virtual Str2 SN 
 VS03.           AZ90610398F11:  Virtual Str3 SN 
 VS04.                90514975:  Virtual Str4 SN 
 VS05.                90514972:  Virtual Str5 SN 
 VS06.     AZ90603282F11V7D1A6:  Virtual Str6 SN 
 WBMN.klb                 7.00:  WOB Min 
 WOBA.klb                12.00:  WOB Avg 
 WOBX.klb                14.00:  WOB Max 
 YP  .lhf2               32.00:  Yield Point 
~Curve Information Block
#MNEM.UNIT                 API CODE     Curve Description
#---------               -----------    ---------------------------
 TIME.HHMMSS            00 000 000 000:  GT Time & Date
 GTDEPTH.m              00 000 000 000:  GT Depth
 GTPQH.psia             00 000 000 000:  GT HR Quartz Pressure
 GTTQ.degC              00 000 000 000:  GT Quartz Temperature
 GTTN.NONE              00 000 000 000:  GT Test Number
 GTET.sec               00 000 000 000:  GT Elapsed Test Time
 GTTVD.m                00 000 000 000:  GT True Vertical Depth
#Other Information
#
#WARRANTY: Halliburton will use its best efforts to furnish customers with 
#accurate information and interpretations that are part of, and incident to, the services 
#provided.  However, Halliburton cannot and does not warrant the accuracy 
#or correctness of such information and interpretations.  Under no circumstances should any 
#such information or interpretation be relied upon as the sole basis for any drilling, 
#completion, production, or financial decision or any procedure involving any risk to the 
#safety of any drilling venture, drilling rig or its crew or any other third party.  The 
#Customer has full responsibility for all drilling, completion and production operation.  
#Halliburton makes no representations or warranties, either expressed or 
#implied, including, but not limited to, the implied warranties of merchantability or fitness 
#for a particular purpose, with respect to the services rendered.  In no event will 
#Halliburton be liable for failure to obtain any particular results or for 
#any damages, including, but not limited to, indirect, special or consequential damages, 
#resulting from the use of any information or interpretation provided by Halliburton.
#
~A           TIME           GTDEPTH  GTPQH  GTTQ  GTTN  GTET   GTTVD  
# ...
   23:38:41.013.17-May-2020 4902.01 3681.50 66.32 9.00 114.94 2567.50
   23:38:41.213.17-May-2020 4902.01 3681.50 66.32 9.00 115.14 2567.50
   23:38:41.413.17-May-2020 4902.01 3680.98 66.32 9.00 115.34 2567.50
   23:38:41.613.17-May-2020 4902.01 3681.00 66.32 9.00 115.54 2567.50
   23:38:41.813.17-May-2020 4902.01 3681.15 66.32 9.00 115.74 2567.50
   23:38:42.012.17-May-2020 4902.01 3681.80 66.32 9.00 115.94 2567.50
   23:38:42.212.17-May-2020 4902.01 3681.80 66.32 9.00 116.14 2567.50
   23:38:42.412.17-May-2020 4902.01 3681.51 66.32 9.00 116.34 2567.50
   23:38:42.612.17-May-2020 4902.01 3682.06 66.32 9.00 116.54 2567.50
   23:38:42.812.17-May-2020 4902.01 3682.59 66.32 9.00 116.74 2567.50
   23:38:43.012.17-May-2020 4902.01 3682.83 66.32 9.00 116.94 2567.50
   23:38:43.212.17-May-2020 4902.01 3682.83 66.32 9.00 117.14 2567.50
   23:38:43.412.17-May-2020 4902.01 3683.13 66.32 9.00 117.34 2567.50
   23:38:43.612.17-May-2020 4902.01 3683.00 66.32 9.00 117.54 2567.50
   23:38:43.812.17-May-2020 4902.01 3683.67 66.32 9.00 117.74 2567.50
   23:38:44.011.17-May-2020 4902.01 3684.44 66.32 9.00 117.94 2567.50
   23:38:44.211.17-May-2020 4902.01 3684.44 66.32 9.00 118.14 2567.50
   23:38:44.411.17-May-2020 4902.01 3685.68 66.32 9.00 118.34 2567.50
   23:38:44.611.17-May-2020 4902.01 3686.32 66.32 9.00 118.54 2567.50
   23:38:44.811.17-May-2020 4902.01 3686.69 66.32 9.00 118.74 2567.50
   23:38:45.011.17-May-2020 4902.01 3687.19 66.32 9.00 118.94 2567.50
   23:38:45.211.17-May-2020 4902.01 3687.19 66.32 9.00 119.14 2567.50
   23:38:45.411.17-May-2020 4902.01 3685.85 66.32 9.00 119.34 2567.50
   23:38:45.611.17-May-2020 4902.01 3685.99 66.32 9.00 119.54 2567.50
   23:38:45.811.17-May-2020 4902.01 3686.42 66.32 9.00 119.74 2567.50
   23:38:46.010.17-May-2020 4902.01 3686.93 66.32 9.00 119.94 2567.50
   23:38:46.210.17-May-2020 4902.01 3686.93 66.32 9.00 120.14 2567.50
   23:38:46.410.17-May-2020 4902.01 3688.30 66.32 9.00 120.34 2567.50
   23:38:46.610.17-May-2020 4902.01 3688.77 66.32 9.00 120.54 2567.50
   23:38:46.810.17-May-2020 4902.01 3689.27 66.32 9.00 120.74 2567.50
   23:38:47.010.17-May-2020 4902.01 3689.69 66.32 9.00 120.94 2567.50
   23:38:47.210.17-May-2020 4902.01 3689.69 66.32 9.00 121.14 2567.50
   23:38:47.410.17-May-2020 4902.01 3689.81 66.32 9.00 121.34 2567.50
   23:38:47.610.17-May-2020 4902.01 3688.47 66.32 9.00 121.54 2567.50
   23:38:47.810.17-May-2020 4902.01 3688.59 66.32 9.00 121.74 2567.50
   23:38:48.009.17-May-2020 4902.01 3689.35 66.32 9.00 121.94 2567.50
   23:38:48.209.17-May-2020 4902.01 3689.35 66.32 9.00 122.14 2567.50
   23:38:48.409.17-May-2020 4902.01 3688.19 66.32 9.00 122.34 2567.50
   23:38:48.609.17-May-2020 4902.01 3688.32 66.32 9.00 122.54 2567.50
   23:38:48.809.17-May-2020 4902.01 3688.95 66.32 9.00 122.74 2567.50
   23:38:49.009.17-May-2020 4902.01 3688.45 66.32 9.00 122.94 2567.50
   23:38:49.209.17-May-2020 4902.01 3688.45 66.32 9.00 123.14 2567.50
   23:38:49.409.17-May-2020 4902.01 3688.68 66.32 9.00 123.34 2567.50
   23:38:49.609.17-May-2020 4902.01 3689.31 66.32 9.00 123.54 2567.50
   23:38:49.808.17-May-2020 4902.01 3690.30 66.32 9.00 123.74 2567.50
   23:38:50.008.17-May-2020 4902.01 3688.85 66.32 9.00 123.94 2567.50
   23:38:50.208.17-May-2020 4902.01 3688.85 66.32 9.00 124.14 2567.50
   23:38:50.408.17-May-2020 4902.01 3688.73 66.32 9.00 124.34 2567.50
   23:38:50.608.17-May-2020 4902.01 3689.37 66.32 9.00 124.54 2567.50
   23:38:50.808.17-May-2020 4902.01 3690.33 66.32 9.00 124.74 2567.50
   23:38:51.008.17-May-2020 4902.01 3690.76 66.32 9.00 124.94 2567.50
   23:38:51.208.17-May-2020 4902.01 3690.76 66.32 9.00 125.14 2567.50
   23:38:51.408.17-May-2020 4902.01 3691.87 66.32 9.00 125.34 2567.50
   23:38:51.608.17-May-2020 4902.01 3692.45 66.32 9.00 125.54 2567.50
   23:38:51.807.17-May-2020 4902.01 3692.96 66.32 9.00 125.74 2567.50
   23:38:52.007.17-May-2020 4902.01 3693.29 66.32 9.00 125.94 2567.50
   23:38:52.207.17-May-2020 4902.01 3693.29 66.32 9.00 126.14 2567.50
   23:38:52.407.17-May-2020 4902.01 3691.52 66.32 9.00 126.34 2567.50
   23:38:52.607.17-May-2020 4902.01 3692.54 66.32 9.00 126.54 2567.50
   23:38:52.807.17-May-2020 4902.01 3693.23 66.32 9.00 126.73 2567.50
   23:38:53.007.17-May-2020 4902.01 3693.87 66.32 9.00 126.93 2567.50
   23:38:53.207.17-May-2020 4902.01 3693.87 66.32 9.00 127.13 2567.50
   23:38:53.407.17-May-2020 4902.01 3694.96 66.32 9.00 127.33 2567.50
   23:38:53.607.17-May-2020 4902.01 3695.25 66.32 9.00 127.53 2567.50
   23:38:53.806.17-May-2020 4902.01 3695.69 66.32 9.00 127.73 2567.50
   23:38:54.006.17-May-2020 4902.01 3696.04 66.32 9.00 127.93 2567.50
   23:38:54.206.17-May-2020 4902.01 3696.04 66.32 9.00 128.13 2567.50
   23:38:54.406.17-May-2020 4902.01 3694.77 66.32 9.00 128.33 2567.50
   23:38:54.606.17-May-2020 4902.01 3695.14 66.32 9.00 128.53 2567.50
   23:38:54.806.17-May-2020 4902.01 3695.52 66.32 9.00 128.73 2567.50
   23:38:55.006.17-May-2020 4902.01 3693.95 66.32 9.00 128.93 2567.50
   23:38:55.206.17-May-2020 4902.01 3693.95 66.32 9.00 129.13 2567.50
   23:38:55.406.17-May-2020 4902.01 3694.56 66.32 9.00 129.33 2567.50
   23:38:55.606.17-May-2020 4902.01 3695.03 66.32 9.00 129.53 2567.50
   23:38:55.805.17-May-2020 4902.01 3694.10 66.32 9.00 129.73 2567.50
   23:38:56.005.17-May-2020 4902.01 3694.18 66.32 9.00 129.93 2567.50
   23:38:56.205.17-May-2020 4902.01 3694.18 66.32 9.00 130.13 2567.50
   23:38:56.405.17-May-2020 4902.01 3694.87 66.32 9.00 130.33 2567.50
   23:38:56.605.17-May-2020 4902.01 3692.94 66.32 9.00 130.53 2567.50
   23:38:56.805.17-May-2020 4902.01 3692.22 66.32 9.00 130.73 2567.50
   23:38:57.005.17-May-2020 4902.01 3693.35 66.32 9.00 130.93 2567.50
   23:38:57.205.17-May-2020 4902.01 3693.35 66.32 9.00 131.13 2567.50
   23:38:57.405.17-May-2020 4902.01 3694.92 66.32 9.00 131.33 2567.50
   23:38:57.604.17-May-2020 4902.01 3695.42 66.32 9.00 131.53 2567.50
   23:38:57.804.17-May-2020 4902.01 3696.18 66.32 9.00 131.73 2567.50
   23:38:58.004.17-May-2020 4902.01 3696.72 66.32 9.00 131.93 2567.50
   23:38:58.204.17-May-2020 4902.01 3696.72 66.32 9.00 132.13 2567.50
   23:38:58.404.17-May-2020 4902.01 3697.78 66.32 9.00 132.33 2567.50
   23:38:58.604.17-May-2020 4902.01 3696.94 66.32 9.00 132.53 2567.50
   23:38:58.804.17-May-2020 4902.01 3696.67 66.32 9.00 132.73 2567.50
   23:38:59.004.17-May-2020 4902.01 3696.78 66.32 9.00 132.93 2567.50
   23:38:59.204.17-May-2020 4902.01 3696.78 66.32 9.00 133.13 2567.50
   23:38:59.404.17-May-2020 4902.01 3698.17 66.32 9.00 133.33 2567.50
   23:38:59.603.17-May-2020 4902.01 3698.77 66.32 9.00 133.53 2567.50
   23:38:59.803.17-May-2020 4902.01 3698.96 66.32 9.00 133.73 2567.50
   23:39:00.003.17-May-2020 4902.01 3699.50 66.32 9.00 133.93 2567.50
   23:39:00.203.17-May-2020 4902.01 3699.50 66.32 9.00 134.13 2567.50
   23:39:00.403.17-May-2020 4902.01 3700.33 66.32 9.00 134.33 2567.50
   23:39:00.603.17-May-2020 4902.01 3700.63 66.32 9.00 134.53 2567.50
   23:39:00.803.17-May-2020 4902.01 3698.90 66.32 9.00 134.73 2567.50
   23:39:01.003.17-May-2020 4902.01 3698.60 66.32 9.00 134.93 2567.50
   23:39:01.203.17-May-2020 4902.01 3698.60 66.32 9.00 135.13 2567.50
   23:39:01.403.17-May-2020 4902.01 3700.05 66.32 9.00 135.33 2567.50
   23:39:01.602.17-May-2020 4902.01 3698.57 66.32 9.00 135.53 2567.50
   23:39:01.802.17-May-2020 4902.01 3698.75 66.32 9.00 135.73 2567.50
   23:39:02.002.17-May-2020 4902.01 3699.87 66.32 9.00 135.93 2567.50
   23:39:02.202.17-May-2020 4902.01 3699.87 66.32 9.00 136.13 2567.50
   23:39:02.402.17-May-2020 4902.01 3700.51 66.32 9.00 136.33 2567.50
   23:39:02.602.17-May-2020 4902.01 3698.73 66.32 9.00 136.53 2567.50
   23:39:02.802.17-May-2020 4902.01 3698.60 66.32 9.00 136.73 2567.50
   23:39:03.002.17-May-2020 4902.01 3699.16 66.32 9.00 136.93 2567.50
   23:39:03.202.17-May-2020 4902.01 3699.16 66.32 9.00 137.13 2567.50
   23:39:03.402.17-May-2020 4902.01 3697.55 66.32 9.00 137.33 2567.50
   23:39:03.601.17-May-2020 4902.01 3698.51 66.32 9.00 137.53 2567.50
   23:39:03.801.17-May-2020 4902.01 3699.37 66.32 9.00 137.73 2567.50
