~Version Information
 VERS.                  2.0:   CWLS log ASCII Standard -VERSION 2.0
 WRAP.                   NO:   One line per depth step
~Well Information Block
#MNEM.UNIT     VALUE/NAME     DESCRIPTION
#---------     -----------    ---------------------------
 STRT.S             22:05:00 17-May-20: START TIME 22:05:00 17-May-20
 STOP.S             22:12:03 17-May-20: STOP TIME  22:12:03 17-May-20
 STEP.S                   0.00: STEP TIME
 NULL.                 -999.25: NULL VALUE
 UNIT.                     N/A:  LOGGING EQUIPMENT ID
 DCON.         Sperry Drilling:  DIRECTNL CONTR
 DOE .                     N/A:  DOE NUMBER
 JOBN.        AZ-XX-0906252240:  JOB TICKET NUMB
 MWDS.                     N/A:  MWD SHOP
 PROV.                    Baku:  PROVINCE
 STAT.                    Baku:  STATE NAME
 REGN.                   EESSA:  REGION
 BASE.              Azerbaijan:  LOGGING EQUIPMENT BASE LOCATION
 UWI .                     N/A:  UNIQUE WELL IDENTIFIER
 API .                     N/A:  API NUMBER
 MDS .        Operator Entered:  MAG DATA SOURCE
 WTYP.                Deviated:  WELL TYPE
 COMP.     BP Exploration (Caspian Sea) Ltd.:  COMPANY
 SRVC.          Turan Drilling:  CONTRACTOR
 WELL.           J23 (Slot 07):  WELL NAME
 CTRY.              Azerbaijan:  COUNTRY NAME
 FLD .                     ACG:  FIELD NAME
 PDAT.          Mean Sea Level:  PERMANENT DATUM
 RIG .             West Chirag:  RIG NAME
 SON .        AZ-XX-0906252240:  JOB NUMBER
 FTOP.          Formation Tops:  FORM TOPS DESC
 ILTD.               Lithology:  INTERP LTH DESC
 SVYD.                  Survey:  SURVEY DESC
 DMOD.             Drill Model:  DRILL MOD DESC
 HPTY.       Minimum Curvature:  HOLE POS TYPE
 NREF.                    Grid:  NORTH REFERENCE
 SPUD.               27-Aug-20:  SPUD DATE
 DATE.      00.00.00 19-May-20:  END TIME
 STIM.      03.00.00 25-Mar-20:  START TIME
 DMF .             Drill Floor:  DRILL MEAS FROM
 DFST.                        :  DIST FSL TEXT
 DFWT.                        :  DIST FWL TEXT
 CNTY.                        :  COUNTY
 LOC .                        :  LOCATION
 LMF .             Drill Floor:  LOG MEASURED FROM
 VSNS.m                   9.43:  VERT SEC N/S
 VSEW.m                  -8.91:  VERT SEC E/W
 AGAP.m                  43.00:  AIR GAP
 DEP .m                 354.17:  DEPTH
 APD .m                  43.00:  DEPTH ABOVE PD
 WDMS.m                 169.80:  WD ELEV
 EGL .m                   0.00:  GROUND ELEVATION
 EPD .m                   0.00:  ELEVATION
 AZTC.deg                 6.31:  AZM TOTAL CORR
 GRDC.deg                 0.14:  GRID CORRECTION
 MDEC.deg                 6.45:  MAGNETIC DECL
 MDIP.deg                59.56:  MAGNETIC DIP
 MFLD.nT              50295.00:  MAGNETIC FIELD
 GVFD.g                   1.00:  GRAVITY FIELD
 VSDR.deg               179.88:  VERT SEC DIRECT
 TDD .m                5150.01:  TOTAL DEPTH (DRILLER)
 SDEP.m                 864.00:  START DEPTH
 DFSL.m                   0.00:  DISTANCE FSL
 DFWL.m                   0.00:  DISTANCE FWL
 UTMY.m             4443793.85:  UTM Y
 UTMX.m              519005.06:  UTM X
 WHEW.m                  -8.91:  WELL HEAD E/W
 WHNS.m                   9.43:  WELL HEAD N/S
 LONG.deg                51.22:  LONGITUDE
 LATI.deg                40.13:  LATITUDE
 TVDS.m                  43.00:  TVDSS CORRECTN
 EKB .m                   0.00:  KB ELEVATION
 EDF .m                  43.00:  DF ELEVATION
 TDL .m                 363.00:  TOTAL DEPTH (LOGGER)
 MAGU.                 1850802:  MAGUTM CHECKSUM
 VSC .                       0:  VS TO CLOSURE
~Parameter Information Block
#MNEM.UNIT       Value        Description
#---------     -----------    ---------------------------
 AV  .mps                 2.30:  Ann Velocity 
 AVMX.mps                 4.40:  Max Ann Veloc 
 AZIF.deg               110.24:  Azm, Final 
 BHAT.        Rotary Steerable:  BHA Type 
 BREV.rev               331.00:  Rev Bit Total 
 BROT.°/30m               0.00:  Build Rotating 
 BS  .in                  8.50:  Bit Size 
 BSZ .in                  8.50:  Bit Size 
 BTPL.psig              585.00:  Bit Press Loss 
 CABU.                     Yes:  Customer Abuse 
 COMM.                     íe:  Run Comments 1 
 TCS .hr                122.75:  Time Ciculation Ended 
 CV  .mps                 2.67:  Crit Velocity 
 CVMX.mps                 3.56:  Max Crit Veloc 
 DD1 .          Rashad Habibov:  Direct Drillr 1 
 DD2 .         Rasim Ibrahimov:  Direct Drillr 2 
 DDSV.               Geo-Pilot:  DD Service 
 DEFF.%                  98.00:  % Det Eff 
 DLRX.°/30m               0.75:  Dogleg Rot Max 
 DLSO.°/30m               1.25:  Dogleg Oriented 
 DLSX.°/30m               2.06:  Dogleg Str Max 
 DRET.      07.45.00 17-May-20:  Drill End Time 
 DRST.      22.50.00 15-May-20:  Drill Start Tim 
 DTIM.hr                 20.75:  Time Drilling 
 EDEP.m                5124.01:  End Depth 
 ENG1.           Eldar Hajiyev:  Engineer 1 
 ENG2.        Marcelo Sandoval:  Engineer 2 
 ENG3.        Davud huseynzada:  Engineer 3 
 ENG4.          Ruslan Safarov:  Engineer 4 
 ETIM.      04.33.00 23-May-20:  End Time 
 FLOI.gpm               450.00:  Flow In 
 FLON.gpm               400.00:  Flow In Min 
 FLOS.cptm                0.00:  Fluid Loss 
 FLOX.gpm               500.00:  Flow In Max 
 FTRO.       Formation Presure:  FTWD Run Obj 
 HFLO.                      No:  High Flow 
 HPRE.                     Yes:  High Pressure 
 HTEM.                      No:  High Temp 
 HYDO.m                   1.80:  Hydro Offset 
 IFIN.deg                75.06:  Inc, Final 
 IMAX.deg                75.38:  Inc Max 
 IMIN.deg                74.69:  Inc Min 
 IMND.m                5027.38:  Inc Min Depth 
 IMXD.m                4771.61:  Inc Max Depth 
 JARR.                      No:  Jarring 
 LETM.      07.45.00 17-May-20:  Log End Time 
 LOST.hr                     0:  Lost Rig Time 
 LSTM.      22.50.00 15-May-20:  Log Start Time 
 MDCL.ppm             42000.00:  Mud Chlorides 
 MDES.     Inversion Oil/Synthetic:  Mud Desc 
 DFD .sg                  1.34:  Mud Density 
 MDMN.sg                  1.34:  Dens Mud Min 
 MDMX.sg                  1.34:  Dens Mud Max 
 MOIL.                       0:  Run Mud Oil % 
 MOWR.                   67:33:  Run Mud OWR 
 MSND.                       0:  Run Mud Sand % 
 MSOL.                     1.8:  Run Mud Solids% 
 DFV .spqt               76.00:  Mud Viscosity 
 MWOD.in                  6.75:  MWD Tool OD 
 MWSI.                      No:  Serv Intrp, MWD 
 OTIM.hr                228.19:  Time Operating 
 PCON.           Look Like New:  Pad Condition 
 PMAX.psia             6164.70:  Press Op, Max 
 PV  .cP                 28.00:  Mud PV 
 RUN .                     900:  Run Number 
 ROPA.m/hr               19.00:  ROP Avg 
 ROPN.m/hr               11.00:  ROP Min 
 ROPX.m/hr               36.00:  ROP Max 
 RPMA.rpm               120.00:  RPM Surface Avg 
 RPMN.rpm               120.00:  RPM Surface Min 
 RPMX.rpm               120.00:  RPM Surface Max 
 RRUN.                    L604:  Rig Run Number 
 RTIM.hr                  7.00:  Time Reaming 
 SAZI.deg               109.27:  Azm, Start 
 SDEP.m                4761.01:  Start Depth 
 SIDD.                      No:  Serv Intrp, DD 
 SINC.deg                75.38:  Inc, Start 
 SPPA.psig             3574.00:  SPP Avg 
 SPPN.psig             3475.00:  SPP Min 
 SPPX.psig             3791.00:  SPP Max 
 STIM.      07.08.48 13-May-20:  Start Time 
 SVCS.                 DD, MWD:  Services 
 SVER.                    9.20:  Sperry Version 
 TDAT.m                 363.00:  Tot Depth Attmp 
 TDDF.                      No:  Trip for DD 
 TDLG.m                 363.00:  Tot Depth Loggd 
 TFF .                      No:  Trip for Fail 
 TQAA.f-kp               20.00:  Torque Abs Avg 
 TQAN.f-kp               18.00:  Torque Abs Min 
 TQAX.f-kp               22.00:  Torque Abs Max 
 TRRT.°/30m              -0.35:  Turn Rotating 
 MRT .                    HCIM:  Maximum Recorded Temperature 
 TTMX.degC               92.16:  Max Tool Temp 
 VS01.                90586518:  Virtual Str1 SN 
 VS02.        AZ90560654Z1W1C6:  Virtual Str2 SN 
 VS03.           AZ90610398F11:  Virtual Str3 SN 
 VS04.                90514975:  Virtual Str4 SN 
 VS05.                90514972:  Virtual Str5 SN 
 VS06.     AZ90603282F11V7D1A6:  Virtual Str6 SN 
 WBMN.klb                 7.00:  WOB Min 
 WOBA.klb                12.00:  WOB Avg 
 WOBX.klb                14.00:  WOB Max 
 YP  .lhf2               32.00:  Yield Point 
~Curve Information Block
#MNEM.UNIT                 API CODE     Curve Description
#---------               -----------    ---------------------------
 TIME.HHMMSS            00 000 000 000:  GT Time & Date
 GTDEPTH.m              00 000 000 000:  GT Depth
 GTPQH.psia             00 000 000 000:  GT HR Quartz Pressure
 GTTQ.degC              00 000 000 000:  GT Quartz Temperature
 GTTN.NONE              00 000 000 000:  GT Test Number
 GTET.sec               00 000 000 000:  GT Elapsed Test Time
 GTTVD.m                00 000 000 000:  GT True Vertical Depth
#Other Information
#
#WARRANTY: Halliburton will use its best efforts to furnish customers with 
#accurate information and interpretations that are part of, and incident to, the services 
#provided.  However, Halliburton cannot and does not warrant the accuracy 
#or correctness of such information and interpretations.  Under no circumstances should any 
#such information or interpretation be relied upon as the sole basis for any drilling, 
#completion, production, or financial decision or any procedure involving any risk to the 
#safety of any drilling venture, drilling rig or its crew or any other third party.  The 
#Customer has full responsibility for all drilling, completion and production operation.  
#Halliburton makes no representations or warranties, either expressed or 
#implied, including, but not limited to, the implied warranties of merchantability or fitness 
#for a particular purpose, with respect to the services rendered.  In no event will 
#Halliburton be liable for failure to obtain any particular results or for 
#any damages, including, but not limited to, indirect, special or consequential damages, 
#resulting from the use of any information or interpretation provided by Halliburton.
#
~A           TIME           GTDEPTH  GTPQH  GTTQ  GTTN  GTET   GTTVD  
# ...
   22:09:14.256.17-May-2020 4937.01 2932.05 67.64 7.00 253.46 2576.47
   22:09:14.456.17-May-2020 4937.01 2932.05 67.64 7.00 253.67 2576.47
   22:09:14.657.17-May-2020 4937.01 2932.03 67.64 7.00 253.87 2576.47
   22:09:14.857.17-May-2020 4937.01 2932.04 67.64 7.00 254.07 2576.47
   22:09:15.057.17-May-2020 4937.01 2932.03 67.64 7.00 254.27 2576.47
   22:09:15.258.17-May-2020 4937.01 2932.04 67.64 7.00 254.47 2576.47
   22:09:15.458.17-May-2020 4937.01 2932.06 67.64 7.00 254.67 2576.47
   22:09:15.659.17-May-2020 4937.01 2932.08 67.64 7.00 254.87 2576.47
   22:09:15.859.17-May-2020 4937.01 2932.03 67.64 7.00 255.07 2576.47
   22:09:16.059.17-May-2020 4937.01 2932.06 67.64 7.00 255.27 2576.47
   22:09:16.260.17-May-2020 4937.01 2932.12 67.64 7.00 255.47 2576.47
   22:09:16.460.17-May-2020 4937.01 2932.12 67.64 7.00 255.67 2576.47
   22:09:16.660.17-May-2020 4937.01 2932.10 67.64 7.00 255.87 2576.47
   22:09:16.861.17-May-2020 4937.01 2931.99 67.64 7.00 256.07 2576.47
   22:09:17.061.17-May-2020 4937.01 2932.05 67.64 7.00 256.27 2576.47
   22:09:17.262.17-May-2020 4937.01 2932.13 67.64 7.00 256.47 2576.47
   22:09:17.462.17-May-2020 4937.01 2932.13 67.64 7.00 256.67 2576.47
   22:09:17.662.17-May-2020 4937.01 2932.10 67.64 7.00 256.87 2576.47
   22:09:17.863.17-May-2020 4937.01 2932.01 67.64 7.00 257.07 2576.47
   22:09:18.063.17-May-2020 4937.01 2932.06 67.64 7.00 257.27 2576.47
   22:09:18.263.17-May-2020 4937.01 2932.15 67.64 7.00 257.47 2576.47
   22:09:18.464.17-May-2020 4937.01 2932.15 67.64 7.00 257.67 2576.47
   22:09:18.664.17-May-2020 4937.01 2932.07 67.64 7.00 257.87 2576.47
   22:09:18.864.17-May-2020 4937.01 2932.03 67.64 7.00 258.07 2576.47
   22:09:19.065.17-May-2020 4937.01 2932.04 67.64 7.00 258.27 2576.47
   22:09:19.265.17-May-2020 4937.01 2932.03 67.64 7.00 258.47 2576.47
   22:09:19.466.17-May-2020 4937.01 2932.10 67.64 7.00 258.67 2576.47
   22:09:19.666.17-May-2020 4937.01 2924.25 67.64 7.00 258.87 2576.47
   22:09:19.866.17-May-2020 4937.01 2918.61 67.64 7.00 259.08 2576.47
   22:09:20.067.17-May-2020 4937.01 2918.07 67.64 7.00 259.28 2576.47
   22:09:20.267.17-May-2020 4937.01 2918.16 67.64 7.00 259.48 2576.47
   22:09:20.467.17-May-2020 4937.01 2918.16 67.64 7.00 259.68 2576.47
   22:09:20.668.17-May-2020 4937.01 2918.01 67.64 7.00 259.88 2576.47
   22:09:20.868.17-May-2020 4937.01 2918.40 67.64 7.00 260.08 2576.47
   22:09:21.069.17-May-2020 4937.01 2918.08 67.64 7.00 260.28 2576.47
   22:09:21.269.17-May-2020 4937.01 2918.18 67.64 7.00 260.48 2576.47
   22:09:21.469.17-May-2020 4937.01 2918.18 67.64 7.00 260.68 2576.47
   22:09:21.670.17-May-2020 4937.01 2917.97 67.64 7.00 260.88 2576.47
   22:09:21.870.17-May-2020 4937.01 2917.95 67.64 7.00 261.08 2576.47
   22:09:22.070.17-May-2020 4937.01 2917.87 67.64 7.00 261.28 2576.47
   22:09:22.271.17-May-2020 4937.01 2917.64 67.64 7.00 261.48 2576.47
   22:09:22.471.17-May-2020 4937.01 2917.64 67.64 7.00 261.68 2576.47
   22:09:22.671.17-May-2020 4937.01 2917.45 67.64 7.00 261.88 2576.47
   22:09:22.872.17-May-2020 4937.01 2918.14 67.64 7.00 262.08 2576.47
   22:09:23.072.17-May-2020 4937.01 2917.89 67.64 7.00 262.28 2576.47
   22:09:23.273.17-May-2020 4937.01 2918.21 67.64 7.00 262.48 2576.47
   22:09:23.473.17-May-2020 4937.01 2917.77 67.64 7.00 262.68 2576.47
   22:09:23.673.17-May-2020 4937.01 2918.55 67.64 7.00 262.88 2576.47
   22:09:23.874.17-May-2020 4937.01 2917.87 67.64 7.00 263.08 2576.47
   22:09:24.074.17-May-2020 4937.01 2917.74 67.64 7.00 263.28 2576.47
   22:09:24.274.17-May-2020 4937.01 2918.14 67.64 7.00 263.48 2576.47
   22:09:24.475.17-May-2020 4937.01 2918.14 67.64 7.00 263.68 2576.47
   22:09:24.675.17-May-2020 4937.01 2918.16 67.64 7.00 263.88 2576.47
   22:09:24.876.17-May-2020 4937.01 2917.84 67.64 7.00 264.08 2576.47
   22:09:25.076.17-May-2020 4937.01 2918.09 67.64 7.00 264.28 2576.47
   22:09:25.276.17-May-2020 4937.01 2918.17 67.64 7.00 264.49 2576.47
   22:09:25.477.17-May-2020 4937.01 2918.17 67.64 7.00 264.69 2576.47
   22:09:25.677.17-May-2020 4937.01 2918.10 67.64 7.00 264.89 2576.47
   22:09:25.877.17-May-2020 4937.01 2917.91 67.64 7.00 265.09 2576.47
   22:09:26.078.17-May-2020 4937.01 2918.01 67.64 7.00 265.29 2576.47
   22:09:26.278.17-May-2020 4937.01 2918.09 67.64 7.00 265.49 2576.47
   22:09:26.478.17-May-2020 4937.01 2918.09 67.64 7.00 265.69 2576.47
   22:09:26.679.17-May-2020 4937.01 2917.94 67.64 7.00 265.89 2576.47
   22:09:26.879.17-May-2020 4937.01 2918.14 67.64 7.00 266.09 2576.47
   22:09:27.080.17-May-2020 4937.01 2917.94 67.64 7.00 266.29 2576.47
   22:09:27.280.17-May-2020 4937.01 2917.99 67.64 7.00 266.49 2576.47
   22:09:27.480.17-May-2020 4937.01 2917.94 67.64 7.00 266.69 2576.47
   22:09:27.681.17-May-2020 4937.01 2917.94 67.64 7.00 266.89 2576.47
   22:09:27.881.17-May-2020 4937.01 2918.35 67.64 7.00 267.09 2576.47
   22:09:28.081.17-May-2020 4937.01 2917.76 67.64 7.00 267.29 2576.47
   22:09:28.282.17-May-2020 4937.01 2918.19 67.64 7.00 267.49 2576.47
   22:09:28.482.17-May-2020 4937.01 2918.19 67.64 7.00 267.69 2576.47
   22:09:28.682.17-May-2020 4937.01 2918.17 67.64 7.00 267.89 2576.47
   22:09:28.883.17-May-2020 4937.01 2918.01 67.64 7.00 268.09 2576.47
   22:09:29.083.17-May-2020 4937.01 2918.19 67.64 7.00 268.29 2576.47
   22:09:29.284.17-May-2020 4937.01 2918.16 67.64 7.00 268.49 2576.47
   22:09:29.484.17-May-2020 4937.01 2918.16 67.64 7.00 268.69 2576.47
   22:09:29.684.17-May-2020 4937.01 2922.63 67.64 7.00 268.89 2576.47
   22:09:29.885.17-May-2020 4937.01 2931.08 67.64 7.00 269.09 2576.47
   22:09:30.085.17-May-2020 4937.01 2931.18 67.64 7.00 269.29 2576.47
   22:09:30.285.17-May-2020 4937.01 2931.41 67.64 7.00 269.49 2576.47
   22:09:30.486.17-May-2020 4937.01 2931.41 67.64 7.00 269.69 2576.47
   22:09:30.686.17-May-2020 4937.01 2931.58 67.64 7.00 269.90 2576.47
   22:09:30.887.17-May-2020 4937.01 2931.50 67.64 7.00 270.10 2576.47
   22:09:31.087.17-May-2020 4937.01 2931.67 67.64 7.00 270.30 2576.47
   22:09:31.287.17-May-2020 4937.01 2931.56 67.64 7.00 270.50 2576.47
   22:09:31.488.17-May-2020 4937.01 2931.66 67.64 7.00 270.70 2576.47
   22:09:31.688.17-May-2020 4937.01 2931.66 67.64 7.00 270.90 2576.47
   22:09:31.888.17-May-2020 4937.01 2931.82 67.64 7.00 271.10 2576.47
   22:09:32.089.17-May-2020 4937.01 2931.60 67.64 7.00 271.30 2576.47
   22:09:32.289.17-May-2020 4937.01 2931.80 67.64 7.00 271.50 2576.47
   22:09:32.489.17-May-2020 4937.01 2931.80 67.64 7.00 271.70 2576.47
   22:09:32.690.17-May-2020 4937.01 2931.75 67.64 7.00 271.90 2576.47
   22:09:32.890.17-May-2020 4937.01 2931.73 67.64 7.00 272.10 2576.47
   22:09:33.091.17-May-2020 4937.01 2931.75 67.64 7.00 272.30 2576.47
   22:09:33.291.17-May-2020 4937.01 2931.75 67.64 7.00 272.50 2576.47
   22:09:33.491.17-May-2020 4937.01 2931.75 67.64 7.00 272.70 2576.47
   22:09:33.692.17-May-2020 4937.01 2931.77 67.64 7.00 272.90 2576.47
   22:09:33.892.17-May-2020 4937.01 2931.75 67.64 7.00 273.10 2576.47
   22:09:34.092.17-May-2020 4937.01 2931.82 67.64 7.00 273.30 2576.47
   22:09:34.293.17-May-2020 4937.01 2931.83 67.64 7.00 273.50 2576.47
   22:09:34.493.17-May-2020 4937.01 2931.83 67.64 7.00 273.70 2576.47
   22:09:34.694.17-May-2020 4937.01 2931.79 67.64 7.00 273.90 2576.47
   22:09:34.894.17-May-2020 4937.01 2931.83 67.64 7.00 274.10 2576.47
   22:09:35.094.17-May-2020 4937.01 2931.81 67.64 7.00 274.30 2576.47
   22:09:35.295.17-May-2020 4937.01 2931.82 67.64 7.00 274.50 2576.47
   22:09:35.495.17-May-2020 4937.01 2931.82 67.64 7.00 274.70 2576.47
   22:09:35.695.17-May-2020 4937.01 2931.83 67.64 7.00 274.90 2576.47
   22:09:35.896.17-May-2020 4937.01 2931.83 67.64 7.00 275.10 2576.47
   22:09:36.096.17-May-2020 4937.01 2931.98 67.64 7.00 275.30 2576.47
   22:09:36.296.17-May-2020 4937.01 2931.75 67.64 7.00 275.51 2576.47
   22:09:36.497.17-May-2020 4937.01 2931.75 67.64 7.00 275.71 2576.47
   22:09:36.697.17-May-2020 4937.01 2931.82 67.63 7.00 275.91 2576.47
   22:09:36.898.17-May-2020 4937.01 2931.90 67.63 7.00 276.11 2576.47
   22:09:37.098.17-May-2020 4937.01 2931.87 67.64 7.00 276.31 2576.47
