~Version Information
 VERS.                  2.0:   CWLS log ASCII Standard -VERSION 2.0
 WRAP.                   NO:   One line per depth step
~Well Information Block
#MNEM.UNIT     VALUE/NAME     DESCRIPTION
#---------     -----------    ---------------------------
 STRT.S             14:38:44 17-May-20: START TIME 14:38:44 17-May-20
 STOP.S             14:45:36 17-May-20: STOP TIME  14:45:36 17-May-20
 STEP.S                   0.00: STEP TIME
 NULL.                 -999.25: NULL VALUE
 UNIT.                     N/A:  LOGGING EQUIPMENT ID
 DCON.         Sperry Drilling:  DIRECTNL CONTR
 DOE .                     N/A:  DOE NUMBER
 JOBN.        AZ-XX-0906252240:  JOB TICKET NUMB
 MWDS.                     N/A:  MWD SHOP
 PROV.                    Baku:  PROVINCE
 STAT.                    Baku:  STATE NAME
 REGN.                   EESSA:  REGION
 BASE.              Azerbaijan:  LOGGING EQUIPMENT BASE LOCATION
 UWI .                     N/A:  UNIQUE WELL IDENTIFIER
 API .                     N/A:  API NUMBER
 MDS .        Operator Entered:  MAG DATA SOURCE
 WTYP.                Deviated:  WELL TYPE
 COMP.     BP Exploration (Caspian Sea) Ltd.:  COMPANY
 SRVC.          Turan Drilling:  CONTRACTOR
 WELL.           J23 (Slot 07):  WELL NAME
 CTRY.              Azerbaijan:  COUNTRY NAME
 FLD .                     ACG:  FIELD NAME
 PDAT.          Mean Sea Level:  PERMANENT DATUM
 RIG .             West Chirag:  RIG NAME
 SON .        AZ-XX-0906252240:  JOB NUMBER
 FTOP.          Formation Tops:  FORM TOPS DESC
 ILTD.               Lithology:  INTERP LTH DESC
 SVYD.                  Survey:  SURVEY DESC
 DMOD.             Drill Model:  DRILL MOD DESC
 HPTY.       Minimum Curvature:  HOLE POS TYPE
 NREF.                    Grid:  NORTH REFERENCE
 SPUD.               27-Aug-20:  SPUD DATE
 DATE.      00.00.00 19-May-20:  END TIME
 STIM.      03.00.00 25-Mar-20:  START TIME
 DMF .             Drill Floor:  DRILL MEAS FROM
 DFST.                        :  DIST FSL TEXT
 DFWT.                        :  DIST FWL TEXT
 CNTY.                        :  COUNTY
 LOC .                        :  LOCATION
 LMF .             Drill Floor:  LOG MEASURED FROM
 VSNS.m                   9.43:  VERT SEC N/S
 VSEW.m                  -8.91:  VERT SEC E/W
 AGAP.m                  43.00:  AIR GAP
 DEP .m                 354.17:  DEPTH
 APD .m                  43.00:  DEPTH ABOVE PD
 WDMS.m                 169.80:  WD ELEV
 EGL .m                   0.00:  GROUND ELEVATION
 EPD .m                   0.00:  ELEVATION
 AZTC.deg                 6.31:  AZM TOTAL CORR
 GRDC.deg                 0.14:  GRID CORRECTION
 MDEC.deg                 6.45:  MAGNETIC DECL
 MDIP.deg                59.56:  MAGNETIC DIP
 MFLD.nT              50295.00:  MAGNETIC FIELD
 GVFD.g                   1.00:  GRAVITY FIELD
 VSDR.deg               179.88:  VERT SEC DIRECT
 TDD .m                5150.01:  TOTAL DEPTH (DRILLER)
 SDEP.m                 864.00:  START DEPTH
 DFSL.m                   0.00:  DISTANCE FSL
 DFWL.m                   0.00:  DISTANCE FWL
 UTMY.m             4443793.85:  UTM Y
 UTMX.m              519005.06:  UTM X
 WHEW.m                  -8.91:  WELL HEAD E/W
 WHNS.m                   9.43:  WELL HEAD N/S
 LONG.deg                51.22:  LONGITUDE
 LATI.deg                40.13:  LATITUDE
 TVDS.m                  43.00:  TVDSS CORRECTN
 EKB .m                   0.00:  KB ELEVATION
 EDF .m                  43.00:  DF ELEVATION
 TDL .m                 363.00:  TOTAL DEPTH (LOGGER)
 MAGU.                 1850802:  MAGUTM CHECKSUM
 VSC .                       0:  VS TO CLOSURE
~Parameter Information Block
#MNEM.UNIT       Value        Description
#---------     -----------    ---------------------------
 AV  .mps                 2.30:  Ann Velocity 
 AVMX.mps                 4.40:  Max Ann Veloc 
 AZIF.deg               110.24:  Azm, Final 
 BHAT.        Rotary Steerable:  BHA Type 
 BREV.rev               331.00:  Rev Bit Total 
 BROT.°/30m               0.00:  Build Rotating 
 BS  .in                  8.50:  Bit Size 
 BSZ .in                  8.50:  Bit Size 
 BTPL.psig              585.00:  Bit Press Loss 
 CABU.                     Yes:  Customer Abuse 
 COMM.                     ÔF[:  Run Comments 1 
 TCS .hr                122.75:  Time Ciculation Ended 
 CV  .mps                 2.67:  Crit Velocity 
 CVMX.mps                 3.56:  Max Crit Veloc 
 DD1 .          Rashad Habibov:  Direct Drillr 1 
 DD2 .         Rasim Ibrahimov:  Direct Drillr 2 
 DDSV.               Geo-Pilot:  DD Service 
 DEFF.%                  98.00:  % Det Eff 
 DLRX.°/30m               0.75:  Dogleg Rot Max 
 DLSO.°/30m               1.25:  Dogleg Oriented 
 DLSX.°/30m               2.06:  Dogleg Str Max 
 DRET.      07.45.00 17-May-20:  Drill End Time 
 DRST.      22.50.00 15-May-20:  Drill Start Tim 
 DTIM.hr                 20.75:  Time Drilling 
 EDEP.m                5124.01:  End Depth 
 ENG1.           Eldar Hajiyev:  Engineer 1 
 ENG2.        Marcelo Sandoval:  Engineer 2 
 ENG3.        Davud huseynzada:  Engineer 3 
 ENG4.          Ruslan Safarov:  Engineer 4 
 ETIM.      04.33.00 23-May-20:  End Time 
 FLOI.gpm               450.00:  Flow In 
 FLON.gpm               400.00:  Flow In Min 
 FLOS.cptm                0.00:  Fluid Loss 
 FLOX.gpm               500.00:  Flow In Max 
 FTRO.       Formation Presure:  FTWD Run Obj 
 HFLO.                      No:  High Flow 
 HPRE.                     Yes:  High Pressure 
 HTEM.                      No:  High Temp 
 HYDO.m                   1.80:  Hydro Offset 
 IFIN.deg                75.06:  Inc, Final 
 IMAX.deg                75.38:  Inc Max 
 IMIN.deg                74.69:  Inc Min 
 IMND.m                5027.38:  Inc Min Depth 
 IMXD.m                4771.61:  Inc Max Depth 
 JARR.                      No:  Jarring 
 LETM.      07.45.00 17-May-20:  Log End Time 
 LOST.hr                     0:  Lost Rig Time 
 LSTM.      22.50.00 15-May-20:  Log Start Time 
 MDCL.ppm             42000.00:  Mud Chlorides 
 MDES.     Inversion Oil/Synthetic:  Mud Desc 
 DFD .sg                  1.34:  Mud Density 
 MDMN.sg                  1.34:  Dens Mud Min 
 MDMX.sg                  1.34:  Dens Mud Max 
 MOIL.                       0:  Run Mud Oil % 
 MOWR.                   67:33:  Run Mud OWR 
 MSND.                       0:  Run Mud Sand % 
 MSOL.                     1.8:  Run Mud Solids% 
 DFV .spqt               76.00:  Mud Viscosity 
 MWOD.in                  6.75:  MWD Tool OD 
 MWSI.                      No:  Serv Intrp, MWD 
 OTIM.hr                228.19:  Time Operating 
 PCON.           Look Like New:  Pad Condition 
 PMAX.psia             6164.70:  Press Op, Max 
 PV  .cP                 28.00:  Mud PV 
 RUN .                     900:  Run Number 
 ROPA.m/hr               19.00:  ROP Avg 
 ROPN.m/hr               11.00:  ROP Min 
 ROPX.m/hr               36.00:  ROP Max 
 RPMA.rpm               120.00:  RPM Surface Avg 
 RPMN.rpm               120.00:  RPM Surface Min 
 RPMX.rpm               120.00:  RPM Surface Max 
 RRUN.                    L604:  Rig Run Number 
 RTIM.hr                  7.00:  Time Reaming 
 SAZI.deg               109.27:  Azm, Start 
 SDEP.m                4761.01:  Start Depth 
 SIDD.                      No:  Serv Intrp, DD 
 SINC.deg                75.38:  Inc, Start 
 SPPA.psig             3574.00:  SPP Avg 
 SPPN.psig             3475.00:  SPP Min 
 SPPX.psig             3791.00:  SPP Max 
 STIM.      07.08.48 13-May-20:  Start Time 
 SVCS.                 DD, MWD:  Services 
 SVER.                    9.20:  Sperry Version 
 TDAT.m                 363.00:  Tot Depth Attmp 
 TDDF.                      No:  Trip for DD 
 TDLG.m                 363.00:  Tot Depth Loggd 
 TFF .                      No:  Trip for Fail 
 TQAA.f-kp               20.00:  Torque Abs Avg 
 TQAN.f-kp               18.00:  Torque Abs Min 
 TQAX.f-kp               22.00:  Torque Abs Max 
 TRRT.°/30m              -0.35:  Turn Rotating 
 MRT .                    HCIM:  Maximum Recorded Temperature 
 TTMX.degC               92.16:  Max Tool Temp 
 VS01.                90586518:  Virtual Str1 SN 
 VS02.        AZ90560654Z1W1C6:  Virtual Str2 SN 
 VS03.           AZ90610398F11:  Virtual Str3 SN 
 VS04.                90514975:  Virtual Str4 SN 
 VS05.                90514972:  Virtual Str5 SN 
 VS06.     AZ90603282F11V7D1A6:  Virtual Str6 SN 
 WBMN.klb                 7.00:  WOB Min 
 WOBA.klb                12.00:  WOB Avg 
 WOBX.klb                14.00:  WOB Max 
 YP  .lhf2               32.00:  Yield Point 
~Curve Information Block
#MNEM.UNIT                 API CODE     Curve Description
#---------               -----------    ---------------------------
 TIME.HHMMSS            00 000 000 000:  GT Time & Date
 GTDEPTH.m              00 000 000 000:  GT Depth
 GTPQH.psia             00 000 000 000:  GT HR Quartz Pressure
 GTTQ.degC              00 000 000 000:  GT Quartz Temperature
 GTTN.NONE              00 000 000 000:  GT Test Number
 GTET.sec               00 000 000 000:  GT Elapsed Test Time
 GTTVD.m                00 000 000 000:  GT True Vertical Depth
#Other Information
#
#WARRANTY: Halliburton will use its best efforts to furnish customers with 
#accurate information and interpretations that are part of, and incident to, the services 
#provided.  However, Halliburton cannot and does not warrant the accuracy 
#or correctness of such information and interpretations.  Under no circumstances should any 
#such information or interpretation be relied upon as the sole basis for any drilling, 
#completion, production, or financial decision or any procedure involving any risk to the 
#safety of any drilling venture, drilling rig or its crew or any other third party.  The 
#Customer has full responsibility for all drilling, completion and production operation.  
#Halliburton makes no representations or warranties, either expressed or 
#implied, including, but not limited to, the implied warranties of merchantability or fitness 
#for a particular purpose, with respect to the services rendered.  In no event will 
#Halliburton be liable for failure to obtain any particular results or for 
#any damages, including, but not limited to, indirect, special or consequential damages, 
#resulting from the use of any information or interpretation provided by Halliburton.
#
~A           TIME           GTDEPTH  GTPQH  GTTQ  GTTN  GTET   GTTVD  
# ...
   14:44:29.000.17-May-2020 5087.01 2767.27 72.17 1.00 345.00 2615.39
   14:44:29.200.17-May-2020 5087.01 2767.13 72.17 1.00 345.20 2615.39
   14:44:29.400.17-May-2020 5087.01 2767.19 72.17 1.00 345.40 2615.39
   14:44:29.600.17-May-2020 5087.01 2767.20 72.17 1.00 345.60 2615.39
   14:44:29.800.17-May-2020 5087.01 2767.29 72.17 1.00 345.80 2615.39
   14:44:30.000.17-May-2020 5087.01 2767.25 72.17 1.00 346.00 2615.39
   14:44:30.200.17-May-2020 5087.01 2767.25 72.17 1.00 346.20 2615.39
   14:44:30.400.17-May-2020 5087.01 2767.02 72.17 1.00 346.40 2615.39
   14:44:30.600.17-May-2020 5087.01 2767.05 72.17 1.00 346.60 2615.39
   14:44:30.800.17-May-2020 5087.01 2767.38 72.17 1.00 346.80 2615.39
   14:44:31.000.17-May-2020 5087.01 2767.94 72.17 1.00 347.00 2615.39
   14:44:31.200.17-May-2020 5087.01 2767.94 72.17 1.00 347.20 2615.39
   14:44:31.400.17-May-2020 5087.01 2767.09 72.17 1.00 347.40 2615.39
   14:44:31.600.17-May-2020 5087.01 2767.20 72.17 1.00 347.60 2615.39
   14:44:31.800.17-May-2020 5087.01 2767.19 72.17 1.00 347.80 2615.39
   14:44:32.000.17-May-2020 5087.01 2767.95 72.16 1.00 348.00 2615.39
   14:44:32.200.17-May-2020 5087.01 2767.01 72.17 1.00 348.20 2615.39
   14:44:32.400.17-May-2020 5087.01 2766.98 72.16 1.00 348.40 2615.39
   14:44:32.600.17-May-2020 5087.01 2767.73 72.16 1.00 348.60 2615.39
   14:44:32.800.17-May-2020 5087.01 2767.46 72.16 1.00 348.80 2615.39
   14:44:33.000.17-May-2020 5087.01 2767.00 72.16 1.00 349.00 2615.39
   14:44:33.200.17-May-2020 5087.01 2767.18 72.16 1.00 349.20 2615.39
   14:44:33.400.17-May-2020 5087.01 2767.31 72.16 1.00 349.40 2615.39
   14:44:33.600.17-May-2020 5087.01 2767.25 72.16 1.00 349.60 2615.39
   14:44:33.800.17-May-2020 5087.01 2767.21 72.16 1.00 349.80 2615.39
   14:44:34.000.17-May-2020 5087.01 2767.23 72.16 1.00 350.00 2615.39
   14:44:34.200.17-May-2020 5087.01 2767.23 72.16 1.00 350.20 2615.39
   14:44:34.400.17-May-2020 5087.01 2767.25 72.16 1.00 350.40 2615.39
   14:44:34.600.17-May-2020 5087.01 2766.97 72.16 1.00 350.60 2615.39
   14:44:34.800.17-May-2020 5087.01 2767.98 72.16 1.00 350.80 2615.39
   14:44:35.000.17-May-2020 5087.01 2767.00 72.16 1.00 351.00 2615.39
   14:44:35.200.17-May-2020 5087.01 2767.00 72.16 1.00 351.20 2615.39
   14:44:35.400.17-May-2020 5087.01 2767.24 72.16 1.00 351.40 2615.39
   14:44:35.600.17-May-2020 5087.01 2767.46 72.16 1.00 351.60 2615.39
   14:44:35.800.17-May-2020 5087.01 2767.14 72.16 1.00 351.80 2615.39
   14:44:36.000.17-May-2020 5087.01 2767.18 72.16 1.00 352.00 2615.39
   14:44:36.200.17-May-2020 5087.01 2767.23 72.16 1.00 352.20 2615.39
   14:44:36.400.17-May-2020 5087.01 2767.17 72.16 1.00 352.40 2615.39
   14:44:36.600.17-May-2020 5087.01 2767.26 72.16 1.00 352.60 2615.39
   14:44:36.800.17-May-2020 5087.01 2767.76 72.16 1.00 352.80 2615.39
   14:44:37.000.17-May-2020 5087.01 2767.04 72.16 1.00 353.00 2615.39
   14:44:37.200.17-May-2020 5087.01 2767.04 72.16 1.00 353.20 2615.39
   14:44:37.400.17-May-2020 5087.01 2767.18 72.16 1.00 353.40 2615.39
   14:44:37.600.17-May-2020 5087.01 2767.27 72.16 1.00 353.60 2615.39
   14:44:37.800.17-May-2020 5087.01 2767.96 72.16 1.00 353.80 2615.39
   14:44:38.000.17-May-2020 5087.01 2766.99 72.16 1.00 354.00 2615.39
   14:44:38.200.17-May-2020 5087.01 2766.99 72.16 1.00 354.20 2615.39
   14:44:38.400.17-May-2020 5087.01 2767.28 72.16 1.00 354.40 2615.39
   14:44:38.600.17-May-2020 5087.01 2767.64 72.16 1.00 354.60 2615.39
   14:44:38.800.17-May-2020 5087.01 2767.39 72.16 1.00 354.80 2615.39
   14:44:39.000.17-May-2020 5087.01 2767.00 72.16 1.00 355.00 2615.39
   14:44:39.200.17-May-2020 5087.01 2767.00 72.16 1.00 355.20 2615.39
   14:44:39.400.17-May-2020 5087.01 2768.21 72.16 1.00 355.40 2615.39
   14:44:39.600.17-May-2020 5087.01 2767.10 72.16 1.00 355.60 2615.39
   14:44:39.800.17-May-2020 5087.01 2767.15 72.16 1.00 355.80 2615.39
   14:44:40.000.17-May-2020 5087.01 2767.08 72.16 1.00 356.00 2615.39
   14:44:40.200.17-May-2020 5087.01 2767.08 72.16 1.00 356.20 2615.39
   14:44:40.400.17-May-2020 5087.01 2767.24 72.16 1.00 356.40 2615.39
   14:44:40.600.17-May-2020 5087.01 2766.63 72.16 1.00 356.60 2615.39
   14:44:40.800.17-May-2020 5087.01 2785.82 72.16 1.00 356.80 2615.39
   14:44:41.000.17-May-2020 5087.01 2827.38 72.16 1.00 357.00 2615.39
   14:44:41.200.17-May-2020 5087.01 2827.38 72.16 1.00 357.20 2615.39
   14:44:41.400.17-May-2020 5087.01 5619.17 72.16 1.00 357.40 2615.39
   14:44:41.600.17-May-2020 5087.01 5607.78 72.16 1.00 357.60 2615.39
   14:44:41.800.17-May-2020 5087.01 5598.98 72.16 1.00 357.80 2615.39
   14:44:42.000.17-May-2020 5087.01 5597.77 72.16 1.00 358.00 2615.39
   14:44:42.200.17-May-2020 5087.01 5597.77 72.16 1.00 358.20 2615.39
   14:44:42.400.17-May-2020 5087.01 5606.58 72.16 1.00 358.40 2615.39
   14:44:42.600.17-May-2020 5087.01 5602.97 72.16 1.00 358.60 2615.39
   14:44:42.800.17-May-2020 5087.01 5602.98 72.16 1.00 358.80 2615.39
   14:44:43.000.17-May-2020 5087.01 5602.04 72.16 1.00 359.00 2615.39
   14:44:43.200.17-May-2020 5087.01 5604.90 72.17 1.00 359.20 2615.39
   14:44:43.400.17-May-2020 5087.01 5617.40 72.17 1.00 359.40 2615.39
   14:44:43.600.17-May-2020 5087.01 5617.54 72.17 1.00 359.60 2615.39
   14:44:43.800.17-May-2020 5087.01 5605.25 72.17 1.00 359.80 2615.39
   14:44:44.000.17-May-2020 5087.01 5603.74 72.17 1.00 360.00 2615.39
   14:44:44.200.17-May-2020 5087.01 5607.14 72.18 1.00 360.20 2615.39
   14:44:44.400.17-May-2020 5087.01 5632.09 72.18 1.00 360.40 2615.39
   14:44:44.600.17-May-2020 5087.01 5614.96 72.18 1.00 360.60 2615.39
   14:44:44.800.17-May-2020 5087.01 5608.17 72.18 1.00 360.80 2615.39
   14:44:45.000.17-May-2020 5087.01 5603.05 72.18 1.00 361.00 2615.39
   14:44:45.200.17-May-2020 5087.01 5603.05 72.18 1.00 361.20 2615.39
   14:44:45.400.17-May-2020 5087.01 5632.30 72.19 1.00 361.40 2615.39
   14:44:45.600.17-May-2020 5087.01 5613.02 72.19 1.00 361.60 2615.39
   14:44:45.800.17-May-2020 5087.01 5606.71 72.19 1.00 361.80 2615.39
   14:44:46.000.17-May-2020 5087.01 5619.17 72.19 1.00 362.00 2615.39
   14:44:46.200.17-May-2020 5087.01 5625.80 72.20 1.00 362.20 2615.39
   14:44:46.400.17-May-2020 5087.01 5613.02 72.20 1.00 362.40 2615.39
   14:44:46.600.17-May-2020 5087.01 5608.40 72.20 1.00 362.60 2615.39
   14:44:46.800.17-May-2020 5087.01 5610.21 72.20 1.00 362.80 2615.39
   14:44:47.000.17-May-2020 5087.01 5613.95 72.20 1.00 363.00 2615.39
   14:44:47.200.17-May-2020 5087.01 5612.64 72.21 1.00 363.20 2615.39
   14:44:47.400.17-May-2020 5087.01 5610.67 72.21 1.00 363.40 2615.39
   14:44:47.600.17-May-2020 5087.01 5608.78 72.21 1.00 363.60 2615.39
   14:44:47.800.17-May-2020 5087.01 5609.16 72.21 1.00 363.80 2615.39
   14:44:48.000.17-May-2020 5087.01 5623.73 72.21 1.00 364.00 2615.39
   14:44:48.200.17-May-2020 5087.01 5619.79 72.21 1.00 364.20 2615.39
   14:44:48.400.17-May-2020 5087.01 5607.48 72.21 1.00 364.40 2615.39
   14:44:48.600.17-May-2020 5087.01 5605.59 72.21 1.00 364.60 2615.39
   14:44:48.800.17-May-2020 5087.01 5609.01 72.22 1.00 364.80 2615.39
   14:44:49.000.17-May-2020 5087.01 5614.79 72.22 1.00 365.00 2615.39
   14:44:49.200.17-May-2020 5087.01 5610.01 72.22 1.00 365.20 2615.39
   14:44:49.400.17-May-2020 5087.01 5608.96 72.22 1.00 365.40 2615.39
   14:44:49.600.17-May-2020 5087.01 5606.79 72.22 1.00 365.60 2615.39
   14:44:49.800.17-May-2020 5087.01 5608.90 72.22 1.00 365.80 2615.39
   14:44:50.000.17-May-2020 5087.01 5608.79 72.22 1.00 366.00 2615.39
   14:44:50.200.17-May-2020 5087.01 5608.79 72.22 1.00 366.20 2615.39
   14:44:50.400.17-May-2020 5087.01 5626.74 72.22 1.00 366.40 2615.39
   14:44:50.600.17-May-2020 5087.01 5607.55 72.22 1.00 366.60 2615.39
   14:44:50.800.17-May-2020 5087.01 5607.09 72.22 1.00 366.80 2615.39
   14:44:51.000.17-May-2020 5087.01 5606.19 72.22 1.00 367.00 2615.39
   14:44:51.200.17-May-2020 5087.01 5606.19 72.22 1.00 367.20 2615.39
   14:44:51.400.17-May-2020 5087.01 5629.10 72.23 1.00 367.40 2615.39
   14:44:51.600.17-May-2020 5087.01 5609.87 72.23 1.00 367.60 2615.39
   14:44:51.800.17-May-2020 5087.01 5606.29 72.23 1.00 367.80 2615.39
