~Version Information
 VERS.                  2.0:   CWLS log ASCII Standard -VERSION 2.0
 WRAP.                   NO:   One line per depth step
~Well Information Block
#MNEM.UNIT     VALUE/NAME     DESCRIPTION
#---------     -----------    ---------------------------
 STRT.S             22:05:00 17-May-20: START TIME 22:05:00 17-May-20
 STOP.S             22:12:03 17-May-20: STOP TIME  22:12:03 17-May-20
 STEP.S                   0.00: STEP TIME
 NULL.                 -999.25: NULL VALUE
 UNIT.                     N/A:  LOGGING EQUIPMENT ID
 DCON.         Sperry Drilling:  DIRECTNL CONTR
 DOE .                     N/A:  DOE NUMBER
 JOBN.        AZ-XX-0906252240:  JOB TICKET NUMB
 MWDS.                     N/A:  MWD SHOP
 PROV.                    Baku:  PROVINCE
 STAT.                    Baku:  STATE NAME
 REGN.                   EESSA:  REGION
 BASE.              Azerbaijan:  LOGGING EQUIPMENT BASE LOCATION
 UWI .                     N/A:  UNIQUE WELL IDENTIFIER
 API .                     N/A:  API NUMBER
 MDS .        Operator Entered:  MAG DATA SOURCE
 WTYP.                Deviated:  WELL TYPE
 COMP.     BP Exploration (Caspian Sea) Ltd.:  COMPANY
 SRVC.          Turan Drilling:  CONTRACTOR
 WELL.           J23 (Slot 07):  WELL NAME
 CTRY.              Azerbaijan:  COUNTRY NAME
 FLD .                     ACG:  FIELD NAME
 PDAT.          Mean Sea Level:  PERMANENT DATUM
 RIG .             West Chirag:  RIG NAME
 SON .        AZ-XX-0906252240:  JOB NUMBER
 FTOP.          Formation Tops:  FORM TOPS DESC
 ILTD.               Lithology:  INTERP LTH DESC
 SVYD.                  Survey:  SURVEY DESC
 DMOD.             Drill Model:  DRILL MOD DESC
 HPTY.       Minimum Curvature:  HOLE POS TYPE
 NREF.                    Grid:  NORTH REFERENCE
 SPUD.               27-Aug-20:  SPUD DATE
 DATE.      00.00.00 19-May-20:  END TIME
 STIM.      03.00.00 25-Mar-20:  START TIME
 DMF .             Drill Floor:  DRILL MEAS FROM
 DFST.                        :  DIST FSL TEXT
 DFWT.                        :  DIST FWL TEXT
 CNTY.                        :  COUNTY
 LOC .                        :  LOCATION
 LMF .             Drill Floor:  LOG MEASURED FROM
 VSNS.m                   9.43:  VERT SEC N/S
 VSEW.m                  -8.91:  VERT SEC E/W
 AGAP.m                  43.00:  AIR GAP
 DEP .m                 354.17:  DEPTH
 APD .m                  43.00:  DEPTH ABOVE PD
 WDMS.m                 169.80:  WD ELEV
 EGL .m                   0.00:  GROUND ELEVATION
 EPD .m                   0.00:  ELEVATION
 AZTC.deg                 6.31:  AZM TOTAL CORR
 GRDC.deg                 0.14:  GRID CORRECTION
 MDEC.deg                 6.45:  MAGNETIC DECL
 MDIP.deg                59.56:  MAGNETIC DIP
 MFLD.nT              50295.00:  MAGNETIC FIELD
 GVFD.g                   1.00:  GRAVITY FIELD
 VSDR.deg               179.88:  VERT SEC DIRECT
 TDD .m                5150.01:  TOTAL DEPTH (DRILLER)
 SDEP.m                 864.00:  START DEPTH
 DFSL.m                   0.00:  DISTANCE FSL
 DFWL.m                   0.00:  DISTANCE FWL
 UTMY.m             4443793.85:  UTM Y
 UTMX.m              519005.06:  UTM X
 WHEW.m                  -8.91:  WELL HEAD E/W
 WHNS.m                   9.43:  WELL HEAD N/S
 LONG.deg                51.22:  LONGITUDE
 LATI.deg                40.13:  LATITUDE
 TVDS.m                  43.00:  TVDSS CORRECTN
 EKB .m                   0.00:  KB ELEVATION
 EDF .m                  43.00:  DF ELEVATION
 TDL .m                 363.00:  TOTAL DEPTH (LOGGER)
 MAGU.                 1850802:  MAGUTM CHECKSUM
 VSC .                       0:  VS TO CLOSURE
~Parameter Information Block
#MNEM.UNIT       Value        Description
#---------     -----------    ---------------------------
 AV  .mps                 2.30:  Ann Velocity 
 AVMX.mps                 4.40:  Max Ann Veloc 
 AZIF.deg               110.24:  Azm, Final 
 BHAT.        Rotary Steerable:  BHA Type 
 BREV.rev               331.00:  Rev Bit Total 
 BROT.°/30m               0.00:  Build Rotating 
 BS  .in                  8.50:  Bit Size 
 BSZ .in                  8.50:  Bit Size 
 BTPL.psig              585.00:  Bit Press Loss 
 CABU.                     Yes:  Customer Abuse 
 COMM.                     íe:  Run Comments 1 
 TCS .hr                122.75:  Time Ciculation Ended 
 CV  .mps                 2.67:  Crit Velocity 
 CVMX.mps                 3.56:  Max Crit Veloc 
 DD1 .          Rashad Habibov:  Direct Drillr 1 
 DD2 .         Rasim Ibrahimov:  Direct Drillr 2 
 DDSV.               Geo-Pilot:  DD Service 
 DEFF.%                  98.00:  % Det Eff 
 DLRX.°/30m               0.75:  Dogleg Rot Max 
 DLSO.°/30m               1.25:  Dogleg Oriented 
 DLSX.°/30m               2.06:  Dogleg Str Max 
 DRET.      07.45.00 17-May-20:  Drill End Time 
 DRST.      22.50.00 15-May-20:  Drill Start Tim 
 DTIM.hr                 20.75:  Time Drilling 
 EDEP.m                5124.01:  End Depth 
 ENG1.           Eldar Hajiyev:  Engineer 1 
 ENG2.        Marcelo Sandoval:  Engineer 2 
 ENG3.        Davud huseynzada:  Engineer 3 
 ENG4.          Ruslan Safarov:  Engineer 4 
 ETIM.      04.33.00 23-May-20:  End Time 
 FLOI.gpm               450.00:  Flow In 
 FLON.gpm               400.00:  Flow In Min 
 FLOS.cptm                0.00:  Fluid Loss 
 FLOX.gpm               500.00:  Flow In Max 
 FTRO.       Formation Presure:  FTWD Run Obj 
 HFLO.                      No:  High Flow 
 HPRE.                     Yes:  High Pressure 
 HTEM.                      No:  High Temp 
 HYDO.m                   1.80:  Hydro Offset 
 IFIN.deg                75.06:  Inc, Final 
 IMAX.deg                75.38:  Inc Max 
 IMIN.deg                74.69:  Inc Min 
 IMND.m                5027.38:  Inc Min Depth 
 IMXD.m                4771.61:  Inc Max Depth 
 JARR.                      No:  Jarring 
 LETM.      07.45.00 17-May-20:  Log End Time 
 LOST.hr                     0:  Lost Rig Time 
 LSTM.      22.50.00 15-May-20:  Log Start Time 
 MDCL.ppm             42000.00:  Mud Chlorides 
 MDES.     Inversion Oil/Synthetic:  Mud Desc 
 DFD .sg                  1.34:  Mud Density 
 MDMN.sg                  1.34:  Dens Mud Min 
 MDMX.sg                  1.34:  Dens Mud Max 
 MOIL.                       0:  Run Mud Oil % 
 MOWR.                   67:33:  Run Mud OWR 
 MSND.                       0:  Run Mud Sand % 
 MSOL.                     1.8:  Run Mud Solids% 
 DFV .spqt               76.00:  Mud Viscosity 
 MWOD.in                  6.75:  MWD Tool OD 
 MWSI.                      No:  Serv Intrp, MWD 
 OTIM.hr                228.19:  Time Operating 
 PCON.           Look Like New:  Pad Condition 
 PMAX.psia             6164.70:  Press Op, Max 
 PV  .cP                 28.00:  Mud PV 
 RUN .                     900:  Run Number 
 ROPA.m/hr               19.00:  ROP Avg 
 ROPN.m/hr               11.00:  ROP Min 
 ROPX.m/hr               36.00:  ROP Max 
 RPMA.rpm               120.00:  RPM Surface Avg 
 RPMN.rpm               120.00:  RPM Surface Min 
 RPMX.rpm               120.00:  RPM Surface Max 
 RRUN.                    L604:  Rig Run Number 
 RTIM.hr                  7.00:  Time Reaming 
 SAZI.deg               109.27:  Azm, Start 
 SDEP.m                4761.01:  Start Depth 
 SIDD.                      No:  Serv Intrp, DD 
 SINC.deg                75.38:  Inc, Start 
 SPPA.psig             3574.00:  SPP Avg 
 SPPN.psig             3475.00:  SPP Min 
 SPPX.psig             3791.00:  SPP Max 
 STIM.      07.08.48 13-May-20:  Start Time 
 SVCS.                 DD, MWD:  Services 
 SVER.                    9.20:  Sperry Version 
 TDAT.m                 363.00:  Tot Depth Attmp 
 TDDF.                      No:  Trip for DD 
 TDLG.m                 363.00:  Tot Depth Loggd 
 TFF .                      No:  Trip for Fail 
 TQAA.f-kp               20.00:  Torque Abs Avg 
 TQAN.f-kp               18.00:  Torque Abs Min 
 TQAX.f-kp               22.00:  Torque Abs Max 
 TRRT.°/30m              -0.35:  Turn Rotating 
 MRT .                    HCIM:  Maximum Recorded Temperature 
 TTMX.degC               92.16:  Max Tool Temp 
 VS01.                90586518:  Virtual Str1 SN 
 VS02.        AZ90560654Z1W1C6:  Virtual Str2 SN 
 VS03.           AZ90610398F11:  Virtual Str3 SN 
 VS04.                90514975:  Virtual Str4 SN 
 VS05.                90514972:  Virtual Str5 SN 
 VS06.     AZ90603282F11V7D1A6:  Virtual Str6 SN 
 WBMN.klb                 7.00:  WOB Min 
 WOBA.klb                12.00:  WOB Avg 
 WOBX.klb                14.00:  WOB Max 
 YP  .lhf2               32.00:  Yield Point 
~Curve Information Block
#MNEM.UNIT                 API CODE     Curve Description
#---------               -----------    ---------------------------
 TIME.HHMMSS            00 000 000 000:  GT Time & Date
 GTDEPTH.m              00 000 000 000:  GT Depth
 GTPQH.psia             00 000 000 000:  GT HR Quartz Pressure
 GTTQ.degC              00 000 000 000:  GT Quartz Temperature
 GTTN.NONE              00 000 000 000:  GT Test Number
 GTET.sec               00 000 000 000:  GT Elapsed Test Time
 GTTVD.m                00 000 000 000:  GT True Vertical Depth
#Other Information
#
#WARRANTY: Halliburton will use its best efforts to furnish customers with 
#accurate information and interpretations that are part of, and incident to, the services 
#provided.  However, Halliburton cannot and does not warrant the accuracy 
#or correctness of such information and interpretations.  Under no circumstances should any 
#such information or interpretation be relied upon as the sole basis for any drilling, 
#completion, production, or financial decision or any procedure involving any risk to the 
#safety of any drilling venture, drilling rig or its crew or any other third party.  The 
#Customer has full responsibility for all drilling, completion and production operation.  
#Halliburton makes no representations or warranties, either expressed or 
#implied, including, but not limited to, the implied warranties of merchantability or fitness 
#for a particular purpose, with respect to the services rendered.  In no event will 
#Halliburton be liable for failure to obtain any particular results or for 
#any damages, including, but not limited to, indirect, special or consequential damages, 
#resulting from the use of any information or interpretation provided by Halliburton.
#
~A           TIME           GTDEPTH  GTPQH  GTTQ  GTTN  GTET   GTTVD  
# ...
   22:08:28.171.17-May-2020 4937.01 2932.02 67.66 7.00 207.38 2576.47
   22:08:28.372.17-May-2020 4937.01 2932.02 67.66 7.00 207.58 2576.47
   22:08:28.572.17-May-2020 4937.01 2932.07 67.66 7.00 207.78 2576.47
   22:08:28.773.17-May-2020 4937.01 2932.05 67.66 7.00 207.98 2576.47
   22:08:28.973.17-May-2020 4937.01 2932.05 67.66 7.00 208.18 2576.47
   22:08:29.173.17-May-2020 4937.01 2932.02 67.66 7.00 208.38 2576.47
   22:08:29.374.17-May-2020 4937.01 2932.02 67.66 7.00 208.58 2576.47
   22:08:29.574.17-May-2020 4937.01 2932.02 67.66 7.00 208.78 2576.47
   22:08:29.774.17-May-2020 4937.01 2932.07 67.66 7.00 208.98 2576.47
   22:08:29.975.17-May-2020 4937.01 2932.08 67.66 7.00 209.18 2576.47
   22:08:30.175.17-May-2020 4937.01 2932.01 67.66 7.00 209.38 2576.47
   22:08:30.376.17-May-2020 4937.01 2932.01 67.66 7.00 209.58 2576.47
   22:08:30.576.17-May-2020 4937.01 2932.01 67.66 7.00 209.78 2576.47
   22:08:30.776.17-May-2020 4937.01 2932.03 67.66 7.00 209.99 2576.47
   22:08:30.977.17-May-2020 4937.01 2932.04 67.66 7.00 210.19 2576.47
   22:08:31.177.17-May-2020 4937.01 2932.03 67.65 7.00 210.39 2576.47
   22:08:31.377.17-May-2020 4937.01 2932.03 67.66 7.00 210.59 2576.47
   22:08:31.578.17-May-2020 4937.01 2932.15 67.65 7.00 210.79 2576.47
   22:08:31.778.17-May-2020 4937.01 2931.95 67.65 7.00 210.99 2576.47
   22:08:31.978.17-May-2020 4937.01 2932.07 67.65 7.00 211.19 2576.47
   22:08:32.179.17-May-2020 4937.01 2932.03 67.65 7.00 211.39 2576.47
   22:08:32.379.17-May-2020 4937.01 2932.03 67.65 7.00 211.59 2576.47
   22:08:32.580.17-May-2020 4937.01 2932.03 67.65 7.00 211.79 2576.47
   22:08:32.780.17-May-2020 4937.01 2932.05 67.65 7.00 211.99 2576.47
   22:08:32.980.17-May-2020 4937.01 2932.04 67.65 7.00 212.19 2576.47
   22:08:33.181.17-May-2020 4937.01 2932.04 67.65 7.00 212.39 2576.47
   22:08:33.381.17-May-2020 4937.01 2932.04 67.65 7.00 212.59 2576.47
   22:08:33.581.17-May-2020 4937.01 2932.04 67.65 7.00 212.79 2576.47
   22:08:33.782.17-May-2020 4937.01 2932.03 67.65 7.00 212.99 2576.47
   22:08:33.982.17-May-2020 4937.01 2932.08 67.65 7.00 213.19 2576.47
   22:08:34.183.17-May-2020 4937.01 2932.09 67.65 7.00 213.39 2576.47
   22:08:34.383.17-May-2020 4937.01 2932.09 67.65 7.00 213.59 2576.47
   22:08:34.583.17-May-2020 4937.01 2931.94 67.65 7.00 213.79 2576.47
   22:08:34.784.17-May-2020 4937.01 2932.06 67.65 7.00 213.99 2576.47
   22:08:34.984.17-May-2020 4937.01 2932.02 67.65 7.00 214.19 2576.47
   22:08:35.184.17-May-2020 4937.01 2932.04 67.65 7.00 214.39 2576.47
   22:08:35.385.17-May-2020 4937.01 2932.10 67.65 7.00 214.59 2576.47
   22:08:35.585.17-May-2020 4937.01 2932.01 67.65 7.00 214.79 2576.47
   22:08:35.785.17-May-2020 4937.01 2932.07 67.65 7.00 214.99 2576.47
   22:08:35.986.17-May-2020 4937.01 2932.04 67.65 7.00 215.19 2576.47
   22:08:36.186.17-May-2020 4937.01 2932.05 67.65 7.00 215.40 2576.47
   22:08:36.387.17-May-2020 4937.01 2932.05 67.65 7.00 215.60 2576.47
   22:08:36.587.17-May-2020 4937.01 2932.06 67.65 7.00 215.80 2576.47
   22:08:36.787.17-May-2020 4937.01 2932.04 67.65 7.00 216.00 2576.47
   22:08:36.988.17-May-2020 4937.01 2932.05 67.65 7.00 216.20 2576.47
   22:08:37.188.17-May-2020 4937.01 2932.03 67.65 7.00 216.40 2576.47
   22:08:37.388.17-May-2020 4937.01 2932.03 67.65 7.00 216.60 2576.47
   22:08:37.589.17-May-2020 4937.01 2932.04 67.65 7.00 216.80 2576.47
   22:08:37.789.17-May-2020 4937.01 2932.04 67.65 7.00 217.00 2576.47
   22:08:37.990.17-May-2020 4937.01 2932.04 67.65 7.00 217.20 2576.47
   22:08:38.190.17-May-2020 4937.01 2932.04 67.65 7.00 217.40 2576.47
   22:08:38.390.17-May-2020 4937.01 2932.04 67.65 7.00 217.60 2576.47
   22:08:38.591.17-May-2020 4937.01 2932.12 67.65 7.00 217.80 2576.47
   22:08:38.791.17-May-2020 4937.01 2931.97 67.65 7.00 218.00 2576.47
   22:08:38.991.17-May-2020 4937.01 2932.11 67.65 7.00 218.20 2576.47
   22:08:39.192.17-May-2020 4937.01 2931.99 67.65 7.00 218.40 2576.47
   22:08:39.392.17-May-2020 4937.01 2932.05 67.65 7.00 218.60 2576.47
   22:08:39.592.17-May-2020 4937.01 2932.02 67.65 7.00 218.80 2576.47
   22:08:39.793.17-May-2020 4937.01 2932.04 67.65 7.00 219.00 2576.47
   22:08:39.993.17-May-2020 4937.01 2932.04 67.65 7.00 219.20 2576.47
   22:08:40.194.17-May-2020 4937.01 2932.03 67.65 7.00 219.40 2576.47
   22:08:40.394.17-May-2020 4937.01 2932.03 67.65 7.00 219.60 2576.47
   22:08:40.594.17-May-2020 4937.01 2932.07 67.65 7.00 219.80 2576.47
   22:08:40.795.17-May-2020 4937.01 2932.07 67.65 7.00 220.00 2576.47
   22:08:40.995.17-May-2020 4937.01 2932.03 67.65 7.00 220.20 2576.47
   22:08:41.195.17-May-2020 4937.01 2932.07 67.65 7.00 220.40 2576.47
   22:08:41.396.17-May-2020 4937.01 2932.07 67.65 7.00 220.60 2576.47
   22:08:41.596.17-May-2020 4937.01 2931.97 67.65 7.00 220.80 2576.47
   22:08:41.796.17-May-2020 4937.01 2932.11 67.65 7.00 221.01 2576.47
   22:08:41.997.17-May-2020 4937.01 2931.99 67.65 7.00 221.21 2576.47
   22:08:42.197.17-May-2020 4937.01 2932.05 67.65 7.00 221.41 2576.47
   22:08:42.398.17-May-2020 4937.01 2932.05 67.65 7.00 221.61 2576.47
   22:08:42.598.17-May-2020 4937.01 2931.95 67.65 7.00 221.81 2576.47
   22:08:42.798.17-May-2020 4937.01 2932.10 67.65 7.00 222.01 2576.47
   22:08:42.999.17-May-2020 4937.01 2932.00 67.65 7.00 222.21 2576.47
   22:08:43.199.17-May-2020 4937.01 2932.05 67.65 7.00 222.41 2576.47
   22:08:43.399.17-May-2020 4937.01 2932.16 67.65 7.00 222.61 2576.47
   22:08:43.600.17-May-2020 4937.01 2931.94 67.65 7.00 222.81 2576.47
   22:08:43.800.17-May-2020 4937.01 2932.07 67.65 7.00 223.01 2576.47
   22:08:44.001.17-May-2020 4937.01 2932.03 67.65 7.00 223.21 2576.47
   22:08:44.201.17-May-2020 4937.01 2932.04 67.65 7.00 223.41 2576.47
   22:08:44.401.17-May-2020 4937.01 2932.04 67.65 7.00 223.61 2576.47
   22:08:44.602.17-May-2020 4937.01 2932.04 67.65 7.00 223.81 2576.47
   22:08:44.802.17-May-2020 4937.01 2932.04 67.65 7.00 224.01 2576.47
   22:08:45.002.17-May-2020 4937.01 2932.04 67.65 7.00 224.21 2576.47
   22:08:45.203.17-May-2020 4937.01 2932.03 67.65 7.00 224.41 2576.47
   22:08:45.403.17-May-2020 4937.01 2932.03 67.65 7.00 224.61 2576.47
   22:08:45.603.17-May-2020 4937.01 2932.16 67.65 7.00 224.81 2576.47
   22:08:45.804.17-May-2020 4937.01 2931.96 67.65 7.00 225.01 2576.47
   22:08:46.004.17-May-2020 4937.01 2932.11 67.65 7.00 225.21 2576.47
   22:08:46.205.17-May-2020 4937.01 2932.00 67.65 7.00 225.41 2576.47
   22:08:46.405.17-May-2020 4937.01 2932.00 67.65 7.00 225.61 2576.47
   22:08:46.605.17-May-2020 4937.01 2932.03 67.65 7.00 225.81 2576.47
   22:08:46.806.17-May-2020 4937.01 2932.05 67.65 7.00 226.01 2576.47
   22:08:47.006.17-May-2020 4937.01 2932.04 67.65 7.00 226.21 2576.47
   22:08:47.206.17-May-2020 4937.01 2932.04 67.65 7.00 226.42 2576.47
   22:08:47.407.17-May-2020 4937.01 2932.05 67.65 7.00 226.62 2576.47
   22:08:47.607.17-May-2020 4937.01 2932.17 67.65 7.00 226.82 2576.47
   22:08:47.808.17-May-2020 4937.01 2931.95 67.65 7.00 227.02 2576.47
   22:08:48.008.17-May-2020 4937.01 2932.07 67.65 7.00 227.22 2576.47
   22:08:48.208.17-May-2020 4937.01 2932.04 67.65 7.00 227.42 2576.47
   22:08:48.409.17-May-2020 4937.01 2932.04 67.65 7.00 227.62 2576.47
   22:08:48.609.17-May-2020 4937.01 2931.95 67.65 7.00 227.82 2576.47
   22:08:48.809.17-May-2020 4937.01 2932.13 67.65 7.00 228.02 2576.47
   22:08:49.010.17-May-2020 4937.01 2932.00 67.65 7.00 228.22 2576.47
   22:08:49.210.17-May-2020 4937.01 2932.05 67.65 7.00 228.42 2576.47
   22:08:49.410.17-May-2020 4937.01 2932.05 67.65 7.00 228.62 2576.47
   22:08:49.611.17-May-2020 4937.01 2931.95 67.65 7.00 228.82 2576.47
   22:08:49.811.17-May-2020 4937.01 2932.10 67.65 7.00 229.02 2576.47
   22:08:50.012.17-May-2020 4937.01 2931.99 67.65 7.00 229.22 2576.47
   22:08:50.212.17-May-2020 4937.01 2932.05 67.65 7.00 229.42 2576.47
   22:08:50.412.17-May-2020 4937.01 2932.05 67.65 7.00 229.62 2576.47
   22:08:50.613.17-May-2020 4937.01 2931.97 67.65 7.00 229.82 2576.47
   22:08:50.813.17-May-2020 4937.01 2932.10 67.65 7.00 230.02 2576.47
   22:08:51.013.17-May-2020 4937.01 2932.00 67.65 7.00 230.22 2576.47
