~Version Information
 VERS.                  2.0:   CWLS log ASCII Standard -VERSION 2.0
 WRAP.                   NO:   One line per depth step
~Well Information Block
#MNEM.UNIT     VALUE/NAME     DESCRIPTION
#---------     -----------    ---------------------------
 STRT.S             14:38:44 17-May-20: START TIME 14:38:44 17-May-20
 STOP.S             14:45:36 17-May-20: STOP TIME  14:45:36 17-May-20
 STEP.S                   0.00: STEP TIME
 NULL.                 -999.25: NULL VALUE
 UNIT.                     N/A:  LOGGING EQUIPMENT ID
 DCON.         Sperry Drilling:  DIRECTNL CONTR
 DOE .                     N/A:  DOE NUMBER
 JOBN.        AZ-XX-0906252240:  JOB TICKET NUMB
 MWDS.                     N/A:  MWD SHOP
 PROV.                    Baku:  PROVINCE
 STAT.                    Baku:  STATE NAME
 REGN.                   EESSA:  REGION
 BASE.              Azerbaijan:  LOGGING EQUIPMENT BASE LOCATION
 UWI .                     N/A:  UNIQUE WELL IDENTIFIER
 API .                     N/A:  API NUMBER
 MDS .        Operator Entered:  MAG DATA SOURCE
 WTYP.                Deviated:  WELL TYPE
 COMP.     BP Exploration (Caspian Sea) Ltd.:  COMPANY
 SRVC.          Turan Drilling:  CONTRACTOR
 WELL.           J23 (Slot 07):  WELL NAME
 CTRY.              Azerbaijan:  COUNTRY NAME
 FLD .                     ACG:  FIELD NAME
 PDAT.          Mean Sea Level:  PERMANENT DATUM
 RIG .             West Chirag:  RIG NAME
 SON .        AZ-XX-0906252240:  JOB NUMBER
 FTOP.          Formation Tops:  FORM TOPS DESC
 ILTD.               Lithology:  INTERP LTH DESC
 SVYD.                  Survey:  SURVEY DESC
 DMOD.             Drill Model:  DRILL MOD DESC
 HPTY.       Minimum Curvature:  HOLE POS TYPE
 NREF.                    Grid:  NORTH REFERENCE
 SPUD.               27-Aug-20:  SPUD DATE
 DATE.      00.00.00 19-May-20:  END TIME
 STIM.      03.00.00 25-Mar-20:  START TIME
 DMF .             Drill Floor:  DRILL MEAS FROM
 DFST.                        :  DIST FSL TEXT
 DFWT.                        :  DIST FWL TEXT
 CNTY.                        :  COUNTY
 LOC .                        :  LOCATION
 LMF .             Drill Floor:  LOG MEASURED FROM
 VSNS.m                   9.43:  VERT SEC N/S
 VSEW.m                  -8.91:  VERT SEC E/W
 AGAP.m                  43.00:  AIR GAP
 DEP .m                 354.17:  DEPTH
 APD .m                  43.00:  DEPTH ABOVE PD
 WDMS.m                 169.80:  WD ELEV
 EGL .m                   0.00:  GROUND ELEVATION
 EPD .m                   0.00:  ELEVATION
 AZTC.deg                 6.31:  AZM TOTAL CORR
 GRDC.deg                 0.14:  GRID CORRECTION
 MDEC.deg                 6.45:  MAGNETIC DECL
 MDIP.deg                59.56:  MAGNETIC DIP
 MFLD.nT              50295.00:  MAGNETIC FIELD
 GVFD.g                   1.00:  GRAVITY FIELD
 VSDR.deg               179.88:  VERT SEC DIRECT
 TDD .m                5150.01:  TOTAL DEPTH (DRILLER)
 SDEP.m                 864.00:  START DEPTH
 DFSL.m                   0.00:  DISTANCE FSL
 DFWL.m                   0.00:  DISTANCE FWL
 UTMY.m             4443793.85:  UTM Y
 UTMX.m              519005.06:  UTM X
 WHEW.m                  -8.91:  WELL HEAD E/W
 WHNS.m                   9.43:  WELL HEAD N/S
 LONG.deg                51.22:  LONGITUDE
 LATI.deg                40.13:  LATITUDE
 TVDS.m                  43.00:  TVDSS CORRECTN
 EKB .m                   0.00:  KB ELEVATION
 EDF .m                  43.00:  DF ELEVATION
 TDL .m                 363.00:  TOTAL DEPTH (LOGGER)
 MAGU.                 1850802:  MAGUTM CHECKSUM
 VSC .                       0:  VS TO CLOSURE
~Parameter Information Block
#MNEM.UNIT       Value        Description
#---------     -----------    ---------------------------
 AV  .mps                 2.30:  Ann Velocity 
 AVMX.mps                 4.40:  Max Ann Veloc 
 AZIF.deg               110.24:  Azm, Final 
 BHAT.        Rotary Steerable:  BHA Type 
 BREV.rev               331.00:  Rev Bit Total 
 BROT.°/30m               0.00:  Build Rotating 
 BS  .in                  8.50:  Bit Size 
 BSZ .in                  8.50:  Bit Size 
 BTPL.psig              585.00:  Bit Press Loss 
 CABU.                     Yes:  Customer Abuse 
 COMM.                     ÔF[:  Run Comments 1 
 TCS .hr                122.75:  Time Ciculation Ended 
 CV  .mps                 2.67:  Crit Velocity 
 CVMX.mps                 3.56:  Max Crit Veloc 
 DD1 .          Rashad Habibov:  Direct Drillr 1 
 DD2 .         Rasim Ibrahimov:  Direct Drillr 2 
 DDSV.               Geo-Pilot:  DD Service 
 DEFF.%                  98.00:  % Det Eff 
 DLRX.°/30m               0.75:  Dogleg Rot Max 
 DLSO.°/30m               1.25:  Dogleg Oriented 
 DLSX.°/30m               2.06:  Dogleg Str Max 
 DRET.      07.45.00 17-May-20:  Drill End Time 
 DRST.      22.50.00 15-May-20:  Drill Start Tim 
 DTIM.hr                 20.75:  Time Drilling 
 EDEP.m                5124.01:  End Depth 
 ENG1.           Eldar Hajiyev:  Engineer 1 
 ENG2.        Marcelo Sandoval:  Engineer 2 
 ENG3.        Davud huseynzada:  Engineer 3 
 ENG4.          Ruslan Safarov:  Engineer 4 
 ETIM.      04.33.00 23-May-20:  End Time 
 FLOI.gpm               450.00:  Flow In 
 FLON.gpm               400.00:  Flow In Min 
 FLOS.cptm                0.00:  Fluid Loss 
 FLOX.gpm               500.00:  Flow In Max 
 FTRO.       Formation Presure:  FTWD Run Obj 
 HFLO.                      No:  High Flow 
 HPRE.                     Yes:  High Pressure 
 HTEM.                      No:  High Temp 
 HYDO.m                   1.80:  Hydro Offset 
 IFIN.deg                75.06:  Inc, Final 
 IMAX.deg                75.38:  Inc Max 
 IMIN.deg                74.69:  Inc Min 
 IMND.m                5027.38:  Inc Min Depth 
 IMXD.m                4771.61:  Inc Max Depth 
 JARR.                      No:  Jarring 
 LETM.      07.45.00 17-May-20:  Log End Time 
 LOST.hr                     0:  Lost Rig Time 
 LSTM.      22.50.00 15-May-20:  Log Start Time 
 MDCL.ppm             42000.00:  Mud Chlorides 
 MDES.     Inversion Oil/Synthetic:  Mud Desc 
 DFD .sg                  1.34:  Mud Density 
 MDMN.sg                  1.34:  Dens Mud Min 
 MDMX.sg                  1.34:  Dens Mud Max 
 MOIL.                       0:  Run Mud Oil % 
 MOWR.                   67:33:  Run Mud OWR 
 MSND.                       0:  Run Mud Sand % 
 MSOL.                     1.8:  Run Mud Solids% 
 DFV .spqt               76.00:  Mud Viscosity 
 MWOD.in                  6.75:  MWD Tool OD 
 MWSI.                      No:  Serv Intrp, MWD 
 OTIM.hr                228.19:  Time Operating 
 PCON.           Look Like New:  Pad Condition 
 PMAX.psia             6164.70:  Press Op, Max 
 PV  .cP                 28.00:  Mud PV 
 RUN .                     900:  Run Number 
 ROPA.m/hr               19.00:  ROP Avg 
 ROPN.m/hr               11.00:  ROP Min 
 ROPX.m/hr               36.00:  ROP Max 
 RPMA.rpm               120.00:  RPM Surface Avg 
 RPMN.rpm               120.00:  RPM Surface Min 
 RPMX.rpm               120.00:  RPM Surface Max 
 RRUN.                    L604:  Rig Run Number 
 RTIM.hr                  7.00:  Time Reaming 
 SAZI.deg               109.27:  Azm, Start 
 SDEP.m                4761.01:  Start Depth 
 SIDD.                      No:  Serv Intrp, DD 
 SINC.deg                75.38:  Inc, Start 
 SPPA.psig             3574.00:  SPP Avg 
 SPPN.psig             3475.00:  SPP Min 
 SPPX.psig             3791.00:  SPP Max 
 STIM.      07.08.48 13-May-20:  Start Time 
 SVCS.                 DD, MWD:  Services 
 SVER.                    9.20:  Sperry Version 
 TDAT.m                 363.00:  Tot Depth Attmp 
 TDDF.                      No:  Trip for DD 
 TDLG.m                 363.00:  Tot Depth Loggd 
 TFF .                      No:  Trip for Fail 
 TQAA.f-kp               20.00:  Torque Abs Avg 
 TQAN.f-kp               18.00:  Torque Abs Min 
 TQAX.f-kp               22.00:  Torque Abs Max 
 TRRT.°/30m              -0.35:  Turn Rotating 
 MRT .                    HCIM:  Maximum Recorded Temperature 
 TTMX.degC               92.16:  Max Tool Temp 
 VS01.                90586518:  Virtual Str1 SN 
 VS02.        AZ90560654Z1W1C6:  Virtual Str2 SN 
 VS03.           AZ90610398F11:  Virtual Str3 SN 
 VS04.                90514975:  Virtual Str4 SN 
 VS05.                90514972:  Virtual Str5 SN 
 VS06.     AZ90603282F11V7D1A6:  Virtual Str6 SN 
 WBMN.klb                 7.00:  WOB Min 
 WOBA.klb                12.00:  WOB Avg 
 WOBX.klb                14.00:  WOB Max 
 YP  .lhf2               32.00:  Yield Point 
~Curve Information Block
#MNEM.UNIT                 API CODE     Curve Description
#---------               -----------    ---------------------------
 TIME.HHMMSS            00 000 000 000:  GT Time & Date
 GTDEPTH.m              00 000 000 000:  GT Depth
 GTPQH.psia             00 000 000 000:  GT HR Quartz Pressure
 GTTQ.degC              00 000 000 000:  GT Quartz Temperature
 GTTN.NONE              00 000 000 000:  GT Test Number
 GTET.sec               00 000 000 000:  GT Elapsed Test Time
 GTTVD.m                00 000 000 000:  GT True Vertical Depth
#Other Information
#
#WARRANTY: Halliburton will use its best efforts to furnish customers with 
#accurate information and interpretations that are part of, and incident to, the services 
#provided.  However, Halliburton cannot and does not warrant the accuracy 
#or correctness of such information and interpretations.  Under no circumstances should any 
#such information or interpretation be relied upon as the sole basis for any drilling, 
#completion, production, or financial decision or any procedure involving any risk to the 
#safety of any drilling venture, drilling rig or its crew or any other third party.  The 
#Customer has full responsibility for all drilling, completion and production operation.  
#Halliburton makes no representations or warranties, either expressed or 
#implied, including, but not limited to, the implied warranties of merchantability or fitness 
#for a particular purpose, with respect to the services rendered.  In no event will 
#Halliburton be liable for failure to obtain any particular results or for 
#any damages, including, but not limited to, indirect, special or consequential damages, 
#resulting from the use of any information or interpretation provided by Halliburton.
#
~A           TIME           GTDEPTH  GTPQH  GTTQ  GTTN  GTET   GTTVD  
# ...
   14:42:34.000.17-May-2020 5087.01 2767.33 72.26 1.00 230.00 2615.39
   14:42:34.200.17-May-2020 5087.01 2767.18 72.26 1.00 230.20 2615.39
   14:42:34.400.17-May-2020 5087.01 2768.59 72.26 1.00 230.40 2615.39
   14:42:34.600.17-May-2020 5087.01 2767.35 72.26 1.00 230.60 2615.39
   14:42:34.800.17-May-2020 5087.01 2767.30 72.26 1.00 230.80 2615.39
   14:42:35.000.17-May-2020 5087.01 2767.43 72.26 1.00 231.00 2615.39
   14:42:35.200.17-May-2020 5087.01 2767.43 72.26 1.00 231.20 2615.39
   14:42:35.400.17-May-2020 5087.01 2767.33 72.26 1.00 231.40 2615.39
   14:42:35.600.17-May-2020 5087.01 2767.36 72.26 1.00 231.60 2615.39
   14:42:35.800.17-May-2020 5087.01 2767.53 72.26 1.00 231.80 2615.39
   14:42:36.000.17-May-2020 5087.01 2767.43 72.26 1.00 232.00 2615.39
   14:42:36.200.17-May-2020 5087.01 2767.32 72.26 1.00 232.20 2615.39
   14:42:36.400.17-May-2020 5087.01 2768.20 72.26 1.00 232.40 2615.39
   14:42:36.600.17-May-2020 5087.01 2767.54 72.26 1.00 232.60 2615.39
   14:42:36.800.17-May-2020 5087.01 2767.25 72.25 1.00 232.80 2615.39
   14:42:37.000.17-May-2020 5087.01 2767.35 72.26 1.00 233.00 2615.39
   14:42:37.200.17-May-2020 5087.01 2767.35 72.26 1.00 233.20 2615.39
   14:42:37.400.17-May-2020 5087.01 2768.35 72.25 1.00 233.40 2615.39
   14:42:37.600.17-May-2020 5087.01 2767.17 72.25 1.00 233.60 2615.39
   14:42:37.800.17-May-2020 5087.01 2767.30 72.25 1.00 233.80 2615.39
   14:42:38.000.17-May-2020 5087.01 2767.58 72.25 1.00 234.00 2615.39
   14:42:38.200.17-May-2020 5087.01 2767.58 72.25 1.00 234.20 2615.39
   14:42:38.400.17-May-2020 5087.01 2767.55 72.25 1.00 234.40 2615.39
   14:42:38.600.17-May-2020 5087.01 2767.36 72.25 1.00 234.60 2615.39
   14:42:38.800.17-May-2020 5087.01 2767.11 72.25 1.00 234.80 2615.39
   14:42:39.000.17-May-2020 5087.01 2768.59 72.25 1.00 235.00 2615.39
   14:42:39.200.17-May-2020 5087.01 2768.59 72.25 1.00 235.20 2615.39
   14:42:39.400.17-May-2020 5087.01 2767.24 72.25 1.00 235.40 2615.39
   14:42:39.600.17-May-2020 5087.01 2767.41 72.25 1.00 235.60 2615.39
   14:42:39.800.17-May-2020 5087.01 2767.60 72.25 1.00 235.80 2615.39
   14:42:40.000.17-May-2020 5087.01 2767.27 72.25 1.00 236.00 2615.39
   14:42:40.200.17-May-2020 5087.01 2767.27 72.25 1.00 236.20 2615.39
   14:42:40.400.17-May-2020 5087.01 2767.54 72.25 1.00 236.40 2615.39
   14:42:40.600.17-May-2020 5087.01 2767.25 72.25 1.00 236.60 2615.39
   14:42:40.800.17-May-2020 5087.01 2767.28 72.25 1.00 236.80 2615.39
   14:42:41.000.17-May-2020 5087.01 2767.49 72.25 1.00 237.00 2615.39
   14:42:41.200.17-May-2020 5087.01 2767.49 72.25 1.00 237.20 2615.39
   14:42:41.400.17-May-2020 5087.01 2767.22 72.25 1.00 237.40 2615.39
   14:42:41.600.17-May-2020 5087.01 2767.28 72.25 1.00 237.60 2615.39
   14:42:41.800.17-May-2020 5087.01 2767.65 72.25 1.00 237.80 2615.39
   14:42:42.000.17-May-2020 5087.01 2767.44 72.25 1.00 238.00 2615.39
   14:42:42.200.17-May-2020 5087.01 2767.44 72.25 1.00 238.20 2615.39
   14:42:42.400.17-May-2020 5087.01 2767.42 72.25 1.00 238.40 2615.39
   14:42:42.600.17-May-2020 5087.01 2767.41 72.25 1.00 238.60 2615.39
   14:42:42.800.17-May-2020 5087.01 2767.29 72.25 1.00 238.80 2615.39
   14:42:43.000.17-May-2020 5087.01 2767.32 72.25 1.00 239.00 2615.39
   14:42:43.200.17-May-2020 5087.01 2767.32 72.25 1.00 239.20 2615.39
   14:42:43.400.17-May-2020 5087.01 2767.18 72.25 1.00 239.40 2615.39
   14:42:43.600.17-May-2020 5087.01 2767.25 72.25 1.00 239.60 2615.39
   14:42:43.800.17-May-2020 5087.01 2767.60 72.25 1.00 239.80 2615.39
   14:42:44.000.17-May-2020 5087.01 2768.11 72.25 1.00 240.00 2615.39
   14:42:44.200.17-May-2020 5087.01 2767.36 72.25 1.00 240.20 2615.39
   14:42:44.400.17-May-2020 5087.01 2767.25 72.25 1.00 240.40 2615.39
   14:42:44.600.17-May-2020 5087.01 2767.30 72.25 1.00 240.60 2615.39
   14:42:44.800.17-May-2020 5087.01 2767.38 72.25 1.00 240.80 2615.39
   14:42:45.000.17-May-2020 5087.01 2768.17 72.25 1.00 241.00 2615.39
   14:42:45.200.17-May-2020 5087.01 2768.17 72.25 1.00 241.20 2615.39
   14:42:45.400.17-May-2020 5087.01 2767.31 72.25 1.00 241.40 2615.39
   14:42:45.600.17-May-2020 5087.01 2767.38 72.25 1.00 241.60 2615.39
   14:42:45.800.17-May-2020 5087.01 2768.14 72.25 1.00 241.80 2615.39
   14:42:46.000.17-May-2020 5087.01 2767.20 72.25 1.00 242.00 2615.39
   14:42:46.200.17-May-2020 5087.01 2767.20 72.25 1.00 242.20 2615.39
   14:42:46.400.17-May-2020 5087.01 2767.52 72.25 1.00 242.40 2615.39
   14:42:46.600.17-May-2020 5087.01 2767.49 72.25 1.00 242.60 2615.39
   14:42:46.800.17-May-2020 5087.01 2767.28 72.25 1.00 242.80 2615.39
   14:42:47.000.17-May-2020 5087.01 2767.42 72.25 1.00 243.00 2615.39
   14:42:47.200.17-May-2020 5087.01 2767.42 72.25 1.00 243.20 2615.39
   14:42:47.400.17-May-2020 5087.01 2767.32 72.25 1.00 243.40 2615.39
   14:42:47.600.17-May-2020 5087.01 2767.36 72.25 1.00 243.60 2615.39
   14:42:47.800.17-May-2020 5087.01 2767.95 72.25 1.00 243.80 2615.39
   14:42:48.000.17-May-2020 5087.01 2767.28 72.25 1.00 244.00 2615.39
   14:42:48.200.17-May-2020 5087.01 2767.29 72.25 1.00 244.20 2615.39
   14:42:48.400.17-May-2020 5087.01 2767.29 72.25 1.00 244.40 2615.39
   14:42:48.600.17-May-2020 5087.01 2767.58 72.25 1.00 244.60 2615.39
   14:42:48.800.17-May-2020 5087.01 2767.31 72.25 1.00 244.80 2615.39
   14:42:49.000.17-May-2020 5087.01 2767.31 72.25 1.00 245.00 2615.39
   14:42:49.200.17-May-2020 5087.01 2767.32 72.25 1.00 245.20 2615.39
   14:42:49.400.17-May-2020 5087.01 2767.48 72.25 1.00 245.40 2615.39
   14:42:49.600.17-May-2020 5087.01 2767.31 72.25 1.00 245.60 2615.39
   14:42:49.800.17-May-2020 5087.01 2768.00 72.25 1.00 245.80 2615.39
   14:42:50.000.17-May-2020 5087.01 2767.35 72.24 1.00 246.00 2615.39
   14:42:50.200.17-May-2020 5087.01 2767.35 72.24 1.00 246.20 2615.39
   14:42:50.400.17-May-2020 5087.01 2767.35 72.24 1.00 246.40 2615.39
   14:42:50.600.17-May-2020 5087.01 2767.39 72.24 1.00 246.60 2615.39
   14:42:50.800.17-May-2020 5087.01 2768.27 72.24 1.00 246.80 2615.39
   14:42:51.000.17-May-2020 5087.01 2767.19 72.24 1.00 247.00 2615.39
   14:42:51.200.17-May-2020 5087.01 2767.19 72.24 1.00 247.20 2615.39
   14:42:51.400.17-May-2020 5087.01 2767.41 72.24 1.00 247.40 2615.39
   14:42:51.600.17-May-2020 5087.01 2767.73 72.24 1.00 247.60 2615.39
   14:42:51.800.17-May-2020 5087.01 2767.87 72.24 1.00 247.80 2615.39
   14:42:52.000.17-May-2020 5087.01 2767.14 72.24 1.00 248.00 2615.39
   14:42:52.200.17-May-2020 5087.01 2767.18 72.24 1.00 248.20 2615.39
   14:42:52.400.17-May-2020 5087.01 2768.15 72.24 1.00 248.40 2615.39
   14:42:52.600.17-May-2020 5087.01 2767.40 72.24 1.00 248.60 2615.39
   14:42:52.800.17-May-2020 5087.01 2767.15 72.24 1.00 248.80 2615.39
   14:42:53.000.17-May-2020 5087.01 2767.43 72.24 1.00 249.00 2615.39
   14:42:53.200.17-May-2020 5087.01 2767.55 72.24 1.00 249.20 2615.39
   14:42:53.400.17-May-2020 5087.01 2767.90 72.24 1.00 249.40 2615.39
   14:42:53.600.17-May-2020 5087.01 2700.07 72.24 1.00 249.60 2615.39
   14:42:53.800.17-May-2020 5087.01 2636.19 72.24 1.00 249.80 2615.39
   14:42:54.000.17-May-2020 5087.01 2629.18 72.24 1.00 250.00 2615.39
   14:42:54.200.17-May-2020 5087.01 2629.18 72.24 1.00 250.20 2615.39
   14:42:54.400.17-May-2020 5087.01 2633.54 72.24 1.00 250.40 2615.39
   14:42:54.600.17-May-2020 5087.01 2639.93 72.24 1.00 250.60 2615.39
   14:42:54.800.17-May-2020 5087.01 2638.52 72.24 1.00 250.80 2615.39
   14:42:55.000.17-May-2020 5087.01 2638.63 72.24 1.00 251.00 2615.39
   14:42:55.200.17-May-2020 5087.01 2638.63 72.24 1.00 251.20 2615.39
   14:42:55.400.17-May-2020 5087.01 2641.41 72.24 1.00 251.40 2615.39
   14:42:55.600.17-May-2020 5087.01 2639.99 72.24 1.00 251.60 2615.39
   14:42:55.800.17-May-2020 5087.01 2642.81 72.24 1.00 251.80 2615.39
   14:42:56.000.17-May-2020 5087.01 2639.19 72.24 1.00 252.00 2615.39
   14:42:56.200.17-May-2020 5087.01 2639.19 72.24 1.00 252.20 2615.39
   14:42:56.400.17-May-2020 5087.01 2634.34 72.24 1.00 252.40 2615.39
   14:42:56.600.17-May-2020 5087.01 2635.42 72.24 1.00 252.60 2615.39
   14:42:56.800.17-May-2020 5087.01 2631.07 72.24 1.00 252.80 2615.39
