~Version Information
 VERS.                  2.0:   CWLS log ASCII Standard -VERSION 2.0
 WRAP.                   NO:   One line per depth step
~Well Information Block
#MNEM.UNIT     VALUE/NAME     DESCRIPTION
#---------     -----------    ---------------------------
 STRT.S             12:13:26 20-May-20: START TIME 12:13:26 20-May-20
 STOP.S             12:20:31 20-May-20: STOP TIME  12:20:31 20-May-20
 STEP.S                   0.00: STEP TIME
 NULL.                 -999.25: NULL VALUE
 UNIT.                     N/A:  LOGGING EQUIPMENT ID
 DCON.         Sperry Drilling:  DIRECTNL CONTR
 DOE .                     N/A:  DOE NUMBER
 JOBN.        AZ-XX-0906252240:  JOB TICKET NUMB
 MWDS.                     N/A:  MWD SHOP
 PROV.                    Baku:  PROVINCE
 STAT.                    Baku:  STATE NAME
 REGN.                   EESSA:  REGION
 BASE.              Azerbaijan:  LOGGING EQUIPMENT BASE LOCATION
 UWI .                     N/A:  UNIQUE WELL IDENTIFIER
 API .                     N/A:  API NUMBER
 MDS .        Operator Entered:  MAG DATA SOURCE
 WTYP.                Deviated:  WELL TYPE
 COMP.     BP Exploration (Caspian Sea) Ltd.:  COMPANY
 SRVC.          Turan Drilling:  CONTRACTOR
 WELL.           J23 (Slot 07):  WELL NAME
 CTRY.              Azerbaijan:  COUNTRY NAME
 FLD .                     ACG:  FIELD NAME
 PDAT.          Mean Sea Level:  PERMANENT DATUM
 RIG .             West Chirag:  RIG NAME
 SON .        AZ-XX-0906252240:  JOB NUMBER
 FTOP.          Formation Tops:  FORM TOPS DESC
 ILTD.               Lithology:  INTERP LTH DESC
 SVYD.                  Survey:  SURVEY DESC
 DMOD.             Drill Model:  DRILL MOD DESC
 HPTY.       Minimum Curvature:  HOLE POS TYPE
 NREF.                    Grid:  NORTH REFERENCE
 SPUD.               27-Aug-20:  SPUD DATE
 DATE.      00.00.00 19-May-20:  END TIME
 STIM.      03.00.00 25-Mar-20:  START TIME
 DMF .             Drill Floor:  DRILL MEAS FROM
 DFST.                        :  DIST FSL TEXT
 DFWT.                        :  DIST FWL TEXT
 CNTY.                        :  COUNTY
 LOC .                        :  LOCATION
 LMF .             Drill Floor:  LOG MEASURED FROM
 VSNS.m                   9.43:  VERT SEC N/S
 VSEW.m                  -8.91:  VERT SEC E/W
 AGAP.m                  43.00:  AIR GAP
 DEP .m                 354.17:  DEPTH
 APD .m                  43.00:  DEPTH ABOVE PD
 WDMS.m                 169.80:  WD ELEV
 EGL .m                   0.00:  GROUND ELEVATION
 EPD .m                   0.00:  ELEVATION
 AZTC.deg                 6.31:  AZM TOTAL CORR
 GRDC.deg                 0.14:  GRID CORRECTION
 MDEC.deg                 6.45:  MAGNETIC DECL
 MDIP.deg                59.56:  MAGNETIC DIP
 MFLD.nT              50295.00:  MAGNETIC FIELD
 GVFD.g                   1.00:  GRAVITY FIELD
 VSDR.deg               179.88:  VERT SEC DIRECT
 TDD .m                5150.01:  TOTAL DEPTH (DRILLER)
 SDEP.m                 864.00:  START DEPTH
 DFSL.m                   0.00:  DISTANCE FSL
 DFWL.m                   0.00:  DISTANCE FWL
 UTMY.m             4443793.85:  UTM Y
 UTMX.m              519005.06:  UTM X
 WHEW.m                  -8.91:  WELL HEAD E/W
 WHNS.m                   9.43:  WELL HEAD N/S
 LONG.deg                51.22:  LONGITUDE
 LATI.deg                40.13:  LATITUDE
 TVDS.m                  43.00:  TVDSS CORRECTN
 EKB .m                   0.00:  KB ELEVATION
 EDF .m                  43.00:  DF ELEVATION
 TDL .m                 363.00:  TOTAL DEPTH (LOGGER)
 MAGU.                 1850802:  MAGUTM CHECKSUM
 VSC .                       0:  VS TO CLOSURE
~Parameter Information Block
#MNEM.UNIT       Value        Description
#---------     -----------    ---------------------------
 AV  .mps                 2.30:  Ann Velocity 
 AVMX.mps                 4.40:  Max Ann Veloc 
 AZIF.deg               110.24:  Azm, Final 
 BHAT.        Rotary Steerable:  BHA Type 
 BREV.rev               331.00:  Rev Bit Total 
 BROT.°/30m               0.00:  Build Rotating 
 BS  .in                  8.50:  Bit Size 
 BSZ .in                  8.50:  Bit Size 
 BTPL.psig              585.00:  Bit Press Loss 
 CABU.                     Yes:  Customer Abuse 
 COMM.                     моЊ:  Run Comments 1 
 TCS .hr                122.75:  Time Ciculation Ended 
 CV  .mps                 2.67:  Crit Velocity 
 CVMX.mps                 3.56:  Max Crit Veloc 
 DD1 .          Rashad Habibov:  Direct Drillr 1 
 DD2 .         Rasim Ibrahimov:  Direct Drillr 2 
 DDSV.               Geo-Pilot:  DD Service 
 DEFF.%                  98.00:  % Det Eff 
 DLRX.°/30m               0.75:  Dogleg Rot Max 
 DLSO.°/30m               1.25:  Dogleg Oriented 
 DLSX.°/30m               2.06:  Dogleg Str Max 
 DRET.      07.45.00 17-May-20:  Drill End Time 
 DRST.      22.50.00 15-May-20:  Drill Start Tim 
 DTIM.hr                 20.75:  Time Drilling 
 EDEP.m                5124.01:  End Depth 
 ENG1.           Eldar Hajiyev:  Engineer 1 
 ENG2.        Marcelo Sandoval:  Engineer 2 
 ENG3.        Davud huseynzada:  Engineer 3 
 ENG4.          Ruslan Safarov:  Engineer 4 
 ETIM.      04.33.00 23-May-20:  End Time 
 FLOI.gpm               450.00:  Flow In 
 FLON.gpm               400.00:  Flow In Min 
 FLOS.cptm                0.00:  Fluid Loss 
 FLOX.gpm               500.00:  Flow In Max 
 FTRO.       Formation Presure:  FTWD Run Obj 
 HFLO.                      No:  High Flow 
 HPRE.                     Yes:  High Pressure 
 HTEM.                      No:  High Temp 
 HYDO.m                   1.80:  Hydro Offset 
 IFIN.deg                75.06:  Inc, Final 
 IMAX.deg                75.38:  Inc Max 
 IMIN.deg                74.69:  Inc Min 
 IMND.m                5027.38:  Inc Min Depth 
 IMXD.m                4771.61:  Inc Max Depth 
 JARR.                      No:  Jarring 
 LETM.      07.45.00 17-May-20:  Log End Time 
 LOST.hr                     0:  Lost Rig Time 
 LSTM.      22.50.00 15-May-20:  Log Start Time 
 MDCL.ppm             42000.00:  Mud Chlorides 
 MDES.     Inversion Oil/Synthetic:  Mud Desc 
 DFD .sg                  1.34:  Mud Density 
 MDMN.sg                  1.34:  Dens Mud Min 
 MDMX.sg                  1.34:  Dens Mud Max 
 MOIL.                       0:  Run Mud Oil % 
 MOWR.                   67:33:  Run Mud OWR 
 MSND.                       0:  Run Mud Sand % 
 MSOL.                     1.8:  Run Mud Solids% 
 DFV .spqt               76.00:  Mud Viscosity 
 MWOD.in                  6.75:  MWD Tool OD 
 MWSI.                      No:  Serv Intrp, MWD 
 OTIM.hr                228.19:  Time Operating 
 PCON.           Look Like New:  Pad Condition 
 PMAX.psia             6164.70:  Press Op, Max 
 PV  .cP                 28.00:  Mud PV 
 RUN .                     900:  Run Number 
 ROPA.m/hr               19.00:  ROP Avg 
 ROPN.m/hr               11.00:  ROP Min 
 ROPX.m/hr               36.00:  ROP Max 
 RPMA.rpm               120.00:  RPM Surface Avg 
 RPMN.rpm               120.00:  RPM Surface Min 
 RPMX.rpm               120.00:  RPM Surface Max 
 RRUN.                    L604:  Rig Run Number 
 RTIM.hr                  7.00:  Time Reaming 
 SAZI.deg               109.27:  Azm, Start 
 SDEP.m                4761.01:  Start Depth 
 SIDD.                      No:  Serv Intrp, DD 
 SINC.deg                75.38:  Inc, Start 
 SPPA.psig             3574.00:  SPP Avg 
 SPPN.psig             3475.00:  SPP Min 
 SPPX.psig             3791.00:  SPP Max 
 STIM.      07.08.48 13-May-20:  Start Time 
 SVCS.                 DD, MWD:  Services 
 SVER.                    9.20:  Sperry Version 
 TDAT.m                 363.00:  Tot Depth Attmp 
 TDDF.                      No:  Trip for DD 
 TDLG.m                 363.00:  Tot Depth Loggd 
 TFF .                      No:  Trip for Fail 
 TQAA.f-kp               20.00:  Torque Abs Avg 
 TQAN.f-kp               18.00:  Torque Abs Min 
 TQAX.f-kp               22.00:  Torque Abs Max 
 TRRT.°/30m              -0.35:  Turn Rotating 
 MRT .                    HCIM:  Maximum Recorded Temperature 
 TTMX.degC               92.16:  Max Tool Temp 
 VS01.                90586518:  Virtual Str1 SN 
 VS02.        AZ90560654Z1W1C6:  Virtual Str2 SN 
 VS03.           AZ90610398F11:  Virtual Str3 SN 
 VS04.                90514975:  Virtual Str4 SN 
 VS05.                90514972:  Virtual Str5 SN 
 VS06.     AZ90603282F11V7D1A6:  Virtual Str6 SN 
 WBMN.klb                 7.00:  WOB Min 
 WOBA.klb                12.00:  WOB Avg 
 WOBX.klb                14.00:  WOB Max 
 YP  .lhf2               32.00:  Yield Point 
~Curve Information Block
#MNEM.UNIT                 API CODE     Curve Description
#---------               -----------    ---------------------------
 TIME.HHMMSS            00 000 000 000:  GT Time & Date
 GTDEPTH.m              00 000 000 000:  GT Depth
 GTPQH.psia             00 000 000 000:  GT HR Quartz Pressure
 GTTQ.degC              00 000 000 000:  GT Quartz Temperature
 GTTN.NONE              00 000 000 000:  GT Test Number
 GTET.sec               00 000 000 000:  GT Elapsed Test Time
 GTTVD.m                00 000 000 000:  GT True Vertical Depth
#Other Information
#
#WARRANTY: Halliburton will use its best efforts to furnish customers with 
#accurate information and interpretations that are part of, and incident to, the services 
#provided.  However, Halliburton cannot and does not warrant the accuracy 
#or correctness of such information and interpretations.  Under no circumstances should any 
#such information or interpretation be relied upon as the sole basis for any drilling, 
#completion, production, or financial decision or any procedure involving any risk to the 
#safety of any drilling venture, drilling rig or its crew or any other third party.  The 
#Customer has full responsibility for all drilling, completion and production operation.  
#Halliburton makes no representations or warranties, either expressed or 
#implied, including, but not limited to, the implied warranties of merchantability or fitness 
#for a particular purpose, with respect to the services rendered.  In no event will 
#Halliburton be liable for failure to obtain any particular results or for 
#any damages, including, but not limited to, indirect, special or consequential damages, 
#resulting from the use of any information or interpretation provided by Halliburton.
#
~A           TIME           GTDEPTH  GTPQH  GTTQ  GTTN   GTET   GTTVD  
# ...
   12:17:12.773.20-May-2020 4766.51 5492.50 69.28 15.00 226.07 2532.42
   12:17:12.973.20-May-2020 4766.51 5492.50 69.28 15.00 226.27 2532.42
   12:17:13.173.20-May-2020 4766.51 5486.24 69.28 15.00 226.47 2532.42
   12:17:13.373.20-May-2020 4766.51 5485.40 69.28 15.00 226.67 2532.42
   12:17:13.573.20-May-2020 4766.51 5485.41 69.28 15.00 226.87 2532.42
   12:17:13.773.20-May-2020 4766.51 5500.93 69.28 15.00 227.07 2532.42
   12:17:13.973.20-May-2020 4766.51 5487.12 69.28 15.00 227.27 2532.42
   12:17:14.173.20-May-2020 4766.51 5486.04 69.28 15.00 227.47 2532.42
   12:17:14.374.20-May-2020 4766.51 5486.00 69.28 15.00 227.67 2532.42
   12:17:14.574.20-May-2020 4766.51 5486.73 69.28 15.00 227.87 2532.42
   12:17:14.774.20-May-2020 4766.51 5500.06 69.28 15.00 228.07 2532.42
   12:17:14.974.20-May-2020 4766.51 5500.06 69.28 15.00 228.27 2532.42
   12:17:15.174.20-May-2020 4766.51 5486.24 69.28 15.00 228.47 2532.42
   12:17:15.374.20-May-2020 4766.51 5485.95 69.28 15.00 228.67 2532.42
   12:17:15.574.20-May-2020 4766.51 5486.60 69.28 15.00 228.87 2532.42
   12:17:15.774.20-May-2020 4766.51 5486.59 69.28 15.00 229.07 2532.42
   12:17:15.974.20-May-2020 4766.51 5486.59 69.28 15.00 229.27 2532.42
   12:17:16.174.20-May-2020 4766.51 5485.12 69.28 15.00 229.47 2532.42
   12:17:16.374.20-May-2020 4766.51 5485.11 69.28 15.00 229.67 2532.42
   12:17:16.574.20-May-2020 4766.51 5484.28 69.27 15.00 229.87 2532.42
   12:17:16.774.20-May-2020 4766.51 5496.37 69.27 15.00 230.07 2532.42
   12:17:16.974.20-May-2020 4766.51 5496.37 69.27 15.00 230.27 2532.42
   12:17:17.174.20-May-2020 4766.51 5484.52 69.27 15.00 230.47 2532.42
   12:17:17.374.20-May-2020 4766.51 5484.21 69.27 15.00 230.67 2532.42
   12:17:17.575.20-May-2020 4766.51 5484.87 69.27 15.00 230.87 2532.42
   12:17:17.775.20-May-2020 4766.51 5486.59 69.27 15.00 231.07 2532.42
   12:17:17.975.20-May-2020 4766.51 5485.04 69.27 15.00 231.27 2532.42
   12:17:18.175.20-May-2020 4766.51 5484.78 69.27 15.00 231.47 2532.42
   12:17:18.375.20-May-2020 4766.51 5485.13 69.27 15.00 231.67 2532.42
   12:17:18.575.20-May-2020 4766.51 5484.54 69.27 15.00 231.87 2532.42
   12:17:18.775.20-May-2020 4766.51 5484.04 69.27 15.00 232.07 2532.42
   12:17:18.975.20-May-2020 4766.51 5484.04 69.27 15.00 232.27 2532.42
   12:17:19.175.20-May-2020 4766.51 5486.42 69.27 15.00 232.47 2532.42
   12:17:19.375.20-May-2020 4766.51 5484.31 69.27 15.00 232.67 2532.42
   12:17:19.575.20-May-2020 4766.51 5484.11 69.27 15.00 232.87 2532.42
   12:17:19.775.20-May-2020 4766.51 5496.07 69.27 15.00 233.07 2532.42
   12:17:19.975.20-May-2020 4766.51 5496.07 69.27 15.00 233.27 2532.42
   12:17:20.175.20-May-2020 4766.51 5485.72 69.27 15.00 233.47 2532.42
   12:17:20.375.20-May-2020 4766.51 5484.87 69.27 15.00 233.67 2532.42
   12:17:20.576.20-May-2020 4766.51 5487.90 69.27 15.00 233.87 2532.42
   12:17:20.776.20-May-2020 4766.51 5498.16 69.27 15.00 234.07 2532.42
   12:17:20.976.20-May-2020 4766.51 5498.16 69.27 15.00 234.27 2532.42
   12:17:21.176.20-May-2020 4766.51 5485.76 69.27 15.00 234.47 2532.42
   12:17:21.376.20-May-2020 4766.51 5485.30 69.27 15.00 234.68 2532.42
   12:17:21.576.20-May-2020 4766.51 5488.25 69.27 15.00 234.88 2532.42
   12:17:21.776.20-May-2020 4766.51 5498.10 69.27 15.00 235.08 2532.42
   12:17:21.976.20-May-2020 4766.51 5486.08 69.27 15.00 235.28 2532.42
   12:17:22.176.20-May-2020 4766.51 5486.10 69.27 15.00 235.48 2532.42
   12:17:22.376.20-May-2020 4766.51 5485.45 69.27 15.00 235.68 2532.42
   12:17:22.576.20-May-2020 4766.51 5486.40 69.27 15.00 235.88 2532.42
   12:17:22.776.20-May-2020 4766.51 5486.23 69.27 15.00 236.08 2532.42
   12:17:22.976.20-May-2020 4766.51 5486.23 69.27 15.00 236.28 2532.42
   12:17:23.176.20-May-2020 4766.51 5484.93 69.26 15.00 236.48 2532.42
   12:17:23.376.20-May-2020 4766.51 5484.78 69.26 15.00 236.68 2532.42
   12:17:23.576.20-May-2020 4766.51 5483.92 69.26 15.00 236.88 2532.42
   12:17:23.777.20-May-2020 4766.51 5496.51 69.26 15.00 237.08 2532.42
   12:17:23.977.20-May-2020 4766.51 5496.51 69.26 15.00 237.28 2532.42
   12:17:24.177.20-May-2020 4766.51 5484.53 69.26 15.00 237.48 2532.42
   12:17:24.377.20-May-2020 4766.51 5484.11 69.26 15.00 237.68 2532.42
   12:17:24.577.20-May-2020 4766.51 5484.86 69.26 15.00 237.88 2532.42
   12:17:24.777.20-May-2020 4766.51 5486.24 69.26 15.00 238.08 2532.42
   12:17:24.977.20-May-2020 4766.51 5486.24 69.26 15.00 238.28 2532.42
   12:17:25.177.20-May-2020 4766.51 5484.66 69.26 15.00 238.48 2532.42
   12:17:25.377.20-May-2020 4766.51 5484.89 69.26 15.00 238.68 2532.42
   12:17:25.577.20-May-2020 4766.51 5484.06 69.26 15.00 238.88 2532.42
   12:17:25.777.20-May-2020 4766.51 5483.69 69.26 15.00 239.08 2532.42
   12:17:25.977.20-May-2020 4766.51 5494.63 69.26 15.00 239.28 2532.42
   12:17:26.177.20-May-2020 4766.51 5485.50 69.26 15.00 239.48 2532.42
   12:17:26.377.20-May-2020 4766.51 5483.90 69.26 15.00 239.68 2532.42
   12:17:26.577.20-May-2020 4766.51 5483.85 69.26 15.00 239.88 2532.42
   12:17:26.777.20-May-2020 4766.51 5496.12 69.26 15.00 240.08 2532.42
   12:17:26.978.20-May-2020 4766.51 5496.12 69.26 15.00 240.28 2532.42
   12:17:27.178.20-May-2020 4766.51 5485.65 69.26 15.00 240.48 2532.42
   12:17:27.378.20-May-2020 4766.51 5484.71 69.26 15.00 240.68 2532.42
   12:17:27.578.20-May-2020 4766.51 5488.85 69.26 15.00 240.88 2532.42
   12:17:27.778.20-May-2020 4766.51 5497.13 69.26 15.00 241.08 2532.42
   12:17:27.978.20-May-2020 4766.51 5497.13 69.26 15.00 241.28 2532.42
   12:17:28.178.20-May-2020 4766.51 5485.70 69.26 15.00 241.48 2532.42
   12:17:28.378.20-May-2020 4766.51 5485.26 69.26 15.00 241.68 2532.42
   12:17:28.578.20-May-2020 4766.51 5488.80 69.26 15.00 241.88 2532.42
   12:17:28.778.20-May-2020 4766.51 5497.57 69.26 15.00 242.08 2532.42
   12:17:28.978.20-May-2020 4766.51 5497.57 69.26 15.00 242.28 2532.42
   12:17:29.178.20-May-2020 4766.51 5486.09 69.26 15.00 242.48 2532.42
   12:17:29.378.20-May-2020 4766.51 5485.04 69.25 15.00 242.68 2532.42
   12:17:29.578.20-May-2020 4766.51 5486.38 69.25 15.00 242.88 2532.42
   12:17:29.778.20-May-2020 4766.51 5486.05 69.25 15.00 243.08 2532.42
   12:17:29.979.20-May-2020 4766.51 5486.05 69.25 15.00 243.28 2532.42
   12:17:30.179.20-May-2020 4766.51 5484.50 69.25 15.00 243.48 2532.42
   12:17:30.379.20-May-2020 4766.51 5484.31 69.25 15.00 243.68 2532.42
   12:17:30.579.20-May-2020 4766.51 5483.34 69.25 15.00 243.88 2532.42
   12:17:30.779.20-May-2020 4766.51 5495.95 69.25 15.00 244.08 2532.42
   12:17:30.979.20-May-2020 4766.51 5495.95 69.25 15.00 244.28 2532.42
   12:17:31.179.20-May-2020 4766.51 5484.17 69.25 15.00 244.48 2532.42
   12:17:31.379.20-May-2020 4766.51 5483.63 69.25 15.00 244.68 2532.42
   12:17:31.579.20-May-2020 4766.51 5484.64 69.25 15.00 244.88 2532.42
   12:17:31.779.20-May-2020 4766.51 5485.71 69.25 15.00 245.08 2532.42
   12:17:31.979.20-May-2020 4766.51 5485.71 69.25 15.00 245.28 2532.42
   12:17:32.179.20-May-2020 4766.51 5484.43 69.25 15.00 245.48 2532.42
   12:17:32.379.20-May-2020 4766.51 5484.63 69.25 15.00 245.68 2532.42
   12:17:32.579.20-May-2020 4766.51 5483.87 69.25 15.00 245.88 2532.42
   12:17:32.779.20-May-2020 4766.51 5483.47 69.25 15.00 246.08 2532.42
   12:17:32.979.20-May-2020 4766.51 5483.47 69.25 15.00 246.28 2532.42
   12:17:33.180.20-May-2020 4766.51 5485.02 69.25 15.00 246.48 2532.42
   12:17:33.380.20-May-2020 4766.51 5483.77 69.25 15.00 246.68 2532.42
   12:17:33.580.20-May-2020 4766.51 5483.64 69.25 15.00 246.88 2532.42
   12:17:33.780.20-May-2020 4766.51 5496.58 69.25 15.00 247.08 2532.42
   12:17:33.980.20-May-2020 4766.51 5488.10 69.25 15.00 247.28 2532.42
   12:17:34.180.20-May-2020 4766.51 5485.61 69.25 15.00 247.48 2532.42
   12:17:34.380.20-May-2020 4766.51 5484.46 69.25 15.00 247.68 2532.42
   12:17:34.580.20-May-2020 4766.51 5489.50 69.25 15.00 247.88 2532.42
   12:17:34.780.20-May-2020 4766.51 5495.79 69.25 15.00 248.08 2532.42
   12:17:34.980.20-May-2020 4766.51 5495.79 69.25 15.00 248.28 2532.42
   12:17:35.180.20-May-2020 4766.51 5485.32 69.25 15.00 248.48 2532.42
