~Version Information
 VERS.                  2.0:   CWLS log ASCII Standard -VERSION 2.0
 WRAP.                   NO:   One line per depth step
~Well Information Block
#MNEM.UNIT     VALUE/NAME     DESCRIPTION
#---------     -----------    ---------------------------
 STRT.S             19:37:06 17-May-20: START TIME 19:37:06 17-May-20
 STOP.S             19:44:11 17-May-20: STOP TIME  19:44:11 17-May-20
 STEP.S                   0.00: STEP TIME
 NULL.                 -999.25: NULL VALUE
 UNIT.                     N/A:  LOGGING EQUIPMENT ID
 DCON.         Sperry Drilling:  DIRECTNL CONTR
 DOE .                     N/A:  DOE NUMBER
 JOBN.        AZ-XX-0906252240:  JOB TICKET NUMB
 MWDS.                     N/A:  MWD SHOP
 PROV.                    Baku:  PROVINCE
 STAT.                    Baku:  STATE NAME
 REGN.                   EESSA:  REGION
 BASE.              Azerbaijan:  LOGGING EQUIPMENT BASE LOCATION
 UWI .                     N/A:  UNIQUE WELL IDENTIFIER
 API .                     N/A:  API NUMBER
 MDS .        Operator Entered:  MAG DATA SOURCE
 WTYP.                Deviated:  WELL TYPE
 COMP.     BP Exploration (Caspian Sea) Ltd.:  COMPANY
 SRVC.          Turan Drilling:  CONTRACTOR
 WELL.           J23 (Slot 07):  WELL NAME
 CTRY.              Azerbaijan:  COUNTRY NAME
 FLD .                     ACG:  FIELD NAME
 PDAT.          Mean Sea Level:  PERMANENT DATUM
 RIG .             West Chirag:  RIG NAME
 SON .        AZ-XX-0906252240:  JOB NUMBER
 FTOP.          Formation Tops:  FORM TOPS DESC
 ILTD.               Lithology:  INTERP LTH DESC
 SVYD.                  Survey:  SURVEY DESC
 DMOD.             Drill Model:  DRILL MOD DESC
 HPTY.       Minimum Curvature:  HOLE POS TYPE
 NREF.                    Grid:  NORTH REFERENCE
 SPUD.               27-Aug-20:  SPUD DATE
 DATE.      00.00.00 19-May-20:  END TIME
 STIM.      03.00.00 25-Mar-20:  START TIME
 DMF .             Drill Floor:  DRILL MEAS FROM
 DFST.                        :  DIST FSL TEXT
 DFWT.                        :  DIST FWL TEXT
 CNTY.                        :  COUNTY
 LOC .                        :  LOCATION
 LMF .             Drill Floor:  LOG MEASURED FROM
 VSNS.m                   9.43:  VERT SEC N/S
 VSEW.m                  -8.91:  VERT SEC E/W
 AGAP.m                  43.00:  AIR GAP
 DEP .m                 354.17:  DEPTH
 APD .m                  43.00:  DEPTH ABOVE PD
 WDMS.m                 169.80:  WD ELEV
 EGL .m                   0.00:  GROUND ELEVATION
 EPD .m                   0.00:  ELEVATION
 AZTC.deg                 6.31:  AZM TOTAL CORR
 GRDC.deg                 0.14:  GRID CORRECTION
 MDEC.deg                 6.45:  MAGNETIC DECL
 MDIP.deg                59.56:  MAGNETIC DIP
 MFLD.nT              50295.00:  MAGNETIC FIELD
 GVFD.g                   1.00:  GRAVITY FIELD
 VSDR.deg               179.88:  VERT SEC DIRECT
 TDD .m                5150.01:  TOTAL DEPTH (DRILLER)
 SDEP.m                 864.00:  START DEPTH
 DFSL.m                   0.00:  DISTANCE FSL
 DFWL.m                   0.00:  DISTANCE FWL
 UTMY.m             4443793.85:  UTM Y
 UTMX.m              519005.06:  UTM X
 WHEW.m                  -8.91:  WELL HEAD E/W
 WHNS.m                   9.43:  WELL HEAD N/S
 LONG.deg                51.22:  LONGITUDE
 LATI.deg                40.13:  LATITUDE
 TVDS.m                  43.00:  TVDSS CORRECTN
 EKB .m                   0.00:  KB ELEVATION
 EDF .m                  43.00:  DF ELEVATION
 TDL .m                 363.00:  TOTAL DEPTH (LOGGER)
 MAGU.                 1850802:  MAGUTM CHECKSUM
 VSC .                       0:  VS TO CLOSURE
~Parameter Information Block
#MNEM.UNIT       Value        Description
#---------     -----------    ---------------------------
 AV  .mps                 2.30:  Ann Velocity 
 AVMX.mps                 4.40:  Max Ann Veloc 
 AZIF.deg               110.24:  Azm, Final 
 BHAT.        Rotary Steerable:  BHA Type 
 BREV.rev               331.00:  Rev Bit Total 
 BROT.°/30m               0.00:  Build Rotating 
 BS  .in                  8.50:  Bit Size 
 BSZ .in                  8.50:  Bit Size 
 BTPL.psig              585.00:  Bit Press Loss 
 CABU.                     Yes:  Customer Abuse 
 TCS .hr                122.75:  Time Ciculation Ended 
 CV  .mps                 2.67:  Crit Velocity 
 CVMX.mps                 3.56:  Max Crit Veloc 
 DD1 .          Rashad Habibov:  Direct Drillr 1 
 DD2 .         Rasim Ibrahimov:  Direct Drillr 2 
 DDSV.               Geo-Pilot:  DD Service 
 DEFF.%                  98.00:  % Det Eff 
 DLRX.°/30m               0.75:  Dogleg Rot Max 
 DLSO.°/30m               1.25:  Dogleg Oriented 
 DLSX.°/30m               2.06:  Dogleg Str Max 
 DRET.      07.45.00 17-May-20:  Drill End Time 
 DRST.      22.50.00 15-May-20:  Drill Start Tim 
 DTIM.hr                 20.75:  Time Drilling 
 EDEP.m                5124.01:  End Depth 
 ENG1.           Eldar Hajiyev:  Engineer 1 
 ENG2.        Marcelo Sandoval:  Engineer 2 
 ENG3.        Davud huseynzada:  Engineer 3 
 ENG4.          Ruslan Safarov:  Engineer 4 
 ETIM.      04.33.00 23-May-20:  End Time 
 FLOI.gpm               450.00:  Flow In 
 FLON.gpm               400.00:  Flow In Min 
 FLOS.cptm                0.00:  Fluid Loss 
 FLOX.gpm               500.00:  Flow In Max 
 FTRO.       Formation Presure:  FTWD Run Obj 
 HFLO.                      No:  High Flow 
 HPRE.                     Yes:  High Pressure 
 HTEM.                      No:  High Temp 
 HYDO.m                   1.80:  Hydro Offset 
 IFIN.deg                75.06:  Inc, Final 
 IMAX.deg                75.38:  Inc Max 
 IMIN.deg                74.69:  Inc Min 
 IMND.m                5027.38:  Inc Min Depth 
 IMXD.m                4771.61:  Inc Max Depth 
 JARR.                      No:  Jarring 
 LETM.      07.45.00 17-May-20:  Log End Time 
 LOST.hr                     0:  Lost Rig Time 
 LSTM.      22.50.00 15-May-20:  Log Start Time 
 MDCL.ppm             42000.00:  Mud Chlorides 
 MDES.     Inversion Oil/Synthetic:  Mud Desc 
 DFD .sg                  1.34:  Mud Density 
 MDMN.sg                  1.34:  Dens Mud Min 
 MDMX.sg                  1.34:  Dens Mud Max 
 MOIL.                       0:  Run Mud Oil % 
 MOWR.                   67:33:  Run Mud OWR 
 MSND.                       0:  Run Mud Sand % 
 MSOL.                     1.8:  Run Mud Solids% 
 DFV .spqt               76.00:  Mud Viscosity 
 MWOD.in                  6.75:  MWD Tool OD 
 MWSI.                      No:  Serv Intrp, MWD 
 OTIM.hr                228.19:  Time Operating 
 PCON.           Look Like New:  Pad Condition 
 PMAX.psia             6164.70:  Press Op, Max 
 PV  .cP                 28.00:  Mud PV 
 RUN .                     900:  Run Number 
 ROPA.m/hr               19.00:  ROP Avg 
 ROPN.m/hr               11.00:  ROP Min 
 ROPX.m/hr               36.00:  ROP Max 
 RPMA.rpm               120.00:  RPM Surface Avg 
 RPMN.rpm               120.00:  RPM Surface Min 
 RPMX.rpm               120.00:  RPM Surface Max 
 RRUN.                    L604:  Rig Run Number 
 RTIM.hr                  7.00:  Time Reaming 
 SAZI.deg               109.27:  Azm, Start 
 SDEP.m                4761.01:  Start Depth 
 SIDD.                      No:  Serv Intrp, DD 
 SINC.deg                75.38:  Inc, Start 
 SPPA.psig             3574.00:  SPP Avg 
 SPPN.psig             3475.00:  SPP Min 
 SPPX.psig             3791.00:  SPP Max 
 STIM.      07.08.48 13-May-20:  Start Time 
 SVCS.                 DD, MWD:  Services 
 SVER.                    9.20:  Sperry Version 
 TDAT.m                 363.00:  Tot Depth Attmp 
 TDDF.                      No:  Trip for DD 
 TDLG.m                 363.00:  Tot Depth Loggd 
 TFF .                      No:  Trip for Fail 
 TQAA.f-kp               20.00:  Torque Abs Avg 
 TQAN.f-kp               18.00:  Torque Abs Min 
 TQAX.f-kp               22.00:  Torque Abs Max 
 TRRT.°/30m              -0.35:  Turn Rotating 
 MRT .                    HCIM:  Maximum Recorded Temperature 
 TTMX.degC               92.16:  Max Tool Temp 
 VS01.                90586518:  Virtual Str1 SN 
 VS02.        AZ90560654Z1W1C6:  Virtual Str2 SN 
 VS03.           AZ90610398F11:  Virtual Str3 SN 
 VS04.                90514975:  Virtual Str4 SN 
 VS05.                90514972:  Virtual Str5 SN 
 VS06.     AZ90603282F11V7D1A6:  Virtual Str6 SN 
 WBMN.klb                 7.00:  WOB Min 
 WOBA.klb                12.00:  WOB Avg 
 WOBX.klb                14.00:  WOB Max 
 YP  .lhf2               32.00:  Yield Point 
~Curve Information Block
#MNEM.UNIT                 API CODE     Curve Description
#---------               -----------    ---------------------------
 TIME.HHMMSS            00 000 000 000:  GT Time & Date
 GTDEPTH.m              00 000 000 000:  GT Depth
 GTPQH.psia             00 000 000 000:  GT HR Quartz Pressure
 GTTQ.degC              00 000 000 000:  GT Quartz Temperature
 GTTN.NONE              00 000 000 000:  GT Test Number
 GTET.sec               00 000 000 000:  GT Elapsed Test Time
 GTTVD.m                00 000 000 000:  GT True Vertical Depth
#Other Information
#
#WARRANTY: Halliburton will use its best efforts to furnish customers with 
#accurate information and interpretations that are part of, and incident to, the services 
#provided.  However, Halliburton cannot and does not warrant the accuracy 
#or correctness of such information and interpretations.  Under no circumstances should any 
#such information or interpretation be relied upon as the sole basis for any drilling, 
#completion, production, or financial decision or any procedure involving any risk to the 
#safety of any drilling venture, drilling rig or its crew or any other third party.  The 
#Customer has full responsibility for all drilling, completion and production operation.  
#Halliburton makes no representations or warranties, either expressed or 
#implied, including, but not limited to, the implied warranties of merchantability or fitness 
#for a particular purpose, with respect to the services rendered.  In no event will 
#Halliburton be liable for failure to obtain any particular results or for 
#any damages, including, but not limited to, indirect, special or consequential damages, 
#resulting from the use of any information or interpretation provided by Halliburton.
#
~A           TIME           GTDEPTH  GTPQH  GTTQ  GTTN  GTET   GTTVD  
# ...
   19:39:24.599.17-May-2020 4994.01 2917.50 69.83 4.00 137.99 2591.05
   19:39:24.799.17-May-2020 4994.01 2917.50 69.82 4.00 138.19 2591.05
   19:39:24.999.17-May-2020 4994.01 2917.53 69.82 4.00 138.39 2591.05
   19:39:25.199.17-May-2020 4994.01 2917.52 69.82 4.00 138.59 2591.05
   19:39:25.399.17-May-2020 4994.01 2917.52 69.82 4.00 138.79 2591.05
   19:39:25.599.17-May-2020 4994.01 2917.53 69.82 4.00 138.99 2591.05
   19:39:25.799.17-May-2020 4994.01 2917.53 69.82 4.00 139.19 2591.05
   19:39:25.999.17-May-2020 4994.01 2917.60 69.82 4.00 139.39 2591.05
   19:39:26.199.17-May-2020 4994.01 2917.52 69.82 4.00 139.59 2591.05
   19:39:26.399.17-May-2020 4994.01 2917.49 69.82 4.00 139.79 2591.05
   19:39:26.599.17-May-2020 4994.01 2917.57 69.82 4.00 139.99 2591.05
   19:39:26.799.17-May-2020 4994.01 2917.57 69.82 4.00 140.19 2591.05
   19:39:26.999.17-May-2020 4994.01 2917.53 69.82 4.00 140.39 2591.05
   19:39:27.199.17-May-2020 4994.01 2917.52 69.82 4.00 140.59 2591.05
   19:39:27.399.17-May-2020 4994.01 2917.49 69.82 4.00 140.79 2591.05
   19:39:27.599.17-May-2020 4994.01 2917.61 69.82 4.00 140.99 2591.05
   19:39:27.799.17-May-2020 4994.01 2917.61 69.82 4.00 141.19 2591.05
   19:39:27.999.17-May-2020 4994.01 2917.50 69.82 4.00 141.39 2591.05
   19:39:28.199.17-May-2020 4994.01 2917.52 69.82 4.00 141.59 2591.05
   19:39:28.399.17-May-2020 4994.01 2917.52 69.82 4.00 141.79 2591.05
   19:39:28.599.17-May-2020 4994.01 2917.58 69.82 4.00 141.99 2591.05
   19:39:28.799.17-May-2020 4994.01 2917.58 69.82 4.00 142.19 2591.05
   19:39:28.999.17-May-2020 4994.01 2917.50 69.82 4.00 142.39 2591.05
   19:39:29.199.17-May-2020 4994.01 2917.52 69.82 4.00 142.59 2591.05
   19:39:29.399.17-May-2020 4994.01 2917.51 69.82 4.00 142.79 2591.05
   19:39:29.599.17-May-2020 4994.01 2917.51 69.82 4.00 142.99 2591.05
   19:39:29.799.17-May-2020 4994.01 2917.51 69.82 4.00 143.19 2591.05
   19:39:29.999.17-May-2020 4994.01 2917.53 69.82 4.00 143.39 2591.05
   19:39:30.199.17-May-2020 4994.01 2917.52 69.82 4.00 143.59 2591.05
   19:39:30.399.17-May-2020 4994.01 2917.60 69.82 4.00 143.79 2591.05
   19:39:30.599.17-May-2020 4994.01 2917.47 69.82 4.00 143.99 2591.05
   19:39:30.799.17-May-2020 4994.01 2917.52 69.82 4.00 144.19 2591.05
   19:39:30.999.17-May-2020 4994.01 2917.53 69.82 4.00 144.39 2591.05
   19:39:31.199.17-May-2020 4994.01 2917.48 69.82 4.00 144.59 2591.05
   19:39:31.399.17-May-2020 4994.01 2917.52 69.82 4.00 144.79 2591.05
   19:39:31.599.17-May-2020 4994.01 2917.52 69.82 4.00 144.99 2591.05
   19:39:31.799.17-May-2020 4994.01 2917.52 69.82 4.00 145.19 2591.05
   19:39:31.999.17-May-2020 4994.01 2917.51 69.82 4.00 145.39 2591.05
   19:39:32.199.17-May-2020 4994.01 2917.52 69.82 4.00 145.59 2591.05
   19:39:32.398.17-May-2020 4994.01 2917.53 69.82 4.00 145.79 2591.05
   19:39:32.598.17-May-2020 4994.01 2917.54 69.82 4.00 145.99 2591.05
   19:39:32.798.17-May-2020 4994.01 2917.54 69.82 4.00 146.19 2591.05
   19:39:32.998.17-May-2020 4994.01 2917.47 69.82 4.00 146.39 2591.05
   19:39:33.198.17-May-2020 4994.01 2917.59 69.82 4.00 146.59 2591.05
   19:39:33.398.17-May-2020 4994.01 2917.47 69.82 4.00 146.79 2591.05
   19:39:33.598.17-May-2020 4994.01 2917.53 69.82 4.00 146.99 2591.05
   19:39:33.798.17-May-2020 4994.01 2917.53 69.82 4.00 147.19 2591.05
   19:39:33.998.17-May-2020 4994.01 2917.48 69.82 4.00 147.39 2591.05
   19:39:34.198.17-May-2020 4994.01 2917.61 69.82 4.00 147.59 2591.05
   19:39:34.398.17-May-2020 4994.01 2917.47 69.82 4.00 147.79 2591.05
   19:39:34.598.17-May-2020 4994.01 2917.48 69.82 4.00 147.99 2591.05
   19:39:34.798.17-May-2020 4994.01 2917.48 69.82 4.00 148.19 2591.05
   19:39:34.998.17-May-2020 4994.01 2917.53 69.82 4.00 148.39 2591.05
   19:39:35.198.17-May-2020 4994.01 2917.57 69.82 4.00 148.59 2591.05
   19:39:35.398.17-May-2020 4994.01 2917.48 69.82 4.00 148.79 2591.05
   19:39:35.598.17-May-2020 4994.01 2917.48 69.82 4.00 148.99 2591.05
   19:39:35.798.17-May-2020 4994.01 2917.48 69.82 4.00 149.19 2591.05
   19:39:35.998.17-May-2020 4994.01 2917.51 69.82 4.00 149.39 2591.05
   19:39:36.198.17-May-2020 4994.01 2917.50 69.82 4.00 149.59 2591.05
   19:39:36.398.17-May-2020 4994.01 2917.51 69.81 4.00 149.79 2591.05
   19:39:36.598.17-May-2020 4994.01 2917.51 69.81 4.00 149.99 2591.05
   19:39:36.798.17-May-2020 4994.01 2917.51 69.81 4.00 150.19 2591.05
   19:39:36.998.17-May-2020 4994.01 2917.61 69.81 4.00 150.39 2591.05
   19:39:37.198.17-May-2020 4994.01 2917.42 69.81 4.00 150.59 2591.05
   19:39:37.398.17-May-2020 4994.01 2917.52 69.81 4.00 150.79 2591.05
   19:39:37.598.17-May-2020 4994.01 2917.52 69.81 4.00 150.99 2591.05
   19:39:37.798.17-May-2020 4994.01 2917.52 69.81 4.00 151.19 2591.05
   19:39:37.998.17-May-2020 4994.01 2917.51 69.81 4.00 151.39 2591.05
   19:39:38.198.17-May-2020 4994.01 2917.49 69.81 4.00 151.59 2591.05
   19:39:38.398.17-May-2020 4994.01 2917.50 69.81 4.00 151.79 2591.05
   19:39:38.598.17-May-2020 4994.01 2917.50 69.81 4.00 151.99 2591.05
   19:39:38.798.17-May-2020 4994.01 2917.50 69.81 4.00 152.19 2591.05
   19:39:38.998.17-May-2020 4994.01 2917.49 69.81 4.00 152.39 2591.05
   19:39:39.198.17-May-2020 4994.01 2917.52 69.81 4.00 152.59 2591.05
   19:39:39.398.17-May-2020 4994.01 2917.57 69.81 4.00 152.79 2591.05
   19:39:39.598.17-May-2020 4994.01 2917.47 69.81 4.00 152.99 2591.05
   19:39:39.798.17-May-2020 4994.01 2917.47 69.81 4.00 153.19 2591.05
   19:39:39.998.17-May-2020 4994.01 2917.42 69.81 4.00 153.39 2591.05
   19:39:40.198.17-May-2020 4994.01 2915.72 69.81 4.00 153.59 2591.05
   19:39:40.398.17-May-2020 4994.01 2909.48 69.81 4.00 153.79 2591.05
   19:39:40.598.17-May-2020 4994.01 2909.00 69.81 4.00 153.99 2591.05
   19:39:40.798.17-May-2020 4994.01 2909.00 69.81 4.00 154.19 2591.05
   19:39:40.998.17-May-2020 4994.01 2909.41 69.81 4.00 154.39 2591.05
   19:39:41.198.17-May-2020 4994.01 2909.40 69.81 4.00 154.59 2591.05
   19:39:41.398.17-May-2020 4994.01 2909.68 69.81 4.00 154.79 2591.05
   19:39:41.598.17-May-2020 4994.01 2910.12 69.81 4.00 154.99 2591.05
   19:39:41.798.17-May-2020 4994.01 2910.12 69.81 4.00 155.19 2591.05
   19:39:41.998.17-May-2020 4994.01 2910.09 69.81 4.00 155.39 2591.05
   19:39:42.198.17-May-2020 4994.01 2909.88 69.81 4.00 155.59 2591.05
   19:39:42.398.17-May-2020 4994.01 2909.94 69.81 4.00 155.79 2591.05
   19:39:42.598.17-May-2020 4994.01 2909.88 69.81 4.00 155.99 2591.05
   19:39:42.798.17-May-2020 4994.01 2909.88 69.81 4.00 156.19 2591.05
   19:39:42.998.17-May-2020 4994.01 2909.82 69.81 4.00 156.39 2591.05
   19:39:43.198.17-May-2020 4994.01 2909.80 69.81 4.00 156.59 2591.05
   19:39:43.398.17-May-2020 4994.01 2910.10 69.81 4.00 156.79 2591.05
   19:39:43.598.17-May-2020 4994.01 2910.18 69.81 4.00 156.99 2591.05
   19:39:43.798.17-May-2020 4994.01 2910.18 69.81 4.00 157.19 2591.05
   19:39:43.998.17-May-2020 4994.01 2910.03 69.81 4.00 157.39 2591.05
   19:39:44.198.17-May-2020 4994.01 2910.02 69.81 4.00 157.59 2591.05
   19:39:44.398.17-May-2020 4994.01 2909.99 69.81 4.00 157.79 2591.05
   19:39:44.598.17-May-2020 4994.01 2910.08 69.81 4.00 157.99 2591.05
   19:39:44.798.17-May-2020 4994.01 2910.08 69.81 4.00 158.19 2591.05
   19:39:44.998.17-May-2020 4994.01 2909.96 69.81 4.00 158.39 2591.05
   19:39:45.198.17-May-2020 4994.01 2909.98 69.81 4.00 158.59 2591.05
   19:39:45.397.17-May-2020 4994.01 2909.92 69.81 4.00 158.79 2591.05
   19:39:45.597.17-May-2020 4994.01 2910.12 69.81 4.00 158.99 2591.05
   19:39:45.797.17-May-2020 4994.01 2910.12 69.81 4.00 159.19 2591.05
   19:39:45.997.17-May-2020 4994.01 2910.14 69.81 4.00 159.39 2591.05
   19:39:46.197.17-May-2020 4994.01 2910.12 69.81 4.00 159.59 2591.05
   19:39:46.397.17-May-2020 4994.01 2910.12 69.81 4.00 159.79 2591.05
   19:39:46.597.17-May-2020 4994.01 2909.98 69.81 4.00 159.99 2591.05
   19:39:46.797.17-May-2020 4994.01 2909.98 69.81 4.00 160.19 2591.05
   19:39:46.997.17-May-2020 4994.01 2910.07 69.81 4.00 160.39 2591.05
   19:39:47.197.17-May-2020 4994.01 2910.07 69.81 4.00 160.59 2591.05
   19:39:47.397.17-May-2020 4994.01 2909.95 69.81 4.00 160.79 2591.05
