~Version Information
 VERS.                  2.0:   CWLS log ASCII Standard -VERSION 2.0
 WRAP.                   NO:   One line per depth step
~Well Information Block
#MNEM.UNIT     VALUE/NAME     DESCRIPTION
#---------     -----------    ---------------------------
 STRT.S             22:05:00 17-May-20: START TIME 22:05:00 17-May-20
 STOP.S             22:12:03 17-May-20: STOP TIME  22:12:03 17-May-20
 STEP.S                   0.00: STEP TIME
 NULL.                 -999.25: NULL VALUE
 UNIT.                     N/A:  LOGGING EQUIPMENT ID
 DCON.         Sperry Drilling:  DIRECTNL CONTR
 DOE .                     N/A:  DOE NUMBER
 JOBN.        AZ-XX-0906252240:  JOB TICKET NUMB
 MWDS.                     N/A:  MWD SHOP
 PROV.                    Baku:  PROVINCE
 STAT.                    Baku:  STATE NAME
 REGN.                   EESSA:  REGION
 BASE.              Azerbaijan:  LOGGING EQUIPMENT BASE LOCATION
 UWI .                     N/A:  UNIQUE WELL IDENTIFIER
 API .                     N/A:  API NUMBER
 MDS .        Operator Entered:  MAG DATA SOURCE
 WTYP.                Deviated:  WELL TYPE
 COMP.     BP Exploration (Caspian Sea) Ltd.:  COMPANY
 SRVC.          Turan Drilling:  CONTRACTOR
 WELL.           J23 (Slot 07):  WELL NAME
 CTRY.              Azerbaijan:  COUNTRY NAME
 FLD .                     ACG:  FIELD NAME
 PDAT.          Mean Sea Level:  PERMANENT DATUM
 RIG .             West Chirag:  RIG NAME
 SON .        AZ-XX-0906252240:  JOB NUMBER
 FTOP.          Formation Tops:  FORM TOPS DESC
 ILTD.               Lithology:  INTERP LTH DESC
 SVYD.                  Survey:  SURVEY DESC
 DMOD.             Drill Model:  DRILL MOD DESC
 HPTY.       Minimum Curvature:  HOLE POS TYPE
 NREF.                    Grid:  NORTH REFERENCE
 SPUD.               27-Aug-20:  SPUD DATE
 DATE.      00.00.00 19-May-20:  END TIME
 STIM.      03.00.00 25-Mar-20:  START TIME
 DMF .             Drill Floor:  DRILL MEAS FROM
 DFST.                        :  DIST FSL TEXT
 DFWT.                        :  DIST FWL TEXT
 CNTY.                        :  COUNTY
 LOC .                        :  LOCATION
 LMF .             Drill Floor:  LOG MEASURED FROM
 VSNS.m                   9.43:  VERT SEC N/S
 VSEW.m                  -8.91:  VERT SEC E/W
 AGAP.m                  43.00:  AIR GAP
 DEP .m                 354.17:  DEPTH
 APD .m                  43.00:  DEPTH ABOVE PD
 WDMS.m                 169.80:  WD ELEV
 EGL .m                   0.00:  GROUND ELEVATION
 EPD .m                   0.00:  ELEVATION
 AZTC.deg                 6.31:  AZM TOTAL CORR
 GRDC.deg                 0.14:  GRID CORRECTION
 MDEC.deg                 6.45:  MAGNETIC DECL
 MDIP.deg                59.56:  MAGNETIC DIP
 MFLD.nT              50295.00:  MAGNETIC FIELD
 GVFD.g                   1.00:  GRAVITY FIELD
 VSDR.deg               179.88:  VERT SEC DIRECT
 TDD .m                5150.01:  TOTAL DEPTH (DRILLER)
 SDEP.m                 864.00:  START DEPTH
 DFSL.m                   0.00:  DISTANCE FSL
 DFWL.m                   0.00:  DISTANCE FWL
 UTMY.m             4443793.85:  UTM Y
 UTMX.m              519005.06:  UTM X
 WHEW.m                  -8.91:  WELL HEAD E/W
 WHNS.m                   9.43:  WELL HEAD N/S
 LONG.deg                51.22:  LONGITUDE
 LATI.deg                40.13:  LATITUDE
 TVDS.m                  43.00:  TVDSS CORRECTN
 EKB .m                   0.00:  KB ELEVATION
 EDF .m                  43.00:  DF ELEVATION
 TDL .m                 363.00:  TOTAL DEPTH (LOGGER)
 MAGU.                 1850802:  MAGUTM CHECKSUM
 VSC .                       0:  VS TO CLOSURE
~Parameter Information Block
#MNEM.UNIT       Value        Description
#---------     -----------    ---------------------------
 AV  .mps                 2.30:  Ann Velocity 
 AVMX.mps                 4.40:  Max Ann Veloc 
 AZIF.deg               110.24:  Azm, Final 
 BHAT.        Rotary Steerable:  BHA Type 
 BREV.rev               331.00:  Rev Bit Total 
 BROT.°/30m               0.00:  Build Rotating 
 BS  .in                  8.50:  Bit Size 
 BSZ .in                  8.50:  Bit Size 
 BTPL.psig              585.00:  Bit Press Loss 
 CABU.                     Yes:  Customer Abuse 
 COMM.                     íe:  Run Comments 1 
 TCS .hr                122.75:  Time Ciculation Ended 
 CV  .mps                 2.67:  Crit Velocity 
 CVMX.mps                 3.56:  Max Crit Veloc 
 DD1 .          Rashad Habibov:  Direct Drillr 1 
 DD2 .         Rasim Ibrahimov:  Direct Drillr 2 
 DDSV.               Geo-Pilot:  DD Service 
 DEFF.%                  98.00:  % Det Eff 
 DLRX.°/30m               0.75:  Dogleg Rot Max 
 DLSO.°/30m               1.25:  Dogleg Oriented 
 DLSX.°/30m               2.06:  Dogleg Str Max 
 DRET.      07.45.00 17-May-20:  Drill End Time 
 DRST.      22.50.00 15-May-20:  Drill Start Tim 
 DTIM.hr                 20.75:  Time Drilling 
 EDEP.m                5124.01:  End Depth 
 ENG1.           Eldar Hajiyev:  Engineer 1 
 ENG2.        Marcelo Sandoval:  Engineer 2 
 ENG3.        Davud huseynzada:  Engineer 3 
 ENG4.          Ruslan Safarov:  Engineer 4 
 ETIM.      04.33.00 23-May-20:  End Time 
 FLOI.gpm               450.00:  Flow In 
 FLON.gpm               400.00:  Flow In Min 
 FLOS.cptm                0.00:  Fluid Loss 
 FLOX.gpm               500.00:  Flow In Max 
 FTRO.       Formation Presure:  FTWD Run Obj 
 HFLO.                      No:  High Flow 
 HPRE.                     Yes:  High Pressure 
 HTEM.                      No:  High Temp 
 HYDO.m                   1.80:  Hydro Offset 
 IFIN.deg                75.06:  Inc, Final 
 IMAX.deg                75.38:  Inc Max 
 IMIN.deg                74.69:  Inc Min 
 IMND.m                5027.38:  Inc Min Depth 
 IMXD.m                4771.61:  Inc Max Depth 
 JARR.                      No:  Jarring 
 LETM.      07.45.00 17-May-20:  Log End Time 
 LOST.hr                     0:  Lost Rig Time 
 LSTM.      22.50.00 15-May-20:  Log Start Time 
 MDCL.ppm             42000.00:  Mud Chlorides 
 MDES.     Inversion Oil/Synthetic:  Mud Desc 
 DFD .sg                  1.34:  Mud Density 
 MDMN.sg                  1.34:  Dens Mud Min 
 MDMX.sg                  1.34:  Dens Mud Max 
 MOIL.                       0:  Run Mud Oil % 
 MOWR.                   67:33:  Run Mud OWR 
 MSND.                       0:  Run Mud Sand % 
 MSOL.                     1.8:  Run Mud Solids% 
 DFV .spqt               76.00:  Mud Viscosity 
 MWOD.in                  6.75:  MWD Tool OD 
 MWSI.                      No:  Serv Intrp, MWD 
 OTIM.hr                228.19:  Time Operating 
 PCON.           Look Like New:  Pad Condition 
 PMAX.psia             6164.70:  Press Op, Max 
 PV  .cP                 28.00:  Mud PV 
 RUN .                     900:  Run Number 
 ROPA.m/hr               19.00:  ROP Avg 
 ROPN.m/hr               11.00:  ROP Min 
 ROPX.m/hr               36.00:  ROP Max 
 RPMA.rpm               120.00:  RPM Surface Avg 
 RPMN.rpm               120.00:  RPM Surface Min 
 RPMX.rpm               120.00:  RPM Surface Max 
 RRUN.                    L604:  Rig Run Number 
 RTIM.hr                  7.00:  Time Reaming 
 SAZI.deg               109.27:  Azm, Start 
 SDEP.m                4761.01:  Start Depth 
 SIDD.                      No:  Serv Intrp, DD 
 SINC.deg                75.38:  Inc, Start 
 SPPA.psig             3574.00:  SPP Avg 
 SPPN.psig             3475.00:  SPP Min 
 SPPX.psig             3791.00:  SPP Max 
 STIM.      07.08.48 13-May-20:  Start Time 
 SVCS.                 DD, MWD:  Services 
 SVER.                    9.20:  Sperry Version 
 TDAT.m                 363.00:  Tot Depth Attmp 
 TDDF.                      No:  Trip for DD 
 TDLG.m                 363.00:  Tot Depth Loggd 
 TFF .                      No:  Trip for Fail 
 TQAA.f-kp               20.00:  Torque Abs Avg 
 TQAN.f-kp               18.00:  Torque Abs Min 
 TQAX.f-kp               22.00:  Torque Abs Max 
 TRRT.°/30m              -0.35:  Turn Rotating 
 MRT .                    HCIM:  Maximum Recorded Temperature 
 TTMX.degC               92.16:  Max Tool Temp 
 VS01.                90586518:  Virtual Str1 SN 
 VS02.        AZ90560654Z1W1C6:  Virtual Str2 SN 
 VS03.           AZ90610398F11:  Virtual Str3 SN 
 VS04.                90514975:  Virtual Str4 SN 
 VS05.                90514972:  Virtual Str5 SN 
 VS06.     AZ90603282F11V7D1A6:  Virtual Str6 SN 
 WBMN.klb                 7.00:  WOB Min 
 WOBA.klb                12.00:  WOB Avg 
 WOBX.klb                14.00:  WOB Max 
 YP  .lhf2               32.00:  Yield Point 
~Curve Information Block
#MNEM.UNIT                 API CODE     Curve Description
#---------               -----------    ---------------------------
 TIME.HHMMSS            00 000 000 000:  GT Time & Date
 GTDEPTH.m              00 000 000 000:  GT Depth
 GTPQH.psia             00 000 000 000:  GT HR Quartz Pressure
 GTTQ.degC              00 000 000 000:  GT Quartz Temperature
 GTTN.NONE              00 000 000 000:  GT Test Number
 GTET.sec               00 000 000 000:  GT Elapsed Test Time
 GTTVD.m                00 000 000 000:  GT True Vertical Depth
#Other Information
#
#WARRANTY: Halliburton will use its best efforts to furnish customers with 
#accurate information and interpretations that are part of, and incident to, the services 
#provided.  However, Halliburton cannot and does not warrant the accuracy 
#or correctness of such information and interpretations.  Under no circumstances should any 
#such information or interpretation be relied upon as the sole basis for any drilling, 
#completion, production, or financial decision or any procedure involving any risk to the 
#safety of any drilling venture, drilling rig or its crew or any other third party.  The 
#Customer has full responsibility for all drilling, completion and production operation.  
#Halliburton makes no representations or warranties, either expressed or 
#implied, including, but not limited to, the implied warranties of merchantability or fitness 
#for a particular purpose, with respect to the services rendered.  In no event will 
#Halliburton be liable for failure to obtain any particular results or for 
#any damages, including, but not limited to, indirect, special or consequential damages, 
#resulting from the use of any information or interpretation provided by Halliburton.
#
~A           TIME           GTDEPTH  GTPQH  GTTQ  GTTN  GTET   GTTVD  
# ...
   22:07:19.045.17-May-2020 4937.01 2932.15 67.67 7.00 138.25 2576.47
   22:07:19.245.17-May-2020 4937.01 2932.22 67.67 7.00 138.45 2576.47
   22:07:19.445.17-May-2020 4937.01 2932.10 67.67 7.00 138.65 2576.47
   22:07:19.646.17-May-2020 4937.01 2932.16 67.67 7.00 138.85 2576.47
   22:07:19.846.17-May-2020 4937.01 2932.13 67.67 7.00 139.06 2576.47
   22:07:20.047.17-May-2020 4937.01 2932.14 67.67 7.00 139.26 2576.47
   22:07:20.247.17-May-2020 4937.01 2932.14 67.67 7.00 139.46 2576.47
   22:07:20.447.17-May-2020 4937.01 2932.17 67.67 7.00 139.66 2576.47
   22:07:20.648.17-May-2020 4937.01 2932.14 67.67 7.00 139.86 2576.47
   22:07:20.848.17-May-2020 4937.01 2932.15 67.67 7.00 140.06 2576.47
   22:07:21.048.17-May-2020 4937.01 2932.13 67.67 7.00 140.26 2576.47
   22:07:21.249.17-May-2020 4937.01 2932.13 67.67 7.00 140.46 2576.47
   22:07:21.449.17-May-2020 4937.01 2932.14 67.67 7.00 140.66 2576.47
   22:07:21.649.17-May-2020 4937.01 2932.15 67.67 7.00 140.86 2576.47
   22:07:21.850.17-May-2020 4937.01 2932.16 67.67 7.00 141.06 2576.47
   22:07:22.050.17-May-2020 4937.01 2932.16 67.67 7.00 141.26 2576.47
   22:07:22.251.17-May-2020 4937.01 2932.16 67.67 7.00 141.46 2576.47
   22:07:22.451.17-May-2020 4937.01 2932.25 67.67 7.00 141.66 2576.47
   22:07:22.651.17-May-2020 4937.01 2932.07 67.67 7.00 141.86 2576.47
   22:07:22.852.17-May-2020 4937.01 2932.20 67.67 7.00 142.06 2576.47
   22:07:23.052.17-May-2020 4937.01 2932.10 67.67 7.00 142.26 2576.47
   22:07:23.252.17-May-2020 4937.01 2932.10 67.67 7.00 142.46 2576.47
   22:07:23.453.17-May-2020 4937.01 2932.14 67.67 7.00 142.66 2576.47
   22:07:23.653.17-May-2020 4937.01 2932.15 67.67 7.00 142.86 2576.47
   22:07:23.854.17-May-2020 4937.01 2932.16 67.67 7.00 143.06 2576.47
   22:07:24.054.17-May-2020 4937.01 2932.17 67.67 7.00 143.26 2576.47
   22:07:24.254.17-May-2020 4937.01 2932.17 67.67 7.00 143.46 2576.47
   22:07:24.455.17-May-2020 4937.01 2932.20 67.67 7.00 143.66 2576.47
   22:07:24.655.17-May-2020 4937.01 2932.17 67.67 7.00 143.86 2576.47
   22:07:24.855.17-May-2020 4937.01 2932.14 67.67 7.00 144.06 2576.47
   22:07:25.056.17-May-2020 4937.01 2932.17 67.67 7.00 144.26 2576.47
   22:07:25.256.17-May-2020 4937.01 2932.17 67.67 7.00 144.46 2576.47
   22:07:25.456.17-May-2020 4937.01 2932.08 67.67 7.00 144.67 2576.47
   22:07:25.657.17-May-2020 4937.01 2932.22 67.67 7.00 144.87 2576.47
   22:07:25.857.17-May-2020 4937.01 2932.10 67.67 7.00 145.07 2576.47
   22:07:26.058.17-May-2020 4937.01 2932.16 67.67 7.00 145.27 2576.47
   22:07:26.258.17-May-2020 4937.01 2932.16 67.67 7.00 145.47 2576.47
   22:07:26.458.17-May-2020 4937.01 2932.06 67.67 7.00 145.67 2576.47
   22:07:26.659.17-May-2020 4937.01 2932.21 67.67 7.00 145.87 2576.47
   22:07:26.859.17-May-2020 4937.01 2932.10 67.67 7.00 146.07 2576.47
   22:07:27.059.17-May-2020 4937.01 2932.16 67.67 7.00 146.27 2576.47
   22:07:27.260.17-May-2020 4937.01 2932.26 67.67 7.00 146.47 2576.47
   22:07:27.460.17-May-2020 4937.01 2932.05 67.67 7.00 146.67 2576.47
   22:07:27.661.17-May-2020 4937.01 2932.18 67.67 7.00 146.87 2576.47
   22:07:27.861.17-May-2020 4937.01 2932.12 67.67 7.00 147.07 2576.47
   22:07:28.061.17-May-2020 4937.01 2932.14 67.67 7.00 147.27 2576.47
   22:07:28.262.17-May-2020 4937.01 2932.14 67.67 7.00 147.47 2576.47
   22:07:28.462.17-May-2020 4937.01 2932.14 67.67 7.00 147.67 2576.47
   22:07:28.662.17-May-2020 4937.01 2932.15 67.67 7.00 147.87 2576.47
   22:07:28.863.17-May-2020 4937.01 2932.16 67.67 7.00 148.07 2576.47
   22:07:29.063.17-May-2020 4937.01 2932.15 67.67 7.00 148.27 2576.47
   22:07:29.263.17-May-2020 4937.01 2932.15 67.67 7.00 148.47 2576.47
   22:07:29.464.17-May-2020 4937.01 2932.27 67.67 7.00 148.67 2576.47
   22:07:29.664.17-May-2020 4937.01 2932.05 67.67 7.00 148.87 2576.47
   22:07:29.865.17-May-2020 4937.01 2932.21 67.67 7.00 149.07 2576.47
   22:07:30.065.17-May-2020 4937.01 2932.10 67.67 7.00 149.27 2576.47
   22:07:30.265.17-May-2020 4937.01 2932.10 67.67 7.00 149.47 2576.47
   22:07:30.466.17-May-2020 4937.01 2932.13 67.67 7.00 149.67 2576.47
   22:07:30.666.17-May-2020 4937.01 2932.16 67.67 7.00 149.87 2576.47
   22:07:30.866.17-May-2020 4937.01 2932.15 67.67 7.00 150.08 2576.47
   22:07:31.067.17-May-2020 4937.01 2932.16 67.67 7.00 150.28 2576.47
   22:07:31.267.17-May-2020 4937.01 2932.16 67.67 7.00 150.48 2576.47
   22:07:31.467.17-May-2020 4937.01 2932.29 67.67 7.00 150.68 2576.47
   22:07:31.668.17-May-2020 4937.01 2932.05 67.67 7.00 150.88 2576.47
   22:07:31.868.17-May-2020 4937.01 2932.18 67.67 7.00 151.08 2576.47
   22:07:32.069.17-May-2020 4937.01 2932.14 67.67 7.00 151.28 2576.47
   22:07:32.269.17-May-2020 4937.01 2932.14 67.67 7.00 151.48 2576.47
   22:07:32.469.17-May-2020 4937.01 2921.84 67.67 7.00 151.68 2576.47
   22:07:32.670.17-May-2020 4937.01 2916.47 67.67 7.00 151.88 2576.47
   22:07:32.870.17-May-2020 4937.01 2916.16 67.67 7.00 152.08 2576.47
   22:07:33.070.17-May-2020 4937.01 2916.42 67.67 7.00 152.28 2576.47
   22:07:33.271.17-May-2020 4937.01 2916.42 67.67 7.00 152.48 2576.47
   22:07:33.471.17-May-2020 4937.01 2915.84 67.67 7.00 152.68 2576.47
   22:07:33.672.17-May-2020 4937.01 2916.49 67.67 7.00 152.88 2576.47
   22:07:33.872.17-May-2020 4937.01 2916.25 67.67 7.00 153.08 2576.47
   22:07:34.072.17-May-2020 4937.01 2916.19 67.67 7.00 153.28 2576.47
   22:07:34.273.17-May-2020 4937.01 2916.19 67.67 7.00 153.48 2576.47
   22:07:34.473.17-May-2020 4937.01 2916.18 67.67 7.00 153.68 2576.47
   22:07:34.673.17-May-2020 4937.01 2916.91 67.67 7.00 153.88 2576.47
   22:07:34.874.17-May-2020 4937.01 2916.35 67.67 7.00 154.08 2576.47
   22:07:35.074.17-May-2020 4937.01 2916.99 67.67 7.00 154.28 2576.47
   22:07:35.274.17-May-2020 4937.01 2916.98 67.67 7.00 154.48 2576.47
   22:07:35.475.17-May-2020 4937.01 2916.99 67.67 7.00 154.68 2576.47
   22:07:35.675.17-May-2020 4937.01 2917.01 67.67 7.00 154.88 2576.47
   22:07:35.876.17-May-2020 4937.01 2916.98 67.67 7.00 155.08 2576.47
   22:07:36.076.17-May-2020 4937.01 2916.98 67.67 7.00 155.28 2576.47
   22:07:36.276.17-May-2020 4937.01 2916.98 67.67 7.00 155.49 2576.47
   22:07:36.477.17-May-2020 4937.01 2916.99 67.67 7.00 155.69 2576.47
   22:07:36.677.17-May-2020 4937.01 2917.25 67.67 7.00 155.89 2576.47
   22:07:36.877.17-May-2020 4937.01 2917.46 67.67 7.00 156.09 2576.47
   22:07:37.078.17-May-2020 4937.01 2917.58 67.67 7.00 156.29 2576.47
   22:07:37.278.17-May-2020 4937.01 2917.58 67.67 7.00 156.49 2576.47
   22:07:37.479.17-May-2020 4937.01 2917.57 67.67 7.00 156.69 2576.47
   22:07:37.679.17-May-2020 4937.01 2917.87 67.67 7.00 156.89 2576.47
   22:07:37.879.17-May-2020 4937.01 2917.94 67.67 7.00 157.09 2576.47
   22:07:38.080.17-May-2020 4937.01 2917.68 67.67 7.00 157.29 2576.47
   22:07:38.280.17-May-2020 4937.01 2917.68 67.67 7.00 157.49 2576.47
   22:07:38.480.17-May-2020 4937.01 2917.74 67.67 7.00 157.69 2576.47
   22:07:38.681.17-May-2020 4937.01 2916.99 67.67 7.00 157.89 2576.47
   22:07:38.881.17-May-2020 4937.01 2917.76 67.67 7.00 158.09 2576.47
   22:07:39.081.17-May-2020 4937.01 2917.16 67.67 7.00 158.29 2576.47
   22:07:39.282.17-May-2020 4937.01 2917.32 67.67 7.00 158.49 2576.47
   22:07:39.482.17-May-2020 4937.01 2917.57 67.67 7.00 158.69 2576.47
   22:07:39.683.17-May-2020 4937.01 2917.46 67.67 7.00 158.89 2576.47
   22:07:39.883.17-May-2020 4937.01 2917.41 67.67 7.00 159.09 2576.47
   22:07:40.083.17-May-2020 4937.01 2917.46 67.67 7.00 159.29 2576.47
   22:07:40.284.17-May-2020 4937.01 2917.46 67.67 7.00 159.49 2576.47
   22:07:40.484.17-May-2020 4937.01 2917.56 67.67 7.00 159.69 2576.47
   22:07:40.684.17-May-2020 4937.01 2917.81 67.67 7.00 159.89 2576.47
   22:07:40.885.17-May-2020 4937.01 2917.41 67.67 7.00 160.09 2576.47
   22:07:41.085.17-May-2020 4937.01 2917.60 67.67 7.00 160.29 2576.47
   22:07:41.285.17-May-2020 4937.01 2917.60 67.67 7.00 160.49 2576.47
   22:07:41.486.17-May-2020 4937.01 2917.35 67.67 7.00 160.69 2576.47
   22:07:41.686.17-May-2020 4937.01 2917.83 67.67 7.00 160.90 2576.47
   22:07:41.887.17-May-2020 4937.01 2917.57 67.67 7.00 161.10 2576.47
