~Version Information
 VERS.                  2.0:   CWLS log ASCII Standard -VERSION 2.0
 WRAP.                   NO:   One line per depth step
~Well Information Block
#MNEM.UNIT     VALUE/NAME     DESCRIPTION
#---------     -----------    ---------------------------
 STRT.S             16:14:41 17-May-20: START TIME 16:14:41 17-May-20
 STOP.S             16:21:36 17-May-20: STOP TIME  16:21:36 17-May-20
 STEP.S                   0.00: STEP TIME
 NULL.                 -999.25: NULL VALUE
 UNIT.                     N/A:  LOGGING EQUIPMENT ID
 DCON.         Sperry Drilling:  DIRECTNL CONTR
 DOE .                     N/A:  DOE NUMBER
 JOBN.        AZ-XX-0906252240:  JOB TICKET NUMB
 MWDS.                     N/A:  MWD SHOP
 PROV.                    Baku:  PROVINCE
 STAT.                    Baku:  STATE NAME
 REGN.                   EESSA:  REGION
 BASE.              Azerbaijan:  LOGGING EQUIPMENT BASE LOCATION
 UWI .                     N/A:  UNIQUE WELL IDENTIFIER
 API .                     N/A:  API NUMBER
 MDS .        Operator Entered:  MAG DATA SOURCE
 WTYP.                Deviated:  WELL TYPE
 COMP.     BP Exploration (Caspian Sea) Ltd.:  COMPANY
 SRVC.          Turan Drilling:  CONTRACTOR
 WELL.           J23 (Slot 07):  WELL NAME
 CTRY.              Azerbaijan:  COUNTRY NAME
 FLD .                     ACG:  FIELD NAME
 PDAT.          Mean Sea Level:  PERMANENT DATUM
 RIG .             West Chirag:  RIG NAME
 SON .        AZ-XX-0906252240:  JOB NUMBER
 FTOP.          Formation Tops:  FORM TOPS DESC
 ILTD.               Lithology:  INTERP LTH DESC
 SVYD.                  Survey:  SURVEY DESC
 DMOD.             Drill Model:  DRILL MOD DESC
 HPTY.       Minimum Curvature:  HOLE POS TYPE
 NREF.                    Grid:  NORTH REFERENCE
 SPUD.               27-Aug-20:  SPUD DATE
 DATE.      00.00.00 19-May-20:  END TIME
 STIM.      03.00.00 25-Mar-20:  START TIME
 DMF .             Drill Floor:  DRILL MEAS FROM
 DFST.                        :  DIST FSL TEXT
 DFWT.                        :  DIST FWL TEXT
 CNTY.                        :  COUNTY
 LOC .                        :  LOCATION
 LMF .             Drill Floor:  LOG MEASURED FROM
 VSNS.m                   9.43:  VERT SEC N/S
 VSEW.m                  -8.91:  VERT SEC E/W
 AGAP.m                  43.00:  AIR GAP
 DEP .m                 354.17:  DEPTH
 APD .m                  43.00:  DEPTH ABOVE PD
 WDMS.m                 169.80:  WD ELEV
 EGL .m                   0.00:  GROUND ELEVATION
 EPD .m                   0.00:  ELEVATION
 AZTC.deg                 6.31:  AZM TOTAL CORR
 GRDC.deg                 0.14:  GRID CORRECTION
 MDEC.deg                 6.45:  MAGNETIC DECL
 MDIP.deg                59.56:  MAGNETIC DIP
 MFLD.nT              50295.00:  MAGNETIC FIELD
 GVFD.g                   1.00:  GRAVITY FIELD
 VSDR.deg               179.88:  VERT SEC DIRECT
 TDD .m                5150.01:  TOTAL DEPTH (DRILLER)
 SDEP.m                 864.00:  START DEPTH
 DFSL.m                   0.00:  DISTANCE FSL
 DFWL.m                   0.00:  DISTANCE FWL
 UTMY.m             4443793.85:  UTM Y
 UTMX.m              519005.06:  UTM X
 WHEW.m                  -8.91:  WELL HEAD E/W
 WHNS.m                   9.43:  WELL HEAD N/S
 LONG.deg                51.22:  LONGITUDE
 LATI.deg                40.13:  LATITUDE
 TVDS.m                  43.00:  TVDSS CORRECTN
 EKB .m                   0.00:  KB ELEVATION
 EDF .m                  43.00:  DF ELEVATION
 TDL .m                 363.00:  TOTAL DEPTH (LOGGER)
 MAGU.                 1850802:  MAGUTM CHECKSUM
 VSC .                       0:  VS TO CLOSURE
~Parameter Information Block
#MNEM.UNIT       Value        Description
#---------     -----------    ---------------------------
 AV  .mps                 2.30:  Ann Velocity 
 AVMX.mps                 4.40:  Max Ann Veloc 
 AZIF.deg               110.24:  Azm, Final 
 BHAT.        Rotary Steerable:  BHA Type 
 BREV.rev               331.00:  Rev Bit Total 
 BROT.°/30m               0.00:  Build Rotating 
 BS  .in                  8.50:  Bit Size 
 BSZ .in                  8.50:  Bit Size 
 BTPL.psig              585.00:  Bit Press Loss 
 CABU.                     Yes:  Customer Abuse 
 COMM.                     ¿m:  Run Comments 1 
 TCS .hr                122.75:  Time Ciculation Ended 
 CV  .mps                 2.67:  Crit Velocity 
 CVMX.mps                 3.56:  Max Crit Veloc 
 DD1 .          Rashad Habibov:  Direct Drillr 1 
 DD2 .         Rasim Ibrahimov:  Direct Drillr 2 
 DDSV.               Geo-Pilot:  DD Service 
 DEFF.%                  98.00:  % Det Eff 
 DLRX.°/30m               0.75:  Dogleg Rot Max 
 DLSO.°/30m               1.25:  Dogleg Oriented 
 DLSX.°/30m               2.06:  Dogleg Str Max 
 DRET.      07.45.00 17-May-20:  Drill End Time 
 DRST.      22.50.00 15-May-20:  Drill Start Tim 
 DTIM.hr                 20.75:  Time Drilling 
 EDEP.m                5124.01:  End Depth 
 ENG1.           Eldar Hajiyev:  Engineer 1 
 ENG2.        Marcelo Sandoval:  Engineer 2 
 ENG3.        Davud huseynzada:  Engineer 3 
 ENG4.          Ruslan Safarov:  Engineer 4 
 ETIM.      04.33.00 23-May-20:  End Time 
 FLOI.gpm               450.00:  Flow In 
 FLON.gpm               400.00:  Flow In Min 
 FLOS.cptm                0.00:  Fluid Loss 
 FLOX.gpm               500.00:  Flow In Max 
 FTRO.       Formation Presure:  FTWD Run Obj 
 HFLO.                      No:  High Flow 
 HPRE.                     Yes:  High Pressure 
 HTEM.                      No:  High Temp 
 HYDO.m                   1.80:  Hydro Offset 
 IFIN.deg                75.06:  Inc, Final 
 IMAX.deg                75.38:  Inc Max 
 IMIN.deg                74.69:  Inc Min 
 IMND.m                5027.38:  Inc Min Depth 
 IMXD.m                4771.61:  Inc Max Depth 
 JARR.                      No:  Jarring 
 LETM.      07.45.00 17-May-20:  Log End Time 
 LOST.hr                     0:  Lost Rig Time 
 LSTM.      22.50.00 15-May-20:  Log Start Time 
 MDCL.ppm             42000.00:  Mud Chlorides 
 MDES.     Inversion Oil/Synthetic:  Mud Desc 
 DFD .sg                  1.34:  Mud Density 
 MDMN.sg                  1.34:  Dens Mud Min 
 MDMX.sg                  1.34:  Dens Mud Max 
 MOIL.                       0:  Run Mud Oil % 
 MOWR.                   67:33:  Run Mud OWR 
 MSND.                       0:  Run Mud Sand % 
 MSOL.                     1.8:  Run Mud Solids% 
 DFV .spqt               76.00:  Mud Viscosity 
 MWOD.in                  6.75:  MWD Tool OD 
 MWSI.                      No:  Serv Intrp, MWD 
 OTIM.hr                228.19:  Time Operating 
 PCON.           Look Like New:  Pad Condition 
 PMAX.psia             6164.70:  Press Op, Max 
 PV  .cP                 28.00:  Mud PV 
 RUN .                     900:  Run Number 
 ROPA.m/hr               19.00:  ROP Avg 
 ROPN.m/hr               11.00:  ROP Min 
 ROPX.m/hr               36.00:  ROP Max 
 RPMA.rpm               120.00:  RPM Surface Avg 
 RPMN.rpm               120.00:  RPM Surface Min 
 RPMX.rpm               120.00:  RPM Surface Max 
 RRUN.                    L604:  Rig Run Number 
 RTIM.hr                  7.00:  Time Reaming 
 SAZI.deg               109.27:  Azm, Start 
 SDEP.m                4761.01:  Start Depth 
 SIDD.                      No:  Serv Intrp, DD 
 SINC.deg                75.38:  Inc, Start 
 SPPA.psig             3574.00:  SPP Avg 
 SPPN.psig             3475.00:  SPP Min 
 SPPX.psig             3791.00:  SPP Max 
 STIM.      07.08.48 13-May-20:  Start Time 
 SVCS.                 DD, MWD:  Services 
 SVER.                    9.20:  Sperry Version 
 TDAT.m                 363.00:  Tot Depth Attmp 
 TDDF.                      No:  Trip for DD 
 TDLG.m                 363.00:  Tot Depth Loggd 
 TFF .                      No:  Trip for Fail 
 TQAA.f-kp               20.00:  Torque Abs Avg 
 TQAN.f-kp               18.00:  Torque Abs Min 
 TQAX.f-kp               22.00:  Torque Abs Max 
 TRRT.°/30m              -0.35:  Turn Rotating 
 MRT .                    HCIM:  Maximum Recorded Temperature 
 TTMX.degC               92.16:  Max Tool Temp 
 VS01.                90586518:  Virtual Str1 SN 
 VS02.        AZ90560654Z1W1C6:  Virtual Str2 SN 
 VS03.           AZ90610398F11:  Virtual Str3 SN 
 VS04.                90514975:  Virtual Str4 SN 
 VS05.                90514972:  Virtual Str5 SN 
 VS06.     AZ90603282F11V7D1A6:  Virtual Str6 SN 
 WBMN.klb                 7.00:  WOB Min 
 WOBA.klb                12.00:  WOB Avg 
 WOBX.klb                14.00:  WOB Max 
 YP  .lhf2               32.00:  Yield Point 
~Curve Information Block
#MNEM.UNIT                 API CODE     Curve Description
#---------               -----------    ---------------------------
 TIME.HHMMSS            00 000 000 000:  GT Time & Date
 GTDEPTH.m              00 000 000 000:  GT Depth
 GTPQH.psia             00 000 000 000:  GT HR Quartz Pressure
 GTTQ.degC              00 000 000 000:  GT Quartz Temperature
 GTTN.NONE              00 000 000 000:  GT Test Number
 GTET.sec               00 000 000 000:  GT Elapsed Test Time
 GTTVD.m                00 000 000 000:  GT True Vertical Depth
#Other Information
#
#WARRANTY: Halliburton will use its best efforts to furnish customers with 
#accurate information and interpretations that are part of, and incident to, the services 
#provided.  However, Halliburton cannot and does not warrant the accuracy 
#or correctness of such information and interpretations.  Under no circumstances should any 
#such information or interpretation be relied upon as the sole basis for any drilling, 
#completion, production, or financial decision or any procedure involving any risk to the 
#safety of any drilling venture, drilling rig or its crew or any other third party.  The 
#Customer has full responsibility for all drilling, completion and production operation.  
#Halliburton makes no representations or warranties, either expressed or 
#implied, including, but not limited to, the implied warranties of merchantability or fitness 
#for a particular purpose, with respect to the services rendered.  In no event will 
#Halliburton be liable for failure to obtain any particular results or for 
#any damages, including, but not limited to, indirect, special or consequential damages, 
#resulting from the use of any information or interpretation provided by Halliburton.
#
~A           TIME           GTDEPTH  GTPQH  GTTQ  GTTN  GTET   GTTVD  
# ...
   16:17:22.000.17-May-2020 5073.51 2645.49 71.36 2.00 161.00 2611.87
   16:17:22.200.17-May-2020 5073.51 2645.49 71.36 2.00 161.20 2611.87
   16:17:22.400.17-May-2020 5073.51 2645.54 71.36 2.00 161.40 2611.87
   16:17:22.600.17-May-2020 5073.51 2645.54 71.36 2.00 161.60 2611.87
   16:17:22.800.17-May-2020 5073.51 2645.53 71.36 2.00 161.80 2611.87
   16:17:23.000.17-May-2020 5073.51 2645.56 71.36 2.00 162.00 2611.87
   16:17:23.200.17-May-2020 5073.51 2645.56 71.36 2.00 162.20 2611.87
   16:17:23.400.17-May-2020 5073.51 2645.54 71.36 2.00 162.40 2611.87
   16:17:23.600.17-May-2020 5073.51 2645.86 71.36 2.00 162.60 2611.87
   16:17:23.800.17-May-2020 5073.51 2645.48 71.36 2.00 162.80 2611.87
   16:17:24.000.17-May-2020 5073.51 2645.63 71.36 2.00 163.00 2611.87
   16:17:24.200.17-May-2020 5073.51 2645.63 71.36 2.00 163.20 2611.87
   16:17:24.400.17-May-2020 5073.51 2645.70 71.36 2.00 163.40 2611.87
   16:17:24.600.17-May-2020 5073.51 2645.67 71.36 2.00 163.60 2611.87
   16:17:24.800.17-May-2020 5073.51 2645.66 71.36 2.00 163.80 2611.87
   16:17:25.000.17-May-2020 5073.51 2645.66 71.36 2.00 164.00 2611.87
   16:17:25.200.17-May-2020 5073.51 2645.66 71.36 2.00 164.20 2611.87
   16:17:25.400.17-May-2020 5073.51 2645.71 71.36 2.00 164.40 2611.87
   16:17:25.600.17-May-2020 5073.51 2645.76 71.36 2.00 164.60 2611.87
   16:17:25.800.17-May-2020 5073.51 2645.75 71.36 2.00 164.80 2611.87
   16:17:26.000.17-May-2020 5073.51 2645.69 71.36 2.00 165.00 2611.87
   16:17:26.200.17-May-2020 5073.51 2645.69 71.36 2.00 165.20 2611.87
   16:17:26.400.17-May-2020 5073.51 2645.89 71.36 2.00 165.40 2611.87
   16:17:26.600.17-May-2020 5073.51 2645.72 71.36 2.00 165.60 2611.87
   16:17:26.800.17-May-2020 5073.51 2645.72 71.36 2.00 165.80 2611.87
   16:17:27.000.17-May-2020 5073.51 2645.82 71.36 2.00 166.00 2611.87
   16:17:27.200.17-May-2020 5073.51 2645.82 71.36 2.00 166.20 2611.87
   16:17:27.400.17-May-2020 5073.51 2645.74 71.36 2.00 166.40 2611.87
   16:17:27.600.17-May-2020 5073.51 2645.73 71.36 2.00 166.60 2611.87
   16:17:27.800.17-May-2020 5073.51 2645.78 71.36 2.00 166.80 2611.87
   16:17:28.000.17-May-2020 5073.51 2645.93 71.36 2.00 167.00 2611.87
   16:17:28.200.17-May-2020 5073.51 2645.80 71.36 2.00 167.20 2611.87
   16:17:28.400.17-May-2020 5073.51 2645.79 71.36 2.00 167.40 2611.87
   16:17:28.600.17-May-2020 5073.51 2645.75 71.36 2.00 167.60 2611.87
   16:17:28.800.17-May-2020 5073.51 2645.86 71.36 2.00 167.80 2611.87
   16:17:29.000.17-May-2020 5073.51 2645.86 71.36 2.00 168.00 2611.87
   16:17:29.200.17-May-2020 5073.51 2645.86 71.36 2.00 168.20 2611.87
   16:17:29.400.17-May-2020 5073.51 2645.78 71.36 2.00 168.40 2611.87
   16:17:29.600.17-May-2020 5073.51 2645.82 71.36 2.00 168.60 2611.87
   16:17:29.800.17-May-2020 5073.51 2645.86 71.36 2.00 168.80 2611.87
   16:17:30.000.17-May-2020 5073.51 2645.78 71.36 2.00 169.00 2611.87
   16:17:30.200.17-May-2020 5073.51 2645.78 71.36 2.00 169.20 2611.87
   16:17:30.400.17-May-2020 5073.51 2645.69 71.36 2.00 169.40 2611.87
   16:17:30.600.17-May-2020 5073.51 2645.83 71.36 2.00 169.60 2611.87
   16:17:30.800.17-May-2020 5073.51 2645.91 71.36 2.00 169.80 2611.87
   16:17:31.000.17-May-2020 5073.51 2645.87 71.36 2.00 170.00 2611.87
   16:17:31.200.17-May-2020 5073.51 2645.87 71.36 2.00 170.20 2611.87
   16:17:31.400.17-May-2020 5073.51 2645.85 71.36 2.00 170.40 2611.87
   16:17:31.600.17-May-2020 5073.51 2645.84 71.36 2.00 170.60 2611.87
   16:17:31.800.17-May-2020 5073.51 2645.89 71.36 2.00 170.80 2611.87
   16:17:32.000.17-May-2020 5073.51 2645.86 71.36 2.00 171.00 2611.87
   16:17:32.200.17-May-2020 5073.51 2645.95 71.36 2.00 171.20 2611.87
   16:17:32.400.17-May-2020 5073.51 2645.92 71.36 2.00 171.40 2611.87
   16:17:32.600.17-May-2020 5073.51 2645.84 71.36 2.00 171.60 2611.87
   16:17:32.800.17-May-2020 5073.51 2645.90 71.36 2.00 171.80 2611.87
   16:17:33.000.17-May-2020 5073.51 2646.03 71.36 2.00 172.00 2611.87
   16:17:33.200.17-May-2020 5073.51 2646.03 71.36 2.00 172.20 2611.87
   16:17:33.400.17-May-2020 5073.51 2645.84 71.36 2.00 172.40 2611.87
   16:17:33.600.17-May-2020 5073.51 2645.93 71.36 2.00 172.60 2611.87
   16:17:33.800.17-May-2020 5073.51 2646.11 71.36 2.00 172.80 2611.87
   16:17:34.000.17-May-2020 5073.51 2645.79 71.36 2.00 173.00 2611.87
   16:17:34.200.17-May-2020 5073.51 2645.79 71.36 2.00 173.20 2611.87
   16:17:34.400.17-May-2020 5073.51 2645.91 71.36 2.00 173.40 2611.87
   16:17:34.600.17-May-2020 5073.51 2645.98 71.35 2.00 173.60 2611.87
   16:17:34.800.17-May-2020 5073.51 2645.96 71.35 2.00 173.80 2611.87
   16:17:35.000.17-May-2020 5073.51 2645.87 71.35 2.00 174.00 2611.87
   16:17:35.200.17-May-2020 5073.51 2645.87 71.35 2.00 174.20 2611.87
   16:17:35.400.17-May-2020 5073.51 2645.98 71.35 2.00 174.40 2611.87
   16:17:35.600.17-May-2020 5073.51 2645.92 71.35 2.00 174.60 2611.87
   16:17:35.800.17-May-2020 5073.51 2645.87 71.35 2.00 174.80 2611.87
   16:17:36.000.17-May-2020 5073.51 2645.89 71.35 2.00 175.00 2611.87
   16:17:36.200.17-May-2020 5073.51 2645.89 71.35 2.00 175.20 2611.87
   16:17:36.400.17-May-2020 5073.51 2645.91 71.35 2.00 175.40 2611.87
   16:17:36.600.17-May-2020 5073.51 2645.99 71.35 2.00 175.60 2611.87
   16:17:36.800.17-May-2020 5073.51 2646.05 71.35 2.00 175.80 2611.87
   16:17:37.000.17-May-2020 5073.51 2645.74 71.35 2.00 176.00 2611.87
   16:17:37.200.17-May-2020 5073.51 2645.74 71.35 2.00 176.20 2611.87
   16:17:37.400.17-May-2020 5073.51 2645.97 71.35 2.00 176.40 2611.87
   16:17:37.600.17-May-2020 5073.51 2645.92 71.35 2.00 176.60 2611.87
   16:17:37.800.17-May-2020 5073.51 2645.91 71.35 2.00 176.80 2611.87
   16:17:38.000.17-May-2020 5073.51 2645.90 71.35 2.00 177.00 2611.87
   16:17:38.200.17-May-2020 5073.51 2645.90 71.35 2.00 177.20 2611.87
   16:17:38.400.17-May-2020 5073.51 2645.93 71.35 2.00 177.40 2611.87
   16:17:38.600.17-May-2020 5073.51 2645.82 71.35 2.00 177.60 2611.87
   16:17:38.800.17-May-2020 5073.51 2646.16 71.35 2.00 177.80 2611.87
   16:17:39.000.17-May-2020 5073.51 2645.88 71.35 2.00 178.00 2611.87
   16:17:39.200.17-May-2020 5073.51 2645.88 71.35 2.00 178.20 2611.87
   16:17:39.400.17-May-2020 5073.51 2646.22 71.35 2.00 178.40 2611.87
   16:17:39.600.17-May-2020 5073.51 2645.97 71.35 2.00 178.60 2611.87
   16:17:39.800.17-May-2020 5073.51 2645.88 71.35 2.00 178.80 2611.87
   16:17:40.000.17-May-2020 5073.51 2645.96 71.35 2.00 179.00 2611.87
   16:17:40.200.17-May-2020 5073.51 2645.96 71.35 2.00 179.20 2611.87
   16:17:40.400.17-May-2020 5073.51 2646.04 71.35 2.00 179.40 2611.87
   16:17:40.600.17-May-2020 5073.51 2645.91 71.35 2.00 179.60 2611.87
   16:17:40.800.17-May-2020 5073.51 2645.92 71.35 2.00 179.80 2611.87
   16:17:41.000.17-May-2020 5073.51 2645.83 71.35 2.00 180.00 2611.87
   16:17:41.200.17-May-2020 5073.51 2645.83 71.35 2.00 180.20 2611.87
   16:17:41.400.17-May-2020 5073.51 2645.94 71.35 2.00 180.40 2611.87
   16:17:41.600.17-May-2020 5073.51 2645.87 71.35 2.00 180.60 2611.87
   16:17:41.800.17-May-2020 5073.51 2645.99 71.35 2.00 180.80 2611.87
   16:17:42.000.17-May-2020 5073.51 2645.99 71.35 2.00 181.00 2611.87
   16:17:42.200.17-May-2020 5073.51 2645.99 71.35 2.00 181.20 2611.87
   16:17:42.400.17-May-2020 5073.51 2645.93 71.35 2.00 181.40 2611.87
   16:17:42.600.17-May-2020 5073.51 2645.92 71.35 2.00 181.60 2611.87
   16:17:42.800.17-May-2020 5073.51 2645.96 71.35 2.00 181.80 2611.87
   16:17:43.000.17-May-2020 5073.51 2645.95 71.35 2.00 182.00 2611.87
   16:17:43.200.17-May-2020 5073.51 2645.95 71.35 2.00 182.20 2611.87
   16:17:43.400.17-May-2020 5073.51 2645.97 71.35 2.00 182.40 2611.87
   16:17:43.600.17-May-2020 5073.51 2645.86 71.35 2.00 182.60 2611.87
   16:17:43.800.17-May-2020 5073.51 2645.91 71.35 2.00 182.80 2611.87
   16:17:44.000.17-May-2020 5073.51 2646.02 71.35 2.00 183.00 2611.87
   16:17:44.200.17-May-2020 5073.51 2646.02 71.35 2.00 183.20 2611.87
   16:17:44.400.17-May-2020 5073.51 2645.95 71.35 2.00 183.40 2611.87
   16:17:44.600.17-May-2020 5073.51 2645.95 71.35 2.00 183.60 2611.87
   16:17:44.800.17-May-2020 5073.51 2645.94 71.35 2.00 183.80 2611.87
