~Version Information
 VERS.                  2.0:   CWLS log ASCII Standard -VERSION 2.0
 WRAP.                   NO:   One line per depth step
~Well Information Block
#MNEM.UNIT     VALUE/NAME     DESCRIPTION
#---------     -----------    ---------------------------
 STRT.S             20:30:46 17-May-20: START TIME 20:30:46 17-May-20
 STOP.S             20:37:50 17-May-20: STOP TIME  20:37:50 17-May-20
 STEP.S                   0.00: STEP TIME
 NULL.                 -999.25: NULL VALUE
 UNIT.                     N/A:  LOGGING EQUIPMENT ID
 DCON.         Sperry Drilling:  DIRECTNL CONTR
 DOE .                     N/A:  DOE NUMBER
 JOBN.        AZ-XX-0906252240:  JOB TICKET NUMB
 MWDS.                     N/A:  MWD SHOP
 PROV.                    Baku:  PROVINCE
 STAT.                    Baku:  STATE NAME
 REGN.                   EESSA:  REGION
 BASE.              Azerbaijan:  LOGGING EQUIPMENT BASE LOCATION
 UWI .                     N/A:  UNIQUE WELL IDENTIFIER
 API .                     N/A:  API NUMBER
 MDS .        Operator Entered:  MAG DATA SOURCE
 WTYP.                Deviated:  WELL TYPE
 COMP.     BP Exploration (Caspian Sea) Ltd.:  COMPANY
 SRVC.          Turan Drilling:  CONTRACTOR
 WELL.           J23 (Slot 07):  WELL NAME
 CTRY.              Azerbaijan:  COUNTRY NAME
 FLD .                     ACG:  FIELD NAME
 PDAT.          Mean Sea Level:  PERMANENT DATUM
 RIG .             West Chirag:  RIG NAME
 SON .        AZ-XX-0906252240:  JOB NUMBER
 FTOP.          Formation Tops:  FORM TOPS DESC
 ILTD.               Lithology:  INTERP LTH DESC
 SVYD.                  Survey:  SURVEY DESC
 DMOD.             Drill Model:  DRILL MOD DESC
 HPTY.       Minimum Curvature:  HOLE POS TYPE
 NREF.                    Grid:  NORTH REFERENCE
 SPUD.               27-Aug-20:  SPUD DATE
 DATE.      00.00.00 19-May-20:  END TIME
 STIM.      03.00.00 25-Mar-20:  START TIME
 DMF .             Drill Floor:  DRILL MEAS FROM
 DFST.                        :  DIST FSL TEXT
 DFWT.                        :  DIST FWL TEXT
 CNTY.                        :  COUNTY
 LOC .                        :  LOCATION
 LMF .             Drill Floor:  LOG MEASURED FROM
 VSNS.m                   9.43:  VERT SEC N/S
 VSEW.m                  -8.91:  VERT SEC E/W
 AGAP.m                  43.00:  AIR GAP
 DEP .m                 354.17:  DEPTH
 APD .m                  43.00:  DEPTH ABOVE PD
 WDMS.m                 169.80:  WD ELEV
 EGL .m                   0.00:  GROUND ELEVATION
 EPD .m                   0.00:  ELEVATION
 AZTC.deg                 6.31:  AZM TOTAL CORR
 GRDC.deg                 0.14:  GRID CORRECTION
 MDEC.deg                 6.45:  MAGNETIC DECL
 MDIP.deg                59.56:  MAGNETIC DIP
 MFLD.nT              50295.00:  MAGNETIC FIELD
 GVFD.g                   1.00:  GRAVITY FIELD
 VSDR.deg               179.88:  VERT SEC DIRECT
 TDD .m                5150.01:  TOTAL DEPTH (DRILLER)
 SDEP.m                 864.00:  START DEPTH
 DFSL.m                   0.00:  DISTANCE FSL
 DFWL.m                   0.00:  DISTANCE FWL
 UTMY.m             4443793.85:  UTM Y
 UTMX.m              519005.06:  UTM X
 WHEW.m                  -8.91:  WELL HEAD E/W
 WHNS.m                   9.43:  WELL HEAD N/S
 LONG.deg                51.22:  LONGITUDE
 LATI.deg                40.13:  LATITUDE
 TVDS.m                  43.00:  TVDSS CORRECTN
 EKB .m                   0.00:  KB ELEVATION
 EDF .m                  43.00:  DF ELEVATION
 TDL .m                 363.00:  TOTAL DEPTH (LOGGER)
 MAGU.                 1850802:  MAGUTM CHECKSUM
 VSC .                       0:  VS TO CLOSURE
~Parameter Information Block
#MNEM.UNIT       Value        Description
#---------     -----------    ---------------------------
 AV  .mps                 2.30:  Ann Velocity 
 AVMX.mps                 4.40:  Max Ann Veloc 
 AZIF.deg               110.24:  Azm, Final 
 BHAT.        Rotary Steerable:  BHA Type 
 BREV.rev               331.00:  Rev Bit Total 
 BROT.°/30m               0.00:  Build Rotating 
 BS  .in                  8.50:  Bit Size 
 BSZ .in                  8.50:  Bit Size 
 BTPL.psig              585.00:  Bit Press Loss 
 CABU.                     Yes:  Customer Abuse 
 TCS .hr                122.75:  Time Ciculation Ended 
 CV  .mps                 2.67:  Crit Velocity 
 CVMX.mps                 3.56:  Max Crit Veloc 
 DD1 .          Rashad Habibov:  Direct Drillr 1 
 DD2 .         Rasim Ibrahimov:  Direct Drillr 2 
 DDSV.               Geo-Pilot:  DD Service 
 DEFF.%                  98.00:  % Det Eff 
 DLRX.°/30m               0.75:  Dogleg Rot Max 
 DLSO.°/30m               1.25:  Dogleg Oriented 
 DLSX.°/30m               2.06:  Dogleg Str Max 
 DRET.      07.45.00 17-May-20:  Drill End Time 
 DRST.      22.50.00 15-May-20:  Drill Start Tim 
 DTIM.hr                 20.75:  Time Drilling 
 EDEP.m                5124.01:  End Depth 
 ENG1.           Eldar Hajiyev:  Engineer 1 
 ENG2.        Marcelo Sandoval:  Engineer 2 
 ENG3.        Davud huseynzada:  Engineer 3 
 ENG4.          Ruslan Safarov:  Engineer 4 
 ETIM.      04.33.00 23-May-20:  End Time 
 FLOI.gpm               450.00:  Flow In 
 FLON.gpm               400.00:  Flow In Min 
 FLOS.cptm                0.00:  Fluid Loss 
 FLOX.gpm               500.00:  Flow In Max 
 FTRO.       Formation Presure:  FTWD Run Obj 
 HFLO.                      No:  High Flow 
 HPRE.                     Yes:  High Pressure 
 HTEM.                      No:  High Temp 
 HYDO.m                   1.80:  Hydro Offset 
 IFIN.deg                75.06:  Inc, Final 
 IMAX.deg                75.38:  Inc Max 
 IMIN.deg                74.69:  Inc Min 
 IMND.m                5027.38:  Inc Min Depth 
 IMXD.m                4771.61:  Inc Max Depth 
 JARR.                      No:  Jarring 
 LETM.      07.45.00 17-May-20:  Log End Time 
 LOST.hr                     0:  Lost Rig Time 
 LSTM.      22.50.00 15-May-20:  Log Start Time 
 MDCL.ppm             42000.00:  Mud Chlorides 
 MDES.     Inversion Oil/Synthetic:  Mud Desc 
 DFD .sg                  1.34:  Mud Density 
 MDMN.sg                  1.34:  Dens Mud Min 
 MDMX.sg                  1.34:  Dens Mud Max 
 MOIL.                       0:  Run Mud Oil % 
 MOWR.                   67:33:  Run Mud OWR 
 MSND.                       0:  Run Mud Sand % 
 MSOL.                     1.8:  Run Mud Solids% 
 DFV .spqt               76.00:  Mud Viscosity 
 MWOD.in                  6.75:  MWD Tool OD 
 MWSI.                      No:  Serv Intrp, MWD 
 OTIM.hr                228.19:  Time Operating 
 PCON.           Look Like New:  Pad Condition 
 PMAX.psia             6164.70:  Press Op, Max 
 PV  .cP                 28.00:  Mud PV 
 RUN .                     900:  Run Number 
 ROPA.m/hr               19.00:  ROP Avg 
 ROPN.m/hr               11.00:  ROP Min 
 ROPX.m/hr               36.00:  ROP Max 
 RPMA.rpm               120.00:  RPM Surface Avg 
 RPMN.rpm               120.00:  RPM Surface Min 
 RPMX.rpm               120.00:  RPM Surface Max 
 RRUN.                    L604:  Rig Run Number 
 RTIM.hr                  7.00:  Time Reaming 
 SAZI.deg               109.27:  Azm, Start 
 SDEP.m                4761.01:  Start Depth 
 SIDD.                      No:  Serv Intrp, DD 
 SINC.deg                75.38:  Inc, Start 
 SPPA.psig             3574.00:  SPP Avg 
 SPPN.psig             3475.00:  SPP Min 
 SPPX.psig             3791.00:  SPP Max 
 STIM.      07.08.48 13-May-20:  Start Time 
 SVCS.                 DD, MWD:  Services 
 SVER.                    9.20:  Sperry Version 
 TDAT.m                 363.00:  Tot Depth Attmp 
 TDDF.                      No:  Trip for DD 
 TDLG.m                 363.00:  Tot Depth Loggd 
 TFF .                      No:  Trip for Fail 
 TQAA.f-kp               20.00:  Torque Abs Avg 
 TQAN.f-kp               18.00:  Torque Abs Min 
 TQAX.f-kp               22.00:  Torque Abs Max 
 TRRT.°/30m              -0.35:  Turn Rotating 
 MRT .                    HCIM:  Maximum Recorded Temperature 
 TTMX.degC               92.16:  Max Tool Temp 
 VS01.                90586518:  Virtual Str1 SN 
 VS02.        AZ90560654Z1W1C6:  Virtual Str2 SN 
 VS03.           AZ90610398F11:  Virtual Str3 SN 
 VS04.                90514975:  Virtual Str4 SN 
 VS05.                90514972:  Virtual Str5 SN 
 VS06.     AZ90603282F11V7D1A6:  Virtual Str6 SN 
 WBMN.klb                 7.00:  WOB Min 
 WOBA.klb                12.00:  WOB Avg 
 WOBX.klb                14.00:  WOB Max 
 YP  .lhf2               32.00:  Yield Point 
~Curve Information Block
#MNEM.UNIT                 API CODE     Curve Description
#---------               -----------    ---------------------------
 TIME.HHMMSS            00 000 000 000:  GT Time & Date
 GTDEPTH.m              00 000 000 000:  GT Depth
 GTPQH.psia             00 000 000 000:  GT HR Quartz Pressure
 GTTQ.degC              00 000 000 000:  GT Quartz Temperature
 GTTN.NONE              00 000 000 000:  GT Test Number
 GTET.sec               00 000 000 000:  GT Elapsed Test Time
 GTTVD.m                00 000 000 000:  GT True Vertical Depth
#Other Information
#
#WARRANTY: Halliburton will use its best efforts to furnish customers with 
#accurate information and interpretations that are part of, and incident to, the services 
#provided.  However, Halliburton cannot and does not warrant the accuracy 
#or correctness of such information and interpretations.  Under no circumstances should any 
#such information or interpretation be relied upon as the sole basis for any drilling, 
#completion, production, or financial decision or any procedure involving any risk to the 
#safety of any drilling venture, drilling rig or its crew or any other third party.  The 
#Customer has full responsibility for all drilling, completion and production operation.  
#Halliburton makes no representations or warranties, either expressed or 
#implied, including, but not limited to, the implied warranties of merchantability or fitness 
#for a particular purpose, with respect to the services rendered.  In no event will 
#Halliburton be liable for failure to obtain any particular results or for 
#any damages, including, but not limited to, indirect, special or consequential damages, 
#resulting from the use of any information or interpretation provided by Halliburton.
#
~A           TIME           GTDEPTH  GTPQH  GTTQ  GTTN  GTET   GTTVD  
   20:30:46.361.17-May-2020 4971.01 5520.26 68.84 5.00   0.00 2585.16
   20:30:46.561.17-May-2020 4971.01 5518.72 68.84 5.00   0.20 2585.16
   20:30:46.761.17-May-2020 4971.01 5513.92 68.84 5.00   0.40 2585.16
   20:30:46.961.17-May-2020 4971.01 5516.11 68.84 5.00   0.60 2585.16
   20:30:47.161.17-May-2020 4971.01 5527.78 68.84 5.00   0.80 2585.16
   20:30:47.361.17-May-2020 4971.01 5512.37 68.84 5.00   1.00 2585.16
   20:30:47.561.17-May-2020 4971.01 5518.03 68.84 5.00   1.20 2585.16
   20:30:47.761.17-May-2020 4971.01 5524.70 68.84 5.00   1.40 2585.16
   20:30:47.961.17-May-2020 4971.01 5520.33 68.84 5.00   1.60 2585.16
   20:30:48.161.17-May-2020 4971.01 5520.62 68.84 5.00   1.80 2585.16
   20:30:48.361.17-May-2020 4971.01 5519.54 68.84 5.00   2.00 2585.16
   20:30:48.561.17-May-2020 4971.01 5513.65 68.84 5.00   2.20 2585.16
   20:30:48.761.17-May-2020 4971.01 5526.01 68.84 5.00   2.40 2585.16
   20:30:48.961.17-May-2020 4971.01 5520.64 68.84 5.00   2.60 2585.16
   20:30:49.161.17-May-2020 4971.01 5520.07 68.84 5.00   2.80 2585.16
   20:30:49.361.17-May-2020 4971.01 5515.54 68.84 5.00   3.00 2585.16
   20:30:49.561.17-May-2020 4971.01 5515.54 68.84 5.00   3.20 2585.16
   20:30:49.761.17-May-2020 4971.01 5518.01 68.84 5.00   3.40 2585.16
   20:30:49.961.17-May-2020 4971.01 5515.10 68.84 5.00   3.60 2585.16
   20:30:50.161.17-May-2020 4971.01 5516.76 68.84 5.00   3.80 2585.16
   20:30:50.361.17-May-2020 4971.01 5517.39 68.84 5.00   4.00 2585.16
   20:30:50.561.17-May-2020 4971.01 5517.39 68.84 5.00   4.20 2585.16
   20:30:50.761.17-May-2020 4971.01 5518.68 68.84 5.00   4.40 2585.16
   20:30:50.961.17-May-2020 4971.01 5532.39 68.84 5.00   4.60 2585.16
   20:30:51.161.17-May-2020 4971.01 5517.06 68.84 5.00   4.80 2585.16
   20:30:51.361.17-May-2020 4971.01 5525.20 68.84 5.00   5.00 2585.16
   20:30:51.561.17-May-2020 4971.01 5525.20 68.84 5.00   5.20 2585.16
   20:30:51.761.17-May-2020 4971.01 5522.63 68.84 5.00   5.40 2585.16
   20:30:51.961.17-May-2020 4971.01 5526.16 68.84 5.00   5.60 2585.16
   20:30:52.161.17-May-2020 4971.01 5526.22 68.84 5.00   5.80 2585.16
   20:30:52.360.17-May-2020 4971.01 5527.11 68.84 5.00   6.00 2585.16
   20:30:52.560.17-May-2020 4971.01 5527.11 68.84 5.00   6.20 2585.16
   20:30:52.760.17-May-2020 4971.01 5526.02 68.84 5.00   6.40 2585.16
   20:30:52.960.17-May-2020 4971.01 5527.15 68.84 5.00   6.60 2585.16
   20:30:53.160.17-May-2020 4971.01 5528.12 68.84 5.00   6.80 2585.16
   20:30:53.360.17-May-2020 4971.01 5533.81 68.84 5.00   7.00 2585.16
   20:30:53.560.17-May-2020 4971.01 5533.81 68.84 5.00   7.20 2585.16
   20:30:53.760.17-May-2020 4971.01 5531.89 68.84 5.00   7.40 2585.16
   20:30:53.960.17-May-2020 4971.01 5526.40 68.84 5.00   7.60 2585.16
   20:30:54.160.17-May-2020 4971.01 5539.95 68.84 5.00   7.80 2585.16
   20:30:54.360.17-May-2020 4971.01 5528.70 68.84 5.00   8.00 2585.16
   20:30:54.560.17-May-2020 4971.01 5529.44 68.84 5.00   8.20 2585.16
   20:30:54.760.17-May-2020 4971.01 5529.14 68.84 5.00   8.40 2585.16
   20:30:54.960.17-May-2020 4971.01 5543.44 68.84 5.00   8.60 2585.16
   20:30:55.160.17-May-2020 4971.01 5524.64 68.84 5.00   8.80 2585.16
   20:30:55.360.17-May-2020 4971.01 5529.52 68.84 5.00   9.00 2585.16
   20:30:55.560.17-May-2020 4971.01 5533.12 68.84 5.00   9.20 2585.16
   20:30:55.760.17-May-2020 4971.01 5537.62 68.84 5.00   9.40 2585.16
   20:30:55.960.17-May-2020 4971.01 5530.05 68.84 5.00   9.60 2585.16
   20:30:56.160.17-May-2020 4971.01 5533.44 68.84 5.00   9.80 2585.16
   20:30:56.360.17-May-2020 4971.01 5539.71 68.84 5.00  10.00 2585.16
   20:30:56.560.17-May-2020 4971.01 5539.71 68.84 5.00  10.20 2585.16
   20:30:56.760.17-May-2020 4971.01 5535.08 68.84 5.00  10.40 2585.16
   20:30:56.960.17-May-2020 4971.01 5536.39 68.84 5.00  10.60 2585.16
   20:30:57.160.17-May-2020 4971.01 5541.08 68.84 5.00  10.80 2585.16
   20:30:57.360.17-May-2020 4971.01 5529.79 68.84 5.00  11.00 2585.16
   20:30:57.560.17-May-2020 4971.01 5529.79 68.84 5.00  11.20 2585.16
   20:30:57.760.17-May-2020 4971.01 5536.26 68.84 5.00  11.40 2585.16
   20:30:57.960.17-May-2020 4971.01 5528.70 68.84 5.00  11.60 2585.16
   20:30:58.160.17-May-2020 4971.01 5531.71 68.84 5.00  11.80 2585.16
   20:30:58.360.17-May-2020 4971.01 5531.74 68.84 5.00  12.00 2585.16
   20:30:58.560.17-May-2020 4971.01 5531.37 68.84 5.00  12.20 2585.16
   20:30:58.760.17-May-2020 4971.01 5530.76 68.84 5.00  12.40 2585.16
   20:30:58.960.17-May-2020 4971.01 5530.56 68.84 5.00  12.60 2585.16
   20:30:59.160.17-May-2020 4971.01 5537.77 68.84 5.00  12.80 2585.16
   20:30:59.360.17-May-2020 4971.01 5534.81 68.84 5.00  13.00 2585.16
   20:30:59.560.17-May-2020 4971.01 5536.60 68.84 5.00  13.20 2585.16
   20:30:59.760.17-May-2020 4971.01 5538.13 68.84 5.00  13.40 2585.16
   20:30:59.960.17-May-2020 4971.01 5530.28 68.84 5.00  13.60 2585.16
   20:31:00.160.17-May-2020 4971.01 5533.87 68.84 5.00  13.80 2585.16
   20:31:00.360.17-May-2020 4971.01 5534.43 68.84 5.00  14.00 2585.16
   20:31:00.560.17-May-2020 4971.01 5533.19 68.84 5.00  14.20 2585.16
   20:31:00.760.17-May-2020 4971.01 5534.06 68.84 5.00  14.40 2585.16
   20:31:00.960.17-May-2020 4971.01 5533.40 68.84 5.00  14.60 2585.16
   20:31:01.160.17-May-2020 4971.01 5533.97 68.84 5.00  14.80 2585.16
   20:31:01.360.17-May-2020 4971.01 5533.14 68.84 5.00  15.00 2585.16
   20:31:01.560.17-May-2020 4971.01 5533.14 68.84 5.00  15.20 2585.16
   20:31:01.760.17-May-2020 4971.01 5533.14 68.84 5.00  15.40 2585.16
   20:31:01.960.17-May-2020 4971.01 5538.67 68.84 5.00  15.60 2585.16
   20:31:02.160.17-May-2020 4971.01 5535.49 68.84 5.00  15.80 2585.16
   20:31:02.360.17-May-2020 4971.01 5549.83 68.84 5.00  16.00 2585.16
   20:31:02.560.17-May-2020 4971.01 5549.83 68.84 5.00  16.20 2585.16
   20:31:02.760.17-May-2020 4971.01 5538.03 68.83 5.00  16.40 2585.16
   20:31:02.960.17-May-2020 4971.01 5541.44 68.83 5.00  16.60 2585.16
   20:31:03.160.17-May-2020 4971.01 5545.24 68.83 5.00  16.80 2585.16
   20:31:03.360.17-May-2020 4971.01 5537.93 68.83 5.00  17.00 2585.16
   20:31:03.560.17-May-2020 4971.01 5539.38 68.83 5.00  17.20 2585.16
   20:31:03.760.17-May-2020 4971.01 5550.57 68.83 5.00  17.40 2585.16
   20:31:03.960.17-May-2020 4971.01 5537.72 68.83 5.00  17.60 2585.16
   20:31:04.160.17-May-2020 4971.01 5540.14 68.83 5.00  17.80 2585.16
   20:31:04.360.17-May-2020 4971.01 5537.04 68.83 5.00  18.00 2585.16
   20:31:04.560.17-May-2020 4971.01 5538.26 68.83 5.00  18.20 2585.16
   20:31:04.760.17-May-2020 4971.01 5536.76 68.83 5.00  18.40 2585.16
   20:31:04.960.17-May-2020 4971.01 5534.02 68.83 5.00  18.60 2585.16
   20:31:05.160.17-May-2020 4971.01 5535.77 68.83 5.00  18.80 2585.16
   20:31:05.359.17-May-2020 4971.01 5534.64 68.83 5.00  19.00 2585.16
   20:31:05.559.17-May-2020 4971.01 5534.64 68.83 5.00  19.20 2585.16
   20:31:05.759.17-May-2020 4971.01 5550.17 68.83 5.00  19.40 2585.16
   20:31:05.959.17-May-2020 4971.01 5530.32 68.83 5.00  19.60 2585.16
   20:31:06.159.17-May-2020 4971.01 5538.16 68.83 5.00  19.80 2585.16
   20:31:06.359.17-May-2020 4971.01 5538.61 68.83 5.00  20.00 2585.16
   20:31:06.559.17-May-2020 4971.01 5538.61 68.83 5.00  20.20 2585.16
   20:31:06.759.17-May-2020 4971.01 5535.69 68.83 5.00  20.40 2585.16
   20:31:06.959.17-May-2020 4971.01 5534.49 68.83 5.00  20.60 2585.16
   20:31:07.159.17-May-2020 4971.01 5535.29 68.83 5.00  20.80 2585.16
   20:31:07.359.17-May-2020 4971.01 5534.31 68.83 5.00  21.00 2585.16
   20:31:07.559.17-May-2020 4971.01 5533.83 68.83 5.00  21.20 2585.16
   20:31:07.759.17-May-2020 4971.01 5534.72 68.83 5.00  21.40 2585.16
   20:31:07.959.17-May-2020 4971.01 5547.42 68.83 5.00  21.60 2585.16
   20:31:08.159.17-May-2020 4971.01 5532.27 68.83 5.00  21.80 2585.16
   20:31:08.359.17-May-2020 4971.01 5538.99 68.83 5.00  22.00 2585.16
   20:31:08.559.17-May-2020 4971.01 5538.99 68.83 5.00  22.20 2585.16
   20:31:08.759.17-May-2020 4971.01 5533.93 68.83 5.00  22.40 2585.16
   20:31:08.959.17-May-2020 4971.01 5548.95 68.83 5.00  22.60 2585.16
   20:31:09.159.17-May-2020 4971.01 5538.58 68.83 5.00  22.80 2585.16
