~Version Information
 VERS.                  2.0:   CWLS log ASCII Standard -VERSION 2.0
 WRAP.                   NO:   One line per depth step
~Well Information Block
#MNEM.UNIT     VALUE/NAME     DESCRIPTION
#---------     -----------    ---------------------------
 STRT.S             12:13:26 20-May-20: START TIME 12:13:26 20-May-20
 STOP.S             12:20:31 20-May-20: STOP TIME  12:20:31 20-May-20
 STEP.S                   0.00: STEP TIME
 NULL.                 -999.25: NULL VALUE
 UNIT.                     N/A:  LOGGING EQUIPMENT ID
 DCON.         Sperry Drilling:  DIRECTNL CONTR
 DOE .                     N/A:  DOE NUMBER
 JOBN.        AZ-XX-0906252240:  JOB TICKET NUMB
 MWDS.                     N/A:  MWD SHOP
 PROV.                    Baku:  PROVINCE
 STAT.                    Baku:  STATE NAME
 REGN.                   EESSA:  REGION
 BASE.              Azerbaijan:  LOGGING EQUIPMENT BASE LOCATION
 UWI .                     N/A:  UNIQUE WELL IDENTIFIER
 API .                     N/A:  API NUMBER
 MDS .        Operator Entered:  MAG DATA SOURCE
 WTYP.                Deviated:  WELL TYPE
 COMP.     BP Exploration (Caspian Sea) Ltd.:  COMPANY
 SRVC.          Turan Drilling:  CONTRACTOR
 WELL.           J23 (Slot 07):  WELL NAME
 CTRY.              Azerbaijan:  COUNTRY NAME
 FLD .                     ACG:  FIELD NAME
 PDAT.          Mean Sea Level:  PERMANENT DATUM
 RIG .             West Chirag:  RIG NAME
 SON .        AZ-XX-0906252240:  JOB NUMBER
 FTOP.          Formation Tops:  FORM TOPS DESC
 ILTD.               Lithology:  INTERP LTH DESC
 SVYD.                  Survey:  SURVEY DESC
 DMOD.             Drill Model:  DRILL MOD DESC
 HPTY.       Minimum Curvature:  HOLE POS TYPE
 NREF.                    Grid:  NORTH REFERENCE
 SPUD.               27-Aug-20:  SPUD DATE
 DATE.      00.00.00 19-May-20:  END TIME
 STIM.      03.00.00 25-Mar-20:  START TIME
 DMF .             Drill Floor:  DRILL MEAS FROM
 DFST.                        :  DIST FSL TEXT
 DFWT.                        :  DIST FWL TEXT
 CNTY.                        :  COUNTY
 LOC .                        :  LOCATION
 LMF .             Drill Floor:  LOG MEASURED FROM
 VSNS.m                   9.43:  VERT SEC N/S
 VSEW.m                  -8.91:  VERT SEC E/W
 AGAP.m                  43.00:  AIR GAP
 DEP .m                 354.17:  DEPTH
 APD .m                  43.00:  DEPTH ABOVE PD
 WDMS.m                 169.80:  WD ELEV
 EGL .m                   0.00:  GROUND ELEVATION
 EPD .m                   0.00:  ELEVATION
 AZTC.deg                 6.31:  AZM TOTAL CORR
 GRDC.deg                 0.14:  GRID CORRECTION
 MDEC.deg                 6.45:  MAGNETIC DECL
 MDIP.deg                59.56:  MAGNETIC DIP
 MFLD.nT              50295.00:  MAGNETIC FIELD
 GVFD.g                   1.00:  GRAVITY FIELD
 VSDR.deg               179.88:  VERT SEC DIRECT
 TDD .m                5150.01:  TOTAL DEPTH (DRILLER)
 SDEP.m                 864.00:  START DEPTH
 DFSL.m                   0.00:  DISTANCE FSL
 DFWL.m                   0.00:  DISTANCE FWL
 UTMY.m             4443793.85:  UTM Y
 UTMX.m              519005.06:  UTM X
 WHEW.m                  -8.91:  WELL HEAD E/W
 WHNS.m                   9.43:  WELL HEAD N/S
 LONG.deg                51.22:  LONGITUDE
 LATI.deg                40.13:  LATITUDE
 TVDS.m                  43.00:  TVDSS CORRECTN
 EKB .m                   0.00:  KB ELEVATION
 EDF .m                  43.00:  DF ELEVATION
 TDL .m                 363.00:  TOTAL DEPTH (LOGGER)
 MAGU.                 1850802:  MAGUTM CHECKSUM
 VSC .                       0:  VS TO CLOSURE
~Parameter Information Block
#MNEM.UNIT       Value        Description
#---------     -----------    ---------------------------
 AV  .mps                 2.30:  Ann Velocity 
 AVMX.mps                 4.40:  Max Ann Veloc 
 AZIF.deg               110.24:  Azm, Final 
 BHAT.        Rotary Steerable:  BHA Type 
 BREV.rev               331.00:  Rev Bit Total 
 BROT.°/30m               0.00:  Build Rotating 
 BS  .in                  8.50:  Bit Size 
 BSZ .in                  8.50:  Bit Size 
 BTPL.psig              585.00:  Bit Press Loss 
 CABU.                     Yes:  Customer Abuse 
 COMM.                     моЊ:  Run Comments 1 
 TCS .hr                122.75:  Time Ciculation Ended 
 CV  .mps                 2.67:  Crit Velocity 
 CVMX.mps                 3.56:  Max Crit Veloc 
 DD1 .          Rashad Habibov:  Direct Drillr 1 
 DD2 .         Rasim Ibrahimov:  Direct Drillr 2 
 DDSV.               Geo-Pilot:  DD Service 
 DEFF.%                  98.00:  % Det Eff 
 DLRX.°/30m               0.75:  Dogleg Rot Max 
 DLSO.°/30m               1.25:  Dogleg Oriented 
 DLSX.°/30m               2.06:  Dogleg Str Max 
 DRET.      07.45.00 17-May-20:  Drill End Time 
 DRST.      22.50.00 15-May-20:  Drill Start Tim 
 DTIM.hr                 20.75:  Time Drilling 
 EDEP.m                5124.01:  End Depth 
 ENG1.           Eldar Hajiyev:  Engineer 1 
 ENG2.        Marcelo Sandoval:  Engineer 2 
 ENG3.        Davud huseynzada:  Engineer 3 
 ENG4.          Ruslan Safarov:  Engineer 4 
 ETIM.      04.33.00 23-May-20:  End Time 
 FLOI.gpm               450.00:  Flow In 
 FLON.gpm               400.00:  Flow In Min 
 FLOS.cptm                0.00:  Fluid Loss 
 FLOX.gpm               500.00:  Flow In Max 
 FTRO.       Formation Presure:  FTWD Run Obj 
 HFLO.                      No:  High Flow 
 HPRE.                     Yes:  High Pressure 
 HTEM.                      No:  High Temp 
 HYDO.m                   1.80:  Hydro Offset 
 IFIN.deg                75.06:  Inc, Final 
 IMAX.deg                75.38:  Inc Max 
 IMIN.deg                74.69:  Inc Min 
 IMND.m                5027.38:  Inc Min Depth 
 IMXD.m                4771.61:  Inc Max Depth 
 JARR.                      No:  Jarring 
 LETM.      07.45.00 17-May-20:  Log End Time 
 LOST.hr                     0:  Lost Rig Time 
 LSTM.      22.50.00 15-May-20:  Log Start Time 
 MDCL.ppm             42000.00:  Mud Chlorides 
 MDES.     Inversion Oil/Synthetic:  Mud Desc 
 DFD .sg                  1.34:  Mud Density 
 MDMN.sg                  1.34:  Dens Mud Min 
 MDMX.sg                  1.34:  Dens Mud Max 
 MOIL.                       0:  Run Mud Oil % 
 MOWR.                   67:33:  Run Mud OWR 
 MSND.                       0:  Run Mud Sand % 
 MSOL.                     1.8:  Run Mud Solids% 
 DFV .spqt               76.00:  Mud Viscosity 
 MWOD.in                  6.75:  MWD Tool OD 
 MWSI.                      No:  Serv Intrp, MWD 
 OTIM.hr                228.19:  Time Operating 
 PCON.           Look Like New:  Pad Condition 
 PMAX.psia             6164.70:  Press Op, Max 
 PV  .cP                 28.00:  Mud PV 
 RUN .                     900:  Run Number 
 ROPA.m/hr               19.00:  ROP Avg 
 ROPN.m/hr               11.00:  ROP Min 
 ROPX.m/hr               36.00:  ROP Max 
 RPMA.rpm               120.00:  RPM Surface Avg 
 RPMN.rpm               120.00:  RPM Surface Min 
 RPMX.rpm               120.00:  RPM Surface Max 
 RRUN.                    L604:  Rig Run Number 
 RTIM.hr                  7.00:  Time Reaming 
 SAZI.deg               109.27:  Azm, Start 
 SDEP.m                4761.01:  Start Depth 
 SIDD.                      No:  Serv Intrp, DD 
 SINC.deg                75.38:  Inc, Start 
 SPPA.psig             3574.00:  SPP Avg 
 SPPN.psig             3475.00:  SPP Min 
 SPPX.psig             3791.00:  SPP Max 
 STIM.      07.08.48 13-May-20:  Start Time 
 SVCS.                 DD, MWD:  Services 
 SVER.                    9.20:  Sperry Version 
 TDAT.m                 363.00:  Tot Depth Attmp 
 TDDF.                      No:  Trip for DD 
 TDLG.m                 363.00:  Tot Depth Loggd 
 TFF .                      No:  Trip for Fail 
 TQAA.f-kp               20.00:  Torque Abs Avg 
 TQAN.f-kp               18.00:  Torque Abs Min 
 TQAX.f-kp               22.00:  Torque Abs Max 
 TRRT.°/30m              -0.35:  Turn Rotating 
 MRT .                    HCIM:  Maximum Recorded Temperature 
 TTMX.degC               92.16:  Max Tool Temp 
 VS01.                90586518:  Virtual Str1 SN 
 VS02.        AZ90560654Z1W1C6:  Virtual Str2 SN 
 VS03.           AZ90610398F11:  Virtual Str3 SN 
 VS04.                90514975:  Virtual Str4 SN 
 VS05.                90514972:  Virtual Str5 SN 
 VS06.     AZ90603282F11V7D1A6:  Virtual Str6 SN 
 WBMN.klb                 7.00:  WOB Min 
 WOBA.klb                12.00:  WOB Avg 
 WOBX.klb                14.00:  WOB Max 
 YP  .lhf2               32.00:  Yield Point 
~Curve Information Block
#MNEM.UNIT                 API CODE     Curve Description
#---------               -----------    ---------------------------
 TIME.HHMMSS            00 000 000 000:  GT Time & Date
 GTDEPTH.m              00 000 000 000:  GT Depth
 GTPQH.psia             00 000 000 000:  GT HR Quartz Pressure
 GTTQ.degC              00 000 000 000:  GT Quartz Temperature
 GTTN.NONE              00 000 000 000:  GT Test Number
 GTET.sec               00 000 000 000:  GT Elapsed Test Time
 GTTVD.m                00 000 000 000:  GT True Vertical Depth
#Other Information
#
#WARRANTY: Halliburton will use its best efforts to furnish customers with 
#accurate information and interpretations that are part of, and incident to, the services 
#provided.  However, Halliburton cannot and does not warrant the accuracy 
#or correctness of such information and interpretations.  Under no circumstances should any 
#such information or interpretation be relied upon as the sole basis for any drilling, 
#completion, production, or financial decision or any procedure involving any risk to the 
#safety of any drilling venture, drilling rig or its crew or any other third party.  The 
#Customer has full responsibility for all drilling, completion and production operation.  
#Halliburton makes no representations or warranties, either expressed or 
#implied, including, but not limited to, the implied warranties of merchantability or fitness 
#for a particular purpose, with respect to the services rendered.  In no event will 
#Halliburton be liable for failure to obtain any particular results or for 
#any damages, including, but not limited to, indirect, special or consequential damages, 
#resulting from the use of any information or interpretation provided by Halliburton.
#
~A           TIME           GTDEPTH  GTPQH  GTTQ  GTTN   GTET   GTTVD  
# ...
   12:17:57.987.20-May-2020 4766.51 5483.56 69.21 15.00 271.29 2532.42
   12:17:58.188.20-May-2020 4766.51 5483.77 69.21 15.00 271.49 2532.42
   12:17:58.388.20-May-2020 4766.51 5483.03 69.21 15.00 271.69 2532.42
   12:17:58.588.20-May-2020 4766.51 5494.57 69.21 15.00 271.89 2532.42
   12:17:58.788.20-May-2020 4766.51 5484.40 69.21 15.00 272.09 2532.42
   12:17:58.988.20-May-2020 4766.51 5483.35 69.21 15.00 272.29 2532.42
   12:17:59.188.20-May-2020 4766.51 5483.12 69.21 15.00 272.49 2532.42
   12:17:59.388.20-May-2020 4766.51 5483.06 69.21 15.00 272.69 2532.42
   12:17:59.588.20-May-2020 4766.51 5485.39 69.21 15.00 272.89 2532.42
   12:17:59.788.20-May-2020 4766.51 5483.68 69.21 15.00 273.09 2532.42
   12:17:59.988.20-May-2020 4766.51 5483.68 69.21 15.00 273.29 2532.42
   12:18:00.188.20-May-2020 4766.51 5483.76 69.21 15.00 273.49 2532.42
   12:18:00.388.20-May-2020 4766.51 5483.25 69.21 15.00 273.69 2532.42
   12:18:00.588.20-May-2020 4766.51 5482.62 69.21 15.00 273.89 2532.42
   12:18:00.788.20-May-2020 4766.51 5490.04 69.21 15.00 274.09 2532.42
   12:18:00.988.20-May-2020 4766.51 5490.04 69.21 15.00 274.29 2532.42
   12:18:01.188.20-May-2020 4766.51 5483.17 69.21 15.00 274.49 2532.42
   12:18:01.389.20-May-2020 4766.51 5483.04 69.21 15.00 274.69 2532.42
   12:18:01.589.20-May-2020 4766.51 5495.06 69.21 15.00 274.89 2532.42
   12:18:01.789.20-May-2020 4766.51 5487.85 69.21 15.00 275.09 2532.42
   12:18:01.989.20-May-2020 4766.51 5484.89 69.21 15.00 275.29 2532.42
   12:18:02.189.20-May-2020 4766.51 5483.96 69.20 15.00 275.49 2532.42
   12:18:02.389.20-May-2020 4766.51 5487.43 69.20 15.00 275.69 2532.42
   12:18:02.589.20-May-2020 4766.51 5497.37 69.20 15.00 275.89 2532.42
   12:18:02.789.20-May-2020 4766.51 5485.60 69.20 15.00 276.09 2532.42
   12:18:02.989.20-May-2020 4766.51 5485.60 69.20 15.00 276.29 2532.42
   12:18:03.189.20-May-2020 4766.51 5497.40 69.20 15.00 276.49 2532.42
   12:18:03.389.20-May-2020 4766.51 5487.90 69.20 15.00 276.69 2532.42
   12:18:03.589.20-May-2020 4766.51 5486.21 69.20 15.00 276.89 2532.42
   12:18:03.789.20-May-2020 4766.51 5484.46 69.20 15.00 277.09 2532.42
   12:18:03.989.20-May-2020 4766.51 5484.46 69.20 15.00 277.29 2532.42
   12:18:04.189.20-May-2020 4766.51 5487.11 69.20 15.00 277.49 2532.42
   12:18:04.390.20-May-2020 4766.51 5484.54 69.20 15.00 277.69 2532.42
   12:18:04.590.20-May-2020 4766.51 5482.92 69.20 15.00 277.89 2532.42
   12:18:04.790.20-May-2020 4766.51 5483.37 69.20 15.00 278.09 2532.42
   12:18:04.990.20-May-2020 4766.51 5483.37 69.20 15.00 278.29 2532.42
   12:18:05.190.20-May-2020 4766.51 5495.28 69.20 15.00 278.49 2532.42
   12:18:05.390.20-May-2020 4766.51 5484.10 69.20 15.00 278.69 2532.42
   12:18:05.590.20-May-2020 4766.51 5482.97 69.20 15.00 278.89 2532.42
   12:18:05.790.20-May-2020 4766.51 5482.77 69.20 15.00 279.09 2532.42
   12:18:05.990.20-May-2020 4766.51 5482.91 69.20 15.00 279.29 2532.42
   12:18:06.190.20-May-2020 4766.51 5485.14 69.20 15.00 279.49 2532.42
   12:18:06.390.20-May-2020 4766.51 5483.25 69.20 15.00 279.69 2532.42
   12:18:06.590.20-May-2020 4766.51 5482.55 69.20 15.00 279.89 2532.42
   12:18:06.790.20-May-2020 4766.51 5483.00 69.20 15.00 280.09 2532.42
   12:18:06.990.20-May-2020 4766.51 5483.00 69.20 15.00 280.29 2532.42
   12:18:07.190.20-May-2020 4766.51 5483.13 69.20 15.00 280.49 2532.42
   12:18:07.390.20-May-2020 4766.51 5489.99 69.20 15.00 280.69 2532.42
   12:18:07.591.20-May-2020 4766.51 5487.91 69.20 15.00 280.89 2532.42
   12:18:07.791.20-May-2020 4766.51 5482.84 69.20 15.00 281.09 2532.42
   12:18:07.991.20-May-2020 4766.51 5482.84 69.20 15.00 281.29 2532.42
   12:18:08.191.20-May-2020 4766.51 5488.63 69.20 15.00 281.49 2532.42
   12:18:08.391.20-May-2020 4766.51 5492.02 69.20 15.00 281.69 2532.42
   12:18:08.591.20-May-2020 4766.51 5484.25 69.20 15.00 281.89 2532.42
   12:18:08.791.20-May-2020 4766.51 5483.12 69.20 15.00 282.09 2532.42
   12:18:08.991.20-May-2020 4766.51 5483.12 69.20 15.00 282.29 2532.42
   12:18:09.191.20-May-2020 4766.51 5499.37 69.19 15.00 282.49 2532.42
   12:18:09.391.20-May-2020 4766.51 5486.16 69.19 15.00 282.69 2532.42
   12:18:09.591.20-May-2020 4766.51 5484.08 69.19 15.00 282.89 2532.42
   12:18:09.791.20-May-2020 4766.51 5483.39 69.19 15.00 283.09 2532.42
   12:18:09.991.20-May-2020 4766.51 5483.39 69.19 15.00 283.29 2532.42
   12:18:10.191.20-May-2020 4766.51 5496.13 69.19 15.00 283.49 2532.42
   12:18:10.391.20-May-2020 4766.51 5485.15 69.19 15.00 283.69 2532.42
   12:18:10.592.20-May-2020 4766.51 5484.01 69.19 15.00 283.89 2532.42
   12:18:10.792.20-May-2020 4766.51 5483.94 69.19 15.00 284.09 2532.42
   12:18:10.992.20-May-2020 4766.51 5483.94 69.19 15.00 284.29 2532.42
   12:18:11.192.20-May-2020 4766.51 5485.73 69.19 15.00 284.49 2532.42
   12:18:11.392.20-May-2020 4766.51 5483.88 69.19 15.00 284.69 2532.42
   12:18:11.592.20-May-2020 4766.51 5483.76 69.19 15.00 284.89 2532.42
   12:18:11.792.20-May-2020 4766.51 5483.58 69.19 15.00 285.09 2532.42
   12:18:11.992.20-May-2020 4766.51 5483.58 69.19 15.00 285.29 2532.42
   12:18:12.192.20-May-2020 4766.51 5494.78 69.19 15.00 285.49 2532.42
   12:18:12.392.20-May-2020 4766.51 5483.19 69.19 15.00 285.69 2532.42
   12:18:12.592.20-May-2020 4766.51 5483.16 69.19 15.00 285.89 2532.42
   12:18:12.792.20-May-2020 4766.51 5482.62 69.19 15.00 286.09 2532.42
   12:18:12.992.20-May-2020 4766.51 5482.62 69.19 15.00 286.29 2532.42
   12:18:13.192.20-May-2020 4766.51 5483.99 69.19 15.00 286.49 2532.42
   12:18:13.392.20-May-2020 4766.51 5482.92 69.19 15.00 286.69 2532.42
   12:18:13.592.20-May-2020 4766.51 5482.83 69.19 15.00 286.89 2532.42
   12:18:13.793.20-May-2020 4766.51 5483.04 69.19 15.00 287.09 2532.42
   12:18:13.993.20-May-2020 4766.51 5482.36 69.19 15.00 287.29 2532.42
   12:18:14.193.20-May-2020 4766.51 5481.89 69.19 15.00 287.49 2532.42
   12:18:14.393.20-May-2020 4766.51 5494.41 69.19 15.00 287.69 2532.42
   12:18:14.593.20-May-2020 4766.51 5483.18 69.19 15.00 287.89 2532.42
   12:18:14.793.20-May-2020 4766.51 5482.68 69.19 15.00 288.09 2532.42
   12:18:14.993.20-May-2020 4766.51 5482.68 69.19 15.00 288.29 2532.42
   12:18:15.193.20-May-2020 4766.51 5495.30 69.19 15.00 288.49 2532.42
   12:18:15.393.20-May-2020 4766.51 5486.59 69.19 15.00 288.69 2532.42
   12:18:15.593.20-May-2020 4766.51 5483.93 69.19 15.00 288.89 2532.42
   12:18:15.793.20-May-2020 4766.51 5483.18 69.18 15.00 289.09 2532.42
   12:18:15.993.20-May-2020 4766.51 5483.18 69.18 15.00 289.29 2532.42
   12:18:16.193.20-May-2020 4766.51 5492.82 69.18 15.00 289.49 2532.42
   12:18:16.393.20-May-2020 4766.51 5484.67 69.18 15.00 289.69 2532.42
   12:18:16.593.20-May-2020 4766.51 5483.84 69.18 15.00 289.89 2532.42
   12:18:16.793.20-May-2020 4766.51 5483.51 69.18 15.00 290.09 2532.42
   12:18:16.994.20-May-2020 4766.51 5483.51 69.18 15.00 290.29 2532.42
   12:18:17.194.20-May-2020 4766.51 5487.06 69.18 15.00 290.49 2532.42
   12:18:17.394.20-May-2020 4766.51 5484.21 69.18 15.00 290.69 2532.42
   12:18:17.594.20-May-2020 4766.51 5484.21 69.18 15.00 290.89 2532.42
   12:18:17.794.20-May-2020 4766.51 5483.70 69.18 15.00 291.09 2532.42
   12:18:17.994.20-May-2020 4766.51 5485.75 69.18 15.00 291.29 2532.42
   12:18:18.194.20-May-2020 4766.51 5483.91 69.18 15.00 291.49 2532.42
   12:18:18.394.20-May-2020 4766.51 5483.25 69.18 15.00 291.69 2532.42
   12:18:18.594.20-May-2020 4766.51 5483.45 69.18 15.00 291.89 2532.42
   12:18:18.794.20-May-2020 4766.51 5482.94 69.18 15.00 292.09 2532.42
   12:18:18.994.20-May-2020 4766.51 5482.94 69.18 15.00 292.29 2532.42
   12:18:19.194.20-May-2020 4766.51 5489.22 69.18 15.00 292.49 2532.42
   12:18:19.394.20-May-2020 4766.51 5482.83 69.18 15.00 292.69 2532.42
   12:18:19.594.20-May-2020 4766.51 5482.71 69.18 15.00 292.89 2532.42
   12:18:19.794.20-May-2020 4766.51 5482.06 69.18 15.00 293.09 2532.42
   12:18:19.995.20-May-2020 4766.51 5482.06 69.18 15.00 293.29 2532.42
   12:18:20.195.20-May-2020 4766.51 5483.20 69.18 15.00 293.49 2532.42
   12:18:20.395.20-May-2020 4766.51 5482.82 69.18 15.00 293.69 2532.42
