~Version Information
 VERS.                  2.0:   CWLS log ASCII Standard -VERSION 2.0
 WRAP.                   NO:   One line per depth step
~Well Information Block
#MNEM.UNIT     VALUE/NAME     DESCRIPTION
#---------     -----------    ---------------------------
 STRT.S             14:38:44 17-May-20: START TIME 14:38:44 17-May-20
 STOP.S             14:45:36 17-May-20: STOP TIME  14:45:36 17-May-20
 STEP.S                   0.00: STEP TIME
 NULL.                 -999.25: NULL VALUE
 UNIT.                     N/A:  LOGGING EQUIPMENT ID
 DCON.         Sperry Drilling:  DIRECTNL CONTR
 DOE .                     N/A:  DOE NUMBER
 JOBN.        AZ-XX-0906252240:  JOB TICKET NUMB
 MWDS.                     N/A:  MWD SHOP
 PROV.                    Baku:  PROVINCE
 STAT.                    Baku:  STATE NAME
 REGN.                   EESSA:  REGION
 BASE.              Azerbaijan:  LOGGING EQUIPMENT BASE LOCATION
 UWI .                     N/A:  UNIQUE WELL IDENTIFIER
 API .                     N/A:  API NUMBER
 MDS .        Operator Entered:  MAG DATA SOURCE
 WTYP.                Deviated:  WELL TYPE
 COMP.     BP Exploration (Caspian Sea) Ltd.:  COMPANY
 SRVC.          Turan Drilling:  CONTRACTOR
 WELL.           J23 (Slot 07):  WELL NAME
 CTRY.              Azerbaijan:  COUNTRY NAME
 FLD .                     ACG:  FIELD NAME
 PDAT.          Mean Sea Level:  PERMANENT DATUM
 RIG .             West Chirag:  RIG NAME
 SON .        AZ-XX-0906252240:  JOB NUMBER
 FTOP.          Formation Tops:  FORM TOPS DESC
 ILTD.               Lithology:  INTERP LTH DESC
 SVYD.                  Survey:  SURVEY DESC
 DMOD.             Drill Model:  DRILL MOD DESC
 HPTY.       Minimum Curvature:  HOLE POS TYPE
 NREF.                    Grid:  NORTH REFERENCE
 SPUD.               27-Aug-20:  SPUD DATE
 DATE.      00.00.00 19-May-20:  END TIME
 STIM.      03.00.00 25-Mar-20:  START TIME
 DMF .             Drill Floor:  DRILL MEAS FROM
 DFST.                        :  DIST FSL TEXT
 DFWT.                        :  DIST FWL TEXT
 CNTY.                        :  COUNTY
 LOC .                        :  LOCATION
 LMF .             Drill Floor:  LOG MEASURED FROM
 VSNS.m                   9.43:  VERT SEC N/S
 VSEW.m                  -8.91:  VERT SEC E/W
 AGAP.m                  43.00:  AIR GAP
 DEP .m                 354.17:  DEPTH
 APD .m                  43.00:  DEPTH ABOVE PD
 WDMS.m                 169.80:  WD ELEV
 EGL .m                   0.00:  GROUND ELEVATION
 EPD .m                   0.00:  ELEVATION
 AZTC.deg                 6.31:  AZM TOTAL CORR
 GRDC.deg                 0.14:  GRID CORRECTION
 MDEC.deg                 6.45:  MAGNETIC DECL
 MDIP.deg                59.56:  MAGNETIC DIP
 MFLD.nT              50295.00:  MAGNETIC FIELD
 GVFD.g                   1.00:  GRAVITY FIELD
 VSDR.deg               179.88:  VERT SEC DIRECT
 TDD .m                5150.01:  TOTAL DEPTH (DRILLER)
 SDEP.m                 864.00:  START DEPTH
 DFSL.m                   0.00:  DISTANCE FSL
 DFWL.m                   0.00:  DISTANCE FWL
 UTMY.m             4443793.85:  UTM Y
 UTMX.m              519005.06:  UTM X
 WHEW.m                  -8.91:  WELL HEAD E/W
 WHNS.m                   9.43:  WELL HEAD N/S
 LONG.deg                51.22:  LONGITUDE
 LATI.deg                40.13:  LATITUDE
 TVDS.m                  43.00:  TVDSS CORRECTN
 EKB .m                   0.00:  KB ELEVATION
 EDF .m                  43.00:  DF ELEVATION
 TDL .m                 363.00:  TOTAL DEPTH (LOGGER)
 MAGU.                 1850802:  MAGUTM CHECKSUM
 VSC .                       0:  VS TO CLOSURE
~Parameter Information Block
#MNEM.UNIT       Value        Description
#---------     -----------    ---------------------------
 AV  .mps                 2.30:  Ann Velocity 
 AVMX.mps                 4.40:  Max Ann Veloc 
 AZIF.deg               110.24:  Azm, Final 
 BHAT.        Rotary Steerable:  BHA Type 
 BREV.rev               331.00:  Rev Bit Total 
 BROT.°/30m               0.00:  Build Rotating 
 BS  .in                  8.50:  Bit Size 
 BSZ .in                  8.50:  Bit Size 
 BTPL.psig              585.00:  Bit Press Loss 
 CABU.                     Yes:  Customer Abuse 
 COMM.                     ÔF[:  Run Comments 1 
 TCS .hr                122.75:  Time Ciculation Ended 
 CV  .mps                 2.67:  Crit Velocity 
 CVMX.mps                 3.56:  Max Crit Veloc 
 DD1 .          Rashad Habibov:  Direct Drillr 1 
 DD2 .         Rasim Ibrahimov:  Direct Drillr 2 
 DDSV.               Geo-Pilot:  DD Service 
 DEFF.%                  98.00:  % Det Eff 
 DLRX.°/30m               0.75:  Dogleg Rot Max 
 DLSO.°/30m               1.25:  Dogleg Oriented 
 DLSX.°/30m               2.06:  Dogleg Str Max 
 DRET.      07.45.00 17-May-20:  Drill End Time 
 DRST.      22.50.00 15-May-20:  Drill Start Tim 
 DTIM.hr                 20.75:  Time Drilling 
 EDEP.m                5124.01:  End Depth 
 ENG1.           Eldar Hajiyev:  Engineer 1 
 ENG2.        Marcelo Sandoval:  Engineer 2 
 ENG3.        Davud huseynzada:  Engineer 3 
 ENG4.          Ruslan Safarov:  Engineer 4 
 ETIM.      04.33.00 23-May-20:  End Time 
 FLOI.gpm               450.00:  Flow In 
 FLON.gpm               400.00:  Flow In Min 
 FLOS.cptm                0.00:  Fluid Loss 
 FLOX.gpm               500.00:  Flow In Max 
 FTRO.       Formation Presure:  FTWD Run Obj 
 HFLO.                      No:  High Flow 
 HPRE.                     Yes:  High Pressure 
 HTEM.                      No:  High Temp 
 HYDO.m                   1.80:  Hydro Offset 
 IFIN.deg                75.06:  Inc, Final 
 IMAX.deg                75.38:  Inc Max 
 IMIN.deg                74.69:  Inc Min 
 IMND.m                5027.38:  Inc Min Depth 
 IMXD.m                4771.61:  Inc Max Depth 
 JARR.                      No:  Jarring 
 LETM.      07.45.00 17-May-20:  Log End Time 
 LOST.hr                     0:  Lost Rig Time 
 LSTM.      22.50.00 15-May-20:  Log Start Time 
 MDCL.ppm             42000.00:  Mud Chlorides 
 MDES.     Inversion Oil/Synthetic:  Mud Desc 
 DFD .sg                  1.34:  Mud Density 
 MDMN.sg                  1.34:  Dens Mud Min 
 MDMX.sg                  1.34:  Dens Mud Max 
 MOIL.                       0:  Run Mud Oil % 
 MOWR.                   67:33:  Run Mud OWR 
 MSND.                       0:  Run Mud Sand % 
 MSOL.                     1.8:  Run Mud Solids% 
 DFV .spqt               76.00:  Mud Viscosity 
 MWOD.in                  6.75:  MWD Tool OD 
 MWSI.                      No:  Serv Intrp, MWD 
 OTIM.hr                228.19:  Time Operating 
 PCON.           Look Like New:  Pad Condition 
 PMAX.psia             6164.70:  Press Op, Max 
 PV  .cP                 28.00:  Mud PV 
 RUN .                     900:  Run Number 
 ROPA.m/hr               19.00:  ROP Avg 
 ROPN.m/hr               11.00:  ROP Min 
 ROPX.m/hr               36.00:  ROP Max 
 RPMA.rpm               120.00:  RPM Surface Avg 
 RPMN.rpm               120.00:  RPM Surface Min 
 RPMX.rpm               120.00:  RPM Surface Max 
 RRUN.                    L604:  Rig Run Number 
 RTIM.hr                  7.00:  Time Reaming 
 SAZI.deg               109.27:  Azm, Start 
 SDEP.m                4761.01:  Start Depth 
 SIDD.                      No:  Serv Intrp, DD 
 SINC.deg                75.38:  Inc, Start 
 SPPA.psig             3574.00:  SPP Avg 
 SPPN.psig             3475.00:  SPP Min 
 SPPX.psig             3791.00:  SPP Max 
 STIM.      07.08.48 13-May-20:  Start Time 
 SVCS.                 DD, MWD:  Services 
 SVER.                    9.20:  Sperry Version 
 TDAT.m                 363.00:  Tot Depth Attmp 
 TDDF.                      No:  Trip for DD 
 TDLG.m                 363.00:  Tot Depth Loggd 
 TFF .                      No:  Trip for Fail 
 TQAA.f-kp               20.00:  Torque Abs Avg 
 TQAN.f-kp               18.00:  Torque Abs Min 
 TQAX.f-kp               22.00:  Torque Abs Max 
 TRRT.°/30m              -0.35:  Turn Rotating 
 MRT .                    HCIM:  Maximum Recorded Temperature 
 TTMX.degC               92.16:  Max Tool Temp 
 VS01.                90586518:  Virtual Str1 SN 
 VS02.        AZ90560654Z1W1C6:  Virtual Str2 SN 
 VS03.           AZ90610398F11:  Virtual Str3 SN 
 VS04.                90514975:  Virtual Str4 SN 
 VS05.                90514972:  Virtual Str5 SN 
 VS06.     AZ90603282F11V7D1A6:  Virtual Str6 SN 
 WBMN.klb                 7.00:  WOB Min 
 WOBA.klb                12.00:  WOB Avg 
 WOBX.klb                14.00:  WOB Max 
 YP  .lhf2               32.00:  Yield Point 
~Curve Information Block
#MNEM.UNIT                 API CODE     Curve Description
#---------               -----------    ---------------------------
 TIME.HHMMSS            00 000 000 000:  GT Time & Date
 GTDEPTH.m              00 000 000 000:  GT Depth
 GTPQH.psia             00 000 000 000:  GT HR Quartz Pressure
 GTTQ.degC              00 000 000 000:  GT Quartz Temperature
 GTTN.NONE              00 000 000 000:  GT Test Number
 GTET.sec               00 000 000 000:  GT Elapsed Test Time
 GTTVD.m                00 000 000 000:  GT True Vertical Depth
#Other Information
#
#WARRANTY: Halliburton will use its best efforts to furnish customers with 
#accurate information and interpretations that are part of, and incident to, the services 
#provided.  However, Halliburton cannot and does not warrant the accuracy 
#or correctness of such information and interpretations.  Under no circumstances should any 
#such information or interpretation be relied upon as the sole basis for any drilling, 
#completion, production, or financial decision or any procedure involving any risk to the 
#safety of any drilling venture, drilling rig or its crew or any other third party.  The 
#Customer has full responsibility for all drilling, completion and production operation.  
#Halliburton makes no representations or warranties, either expressed or 
#implied, including, but not limited to, the implied warranties of merchantability or fitness 
#for a particular purpose, with respect to the services rendered.  In no event will 
#Halliburton be liable for failure to obtain any particular results or for 
#any damages, including, but not limited to, indirect, special or consequential damages, 
#resulting from the use of any information or interpretation provided by Halliburton.
#
~A           TIME           GTDEPTH  GTPQH  GTTQ  GTTN  GTET   GTTVD  
# ...
   14:42:11.000.17-May-2020 5087.01 2767.37 72.28 1.00 207.00 2615.39
   14:42:11.200.17-May-2020 5087.01 2767.37 72.28 1.00 207.20 2615.39
   14:42:11.400.17-May-2020 5087.01 2768.15 72.27 1.00 207.40 2615.39
   14:42:11.600.17-May-2020 5087.01 2767.18 72.27 1.00 207.60 2615.39
   14:42:11.800.17-May-2020 5087.01 2767.26 72.27 1.00 207.80 2615.39
   14:42:12.000.17-May-2020 5087.01 2767.59 72.27 1.00 208.00 2615.39
   14:42:12.200.17-May-2020 5087.01 2768.04 72.27 1.00 208.20 2615.39
   14:42:12.400.17-May-2020 5087.01 2767.08 72.27 1.00 208.40 2615.39
   14:42:12.600.17-May-2020 5087.01 2767.29 72.27 1.00 208.60 2615.39
   14:42:12.800.17-May-2020 5087.01 2767.49 72.27 1.00 208.80 2615.39
   14:42:13.000.17-May-2020 5087.01 2767.37 72.27 1.00 209.00 2615.39
   14:42:13.200.17-May-2020 5087.01 2767.24 72.27 1.00 209.20 2615.39
   14:42:13.400.17-May-2020 5087.01 2767.36 72.27 1.00 209.40 2615.39
   14:42:13.600.17-May-2020 5087.01 2767.39 72.27 1.00 209.60 2615.39
   14:42:13.800.17-May-2020 5087.01 2767.22 72.27 1.00 209.80 2615.39
   14:42:14.000.17-May-2020 5087.01 2767.30 72.27 1.00 210.00 2615.39
   14:42:14.200.17-May-2020 5087.01 2767.30 72.27 1.00 210.20 2615.39
   14:42:14.400.17-May-2020 5087.01 2767.24 72.27 1.00 210.40 2615.39
   14:42:14.600.17-May-2020 5087.01 2767.22 72.27 1.00 210.60 2615.39
   14:42:14.800.17-May-2020 5087.01 2767.38 72.27 1.00 210.80 2615.39
   14:42:15.000.17-May-2020 5087.01 2767.57 72.27 1.00 211.00 2615.39
   14:42:15.200.17-May-2020 5087.01 2767.57 72.27 1.00 211.20 2615.39
   14:42:15.400.17-May-2020 5087.01 2767.27 72.27 1.00 211.40 2615.39
   14:42:15.600.17-May-2020 5087.01 2767.48 72.27 1.00 211.60 2615.39
   14:42:15.800.17-May-2020 5087.01 2767.30 72.27 1.00 211.80 2615.39
   14:42:16.000.17-May-2020 5087.01 2767.30 72.27 1.00 212.00 2615.39
   14:42:16.200.17-May-2020 5087.01 2768.00 72.27 1.00 212.20 2615.39
   14:42:16.400.17-May-2020 5087.01 2767.29 72.27 1.00 212.40 2615.39
   14:42:16.600.17-May-2020 5087.01 2767.08 72.27 1.00 212.60 2615.39
   14:42:16.800.17-May-2020 5087.01 2767.38 72.27 1.00 212.80 2615.39
   14:42:17.000.17-May-2020 5087.01 2767.30 72.27 1.00 213.00 2615.39
   14:42:17.200.17-May-2020 5087.01 2767.30 72.27 1.00 213.20 2615.39
   14:42:17.400.17-May-2020 5087.01 2767.14 72.27 1.00 213.40 2615.39
   14:42:17.600.17-May-2020 5087.01 2767.17 72.27 1.00 213.60 2615.39
   14:42:17.800.17-May-2020 5087.01 2767.35 72.27 1.00 213.80 2615.39
   14:42:18.000.17-May-2020 5087.01 2767.78 72.27 1.00 214.00 2615.39
   14:42:18.200.17-May-2020 5087.01 2767.78 72.27 1.00 214.20 2615.39
   14:42:18.400.17-May-2020 5087.01 2767.16 72.27 1.00 214.40 2615.39
   14:42:18.600.17-May-2020 5087.01 2767.13 72.27 1.00 214.60 2615.39
   14:42:18.800.17-May-2020 5087.01 2768.30 72.27 1.00 214.80 2615.39
   14:42:19.000.17-May-2020 5087.01 2767.36 72.27 1.00 215.00 2615.39
   14:42:19.200.17-May-2020 5087.01 2767.36 72.27 1.00 215.20 2615.39
   14:42:19.400.17-May-2020 5087.01 2767.37 72.27 1.00 215.40 2615.39
   14:42:19.600.17-May-2020 5087.01 2767.55 72.27 1.00 215.60 2615.39
   14:42:19.800.17-May-2020 5087.01 2767.26 72.27 1.00 215.80 2615.39
   14:42:20.000.17-May-2020 5087.01 2767.26 72.27 1.00 216.00 2615.39
   14:42:20.200.17-May-2020 5087.01 2767.26 72.27 1.00 216.20 2615.39
   14:42:20.400.17-May-2020 5087.01 2767.28 72.27 1.00 216.40 2615.39
   14:42:20.600.17-May-2020 5087.01 2767.28 72.27 1.00 216.60 2615.39
   14:42:20.800.17-May-2020 5087.01 2767.28 72.27 1.00 216.80 2615.39
   14:42:21.000.17-May-2020 5087.01 2768.10 72.27 1.00 217.00 2615.39
   14:42:21.200.17-May-2020 5087.01 2768.10 72.27 1.00 217.20 2615.39
   14:42:21.400.17-May-2020 5087.01 2767.18 72.27 1.00 217.40 2615.39
   14:42:21.600.17-May-2020 5087.01 2767.39 72.27 1.00 217.60 2615.39
   14:42:21.800.17-May-2020 5087.01 2767.54 72.27 1.00 217.80 2615.39
   14:42:22.000.17-May-2020 5087.01 2767.22 72.27 1.00 218.00 2615.39
   14:42:22.200.17-May-2020 5087.01 2767.22 72.27 1.00 218.20 2615.39
   14:42:22.400.17-May-2020 5087.01 2767.35 72.27 1.00 218.40 2615.39
   14:42:22.600.17-May-2020 5087.01 2767.33 72.27 1.00 218.60 2615.39
   14:42:22.800.17-May-2020 5087.01 2767.07 72.27 1.00 218.80 2615.39
   14:42:23.000.17-May-2020 5087.01 2768.24 72.27 1.00 219.00 2615.39
   14:42:23.200.17-May-2020 5087.01 2768.24 72.27 1.00 219.20 2615.39
   14:42:23.400.17-May-2020 5087.01 2767.25 72.27 1.00 219.40 2615.39
   14:42:23.600.17-May-2020 5087.01 2767.28 72.27 1.00 219.60 2615.39
   14:42:23.800.17-May-2020 5087.01 2767.71 72.27 1.00 219.80 2615.39
   14:42:24.000.17-May-2020 5087.01 2767.86 72.27 1.00 220.00 2615.39
   14:42:24.200.17-May-2020 5087.01 2767.13 72.27 1.00 220.20 2615.39
   14:42:24.400.17-May-2020 5087.01 2767.34 72.26 1.00 220.40 2615.39
   14:42:24.600.17-May-2020 5087.01 2767.58 72.26 1.00 220.60 2615.39
   14:42:24.800.17-May-2020 5087.01 2768.05 72.26 1.00 220.80 2615.39
   14:42:25.000.17-May-2020 5087.01 2767.04 72.26 1.00 221.00 2615.39
   14:42:25.200.17-May-2020 5087.01 2767.04 72.26 1.00 221.20 2615.39
   14:42:25.400.17-May-2020 5087.01 2767.26 72.26 1.00 221.40 2615.39
   14:42:25.600.17-May-2020 5087.01 2768.31 72.26 1.00 221.60 2615.39
   14:42:25.800.17-May-2020 5087.01 2767.14 72.26 1.00 221.80 2615.39
   14:42:26.000.17-May-2020 5087.01 2767.22 72.26 1.00 222.00 2615.39
   14:42:26.200.17-May-2020 5087.01 2767.22 72.26 1.00 222.20 2615.39
   14:42:26.400.17-May-2020 5087.01 2767.43 72.26 1.00 222.40 2615.39
   14:42:26.600.17-May-2020 5087.01 2767.22 72.26 1.00 222.60 2615.39
   14:42:26.800.17-May-2020 5087.01 2767.42 72.26 1.00 222.80 2615.39
   14:42:27.000.17-May-2020 5087.01 2767.41 72.26 1.00 223.00 2615.39
   14:42:27.200.17-May-2020 5087.01 2767.41 72.26 1.00 223.20 2615.39
   14:42:27.400.17-May-2020 5087.01 2767.26 72.26 1.00 223.40 2615.39
   14:42:27.600.17-May-2020 5087.01 2768.00 72.26 1.00 223.60 2615.39
   14:42:27.800.17-May-2020 5087.01 2767.32 72.26 1.00 223.80 2615.39
   14:42:28.000.17-May-2020 5087.01 2767.16 72.26 1.00 224.00 2615.39
   14:42:28.200.17-May-2020 5087.01 2767.34 72.26 1.00 224.20 2615.39
   14:42:28.400.17-May-2020 5087.01 2767.55 72.26 1.00 224.40 2615.39
   14:42:28.600.17-May-2020 5087.01 2767.45 72.26 1.00 224.60 2615.39
   14:42:28.800.17-May-2020 5087.01 2767.29 72.26 1.00 224.80 2615.39
   14:42:29.000.17-May-2020 5087.01 2767.35 72.26 1.00 225.00 2615.39
   14:42:29.200.17-May-2020 5087.01 2767.44 72.26 1.00 225.20 2615.39
   14:42:29.400.17-May-2020 5087.01 2767.35 72.26 1.00 225.40 2615.39
   14:42:29.600.17-May-2020 5087.01 2767.48 72.26 1.00 225.60 2615.39
   14:42:29.800.17-May-2020 5087.01 2767.92 72.26 1.00 225.80 2615.39
   14:42:30.000.17-May-2020 5087.01 2767.23 72.26 1.00 226.00 2615.39
   14:42:30.200.17-May-2020 5087.01 2767.23 72.26 1.00 226.20 2615.39
   14:42:30.400.17-May-2020 5087.01 2767.68 72.26 1.00 226.40 2615.39
   14:42:30.600.17-May-2020 5087.01 2768.43 72.26 1.00 226.60 2615.39
   14:42:30.800.17-May-2020 5087.01 2767.40 72.26 1.00 226.80 2615.39
   14:42:31.000.17-May-2020 5087.01 2767.44 72.26 1.00 227.00 2615.39
   14:42:31.200.17-May-2020 5087.01 2767.44 72.26 1.00 227.20 2615.39
   14:42:31.400.17-May-2020 5087.01 2767.67 72.26 1.00 227.40 2615.39
   14:42:31.600.17-May-2020 5087.01 2768.61 72.26 1.00 227.60 2615.39
   14:42:31.800.17-May-2020 5087.01 2767.39 72.26 1.00 227.80 2615.39
   14:42:32.000.17-May-2020 5087.01 2767.43 72.26 1.00 228.00 2615.39
   14:42:32.200.17-May-2020 5087.01 2768.45 72.26 1.00 228.20 2615.39
   14:42:32.400.17-May-2020 5087.01 2767.95 72.26 1.00 228.40 2615.39
   14:42:32.600.17-May-2020 5087.01 2767.23 72.26 1.00 228.60 2615.39
   14:42:32.800.17-May-2020 5087.01 2767.57 72.26 1.00 228.80 2615.39
   14:42:33.000.17-May-2020 5087.01 2767.68 72.26 1.00 229.00 2615.39
   14:42:33.200.17-May-2020 5087.01 2767.39 72.26 1.00 229.20 2615.39
   14:42:33.400.17-May-2020 5087.01 2767.35 72.26 1.00 229.40 2615.39
   14:42:33.600.17-May-2020 5087.01 2767.63 72.26 1.00 229.60 2615.39
   14:42:33.800.17-May-2020 5087.01 2767.41 72.26 1.00 229.80 2615.39
