~Version Information
 VERS.                  2.0:   CWLS log ASCII Standard -VERSION 2.0
 WRAP.                   NO:   One line per depth step
~Well Information Block
#MNEM.UNIT     VALUE/NAME     DESCRIPTION
#---------     -----------    ---------------------------
 STRT.S             20:30:46 17-May-20: START TIME 20:30:46 17-May-20
 STOP.S             20:37:50 17-May-20: STOP TIME  20:37:50 17-May-20
 STEP.S                   0.00: STEP TIME
 NULL.                 -999.25: NULL VALUE
 UNIT.                     N/A:  LOGGING EQUIPMENT ID
 DCON.         Sperry Drilling:  DIRECTNL CONTR
 DOE .                     N/A:  DOE NUMBER
 JOBN.        AZ-XX-0906252240:  JOB TICKET NUMB
 MWDS.                     N/A:  MWD SHOP
 PROV.                    Baku:  PROVINCE
 STAT.                    Baku:  STATE NAME
 REGN.                   EESSA:  REGION
 BASE.              Azerbaijan:  LOGGING EQUIPMENT BASE LOCATION
 UWI .                     N/A:  UNIQUE WELL IDENTIFIER
 API .                     N/A:  API NUMBER
 MDS .        Operator Entered:  MAG DATA SOURCE
 WTYP.                Deviated:  WELL TYPE
 COMP.     BP Exploration (Caspian Sea) Ltd.:  COMPANY
 SRVC.          Turan Drilling:  CONTRACTOR
 WELL.           J23 (Slot 07):  WELL NAME
 CTRY.              Azerbaijan:  COUNTRY NAME
 FLD .                     ACG:  FIELD NAME
 PDAT.          Mean Sea Level:  PERMANENT DATUM
 RIG .             West Chirag:  RIG NAME
 SON .        AZ-XX-0906252240:  JOB NUMBER
 FTOP.          Formation Tops:  FORM TOPS DESC
 ILTD.               Lithology:  INTERP LTH DESC
 SVYD.                  Survey:  SURVEY DESC
 DMOD.             Drill Model:  DRILL MOD DESC
 HPTY.       Minimum Curvature:  HOLE POS TYPE
 NREF.                    Grid:  NORTH REFERENCE
 SPUD.               27-Aug-20:  SPUD DATE
 DATE.      00.00.00 19-May-20:  END TIME
 STIM.      03.00.00 25-Mar-20:  START TIME
 DMF .             Drill Floor:  DRILL MEAS FROM
 DFST.                        :  DIST FSL TEXT
 DFWT.                        :  DIST FWL TEXT
 CNTY.                        :  COUNTY
 LOC .                        :  LOCATION
 LMF .             Drill Floor:  LOG MEASURED FROM
 VSNS.m                   9.43:  VERT SEC N/S
 VSEW.m                  -8.91:  VERT SEC E/W
 AGAP.m                  43.00:  AIR GAP
 DEP .m                 354.17:  DEPTH
 APD .m                  43.00:  DEPTH ABOVE PD
 WDMS.m                 169.80:  WD ELEV
 EGL .m                   0.00:  GROUND ELEVATION
 EPD .m                   0.00:  ELEVATION
 AZTC.deg                 6.31:  AZM TOTAL CORR
 GRDC.deg                 0.14:  GRID CORRECTION
 MDEC.deg                 6.45:  MAGNETIC DECL
 MDIP.deg                59.56:  MAGNETIC DIP
 MFLD.nT              50295.00:  MAGNETIC FIELD
 GVFD.g                   1.00:  GRAVITY FIELD
 VSDR.deg               179.88:  VERT SEC DIRECT
 TDD .m                5150.01:  TOTAL DEPTH (DRILLER)
 SDEP.m                 864.00:  START DEPTH
 DFSL.m                   0.00:  DISTANCE FSL
 DFWL.m                   0.00:  DISTANCE FWL
 UTMY.m             4443793.85:  UTM Y
 UTMX.m              519005.06:  UTM X
 WHEW.m                  -8.91:  WELL HEAD E/W
 WHNS.m                   9.43:  WELL HEAD N/S
 LONG.deg                51.22:  LONGITUDE
 LATI.deg                40.13:  LATITUDE
 TVDS.m                  43.00:  TVDSS CORRECTN
 EKB .m                   0.00:  KB ELEVATION
 EDF .m                  43.00:  DF ELEVATION
 TDL .m                 363.00:  TOTAL DEPTH (LOGGER)
 MAGU.                 1850802:  MAGUTM CHECKSUM
 VSC .                       0:  VS TO CLOSURE
~Parameter Information Block
#MNEM.UNIT       Value        Description
#---------     -----------    ---------------------------
 AV  .mps                 2.30:  Ann Velocity 
 AVMX.mps                 4.40:  Max Ann Veloc 
 AZIF.deg               110.24:  Azm, Final 
 BHAT.        Rotary Steerable:  BHA Type 
 BREV.rev               331.00:  Rev Bit Total 
 BROT.°/30m               0.00:  Build Rotating 
 BS  .in                  8.50:  Bit Size 
 BSZ .in                  8.50:  Bit Size 
 BTPL.psig              585.00:  Bit Press Loss 
 CABU.                     Yes:  Customer Abuse 
 TCS .hr                122.75:  Time Ciculation Ended 
 CV  .mps                 2.67:  Crit Velocity 
 CVMX.mps                 3.56:  Max Crit Veloc 
 DD1 .          Rashad Habibov:  Direct Drillr 1 
 DD2 .         Rasim Ibrahimov:  Direct Drillr 2 
 DDSV.               Geo-Pilot:  DD Service 
 DEFF.%                  98.00:  % Det Eff 
 DLRX.°/30m               0.75:  Dogleg Rot Max 
 DLSO.°/30m               1.25:  Dogleg Oriented 
 DLSX.°/30m               2.06:  Dogleg Str Max 
 DRET.      07.45.00 17-May-20:  Drill End Time 
 DRST.      22.50.00 15-May-20:  Drill Start Tim 
 DTIM.hr                 20.75:  Time Drilling 
 EDEP.m                5124.01:  End Depth 
 ENG1.           Eldar Hajiyev:  Engineer 1 
 ENG2.        Marcelo Sandoval:  Engineer 2 
 ENG3.        Davud huseynzada:  Engineer 3 
 ENG4.          Ruslan Safarov:  Engineer 4 
 ETIM.      04.33.00 23-May-20:  End Time 
 FLOI.gpm               450.00:  Flow In 
 FLON.gpm               400.00:  Flow In Min 
 FLOS.cptm                0.00:  Fluid Loss 
 FLOX.gpm               500.00:  Flow In Max 
 FTRO.       Formation Presure:  FTWD Run Obj 
 HFLO.                      No:  High Flow 
 HPRE.                     Yes:  High Pressure 
 HTEM.                      No:  High Temp 
 HYDO.m                   1.80:  Hydro Offset 
 IFIN.deg                75.06:  Inc, Final 
 IMAX.deg                75.38:  Inc Max 
 IMIN.deg                74.69:  Inc Min 
 IMND.m                5027.38:  Inc Min Depth 
 IMXD.m                4771.61:  Inc Max Depth 
 JARR.                      No:  Jarring 
 LETM.      07.45.00 17-May-20:  Log End Time 
 LOST.hr                     0:  Lost Rig Time 
 LSTM.      22.50.00 15-May-20:  Log Start Time 
 MDCL.ppm             42000.00:  Mud Chlorides 
 MDES.     Inversion Oil/Synthetic:  Mud Desc 
 DFD .sg                  1.34:  Mud Density 
 MDMN.sg                  1.34:  Dens Mud Min 
 MDMX.sg                  1.34:  Dens Mud Max 
 MOIL.                       0:  Run Mud Oil % 
 MOWR.                   67:33:  Run Mud OWR 
 MSND.                       0:  Run Mud Sand % 
 MSOL.                     1.8:  Run Mud Solids% 
 DFV .spqt               76.00:  Mud Viscosity 
 MWOD.in                  6.75:  MWD Tool OD 
 MWSI.                      No:  Serv Intrp, MWD 
 OTIM.hr                228.19:  Time Operating 
 PCON.           Look Like New:  Pad Condition 
 PMAX.psia             6164.70:  Press Op, Max 
 PV  .cP                 28.00:  Mud PV 
 RUN .                     900:  Run Number 
 ROPA.m/hr               19.00:  ROP Avg 
 ROPN.m/hr               11.00:  ROP Min 
 ROPX.m/hr               36.00:  ROP Max 
 RPMA.rpm               120.00:  RPM Surface Avg 
 RPMN.rpm               120.00:  RPM Surface Min 
 RPMX.rpm               120.00:  RPM Surface Max 
 RRUN.                    L604:  Rig Run Number 
 RTIM.hr                  7.00:  Time Reaming 
 SAZI.deg               109.27:  Azm, Start 
 SDEP.m                4761.01:  Start Depth 
 SIDD.                      No:  Serv Intrp, DD 
 SINC.deg                75.38:  Inc, Start 
 SPPA.psig             3574.00:  SPP Avg 
 SPPN.psig             3475.00:  SPP Min 
 SPPX.psig             3791.00:  SPP Max 
 STIM.      07.08.48 13-May-20:  Start Time 
 SVCS.                 DD, MWD:  Services 
 SVER.                    9.20:  Sperry Version 
 TDAT.m                 363.00:  Tot Depth Attmp 
 TDDF.                      No:  Trip for DD 
 TDLG.m                 363.00:  Tot Depth Loggd 
 TFF .                      No:  Trip for Fail 
 TQAA.f-kp               20.00:  Torque Abs Avg 
 TQAN.f-kp               18.00:  Torque Abs Min 
 TQAX.f-kp               22.00:  Torque Abs Max 
 TRRT.°/30m              -0.35:  Turn Rotating 
 MRT .                    HCIM:  Maximum Recorded Temperature 
 TTMX.degC               92.16:  Max Tool Temp 
 VS01.                90586518:  Virtual Str1 SN 
 VS02.        AZ90560654Z1W1C6:  Virtual Str2 SN 
 VS03.           AZ90610398F11:  Virtual Str3 SN 
 VS04.                90514975:  Virtual Str4 SN 
 VS05.                90514972:  Virtual Str5 SN 
 VS06.     AZ90603282F11V7D1A6:  Virtual Str6 SN 
 WBMN.klb                 7.00:  WOB Min 
 WOBA.klb                12.00:  WOB Avg 
 WOBX.klb                14.00:  WOB Max 
 YP  .lhf2               32.00:  Yield Point 
~Curve Information Block
#MNEM.UNIT                 API CODE     Curve Description
#---------               -----------    ---------------------------
 TIME.HHMMSS            00 000 000 000:  GT Time & Date
 GTDEPTH.m              00 000 000 000:  GT Depth
 GTPQH.psia             00 000 000 000:  GT HR Quartz Pressure
 GTTQ.degC              00 000 000 000:  GT Quartz Temperature
 GTTN.NONE              00 000 000 000:  GT Test Number
 GTET.sec               00 000 000 000:  GT Elapsed Test Time
 GTTVD.m                00 000 000 000:  GT True Vertical Depth
#Other Information
#
#WARRANTY: Halliburton will use its best efforts to furnish customers with 
#accurate information and interpretations that are part of, and incident to, the services 
#provided.  However, Halliburton cannot and does not warrant the accuracy 
#or correctness of such information and interpretations.  Under no circumstances should any 
#such information or interpretation be relied upon as the sole basis for any drilling, 
#completion, production, or financial decision or any procedure involving any risk to the 
#safety of any drilling venture, drilling rig or its crew or any other third party.  The 
#Customer has full responsibility for all drilling, completion and production operation.  
#Halliburton makes no representations or warranties, either expressed or 
#implied, including, but not limited to, the implied warranties of merchantability or fitness 
#for a particular purpose, with respect to the services rendered.  In no event will 
#Halliburton be liable for failure to obtain any particular results or for 
#any damages, including, but not limited to, indirect, special or consequential damages, 
#resulting from the use of any information or interpretation provided by Halliburton.
#
~A           TIME           GTDEPTH  GTPQH  GTTQ  GTTN  GTET   GTTVD  
# ...
   20:34:59.341.17-May-2020 4971.01 2894.16 68.69 5.00 252.98 2585.16
   20:34:59.541.17-May-2020 4971.01 2894.16 68.69 5.00 253.18 2585.16
   20:34:59.741.17-May-2020 4971.01 2894.13 68.69 5.00 253.38 2585.16
   20:34:59.941.17-May-2020 4971.01 2894.10 68.69 5.00 253.58 2585.16
   20:35:00.141.17-May-2020 4971.01 2894.21 68.69 5.00 253.78 2585.16
   20:35:00.341.17-May-2020 4971.01 2894.09 68.69 5.00 253.98 2585.16
   20:35:00.541.17-May-2020 4971.01 2894.13 68.69 5.00 254.18 2585.16
   20:35:00.741.17-May-2020 4971.01 2894.14 68.69 5.00 254.38 2585.16
   20:35:00.941.17-May-2020 4971.01 2894.07 68.69 5.00 254.58 2585.16
   20:35:01.141.17-May-2020 4971.01 2894.12 68.69 5.00 254.78 2585.16
   20:35:01.341.17-May-2020 4971.01 2894.11 68.69 5.00 254.98 2585.16
   20:35:01.541.17-May-2020 4971.01 2894.11 68.69 5.00 255.18 2585.16
   20:35:01.741.17-May-2020 4971.01 2894.11 68.69 5.00 255.38 2585.16
   20:35:01.941.17-May-2020 4971.01 2894.11 68.69 5.00 255.58 2585.16
   20:35:02.141.17-May-2020 4971.01 2894.11 68.69 5.00 255.78 2585.16
   20:35:02.341.17-May-2020 4971.01 2894.25 68.69 5.00 255.98 2585.16
   20:35:02.541.17-May-2020 4971.01 2894.25 68.69 5.00 256.18 2585.16
   20:35:02.741.17-May-2020 4971.01 2894.11 68.69 5.00 256.38 2585.16
   20:35:02.941.17-May-2020 4971.01 2894.12 68.69 5.00 256.58 2585.16
   20:35:03.141.17-May-2020 4971.01 2894.12 68.69 5.00 256.78 2585.16
   20:35:03.341.17-May-2020 4971.01 2894.11 68.69 5.00 256.98 2585.16
   20:35:03.541.17-May-2020 4971.01 2894.11 68.69 5.00 257.18 2585.16
   20:35:03.741.17-May-2020 4971.01 2894.12 68.69 5.00 257.38 2585.16
   20:35:03.941.17-May-2020 4971.01 2894.10 68.69 5.00 257.58 2585.16
   20:35:04.141.17-May-2020 4971.01 2894.11 68.69 5.00 257.78 2585.16
   20:35:04.341.17-May-2020 4971.01 2894.20 68.69 5.00 257.98 2585.16
   20:35:04.541.17-May-2020 4971.01 2894.07 68.69 5.00 258.18 2585.16
   20:35:04.741.17-May-2020 4971.01 2894.15 68.69 5.00 258.38 2585.16
   20:35:04.941.17-May-2020 4971.01 2894.13 68.69 5.00 258.58 2585.16
   20:35:05.141.17-May-2020 4971.01 2894.16 68.69 5.00 258.78 2585.16
   20:35:05.341.17-May-2020 4971.01 2894.10 68.69 5.00 258.98 2585.16
   20:35:05.541.17-May-2020 4971.01 2894.10 68.69 5.00 259.18 2585.16
   20:35:05.741.17-May-2020 4971.01 2894.13 68.68 5.00 259.38 2585.16
   20:35:05.941.17-May-2020 4971.01 2891.84 68.68 5.00 259.58 2585.16
   20:35:06.141.17-May-2020 4971.01 2888.19 68.68 5.00 259.78 2585.16
   20:35:06.341.17-May-2020 4971.01 2888.10 68.68 5.00 259.98 2585.16
   20:35:06.541.17-May-2020 4971.01 2888.10 68.68 5.00 260.18 2585.16
   20:35:06.741.17-May-2020 4971.01 2887.99 68.68 5.00 260.38 2585.16
   20:35:06.941.17-May-2020 4971.01 2888.25 68.68 5.00 260.58 2585.16
   20:35:07.141.17-May-2020 4971.01 2887.77 68.68 5.00 260.78 2585.16
   20:35:07.341.17-May-2020 4971.01 2887.97 68.68 5.00 260.98 2585.16
   20:35:07.541.17-May-2020 4971.01 2887.97 68.68 5.00 261.18 2585.16
   20:35:07.741.17-May-2020 4971.01 2887.92 68.68 5.00 261.38 2585.16
   20:35:07.941.17-May-2020 4971.01 2887.91 68.68 5.00 261.58 2585.16
   20:35:08.141.17-May-2020 4971.01 2887.80 68.68 5.00 261.78 2585.16
   20:35:08.341.17-May-2020 4971.01 2887.91 68.68 5.00 261.98 2585.16
   20:35:08.541.17-May-2020 4971.01 2887.91 68.68 5.00 262.18 2585.16
   20:35:08.741.17-May-2020 4971.01 2887.84 68.68 5.00 262.38 2585.16
   20:35:08.941.17-May-2020 4971.01 2887.84 68.68 5.00 262.58 2585.16
   20:35:09.141.17-May-2020 4971.01 2887.75 68.68 5.00 262.78 2585.16
   20:35:09.341.17-May-2020 4971.01 2888.04 68.68 5.00 262.98 2585.16
   20:35:09.541.17-May-2020 4971.01 2888.04 68.68 5.00 263.18 2585.16
   20:35:09.741.17-May-2020 4971.01 2887.79 68.68 5.00 263.38 2585.16
   20:35:09.941.17-May-2020 4971.01 2887.91 68.68 5.00 263.58 2585.16
   20:35:10.141.17-May-2020 4971.01 2887.87 68.68 5.00 263.78 2585.16
   20:35:10.341.17-May-2020 4971.01 2887.79 68.68 5.00 263.98 2585.16
   20:35:10.541.17-May-2020 4971.01 2887.79 68.68 5.00 264.18 2585.16
   20:35:10.741.17-May-2020 4971.01 2887.82 68.68 5.00 264.38 2585.16
   20:35:10.941.17-May-2020 4971.01 2887.83 68.68 5.00 264.58 2585.16
   20:35:11.140.17-May-2020 4971.01 2888.02 68.68 5.00 264.78 2585.16
   20:35:11.340.17-May-2020 4971.01 2887.37 68.68 5.00 264.98 2585.16
   20:35:11.540.17-May-2020 4971.01 2887.37 68.68 5.00 265.18 2585.16
   20:35:11.740.17-May-2020 4971.01 2887.88 68.68 5.00 265.38 2585.16
   20:35:11.940.17-May-2020 4971.01 2887.72 68.68 5.00 265.58 2585.16
   20:35:12.140.17-May-2020 4971.01 2887.95 68.68 5.00 265.78 2585.16
   20:35:12.340.17-May-2020 4971.01 2887.90 68.68 5.00 265.98 2585.16
   20:35:12.540.17-May-2020 4971.01 2887.90 68.68 5.00 266.18 2585.16
   20:35:12.740.17-May-2020 4971.01 2888.06 68.68 5.00 266.38 2585.16
   20:35:12.940.17-May-2020 4971.01 2887.65 68.68 5.00 266.58 2585.16
   20:35:13.140.17-May-2020 4971.01 2887.88 68.68 5.00 266.78 2585.16
   20:35:13.340.17-May-2020 4971.01 2887.87 68.68 5.00 266.98 2585.16
   20:35:13.540.17-May-2020 4971.01 2887.87 68.68 5.00 267.18 2585.16
   20:35:13.740.17-May-2020 4971.01 2887.75 68.68 5.00 267.38 2585.16
   20:35:13.940.17-May-2020 4971.01 2888.01 68.68 5.00 267.58 2585.16
   20:35:14.140.17-May-2020 4971.01 2887.98 68.68 5.00 267.78 2585.16
   20:35:14.340.17-May-2020 4971.01 2887.80 68.68 5.00 267.98 2585.16
   20:35:14.540.17-May-2020 4971.01 2887.80 68.68 5.00 268.18 2585.16
   20:35:14.740.17-May-2020 4971.01 2887.85 68.68 5.00 268.38 2585.16
   20:35:14.940.17-May-2020 4971.01 2887.83 68.68 5.00 268.58 2585.16
   20:35:15.140.17-May-2020 4971.01 2887.86 68.68 5.00 268.78 2585.16
   20:35:15.340.17-May-2020 4971.01 2887.93 68.68 5.00 268.98 2585.16
   20:35:15.540.17-May-2020 4971.01 2887.91 68.68 5.00 269.18 2585.16
   20:35:15.740.17-May-2020 4971.01 2888.04 68.68 5.00 269.38 2585.16
   20:35:15.940.17-May-2020 4971.01 2888.09 68.68 5.00 269.58 2585.16
   20:35:16.140.17-May-2020 4971.01 2893.42 68.68 5.00 269.78 2585.16
   20:35:16.340.17-May-2020 4971.01 2893.67 68.68 5.00 269.98 2585.16
   20:35:16.540.17-May-2020 4971.01 2893.67 68.68 5.00 270.18 2585.16
   20:35:16.740.17-May-2020 4971.01 2893.75 68.68 5.00 270.38 2585.16
   20:35:16.940.17-May-2020 4971.01 2893.77 68.68 5.00 270.58 2585.16
   20:35:17.140.17-May-2020 4971.01 2893.80 68.68 5.00 270.78 2585.16
   20:35:17.340.17-May-2020 4971.01 2893.80 68.68 5.00 270.98 2585.16
   20:35:17.540.17-May-2020 4971.01 2893.80 68.68 5.00 271.18 2585.16
   20:35:17.740.17-May-2020 4971.01 2893.83 68.68 5.00 271.38 2585.16
   20:35:17.940.17-May-2020 4971.01 2893.94 68.68 5.00 271.58 2585.16
   20:35:18.140.17-May-2020 4971.01 2894.00 68.68 5.00 271.78 2585.16
   20:35:18.340.17-May-2020 4971.01 2893.98 68.68 5.00 271.98 2585.16
   20:35:18.540.17-May-2020 4971.01 2893.97 68.68 5.00 272.18 2585.16
   20:35:18.740.17-May-2020 4971.01 2894.00 68.68 5.00 272.38 2585.16
   20:35:18.940.17-May-2020 4971.01 2894.01 68.68 5.00 272.58 2585.16
   20:35:19.140.17-May-2020 4971.01 2893.96 68.68 5.00 272.78 2585.16
   20:35:19.340.17-May-2020 4971.01 2894.08 68.68 5.00 272.98 2585.16
   20:35:19.540.17-May-2020 4971.01 2894.08 68.68 5.00 273.18 2585.16
   20:35:19.740.17-May-2020 4971.01 2894.02 68.68 5.00 273.38 2585.16
   20:35:19.940.17-May-2020 4971.01 2894.03 68.68 5.00 273.58 2585.16
   20:35:20.140.17-May-2020 4971.01 2893.94 68.68 5.00 273.78 2585.16
   20:35:20.340.17-May-2020 4971.01 2894.08 68.68 5.00 273.98 2585.16
   20:35:20.540.17-May-2020 4971.01 2894.05 68.68 5.00 274.18 2585.16
   20:35:20.740.17-May-2020 4971.01 2893.97 68.68 5.00 274.38 2585.16
   20:35:20.940.17-May-2020 4971.01 2894.02 68.68 5.00 274.58 2585.16
   20:35:21.140.17-May-2020 4971.01 2894.02 68.68 5.00 274.78 2585.16
   20:35:21.340.17-May-2020 4971.01 2894.01 68.68 5.00 274.98 2585.16
   20:35:21.540.17-May-2020 4971.01 2894.01 68.68 5.00 275.18 2585.16
   20:35:21.740.17-May-2020 4971.01 2894.01 68.68 5.00 275.38 2585.16
   20:35:21.940.17-May-2020 4971.01 2894.01 68.68 5.00 275.58 2585.16
   20:35:22.140.17-May-2020 4971.01 2894.16 68.68 5.00 275.78 2585.16
