~Version Information
 VERS.                  2.0:   CWLS log ASCII Standard -VERSION 2.0
 WRAP.                   NO:   One line per depth step
~Well Information Block
#MNEM.UNIT     VALUE/NAME     DESCRIPTION
#---------     -----------    ---------------------------
 STRT.S             00:24:31 18-May-20: START TIME 00:24:31 18-May-20
 STOP.S             00:32:03 18-May-20: STOP TIME  00:32:03 18-May-20
 STEP.S                   0.00: STEP TIME
 NULL.                 -999.25: NULL VALUE
 UNIT.                     N/A:  LOGGING EQUIPMENT ID
 DCON.         Sperry Drilling:  DIRECTNL CONTR
 DOE .                     N/A:  DOE NUMBER
 JOBN.        AZ-XX-0906252240:  JOB TICKET NUMB
 MWDS.                     N/A:  MWD SHOP
 PROV.                    Baku:  PROVINCE
 STAT.                    Baku:  STATE NAME
 REGN.                   EESSA:  REGION
 BASE.              Azerbaijan:  LOGGING EQUIPMENT BASE LOCATION
 UWI .                     N/A:  UNIQUE WELL IDENTIFIER
 API .                     N/A:  API NUMBER
 MDS .        Operator Entered:  MAG DATA SOURCE
 WTYP.                Deviated:  WELL TYPE
 COMP.     BP Exploration (Caspian Sea) Ltd.:  COMPANY
 SRVC.          Turan Drilling:  CONTRACTOR
 WELL.           J23 (Slot 07):  WELL NAME
 CTRY.              Azerbaijan:  COUNTRY NAME
 FLD .                     ACG:  FIELD NAME
 PDAT.          Mean Sea Level:  PERMANENT DATUM
 RIG .             West Chirag:  RIG NAME
 SON .        AZ-XX-0906252240:  JOB NUMBER
 FTOP.          Formation Tops:  FORM TOPS DESC
 ILTD.               Lithology:  INTERP LTH DESC
 SVYD.                  Survey:  SURVEY DESC
 DMOD.             Drill Model:  DRILL MOD DESC
 HPTY.       Minimum Curvature:  HOLE POS TYPE
 NREF.                    Grid:  NORTH REFERENCE
 SPUD.               27-Aug-20:  SPUD DATE
 DATE.      00.00.00 19-May-20:  END TIME
 STIM.      03.00.00 25-Mar-20:  START TIME
 DMF .             Drill Floor:  DRILL MEAS FROM
 DFST.                        :  DIST FSL TEXT
 DFWT.                        :  DIST FWL TEXT
 CNTY.                        :  COUNTY
 LOC .                        :  LOCATION
 LMF .             Drill Floor:  LOG MEASURED FROM
 VSNS.m                   9.43:  VERT SEC N/S
 VSEW.m                  -8.91:  VERT SEC E/W
 AGAP.m                  43.00:  AIR GAP
 DEP .m                 354.17:  DEPTH
 APD .m                  43.00:  DEPTH ABOVE PD
 WDMS.m                 169.80:  WD ELEV
 EGL .m                   0.00:  GROUND ELEVATION
 EPD .m                   0.00:  ELEVATION
 AZTC.deg                 6.31:  AZM TOTAL CORR
 GRDC.deg                 0.14:  GRID CORRECTION
 MDEC.deg                 6.45:  MAGNETIC DECL
 MDIP.deg                59.56:  MAGNETIC DIP
 MFLD.nT              50295.00:  MAGNETIC FIELD
 GVFD.g                   1.00:  GRAVITY FIELD
 VSDR.deg               179.88:  VERT SEC DIRECT
 TDD .m                5150.01:  TOTAL DEPTH (DRILLER)
 SDEP.m                 864.00:  START DEPTH
 DFSL.m                   0.00:  DISTANCE FSL
 DFWL.m                   0.00:  DISTANCE FWL
 UTMY.m             4443793.85:  UTM Y
 UTMX.m              519005.06:  UTM X
 WHEW.m                  -8.91:  WELL HEAD E/W
 WHNS.m                   9.43:  WELL HEAD N/S
 LONG.deg                51.22:  LONGITUDE
 LATI.deg                40.13:  LATITUDE
 TVDS.m                  43.00:  TVDSS CORRECTN
 EKB .m                   0.00:  KB ELEVATION
 EDF .m                  43.00:  DF ELEVATION
 TDL .m                 363.00:  TOTAL DEPTH (LOGGER)
 MAGU.                 1850802:  MAGUTM CHECKSUM
 VSC .                       0:  VS TO CLOSURE
~Parameter Information Block
#MNEM.UNIT       Value        Description
#---------     -----------    ---------------------------
 AV  .mps                 2.30:  Ann Velocity 
 AVMX.mps                 4.40:  Max Ann Veloc 
 AZIF.deg               110.24:  Azm, Final 
 BHAT.        Rotary Steerable:  BHA Type 
 BREV.rev               331.00:  Rev Bit Total 
 BROT.°/30m               0.00:  Build Rotating 
 BS  .in                  8.50:  Bit Size 
 BSZ .in                  8.50:  Bit Size 
 BTPL.psig              585.00:  Bit Press Loss 
 CABU.                     Yes:  Customer Abuse 
 COMM.                     ô®q:  Run Comments 1 
 TCS .hr                122.75:  Time Ciculation Ended 
 CV  .mps                 2.67:  Crit Velocity 
 CVMX.mps                 3.56:  Max Crit Veloc 
 DD1 .          Rashad Habibov:  Direct Drillr 1 
 DD2 .         Rasim Ibrahimov:  Direct Drillr 2 
 DDSV.               Geo-Pilot:  DD Service 
 DEFF.%                  98.00:  % Det Eff 
 DLRX.°/30m               0.75:  Dogleg Rot Max 
 DLSO.°/30m               1.25:  Dogleg Oriented 
 DLSX.°/30m               2.06:  Dogleg Str Max 
 DRET.      07.45.00 17-May-20:  Drill End Time 
 DRST.      22.50.00 15-May-20:  Drill Start Tim 
 DTIM.hr                 20.75:  Time Drilling 
 EDEP.m                5124.01:  End Depth 
 ENG1.           Eldar Hajiyev:  Engineer 1 
 ENG2.        Marcelo Sandoval:  Engineer 2 
 ENG3.        Davud huseynzada:  Engineer 3 
 ENG4.          Ruslan Safarov:  Engineer 4 
 ETIM.      04.33.00 23-May-20:  End Time 
 FLOI.gpm               450.00:  Flow In 
 FLON.gpm               400.00:  Flow In Min 
 FLOS.cptm                0.00:  Fluid Loss 
 FLOX.gpm               500.00:  Flow In Max 
 FTRO.       Formation Presure:  FTWD Run Obj 
 HFLO.                      No:  High Flow 
 HPRE.                     Yes:  High Pressure 
 HTEM.                      No:  High Temp 
 HYDO.m                   1.80:  Hydro Offset 
 IFIN.deg                75.06:  Inc, Final 
 IMAX.deg                75.38:  Inc Max 
 IMIN.deg                74.69:  Inc Min 
 IMND.m                5027.38:  Inc Min Depth 
 IMXD.m                4771.61:  Inc Max Depth 
 JARR.                      No:  Jarring 
 LETM.      07.45.00 17-May-20:  Log End Time 
 LOST.hr                     0:  Lost Rig Time 
 LSTM.      22.50.00 15-May-20:  Log Start Time 
 MDCL.ppm             42000.00:  Mud Chlorides 
 MDES.     Inversion Oil/Synthetic:  Mud Desc 
 DFD .sg                  1.34:  Mud Density 
 MDMN.sg                  1.34:  Dens Mud Min 
 MDMX.sg                  1.34:  Dens Mud Max 
 MOIL.                       0:  Run Mud Oil % 
 MOWR.                   67:33:  Run Mud OWR 
 MSND.                       0:  Run Mud Sand % 
 MSOL.                     1.8:  Run Mud Solids% 
 DFV .spqt               76.00:  Mud Viscosity 
 MWOD.in                  6.75:  MWD Tool OD 
 MWSI.                      No:  Serv Intrp, MWD 
 OTIM.hr                228.19:  Time Operating 
 PCON.           Look Like New:  Pad Condition 
 PMAX.psia             6164.70:  Press Op, Max 
 PV  .cP                 28.00:  Mud PV 
 RUN .                     900:  Run Number 
 ROPA.m/hr               19.00:  ROP Avg 
 ROPN.m/hr               11.00:  ROP Min 
 ROPX.m/hr               36.00:  ROP Max 
 RPMA.rpm               120.00:  RPM Surface Avg 
 RPMN.rpm               120.00:  RPM Surface Min 
 RPMX.rpm               120.00:  RPM Surface Max 
 RRUN.                    L604:  Rig Run Number 
 RTIM.hr                  7.00:  Time Reaming 
 SAZI.deg               109.27:  Azm, Start 
 SDEP.m                4761.01:  Start Depth 
 SIDD.                      No:  Serv Intrp, DD 
 SINC.deg                75.38:  Inc, Start 
 SPPA.psig             3574.00:  SPP Avg 
 SPPN.psig             3475.00:  SPP Min 
 SPPX.psig             3791.00:  SPP Max 
 STIM.      07.08.48 13-May-20:  Start Time 
 SVCS.                 DD, MWD:  Services 
 SVER.                    9.20:  Sperry Version 
 TDAT.m                 363.00:  Tot Depth Attmp 
 TDDF.                      No:  Trip for DD 
 TDLG.m                 363.00:  Tot Depth Loggd 
 TFF .                      No:  Trip for Fail 
 TQAA.f-kp               20.00:  Torque Abs Avg 
 TQAN.f-kp               18.00:  Torque Abs Min 
 TQAX.f-kp               22.00:  Torque Abs Max 
 TRRT.°/30m              -0.35:  Turn Rotating 
 MRT .                    HCIM:  Maximum Recorded Temperature 
 TTMX.degC               92.16:  Max Tool Temp 
 VS01.                90586518:  Virtual Str1 SN 
 VS02.        AZ90560654Z1W1C6:  Virtual Str2 SN 
 VS03.           AZ90610398F11:  Virtual Str3 SN 
 VS04.                90514975:  Virtual Str4 SN 
 VS05.                90514972:  Virtual Str5 SN 
 VS06.     AZ90603282F11V7D1A6:  Virtual Str6 SN 
 WBMN.klb                 7.00:  WOB Min 
 WOBA.klb                12.00:  WOB Avg 
 WOBX.klb                14.00:  WOB Max 
 YP  .lhf2               32.00:  Yield Point 
~Curve Information Block
#MNEM.UNIT                 API CODE     Curve Description
#---------               -----------    ---------------------------
 TIME.HHMMSS            00 000 000 000:  GT Time & Date
 GTDEPTH.m              00 000 000 000:  GT Depth
 GTPQH.psia             00 000 000 000:  GT HR Quartz Pressure
 GTTQ.degC              00 000 000 000:  GT Quartz Temperature
 GTTN.NONE              00 000 000 000:  GT Test Number
 GTET.sec               00 000 000 000:  GT Elapsed Test Time
 GTTVD.m                00 000 000 000:  GT True Vertical Depth
#Other Information
#
#WARRANTY: Halliburton will use its best efforts to furnish customers with 
#accurate information and interpretations that are part of, and incident to, the services 
#provided.  However, Halliburton cannot and does not warrant the accuracy 
#or correctness of such information and interpretations.  Under no circumstances should any 
#such information or interpretation be relied upon as the sole basis for any drilling, 
#completion, production, or financial decision or any procedure involving any risk to the 
#safety of any drilling venture, drilling rig or its crew or any other third party.  The 
#Customer has full responsibility for all drilling, completion and production operation.  
#Halliburton makes no representations or warranties, either expressed or 
#implied, including, but not limited to, the implied warranties of merchantability or fitness 
#for a particular purpose, with respect to the services rendered.  In no event will 
#Halliburton be liable for failure to obtain any particular results or for 
#any damages, including, but not limited to, indirect, special or consequential damages, 
#resulting from the use of any information or interpretation provided by Halliburton.
#
~A           TIME           GTDEPTH  GTPQH  GTTQ  GTTN   GTET   GTTVD  
# ...
   00:30:33.058.18-May-2020 4886.01 3643.58 66.40 10.00 361.75 2563.39
   00:30:33.258.18-May-2020 4886.01 3643.47 66.40 10.00 361.95 2563.39
   00:30:33.458.18-May-2020 4886.01 3643.72 66.40 10.00 362.15 2563.39
   00:30:33.658.18-May-2020 4886.01 3643.72 66.40 10.00 362.35 2563.39
   00:30:33.858.18-May-2020 4886.01 3643.50 66.40 10.00 362.55 2563.39
   00:30:34.058.18-May-2020 4886.01 3643.86 66.40 10.00 362.75 2563.39
   00:30:34.259.18-May-2020 4886.01 3643.27 66.40 10.00 362.95 2563.39
   00:30:34.459.18-May-2020 4886.01 3643.72 66.40 10.00 363.15 2563.39
   00:30:34.659.18-May-2020 4886.01 3643.59 66.40 10.00 363.35 2563.39
   00:30:34.859.18-May-2020 4886.01 3643.59 66.40 10.00 363.55 2563.39
   00:30:35.059.18-May-2020 4886.01 3643.54 66.40 10.00 363.75 2563.39
   00:30:35.259.18-May-2020 4886.01 3643.58 66.40 10.00 363.95 2563.39
   00:30:35.459.18-May-2020 4886.01 3643.72 66.40 10.00 364.15 2563.39
   00:30:35.659.18-May-2020 4886.01 3643.52 66.40 10.00 364.35 2563.39
   00:30:35.859.18-May-2020 4886.01 3643.57 66.40 10.00 364.55 2563.39
   00:30:36.059.18-May-2020 4886.01 3643.50 66.40 10.00 364.75 2563.39
   00:30:36.259.18-May-2020 4886.01 3643.61 66.40 10.00 364.95 2563.39
   00:30:36.459.18-May-2020 4886.01 3643.55 66.40 10.00 365.15 2563.39
   00:30:36.660.18-May-2020 4886.01 3643.55 66.40 10.00 365.35 2563.39
   00:30:36.860.18-May-2020 4886.01 3643.53 66.40 10.00 365.55 2563.39
   00:30:37.060.18-May-2020 4886.01 3643.26 66.40 10.00 365.75 2563.39
   00:30:37.260.18-May-2020 4886.01 3643.92 66.40 10.00 365.95 2563.39
   00:30:37.460.18-May-2020 4886.01 3643.71 66.40 10.00 366.15 2563.39
   00:30:37.660.18-May-2020 4886.01 3643.71 66.40 10.00 366.35 2563.39
   00:30:37.860.18-May-2020 4886.01 3643.57 66.40 10.00 366.55 2563.39
   00:30:38.060.18-May-2020 4886.01 3643.57 66.40 10.00 366.75 2563.39
   00:30:38.260.18-May-2020 4886.01 3643.57 66.40 10.00 366.95 2563.39
   00:30:38.460.18-May-2020 4886.01 3643.57 66.40 10.00 367.15 2563.39
   00:30:38.660.18-May-2020 4886.01 3643.58 66.40 10.00 367.35 2563.39
   00:30:38.860.18-May-2020 4886.01 3643.58 66.40 10.00 367.55 2563.39
   00:30:39.060.18-May-2020 4886.01 3643.54 66.40 10.00 367.75 2563.39
   00:30:39.261.18-May-2020 4886.01 3643.85 66.40 10.00 367.95 2563.39
   00:30:39.461.18-May-2020 4886.01 3643.37 66.40 10.00 368.15 2563.39
   00:30:39.661.18-May-2020 4886.01 3643.72 66.40 10.00 368.35 2563.39
   00:30:39.861.18-May-2020 4886.01 3643.60 66.40 10.00 368.55 2563.39
   00:30:40.061.18-May-2020 4886.01 3643.82 66.40 10.00 368.75 2563.39
   00:30:40.261.18-May-2020 4886.01 3643.29 66.40 10.00 368.95 2563.39
   00:30:40.461.18-May-2020 4886.01 3643.76 66.40 10.00 369.15 2563.39
   00:30:40.661.18-May-2020 4886.01 3643.76 66.40 10.00 369.35 2563.39
   00:30:40.861.18-May-2020 4886.01 3643.76 66.40 10.00 369.55 2563.39
   00:30:41.061.18-May-2020 4886.01 3643.50 66.40 10.00 369.75 2563.39
   00:30:41.261.18-May-2020 4886.01 3643.79 66.40 10.00 369.95 2563.39
   00:30:41.461.18-May-2020 4886.01 3643.50 66.40 10.00 370.15 2563.39
   00:30:41.662.18-May-2020 4886.01 3643.50 66.40 10.00 370.35 2563.39
   00:30:41.862.18-May-2020 4886.01 3643.85 66.40 10.00 370.55 2563.39
   00:30:42.062.18-May-2020 4886.01 3643.76 66.40 10.00 370.75 2563.39
   00:30:42.262.18-May-2020 4886.01 3643.59 66.40 10.00 370.95 2563.39
   00:30:42.462.18-May-2020 4886.01 3643.53 66.40 10.00 371.15 2563.39
   00:30:42.662.18-May-2020 4886.01 3643.53 66.40 10.00 371.35 2563.39
   00:30:42.862.18-May-2020 4886.01 3643.55 66.40 10.00 371.55 2563.39
   00:30:43.062.18-May-2020 4886.01 3643.59 66.40 10.00 371.75 2563.39
   00:30:43.262.18-May-2020 4886.01 3643.56 66.40 10.00 371.95 2563.39
   00:30:43.462.18-May-2020 4886.01 3643.60 66.40 10.00 372.15 2563.39
   00:30:43.662.18-May-2020 4886.01 3643.60 66.40 10.00 372.35 2563.39
   00:30:43.862.18-May-2020 4886.01 3643.41 66.40 10.00 372.55 2563.39
   00:30:44.062.18-May-2020 4886.01 3643.76 66.40 10.00 372.75 2563.39
   00:30:44.263.18-May-2020 4886.01 3643.69 66.40 10.00 372.95 2563.39
   00:30:44.463.18-May-2020 4886.01 3643.57 66.40 10.00 373.15 2563.39
   00:30:44.663.18-May-2020 4886.01 3643.57 66.40 10.00 373.35 2563.39
   00:30:44.863.18-May-2020 4886.01 3643.51 66.40 10.00 373.55 2563.39
   00:30:45.063.18-May-2020 4886.01 3643.61 66.40 10.00 373.75 2563.39
   00:30:45.263.18-May-2020 4886.01 3643.56 66.40 10.00 373.95 2563.39
   00:30:45.463.18-May-2020 4886.01 3643.57 66.40 10.00 374.15 2563.39
   00:30:45.663.18-May-2020 4886.01 3643.57 66.40 10.00 374.35 2563.39
   00:30:45.863.18-May-2020 4886.01 3643.33 66.40 10.00 374.55 2563.39
   00:30:46.063.18-May-2020 4886.01 3643.83 66.40 10.00 374.75 2563.39
   00:30:46.263.18-May-2020 4886.01 3643.70 66.40 10.00 374.95 2563.39
   00:30:46.463.18-May-2020 4886.01 3643.69 66.40 10.00 375.15 2563.39
   00:30:46.664.18-May-2020 4886.01 3643.40 66.40 10.00 375.35 2563.39
   00:30:46.864.18-May-2020 4886.01 3643.77 66.40 10.00 375.55 2563.39
   00:30:47.064.18-May-2020 4886.01 3643.57 66.40 10.00 375.75 2563.39
   00:30:47.264.18-May-2020 4886.01 3643.71 66.40 10.00 375.95 2563.39
   00:30:47.464.18-May-2020 4886.01 3643.12 66.40 10.00 376.15 2563.39
   00:30:47.664.18-May-2020 4886.01 3643.12 66.40 10.00 376.35 2563.39
   00:30:47.864.18-May-2020 4886.01 3643.57 66.40 10.00 376.55 2563.39
   00:30:48.064.18-May-2020 4886.01 3643.62 66.40 10.00 376.75 2563.39
   00:30:48.264.18-May-2020 4886.01 3643.54 66.40 10.00 376.95 2563.39
   00:30:48.464.18-May-2020 4886.01 3643.41 66.40 10.00 377.15 2563.39
   00:30:48.664.18-May-2020 4886.01 3643.41 66.40 10.00 377.35 2563.39
   00:30:48.864.18-May-2020 4886.01 3643.73 66.40 10.00 377.55 2563.39
   00:30:49.065.18-May-2020 4886.01 3643.52 66.40 10.00 377.75 2563.39
   00:30:49.265.18-May-2020 4886.01 3643.63 66.40 10.00 377.95 2563.39
   00:30:49.465.18-May-2020 4886.01 3643.50 66.40 10.00 378.15 2563.39
   00:30:49.665.18-May-2020 4886.01 3643.50 66.40 10.00 378.35 2563.39
   00:30:49.865.18-May-2020 4886.01 3643.56 66.40 10.00 378.55 2563.39
   00:30:50.065.18-May-2020 4886.01 3643.57 66.40 10.00 378.75 2563.39
   00:30:50.265.18-May-2020 4886.01 3643.57 66.40 10.00 378.95 2563.39
   00:30:50.465.18-May-2020 4886.01 3643.54 66.40 10.00 379.15 2563.39
   00:30:50.665.18-May-2020 4886.01 3643.81 66.40 10.00 379.35 2563.39
   00:30:50.865.18-May-2020 4886.01 3643.38 66.40 10.00 379.55 2563.39
   00:30:51.065.18-May-2020 4886.01 3643.70 66.40 10.00 379.75 2563.39
   00:30:51.265.18-May-2020 4886.01 3643.61 66.40 10.00 379.95 2563.39
   00:30:51.465.18-May-2020 4886.01 3643.58 66.40 10.00 380.15 2563.39
   00:30:51.666.18-May-2020 4886.01 3643.50 66.40 10.00 380.35 2563.39
   00:30:51.866.18-May-2020 4886.01 3643.61 66.40 10.00 380.55 2563.39
   00:30:52.066.18-May-2020 4886.01 3643.54 66.40 10.00 380.75 2563.39
   00:30:52.266.18-May-2020 4886.01 3643.58 66.40 10.00 380.95 2563.39
   00:30:52.466.18-May-2020 4886.01 3643.55 66.40 10.00 381.15 2563.39
   00:30:52.666.18-May-2020 4886.01 3643.55 66.40 10.00 381.35 2563.39
   00:30:52.866.18-May-2020 4886.01 3643.99 66.40 10.00 381.55 2563.39
   00:30:53.066.18-May-2020 4886.01 3643.71 66.40 10.00 381.75 2563.39
   00:30:53.266.18-May-2020 4886.01 3643.56 66.40 10.00 381.95 2563.39
   00:30:53.466.18-May-2020 4886.01 3643.18 66.40 10.00 382.15 2563.39
   00:30:53.666.18-May-2020 4886.01 3643.18 66.40 10.00 382.35 2563.39
   00:30:53.866.18-May-2020 4886.01 3643.73 66.40 10.00 382.55 2563.39
   00:30:54.067.18-May-2020 4886.01 3643.55 66.40 10.00 382.75 2563.39
   00:30:54.267.18-May-2020 4886.01 3643.35 66.40 10.00 382.95 2563.39
   00:30:54.467.18-May-2020 4886.01 3643.81 66.40 10.00 383.15 2563.39
   00:30:54.667.18-May-2020 4886.01 3643.63 66.40 10.00 383.35 2563.39
   00:30:54.867.18-May-2020 4886.01 3643.55 66.40 10.00 383.55 2563.39
   00:30:55.067.18-May-2020 4886.01 3643.64 66.40 10.00 383.75 2563.39
   00:30:55.267.18-May-2020 4886.01 3643.65 66.40 10.00 383.95 2563.39
   00:30:55.467.18-May-2020 4886.01 3643.43 66.40 10.00 384.15 2563.39
