~Version Information
 VERS.                  2.0:   CWLS log ASCII Standard -VERSION 2.0
 WRAP.                   NO:   One line per depth step
~Well Information Block
#MNEM.UNIT     VALUE/NAME     DESCRIPTION
#---------     -----------    ---------------------------
 STRT.S             22:49:31 17-May-20: START TIME 22:49:31 17-May-20
 STOP.S             22:56:24 17-May-20: STOP TIME  22:56:24 17-May-20
 STEP.S                   0.00: STEP TIME
 NULL.                 -999.25: NULL VALUE
 UNIT.                     N/A:  LOGGING EQUIPMENT ID
 DCON.         Sperry Drilling:  DIRECTNL CONTR
 DOE .                     N/A:  DOE NUMBER
 JOBN.        AZ-XX-0906252240:  JOB TICKET NUMB
 MWDS.                     N/A:  MWD SHOP
 PROV.                    Baku:  PROVINCE
 STAT.                    Baku:  STATE NAME
 REGN.                   EESSA:  REGION
 BASE.              Azerbaijan:  LOGGING EQUIPMENT BASE LOCATION
 UWI .                     N/A:  UNIQUE WELL IDENTIFIER
 API .                     N/A:  API NUMBER
 MDS .        Operator Entered:  MAG DATA SOURCE
 WTYP.                Deviated:  WELL TYPE
 COMP.     BP Exploration (Caspian Sea) Ltd.:  COMPANY
 SRVC.          Turan Drilling:  CONTRACTOR
 WELL.           J23 (Slot 07):  WELL NAME
 CTRY.              Azerbaijan:  COUNTRY NAME
 FLD .                     ACG:  FIELD NAME
 PDAT.          Mean Sea Level:  PERMANENT DATUM
 RIG .             West Chirag:  RIG NAME
 SON .        AZ-XX-0906252240:  JOB NUMBER
 FTOP.          Formation Tops:  FORM TOPS DESC
 ILTD.               Lithology:  INTERP LTH DESC
 SVYD.                  Survey:  SURVEY DESC
 DMOD.             Drill Model:  DRILL MOD DESC
 HPTY.       Minimum Curvature:  HOLE POS TYPE
 NREF.                    Grid:  NORTH REFERENCE
 SPUD.               27-Aug-20:  SPUD DATE
 DATE.      00.00.00 19-May-20:  END TIME
 STIM.      03.00.00 25-Mar-20:  START TIME
 DMF .             Drill Floor:  DRILL MEAS FROM
 DFST.                        :  DIST FSL TEXT
 DFWT.                        :  DIST FWL TEXT
 CNTY.                        :  COUNTY
 LOC .                        :  LOCATION
 LMF .             Drill Floor:  LOG MEASURED FROM
 VSNS.m                   9.43:  VERT SEC N/S
 VSEW.m                  -8.91:  VERT SEC E/W
 AGAP.m                  43.00:  AIR GAP
 DEP .m                 354.17:  DEPTH
 APD .m                  43.00:  DEPTH ABOVE PD
 WDMS.m                 169.80:  WD ELEV
 EGL .m                   0.00:  GROUND ELEVATION
 EPD .m                   0.00:  ELEVATION
 AZTC.deg                 6.31:  AZM TOTAL CORR
 GRDC.deg                 0.14:  GRID CORRECTION
 MDEC.deg                 6.45:  MAGNETIC DECL
 MDIP.deg                59.56:  MAGNETIC DIP
 MFLD.nT              50295.00:  MAGNETIC FIELD
 GVFD.g                   1.00:  GRAVITY FIELD
 VSDR.deg               179.88:  VERT SEC DIRECT
 TDD .m                5150.01:  TOTAL DEPTH (DRILLER)
 SDEP.m                 864.00:  START DEPTH
 DFSL.m                   0.00:  DISTANCE FSL
 DFWL.m                   0.00:  DISTANCE FWL
 UTMY.m             4443793.85:  UTM Y
 UTMX.m              519005.06:  UTM X
 WHEW.m                  -8.91:  WELL HEAD E/W
 WHNS.m                   9.43:  WELL HEAD N/S
 LONG.deg                51.22:  LONGITUDE
 LATI.deg                40.13:  LATITUDE
 TVDS.m                  43.00:  TVDSS CORRECTN
 EKB .m                   0.00:  KB ELEVATION
 EDF .m                  43.00:  DF ELEVATION
 TDL .m                 363.00:  TOTAL DEPTH (LOGGER)
 MAGU.                 1850802:  MAGUTM CHECKSUM
 VSC .                       0:  VS TO CLOSURE
~Parameter Information Block
#MNEM.UNIT       Value        Description
#---------     -----------    ---------------------------
 AV  .mps                 2.30:  Ann Velocity 
 AVMX.mps                 4.40:  Max Ann Veloc 
 AZIF.deg               110.24:  Azm, Final 
 BHAT.        Rotary Steerable:  BHA Type 
 BREV.rev               331.00:  Rev Bit Total 
 BROT.°/30m               0.00:  Build Rotating 
 BS  .in                  8.50:  Bit Size 
 BSZ .in                  8.50:  Bit Size 
 BTPL.psig              585.00:  Bit Press Loss 
 CABU.                     Yes:  Customer Abuse 
 COMM.                     ¼´€:  Run Comments 1 
 TCS .hr                122.75:  Time Ciculation Ended 
 CV  .mps                 2.67:  Crit Velocity 
 CVMX.mps                 3.56:  Max Crit Veloc 
 DD1 .          Rashad Habibov:  Direct Drillr 1 
 DD2 .         Rasim Ibrahimov:  Direct Drillr 2 
 DDSV.               Geo-Pilot:  DD Service 
 DEFF.%                  98.00:  % Det Eff 
 DLRX.°/30m               0.75:  Dogleg Rot Max 
 DLSO.°/30m               1.25:  Dogleg Oriented 
 DLSX.°/30m               2.06:  Dogleg Str Max 
 DRET.      07.45.00 17-May-20:  Drill End Time 
 DRST.      22.50.00 15-May-20:  Drill Start Tim 
 DTIM.hr                 20.75:  Time Drilling 
 EDEP.m                5124.01:  End Depth 
 ENG1.           Eldar Hajiyev:  Engineer 1 
 ENG2.        Marcelo Sandoval:  Engineer 2 
 ENG3.        Davud huseynzada:  Engineer 3 
 ENG4.          Ruslan Safarov:  Engineer 4 
 ETIM.      04.33.00 23-May-20:  End Time 
 FLOI.gpm               450.00:  Flow In 
 FLON.gpm               400.00:  Flow In Min 
 FLOS.cptm                0.00:  Fluid Loss 
 FLOX.gpm               500.00:  Flow In Max 
 FTRO.       Formation Presure:  FTWD Run Obj 
 HFLO.                      No:  High Flow 
 HPRE.                     Yes:  High Pressure 
 HTEM.                      No:  High Temp 
 HYDO.m                   1.80:  Hydro Offset 
 IFIN.deg                75.06:  Inc, Final 
 IMAX.deg                75.38:  Inc Max 
 IMIN.deg                74.69:  Inc Min 
 IMND.m                5027.38:  Inc Min Depth 
 IMXD.m                4771.61:  Inc Max Depth 
 JARR.                      No:  Jarring 
 LETM.      07.45.00 17-May-20:  Log End Time 
 LOST.hr                     0:  Lost Rig Time 
 LSTM.      22.50.00 15-May-20:  Log Start Time 
 MDCL.ppm             42000.00:  Mud Chlorides 
 MDES.     Inversion Oil/Synthetic:  Mud Desc 
 DFD .sg                  1.34:  Mud Density 
 MDMN.sg                  1.34:  Dens Mud Min 
 MDMX.sg                  1.34:  Dens Mud Max 
 MOIL.                       0:  Run Mud Oil % 
 MOWR.                   67:33:  Run Mud OWR 
 MSND.                       0:  Run Mud Sand % 
 MSOL.                     1.8:  Run Mud Solids% 
 DFV .spqt               76.00:  Mud Viscosity 
 MWOD.in                  6.75:  MWD Tool OD 
 MWSI.                      No:  Serv Intrp, MWD 
 OTIM.hr                228.19:  Time Operating 
 PCON.           Look Like New:  Pad Condition 
 PMAX.psia             6164.70:  Press Op, Max 
 PV  .cP                 28.00:  Mud PV 
 RUN .                     900:  Run Number 
 ROPA.m/hr               19.00:  ROP Avg 
 ROPN.m/hr               11.00:  ROP Min 
 ROPX.m/hr               36.00:  ROP Max 
 RPMA.rpm               120.00:  RPM Surface Avg 
 RPMN.rpm               120.00:  RPM Surface Min 
 RPMX.rpm               120.00:  RPM Surface Max 
 RRUN.                    L604:  Rig Run Number 
 RTIM.hr                  7.00:  Time Reaming 
 SAZI.deg               109.27:  Azm, Start 
 SDEP.m                4761.01:  Start Depth 
 SIDD.                      No:  Serv Intrp, DD 
 SINC.deg                75.38:  Inc, Start 
 SPPA.psig             3574.00:  SPP Avg 
 SPPN.psig             3475.00:  SPP Min 
 SPPX.psig             3791.00:  SPP Max 
 STIM.      07.08.48 13-May-20:  Start Time 
 SVCS.                 DD, MWD:  Services 
 SVER.                    9.20:  Sperry Version 
 TDAT.m                 363.00:  Tot Depth Attmp 
 TDDF.                      No:  Trip for DD 
 TDLG.m                 363.00:  Tot Depth Loggd 
 TFF .                      No:  Trip for Fail 
 TQAA.f-kp               20.00:  Torque Abs Avg 
 TQAN.f-kp               18.00:  Torque Abs Min 
 TQAX.f-kp               22.00:  Torque Abs Max 
 TRRT.°/30m              -0.35:  Turn Rotating 
 MRT .                    HCIM:  Maximum Recorded Temperature 
 TTMX.degC               92.16:  Max Tool Temp 
 VS01.                90586518:  Virtual Str1 SN 
 VS02.        AZ90560654Z1W1C6:  Virtual Str2 SN 
 VS03.           AZ90610398F11:  Virtual Str3 SN 
 VS04.                90514975:  Virtual Str4 SN 
 VS05.                90514972:  Virtual Str5 SN 
 VS06.     AZ90603282F11V7D1A6:  Virtual Str6 SN 
 WBMN.klb                 7.00:  WOB Min 
 WOBA.klb                12.00:  WOB Avg 
 WOBX.klb                14.00:  WOB Max 
 YP  .lhf2               32.00:  Yield Point 
~Curve Information Block
#MNEM.UNIT                 API CODE     Curve Description
#---------               -----------    ---------------------------
 TIME.HHMMSS            00 000 000 000:  GT Time & Date
 GTDEPTH.m              00 000 000 000:  GT Depth
 GTPQH.psia             00 000 000 000:  GT HR Quartz Pressure
 GTTQ.degC              00 000 000 000:  GT Quartz Temperature
 GTTN.NONE              00 000 000 000:  GT Test Number
 GTET.sec               00 000 000 000:  GT Elapsed Test Time
 GTTVD.m                00 000 000 000:  GT True Vertical Depth
#Other Information
#
#WARRANTY: Halliburton will use its best efforts to furnish customers with 
#accurate information and interpretations that are part of, and incident to, the services 
#provided.  However, Halliburton cannot and does not warrant the accuracy 
#or correctness of such information and interpretations.  Under no circumstances should any 
#such information or interpretation be relied upon as the sole basis for any drilling, 
#completion, production, or financial decision or any procedure involving any risk to the 
#safety of any drilling venture, drilling rig or its crew or any other third party.  The 
#Customer has full responsibility for all drilling, completion and production operation.  
#Halliburton makes no representations or warranties, either expressed or 
#implied, including, but not limited to, the implied warranties of merchantability or fitness 
#for a particular purpose, with respect to the services rendered.  In no event will 
#Halliburton be liable for failure to obtain any particular results or for 
#any damages, including, but not limited to, indirect, special or consequential damages, 
#resulting from the use of any information or interpretation provided by Halliburton.
#
~A           TIME           GTDEPTH  GTPQH  GTTQ  GTTN  GTET   GTTVD  
# ...
   22:53:44.397.17-May-2020 4908.51  228.78 67.17 8.00 252.87 2569.17
   22:53:44.597.17-May-2020 4908.51  230.23 67.17 8.00 253.07 2569.17
   22:53:44.797.17-May-2020 4908.51  231.69 67.17 8.00 253.27 2569.17
   22:53:44.997.17-May-2020 4908.51  233.18 67.17 8.00 253.47 2569.17
   22:53:45.196.17-May-2020 4908.51  234.19 67.17 8.00 253.67 2569.17
   22:53:45.396.17-May-2020 4908.51  234.92 67.17 8.00 253.87 2569.17
   22:53:45.596.17-May-2020 4908.51  234.92 67.17 8.00 254.07 2569.17
   22:53:45.796.17-May-2020 4908.51  233.90 67.17 8.00 254.27 2569.17
   22:53:45.996.17-May-2020 4908.51  223.35 67.17 8.00 254.47 2569.17
   22:53:46.196.17-May-2020 4908.51  209.77 67.17 8.00 254.67 2569.17
   22:53:46.396.17-May-2020 4908.51  196.28 67.17 8.00 254.87 2569.17
   22:53:46.596.17-May-2020 4908.51  196.28 67.17 8.00 255.07 2569.17
   22:53:46.796.17-May-2020 4908.51  171.84 67.17 8.00 255.27 2569.17
   22:53:46.996.17-May-2020 4908.51  161.41 67.17 8.00 255.47 2569.17
   22:53:47.195.17-May-2020 4908.51  152.39 67.17 8.00 255.67 2569.17
   22:53:47.395.17-May-2020 4908.51  144.97 67.17 8.00 255.87 2569.17
   22:53:47.595.17-May-2020 4908.51  137.68 67.17 8.00 256.07 2569.17
   22:53:47.795.17-May-2020 4908.51  130.71 67.17 8.00 256.27 2569.17
   22:53:47.995.17-May-2020 4908.51  124.53 67.17 8.00 256.47 2569.17
   22:53:48.195.17-May-2020 4908.51  119.12 67.17 8.00 256.67 2569.17
   22:53:48.395.17-May-2020 4908.51  114.02 67.17 8.00 256.87 2569.17
   22:53:48.595.17-May-2020 4908.51  109.28 67.17 8.00 257.07 2569.17
   22:53:48.795.17-May-2020 4908.51  104.83 67.17 8.00 257.27 2569.17
   22:53:48.994.17-May-2020 4908.51  100.84 67.17 8.00 257.47 2569.17
   22:53:49.194.17-May-2020 4908.51   97.14 67.17 8.00 257.67 2569.17
   22:53:49.394.17-May-2020 4908.51   93.71 67.17 8.00 257.87 2569.17
   22:53:49.594.17-May-2020 4908.51   93.71 67.17 8.00 258.07 2569.17
   22:53:49.794.17-May-2020 4908.51   87.48 67.17 8.00 258.27 2569.17
   22:53:49.994.17-May-2020 4908.51   84.73 67.17 8.00 258.47 2569.17
   22:53:50.194.17-May-2020 4908.51   82.14 67.17 8.00 258.67 2569.17
   22:53:50.394.17-May-2020 4908.51   79.77 67.17 8.00 258.87 2569.17
   22:53:50.594.17-May-2020 4908.51   79.77 67.17 8.00 259.07 2569.17
   22:53:50.794.17-May-2020 4908.51   75.30 67.17 8.00 259.27 2569.17
   22:53:50.993.17-May-2020 4908.51   73.25 67.17 8.00 259.47 2569.17
   22:53:51.193.17-May-2020 4908.51   71.37 67.17 8.00 259.67 2569.17
   22:53:51.393.17-May-2020 4908.51   69.54 67.17 8.00 259.87 2569.17
   22:53:51.593.17-May-2020 4908.51   67.85 67.17 8.00 260.07 2569.17
   22:53:51.793.17-May-2020 4908.51   66.21 67.17 8.00 260.27 2569.17
   22:53:51.993.17-May-2020 4908.51   64.69 67.17 8.00 260.47 2569.17
   22:53:52.193.17-May-2020 4908.51   63.24 67.17 8.00 260.67 2569.17
   22:53:52.393.17-May-2020 4908.51   61.94 67.17 8.00 260.87 2569.17
   22:53:52.593.17-May-2020 4908.51   60.67 67.17 8.00 261.07 2569.17
   22:53:52.793.17-May-2020 4908.51   59.49 67.17 8.00 261.27 2569.17
   22:53:52.992.17-May-2020 4908.51   58.33 67.17 8.00 261.47 2569.17
   22:53:53.192.17-May-2020 4908.51   57.23 67.17 8.00 261.67 2569.17
   22:53:53.392.17-May-2020 4908.51   56.16 67.17 8.00 261.87 2569.17
   22:53:53.592.17-May-2020 4908.51   56.16 67.17 8.00 262.07 2569.17
   22:53:53.792.17-May-2020 4908.51   54.11 67.17 8.00 262.27 2569.17
   22:53:53.992.17-May-2020 4908.51   53.21 67.17 8.00 262.47 2569.17
   22:53:54.192.17-May-2020 4908.51   52.35 67.17 8.00 262.67 2569.17
   22:53:54.392.17-May-2020 4908.51   51.53 67.17 8.00 262.87 2569.17
   22:53:54.592.17-May-2020 4908.51   51.53 67.17 8.00 263.07 2569.17
   22:53:54.791.17-May-2020 4908.51   50.06 67.17 8.00 263.26 2569.17
   22:53:54.991.17-May-2020 4908.51   49.34 67.17 8.00 263.46 2569.17
   22:53:55.191.17-May-2020 4908.51   48.67 67.17 8.00 263.66 2569.17
   22:53:55.391.17-May-2020 4908.51   48.38 67.17 8.00 263.86 2569.17
   22:53:55.591.17-May-2020 4908.51   48.40 67.17 8.00 264.06 2569.17
   22:53:55.791.17-May-2020 4908.51   48.46 67.17 8.00 264.26 2569.17
   22:53:55.991.17-May-2020 4908.51   48.54 67.17 8.00 264.46 2569.17
   22:53:56.191.17-May-2020 4908.51   48.63 67.17 8.00 264.66 2569.17
   22:53:56.391.17-May-2020 4908.51   48.76 67.17 8.00 264.86 2569.17
   22:53:56.591.17-May-2020 4908.51   48.90 67.17 8.00 265.06 2569.17
   22:53:56.790.17-May-2020 4908.51   49.04 67.17 8.00 265.26 2569.17
   22:53:56.990.17-May-2020 4908.51   49.20 67.17 8.00 265.46 2569.17
   22:53:57.190.17-May-2020 4908.51   49.36 67.17 8.00 265.66 2569.17
   22:53:57.390.17-May-2020 4908.51   49.52 67.17 8.00 265.86 2569.17
   22:53:57.590.17-May-2020 4908.51   49.52 67.17 8.00 266.06 2569.17
   22:53:57.790.17-May-2020 4908.51   49.85 67.17 8.00 266.26 2569.17
   22:53:57.990.17-May-2020 4908.51   50.02 67.16 8.00 266.46 2569.17
   22:53:58.190.17-May-2020 4908.51   50.18 67.17 8.00 266.66 2569.17
   22:53:58.390.17-May-2020 4908.51   50.38 67.16 8.00 266.86 2569.17
   22:53:58.590.17-May-2020 4908.51   50.38 67.16 8.00 267.06 2569.17
   22:53:58.789.17-May-2020 4908.51   50.66 67.16 8.00 267.26 2569.17
   22:53:58.989.17-May-2020 4908.51   50.83 67.16 8.00 267.46 2569.17
   22:53:59.189.17-May-2020 4908.51   50.98 67.16 8.00 267.66 2569.17
   22:53:59.389.17-May-2020 4908.51   51.14 67.16 8.00 267.86 2569.17
   22:53:59.589.17-May-2020 4908.51   51.14 67.16 8.00 268.06 2569.17
   22:53:59.789.17-May-2020 4908.51   51.45 67.16 8.00 268.26 2569.17
   22:53:59.989.17-May-2020 4908.51   51.61 67.16 8.00 268.46 2569.17
   22:54:00.189.17-May-2020 4908.51   51.77 67.16 8.00 268.66 2569.17
   22:54:00.389.17-May-2020 4908.51   51.95 67.16 8.00 268.86 2569.17
   22:54:00.589.17-May-2020 4908.51   52.11 67.16 8.00 269.06 2569.17
   22:54:00.788.17-May-2020 4908.51   52.24 67.16 8.00 269.26 2569.17
   22:54:00.988.17-May-2020 4908.51   52.39 67.16 8.00 269.46 2569.17
   22:54:01.188.17-May-2020 4908.51   52.56 67.16 8.00 269.66 2569.17
   22:54:01.388.17-May-2020 4908.51   52.74 67.16 8.00 269.86 2569.17
   22:54:01.588.17-May-2020 4908.51   52.74 67.16 8.00 270.06 2569.17
   22:54:01.788.17-May-2020 4908.51   53.00 67.16 8.00 270.26 2569.17
   22:54:01.988.17-May-2020 4908.51   53.17 67.16 8.00 270.46 2569.17
   22:54:02.188.17-May-2020 4908.51   53.32 67.16 8.00 270.66 2569.17
   22:54:02.388.17-May-2020 4908.51   53.45 67.16 8.00 270.86 2569.17
   22:54:02.587.17-May-2020 4908.51   53.45 67.16 8.00 271.06 2569.17
   22:54:02.787.17-May-2020 4908.51   53.74 67.16 8.00 271.26 2569.17
   22:54:02.987.17-May-2020 4908.51   53.93 67.16 8.00 271.46 2569.17
   22:54:03.187.17-May-2020 4908.51   54.08 67.16 8.00 271.66 2569.17
   22:54:03.387.17-May-2020 4908.51   54.20 67.16 8.00 271.86 2569.17
   22:54:03.587.17-May-2020 4908.51   54.34 67.16 8.00 272.06 2569.17
   22:54:03.787.17-May-2020 4908.51   54.49 67.16 8.00 272.26 2569.17
   22:54:03.987.17-May-2020 4908.51   54.64 67.16 8.00 272.46 2569.17
   22:54:04.187.17-May-2020 4908.51   54.78 67.16 8.00 272.66 2569.17
   22:54:04.387.17-May-2020 4908.51   54.93 67.16 8.00 272.86 2569.17
   22:54:04.586.17-May-2020 4908.51   55.08 67.16 8.00 273.06 2569.17
   22:54:04.786.17-May-2020 4908.51   55.23 67.16 8.00 273.26 2569.17
   22:54:04.986.17-May-2020 4908.51   55.39 67.16 8.00 273.46 2569.17
   22:54:05.186.17-May-2020 4908.51   55.58 67.16 8.00 273.66 2569.17
   22:54:05.386.17-May-2020 4908.51   55.68 67.16 8.00 273.86 2569.17
   22:54:05.586.17-May-2020 4908.51   55.68 67.16 8.00 274.06 2569.17
   22:54:05.786.17-May-2020 4908.51   55.96 67.16 8.00 274.26 2569.17
   22:54:05.986.17-May-2020 4908.51   56.10 67.16 8.00 274.46 2569.17
   22:54:06.186.17-May-2020 4908.51   56.24 67.16 8.00 274.66 2569.17
   22:54:06.386.17-May-2020 4908.51   56.39 67.16 8.00 274.86 2569.17
   22:54:06.585.17-May-2020 4908.51   56.39 67.16 8.00 275.06 2569.17
   22:54:06.785.17-May-2020 4908.51   56.67 67.16 8.00 275.26 2569.17
   22:54:06.985.17-May-2020 4908.51   56.83 67.16 8.00 275.46 2569.17
   22:54:07.185.17-May-2020 4908.51   57.02 67.16 8.00 275.66 2569.17
