~Version Information
 VERS.                  2.0:   CWLS log ASCII Standard -VERSION 2.0
 WRAP.                   NO:   One line per depth step
~Well Information Block
#MNEM.UNIT     VALUE/NAME     DESCRIPTION
#---------     -----------    ---------------------------
 STRT.S             22:49:31 17-May-20: START TIME 22:49:31 17-May-20
 STOP.S             22:56:24 17-May-20: STOP TIME  22:56:24 17-May-20
 STEP.S                   0.00: STEP TIME
 NULL.                 -999.25: NULL VALUE
 UNIT.                     N/A:  LOGGING EQUIPMENT ID
 DCON.         Sperry Drilling:  DIRECTNL CONTR
 DOE .                     N/A:  DOE NUMBER
 JOBN.        AZ-XX-0906252240:  JOB TICKET NUMB
 MWDS.                     N/A:  MWD SHOP
 PROV.                    Baku:  PROVINCE
 STAT.                    Baku:  STATE NAME
 REGN.                   EESSA:  REGION
 BASE.              Azerbaijan:  LOGGING EQUIPMENT BASE LOCATION
 UWI .                     N/A:  UNIQUE WELL IDENTIFIER
 API .                     N/A:  API NUMBER
 MDS .        Operator Entered:  MAG DATA SOURCE
 WTYP.                Deviated:  WELL TYPE
 COMP.     BP Exploration (Caspian Sea) Ltd.:  COMPANY
 SRVC.          Turan Drilling:  CONTRACTOR
 WELL.           J23 (Slot 07):  WELL NAME
 CTRY.              Azerbaijan:  COUNTRY NAME
 FLD .                     ACG:  FIELD NAME
 PDAT.          Mean Sea Level:  PERMANENT DATUM
 RIG .             West Chirag:  RIG NAME
 SON .        AZ-XX-0906252240:  JOB NUMBER
 FTOP.          Formation Tops:  FORM TOPS DESC
 ILTD.               Lithology:  INTERP LTH DESC
 SVYD.                  Survey:  SURVEY DESC
 DMOD.             Drill Model:  DRILL MOD DESC
 HPTY.       Minimum Curvature:  HOLE POS TYPE
 NREF.                    Grid:  NORTH REFERENCE
 SPUD.               27-Aug-20:  SPUD DATE
 DATE.      00.00.00 19-May-20:  END TIME
 STIM.      03.00.00 25-Mar-20:  START TIME
 DMF .             Drill Floor:  DRILL MEAS FROM
 DFST.                        :  DIST FSL TEXT
 DFWT.                        :  DIST FWL TEXT
 CNTY.                        :  COUNTY
 LOC .                        :  LOCATION
 LMF .             Drill Floor:  LOG MEASURED FROM
 VSNS.m                   9.43:  VERT SEC N/S
 VSEW.m                  -8.91:  VERT SEC E/W
 AGAP.m                  43.00:  AIR GAP
 DEP .m                 354.17:  DEPTH
 APD .m                  43.00:  DEPTH ABOVE PD
 WDMS.m                 169.80:  WD ELEV
 EGL .m                   0.00:  GROUND ELEVATION
 EPD .m                   0.00:  ELEVATION
 AZTC.deg                 6.31:  AZM TOTAL CORR
 GRDC.deg                 0.14:  GRID CORRECTION
 MDEC.deg                 6.45:  MAGNETIC DECL
 MDIP.deg                59.56:  MAGNETIC DIP
 MFLD.nT              50295.00:  MAGNETIC FIELD
 GVFD.g                   1.00:  GRAVITY FIELD
 VSDR.deg               179.88:  VERT SEC DIRECT
 TDD .m                5150.01:  TOTAL DEPTH (DRILLER)
 SDEP.m                 864.00:  START DEPTH
 DFSL.m                   0.00:  DISTANCE FSL
 DFWL.m                   0.00:  DISTANCE FWL
 UTMY.m             4443793.85:  UTM Y
 UTMX.m              519005.06:  UTM X
 WHEW.m                  -8.91:  WELL HEAD E/W
 WHNS.m                   9.43:  WELL HEAD N/S
 LONG.deg                51.22:  LONGITUDE
 LATI.deg                40.13:  LATITUDE
 TVDS.m                  43.00:  TVDSS CORRECTN
 EKB .m                   0.00:  KB ELEVATION
 EDF .m                  43.00:  DF ELEVATION
 TDL .m                 363.00:  TOTAL DEPTH (LOGGER)
 MAGU.                 1850802:  MAGUTM CHECKSUM
 VSC .                       0:  VS TO CLOSURE
~Parameter Information Block
#MNEM.UNIT       Value        Description
#---------     -----------    ---------------------------
 AV  .mps                 2.30:  Ann Velocity 
 AVMX.mps                 4.40:  Max Ann Veloc 
 AZIF.deg               110.24:  Azm, Final 
 BHAT.        Rotary Steerable:  BHA Type 
 BREV.rev               331.00:  Rev Bit Total 
 BROT.°/30m               0.00:  Build Rotating 
 BS  .in                  8.50:  Bit Size 
 BSZ .in                  8.50:  Bit Size 
 BTPL.psig              585.00:  Bit Press Loss 
 CABU.                     Yes:  Customer Abuse 
 COMM.                     ¼´€:  Run Comments 1 
 TCS .hr                122.75:  Time Ciculation Ended 
 CV  .mps                 2.67:  Crit Velocity 
 CVMX.mps                 3.56:  Max Crit Veloc 
 DD1 .          Rashad Habibov:  Direct Drillr 1 
 DD2 .         Rasim Ibrahimov:  Direct Drillr 2 
 DDSV.               Geo-Pilot:  DD Service 
 DEFF.%                  98.00:  % Det Eff 
 DLRX.°/30m               0.75:  Dogleg Rot Max 
 DLSO.°/30m               1.25:  Dogleg Oriented 
 DLSX.°/30m               2.06:  Dogleg Str Max 
 DRET.      07.45.00 17-May-20:  Drill End Time 
 DRST.      22.50.00 15-May-20:  Drill Start Tim 
 DTIM.hr                 20.75:  Time Drilling 
 EDEP.m                5124.01:  End Depth 
 ENG1.           Eldar Hajiyev:  Engineer 1 
 ENG2.        Marcelo Sandoval:  Engineer 2 
 ENG3.        Davud huseynzada:  Engineer 3 
 ENG4.          Ruslan Safarov:  Engineer 4 
 ETIM.      04.33.00 23-May-20:  End Time 
 FLOI.gpm               450.00:  Flow In 
 FLON.gpm               400.00:  Flow In Min 
 FLOS.cptm                0.00:  Fluid Loss 
 FLOX.gpm               500.00:  Flow In Max 
 FTRO.       Formation Presure:  FTWD Run Obj 
 HFLO.                      No:  High Flow 
 HPRE.                     Yes:  High Pressure 
 HTEM.                      No:  High Temp 
 HYDO.m                   1.80:  Hydro Offset 
 IFIN.deg                75.06:  Inc, Final 
 IMAX.deg                75.38:  Inc Max 
 IMIN.deg                74.69:  Inc Min 
 IMND.m                5027.38:  Inc Min Depth 
 IMXD.m                4771.61:  Inc Max Depth 
 JARR.                      No:  Jarring 
 LETM.      07.45.00 17-May-20:  Log End Time 
 LOST.hr                     0:  Lost Rig Time 
 LSTM.      22.50.00 15-May-20:  Log Start Time 
 MDCL.ppm             42000.00:  Mud Chlorides 
 MDES.     Inversion Oil/Synthetic:  Mud Desc 
 DFD .sg                  1.34:  Mud Density 
 MDMN.sg                  1.34:  Dens Mud Min 
 MDMX.sg                  1.34:  Dens Mud Max 
 MOIL.                       0:  Run Mud Oil % 
 MOWR.                   67:33:  Run Mud OWR 
 MSND.                       0:  Run Mud Sand % 
 MSOL.                     1.8:  Run Mud Solids% 
 DFV .spqt               76.00:  Mud Viscosity 
 MWOD.in                  6.75:  MWD Tool OD 
 MWSI.                      No:  Serv Intrp, MWD 
 OTIM.hr                228.19:  Time Operating 
 PCON.           Look Like New:  Pad Condition 
 PMAX.psia             6164.70:  Press Op, Max 
 PV  .cP                 28.00:  Mud PV 
 RUN .                     900:  Run Number 
 ROPA.m/hr               19.00:  ROP Avg 
 ROPN.m/hr               11.00:  ROP Min 
 ROPX.m/hr               36.00:  ROP Max 
 RPMA.rpm               120.00:  RPM Surface Avg 
 RPMN.rpm               120.00:  RPM Surface Min 
 RPMX.rpm               120.00:  RPM Surface Max 
 RRUN.                    L604:  Rig Run Number 
 RTIM.hr                  7.00:  Time Reaming 
 SAZI.deg               109.27:  Azm, Start 
 SDEP.m                4761.01:  Start Depth 
 SIDD.                      No:  Serv Intrp, DD 
 SINC.deg                75.38:  Inc, Start 
 SPPA.psig             3574.00:  SPP Avg 
 SPPN.psig             3475.00:  SPP Min 
 SPPX.psig             3791.00:  SPP Max 
 STIM.      07.08.48 13-May-20:  Start Time 
 SVCS.                 DD, MWD:  Services 
 SVER.                    9.20:  Sperry Version 
 TDAT.m                 363.00:  Tot Depth Attmp 
 TDDF.                      No:  Trip for DD 
 TDLG.m                 363.00:  Tot Depth Loggd 
 TFF .                      No:  Trip for Fail 
 TQAA.f-kp               20.00:  Torque Abs Avg 
 TQAN.f-kp               18.00:  Torque Abs Min 
 TQAX.f-kp               22.00:  Torque Abs Max 
 TRRT.°/30m              -0.35:  Turn Rotating 
 MRT .                    HCIM:  Maximum Recorded Temperature 
 TTMX.degC               92.16:  Max Tool Temp 
 VS01.                90586518:  Virtual Str1 SN 
 VS02.        AZ90560654Z1W1C6:  Virtual Str2 SN 
 VS03.           AZ90610398F11:  Virtual Str3 SN 
 VS04.                90514975:  Virtual Str4 SN 
 VS05.                90514972:  Virtual Str5 SN 
 VS06.     AZ90603282F11V7D1A6:  Virtual Str6 SN 
 WBMN.klb                 7.00:  WOB Min 
 WOBA.klb                12.00:  WOB Avg 
 WOBX.klb                14.00:  WOB Max 
 YP  .lhf2               32.00:  Yield Point 
~Curve Information Block
#MNEM.UNIT                 API CODE     Curve Description
#---------               -----------    ---------------------------
 TIME.HHMMSS            00 000 000 000:  GT Time & Date
 GTDEPTH.m              00 000 000 000:  GT Depth
 GTPQH.psia             00 000 000 000:  GT HR Quartz Pressure
 GTTQ.degC              00 000 000 000:  GT Quartz Temperature
 GTTN.NONE              00 000 000 000:  GT Test Number
 GTET.sec               00 000 000 000:  GT Elapsed Test Time
 GTTVD.m                00 000 000 000:  GT True Vertical Depth
#Other Information
#
#WARRANTY: Halliburton will use its best efforts to furnish customers with 
#accurate information and interpretations that are part of, and incident to, the services 
#provided.  However, Halliburton cannot and does not warrant the accuracy 
#or correctness of such information and interpretations.  Under no circumstances should any 
#such information or interpretation be relied upon as the sole basis for any drilling, 
#completion, production, or financial decision or any procedure involving any risk to the 
#safety of any drilling venture, drilling rig or its crew or any other third party.  The 
#Customer has full responsibility for all drilling, completion and production operation.  
#Halliburton makes no representations or warranties, either expressed or 
#implied, including, but not limited to, the implied warranties of merchantability or fitness 
#for a particular purpose, with respect to the services rendered.  In no event will 
#Halliburton be liable for failure to obtain any particular results or for 
#any damages, including, but not limited to, indirect, special or consequential damages, 
#resulting from the use of any information or interpretation provided by Halliburton.
#
~A           TIME           GTDEPTH  GTPQH  GTTQ  GTTN  GTET   GTTVD  
   22:49:31.527.17-May-2020 4908.51 5487.79 67.30 8.00   0.00 2569.17
   22:49:31.726.17-May-2020 4908.51 5487.79 67.30 8.00   0.20 2569.17
   22:49:31.926.17-May-2020 4908.51 5488.72 67.30 8.00   0.40 2569.17
   22:49:32.126.17-May-2020 4908.51 5489.29 67.30 8.00   0.60 2569.17
   22:49:32.326.17-May-2020 4908.51 5488.85 67.30 8.00   0.80 2569.17
   22:49:32.526.17-May-2020 4908.51 5489.47 67.30 8.00   1.00 2569.17
   22:49:32.726.17-May-2020 4908.51 5489.47 67.30 8.00   1.20 2569.17
   22:49:32.926.17-May-2020 4908.51 5489.99 67.30 8.00   1.40 2569.17
   22:49:33.126.17-May-2020 4908.51 5500.80 67.30 8.00   1.60 2569.17
   22:49:33.326.17-May-2020 4908.51 5486.84 67.30 8.00   1.80 2569.17
   22:49:33.526.17-May-2020 4908.51 5494.49 67.30 8.00   2.00 2569.17
   22:49:33.725.17-May-2020 4908.51 5494.49 67.30 8.00   2.20 2569.17
   22:49:33.925.17-May-2020 4908.51 5500.42 67.30 8.00   2.40 2569.17
   22:49:34.125.17-May-2020 4908.51 5489.96 67.30 8.00   2.60 2569.17
   22:49:34.325.17-May-2020 4908.51 5502.37 67.30 8.00   2.80 2569.17
   22:49:34.525.17-May-2020 4908.51 5490.66 67.30 8.00   3.00 2569.17
   22:49:34.725.17-May-2020 4908.51 5490.66 67.30 8.00   3.20 2569.17
   22:49:34.925.17-May-2020 4908.51 5486.20 67.30 8.00   3.40 2569.17
   22:49:35.125.17-May-2020 4908.51 5505.23 67.30 8.00   3.60 2569.17
   22:49:35.325.17-May-2020 4908.51 5505.20 67.30 8.00   3.80 2569.17
   22:49:35.525.17-May-2020 4908.51 5497.06 67.30 8.00   4.00 2569.17
   22:49:35.724.17-May-2020 4908.51 5497.06 67.30 8.00   4.20 2569.17
   22:49:35.924.17-May-2020 4908.51 5502.86 67.30 8.00   4.40 2569.17
   22:49:36.124.17-May-2020 4908.51 5514.26 67.30 8.00   4.60 2569.17
   22:49:36.324.17-May-2020 4908.51 5493.97 67.30 8.00   4.80 2569.17
   22:49:36.524.17-May-2020 4908.51 5509.76 67.30 8.00   5.00 2569.17
   22:49:36.724.17-May-2020 4908.51 5509.76 67.30 8.00   5.20 2569.17
   22:49:36.924.17-May-2020 4908.51 5505.37 67.30 8.00   5.40 2569.17
   22:49:37.124.17-May-2020 4908.51 5512.69 67.30 8.00   5.60 2569.17
   22:49:37.324.17-May-2020 4908.51 5498.77 67.30 8.00   5.80 2569.17
   22:49:37.524.17-May-2020 4908.51 5506.10 67.30 8.00   6.00 2569.17
   22:49:37.723.17-May-2020 4908.51 5506.10 67.30 8.00   6.20 2569.17
   22:49:37.923.17-May-2020 4908.51 5506.10 67.30 8.00   6.40 2569.17
   22:49:38.123.17-May-2020 4908.51 5499.66 67.30 8.00   6.60 2569.17
   22:49:38.323.17-May-2020 4908.51 5512.71 67.30 8.00   6.80 2569.17
   22:49:38.523.17-May-2020 4908.51 5499.85 67.30 8.00   7.00 2569.17
   22:49:38.723.17-May-2020 4908.51 5499.85 67.30 8.00   7.20 2569.17
   22:49:38.923.17-May-2020 4908.51 5500.21 67.30 8.00   7.40 2569.17
   22:49:39.123.17-May-2020 4908.51 5503.58 67.30 8.00   7.60 2569.17
   22:49:39.323.17-May-2020 4908.51 5501.12 67.30 8.00   7.80 2569.17
   22:49:39.522.17-May-2020 4908.51 5502.81 67.30 8.00   8.00 2569.17
   22:49:39.722.17-May-2020 4908.51 5502.81 67.30 8.00   8.20 2569.17
   22:49:39.922.17-May-2020 4908.51 5502.71 67.30 8.00   8.40 2569.17
   22:49:40.122.17-May-2020 4908.51 5514.56 67.30 8.00   8.60 2569.17
   22:49:40.322.17-May-2020 4908.51 5498.70 67.30 8.00   8.80 2569.17
   22:49:40.522.17-May-2020 4908.51 5508.88 67.30 8.00   9.00 2569.17
   22:49:40.722.17-May-2020 4908.51 5508.88 67.30 8.00   9.20 2569.17
   22:49:40.922.17-May-2020 4908.51 5506.51 67.30 8.00   9.40 2569.17
   22:49:41.122.17-May-2020 4908.51 5505.70 67.30 8.00   9.60 2569.17
   22:49:41.322.17-May-2020 4908.51 5506.25 67.30 8.00   9.79 2569.17
   22:49:41.521.17-May-2020 4908.51 5506.05 67.30 8.00   9.99 2569.17
   22:49:41.721.17-May-2020 4908.51 5506.05 67.30 8.00  10.19 2569.17
   22:49:41.921.17-May-2020 4908.51 5506.39 67.30 8.00  10.39 2569.17
   22:49:42.121.17-May-2020 4908.51 5506.26 67.30 8.00  10.59 2569.17
   22:49:42.321.17-May-2020 4908.51 5508.12 67.30 8.00  10.79 2569.17
   22:49:42.521.17-May-2020 4908.51 5516.08 67.30 8.00  10.99 2569.17
   22:49:42.721.17-May-2020 4908.51 5516.08 67.30 8.00  11.19 2569.17
   22:49:42.921.17-May-2020 4908.51 5517.01 67.30 8.00  11.39 2569.17
   22:49:43.121.17-May-2020 4908.51 5506.12 67.30 8.00  11.59 2569.17
   22:49:43.321.17-May-2020 4908.51 5524.62 67.30 8.00  11.79 2569.17
   22:49:43.520.17-May-2020 4908.51 5501.68 67.30 8.00  11.99 2569.17
   22:49:43.720.17-May-2020 4908.51 5501.68 67.30 8.00  12.19 2569.17
   22:49:43.920.17-May-2020 4908.51 5504.98 67.30 8.00  12.39 2569.17
   22:49:44.120.17-May-2020 4908.51 5526.60 67.30 8.00  12.59 2569.17
   22:49:44.320.17-May-2020 4908.51 5500.22 67.30 8.00  12.79 2569.17
   22:49:44.520.17-May-2020 4908.51 5517.62 67.30 8.00  12.99 2569.17
   22:49:44.720.17-May-2020 4908.51 5517.62 67.30 8.00  13.19 2569.17
   22:49:44.920.17-May-2020 4908.51 5520.86 67.30 8.00  13.39 2569.17
   22:49:45.120.17-May-2020 4908.51 5507.77 67.30 8.00  13.59 2569.17
   22:49:45.320.17-May-2020 4908.51 5512.19 67.30 8.00  13.79 2569.17
   22:49:45.519.17-May-2020 4908.51 5518.01 67.30 8.00  13.99 2569.17
   22:49:45.719.17-May-2020 4908.51 5518.01 67.30 8.00  14.19 2569.17
   22:49:45.919.17-May-2020 4908.51 5509.67 67.30 8.00  14.39 2569.17
   22:49:46.119.17-May-2020 4908.51 5518.69 67.30 8.00  14.59 2569.17
   22:49:46.319.17-May-2020 4908.51 5520.23 67.30 8.00  14.79 2569.17
   22:49:46.519.17-May-2020 4908.51 5509.44 67.30 8.00  14.99 2569.17
   22:49:46.719.17-May-2020 4908.51 5509.44 67.30 8.00  15.19 2569.17
   22:49:46.919.17-May-2020 4908.51 5514.26 67.30 8.00  15.39 2569.17
   22:49:47.119.17-May-2020 4908.51 5510.06 67.30 8.00  15.59 2569.17
   22:49:47.318.17-May-2020 4908.51 5511.70 67.30 8.00  15.79 2569.17
   22:49:47.518.17-May-2020 4908.51 5509.39 67.30 8.00  15.99 2569.17
   22:49:47.718.17-May-2020 4908.51 5509.39 67.30 8.00  16.19 2569.17
   22:49:47.918.17-May-2020 4908.51 5508.90 67.30 8.00  16.39 2569.17
   22:49:48.118.17-May-2020 4908.51 5509.09 67.30 8.00  16.59 2569.17
   22:49:48.318.17-May-2020 4908.51 5514.16 67.30 8.00  16.79 2569.17
   22:49:48.518.17-May-2020 4908.51 5513.55 67.30 8.00  16.99 2569.17
   22:49:48.718.17-May-2020 4908.51 5513.55 67.30 8.00  17.19 2569.17
   22:49:48.918.17-May-2020 4908.51 5518.13 67.30 8.00  17.39 2569.17
   22:49:49.118.17-May-2020 4908.51 5508.74 67.30 8.00  17.59 2569.17
   22:49:49.317.17-May-2020 4908.51 5513.27 67.30 8.00  17.79 2569.17
   22:49:49.517.17-May-2020 4908.51 5509.46 67.30 8.00  17.99 2569.17
   22:49:49.717.17-May-2020 4908.51 5509.46 67.30 8.00  18.19 2569.17
   22:49:49.917.17-May-2020 4908.51 5510.09 67.30 8.00  18.39 2569.17
   22:49:50.117.17-May-2020 4908.51 5511.19 67.30 8.00  18.59 2569.17
   22:49:50.317.17-May-2020 4908.51 5510.24 67.30 8.00  18.79 2569.17
   22:49:50.517.17-May-2020 4908.51 5510.71 67.30 8.00  18.99 2569.17
   22:49:50.717.17-May-2020 4908.51 5510.71 67.30 8.00  19.19 2569.17
   22:49:50.917.17-May-2020 4908.51 5507.73 67.30 8.00  19.39 2569.17
   22:49:51.117.17-May-2020 4908.51 5521.58 67.30 8.00  19.59 2569.17
   22:49:51.316.17-May-2020 4908.51 5508.89 67.30 8.00  19.79 2569.17
   22:49:51.516.17-May-2020 4908.51 5528.99 67.30 8.00  19.99 2569.17
   22:49:51.716.17-May-2020 4908.51 5528.99 67.30 8.00  20.19 2569.17
   22:49:51.916.17-May-2020 4908.51 5520.10 67.30 8.00  20.39 2569.17
   22:49:52.116.17-May-2020 4908.51 5513.76 67.30 8.00  20.59 2569.17
   22:49:52.316.17-May-2020 4908.51 5527.12 67.30 8.00  20.79 2569.17
   22:49:52.516.17-May-2020 4908.51 5509.78 67.30 8.00  20.99 2569.17
   22:49:52.716.17-May-2020 4908.51 5509.78 67.30 8.00  21.19 2569.17
   22:49:52.916.17-May-2020 4908.51 5510.45 67.30 8.00  21.39 2569.17
   22:49:53.116.17-May-2020 4908.51 5517.84 67.30 8.00  21.59 2569.17
   22:49:53.315.17-May-2020 4908.51 5523.69 67.30 8.00  21.79 2569.17
   22:49:53.515.17-May-2020 4908.51 5510.12 67.30 8.00  21.99 2569.17
   22:49:53.715.17-May-2020 4908.51 5510.12 67.30 8.00  22.19 2569.17
   22:49:53.915.17-May-2020 4908.51 5511.37 67.30 8.00  22.39 2569.17
   22:49:54.115.17-May-2020 4908.51 5517.27 67.30 8.00  22.59 2569.17
   22:49:54.315.17-May-2020 4908.51 5511.06 67.30 8.00  22.79 2569.17
