~Version Information
 VERS.                  2.0:   CWLS log ASCII Standard -VERSION 2.0
 WRAP.                   NO:   One line per depth step
~Well Information Block
#MNEM.UNIT     VALUE/NAME     DESCRIPTION
#---------     -----------    ---------------------------
 STRT.S             17:25:16 17-May-20: START TIME 17:25:16 17-May-20
 STOP.S             17:32:20 17-May-20: STOP TIME  17:32:20 17-May-20
 STEP.S                   0.00: STEP TIME
 NULL.                 -999.25: NULL VALUE
 UNIT.                     N/A:  LOGGING EQUIPMENT ID
 DCON.         Sperry Drilling:  DIRECTNL CONTR
 DOE .                     N/A:  DOE NUMBER
 JOBN.        AZ-XX-0906252240:  JOB TICKET NUMB
 MWDS.                     N/A:  MWD SHOP
 PROV.                    Baku:  PROVINCE
 STAT.                    Baku:  STATE NAME
 REGN.                   EESSA:  REGION
 BASE.              Azerbaijan:  LOGGING EQUIPMENT BASE LOCATION
 UWI .                     N/A:  UNIQUE WELL IDENTIFIER
 API .                     N/A:  API NUMBER
 MDS .        Operator Entered:  MAG DATA SOURCE
 WTYP.                Deviated:  WELL TYPE
 COMP.     BP Exploration (Caspian Sea) Ltd.:  COMPANY
 SRVC.          Turan Drilling:  CONTRACTOR
 WELL.           J23 (Slot 07):  WELL NAME
 CTRY.              Azerbaijan:  COUNTRY NAME
 FLD .                     ACG:  FIELD NAME
 PDAT.          Mean Sea Level:  PERMANENT DATUM
 RIG .             West Chirag:  RIG NAME
 SON .        AZ-XX-0906252240:  JOB NUMBER
 FTOP.          Formation Tops:  FORM TOPS DESC
 ILTD.               Lithology:  INTERP LTH DESC
 SVYD.                  Survey:  SURVEY DESC
 DMOD.             Drill Model:  DRILL MOD DESC
 HPTY.       Minimum Curvature:  HOLE POS TYPE
 NREF.                    Grid:  NORTH REFERENCE
 SPUD.               27-Aug-20:  SPUD DATE
 DATE.      00.00.00 19-May-20:  END TIME
 STIM.      03.00.00 25-Mar-20:  START TIME
 DMF .             Drill Floor:  DRILL MEAS FROM
 DFST.                        :  DIST FSL TEXT
 DFWT.                        :  DIST FWL TEXT
 CNTY.                        :  COUNTY
 LOC .                        :  LOCATION
 LMF .             Drill Floor:  LOG MEASURED FROM
 VSNS.m                   9.43:  VERT SEC N/S
 VSEW.m                  -8.91:  VERT SEC E/W
 AGAP.m                  43.00:  AIR GAP
 DEP .m                 354.17:  DEPTH
 APD .m                  43.00:  DEPTH ABOVE PD
 WDMS.m                 169.80:  WD ELEV
 EGL .m                   0.00:  GROUND ELEVATION
 EPD .m                   0.00:  ELEVATION
 AZTC.deg                 6.31:  AZM TOTAL CORR
 GRDC.deg                 0.14:  GRID CORRECTION
 MDEC.deg                 6.45:  MAGNETIC DECL
 MDIP.deg                59.56:  MAGNETIC DIP
 MFLD.nT              50295.00:  MAGNETIC FIELD
 GVFD.g                   1.00:  GRAVITY FIELD
 VSDR.deg               179.88:  VERT SEC DIRECT
 TDD .m                5150.01:  TOTAL DEPTH (DRILLER)
 SDEP.m                 864.00:  START DEPTH
 DFSL.m                   0.00:  DISTANCE FSL
 DFWL.m                   0.00:  DISTANCE FWL
 UTMY.m             4443793.85:  UTM Y
 UTMX.m              519005.06:  UTM X
 WHEW.m                  -8.91:  WELL HEAD E/W
 WHNS.m                   9.43:  WELL HEAD N/S
 LONG.deg                51.22:  LONGITUDE
 LATI.deg                40.13:  LATITUDE
 TVDS.m                  43.00:  TVDSS CORRECTN
 EKB .m                   0.00:  KB ELEVATION
 EDF .m                  43.00:  DF ELEVATION
 TDL .m                 363.00:  TOTAL DEPTH (LOGGER)
 MAGU.                 1850802:  MAGUTM CHECKSUM
 VSC .                       0:  VS TO CLOSURE
~Parameter Information Block
#MNEM.UNIT       Value        Description
#---------     -----------    ---------------------------
 AV  .mps                 2.30:  Ann Velocity 
 AVMX.mps                 4.40:  Max Ann Veloc 
 AZIF.deg               110.24:  Azm, Final 
 BHAT.        Rotary Steerable:  BHA Type 
 BREV.rev               331.00:  Rev Bit Total 
 BROT.°/30m               0.00:  Build Rotating 
 BS  .in                  8.50:  Bit Size 
 BSZ .in                  8.50:  Bit Size 
 BTPL.psig              585.00:  Bit Press Loss 
 CABU.                     Yes:  Customer Abuse 
 COMM.                     |n\:  Run Comments 1 
 TCS .hr                122.75:  Time Ciculation Ended 
 CV  .mps                 2.67:  Crit Velocity 
 CVMX.mps                 3.56:  Max Crit Veloc 
 DD1 .          Rashad Habibov:  Direct Drillr 1 
 DD2 .         Rasim Ibrahimov:  Direct Drillr 2 
 DDSV.               Geo-Pilot:  DD Service 
 DEFF.%                  98.00:  % Det Eff 
 DLRX.°/30m               0.75:  Dogleg Rot Max 
 DLSO.°/30m               1.25:  Dogleg Oriented 
 DLSX.°/30m               2.06:  Dogleg Str Max 
 DRET.      07.45.00 17-May-20:  Drill End Time 
 DRST.      22.50.00 15-May-20:  Drill Start Tim 
 DTIM.hr                 20.75:  Time Drilling 
 EDEP.m                5124.01:  End Depth 
 ENG1.           Eldar Hajiyev:  Engineer 1 
 ENG2.        Marcelo Sandoval:  Engineer 2 
 ENG3.        Davud huseynzada:  Engineer 3 
 ENG4.          Ruslan Safarov:  Engineer 4 
 ETIM.      04.33.00 23-May-20:  End Time 
 FLOI.gpm               450.00:  Flow In 
 FLON.gpm               400.00:  Flow In Min 
 FLOS.cptm                0.00:  Fluid Loss 
 FLOX.gpm               500.00:  Flow In Max 
 FTRO.       Formation Presure:  FTWD Run Obj 
 HFLO.                      No:  High Flow 
 HPRE.                     Yes:  High Pressure 
 HTEM.                      No:  High Temp 
 HYDO.m                   1.80:  Hydro Offset 
 IFIN.deg                75.06:  Inc, Final 
 IMAX.deg                75.38:  Inc Max 
 IMIN.deg                74.69:  Inc Min 
 IMND.m                5027.38:  Inc Min Depth 
 IMXD.m                4771.61:  Inc Max Depth 
 JARR.                      No:  Jarring 
 LETM.      07.45.00 17-May-20:  Log End Time 
 LOST.hr                     0:  Lost Rig Time 
 LSTM.      22.50.00 15-May-20:  Log Start Time 
 MDCL.ppm             42000.00:  Mud Chlorides 
 MDES.     Inversion Oil/Synthetic:  Mud Desc 
 DFD .sg                  1.34:  Mud Density 
 MDMN.sg                  1.34:  Dens Mud Min 
 MDMX.sg                  1.34:  Dens Mud Max 
 MOIL.                       0:  Run Mud Oil % 
 MOWR.                   67:33:  Run Mud OWR 
 MSND.                       0:  Run Mud Sand % 
 MSOL.                     1.8:  Run Mud Solids% 
 DFV .spqt               76.00:  Mud Viscosity 
 MWOD.in                  6.75:  MWD Tool OD 
 MWSI.                      No:  Serv Intrp, MWD 
 OTIM.hr                228.19:  Time Operating 
 PCON.           Look Like New:  Pad Condition 
 PMAX.psia             6164.70:  Press Op, Max 
 PV  .cP                 28.00:  Mud PV 
 RUN .                     900:  Run Number 
 ROPA.m/hr               19.00:  ROP Avg 
 ROPN.m/hr               11.00:  ROP Min 
 ROPX.m/hr               36.00:  ROP Max 
 RPMA.rpm               120.00:  RPM Surface Avg 
 RPMN.rpm               120.00:  RPM Surface Min 
 RPMX.rpm               120.00:  RPM Surface Max 
 RRUN.                    L604:  Rig Run Number 
 RTIM.hr                  7.00:  Time Reaming 
 SAZI.deg               109.27:  Azm, Start 
 SDEP.m                4761.01:  Start Depth 
 SIDD.                      No:  Serv Intrp, DD 
 SINC.deg                75.38:  Inc, Start 
 SPPA.psig             3574.00:  SPP Avg 
 SPPN.psig             3475.00:  SPP Min 
 SPPX.psig             3791.00:  SPP Max 
 STIM.      07.08.48 13-May-20:  Start Time 
 SVCS.                 DD, MWD:  Services 
 SVER.                    9.20:  Sperry Version 
 TDAT.m                 363.00:  Tot Depth Attmp 
 TDDF.                      No:  Trip for DD 
 TDLG.m                 363.00:  Tot Depth Loggd 
 TFF .                      No:  Trip for Fail 
 TQAA.f-kp               20.00:  Torque Abs Avg 
 TQAN.f-kp               18.00:  Torque Abs Min 
 TQAX.f-kp               22.00:  Torque Abs Max 
 TRRT.°/30m              -0.35:  Turn Rotating 
 MRT .                    HCIM:  Maximum Recorded Temperature 
 TTMX.degC               92.16:  Max Tool Temp 
 VS01.                90586518:  Virtual Str1 SN 
 VS02.        AZ90560654Z1W1C6:  Virtual Str2 SN 
 VS03.           AZ90610398F11:  Virtual Str3 SN 
 VS04.                90514975:  Virtual Str4 SN 
 VS05.                90514972:  Virtual Str5 SN 
 VS06.     AZ90603282F11V7D1A6:  Virtual Str6 SN 
 WBMN.klb                 7.00:  WOB Min 
 WOBA.klb                12.00:  WOB Avg 
 WOBX.klb                14.00:  WOB Max 
 YP  .lhf2               32.00:  Yield Point 
~Curve Information Block
#MNEM.UNIT                 API CODE     Curve Description
#---------               -----------    ---------------------------
 TIME.HHMMSS            00 000 000 000:  GT Time & Date
 GTDEPTH.m              00 000 000 000:  GT Depth
 GTPQH.psia             00 000 000 000:  GT HR Quartz Pressure
 GTTQ.degC              00 000 000 000:  GT Quartz Temperature
 GTTN.NONE              00 000 000 000:  GT Test Number
 GTET.sec               00 000 000 000:  GT Elapsed Test Time
 GTTVD.m                00 000 000 000:  GT True Vertical Depth
#Other Information
#
#WARRANTY: Halliburton will use its best efforts to furnish customers with 
#accurate information and interpretations that are part of, and incident to, the services 
#provided.  However, Halliburton cannot and does not warrant the accuracy 
#or correctness of such information and interpretations.  Under no circumstances should any 
#such information or interpretation be relied upon as the sole basis for any drilling, 
#completion, production, or financial decision or any procedure involving any risk to the 
#safety of any drilling venture, drilling rig or its crew or any other third party.  The 
#Customer has full responsibility for all drilling, completion and production operation.  
#Halliburton makes no representations or warranties, either expressed or 
#implied, including, but not limited to, the implied warranties of merchantability or fitness 
#for a particular purpose, with respect to the services rendered.  In no event will 
#Halliburton be liable for failure to obtain any particular results or for 
#any damages, including, but not limited to, indirect, special or consequential damages, 
#resulting from the use of any information or interpretation provided by Halliburton.
#
~A           TIME           GTDEPTH  GTPQH  GTTQ  GTTN  GTET   GTTVD  
# ...
   17:29:29.555.17-May-2020 5032.01 2637.86 70.53 3.00 253.24 2600.96
   17:29:29.756.17-May-2020 5032.01 2637.86 70.53 3.00 253.44 2600.96
   17:29:29.956.17-May-2020 5032.01 2637.94 70.53 3.00 253.64 2600.96
   17:29:30.156.17-May-2020 5032.01 2637.95 70.53 3.00 253.84 2600.96
   17:29:30.356.17-May-2020 5032.01 2637.95 70.53 3.00 254.04 2600.96
   17:29:30.556.17-May-2020 5032.01 2637.94 70.52 3.00 254.24 2600.96
   17:29:30.756.17-May-2020 5032.01 2637.94 70.52 3.00 254.44 2600.96
   17:29:30.957.17-May-2020 5032.01 2637.95 70.52 3.00 254.64 2600.96
   17:29:31.157.17-May-2020 5032.01 2638.00 70.52 3.00 254.84 2600.96
   17:29:31.357.17-May-2020 5032.01 2638.05 70.52 3.00 255.04 2600.96
   17:29:31.557.17-May-2020 5032.01 2637.91 70.52 3.00 255.24 2600.96
   17:29:31.757.17-May-2020 5032.01 2637.91 70.52 3.00 255.44 2600.96
   17:29:31.958.17-May-2020 5032.01 2638.07 70.52 3.00 255.64 2600.96
   17:29:32.158.17-May-2020 5032.01 2637.97 70.52 3.00 255.84 2600.96
   17:29:32.358.17-May-2020 5032.01 2637.92 70.52 3.00 256.04 2600.96
   17:29:32.558.17-May-2020 5032.01 2637.95 70.52 3.00 256.24 2600.96
   17:29:32.758.17-May-2020 5032.01 2638.02 70.52 3.00 256.44 2600.96
   17:29:32.958.17-May-2020 5032.01 2638.04 70.52 3.00 256.64 2600.96
   17:29:33.159.17-May-2020 5032.01 2637.85 70.52 3.00 256.84 2600.96
   17:29:33.359.17-May-2020 5032.01 2637.94 70.52 3.00 257.04 2600.96
   17:29:33.559.17-May-2020 5032.01 2638.06 70.52 3.00 257.24 2600.96
   17:29:33.759.17-May-2020 5032.01 2638.06 70.52 3.00 257.44 2600.96
   17:29:33.959.17-May-2020 5032.01 2637.91 70.52 3.00 257.64 2600.96
   17:29:34.160.17-May-2020 5032.01 2637.98 70.52 3.00 257.84 2600.96
   17:29:34.360.17-May-2020 5032.01 2637.92 70.52 3.00 258.04 2600.96
   17:29:34.560.17-May-2020 5032.01 2637.94 70.52 3.00 258.24 2600.96
   17:29:34.760.17-May-2020 5032.01 2637.94 70.52 3.00 258.44 2600.96
   17:29:34.960.17-May-2020 5032.01 2637.94 70.52 3.00 258.64 2600.96
   17:29:35.161.17-May-2020 5032.01 2637.93 70.52 3.00 258.84 2600.96
   17:29:35.361.17-May-2020 5032.01 2637.95 70.52 3.00 259.04 2600.96
   17:29:35.561.17-May-2020 5032.01 2637.88 70.52 3.00 259.24 2600.96
   17:29:35.761.17-May-2020 5032.01 2637.88 70.52 3.00 259.44 2600.96
   17:29:35.961.17-May-2020 5032.01 2637.96 70.52 3.00 259.64 2600.96
   17:29:36.161.17-May-2020 5032.01 2637.88 70.52 3.00 259.84 2600.96
   17:29:36.362.17-May-2020 5032.01 2637.98 70.52 3.00 260.04 2600.96
   17:29:36.562.17-May-2020 5032.01 2619.40 70.52 3.00 260.24 2600.96
   17:29:36.762.17-May-2020 5032.01 2611.49 70.52 3.00 260.44 2600.96
   17:29:36.962.17-May-2020 5032.01 2611.14 70.52 3.00 260.64 2600.96
   17:29:37.162.17-May-2020 5032.01 2611.81 70.52 3.00 260.84 2600.96
   17:29:37.363.17-May-2020 5032.01 2611.87 70.52 3.00 261.04 2600.96
   17:29:37.563.17-May-2020 5032.01 2611.80 70.52 3.00 261.24 2600.96
   17:29:37.763.17-May-2020 5032.01 2611.80 70.52 3.00 261.44 2600.96
   17:29:37.963.17-May-2020 5032.01 2611.80 70.52 3.00 261.64 2600.96
   17:29:38.163.17-May-2020 5032.01 2611.38 70.52 3.00 261.84 2600.96
   17:29:38.364.17-May-2020 5032.01 2612.11 70.52 3.00 262.05 2600.96
   17:29:38.564.17-May-2020 5032.01 2611.60 70.52 3.00 262.25 2600.96
   17:29:38.764.17-May-2020 5032.01 2611.60 70.52 3.00 262.45 2600.96
   17:29:38.964.17-May-2020 5032.01 2612.08 70.52 3.00 262.65 2600.96
   17:29:39.164.17-May-2020 5032.01 2611.50 70.52 3.00 262.85 2600.96
   17:29:39.364.17-May-2020 5032.01 2611.18 70.52 3.00 263.05 2600.96
   17:29:39.565.17-May-2020 5032.01 2612.20 70.52 3.00 263.25 2600.96
   17:29:39.765.17-May-2020 5032.01 2612.20 70.52 3.00 263.45 2600.96
   17:29:39.965.17-May-2020 5032.01 2611.79 70.52 3.00 263.65 2600.96
   17:29:40.165.17-May-2020 5032.01 2611.65 70.52 3.00 263.85 2600.96
   17:29:40.365.17-May-2020 5032.01 2612.09 70.52 3.00 264.05 2600.96
   17:29:40.566.17-May-2020 5032.01 2611.65 70.52 3.00 264.25 2600.96
   17:29:40.766.17-May-2020 5032.01 2611.65 70.52 3.00 264.45 2600.96
   17:29:40.966.17-May-2020 5032.01 2611.86 70.52 3.00 264.65 2600.96
   17:29:41.166.17-May-2020 5032.01 2611.63 70.51 3.00 264.85 2600.96
   17:29:41.366.17-May-2020 5032.01 2611.85 70.51 3.00 265.05 2600.96
   17:29:41.567.17-May-2020 5032.01 2611.74 70.51 3.00 265.25 2600.96
   17:29:41.767.17-May-2020 5032.01 2611.74 70.51 3.00 265.45 2600.96
   17:29:41.967.17-May-2020 5032.01 2611.89 70.51 3.00 265.65 2600.96
   17:29:42.167.17-May-2020 5032.01 2612.10 70.51 3.00 265.85 2600.96
   17:29:42.367.17-May-2020 5032.01 2611.60 70.51 3.00 266.05 2600.96
   17:29:42.567.17-May-2020 5032.01 2611.75 70.51 3.00 266.25 2600.96
   17:29:42.768.17-May-2020 5032.01 2611.75 70.51 3.00 266.45 2600.96
   17:29:42.968.17-May-2020 5032.01 2611.77 70.51 3.00 266.65 2600.96
   17:29:43.168.17-May-2020 5032.01 2611.88 70.51 3.00 266.85 2600.96
   17:29:43.368.17-May-2020 5032.01 2611.81 70.51 3.00 267.05 2600.96
   17:29:43.568.17-May-2020 5032.01 2611.56 70.51 3.00 267.25 2600.96
   17:29:43.769.17-May-2020 5032.01 2611.56 70.51 3.00 267.45 2600.96
   17:29:43.969.17-May-2020 5032.01 2612.01 70.51 3.00 267.65 2600.96
   17:29:44.169.17-May-2020 5032.01 2612.13 70.51 3.00 267.85 2600.96
   17:29:44.369.17-May-2020 5032.01 2611.47 70.51 3.00 268.05 2600.96
   17:29:44.569.17-May-2020 5032.01 2611.97 70.51 3.00 268.25 2600.96
   17:29:44.770.17-May-2020 5032.01 2611.97 70.51 3.00 268.45 2600.96
   17:29:44.970.17-May-2020 5032.01 2612.05 70.51 3.00 268.65 2600.96
   17:29:45.170.17-May-2020 5032.01 2611.66 70.51 3.00 268.85 2600.96
   17:29:45.370.17-May-2020 5032.01 2611.70 70.51 3.00 269.05 2600.96
   17:29:45.570.17-May-2020 5032.01 2611.82 70.51 3.00 269.25 2600.96
   17:29:45.770.17-May-2020 5032.01 2611.82 70.51 3.00 269.45 2600.96
   17:29:45.971.17-May-2020 5032.01 2611.81 70.51 3.00 269.65 2600.96
   17:29:46.171.17-May-2020 5032.01 2611.80 70.51 3.00 269.85 2600.96
   17:29:46.371.17-May-2020 5032.01 2611.85 70.51 3.00 270.05 2600.96
   17:29:46.571.17-May-2020 5032.01 2620.69 70.51 3.00 270.25 2600.96
   17:29:46.771.17-May-2020 5032.01 2620.69 70.51 3.00 270.45 2600.96
   17:29:46.972.17-May-2020 5032.01 2637.34 70.51 3.00 270.65 2600.96
   17:29:47.172.17-May-2020 5032.01 2637.51 70.51 3.00 270.85 2600.96
   17:29:47.372.17-May-2020 5032.01 2637.62 70.51 3.00 271.05 2600.96
   17:29:47.572.17-May-2020 5032.01 2637.59 70.51 3.00 271.25 2600.96
   17:29:47.772.17-May-2020 5032.01 2637.59 70.51 3.00 271.45 2600.96
   17:29:47.973.17-May-2020 5032.01 2637.62 70.51 3.00 271.65 2600.96
   17:29:48.173.17-May-2020 5032.01 2637.63 70.51 3.00 271.85 2600.96
   17:29:48.373.17-May-2020 5032.01 2637.63 70.51 3.00 272.05 2600.96
   17:29:48.573.17-May-2020 5032.01 2637.78 70.51 3.00 272.25 2600.96
   17:29:48.773.17-May-2020 5032.01 2638.03 70.51 3.00 272.45 2600.96
   17:29:48.973.17-May-2020 5032.01 2637.80 70.51 3.00 272.65 2600.96
   17:29:49.174.17-May-2020 5032.01 2637.74 70.51 3.00 272.86 2600.96
   17:29:49.374.17-May-2020 5032.01 2637.80 70.51 3.00 273.06 2600.96
   17:29:49.574.17-May-2020 5032.01 2637.81 70.51 3.00 273.26 2600.96
   17:29:49.774.17-May-2020 5032.01 2637.81 70.51 3.00 273.46 2600.96
   17:29:49.974.17-May-2020 5032.01 2637.78 70.51 3.00 273.66 2600.96
   17:29:50.175.17-May-2020 5032.01 2637.79 70.51 3.00 273.86 2600.96
   17:29:50.375.17-May-2020 5032.01 2637.79 70.51 3.00 274.06 2600.96
   17:29:50.575.17-May-2020 5032.01 2637.81 70.51 3.00 274.26 2600.96
   17:29:50.775.17-May-2020 5032.01 2637.81 70.51 3.00 274.46 2600.96
   17:29:50.975.17-May-2020 5032.01 2637.87 70.51 3.00 274.66 2600.96
   17:29:51.176.17-May-2020 5032.01 2637.80 70.51 3.00 274.86 2600.96
   17:29:51.376.17-May-2020 5032.01 2637.90 70.51 3.00 275.06 2600.96
   17:29:51.576.17-May-2020 5032.01 2638.05 70.51 3.00 275.26 2600.96
   17:29:51.776.17-May-2020 5032.01 2638.05 70.51 3.00 275.46 2600.96
   17:29:51.976.17-May-2020 5032.01 2637.83 70.50 3.00 275.66 2600.96
   17:29:52.176.17-May-2020 5032.01 2638.00 70.51 3.00 275.86 2600.96
   17:29:52.377.17-May-2020 5032.01 2637.90 70.50 3.00 276.06 2600.96
