~Version Information
 VERS.                  2.0:   CWLS log ASCII Standard -VERSION 2.0
 WRAP.                   NO:   One line per depth step
~Well Information Block
#MNEM.UNIT     VALUE/NAME     DESCRIPTION
#---------     -----------    ---------------------------
 STRT.S             17:25:16 17-May-20: START TIME 17:25:16 17-May-20
 STOP.S             17:32:20 17-May-20: STOP TIME  17:32:20 17-May-20
 STEP.S                   0.00: STEP TIME
 NULL.                 -999.25: NULL VALUE
 UNIT.                     N/A:  LOGGING EQUIPMENT ID
 DCON.         Sperry Drilling:  DIRECTNL CONTR
 DOE .                     N/A:  DOE NUMBER
 JOBN.        AZ-XX-0906252240:  JOB TICKET NUMB
 MWDS.                     N/A:  MWD SHOP
 PROV.                    Baku:  PROVINCE
 STAT.                    Baku:  STATE NAME
 REGN.                   EESSA:  REGION
 BASE.              Azerbaijan:  LOGGING EQUIPMENT BASE LOCATION
 UWI .                     N/A:  UNIQUE WELL IDENTIFIER
 API .                     N/A:  API NUMBER
 MDS .        Operator Entered:  MAG DATA SOURCE
 WTYP.                Deviated:  WELL TYPE
 COMP.     BP Exploration (Caspian Sea) Ltd.:  COMPANY
 SRVC.          Turan Drilling:  CONTRACTOR
 WELL.           J23 (Slot 07):  WELL NAME
 CTRY.              Azerbaijan:  COUNTRY NAME
 FLD .                     ACG:  FIELD NAME
 PDAT.          Mean Sea Level:  PERMANENT DATUM
 RIG .             West Chirag:  RIG NAME
 SON .        AZ-XX-0906252240:  JOB NUMBER
 FTOP.          Formation Tops:  FORM TOPS DESC
 ILTD.               Lithology:  INTERP LTH DESC
 SVYD.                  Survey:  SURVEY DESC
 DMOD.             Drill Model:  DRILL MOD DESC
 HPTY.       Minimum Curvature:  HOLE POS TYPE
 NREF.                    Grid:  NORTH REFERENCE
 SPUD.               27-Aug-20:  SPUD DATE
 DATE.      00.00.00 19-May-20:  END TIME
 STIM.      03.00.00 25-Mar-20:  START TIME
 DMF .             Drill Floor:  DRILL MEAS FROM
 DFST.                        :  DIST FSL TEXT
 DFWT.                        :  DIST FWL TEXT
 CNTY.                        :  COUNTY
 LOC .                        :  LOCATION
 LMF .             Drill Floor:  LOG MEASURED FROM
 VSNS.m                   9.43:  VERT SEC N/S
 VSEW.m                  -8.91:  VERT SEC E/W
 AGAP.m                  43.00:  AIR GAP
 DEP .m                 354.17:  DEPTH
 APD .m                  43.00:  DEPTH ABOVE PD
 WDMS.m                 169.80:  WD ELEV
 EGL .m                   0.00:  GROUND ELEVATION
 EPD .m                   0.00:  ELEVATION
 AZTC.deg                 6.31:  AZM TOTAL CORR
 GRDC.deg                 0.14:  GRID CORRECTION
 MDEC.deg                 6.45:  MAGNETIC DECL
 MDIP.deg                59.56:  MAGNETIC DIP
 MFLD.nT              50295.00:  MAGNETIC FIELD
 GVFD.g                   1.00:  GRAVITY FIELD
 VSDR.deg               179.88:  VERT SEC DIRECT
 TDD .m                5150.01:  TOTAL DEPTH (DRILLER)
 SDEP.m                 864.00:  START DEPTH
 DFSL.m                   0.00:  DISTANCE FSL
 DFWL.m                   0.00:  DISTANCE FWL
 UTMY.m             4443793.85:  UTM Y
 UTMX.m              519005.06:  UTM X
 WHEW.m                  -8.91:  WELL HEAD E/W
 WHNS.m                   9.43:  WELL HEAD N/S
 LONG.deg                51.22:  LONGITUDE
 LATI.deg                40.13:  LATITUDE
 TVDS.m                  43.00:  TVDSS CORRECTN
 EKB .m                   0.00:  KB ELEVATION
 EDF .m                  43.00:  DF ELEVATION
 TDL .m                 363.00:  TOTAL DEPTH (LOGGER)
 MAGU.                 1850802:  MAGUTM CHECKSUM
 VSC .                       0:  VS TO CLOSURE
~Parameter Information Block
#MNEM.UNIT       Value        Description
#---------     -----------    ---------------------------
 AV  .mps                 2.30:  Ann Velocity 
 AVMX.mps                 4.40:  Max Ann Veloc 
 AZIF.deg               110.24:  Azm, Final 
 BHAT.        Rotary Steerable:  BHA Type 
 BREV.rev               331.00:  Rev Bit Total 
 BROT.°/30m               0.00:  Build Rotating 
 BS  .in                  8.50:  Bit Size 
 BSZ .in                  8.50:  Bit Size 
 BTPL.psig              585.00:  Bit Press Loss 
 CABU.                     Yes:  Customer Abuse 
 COMM.                     |n\:  Run Comments 1 
 TCS .hr                122.75:  Time Ciculation Ended 
 CV  .mps                 2.67:  Crit Velocity 
 CVMX.mps                 3.56:  Max Crit Veloc 
 DD1 .          Rashad Habibov:  Direct Drillr 1 
 DD2 .         Rasim Ibrahimov:  Direct Drillr 2 
 DDSV.               Geo-Pilot:  DD Service 
 DEFF.%                  98.00:  % Det Eff 
 DLRX.°/30m               0.75:  Dogleg Rot Max 
 DLSO.°/30m               1.25:  Dogleg Oriented 
 DLSX.°/30m               2.06:  Dogleg Str Max 
 DRET.      07.45.00 17-May-20:  Drill End Time 
 DRST.      22.50.00 15-May-20:  Drill Start Tim 
 DTIM.hr                 20.75:  Time Drilling 
 EDEP.m                5124.01:  End Depth 
 ENG1.           Eldar Hajiyev:  Engineer 1 
 ENG2.        Marcelo Sandoval:  Engineer 2 
 ENG3.        Davud huseynzada:  Engineer 3 
 ENG4.          Ruslan Safarov:  Engineer 4 
 ETIM.      04.33.00 23-May-20:  End Time 
 FLOI.gpm               450.00:  Flow In 
 FLON.gpm               400.00:  Flow In Min 
 FLOS.cptm                0.00:  Fluid Loss 
 FLOX.gpm               500.00:  Flow In Max 
 FTRO.       Formation Presure:  FTWD Run Obj 
 HFLO.                      No:  High Flow 
 HPRE.                     Yes:  High Pressure 
 HTEM.                      No:  High Temp 
 HYDO.m                   1.80:  Hydro Offset 
 IFIN.deg                75.06:  Inc, Final 
 IMAX.deg                75.38:  Inc Max 
 IMIN.deg                74.69:  Inc Min 
 IMND.m                5027.38:  Inc Min Depth 
 IMXD.m                4771.61:  Inc Max Depth 
 JARR.                      No:  Jarring 
 LETM.      07.45.00 17-May-20:  Log End Time 
 LOST.hr                     0:  Lost Rig Time 
 LSTM.      22.50.00 15-May-20:  Log Start Time 
 MDCL.ppm             42000.00:  Mud Chlorides 
 MDES.     Inversion Oil/Synthetic:  Mud Desc 
 DFD .sg                  1.34:  Mud Density 
 MDMN.sg                  1.34:  Dens Mud Min 
 MDMX.sg                  1.34:  Dens Mud Max 
 MOIL.                       0:  Run Mud Oil % 
 MOWR.                   67:33:  Run Mud OWR 
 MSND.                       0:  Run Mud Sand % 
 MSOL.                     1.8:  Run Mud Solids% 
 DFV .spqt               76.00:  Mud Viscosity 
 MWOD.in                  6.75:  MWD Tool OD 
 MWSI.                      No:  Serv Intrp, MWD 
 OTIM.hr                228.19:  Time Operating 
 PCON.           Look Like New:  Pad Condition 
 PMAX.psia             6164.70:  Press Op, Max 
 PV  .cP                 28.00:  Mud PV 
 RUN .                     900:  Run Number 
 ROPA.m/hr               19.00:  ROP Avg 
 ROPN.m/hr               11.00:  ROP Min 
 ROPX.m/hr               36.00:  ROP Max 
 RPMA.rpm               120.00:  RPM Surface Avg 
 RPMN.rpm               120.00:  RPM Surface Min 
 RPMX.rpm               120.00:  RPM Surface Max 
 RRUN.                    L604:  Rig Run Number 
 RTIM.hr                  7.00:  Time Reaming 
 SAZI.deg               109.27:  Azm, Start 
 SDEP.m                4761.01:  Start Depth 
 SIDD.                      No:  Serv Intrp, DD 
 SINC.deg                75.38:  Inc, Start 
 SPPA.psig             3574.00:  SPP Avg 
 SPPN.psig             3475.00:  SPP Min 
 SPPX.psig             3791.00:  SPP Max 
 STIM.      07.08.48 13-May-20:  Start Time 
 SVCS.                 DD, MWD:  Services 
 SVER.                    9.20:  Sperry Version 
 TDAT.m                 363.00:  Tot Depth Attmp 
 TDDF.                      No:  Trip for DD 
 TDLG.m                 363.00:  Tot Depth Loggd 
 TFF .                      No:  Trip for Fail 
 TQAA.f-kp               20.00:  Torque Abs Avg 
 TQAN.f-kp               18.00:  Torque Abs Min 
 TQAX.f-kp               22.00:  Torque Abs Max 
 TRRT.°/30m              -0.35:  Turn Rotating 
 MRT .                    HCIM:  Maximum Recorded Temperature 
 TTMX.degC               92.16:  Max Tool Temp 
 VS01.                90586518:  Virtual Str1 SN 
 VS02.        AZ90560654Z1W1C6:  Virtual Str2 SN 
 VS03.           AZ90610398F11:  Virtual Str3 SN 
 VS04.                90514975:  Virtual Str4 SN 
 VS05.                90514972:  Virtual Str5 SN 
 VS06.     AZ90603282F11V7D1A6:  Virtual Str6 SN 
 WBMN.klb                 7.00:  WOB Min 
 WOBA.klb                12.00:  WOB Avg 
 WOBX.klb                14.00:  WOB Max 
 YP  .lhf2               32.00:  Yield Point 
~Curve Information Block
#MNEM.UNIT                 API CODE     Curve Description
#---------               -----------    ---------------------------
 TIME.HHMMSS            00 000 000 000:  GT Time & Date
 GTDEPTH.m              00 000 000 000:  GT Depth
 GTPQH.psia             00 000 000 000:  GT HR Quartz Pressure
 GTTQ.degC              00 000 000 000:  GT Quartz Temperature
 GTTN.NONE              00 000 000 000:  GT Test Number
 GTET.sec               00 000 000 000:  GT Elapsed Test Time
 GTTVD.m                00 000 000 000:  GT True Vertical Depth
#Other Information
#
#WARRANTY: Halliburton will use its best efforts to furnish customers with 
#accurate information and interpretations that are part of, and incident to, the services 
#provided.  However, Halliburton cannot and does not warrant the accuracy 
#or correctness of such information and interpretations.  Under no circumstances should any 
#such information or interpretation be relied upon as the sole basis for any drilling, 
#completion, production, or financial decision or any procedure involving any risk to the 
#safety of any drilling venture, drilling rig or its crew or any other third party.  The 
#Customer has full responsibility for all drilling, completion and production operation.  
#Halliburton makes no representations or warranties, either expressed or 
#implied, including, but not limited to, the implied warranties of merchantability or fitness 
#for a particular purpose, with respect to the services rendered.  In no event will 
#Halliburton be liable for failure to obtain any particular results or for 
#any damages, including, but not limited to, indirect, special or consequential damages, 
#resulting from the use of any information or interpretation provided by Halliburton.
#
~A           TIME           GTDEPTH  GTPQH  GTTQ  GTTN  GTET   GTTVD  
   17:25:16.318.17-May-2020 5032.01 5548.25 70.82 3.00   0.00 2600.96
   17:25:16.519.17-May-2020 5032.01 5547.58 70.82 3.00   0.20 2600.96
   17:25:16.719.17-May-2020 5032.01 5548.98 70.82 3.00   0.40 2600.96
   17:25:16.919.17-May-2020 5032.01 5550.48 70.82 3.00   0.60 2600.96
   17:25:17.119.17-May-2020 5032.01 5550.46 70.82 3.00   0.80 2600.96
   17:25:17.319.17-May-2020 5032.01 5549.30 70.82 3.00   1.00 2600.96
   17:25:17.520.17-May-2020 5032.01 5549.30 70.82 3.00   1.20 2600.96
   17:25:17.720.17-May-2020 5032.01 5557.64 70.82 3.00   1.40 2600.96
   17:25:17.920.17-May-2020 5032.01 5559.42 70.82 3.00   1.60 2600.96
   17:25:18.120.17-May-2020 5032.01 5549.21 70.82 3.00   1.80 2600.96
   17:25:18.320.17-May-2020 5032.01 5561.75 70.82 3.00   2.00 2600.96
   17:25:18.521.17-May-2020 5032.01 5561.75 70.82 3.00   2.20 2600.96
   17:25:18.721.17-May-2020 5032.01 5552.28 70.82 3.00   2.40 2600.96
   17:25:18.921.17-May-2020 5032.01 5552.18 70.82 3.00   2.60 2600.96
   17:25:19.121.17-May-2020 5032.01 5560.93 70.82 3.00   2.80 2600.96
   17:25:19.321.17-May-2020 5032.01 5561.56 70.82 3.00   3.00 2600.96
   17:25:19.521.17-May-2020 5032.01 5553.66 70.82 3.00   3.20 2600.96
   17:25:19.722.17-May-2020 5032.01 5552.65 70.82 3.00   3.40 2600.96
   17:25:19.922.17-May-2020 5032.01 5557.87 70.81 3.00   3.60 2600.96
   17:25:20.122.17-May-2020 5032.01 5562.36 70.81 3.00   3.80 2600.96
   17:25:20.322.17-May-2020 5032.01 5564.35 70.81 3.00   4.00 2600.96
   17:25:20.522.17-May-2020 5032.01 5564.35 70.81 3.00   4.20 2600.96
   17:25:20.723.17-May-2020 5032.01 5567.02 70.81 3.00   4.40 2600.96
   17:25:20.923.17-May-2020 5032.01 5567.81 70.81 3.00   4.60 2600.96
   17:25:21.123.17-May-2020 5032.01 5559.65 70.81 3.00   4.80 2600.96
   17:25:21.323.17-May-2020 5032.01 5559.60 70.81 3.00   5.00 2600.96
   17:25:21.523.17-May-2020 5032.01 5559.60 70.81 3.00   5.20 2600.96
   17:25:21.724.17-May-2020 5032.01 5565.69 70.81 3.00   5.41 2600.96
   17:25:21.924.17-May-2020 5032.01 5563.73 70.81 3.00   5.61 2600.96
   17:25:22.124.17-May-2020 5032.01 5560.40 70.81 3.00   5.81 2600.96
   17:25:22.324.17-May-2020 5032.01 5571.34 70.81 3.00   6.01 2600.96
   17:25:22.524.17-May-2020 5032.01 5571.34 70.81 3.00   6.21 2600.96
   17:25:22.724.17-May-2020 5032.01 5568.51 70.81 3.00   6.41 2600.96
   17:25:22.925.17-May-2020 5032.01 5560.09 70.81 3.00   6.61 2600.96
   17:25:23.125.17-May-2020 5032.01 5560.52 70.81 3.00   6.81 2600.96
   17:25:23.325.17-May-2020 5032.01 5564.68 70.81 3.00   7.01 2600.96
   17:25:23.525.17-May-2020 5032.01 5562.79 70.81 3.00   7.21 2600.96
   17:25:23.725.17-May-2020 5032.01 5561.52 70.81 3.00   7.41 2600.96
   17:25:23.926.17-May-2020 5032.01 5561.06 70.81 3.00   7.61 2600.96
   17:25:24.126.17-May-2020 5032.01 5561.17 70.81 3.00   7.81 2600.96
   17:25:24.326.17-May-2020 5032.01 5561.84 70.81 3.00   8.01 2600.96
   17:25:24.526.17-May-2020 5032.01 5561.84 70.81 3.00   8.21 2600.96
   17:25:24.726.17-May-2020 5032.01 5561.84 70.81 3.00   8.41 2600.96
   17:25:24.927.17-May-2020 5032.01 5569.31 70.81 3.00   8.61 2600.96
   17:25:25.127.17-May-2020 5032.01 5562.47 70.81 3.00   8.81 2600.96
   17:25:25.327.17-May-2020 5032.01 5564.33 70.81 3.00   9.01 2600.96
   17:25:25.527.17-May-2020 5032.01 5564.33 70.81 3.00   9.21 2600.96
   17:25:25.727.17-May-2020 5032.01 5565.90 70.81 3.00   9.41 2600.96
   17:25:25.927.17-May-2020 5032.01 5565.88 70.81 3.00   9.61 2600.96
   17:25:26.128.17-May-2020 5032.01 5564.56 70.81 3.00   9.81 2600.96
   17:25:26.328.17-May-2020 5032.01 5565.84 70.81 3.00  10.01 2600.96
   17:25:26.528.17-May-2020 5032.01 5565.84 70.81 3.00  10.21 2600.96
   17:25:26.728.17-May-2020 5032.01 5565.97 70.81 3.00  10.41 2600.96
   17:25:26.928.17-May-2020 5032.01 5578.44 70.81 3.00  10.61 2600.96
   17:25:27.129.17-May-2020 5032.01 5569.80 70.81 3.00  10.81 2600.96
   17:25:27.329.17-May-2020 5032.01 5570.52 70.81 3.00  11.01 2600.96
   17:25:27.529.17-May-2020 5032.01 5564.99 70.81 3.00  11.21 2600.96
   17:25:27.729.17-May-2020 5032.01 5575.62 70.81 3.00  11.41 2600.96
   17:25:27.929.17-May-2020 5032.01 5576.58 70.81 3.00  11.61 2600.96
   17:25:28.130.17-May-2020 5032.01 5575.50 70.81 3.00  11.81 2600.96
   17:25:28.330.17-May-2020 5032.01 5564.27 70.81 3.00  12.01 2600.96
   17:25:28.530.17-May-2020 5032.01 5566.53 70.80 3.00  12.21 2600.96
   17:25:28.730.17-May-2020 5032.01 5581.51 70.80 3.00  12.41 2600.96
   17:25:28.930.17-May-2020 5032.01 5577.42 70.80 3.00  12.61 2600.96
   17:25:29.130.17-May-2020 5032.01 5566.51 70.80 3.00  12.81 2600.96
   17:25:29.331.17-May-2020 5032.01 5567.20 70.80 3.00  13.01 2600.96
   17:25:29.531.17-May-2020 5032.01 5567.20 70.80 3.00  13.21 2600.96
   17:25:29.731.17-May-2020 5032.01 5574.26 70.80 3.00  13.41 2600.96
   17:25:29.931.17-May-2020 5032.01 5568.42 70.80 3.00  13.61 2600.96
   17:25:30.131.17-May-2020 5032.01 5581.70 70.80 3.00  13.81 2600.96
   17:25:30.332.17-May-2020 5032.01 5571.95 70.80 3.00  14.01 2600.96
   17:25:30.532.17-May-2020 5032.01 5571.95 70.80 3.00  14.21 2600.96
   17:25:30.732.17-May-2020 5032.01 5568.30 70.80 3.00  14.41 2600.96
   17:25:30.932.17-May-2020 5032.01 5579.27 70.80 3.00  14.61 2600.96
   17:25:31.132.17-May-2020 5032.01 5578.99 70.80 3.00  14.81 2600.96
   17:25:31.333.17-May-2020 5032.01 5570.69 70.80 3.00  15.01 2600.96
   17:25:31.533.17-May-2020 5032.01 5568.46 70.80 3.00  15.21 2600.96
   17:25:31.733.17-May-2020 5032.01 5568.87 70.80 3.00  15.41 2600.96
   17:25:31.933.17-May-2020 5032.01 5570.40 70.80 3.00  15.61 2600.96
   17:25:32.133.17-May-2020 5032.01 5570.09 70.80 3.00  15.81 2600.96
   17:25:32.333.17-May-2020 5032.01 5568.06 70.80 3.00  16.01 2600.96
   17:25:32.534.17-May-2020 5032.01 5567.85 70.80 3.00  16.22 2600.96
   17:25:32.734.17-May-2020 5032.01 5568.48 70.80 3.00  16.42 2600.96
   17:25:32.934.17-May-2020 5032.01 5582.52 70.80 3.00  16.62 2600.96
   17:25:33.134.17-May-2020 5032.01 5572.45 70.80 3.00  16.82 2600.96
   17:25:33.334.17-May-2020 5032.01 5569.89 70.80 3.00  17.02 2600.96
   17:25:33.535.17-May-2020 5032.01 5569.89 70.80 3.00  17.22 2600.96
   17:25:33.735.17-May-2020 5032.01 5569.48 70.80 3.00  17.42 2600.96
   17:25:33.935.17-May-2020 5032.01 5571.98 70.80 3.00  17.62 2600.96
   17:25:34.135.17-May-2020 5032.01 5571.02 70.80 3.00  17.82 2600.96
   17:25:34.335.17-May-2020 5032.01 5569.56 70.80 3.00  18.02 2600.96
   17:25:34.536.17-May-2020 5032.01 5569.56 70.80 3.00  18.22 2600.96
   17:25:34.736.17-May-2020 5032.01 5570.69 70.80 3.00  18.42 2600.96
   17:25:34.936.17-May-2020 5032.01 5570.57 70.80 3.00  18.62 2600.96
   17:25:35.136.17-May-2020 5032.01 5580.62 70.80 3.00  18.82 2600.96
   17:25:35.336.17-May-2020 5032.01 5573.06 70.80 3.00  19.02 2600.96
   17:25:35.536.17-May-2020 5032.01 5573.06 70.80 3.00  19.22 2600.96
   17:25:35.737.17-May-2020 5032.01 5569.29 70.80 3.00  19.42 2600.96
   17:25:35.937.17-May-2020 5032.01 5570.81 70.80 3.00  19.62 2600.96
   17:25:36.137.17-May-2020 5032.01 5585.44 70.80 3.00  19.82 2600.96
   17:25:36.337.17-May-2020 5032.01 5579.66 70.80 3.00  20.02 2600.96
   17:25:36.537.17-May-2020 5032.01 5571.88 70.80 3.00  20.22 2600.96
   17:25:36.738.17-May-2020 5032.01 5573.06 70.80 3.00  20.42 2600.96
   17:25:36.938.17-May-2020 5032.01 5586.60 70.80 3.00  20.62 2600.96
   17:25:37.138.17-May-2020 5032.01 5577.58 70.79 3.00  20.82 2600.96
   17:25:37.338.17-May-2020 5032.01 5574.06 70.79 3.00  21.02 2600.96
   17:25:37.538.17-May-2020 5032.01 5574.06 70.79 3.00  21.22 2600.96
   17:25:37.739.17-May-2020 5032.01 5580.93 70.79 3.00  21.42 2600.96
   17:25:37.939.17-May-2020 5032.01 5578.29 70.79 3.00  21.62 2600.96
   17:25:38.139.17-May-2020 5032.01 5580.34 70.79 3.00  21.82 2600.96
   17:25:38.339.17-May-2020 5032.01 5570.20 70.79 3.00  22.02 2600.96
   17:25:38.539.17-May-2020 5032.01 5570.20 70.79 3.00  22.22 2600.96
   17:25:38.739.17-May-2020 5032.01 5575.70 70.79 3.00  22.42 2600.96
   17:25:38.940.17-May-2020 5032.01 5573.33 70.79 3.00  22.62 2600.96
   17:25:39.140.17-May-2020 5032.01 5572.14 70.79 3.00  22.82 2600.96
