~Version Information
 VERS.                  2.0:   CWLS log ASCII Standard -VERSION 2.0
 WRAP.                   NO:   One line per depth step
~Well Information Block
#MNEM.UNIT     VALUE/NAME     DESCRIPTION
#---------     -----------    ---------------------------
 STRT.S             01:27:41 18-May-20: START TIME 01:27:41 18-May-20
 STOP.S             01:34:42 18-May-20: STOP TIME  01:34:42 18-May-20
 STEP.S                   0.00: STEP TIME
 NULL.                 -999.25: NULL VALUE
 UNIT.                     N/A:  LOGGING EQUIPMENT ID
 DCON.         Sperry Drilling:  DIRECTNL CONTR
 DOE .                     N/A:  DOE NUMBER
 JOBN.        AZ-XX-0906252240:  JOB TICKET NUMB
 MWDS.                     N/A:  MWD SHOP
 PROV.                    Baku:  PROVINCE
 STAT.                    Baku:  STATE NAME
 REGN.                   EESSA:  REGION
 BASE.              Azerbaijan:  LOGGING EQUIPMENT BASE LOCATION
 UWI .                     N/A:  UNIQUE WELL IDENTIFIER
 API .                     N/A:  API NUMBER
 MDS .        Operator Entered:  MAG DATA SOURCE
 WTYP.                Deviated:  WELL TYPE
 COMP.     BP Exploration (Caspian Sea) Ltd.:  COMPANY
 SRVC.          Turan Drilling:  CONTRACTOR
 WELL.           J23 (Slot 07):  WELL NAME
 CTRY.              Azerbaijan:  COUNTRY NAME
 FLD .                     ACG:  FIELD NAME
 PDAT.          Mean Sea Level:  PERMANENT DATUM
 RIG .             West Chirag:  RIG NAME
 SON .        AZ-XX-0906252240:  JOB NUMBER
 FTOP.          Formation Tops:  FORM TOPS DESC
 ILTD.               Lithology:  INTERP LTH DESC
 SVYD.                  Survey:  SURVEY DESC
 DMOD.             Drill Model:  DRILL MOD DESC
 HPTY.       Minimum Curvature:  HOLE POS TYPE
 NREF.                    Grid:  NORTH REFERENCE
 SPUD.               27-Aug-20:  SPUD DATE
 DATE.      00.00.00 19-May-20:  END TIME
 STIM.      03.00.00 25-Mar-20:  START TIME
 DMF .             Drill Floor:  DRILL MEAS FROM
 DFST.                        :  DIST FSL TEXT
 DFWT.                        :  DIST FWL TEXT
 CNTY.                        :  COUNTY
 LOC .                        :  LOCATION
 LMF .             Drill Floor:  LOG MEASURED FROM
 VSNS.m                   9.43:  VERT SEC N/S
 VSEW.m                  -8.91:  VERT SEC E/W
 AGAP.m                  43.00:  AIR GAP
 DEP .m                 354.17:  DEPTH
 APD .m                  43.00:  DEPTH ABOVE PD
 WDMS.m                 169.80:  WD ELEV
 EGL .m                   0.00:  GROUND ELEVATION
 EPD .m                   0.00:  ELEVATION
 AZTC.deg                 6.31:  AZM TOTAL CORR
 GRDC.deg                 0.14:  GRID CORRECTION
 MDEC.deg                 6.45:  MAGNETIC DECL
 MDIP.deg                59.56:  MAGNETIC DIP
 MFLD.nT              50295.00:  MAGNETIC FIELD
 GVFD.g                   1.00:  GRAVITY FIELD
 VSDR.deg               179.88:  VERT SEC DIRECT
 TDD .m                5150.01:  TOTAL DEPTH (DRILLER)
 SDEP.m                 864.00:  START DEPTH
 DFSL.m                   0.00:  DISTANCE FSL
 DFWL.m                   0.00:  DISTANCE FWL
 UTMY.m             4443793.85:  UTM Y
 UTMX.m              519005.06:  UTM X
 WHEW.m                  -8.91:  WELL HEAD E/W
 WHNS.m                   9.43:  WELL HEAD N/S
 LONG.deg                51.22:  LONGITUDE
 LATI.deg                40.13:  LATITUDE
 TVDS.m                  43.00:  TVDSS CORRECTN
 EKB .m                   0.00:  KB ELEVATION
 EDF .m                  43.00:  DF ELEVATION
 TDL .m                 363.00:  TOTAL DEPTH (LOGGER)
 MAGU.                 1850802:  MAGUTM CHECKSUM
 VSC .                       0:  VS TO CLOSURE
~Parameter Information Block
#MNEM.UNIT       Value        Description
#---------     -----------    ---------------------------
 AV  .mps                 2.30:  Ann Velocity 
 AVMX.mps                 4.40:  Max Ann Veloc 
 AZIF.deg               110.24:  Azm, Final 
 BHAT.        Rotary Steerable:  BHA Type 
 BREV.rev               331.00:  Rev Bit Total 
 BROT.°/30m               0.00:  Build Rotating 
 BS  .in                  8.50:  Bit Size 
 BSZ .in                  8.50:  Bit Size 
 BTPL.psig              585.00:  Bit Press Loss 
 CABU.                     Yes:  Customer Abuse 
 COMM.                     tPr:  Run Comments 1 
 TCS .hr                122.75:  Time Ciculation Ended 
 CV  .mps                 2.67:  Crit Velocity 
 CVMX.mps                 3.56:  Max Crit Veloc 
 DD1 .          Rashad Habibov:  Direct Drillr 1 
 DD2 .         Rasim Ibrahimov:  Direct Drillr 2 
 DDSV.               Geo-Pilot:  DD Service 
 DEFF.%                  98.00:  % Det Eff 
 DLRX.°/30m               0.75:  Dogleg Rot Max 
 DLSO.°/30m               1.25:  Dogleg Oriented 
 DLSX.°/30m               2.06:  Dogleg Str Max 
 DRET.      07.45.00 17-May-20:  Drill End Time 
 DRST.      22.50.00 15-May-20:  Drill Start Tim 
 DTIM.hr                 20.75:  Time Drilling 
 EDEP.m                5124.01:  End Depth 
 ENG1.           Eldar Hajiyev:  Engineer 1 
 ENG2.        Marcelo Sandoval:  Engineer 2 
 ENG3.        Davud huseynzada:  Engineer 3 
 ENG4.          Ruslan Safarov:  Engineer 4 
 ETIM.      04.33.00 23-May-20:  End Time 
 FLOI.gpm               450.00:  Flow In 
 FLON.gpm               400.00:  Flow In Min 
 FLOS.cptm                0.00:  Fluid Loss 
 FLOX.gpm               500.00:  Flow In Max 
 FTRO.       Formation Presure:  FTWD Run Obj 
 HFLO.                      No:  High Flow 
 HPRE.                     Yes:  High Pressure 
 HTEM.                      No:  High Temp 
 HYDO.m                   1.80:  Hydro Offset 
 IFIN.deg                75.06:  Inc, Final 
 IMAX.deg                75.38:  Inc Max 
 IMIN.deg                74.69:  Inc Min 
 IMND.m                5027.38:  Inc Min Depth 
 IMXD.m                4771.61:  Inc Max Depth 
 JARR.                      No:  Jarring 
 LETM.      07.45.00 17-May-20:  Log End Time 
 LOST.hr                     0:  Lost Rig Time 
 LSTM.      22.50.00 15-May-20:  Log Start Time 
 MDCL.ppm             42000.00:  Mud Chlorides 
 MDES.     Inversion Oil/Synthetic:  Mud Desc 
 DFD .sg                  1.34:  Mud Density 
 MDMN.sg                  1.34:  Dens Mud Min 
 MDMX.sg                  1.34:  Dens Mud Max 
 MOIL.                       0:  Run Mud Oil % 
 MOWR.                   67:33:  Run Mud OWR 
 MSND.                       0:  Run Mud Sand % 
 MSOL.                     1.8:  Run Mud Solids% 
 DFV .spqt               76.00:  Mud Viscosity 
 MWOD.in                  6.75:  MWD Tool OD 
 MWSI.                      No:  Serv Intrp, MWD 
 OTIM.hr                228.19:  Time Operating 
 PCON.           Look Like New:  Pad Condition 
 PMAX.psia             6164.70:  Press Op, Max 
 PV  .cP                 28.00:  Mud PV 
 RUN .                     900:  Run Number 
 ROPA.m/hr               19.00:  ROP Avg 
 ROPN.m/hr               11.00:  ROP Min 
 ROPX.m/hr               36.00:  ROP Max 
 RPMA.rpm               120.00:  RPM Surface Avg 
 RPMN.rpm               120.00:  RPM Surface Min 
 RPMX.rpm               120.00:  RPM Surface Max 
 RRUN.                    L604:  Rig Run Number 
 RTIM.hr                  7.00:  Time Reaming 
 SAZI.deg               109.27:  Azm, Start 
 SDEP.m                4761.01:  Start Depth 
 SIDD.                      No:  Serv Intrp, DD 
 SINC.deg                75.38:  Inc, Start 
 SPPA.psig             3574.00:  SPP Avg 
 SPPN.psig             3475.00:  SPP Min 
 SPPX.psig             3791.00:  SPP Max 
 STIM.      07.08.48 13-May-20:  Start Time 
 SVCS.                 DD, MWD:  Services 
 SVER.                    9.20:  Sperry Version 
 TDAT.m                 363.00:  Tot Depth Attmp 
 TDDF.                      No:  Trip for DD 
 TDLG.m                 363.00:  Tot Depth Loggd 
 TFF .                      No:  Trip for Fail 
 TQAA.f-kp               20.00:  Torque Abs Avg 
 TQAN.f-kp               18.00:  Torque Abs Min 
 TQAX.f-kp               22.00:  Torque Abs Max 
 TRRT.°/30m              -0.35:  Turn Rotating 
 MRT .                    HCIM:  Maximum Recorded Temperature 
 TTMX.degC               92.16:  Max Tool Temp 
 VS01.                90586518:  Virtual Str1 SN 
 VS02.        AZ90560654Z1W1C6:  Virtual Str2 SN 
 VS03.           AZ90610398F11:  Virtual Str3 SN 
 VS04.                90514975:  Virtual Str4 SN 
 VS05.                90514972:  Virtual Str5 SN 
 VS06.     AZ90603282F11V7D1A6:  Virtual Str6 SN 
 WBMN.klb                 7.00:  WOB Min 
 WOBA.klb                12.00:  WOB Avg 
 WOBX.klb                14.00:  WOB Max 
 YP  .lhf2               32.00:  Yield Point 
~Curve Information Block
#MNEM.UNIT                 API CODE     Curve Description
#---------               -----------    ---------------------------
 TIME.HHMMSS            00 000 000 000:  GT Time & Date
 GTDEPTH.m              00 000 000 000:  GT Depth
 GTPQH.psia             00 000 000 000:  GT HR Quartz Pressure
 GTTQ.degC              00 000 000 000:  GT Quartz Temperature
 GTTN.NONE              00 000 000 000:  GT Test Number
 GTET.sec               00 000 000 000:  GT Elapsed Test Time
 GTTVD.m                00 000 000 000:  GT True Vertical Depth
#Other Information
#
#WARRANTY: Halliburton will use its best efforts to furnish customers with 
#accurate information and interpretations that are part of, and incident to, the services 
#provided.  However, Halliburton cannot and does not warrant the accuracy 
#or correctness of such information and interpretations.  Under no circumstances should any 
#such information or interpretation be relied upon as the sole basis for any drilling, 
#completion, production, or financial decision or any procedure involving any risk to the 
#safety of any drilling venture, drilling rig or its crew or any other third party.  The 
#Customer has full responsibility for all drilling, completion and production operation.  
#Halliburton makes no representations or warranties, either expressed or 
#implied, including, but not limited to, the implied warranties of merchantability or fitness 
#for a particular purpose, with respect to the services rendered.  In no event will 
#Halliburton be liable for failure to obtain any particular results or for 
#any damages, including, but not limited to, indirect, special or consequential damages, 
#resulting from the use of any information or interpretation provided by Halliburton.
#
~A           TIME           GTDEPTH  GTPQH  GTTQ  GTTN   GTET   GTTVD  
# ...
   01:30:20.105.18-May-2020 4854.01 3136.29 66.55 11.00 158.26 2555.10
   01:30:20.305.18-May-2020 4854.01 3137.19 66.55 11.00 158.46 2555.10
   01:30:20.505.18-May-2020 4854.01 3136.81 66.55 11.00 158.66 2555.10
   01:30:20.705.18-May-2020 4854.01 3136.93 66.55 11.00 158.86 2555.10
   01:30:20.905.18-May-2020 4854.01 3136.77 66.55 11.00 159.06 2555.10
   01:30:21.105.18-May-2020 4854.01 3136.77 66.55 11.00 159.26 2555.10
   01:30:21.305.18-May-2020 4854.01 3137.44 66.55 11.00 159.46 2555.10
   01:30:21.505.18-May-2020 4854.01 3139.32 66.55 11.00 159.66 2555.10
   01:30:21.705.18-May-2020 4854.01 3147.20 66.55 11.00 159.86 2555.10
   01:30:21.905.18-May-2020 4854.01 3157.41 66.55 11.00 160.06 2555.10
   01:30:22.105.18-May-2020 4854.01 3157.41 66.55 11.00 160.26 2555.10
   01:30:22.306.18-May-2020 4854.01 3157.76 66.55 11.00 160.46 2555.10
   01:30:22.506.18-May-2020 4854.01 3157.78 66.55 11.00 160.66 2555.10
   01:30:22.706.18-May-2020 4854.01 3157.80 66.55 11.00 160.86 2555.10
   01:30:22.906.18-May-2020 4854.01 3157.83 66.55 11.00 161.06 2555.10
   01:30:23.106.18-May-2020 4854.01 3157.83 66.55 11.00 161.27 2555.10
   01:30:23.306.18-May-2020 4854.01 3158.10 66.55 11.00 161.47 2555.10
   01:30:23.506.18-May-2020 4854.01 3157.84 66.55 11.00 161.67 2555.10
   01:30:23.706.18-May-2020 4854.01 3157.97 66.55 11.00 161.87 2555.10
   01:30:23.906.18-May-2020 4854.01 3158.05 66.55 11.00 162.07 2555.10
   01:30:24.106.18-May-2020 4854.01 3158.05 66.55 11.00 162.27 2555.10
   01:30:24.306.18-May-2020 4854.01 3157.83 66.55 11.00 162.47 2555.10
   01:30:24.506.18-May-2020 4854.01 3158.02 66.55 11.00 162.67 2555.10
   01:30:24.706.18-May-2020 4854.01 3158.07 66.55 11.00 162.87 2555.10
   01:30:24.907.18-May-2020 4854.01 3158.26 66.55 11.00 163.07 2555.10
   01:30:25.107.18-May-2020 4854.01 3158.26 66.55 11.00 163.27 2555.10
   01:30:25.307.18-May-2020 4854.01 3158.04 66.55 11.00 163.47 2555.10
   01:30:25.507.18-May-2020 4854.01 3158.11 66.55 11.00 163.67 2555.10
   01:30:25.707.18-May-2020 4854.01 3158.08 66.55 11.00 163.87 2555.10
   01:30:25.907.18-May-2020 4854.01 3158.02 66.55 11.00 164.07 2555.10
   01:30:26.107.18-May-2020 4854.01 3158.02 66.55 11.00 164.27 2555.10
   01:30:26.307.18-May-2020 4854.01 3158.10 66.55 11.00 164.47 2555.10
   01:30:26.507.18-May-2020 4854.01 3158.06 66.55 11.00 164.67 2555.10
   01:30:26.707.18-May-2020 4854.01 3158.07 66.55 11.00 164.87 2555.10
   01:30:26.907.18-May-2020 4854.01 3158.07 66.55 11.00 165.07 2555.10
   01:30:27.107.18-May-2020 4854.01 3158.07 66.55 11.00 165.27 2555.10
   01:30:27.308.18-May-2020 4854.01 3158.07 66.55 11.00 165.47 2555.10
   01:30:27.508.18-May-2020 4854.01 3158.08 66.55 11.00 165.67 2555.10
   01:30:27.708.18-May-2020 4854.01 3158.07 66.55 11.00 165.87 2555.10
   01:30:27.908.18-May-2020 4854.01 3158.33 66.55 11.00 166.07 2555.10
   01:30:28.108.18-May-2020 4854.01 3158.33 66.55 11.00 166.27 2555.10
   01:30:28.308.18-May-2020 4854.01 3158.05 66.55 11.00 166.47 2555.10
   01:30:28.508.18-May-2020 4854.01 3158.14 66.55 11.00 166.67 2555.10
   01:30:28.708.18-May-2020 4854.01 3158.10 66.55 11.00 166.87 2555.10
   01:30:28.908.18-May-2020 4854.01 3158.07 66.55 11.00 167.07 2555.10
   01:30:29.108.18-May-2020 4854.01 3158.07 66.55 11.00 167.27 2555.10
   01:30:29.308.18-May-2020 4854.01 3158.08 66.55 11.00 167.47 2555.10
   01:30:29.508.18-May-2020 4854.01 3158.10 66.55 11.00 167.67 2555.10
   01:30:29.709.18-May-2020 4854.01 3158.10 66.55 11.00 167.87 2555.10
   01:30:29.909.18-May-2020 4854.01 3158.11 66.55 11.00 168.07 2555.10
   01:30:30.109.18-May-2020 4854.01 3158.11 66.55 11.00 168.27 2555.10
   01:30:30.309.18-May-2020 4854.01 3158.16 66.55 11.00 168.47 2555.10
   01:30:30.509.18-May-2020 4854.01 3158.14 66.55 11.00 168.67 2555.10
   01:30:30.709.18-May-2020 4854.01 3158.10 66.55 11.00 168.87 2555.10
   01:30:30.909.18-May-2020 4854.01 3158.16 66.55 11.00 169.07 2555.10
   01:30:31.109.18-May-2020 4854.01 3158.16 66.55 11.00 169.27 2555.10
   01:30:31.309.18-May-2020 4854.01 3158.09 66.55 11.00 169.47 2555.10
   01:30:31.509.18-May-2020 4854.01 3158.10 66.55 11.00 169.67 2555.10
   01:30:31.709.18-May-2020 4854.01 3158.16 66.55 11.00 169.87 2555.10
   01:30:31.909.18-May-2020 4854.01 3158.16 66.55 11.00 170.07 2555.10
   01:30:32.109.18-May-2020 4854.01 3158.16 66.55 11.00 170.27 2555.10
   01:30:32.310.18-May-2020 4854.01 3158.18 66.55 11.00 170.47 2555.10
   01:30:32.510.18-May-2020 4854.01 3158.10 66.55 11.00 170.67 2555.10
   01:30:32.710.18-May-2020 4854.01 3158.15 66.55 11.00 170.87 2555.10
   01:30:32.910.18-May-2020 4854.01 3158.13 66.55 11.00 171.07 2555.10
   01:30:33.110.18-May-2020 4854.01 3158.13 66.55 11.00 171.27 2555.10
   01:30:33.310.18-May-2020 4854.01 3158.12 66.55 11.00 171.47 2555.10
   01:30:33.510.18-May-2020 4854.01 3158.11 66.55 11.00 171.67 2555.10
   01:30:33.710.18-May-2020 4854.01 3158.11 66.55 11.00 171.87 2555.10
   01:30:33.910.18-May-2020 4854.01 3158.11 66.55 11.00 172.07 2555.10
   01:30:34.110.18-May-2020 4854.01 3158.11 66.55 11.00 172.27 2555.10
   01:30:34.310.18-May-2020 4854.01 3158.12 66.55 11.00 172.47 2555.10
   01:30:34.510.18-May-2020 4854.01 3158.35 66.55 11.00 172.67 2555.10
   01:30:34.711.18-May-2020 4854.01 3157.95 66.55 11.00 172.87 2555.10
   01:30:34.911.18-May-2020 4854.01 3158.09 66.55 11.00 173.07 2555.10
   01:30:35.111.18-May-2020 4854.01 3158.09 66.55 11.00 173.27 2555.10
   01:30:35.311.18-May-2020 4854.01 3158.15 66.55 11.00 173.47 2555.10
   01:30:35.511.18-May-2020 4854.01 3158.10 66.55 11.00 173.67 2555.10
   01:30:35.711.18-May-2020 4854.01 3158.13 66.55 11.00 173.87 2555.10
   01:30:35.911.18-May-2020 4854.01 3158.11 66.55 11.00 174.07 2555.10
   01:30:36.111.18-May-2020 4854.01 3158.11 66.55 11.00 174.27 2555.10
   01:30:36.311.18-May-2020 4854.01 3158.13 66.55 11.00 174.47 2555.10
   01:30:36.511.18-May-2020 4854.01 3158.14 66.55 11.00 174.67 2555.10
   01:30:36.711.18-May-2020 4854.01 3158.12 66.55 11.00 174.87 2555.10
   01:30:36.911.18-May-2020 4854.01 3158.20 66.55 11.00 175.07 2555.10
   01:30:37.111.18-May-2020 4854.01 3158.20 66.55 11.00 175.27 2555.10
   01:30:37.312.18-May-2020 4854.01 3158.11 66.55 11.00 175.47 2555.10
   01:30:37.512.18-May-2020 4854.01 3158.25 66.55 11.00 175.67 2555.10
   01:30:37.712.18-May-2020 4854.01 3158.08 66.55 11.00 175.87 2555.10
   01:30:37.912.18-May-2020 4854.01 3158.14 66.55 11.00 176.07 2555.10
   01:30:38.112.18-May-2020 4854.01 3158.14 66.55 11.00 176.27 2555.10
   01:30:38.312.18-May-2020 4854.01 3158.18 66.55 11.00 176.47 2555.10
   01:30:38.512.18-May-2020 4854.01 3158.17 66.55 11.00 176.67 2555.10
   01:30:38.712.18-May-2020 4854.01 3158.05 66.55 11.00 176.87 2555.10
   01:30:38.912.18-May-2020 4854.01 3158.39 66.55 11.00 177.07 2555.10
   01:30:39.112.18-May-2020 4854.01 3158.39 66.55 11.00 177.27 2555.10
   01:30:39.312.18-May-2020 4854.01 3158.11 66.55 11.00 177.47 2555.10
   01:30:39.512.18-May-2020 4854.01 3158.21 66.55 11.00 177.67 2555.10
   01:30:39.713.18-May-2020 4854.01 3158.09 66.55 11.00 177.87 2555.10
   01:30:39.913.18-May-2020 4854.01 3158.14 66.55 11.00 178.07 2555.10
   01:30:40.113.18-May-2020 4854.01 3158.14 66.55 11.00 178.27 2555.10
   01:30:40.313.18-May-2020 4854.01 3158.12 66.55 11.00 178.47 2555.10
   01:30:40.513.18-May-2020 4854.01 3158.13 66.55 11.00 178.67 2555.10
   01:30:40.713.18-May-2020 4854.01 3158.13 66.55 11.00 178.87 2555.10
   01:30:40.913.18-May-2020 4854.01 3158.13 66.55 11.00 179.07 2555.10
   01:30:41.113.18-May-2020 4854.01 3158.13 66.55 11.00 179.27 2555.10
   01:30:41.313.18-May-2020 4854.01 3158.22 66.55 11.00 179.47 2555.10
   01:30:41.513.18-May-2020 4854.01 3158.08 66.55 11.00 179.67 2555.10
   01:30:41.713.18-May-2020 4854.01 3158.14 66.55 11.00 179.87 2555.10
   01:30:41.913.18-May-2020 4854.01 3158.16 66.55 11.00 180.07 2555.10
   01:30:42.114.18-May-2020 4854.01 3158.16 66.55 11.00 180.27 2555.10
   01:30:42.314.18-May-2020 4854.01 3158.12 66.55 11.00 180.47 2555.10
   01:30:42.514.18-May-2020 4854.01 3158.13 66.55 11.00 180.67 2555.10
