~Version Information
 VERS.                  2.0:   CWLS log ASCII Standard -VERSION 2.0
 WRAP.                   NO:   One line per depth step
~Well Information Block
#MNEM.UNIT     VALUE/NAME     DESCRIPTION
#---------     -----------    ---------------------------
 STRT.S             12:13:26 20-May-20: START TIME 12:13:26 20-May-20
 STOP.S             12:20:31 20-May-20: STOP TIME  12:20:31 20-May-20
 STEP.S                   0.00: STEP TIME
 NULL.                 -999.25: NULL VALUE
 UNIT.                     N/A:  LOGGING EQUIPMENT ID
 DCON.         Sperry Drilling:  DIRECTNL CONTR
 DOE .                     N/A:  DOE NUMBER
 JOBN.        AZ-XX-0906252240:  JOB TICKET NUMB
 MWDS.                     N/A:  MWD SHOP
 PROV.                    Baku:  PROVINCE
 STAT.                    Baku:  STATE NAME
 REGN.                   EESSA:  REGION
 BASE.              Azerbaijan:  LOGGING EQUIPMENT BASE LOCATION
 UWI .                     N/A:  UNIQUE WELL IDENTIFIER
 API .                     N/A:  API NUMBER
 MDS .        Operator Entered:  MAG DATA SOURCE
 WTYP.                Deviated:  WELL TYPE
 COMP.     BP Exploration (Caspian Sea) Ltd.:  COMPANY
 SRVC.          Turan Drilling:  CONTRACTOR
 WELL.           J23 (Slot 07):  WELL NAME
 CTRY.              Azerbaijan:  COUNTRY NAME
 FLD .                     ACG:  FIELD NAME
 PDAT.          Mean Sea Level:  PERMANENT DATUM
 RIG .             West Chirag:  RIG NAME
 SON .        AZ-XX-0906252240:  JOB NUMBER
 FTOP.          Formation Tops:  FORM TOPS DESC
 ILTD.               Lithology:  INTERP LTH DESC
 SVYD.                  Survey:  SURVEY DESC
 DMOD.             Drill Model:  DRILL MOD DESC
 HPTY.       Minimum Curvature:  HOLE POS TYPE
 NREF.                    Grid:  NORTH REFERENCE
 SPUD.               27-Aug-20:  SPUD DATE
 DATE.      00.00.00 19-May-20:  END TIME
 STIM.      03.00.00 25-Mar-20:  START TIME
 DMF .             Drill Floor:  DRILL MEAS FROM
 DFST.                        :  DIST FSL TEXT
 DFWT.                        :  DIST FWL TEXT
 CNTY.                        :  COUNTY
 LOC .                        :  LOCATION
 LMF .             Drill Floor:  LOG MEASURED FROM
 VSNS.m                   9.43:  VERT SEC N/S
 VSEW.m                  -8.91:  VERT SEC E/W
 AGAP.m                  43.00:  AIR GAP
 DEP .m                 354.17:  DEPTH
 APD .m                  43.00:  DEPTH ABOVE PD
 WDMS.m                 169.80:  WD ELEV
 EGL .m                   0.00:  GROUND ELEVATION
 EPD .m                   0.00:  ELEVATION
 AZTC.deg                 6.31:  AZM TOTAL CORR
 GRDC.deg                 0.14:  GRID CORRECTION
 MDEC.deg                 6.45:  MAGNETIC DECL
 MDIP.deg                59.56:  MAGNETIC DIP
 MFLD.nT              50295.00:  MAGNETIC FIELD
 GVFD.g                   1.00:  GRAVITY FIELD
 VSDR.deg               179.88:  VERT SEC DIRECT
 TDD .m                5150.01:  TOTAL DEPTH (DRILLER)
 SDEP.m                 864.00:  START DEPTH
 DFSL.m                   0.00:  DISTANCE FSL
 DFWL.m                   0.00:  DISTANCE FWL
 UTMY.m             4443793.85:  UTM Y
 UTMX.m              519005.06:  UTM X
 WHEW.m                  -8.91:  WELL HEAD E/W
 WHNS.m                   9.43:  WELL HEAD N/S
 LONG.deg                51.22:  LONGITUDE
 LATI.deg                40.13:  LATITUDE
 TVDS.m                  43.00:  TVDSS CORRECTN
 EKB .m                   0.00:  KB ELEVATION
 EDF .m                  43.00:  DF ELEVATION
 TDL .m                 363.00:  TOTAL DEPTH (LOGGER)
 MAGU.                 1850802:  MAGUTM CHECKSUM
 VSC .                       0:  VS TO CLOSURE
~Parameter Information Block
#MNEM.UNIT       Value        Description
#---------     -----------    ---------------------------
 AV  .mps                 2.30:  Ann Velocity 
 AVMX.mps                 4.40:  Max Ann Veloc 
 AZIF.deg               110.24:  Azm, Final 
 BHAT.        Rotary Steerable:  BHA Type 
 BREV.rev               331.00:  Rev Bit Total 
 BROT.°/30m               0.00:  Build Rotating 
 BS  .in                  8.50:  Bit Size 
 BSZ .in                  8.50:  Bit Size 
 BTPL.psig              585.00:  Bit Press Loss 
 CABU.                     Yes:  Customer Abuse 
 COMM.                     моЊ:  Run Comments 1 
 TCS .hr                122.75:  Time Ciculation Ended 
 CV  .mps                 2.67:  Crit Velocity 
 CVMX.mps                 3.56:  Max Crit Veloc 
 DD1 .          Rashad Habibov:  Direct Drillr 1 
 DD2 .         Rasim Ibrahimov:  Direct Drillr 2 
 DDSV.               Geo-Pilot:  DD Service 
 DEFF.%                  98.00:  % Det Eff 
 DLRX.°/30m               0.75:  Dogleg Rot Max 
 DLSO.°/30m               1.25:  Dogleg Oriented 
 DLSX.°/30m               2.06:  Dogleg Str Max 
 DRET.      07.45.00 17-May-20:  Drill End Time 
 DRST.      22.50.00 15-May-20:  Drill Start Tim 
 DTIM.hr                 20.75:  Time Drilling 
 EDEP.m                5124.01:  End Depth 
 ENG1.           Eldar Hajiyev:  Engineer 1 
 ENG2.        Marcelo Sandoval:  Engineer 2 
 ENG3.        Davud huseynzada:  Engineer 3 
 ENG4.          Ruslan Safarov:  Engineer 4 
 ETIM.      04.33.00 23-May-20:  End Time 
 FLOI.gpm               450.00:  Flow In 
 FLON.gpm               400.00:  Flow In Min 
 FLOS.cptm                0.00:  Fluid Loss 
 FLOX.gpm               500.00:  Flow In Max 
 FTRO.       Formation Presure:  FTWD Run Obj 
 HFLO.                      No:  High Flow 
 HPRE.                     Yes:  High Pressure 
 HTEM.                      No:  High Temp 
 HYDO.m                   1.80:  Hydro Offset 
 IFIN.deg                75.06:  Inc, Final 
 IMAX.deg                75.38:  Inc Max 
 IMIN.deg                74.69:  Inc Min 
 IMND.m                5027.38:  Inc Min Depth 
 IMXD.m                4771.61:  Inc Max Depth 
 JARR.                      No:  Jarring 
 LETM.      07.45.00 17-May-20:  Log End Time 
 LOST.hr                     0:  Lost Rig Time 
 LSTM.      22.50.00 15-May-20:  Log Start Time 
 MDCL.ppm             42000.00:  Mud Chlorides 
 MDES.     Inversion Oil/Synthetic:  Mud Desc 
 DFD .sg                  1.34:  Mud Density 
 MDMN.sg                  1.34:  Dens Mud Min 
 MDMX.sg                  1.34:  Dens Mud Max 
 MOIL.                       0:  Run Mud Oil % 
 MOWR.                   67:33:  Run Mud OWR 
 MSND.                       0:  Run Mud Sand % 
 MSOL.                     1.8:  Run Mud Solids% 
 DFV .spqt               76.00:  Mud Viscosity 
 MWOD.in                  6.75:  MWD Tool OD 
 MWSI.                      No:  Serv Intrp, MWD 
 OTIM.hr                228.19:  Time Operating 
 PCON.           Look Like New:  Pad Condition 
 PMAX.psia             6164.70:  Press Op, Max 
 PV  .cP                 28.00:  Mud PV 
 RUN .                     900:  Run Number 
 ROPA.m/hr               19.00:  ROP Avg 
 ROPN.m/hr               11.00:  ROP Min 
 ROPX.m/hr               36.00:  ROP Max 
 RPMA.rpm               120.00:  RPM Surface Avg 
 RPMN.rpm               120.00:  RPM Surface Min 
 RPMX.rpm               120.00:  RPM Surface Max 
 RRUN.                    L604:  Rig Run Number 
 RTIM.hr                  7.00:  Time Reaming 
 SAZI.deg               109.27:  Azm, Start 
 SDEP.m                4761.01:  Start Depth 
 SIDD.                      No:  Serv Intrp, DD 
 SINC.deg                75.38:  Inc, Start 
 SPPA.psig             3574.00:  SPP Avg 
 SPPN.psig             3475.00:  SPP Min 
 SPPX.psig             3791.00:  SPP Max 
 STIM.      07.08.48 13-May-20:  Start Time 
 SVCS.                 DD, MWD:  Services 
 SVER.                    9.20:  Sperry Version 
 TDAT.m                 363.00:  Tot Depth Attmp 
 TDDF.                      No:  Trip for DD 
 TDLG.m                 363.00:  Tot Depth Loggd 
 TFF .                      No:  Trip for Fail 
 TQAA.f-kp               20.00:  Torque Abs Avg 
 TQAN.f-kp               18.00:  Torque Abs Min 
 TQAX.f-kp               22.00:  Torque Abs Max 
 TRRT.°/30m              -0.35:  Turn Rotating 
 MRT .                    HCIM:  Maximum Recorded Temperature 
 TTMX.degC               92.16:  Max Tool Temp 
 VS01.                90586518:  Virtual Str1 SN 
 VS02.        AZ90560654Z1W1C6:  Virtual Str2 SN 
 VS03.           AZ90610398F11:  Virtual Str3 SN 
 VS04.                90514975:  Virtual Str4 SN 
 VS05.                90514972:  Virtual Str5 SN 
 VS06.     AZ90603282F11V7D1A6:  Virtual Str6 SN 
 WBMN.klb                 7.00:  WOB Min 
 WOBA.klb                12.00:  WOB Avg 
 WOBX.klb                14.00:  WOB Max 
 YP  .lhf2               32.00:  Yield Point 
~Curve Information Block
#MNEM.UNIT                 API CODE     Curve Description
#---------               -----------    ---------------------------
 TIME.HHMMSS            00 000 000 000:  GT Time & Date
 GTDEPTH.m              00 000 000 000:  GT Depth
 GTPQH.psia             00 000 000 000:  GT HR Quartz Pressure
 GTTQ.degC              00 000 000 000:  GT Quartz Temperature
 GTTN.NONE              00 000 000 000:  GT Test Number
 GTET.sec               00 000 000 000:  GT Elapsed Test Time
 GTTVD.m                00 000 000 000:  GT True Vertical Depth
#Other Information
#
#WARRANTY: Halliburton will use its best efforts to furnish customers with 
#accurate information and interpretations that are part of, and incident to, the services 
#provided.  However, Halliburton cannot and does not warrant the accuracy 
#or correctness of such information and interpretations.  Under no circumstances should any 
#such information or interpretation be relied upon as the sole basis for any drilling, 
#completion, production, or financial decision or any procedure involving any risk to the 
#safety of any drilling venture, drilling rig or its crew or any other third party.  The 
#Customer has full responsibility for all drilling, completion and production operation.  
#Halliburton makes no representations or warranties, either expressed or 
#implied, including, but not limited to, the implied warranties of merchantability or fitness 
#for a particular purpose, with respect to the services rendered.  In no event will 
#Halliburton be liable for failure to obtain any particular results or for 
#any damages, including, but not limited to, indirect, special or consequential damages, 
#resulting from the use of any information or interpretation provided by Halliburton.
#
~A           TIME           GTDEPTH  GTPQH  GTTQ  GTTN   GTET   GTTVD  
# ...
   12:18:20.595.20-May-2020 4766.51 5483.11 69.18 15.00 293.89 2532.42
   12:18:20.795.20-May-2020 4766.51 5482.99 69.18 15.00 294.09 2532.42
   12:18:20.995.20-May-2020 4766.51 5482.99 69.18 15.00 294.29 2532.42
   12:18:21.195.20-May-2020 4766.51 5483.67 69.18 15.00 294.49 2532.42
   12:18:21.395.20-May-2020 4766.51 5493.24 69.18 15.00 294.69 2532.42
   12:18:21.595.20-May-2020 4766.51 5482.81 69.18 15.00 294.89 2532.42
   12:18:21.795.20-May-2020 4766.51 5482.58 69.18 15.00 295.09 2532.42
   12:18:21.995.20-May-2020 4766.51 5483.01 69.18 15.00 295.29 2532.42
   12:18:22.195.20-May-2020 4766.51 5496.37 69.18 15.00 295.49 2532.42
   12:18:22.395.20-May-2020 4766.51 5484.94 69.18 15.00 295.69 2532.42
   12:18:22.595.20-May-2020 4766.51 5483.81 69.17 15.00 295.89 2532.42
   12:18:22.795.20-May-2020 4766.51 5483.08 69.17 15.00 296.09 2532.42
   12:18:22.995.20-May-2020 4766.51 5483.08 69.17 15.00 296.29 2532.42
   12:18:23.196.20-May-2020 4766.51 5485.86 69.17 15.00 296.49 2532.42
   12:18:23.396.20-May-2020 4766.51 5484.17 69.17 15.00 296.69 2532.42
   12:18:23.596.20-May-2020 4766.51 5483.63 69.17 15.00 296.89 2532.42
   12:18:23.796.20-May-2020 4766.51 5484.52 69.17 15.00 297.10 2532.42
   12:18:23.996.20-May-2020 4766.51 5484.52 69.17 15.00 297.30 2532.42
   12:18:24.196.20-May-2020 4766.51 5485.32 69.17 15.00 297.50 2532.42
   12:18:24.396.20-May-2020 4766.51 5484.02 69.17 15.00 297.70 2532.42
   12:18:24.596.20-May-2020 4766.51 5484.15 69.17 15.00 297.90 2532.42
   12:18:24.796.20-May-2020 4766.51 5483.73 69.17 15.00 298.10 2532.42
   12:18:24.996.20-May-2020 4766.51 5483.73 69.17 15.00 298.30 2532.42
   12:18:25.196.20-May-2020 4766.51 5483.52 69.17 15.00 298.50 2532.42
   12:18:25.396.20-May-2020 4766.51 5483.10 69.17 15.00 298.70 2532.42
   12:18:25.596.20-May-2020 4766.51 5483.10 69.17 15.00 298.90 2532.42
   12:18:25.796.20-May-2020 4766.51 5482.29 69.17 15.00 299.10 2532.42
   12:18:25.996.20-May-2020 4766.51 5482.29 69.17 15.00 299.30 2532.42
   12:18:26.196.20-May-2020 4766.51 5484.87 69.17 15.00 299.50 2532.42
   12:18:26.397.20-May-2020 4766.51 5482.37 69.17 15.00 299.70 2532.42
   12:18:26.597.20-May-2020 4766.51 5482.34 69.17 15.00 299.90 2532.42
   12:18:26.797.20-May-2020 4766.51 5482.06 69.17 15.00 300.10 2532.42
   12:18:26.997.20-May-2020 4766.51 5482.06 69.17 15.00 300.30 2532.42
   12:18:27.197.20-May-2020 4766.51 5482.89 69.17 15.00 300.50 2532.42
   12:18:27.397.20-May-2020 4766.51 5482.57 69.17 15.00 300.70 2532.42
   12:18:27.597.20-May-2020 4766.51 5482.94 69.17 15.00 300.90 2532.42
   12:18:27.797.20-May-2020 4766.51 5482.40 69.17 15.00 301.10 2532.42
   12:18:27.997.20-May-2020 4766.51 5482.40 69.17 15.00 301.30 2532.42
   12:18:28.197.20-May-2020 4766.51 5486.77 69.17 15.00 301.50 2532.42
   12:18:28.397.20-May-2020 4766.51 5489.50 69.17 15.00 301.70 2532.42
   12:18:28.597.20-May-2020 4766.51 5482.29 69.17 15.00 301.90 2532.42
   12:18:28.797.20-May-2020 4766.51 5482.14 69.17 15.00 302.10 2532.42
   12:18:28.997.20-May-2020 4766.51 5482.14 69.17 15.00 302.30 2532.42
   12:18:29.197.20-May-2020 4766.51 5493.71 69.17 15.00 302.50 2532.42
   12:18:29.398.20-May-2020 4766.51 5484.12 69.17 15.00 302.70 2532.42
   12:18:29.598.20-May-2020 4766.51 5483.34 69.16 15.00 302.90 2532.42
   12:18:29.798.20-May-2020 4766.51 5482.60 69.16 15.00 303.10 2532.42
   12:18:29.998.20-May-2020 4766.51 5482.60 69.16 15.00 303.30 2532.42
   12:18:30.198.20-May-2020 4766.51 5484.98 69.16 15.00 303.50 2532.42
   12:18:30.398.20-May-2020 4766.51 5484.02 69.16 15.00 303.70 2532.42
   12:18:30.598.20-May-2020 4766.51 5483.49 69.16 15.00 303.90 2532.42
   12:18:30.798.20-May-2020 4766.51 5486.01 69.16 15.00 304.10 2532.42
   12:18:30.998.20-May-2020 4766.51 5486.01 69.16 15.00 304.30 2532.42
   12:18:31.198.20-May-2020 4766.51 5484.65 69.16 15.00 304.50 2532.42
   12:18:31.398.20-May-2020 4766.51 5483.90 69.16 15.00 304.70 2532.42
   12:18:31.598.20-May-2020 4766.51 5483.45 69.16 15.00 304.90 2532.42
   12:18:31.798.20-May-2020 4766.51 5484.23 69.16 15.00 305.10 2532.42
   12:18:31.998.20-May-2020 4766.51 5484.23 69.16 15.00 305.30 2532.42
   12:18:32.198.20-May-2020 4766.51 5482.84 69.16 15.00 305.50 2532.42
   12:18:32.398.20-May-2020 4766.51 5482.55 69.16 15.00 305.70 2532.42
   12:18:32.599.20-May-2020 4766.51 5482.63 69.16 15.00 305.90 2532.42
   12:18:32.799.20-May-2020 4766.51 5481.82 69.16 15.00 306.10 2532.42
   12:18:32.999.20-May-2020 4766.51 5481.82 69.16 15.00 306.30 2532.42
   12:18:33.199.20-May-2020 4766.51 5482.71 69.16 15.00 306.50 2532.42
   12:18:33.399.20-May-2020 4766.51 5482.37 69.16 15.00 306.70 2532.42
   12:18:33.599.20-May-2020 4766.51 5481.91 69.16 15.00 306.90 2532.42
   12:18:33.799.20-May-2020 4766.51 5482.70 69.16 15.00 307.10 2532.42
   12:18:33.999.20-May-2020 4766.51 5483.74 69.16 15.00 307.30 2532.42
   12:18:34.199.20-May-2020 4766.51 5482.73 69.16 15.00 307.50 2532.42
   12:18:34.399.20-May-2020 4766.51 5482.50 69.16 15.00 307.70 2532.42
   12:18:34.599.20-May-2020 4766.51 5482.79 69.16 15.00 307.90 2532.42
   12:18:34.799.20-May-2020 4766.51 5482.03 69.16 15.00 308.10 2532.42
   12:18:34.999.20-May-2020 4766.51 5482.03 69.16 15.00 308.30 2532.42
   12:18:35.199.20-May-2020 4766.51 5493.20 69.16 15.00 308.50 2532.42
   12:18:35.399.20-May-2020 4766.51 5483.43 69.16 15.00 308.70 2532.42
   12:18:35.600.20-May-2020 4766.51 5481.83 69.16 15.00 308.90 2532.42
   12:18:35.800.20-May-2020 4766.51 5481.71 69.16 15.00 309.10 2532.42
   12:18:36.000.20-May-2020 4766.51 5481.71 69.16 15.00 309.30 2532.42
   12:18:36.200.20-May-2020 4766.51 5487.32 69.16 15.00 309.50 2532.42
   12:18:36.400.20-May-2020 4766.51 5483.57 69.15 15.00 309.70 2532.42
   12:18:36.600.20-May-2020 4766.51 5482.86 69.15 15.00 309.90 2532.42
   12:18:36.800.20-May-2020 4766.51 5490.36 69.15 15.00 310.10 2532.42
   12:18:37.000.20-May-2020 4766.51 5490.36 69.15 15.00 310.30 2532.42
   12:18:37.200.20-May-2020 4766.51 5484.27 69.15 15.00 310.50 2532.42
   12:18:37.400.20-May-2020 4766.51 5483.33 69.15 15.00 310.70 2532.42
   12:18:37.600.20-May-2020 4766.51 5483.30 69.15 15.00 310.90 2532.42
   12:18:37.800.20-May-2020 4766.51 5490.87 69.15 15.00 311.10 2532.42
   12:18:38.000.20-May-2020 4766.51 5492.13 69.15 15.00 311.30 2532.42
   12:18:38.200.20-May-2020 4766.51 5483.89 69.15 15.00 311.50 2532.42
   12:18:38.400.20-May-2020 4766.51 5484.01 69.15 15.00 311.70 2532.42
   12:18:38.600.20-May-2020 4766.51 5482.91 69.15 15.00 311.90 2532.42
   12:18:38.801.20-May-2020 4766.51 5484.71 69.15 15.00 312.10 2532.42
   12:18:39.001.20-May-2020 4766.51 5484.71 69.15 15.00 312.30 2532.42
   12:18:39.201.20-May-2020 4766.51 5482.62 69.15 15.00 312.50 2532.42
   12:18:39.401.20-May-2020 4766.51 5482.54 69.15 15.00 312.70 2532.42
   12:18:39.601.20-May-2020 4766.51 5482.22 69.15 15.00 312.90 2532.42
   12:18:39.801.20-May-2020 4766.51 5482.97 69.15 15.00 313.10 2532.42
   12:18:40.001.20-May-2020 4766.51 5482.97 69.15 15.00 313.30 2532.42
   12:18:40.201.20-May-2020 4766.51 5482.14 69.15 15.00 313.50 2532.42
   12:18:40.401.20-May-2020 4766.51 5482.06 69.15 15.00 313.70 2532.42
   12:18:40.601.20-May-2020 4766.51 5481.40 69.15 15.00 313.90 2532.42
   12:18:40.801.20-May-2020 4766.51 5482.90 69.15 15.00 314.10 2532.42
   12:18:41.001.20-May-2020 4766.51 5482.90 69.15 15.00 314.30 2532.42
   12:18:41.201.20-May-2020 4766.51 5482.04 69.15 15.00 314.50 2532.42
   12:18:41.401.20-May-2020 4766.51 5482.11 69.15 15.00 314.70 2532.42
   12:18:41.601.20-May-2020 4766.51 5482.22 69.15 15.00 314.90 2532.42
   12:18:41.801.20-May-2020 4766.51 5481.48 69.15 15.00 315.10 2532.42
   12:18:42.002.20-May-2020 4766.51 5481.11 69.15 15.00 315.30 2532.42
   12:18:42.202.20-May-2020 4766.51 5493.92 69.15 15.00 315.50 2532.42
   12:18:42.402.20-May-2020 4766.51 5482.25 69.15 15.00 315.70 2532.42
   12:18:42.602.20-May-2020 4766.51 5481.77 69.15 15.00 315.90 2532.42
   12:18:42.802.20-May-2020 4766.51 5481.30 69.15 15.00 316.10 2532.42
   12:18:43.002.20-May-2020 4766.51 5481.30 69.15 15.00 316.30 2532.42
