~Version Information
 VERS.                  2.0:   CWLS log ASCII Standard -VERSION 2.0
 WRAP.                   NO:   One line per depth step
~Well Information Block
#MNEM.UNIT     VALUE/NAME     DESCRIPTION
#---------     -----------    ---------------------------
 STRT.S             19:37:06 17-May-20: START TIME 19:37:06 17-May-20
 STOP.S             19:44:11 17-May-20: STOP TIME  19:44:11 17-May-20
 STEP.S                   0.00: STEP TIME
 NULL.                 -999.25: NULL VALUE
 UNIT.                     N/A:  LOGGING EQUIPMENT ID
 DCON.         Sperry Drilling:  DIRECTNL CONTR
 DOE .                     N/A:  DOE NUMBER
 JOBN.        AZ-XX-0906252240:  JOB TICKET NUMB
 MWDS.                     N/A:  MWD SHOP
 PROV.                    Baku:  PROVINCE
 STAT.                    Baku:  STATE NAME
 REGN.                   EESSA:  REGION
 BASE.              Azerbaijan:  LOGGING EQUIPMENT BASE LOCATION
 UWI .                     N/A:  UNIQUE WELL IDENTIFIER
 API .                     N/A:  API NUMBER
 MDS .        Operator Entered:  MAG DATA SOURCE
 WTYP.                Deviated:  WELL TYPE
 COMP.     BP Exploration (Caspian Sea) Ltd.:  COMPANY
 SRVC.          Turan Drilling:  CONTRACTOR
 WELL.           J23 (Slot 07):  WELL NAME
 CTRY.              Azerbaijan:  COUNTRY NAME
 FLD .                     ACG:  FIELD NAME
 PDAT.          Mean Sea Level:  PERMANENT DATUM
 RIG .             West Chirag:  RIG NAME
 SON .        AZ-XX-0906252240:  JOB NUMBER
 FTOP.          Formation Tops:  FORM TOPS DESC
 ILTD.               Lithology:  INTERP LTH DESC
 SVYD.                  Survey:  SURVEY DESC
 DMOD.             Drill Model:  DRILL MOD DESC
 HPTY.       Minimum Curvature:  HOLE POS TYPE
 NREF.                    Grid:  NORTH REFERENCE
 SPUD.               27-Aug-20:  SPUD DATE
 DATE.      00.00.00 19-May-20:  END TIME
 STIM.      03.00.00 25-Mar-20:  START TIME
 DMF .             Drill Floor:  DRILL MEAS FROM
 DFST.                        :  DIST FSL TEXT
 DFWT.                        :  DIST FWL TEXT
 CNTY.                        :  COUNTY
 LOC .                        :  LOCATION
 LMF .             Drill Floor:  LOG MEASURED FROM
 VSNS.m                   9.43:  VERT SEC N/S
 VSEW.m                  -8.91:  VERT SEC E/W
 AGAP.m                  43.00:  AIR GAP
 DEP .m                 354.17:  DEPTH
 APD .m                  43.00:  DEPTH ABOVE PD
 WDMS.m                 169.80:  WD ELEV
 EGL .m                   0.00:  GROUND ELEVATION
 EPD .m                   0.00:  ELEVATION
 AZTC.deg                 6.31:  AZM TOTAL CORR
 GRDC.deg                 0.14:  GRID CORRECTION
 MDEC.deg                 6.45:  MAGNETIC DECL
 MDIP.deg                59.56:  MAGNETIC DIP
 MFLD.nT              50295.00:  MAGNETIC FIELD
 GVFD.g                   1.00:  GRAVITY FIELD
 VSDR.deg               179.88:  VERT SEC DIRECT
 TDD .m                5150.01:  TOTAL DEPTH (DRILLER)
 SDEP.m                 864.00:  START DEPTH
 DFSL.m                   0.00:  DISTANCE FSL
 DFWL.m                   0.00:  DISTANCE FWL
 UTMY.m             4443793.85:  UTM Y
 UTMX.m              519005.06:  UTM X
 WHEW.m                  -8.91:  WELL HEAD E/W
 WHNS.m                   9.43:  WELL HEAD N/S
 LONG.deg                51.22:  LONGITUDE
 LATI.deg                40.13:  LATITUDE
 TVDS.m                  43.00:  TVDSS CORRECTN
 EKB .m                   0.00:  KB ELEVATION
 EDF .m                  43.00:  DF ELEVATION
 TDL .m                 363.00:  TOTAL DEPTH (LOGGER)
 MAGU.                 1850802:  MAGUTM CHECKSUM
 VSC .                       0:  VS TO CLOSURE
~Parameter Information Block
#MNEM.UNIT       Value        Description
#---------     -----------    ---------------------------
 AV  .mps                 2.30:  Ann Velocity 
 AVMX.mps                 4.40:  Max Ann Veloc 
 AZIF.deg               110.24:  Azm, Final 
 BHAT.        Rotary Steerable:  BHA Type 
 BREV.rev               331.00:  Rev Bit Total 
 BROT.°/30m               0.00:  Build Rotating 
 BS  .in                  8.50:  Bit Size 
 BSZ .in                  8.50:  Bit Size 
 BTPL.psig              585.00:  Bit Press Loss 
 CABU.                     Yes:  Customer Abuse 
 TCS .hr                122.75:  Time Ciculation Ended 
 CV  .mps                 2.67:  Crit Velocity 
 CVMX.mps                 3.56:  Max Crit Veloc 
 DD1 .          Rashad Habibov:  Direct Drillr 1 
 DD2 .         Rasim Ibrahimov:  Direct Drillr 2 
 DDSV.               Geo-Pilot:  DD Service 
 DEFF.%                  98.00:  % Det Eff 
 DLRX.°/30m               0.75:  Dogleg Rot Max 
 DLSO.°/30m               1.25:  Dogleg Oriented 
 DLSX.°/30m               2.06:  Dogleg Str Max 
 DRET.      07.45.00 17-May-20:  Drill End Time 
 DRST.      22.50.00 15-May-20:  Drill Start Tim 
 DTIM.hr                 20.75:  Time Drilling 
 EDEP.m                5124.01:  End Depth 
 ENG1.           Eldar Hajiyev:  Engineer 1 
 ENG2.        Marcelo Sandoval:  Engineer 2 
 ENG3.        Davud huseynzada:  Engineer 3 
 ENG4.          Ruslan Safarov:  Engineer 4 
 ETIM.      04.33.00 23-May-20:  End Time 
 FLOI.gpm               450.00:  Flow In 
 FLON.gpm               400.00:  Flow In Min 
 FLOS.cptm                0.00:  Fluid Loss 
 FLOX.gpm               500.00:  Flow In Max 
 FTRO.       Formation Presure:  FTWD Run Obj 
 HFLO.                      No:  High Flow 
 HPRE.                     Yes:  High Pressure 
 HTEM.                      No:  High Temp 
 HYDO.m                   1.80:  Hydro Offset 
 IFIN.deg                75.06:  Inc, Final 
 IMAX.deg                75.38:  Inc Max 
 IMIN.deg                74.69:  Inc Min 
 IMND.m                5027.38:  Inc Min Depth 
 IMXD.m                4771.61:  Inc Max Depth 
 JARR.                      No:  Jarring 
 LETM.      07.45.00 17-May-20:  Log End Time 
 LOST.hr                     0:  Lost Rig Time 
 LSTM.      22.50.00 15-May-20:  Log Start Time 
 MDCL.ppm             42000.00:  Mud Chlorides 
 MDES.     Inversion Oil/Synthetic:  Mud Desc 
 DFD .sg                  1.34:  Mud Density 
 MDMN.sg                  1.34:  Dens Mud Min 
 MDMX.sg                  1.34:  Dens Mud Max 
 MOIL.                       0:  Run Mud Oil % 
 MOWR.                   67:33:  Run Mud OWR 
 MSND.                       0:  Run Mud Sand % 
 MSOL.                     1.8:  Run Mud Solids% 
 DFV .spqt               76.00:  Mud Viscosity 
 MWOD.in                  6.75:  MWD Tool OD 
 MWSI.                      No:  Serv Intrp, MWD 
 OTIM.hr                228.19:  Time Operating 
 PCON.           Look Like New:  Pad Condition 
 PMAX.psia             6164.70:  Press Op, Max 
 PV  .cP                 28.00:  Mud PV 
 RUN .                     900:  Run Number 
 ROPA.m/hr               19.00:  ROP Avg 
 ROPN.m/hr               11.00:  ROP Min 
 ROPX.m/hr               36.00:  ROP Max 
 RPMA.rpm               120.00:  RPM Surface Avg 
 RPMN.rpm               120.00:  RPM Surface Min 
 RPMX.rpm               120.00:  RPM Surface Max 
 RRUN.                    L604:  Rig Run Number 
 RTIM.hr                  7.00:  Time Reaming 
 SAZI.deg               109.27:  Azm, Start 
 SDEP.m                4761.01:  Start Depth 
 SIDD.                      No:  Serv Intrp, DD 
 SINC.deg                75.38:  Inc, Start 
 SPPA.psig             3574.00:  SPP Avg 
 SPPN.psig             3475.00:  SPP Min 
 SPPX.psig             3791.00:  SPP Max 
 STIM.      07.08.48 13-May-20:  Start Time 
 SVCS.                 DD, MWD:  Services 
 SVER.                    9.20:  Sperry Version 
 TDAT.m                 363.00:  Tot Depth Attmp 
 TDDF.                      No:  Trip for DD 
 TDLG.m                 363.00:  Tot Depth Loggd 
 TFF .                      No:  Trip for Fail 
 TQAA.f-kp               20.00:  Torque Abs Avg 
 TQAN.f-kp               18.00:  Torque Abs Min 
 TQAX.f-kp               22.00:  Torque Abs Max 
 TRRT.°/30m              -0.35:  Turn Rotating 
 MRT .                    HCIM:  Maximum Recorded Temperature 
 TTMX.degC               92.16:  Max Tool Temp 
 VS01.                90586518:  Virtual Str1 SN 
 VS02.        AZ90560654Z1W1C6:  Virtual Str2 SN 
 VS03.           AZ90610398F11:  Virtual Str3 SN 
 VS04.                90514975:  Virtual Str4 SN 
 VS05.                90514972:  Virtual Str5 SN 
 VS06.     AZ90603282F11V7D1A6:  Virtual Str6 SN 
 WBMN.klb                 7.00:  WOB Min 
 WOBA.klb                12.00:  WOB Avg 
 WOBX.klb                14.00:  WOB Max 
 YP  .lhf2               32.00:  Yield Point 
~Curve Information Block
#MNEM.UNIT                 API CODE     Curve Description
#---------               -----------    ---------------------------
 TIME.HHMMSS            00 000 000 000:  GT Time & Date
 GTDEPTH.m              00 000 000 000:  GT Depth
 GTPQH.psia             00 000 000 000:  GT HR Quartz Pressure
 GTTQ.degC              00 000 000 000:  GT Quartz Temperature
 GTTN.NONE              00 000 000 000:  GT Test Number
 GTET.sec               00 000 000 000:  GT Elapsed Test Time
 GTTVD.m                00 000 000 000:  GT True Vertical Depth
#Other Information
#
#WARRANTY: Halliburton will use its best efforts to furnish customers with 
#accurate information and interpretations that are part of, and incident to, the services 
#provided.  However, Halliburton cannot and does not warrant the accuracy 
#or correctness of such information and interpretations.  Under no circumstances should any 
#such information or interpretation be relied upon as the sole basis for any drilling, 
#completion, production, or financial decision or any procedure involving any risk to the 
#safety of any drilling venture, drilling rig or its crew or any other third party.  The 
#Customer has full responsibility for all drilling, completion and production operation.  
#Halliburton makes no representations or warranties, either expressed or 
#implied, including, but not limited to, the implied warranties of merchantability or fitness 
#for a particular purpose, with respect to the services rendered.  In no event will 
#Halliburton be liable for failure to obtain any particular results or for 
#any damages, including, but not limited to, indirect, special or consequential damages, 
#resulting from the use of any information or interpretation provided by Halliburton.
#
~A           TIME           GTDEPTH  GTPQH  GTTQ  GTTN  GTET   GTTVD  
# ...
   19:41:19.590.17-May-2020 4994.01 2917.27 69.72 4.00 252.98 2591.05
   19:41:19.790.17-May-2020 4994.01 2917.27 69.72 4.00 253.18 2591.05
   19:41:19.990.17-May-2020 4994.01 2917.31 69.72 4.00 253.38 2591.05
   19:41:20.190.17-May-2020 4994.01 2917.32 69.72 4.00 253.58 2591.05
   19:41:20.390.17-May-2020 4994.01 2917.41 69.72 4.00 253.78 2591.05
   19:41:20.590.17-May-2020 4994.01 2917.28 69.72 4.00 253.98 2591.05
   19:41:20.790.17-May-2020 4994.01 2917.28 69.72 4.00 254.18 2591.05
   19:41:20.990.17-May-2020 4994.01 2917.33 69.72 4.00 254.38 2591.05
   19:41:21.190.17-May-2020 4994.01 2917.31 69.72 4.00 254.58 2591.05
   19:41:21.390.17-May-2020 4994.01 2917.30 69.72 4.00 254.78 2591.05
   19:41:21.590.17-May-2020 4994.01 2917.31 69.72 4.00 254.98 2591.05
   19:41:21.790.17-May-2020 4994.01 2917.31 69.72 4.00 255.18 2591.05
   19:41:21.990.17-May-2020 4994.01 2917.30 69.72 4.00 255.38 2591.05
   19:41:22.190.17-May-2020 4994.01 2917.38 69.72 4.00 255.58 2591.05
   19:41:22.390.17-May-2020 4994.01 2917.26 69.72 4.00 255.78 2591.05
   19:41:22.590.17-May-2020 4994.01 2917.33 69.72 4.00 255.98 2591.05
   19:41:22.790.17-May-2020 4994.01 2917.33 69.72 4.00 256.18 2591.05
   19:41:22.990.17-May-2020 4994.01 2917.27 69.72 4.00 256.38 2591.05
   19:41:23.190.17-May-2020 4994.01 2917.32 69.72 4.00 256.58 2591.05
   19:41:23.390.17-May-2020 4994.01 2917.31 69.72 4.00 256.78 2591.05
   19:41:23.590.17-May-2020 4994.01 2917.30 69.72 4.00 256.98 2591.05
   19:41:23.790.17-May-2020 4994.01 2917.30 69.72 4.00 257.18 2591.05
   19:41:23.990.17-May-2020 4994.01 2917.29 69.72 4.00 257.38 2591.05
   19:41:24.190.17-May-2020 4994.01 2917.29 69.72 4.00 257.58 2591.05
   19:41:24.390.17-May-2020 4994.01 2917.31 69.72 4.00 257.78 2591.05
   19:41:24.590.17-May-2020 4994.01 2917.39 69.72 4.00 257.98 2591.05
   19:41:24.790.17-May-2020 4994.01 2917.39 69.72 4.00 258.18 2591.05
   19:41:24.990.17-May-2020 4994.01 2917.39 69.71 4.00 258.38 2591.05
   19:41:25.190.17-May-2020 4994.01 2917.26 69.71 4.00 258.58 2591.05
   19:41:25.390.17-May-2020 4994.01 2917.33 69.71 4.00 258.78 2591.05
   19:41:25.590.17-May-2020 4994.01 2917.33 69.71 4.00 258.98 2591.05
   19:41:25.790.17-May-2020 4994.01 2917.33 69.71 4.00 259.18 2591.05
   19:41:25.990.17-May-2020 4994.01 2917.40 69.71 4.00 259.38 2591.05
   19:41:26.190.17-May-2020 4994.01 2917.29 69.71 4.00 259.58 2591.05
   19:41:26.390.17-May-2020 4994.01 2917.29 69.71 4.00 259.78 2591.05
   19:41:26.590.17-May-2020 4994.01 2917.32 69.71 4.00 259.98 2591.05
   19:41:26.790.17-May-2020 4994.01 2917.32 69.71 4.00 260.18 2591.05
   19:41:26.990.17-May-2020 4994.01 2917.38 69.71 4.00 260.38 2591.05
   19:41:27.190.17-May-2020 4994.01 2916.25 69.71 4.00 260.58 2591.05
   19:41:27.390.17-May-2020 4994.01 2910.40 69.71 4.00 260.78 2591.05
   19:41:27.590.17-May-2020 4994.01 2909.99 69.71 4.00 260.98 2591.05
   19:41:27.790.17-May-2020 4994.01 2909.99 69.71 4.00 261.18 2591.05
   19:41:27.990.17-May-2020 4994.01 2910.04 69.71 4.00 261.38 2591.05
   19:41:28.190.17-May-2020 4994.01 2909.94 69.71 4.00 261.58 2591.05
   19:41:28.390.17-May-2020 4994.01 2909.81 69.71 4.00 261.78 2591.05
   19:41:28.590.17-May-2020 4994.01 2909.93 69.71 4.00 261.98 2591.05
   19:41:28.790.17-May-2020 4994.01 2909.93 69.71 4.00 262.18 2591.05
   19:41:28.989.17-May-2020 4994.01 2909.94 69.71 4.00 262.38 2591.05
   19:41:29.189.17-May-2020 4994.01 2910.46 69.71 4.00 262.58 2591.05
   19:41:29.389.17-May-2020 4994.01 2910.16 69.71 4.00 262.78 2591.05
   19:41:29.589.17-May-2020 4994.01 2910.03 69.71 4.00 262.98 2591.05
   19:41:29.789.17-May-2020 4994.01 2910.03 69.71 4.00 263.18 2591.05
   19:41:29.989.17-May-2020 4994.01 2909.99 69.71 4.00 263.38 2591.05
   19:41:30.189.17-May-2020 4994.01 2910.08 69.71 4.00 263.58 2591.05
   19:41:30.389.17-May-2020 4994.01 2910.03 69.71 4.00 263.78 2591.05
   19:41:30.589.17-May-2020 4994.01 2910.02 69.71 4.00 263.98 2591.05
   19:41:30.789.17-May-2020 4994.01 2910.02 69.71 4.00 264.18 2591.05
   19:41:30.989.17-May-2020 4994.01 2909.98 69.71 4.00 264.38 2591.05
   19:41:31.189.17-May-2020 4994.01 2910.22 69.71 4.00 264.58 2591.05
   19:41:31.389.17-May-2020 4994.01 2910.12 69.71 4.00 264.78 2591.05
   19:41:31.589.17-May-2020 4994.01 2910.18 69.71 4.00 264.98 2591.05
   19:41:31.789.17-May-2020 4994.01 2910.18 69.71 4.00 265.18 2591.05
   19:41:31.989.17-May-2020 4994.01 2910.09 69.71 4.00 265.38 2591.05
   19:41:32.189.17-May-2020 4994.01 2910.21 69.71 4.00 265.58 2591.05
   19:41:32.389.17-May-2020 4994.01 2910.03 69.71 4.00 265.78 2591.05
   19:41:32.589.17-May-2020 4994.01 2910.14 69.71 4.00 265.98 2591.05
   19:41:32.789.17-May-2020 4994.01 2910.14 69.71 4.00 266.18 2591.05
   19:41:32.989.17-May-2020 4994.01 2910.09 69.71 4.00 266.38 2591.05
   19:41:33.189.17-May-2020 4994.01 2910.20 69.71 4.00 266.58 2591.05
   19:41:33.389.17-May-2020 4994.01 2910.03 69.71 4.00 266.78 2591.05
   19:41:33.589.17-May-2020 4994.01 2910.21 69.71 4.00 266.98 2591.05
   19:41:33.789.17-May-2020 4994.01 2910.21 69.71 4.00 267.18 2591.05
   19:41:33.989.17-May-2020 4994.01 2910.06 69.71 4.00 267.38 2591.05
   19:41:34.189.17-May-2020 4994.01 2910.15 69.71 4.00 267.58 2591.05
   19:41:34.389.17-May-2020 4994.01 2910.14 69.71 4.00 267.78 2591.05
   19:41:34.589.17-May-2020 4994.01 2910.14 69.71 4.00 267.98 2591.05
   19:41:34.789.17-May-2020 4994.01 2910.14 69.71 4.00 268.18 2591.05
   19:41:34.989.17-May-2020 4994.01 2910.11 69.71 4.00 268.38 2591.05
   19:41:35.189.17-May-2020 4994.01 2910.11 69.70 4.00 268.58 2591.05
   19:41:35.389.17-May-2020 4994.01 2910.38 69.70 4.00 268.78 2591.05
   19:41:35.589.17-May-2020 4994.01 2909.99 69.70 4.00 268.98 2591.05
   19:41:35.789.17-May-2020 4994.01 2909.99 69.70 4.00 269.18 2591.05
   19:41:35.989.17-May-2020 4994.01 2910.39 69.70 4.00 269.38 2591.05
   19:41:36.189.17-May-2020 4994.01 2910.38 69.70 4.00 269.58 2591.05
   19:41:36.389.17-May-2020 4994.01 2910.33 69.70 4.00 269.78 2591.05
   19:41:36.589.17-May-2020 4994.01 2910.33 69.70 4.00 269.98 2591.05
   19:41:36.789.17-May-2020 4994.01 2910.33 69.70 4.00 270.18 2591.05
   19:41:36.989.17-May-2020 4994.01 2910.35 69.70 4.00 270.38 2591.05
   19:41:37.189.17-May-2020 4994.01 2910.33 69.70 4.00 270.58 2591.05
   19:41:37.389.17-May-2020 4994.01 2915.23 69.70 4.00 270.78 2591.05
   19:41:37.589.17-May-2020 4994.01 2916.90 69.70 4.00 270.98 2591.05
   19:41:37.789.17-May-2020 4994.01 2916.90 69.70 4.00 271.18 2591.05
   19:41:37.989.17-May-2020 4994.01 2917.19 69.70 4.00 271.38 2591.05
   19:41:38.189.17-May-2020 4994.01 2917.23 69.70 4.00 271.58 2591.05
   19:41:38.389.17-May-2020 4994.01 2917.26 69.70 4.00 271.78 2591.05
   19:41:38.589.17-May-2020 4994.01 2917.20 69.70 4.00 271.98 2591.05
   19:41:38.789.17-May-2020 4994.01 2917.20 69.70 4.00 272.18 2591.05
   19:41:38.989.17-May-2020 4994.01 2917.25 69.70 4.00 272.38 2591.05
   19:41:39.189.17-May-2020 4994.01 2917.33 69.70 4.00 272.58 2591.05
   19:41:39.389.17-May-2020 4994.01 2917.21 69.70 4.00 272.78 2591.05
   19:41:39.589.17-May-2020 4994.01 2917.24 69.70 4.00 272.98 2591.05
   19:41:39.789.17-May-2020 4994.01 2917.24 69.70 4.00 273.18 2591.05
   19:41:39.989.17-May-2020 4994.01 2917.23 69.70 4.00 273.38 2591.05
   19:41:40.189.17-May-2020 4994.01 2917.28 69.70 4.00 273.58 2591.05
   19:41:40.389.17-May-2020 4994.01 2917.29 69.70 4.00 273.78 2591.05
   19:41:40.589.17-May-2020 4994.01 2917.23 69.70 4.00 273.98 2591.05
   19:41:40.789.17-May-2020 4994.01 2917.23 69.70 4.00 274.18 2591.05
   19:41:40.989.17-May-2020 4994.01 2917.26 69.70 4.00 274.38 2591.05
   19:41:41.189.17-May-2020 4994.01 2917.26 69.70 4.00 274.58 2591.05
   19:41:41.389.17-May-2020 4994.01 2917.25 69.70 4.00 274.78 2591.05
   19:41:41.589.17-May-2020 4994.01 2917.25 69.70 4.00 274.98 2591.05
   19:41:41.788.17-May-2020 4994.01 2917.25 69.70 4.00 275.18 2591.05
   19:41:41.988.17-May-2020 4994.01 2917.35 69.70 4.00 275.38 2591.05
   19:41:42.188.17-May-2020 4994.01 2917.23 69.70 4.00 275.58 2591.05
   19:41:42.388.17-May-2020 4994.01 2917.27 69.70 4.00 275.78 2591.05
