~Version Information
 VERS.                  2.0:   CWLS log ASCII Standard -VERSION 2.0
 WRAP.                   NO:   One line per depth step
~Well Information Block
#MNEM.UNIT     VALUE/NAME     DESCRIPTION
#---------     -----------    ---------------------------
 STRT.S             21:13:20 18-May-20: START TIME 21:13:20 18-May-20
 STOP.S             21:20:25 18-May-20: STOP TIME  21:20:25 18-May-20
 STEP.S                   0.00: STEP TIME
 NULL.                 -999.25: NULL VALUE
 UNIT.                     N/A:  LOGGING EQUIPMENT ID
 DCON.         Sperry Drilling:  DIRECTNL CONTR
 DOE .                     N/A:  DOE NUMBER
 JOBN.        AZ-XX-0906252240:  JOB TICKET NUMB
 MWDS.                     N/A:  MWD SHOP
 PROV.                    Baku:  PROVINCE
 STAT.                    Baku:  STATE NAME
 REGN.                   EESSA:  REGION
 BASE.              Azerbaijan:  LOGGING EQUIPMENT BASE LOCATION
 UWI .                     N/A:  UNIQUE WELL IDENTIFIER
 API .                     N/A:  API NUMBER
 MDS .        Operator Entered:  MAG DATA SOURCE
 WTYP.                Deviated:  WELL TYPE
 COMP.     BP Exploration (Caspian Sea) Ltd.:  COMPANY
 SRVC.          Turan Drilling:  CONTRACTOR
 WELL.           J23 (Slot 07):  WELL NAME
 CTRY.              Azerbaijan:  COUNTRY NAME
 FLD .                     ACG:  FIELD NAME
 PDAT.          Mean Sea Level:  PERMANENT DATUM
 RIG .             West Chirag:  RIG NAME
 SON .        AZ-XX-0906252240:  JOB NUMBER
 FTOP.          Formation Tops:  FORM TOPS DESC
 ILTD.               Lithology:  INTERP LTH DESC
 SVYD.                  Survey:  SURVEY DESC
 DMOD.             Drill Model:  DRILL MOD DESC
 HPTY.       Minimum Curvature:  HOLE POS TYPE
 NREF.                    Grid:  NORTH REFERENCE
 SPUD.               27-Aug-20:  SPUD DATE
 DATE.      00.00.00 19-May-20:  END TIME
 STIM.      03.00.00 25-Mar-20:  START TIME
 DMF .             Drill Floor:  DRILL MEAS FROM
 DFST.                        :  DIST FSL TEXT
 DFWT.                        :  DIST FWL TEXT
 CNTY.                        :  COUNTY
 LOC .                        :  LOCATION
 LMF .             Drill Floor:  LOG MEASURED FROM
 VSNS.m                   9.43:  VERT SEC N/S
 VSEW.m                  -8.91:  VERT SEC E/W
 AGAP.m                  43.00:  AIR GAP
 DEP .m                 354.17:  DEPTH
 APD .m                  43.00:  DEPTH ABOVE PD
 WDMS.m                 169.80:  WD ELEV
 EGL .m                   0.00:  GROUND ELEVATION
 EPD .m                   0.00:  ELEVATION
 AZTC.deg                 6.31:  AZM TOTAL CORR
 GRDC.deg                 0.14:  GRID CORRECTION
 MDEC.deg                 6.45:  MAGNETIC DECL
 MDIP.deg                59.56:  MAGNETIC DIP
 MFLD.nT              50295.00:  MAGNETIC FIELD
 GVFD.g                   1.00:  GRAVITY FIELD
 VSDR.deg               179.88:  VERT SEC DIRECT
 TDD .m                5150.01:  TOTAL DEPTH (DRILLER)
 SDEP.m                 864.00:  START DEPTH
 DFSL.m                   0.00:  DISTANCE FSL
 DFWL.m                   0.00:  DISTANCE FWL
 UTMY.m             4443793.85:  UTM Y
 UTMX.m              519005.06:  UTM X
 WHEW.m                  -8.91:  WELL HEAD E/W
 WHNS.m                   9.43:  WELL HEAD N/S
 LONG.deg                51.22:  LONGITUDE
 LATI.deg                40.13:  LATITUDE
 TVDS.m                  43.00:  TVDSS CORRECTN
 EKB .m                   0.00:  KB ELEVATION
 EDF .m                  43.00:  DF ELEVATION
 TDL .m                 363.00:  TOTAL DEPTH (LOGGER)
 MAGU.                 1850802:  MAGUTM CHECKSUM
 VSC .                       0:  VS TO CLOSURE
~Parameter Information Block
#MNEM.UNIT       Value        Description
#---------     -----------    ---------------------------
 AV  .mps                 2.30:  Ann Velocity 
 AVMX.mps                 4.40:  Max Ann Veloc 
 AZIF.deg               110.24:  Azm, Final 
 BHAT.        Rotary Steerable:  BHA Type 
 BREV.rev               331.00:  Rev Bit Total 
 BROT.°/30m               0.00:  Build Rotating 
 BS  .in                  8.50:  Bit Size 
 BSZ .in                  8.50:  Bit Size 
 BTPL.psig              585.00:  Bit Press Loss 
 CABU.                     Yes:  Customer Abuse 
 TCS .hr                122.75:  Time Ciculation Ended 
 CV  .mps                 2.67:  Crit Velocity 
 CVMX.mps                 3.56:  Max Crit Veloc 
 DD1 .          Rashad Habibov:  Direct Drillr 1 
 DD2 .         Rasim Ibrahimov:  Direct Drillr 2 
 DDSV.               Geo-Pilot:  DD Service 
 DEFF.%                  98.00:  % Det Eff 
 DLRX.°/30m               0.75:  Dogleg Rot Max 
 DLSO.°/30m               1.25:  Dogleg Oriented 
 DLSX.°/30m               2.06:  Dogleg Str Max 
 DRET.      07.45.00 17-May-20:  Drill End Time 
 DRST.      22.50.00 15-May-20:  Drill Start Tim 
 DTIM.hr                 20.75:  Time Drilling 
 EDEP.m                5124.01:  End Depth 
 ENG1.           Eldar Hajiyev:  Engineer 1 
 ENG2.        Marcelo Sandoval:  Engineer 2 
 ENG3.        Davud huseynzada:  Engineer 3 
 ENG4.          Ruslan Safarov:  Engineer 4 
 ETIM.      04.33.00 23-May-20:  End Time 
 FLOI.gpm               450.00:  Flow In 
 FLON.gpm               400.00:  Flow In Min 
 FLOS.cptm                0.00:  Fluid Loss 
 FLOX.gpm               500.00:  Flow In Max 
 FTRO.       Formation Presure:  FTWD Run Obj 
 HFLO.                      No:  High Flow 
 HPRE.                     Yes:  High Pressure 
 HTEM.                      No:  High Temp 
 HYDO.m                   1.80:  Hydro Offset 
 IFIN.deg                75.06:  Inc, Final 
 IMAX.deg                75.38:  Inc Max 
 IMIN.deg                74.69:  Inc Min 
 IMND.m                5027.38:  Inc Min Depth 
 IMXD.m                4771.61:  Inc Max Depth 
 JARR.                      No:  Jarring 
 LETM.      07.45.00 17-May-20:  Log End Time 
 LOST.hr                     0:  Lost Rig Time 
 LSTM.      22.50.00 15-May-20:  Log Start Time 
 MDCL.ppm             42000.00:  Mud Chlorides 
 MDES.     Inversion Oil/Synthetic:  Mud Desc 
 DFD .sg                  1.34:  Mud Density 
 MDMN.sg                  1.34:  Dens Mud Min 
 MDMX.sg                  1.34:  Dens Mud Max 
 MOIL.                       0:  Run Mud Oil % 
 MOWR.                   67:33:  Run Mud OWR 
 MSND.                       0:  Run Mud Sand % 
 MSOL.                     1.8:  Run Mud Solids% 
 DFV .spqt               76.00:  Mud Viscosity 
 MWOD.in                  6.75:  MWD Tool OD 
 MWSI.                      No:  Serv Intrp, MWD 
 OTIM.hr                228.19:  Time Operating 
 PCON.           Look Like New:  Pad Condition 
 PMAX.psia             6164.70:  Press Op, Max 
 PV  .cP                 28.00:  Mud PV 
 RUN .                     900:  Run Number 
 ROPA.m/hr               19.00:  ROP Avg 
 ROPN.m/hr               11.00:  ROP Min 
 ROPX.m/hr               36.00:  ROP Max 
 RPMA.rpm               120.00:  RPM Surface Avg 
 RPMN.rpm               120.00:  RPM Surface Min 
 RPMX.rpm               120.00:  RPM Surface Max 
 RRUN.                    L604:  Rig Run Number 
 RTIM.hr                  7.00:  Time Reaming 
 SAZI.deg               109.27:  Azm, Start 
 SDEP.m                4761.01:  Start Depth 
 SIDD.                      No:  Serv Intrp, DD 
 SINC.deg                75.38:  Inc, Start 
 SPPA.psig             3574.00:  SPP Avg 
 SPPN.psig             3475.00:  SPP Min 
 SPPX.psig             3791.00:  SPP Max 
 STIM.      07.08.48 13-May-20:  Start Time 
 SVCS.                 DD, MWD:  Services 
 SVER.                    9.20:  Sperry Version 
 TDAT.m                 363.00:  Tot Depth Attmp 
 TDDF.                      No:  Trip for DD 
 TDLG.m                 363.00:  Tot Depth Loggd 
 TFF .                      No:  Trip for Fail 
 TQAA.f-kp               20.00:  Torque Abs Avg 
 TQAN.f-kp               18.00:  Torque Abs Min 
 TQAX.f-kp               22.00:  Torque Abs Max 
 TRRT.°/30m              -0.35:  Turn Rotating 
 MRT .                    HCIM:  Maximum Recorded Temperature 
 TTMX.degC               92.16:  Max Tool Temp 
 VS01.                90586518:  Virtual Str1 SN 
 VS02.        AZ90560654Z1W1C6:  Virtual Str2 SN 
 VS03.           AZ90610398F11:  Virtual Str3 SN 
 VS04.                90514975:  Virtual Str4 SN 
 VS05.                90514972:  Virtual Str5 SN 
 VS06.     AZ90603282F11V7D1A6:  Virtual Str6 SN 
 WBMN.klb                 7.00:  WOB Min 
 WOBA.klb                12.00:  WOB Avg 
 WOBX.klb                14.00:  WOB Max 
 YP  .lhf2               32.00:  Yield Point 
~Curve Information Block
#MNEM.UNIT                 API CODE     Curve Description
#---------               -----------    ---------------------------
 TIME.HHMMSS            00 000 000 000:  GT Time & Date
 GTDEPTH.m              00 000 000 000:  GT Depth
 GTPQH.psia             00 000 000 000:  GT HR Quartz Pressure
 GTTQ.degC              00 000 000 000:  GT Quartz Temperature
 GTTN.NONE              00 000 000 000:  GT Test Number
 GTET.sec               00 000 000 000:  GT Elapsed Test Time
 GTTVD.m                00 000 000 000:  GT True Vertical Depth
#Other Information
#
#WARRANTY: Halliburton will use its best efforts to furnish customers with 
#accurate information and interpretations that are part of, and incident to, the services 
#provided.  However, Halliburton cannot and does not warrant the accuracy 
#or correctness of such information and interpretations.  Under no circumstances should any 
#such information or interpretation be relied upon as the sole basis for any drilling, 
#completion, production, or financial decision or any procedure involving any risk to the 
#safety of any drilling venture, drilling rig or its crew or any other third party.  The 
#Customer has full responsibility for all drilling, completion and production operation.  
#Halliburton makes no representations or warranties, either expressed or 
#implied, including, but not limited to, the implied warranties of merchantability or fitness 
#for a particular purpose, with respect to the services rendered.  In no event will 
#Halliburton be liable for failure to obtain any particular results or for 
#any damages, including, but not limited to, indirect, special or consequential damages, 
#resulting from the use of any information or interpretation provided by Halliburton.
#
~A           TIME           GTDEPTH  GTPQH  GTTQ  GTTN   GTET   GTTVD  
# ...
   21:15:13.495.18-May-2020 4766.01 5490.76 60.63 14.00 113.03 2532.29
   21:15:13.695.18-May-2020 4766.01 5490.76 60.63 14.00 113.23 2532.29
   21:15:13.896.18-May-2020 4766.01 5492.76 60.63 14.00 113.43 2532.29
   21:15:14.096.18-May-2020 4766.01 5495.04 60.63 14.00 113.63 2532.29
   21:15:14.296.18-May-2020 4766.01 5497.63 60.63 14.00 113.83 2532.29
   21:15:14.496.18-May-2020 4766.01 5491.22 60.63 14.00 114.03 2532.29
   21:15:14.696.18-May-2020 4766.01 5491.44 60.63 14.00 114.23 2532.29
   21:15:14.896.18-May-2020 4766.01 5493.37 60.63 14.00 114.43 2532.29
   21:15:15.096.18-May-2020 4766.01 5498.37 60.63 14.00 114.63 2532.29
   21:15:15.296.18-May-2020 4766.01 5492.05 60.63 14.00 114.83 2532.29
   21:15:15.496.18-May-2020 4766.01 5491.86 60.63 14.00 115.03 2532.29
   21:15:15.696.18-May-2020 4766.01 5491.86 60.63 14.00 115.23 2532.29
   21:15:15.896.18-May-2020 4766.01 5493.95 60.63 14.00 115.43 2532.29
   21:15:16.096.18-May-2020 4766.01 5491.63 60.63 14.00 115.63 2532.29
   21:15:16.296.18-May-2020 4766.01 5491.91 60.63 14.00 115.83 2532.29
   21:15:16.496.18-May-2020 4766.01 5504.65 60.63 14.00 116.03 2532.29
   21:15:16.696.18-May-2020 4766.01 5504.65 60.63 14.00 116.23 2532.29
   21:15:16.896.18-May-2020 4766.01 5493.07 60.63 14.00 116.43 2532.29
   21:15:17.096.18-May-2020 4766.01 5492.09 60.63 14.00 116.63 2532.29
   21:15:17.296.18-May-2020 4766.01 5515.11 60.63 14.00 116.83 2532.29
   21:15:17.496.18-May-2020 4766.01 5491.37 60.63 14.00 117.03 2532.29
   21:15:17.697.18-May-2020 4766.01 5491.37 60.63 14.00 117.23 2532.29
   21:15:17.897.18-May-2020 4766.01 5493.29 60.63 14.00 117.43 2532.29
   21:15:18.097.18-May-2020 4766.01 5515.94 60.63 14.00 117.63 2532.29
   21:15:18.297.18-May-2020 4766.01 5495.79 60.63 14.00 117.83 2532.29
   21:15:18.497.18-May-2020 4766.01 5494.54 60.63 14.00 118.03 2532.29
   21:15:18.697.18-May-2020 4766.01 5494.54 60.63 14.00 118.23 2532.29
   21:15:18.897.18-May-2020 4766.01 5503.87 60.63 14.00 118.43 2532.29
   21:15:19.097.18-May-2020 4766.01 5512.35 60.63 14.00 118.63 2532.29
   21:15:19.297.18-May-2020 4766.01 5493.74 60.63 14.00 118.83 2532.29
   21:15:19.497.18-May-2020 4766.01 5496.93 60.63 14.00 119.03 2532.29
   21:15:19.697.18-May-2020 4766.01 5496.93 60.63 14.00 119.23 2532.29
   21:15:19.897.18-May-2020 4766.01 5507.25 60.63 14.00 119.43 2532.29
   21:15:20.097.18-May-2020 4766.01 5497.14 60.63 14.00 119.63 2532.29
   21:15:20.297.18-May-2020 4766.01 5496.73 60.63 14.00 119.83 2532.29
   21:15:20.497.18-May-2020 4766.01 5497.56 60.63 14.00 120.03 2532.29
   21:15:20.697.18-May-2020 4766.01 5497.56 60.63 14.00 120.23 2532.29
   21:15:20.897.18-May-2020 4766.01 5496.53 60.63 14.00 120.43 2532.29
   21:15:21.097.18-May-2020 4766.01 5510.19 60.63 14.00 120.63 2532.29
   21:15:21.297.18-May-2020 4766.01 5493.63 60.63 14.00 120.83 2532.29
   21:15:21.498.18-May-2020 4766.01 5497.73 60.63 14.00 121.03 2532.29
   21:15:21.698.18-May-2020 4766.01 5497.73 60.63 14.00 121.23 2532.29
   21:15:21.898.18-May-2020 4766.01 5506.08 60.63 14.00 121.43 2532.29
   21:15:22.098.18-May-2020 4766.01 5498.42 60.63 14.00 121.63 2532.29
   21:15:22.298.18-May-2020 4766.01 5497.96 60.63 14.00 121.83 2532.29
   21:15:22.498.18-May-2020 4766.01 5498.07 60.63 14.00 122.03 2532.29
   21:15:22.698.18-May-2020 4766.01 5499.36 60.63 14.00 122.23 2532.29
   21:15:22.898.18-May-2020 4766.01 5497.86 60.63 14.00 122.43 2532.29
   21:15:23.098.18-May-2020 4766.01 5496.90 60.63 14.00 122.63 2532.29
   21:15:23.298.18-May-2020 4766.01 5506.99 60.63 14.00 122.83 2532.29
   21:15:23.498.18-May-2020 4766.01 5497.01 60.63 14.00 123.03 2532.29
   21:15:23.698.18-May-2020 4766.01 5497.01 60.63 14.00 123.23 2532.29
   21:15:23.898.18-May-2020 4766.01 5496.21 60.63 14.00 123.43 2532.29
   21:15:24.098.18-May-2020 4766.01 5517.74 60.63 14.00 123.63 2532.29
   21:15:24.298.18-May-2020 4766.01 5497.74 60.63 14.00 123.83 2532.29
   21:15:24.498.18-May-2020 4766.01 5498.71 60.63 14.00 124.03 2532.29
   21:15:24.698.18-May-2020 4766.01 5496.93 60.63 14.00 124.23 2532.29
   21:15:24.898.18-May-2020 4766.01 5509.73 60.63 14.00 124.43 2532.29
   21:15:25.098.18-May-2020 4766.01 5515.09 60.63 14.00 124.63 2532.29
   21:15:25.299.18-May-2020 4766.01 5496.37 60.63 14.00 124.83 2532.29
   21:15:25.499.18-May-2020 4766.01 5500.42 60.63 14.00 125.03 2532.29
   21:15:25.699.18-May-2020 4766.01 5500.98 60.63 14.00 125.23 2532.29
   21:15:25.899.18-May-2020 4766.01 5509.76 60.63 14.00 125.43 2532.29
   21:15:26.099.18-May-2020 4766.01 5513.88 60.63 14.00 125.63 2532.29
   21:15:26.299.18-May-2020 4766.01 5498.88 60.63 14.00 125.83 2532.29
   21:15:26.499.18-May-2020 4766.01 5502.38 60.63 14.00 126.03 2532.29
   21:15:26.699.18-May-2020 4766.01 5502.20 60.63 14.00 126.23 2532.29
   21:15:26.899.18-May-2020 4766.01 5510.63 60.63 14.00 126.43 2532.29
   21:15:27.099.18-May-2020 4766.01 5501.80 60.63 14.00 126.63 2532.29
   21:15:27.299.18-May-2020 4766.01 5501.27 60.63 14.00 126.83 2532.29
   21:15:27.499.18-May-2020 4766.01 5501.49 60.63 14.00 127.03 2532.29
   21:15:27.699.18-May-2020 4766.01 5502.67 60.63 14.00 127.23 2532.29
   21:15:27.899.18-May-2020 4766.01 5501.09 60.63 14.00 127.43 2532.29
   21:15:28.099.18-May-2020 4766.01 5514.19 60.63 14.00 127.63 2532.29
   21:15:28.299.18-May-2020 4766.01 5497.42 60.63 14.00 127.83 2532.29
   21:15:28.499.18-May-2020 4766.01 5501.63 60.63 14.00 128.03 2532.29
   21:15:28.699.18-May-2020 4766.01 5501.63 60.63 14.00 128.23 2532.29
   21:15:28.900.18-May-2020 4766.01 5509.52 60.63 14.00 128.43 2532.29
   21:15:29.100.18-May-2020 4766.01 5501.35 60.63 14.00 128.63 2532.29
   21:15:29.300.18-May-2020 4766.01 5500.67 60.63 14.00 128.83 2532.29
   21:15:29.500.18-May-2020 4766.01 5500.94 60.63 14.00 129.03 2532.29
   21:15:29.700.18-May-2020 4766.01 5500.94 60.63 14.00 129.23 2532.29
   21:15:29.900.18-May-2020 4766.01 5500.36 60.63 14.00 129.43 2532.29
   21:15:30.100.18-May-2020 4766.01 5499.69 60.63 14.00 129.63 2532.29
   21:15:30.300.18-May-2020 4766.01 5511.15 60.63 14.00 129.83 2532.29
   21:15:30.500.18-May-2020 4766.01 5498.67 60.63 14.00 130.03 2532.29
   21:15:30.700.18-May-2020 4766.01 5499.88 60.63 14.00 130.23 2532.29
   21:15:30.900.18-May-2020 4766.01 5499.14 60.63 14.00 130.43 2532.29
   21:15:31.100.18-May-2020 4766.01 5517.29 60.63 14.00 130.63 2532.29
   21:15:31.300.18-May-2020 4766.01 5503.14 60.63 14.00 130.83 2532.29
   21:15:31.500.18-May-2020 4766.01 5500.48 60.63 14.00 131.03 2532.29
   21:15:31.700.18-May-2020 4766.01 5500.48 60.63 14.00 131.23 2532.29
   21:15:31.900.18-May-2020 4766.01 5508.00 60.63 14.00 131.43 2532.29
   21:15:32.100.18-May-2020 4766.01 5519.96 60.63 14.00 131.63 2532.29
   21:15:32.300.18-May-2020 4766.01 5498.28 60.63 14.00 131.84 2532.29
   21:15:32.500.18-May-2020 4766.01 5501.27 60.63 14.00 132.04 2532.29
   21:15:32.701.18-May-2020 4766.01 5501.27 60.63 14.00 132.24 2532.29
   21:15:32.901.18-May-2020 4766.01 5526.03 60.63 14.00 132.44 2532.29
   21:15:33.101.18-May-2020 4766.01 5500.47 60.63 14.00 132.64 2532.29
   21:15:33.301.18-May-2020 4766.01 5502.06 60.63 14.00 132.84 2532.29
   21:15:33.501.18-May-2020 4766.01 5500.86 60.63 14.00 133.04 2532.29
   21:15:33.701.18-May-2020 4766.01 5500.86 60.63 14.00 133.24 2532.29
   21:15:33.901.18-May-2020 4766.01 5504.32 60.63 14.00 133.44 2532.29
   21:15:34.101.18-May-2020 4766.01 5502.19 60.63 14.00 133.64 2532.29
   21:15:34.301.18-May-2020 4766.01 5502.51 60.63 14.00 133.84 2532.29
   21:15:34.501.18-May-2020 4766.01 5504.59 60.63 14.00 134.04 2532.29
   21:15:34.701.18-May-2020 4766.01 5502.79 60.63 14.00 134.24 2532.29
   21:15:34.901.18-May-2020 4766.01 5514.57 60.63 14.00 134.44 2532.29
   21:15:35.101.18-May-2020 4766.01 5500.00 60.63 14.00 134.64 2532.29
   21:15:35.301.18-May-2020 4766.01 5502.32 60.63 14.00 134.84 2532.29
   21:15:35.501.18-May-2020 4766.01 5501.17 60.63 14.00 135.04 2532.29
   21:15:35.701.18-May-2020 4766.01 5501.17 60.63 14.00 135.24 2532.29
   21:15:35.901.18-May-2020 4766.01 5504.22 60.63 14.00 135.44 2532.29
