~Version Information
 VERS.                  2.0:   CWLS log ASCII Standard -VERSION 2.0
 WRAP.                   NO:   One line per depth step
~Well Information Block
#MNEM.UNIT     VALUE/NAME     DESCRIPTION
#---------     -----------    ---------------------------
 STRT.S             03:21:16 18-May-20: START TIME 03:21:16 18-May-20
 STOP.S             03:28:29 18-May-20: STOP TIME  03:28:29 18-May-20
 STEP.S                   0.00: STEP TIME
 NULL.                 -999.25: NULL VALUE
 UNIT.                     N/A:  LOGGING EQUIPMENT ID
 DCON.         Sperry Drilling:  DIRECTNL CONTR
 DOE .                     N/A:  DOE NUMBER
 JOBN.        AZ-XX-0906252240:  JOB TICKET NUMB
 MWDS.                     N/A:  MWD SHOP
 PROV.                    Baku:  PROVINCE
 STAT.                    Baku:  STATE NAME
 REGN.                   EESSA:  REGION
 BASE.              Azerbaijan:  LOGGING EQUIPMENT BASE LOCATION
 UWI .                     N/A:  UNIQUE WELL IDENTIFIER
 API .                     N/A:  API NUMBER
 MDS .        Operator Entered:  MAG DATA SOURCE
 WTYP.                Deviated:  WELL TYPE
 COMP.     BP Exploration (Caspian Sea) Ltd.:  COMPANY
 SRVC.          Turan Drilling:  CONTRACTOR
 WELL.           J23 (Slot 07):  WELL NAME
 CTRY.              Azerbaijan:  COUNTRY NAME
 FLD .                     ACG:  FIELD NAME
 PDAT.          Mean Sea Level:  PERMANENT DATUM
 RIG .             West Chirag:  RIG NAME
 SON .        AZ-XX-0906252240:  JOB NUMBER
 FTOP.          Formation Tops:  FORM TOPS DESC
 ILTD.               Lithology:  INTERP LTH DESC
 SVYD.                  Survey:  SURVEY DESC
 DMOD.             Drill Model:  DRILL MOD DESC
 HPTY.       Minimum Curvature:  HOLE POS TYPE
 NREF.                    Grid:  NORTH REFERENCE
 SPUD.               27-Aug-20:  SPUD DATE
 DATE.      00.00.00 19-May-20:  END TIME
 STIM.      03.00.00 25-Mar-20:  START TIME
 DMF .             Drill Floor:  DRILL MEAS FROM
 DFST.                        :  DIST FSL TEXT
 DFWT.                        :  DIST FWL TEXT
 CNTY.                        :  COUNTY
 LOC .                        :  LOCATION
 LMF .             Drill Floor:  LOG MEASURED FROM
 VSNS.m                   9.43:  VERT SEC N/S
 VSEW.m                  -8.91:  VERT SEC E/W
 AGAP.m                  43.00:  AIR GAP
 DEP .m                 354.17:  DEPTH
 APD .m                  43.00:  DEPTH ABOVE PD
 WDMS.m                 169.80:  WD ELEV
 EGL .m                   0.00:  GROUND ELEVATION
 EPD .m                   0.00:  ELEVATION
 AZTC.deg                 6.31:  AZM TOTAL CORR
 GRDC.deg                 0.14:  GRID CORRECTION
 MDEC.deg                 6.45:  MAGNETIC DECL
 MDIP.deg                59.56:  MAGNETIC DIP
 MFLD.nT              50295.00:  MAGNETIC FIELD
 GVFD.g                   1.00:  GRAVITY FIELD
 VSDR.deg               179.88:  VERT SEC DIRECT
 TDD .m                5150.01:  TOTAL DEPTH (DRILLER)
 SDEP.m                 864.00:  START DEPTH
 DFSL.m                   0.00:  DISTANCE FSL
 DFWL.m                   0.00:  DISTANCE FWL
 UTMY.m             4443793.85:  UTM Y
 UTMX.m              519005.06:  UTM X
 WHEW.m                  -8.91:  WELL HEAD E/W
 WHNS.m                   9.43:  WELL HEAD N/S
 LONG.deg                51.22:  LONGITUDE
 LATI.deg                40.13:  LATITUDE
 TVDS.m                  43.00:  TVDSS CORRECTN
 EKB .m                   0.00:  KB ELEVATION
 EDF .m                  43.00:  DF ELEVATION
 TDL .m                 363.00:  TOTAL DEPTH (LOGGER)
 MAGU.                 1850802:  MAGUTM CHECKSUM
 VSC .                       0:  VS TO CLOSURE
~Parameter Information Block
#MNEM.UNIT       Value        Description
#---------     -----------    ---------------------------
 AV  .mps                 2.30:  Ann Velocity 
 AVMX.mps                 4.40:  Max Ann Veloc 
 AZIF.deg               110.24:  Azm, Final 
 BHAT.        Rotary Steerable:  BHA Type 
 BREV.rev               331.00:  Rev Bit Total 
 BROT.°/30m               0.00:  Build Rotating 
 BS  .in                  8.50:  Bit Size 
 BSZ .in                  8.50:  Bit Size 
 BTPL.psig              585.00:  Bit Press Loss 
 CABU.                     Yes:  Customer Abuse 
 TCS .hr                122.75:  Time Ciculation Ended 
 CV  .mps                 2.67:  Crit Velocity 
 CVMX.mps                 3.56:  Max Crit Veloc 
 DD1 .          Rashad Habibov:  Direct Drillr 1 
 DD2 .         Rasim Ibrahimov:  Direct Drillr 2 
 DDSV.               Geo-Pilot:  DD Service 
 DEFF.%                  98.00:  % Det Eff 
 DLRX.°/30m               0.75:  Dogleg Rot Max 
 DLSO.°/30m               1.25:  Dogleg Oriented 
 DLSX.°/30m               2.06:  Dogleg Str Max 
 DRET.      07.45.00 17-May-20:  Drill End Time 
 DRST.      22.50.00 15-May-20:  Drill Start Tim 
 DTIM.hr                 20.75:  Time Drilling 
 EDEP.m                5124.01:  End Depth 
 ENG1.           Eldar Hajiyev:  Engineer 1 
 ENG2.        Marcelo Sandoval:  Engineer 2 
 ENG3.        Davud huseynzada:  Engineer 3 
 ENG4.          Ruslan Safarov:  Engineer 4 
 ETIM.      04.33.00 23-May-20:  End Time 
 FLOI.gpm               450.00:  Flow In 
 FLON.gpm               400.00:  Flow In Min 
 FLOS.cptm                0.00:  Fluid Loss 
 FLOX.gpm               500.00:  Flow In Max 
 FTRO.       Formation Presure:  FTWD Run Obj 
 HFLO.                      No:  High Flow 
 HPRE.                     Yes:  High Pressure 
 HTEM.                      No:  High Temp 
 HYDO.m                   1.80:  Hydro Offset 
 IFIN.deg                75.06:  Inc, Final 
 IMAX.deg                75.38:  Inc Max 
 IMIN.deg                74.69:  Inc Min 
 IMND.m                5027.38:  Inc Min Depth 
 IMXD.m                4771.61:  Inc Max Depth 
 JARR.                      No:  Jarring 
 LETM.      07.45.00 17-May-20:  Log End Time 
 LOST.hr                     0:  Lost Rig Time 
 LSTM.      22.50.00 15-May-20:  Log Start Time 
 MDCL.ppm             42000.00:  Mud Chlorides 
 MDES.     Inversion Oil/Synthetic:  Mud Desc 
 DFD .sg                  1.34:  Mud Density 
 MDMN.sg                  1.34:  Dens Mud Min 
 MDMX.sg                  1.34:  Dens Mud Max 
 MOIL.                       0:  Run Mud Oil % 
 MOWR.                   67:33:  Run Mud OWR 
 MSND.                       0:  Run Mud Sand % 
 MSOL.                     1.8:  Run Mud Solids% 
 DFV .spqt               76.00:  Mud Viscosity 
 MWOD.in                  6.75:  MWD Tool OD 
 MWSI.                      No:  Serv Intrp, MWD 
 OTIM.hr                228.19:  Time Operating 
 PCON.           Look Like New:  Pad Condition 
 PMAX.psia             6164.70:  Press Op, Max 
 PV  .cP                 28.00:  Mud PV 
 RUN .                     900:  Run Number 
 ROPA.m/hr               19.00:  ROP Avg 
 ROPN.m/hr               11.00:  ROP Min 
 ROPX.m/hr               36.00:  ROP Max 
 RPMA.rpm               120.00:  RPM Surface Avg 
 RPMN.rpm               120.00:  RPM Surface Min 
 RPMX.rpm               120.00:  RPM Surface Max 
 RRUN.                    L604:  Rig Run Number 
 RTIM.hr                  7.00:  Time Reaming 
 SAZI.deg               109.27:  Azm, Start 
 SDEP.m                4761.01:  Start Depth 
 SIDD.                      No:  Serv Intrp, DD 
 SINC.deg                75.38:  Inc, Start 
 SPPA.psig             3574.00:  SPP Avg 
 SPPN.psig             3475.00:  SPP Min 
 SPPX.psig             3791.00:  SPP Max 
 STIM.      07.08.48 13-May-20:  Start Time 
 SVCS.                 DD, MWD:  Services 
 SVER.                    9.20:  Sperry Version 
 TDAT.m                 363.00:  Tot Depth Attmp 
 TDDF.                      No:  Trip for DD 
 TDLG.m                 363.00:  Tot Depth Loggd 
 TFF .                      No:  Trip for Fail 
 TQAA.f-kp               20.00:  Torque Abs Avg 
 TQAN.f-kp               18.00:  Torque Abs Min 
 TQAX.f-kp               22.00:  Torque Abs Max 
 TRRT.°/30m              -0.35:  Turn Rotating 
 MRT .                    HCIM:  Maximum Recorded Temperature 
 TTMX.degC               92.16:  Max Tool Temp 
 VS01.                90586518:  Virtual Str1 SN 
 VS02.        AZ90560654Z1W1C6:  Virtual Str2 SN 
 VS03.           AZ90610398F11:  Virtual Str3 SN 
 VS04.                90514975:  Virtual Str4 SN 
 VS05.                90514972:  Virtual Str5 SN 
 VS06.     AZ90603282F11V7D1A6:  Virtual Str6 SN 
 WBMN.klb                 7.00:  WOB Min 
 WOBA.klb                12.00:  WOB Avg 
 WOBX.klb                14.00:  WOB Max 
 YP  .lhf2               32.00:  Yield Point 
~Curve Information Block
#MNEM.UNIT                 API CODE     Curve Description
#---------               -----------    ---------------------------
 TIME.HHMMSS            00 000 000 000:  GT Time & Date
 GTDEPTH.m              00 000 000 000:  GT Depth
 GTPQH.psia             00 000 000 000:  GT HR Quartz Pressure
 GTTQ.degC              00 000 000 000:  GT Quartz Temperature
 GTTN.NONE              00 000 000 000:  GT Test Number
 GTET.sec               00 000 000 000:  GT Elapsed Test Time
 GTTVD.m                00 000 000 000:  GT True Vertical Depth
#Other Information
#
#WARRANTY: Halliburton will use its best efforts to furnish customers with 
#accurate information and interpretations that are part of, and incident to, the services 
#provided.  However, Halliburton cannot and does not warrant the accuracy 
#or correctness of such information and interpretations.  Under no circumstances should any 
#such information or interpretation be relied upon as the sole basis for any drilling, 
#completion, production, or financial decision or any procedure involving any risk to the 
#safety of any drilling venture, drilling rig or its crew or any other third party.  The 
#Customer has full responsibility for all drilling, completion and production operation.  
#Halliburton makes no representations or warranties, either expressed or 
#implied, including, but not limited to, the implied warranties of merchantability or fitness 
#for a particular purpose, with respect to the services rendered.  In no event will 
#Halliburton be liable for failure to obtain any particular results or for 
#any damages, including, but not limited to, indirect, special or consequential damages, 
#resulting from the use of any information or interpretation provided by Halliburton.
#
~A           TIME           GTDEPTH  GTPQH  GTTQ  GTTN   GTET   GTTVD  
# ...
   03:24:17.462.18-May-2020 4797.01 3816.12 65.95 13.00 180.87 2540.22
   03:24:17.662.18-May-2020 4797.01 3816.11 65.95 13.00 181.07 2540.22
   03:24:17.862.18-May-2020 4797.01 3816.11 65.95 13.00 181.27 2540.22
   03:24:18.062.18-May-2020 4797.01 3814.87 65.95 13.00 181.47 2540.22
   03:24:18.262.18-May-2020 4797.01 3816.83 65.95 13.00 181.67 2540.22
   03:24:18.462.18-May-2020 4797.01 3816.00 65.95 13.00 181.87 2540.22
   03:24:18.662.18-May-2020 4797.01 3816.15 65.95 13.00 182.07 2540.22
   03:24:18.863.18-May-2020 4797.01 3816.15 65.95 13.00 182.27 2540.22
   03:24:19.063.18-May-2020 4797.01 3815.96 65.95 13.00 182.47 2540.22
   03:24:19.263.18-May-2020 4797.01 3816.60 65.95 13.00 182.67 2540.22
   03:24:19.463.18-May-2020 4797.01 3816.26 65.95 13.00 182.87 2540.22
   03:24:19.663.18-May-2020 4797.01 3816.48 65.95 13.00 183.07 2540.22
   03:24:19.863.18-May-2020 4797.01 3816.48 65.95 13.00 183.27 2540.22
   03:24:20.063.18-May-2020 4797.01 3816.73 65.95 13.00 183.47 2540.22
   03:24:20.263.18-May-2020 4797.01 3816.51 65.95 13.00 183.67 2540.22
   03:24:20.463.18-May-2020 4797.01 3816.31 65.95 13.00 183.87 2540.22
   03:24:20.663.18-May-2020 4797.01 3816.74 65.95 13.00 184.07 2540.22
   03:24:20.863.18-May-2020 4797.01 3816.74 65.95 13.00 184.27 2540.22
   03:24:21.063.18-May-2020 4797.01 3816.38 65.95 13.00 184.47 2540.22
   03:24:21.264.18-May-2020 4797.01 3816.57 65.95 13.00 184.67 2540.22
   03:24:21.464.18-May-2020 4797.01 3816.38 65.95 13.00 184.87 2540.22
   03:24:21.664.18-May-2020 4797.01 3816.73 65.95 13.00 185.07 2540.22
   03:24:21.864.18-May-2020 4797.01 3816.73 65.95 13.00 185.27 2540.22
   03:24:22.064.18-May-2020 4797.01 3816.72 65.95 13.00 185.47 2540.22
   03:24:22.264.18-May-2020 4797.01 3816.60 65.95 13.00 185.67 2540.22
   03:24:22.464.18-May-2020 4797.01 3816.54 65.95 13.00 185.87 2540.22
   03:24:22.664.18-May-2020 4797.01 3816.63 65.95 13.00 186.08 2540.22
   03:24:22.864.18-May-2020 4797.01 3816.63 65.95 13.00 186.28 2540.22
   03:24:23.064.18-May-2020 4797.01 3815.92 65.95 13.00 186.48 2540.22
   03:24:23.264.18-May-2020 4797.01 3817.24 65.95 13.00 186.68 2540.22
   03:24:23.464.18-May-2020 4797.01 3816.66 65.95 13.00 186.88 2540.22
   03:24:23.665.18-May-2020 4797.01 3816.56 65.95 13.00 187.08 2540.22
   03:24:23.865.18-May-2020 4797.01 3816.56 65.95 13.00 187.28 2540.22
   03:24:24.065.18-May-2020 4797.01 3816.97 65.95 13.00 187.48 2540.22
   03:24:24.265.18-May-2020 4797.01 3816.77 65.95 13.00 187.68 2540.22
   03:24:24.465.18-May-2020 4797.01 3816.65 65.95 13.00 187.88 2540.22
   03:24:24.665.18-May-2020 4797.01 3816.77 65.95 13.00 188.08 2540.22
   03:24:24.865.18-May-2020 4797.01 3816.77 65.95 13.00 188.28 2540.22
   03:24:25.065.18-May-2020 4797.01 3816.77 65.95 13.00 188.48 2540.22
   03:24:25.265.18-May-2020 4797.01 3816.17 65.95 13.00 188.68 2540.22
   03:24:25.465.18-May-2020 4797.01 3817.35 65.94 13.00 188.88 2540.22
   03:24:25.665.18-May-2020 4797.01 3816.64 65.95 13.00 189.08 2540.22
   03:24:25.865.18-May-2020 4797.01 3816.64 65.95 13.00 189.28 2540.22
   03:24:26.065.18-May-2020 4797.01 3817.18 65.94 13.00 189.48 2540.22
   03:24:26.266.18-May-2020 4797.01 3815.93 65.94 13.00 189.68 2540.22
   03:24:26.466.18-May-2020 4797.01 3817.66 65.94 13.00 189.88 2540.22
   03:24:26.666.18-May-2020 4797.01 3816.66 65.94 13.00 190.08 2540.22
   03:24:26.866.18-May-2020 4797.01 3816.66 65.94 13.00 190.28 2540.22
   03:24:27.066.18-May-2020 4797.01 3816.40 65.94 13.00 190.48 2540.22
   03:24:27.266.18-May-2020 4797.01 3818.06 65.94 13.00 190.68 2540.22
   03:24:27.466.18-May-2020 4797.01 3816.85 65.94 13.00 190.88 2540.22
   03:24:27.666.18-May-2020 4797.01 3815.93 65.94 13.00 191.08 2540.22
   03:24:27.866.18-May-2020 4797.01 3815.93 65.94 13.00 191.28 2540.22
   03:24:28.066.18-May-2020 4797.01 3817.20 65.94 13.00 191.48 2540.22
   03:24:28.266.18-May-2020 4797.01 3816.99 65.94 13.00 191.68 2540.22
   03:24:28.466.18-May-2020 4797.01 3817.25 65.94 13.00 191.88 2540.22
   03:24:28.667.18-May-2020 4797.01 3817.27 65.94 13.00 192.08 2540.22
   03:24:28.867.18-May-2020 4797.01 3817.27 65.94 13.00 192.28 2540.22
   03:24:29.067.18-May-2020 4797.01 3817.02 65.94 13.00 192.48 2540.22
   03:24:29.267.18-May-2020 4797.01 3817.03 65.94 13.00 192.68 2540.22
   03:24:29.467.18-May-2020 4797.01 3816.94 65.94 13.00 192.88 2540.22
   03:24:29.667.18-May-2020 4797.01 3816.94 65.94 13.00 193.08 2540.22
   03:24:29.867.18-May-2020 4797.01 3816.94 65.94 13.00 193.28 2540.22
   03:24:30.067.18-May-2020 4797.01 3817.91 65.94 13.00 193.48 2540.22
   03:24:30.267.18-May-2020 4797.01 3816.92 65.94 13.00 193.68 2540.22
   03:24:30.467.18-May-2020 4797.01 3816.99 65.94 13.00 193.88 2540.22
   03:24:30.667.18-May-2020 4797.01 3817.43 65.94 13.00 194.08 2540.22
   03:24:30.867.18-May-2020 4797.01 3817.11 65.94 13.00 194.28 2540.22
   03:24:31.067.18-May-2020 4797.01 3817.05 65.94 13.00 194.48 2540.22
   03:24:31.268.18-May-2020 4797.01 3817.07 65.94 13.00 194.68 2540.22
   03:24:31.468.18-May-2020 4797.01 3817.04 65.94 13.00 194.88 2540.22
   03:24:31.668.18-May-2020 4797.01 3816.99 65.94 13.00 195.08 2540.22
   03:24:31.868.18-May-2020 4797.01 3816.99 65.94 13.00 195.28 2540.22
   03:24:32.068.18-May-2020 4797.01 3817.33 65.94 13.00 195.48 2540.22
   03:24:32.268.18-May-2020 4797.01 3817.15 65.94 13.00 195.68 2540.22
   03:24:32.468.18-May-2020 4797.01 3816.99 65.94 13.00 195.88 2540.22
   03:24:32.668.18-May-2020 4797.01 3817.31 65.94 13.00 196.08 2540.22
   03:24:32.868.18-May-2020 4797.01 3817.31 65.94 13.00 196.28 2540.22
   03:24:33.068.18-May-2020 4797.01 3816.96 65.94 13.00 196.48 2540.22
   03:24:33.268.18-May-2020 4797.01 3817.12 65.94 13.00 196.68 2540.22
   03:24:33.468.18-May-2020 4797.01 3817.08 65.94 13.00 196.88 2540.22
   03:24:33.669.18-May-2020 4797.01 3817.29 65.94 13.00 197.08 2540.22
   03:24:33.869.18-May-2020 4797.01 3817.29 65.94 13.00 197.28 2540.22
   03:24:34.069.18-May-2020 4797.01 3817.47 65.94 13.00 197.48 2540.22
   03:24:34.269.18-May-2020 4797.01 3817.08 65.94 13.00 197.68 2540.22
   03:24:34.469.18-May-2020 4797.01 3816.39 65.94 13.00 197.88 2540.22
   03:24:34.669.18-May-2020 4797.01 3818.13 65.94 13.00 198.08 2540.22
   03:24:34.869.18-May-2020 4797.01 3818.13 65.94 13.00 198.28 2540.22
   03:24:35.069.18-May-2020 4797.01 3817.27 65.94 13.00 198.48 2540.22
   03:24:35.269.18-May-2020 4797.01 3817.59 65.94 13.00 198.68 2540.22
   03:24:35.469.18-May-2020 4797.01 3817.29 65.94 13.00 198.88 2540.22
   03:24:35.669.18-May-2020 4797.01 3817.09 65.94 13.00 199.08 2540.22
   03:24:35.869.18-May-2020 4797.01 3817.09 65.94 13.00 199.28 2540.22
   03:24:36.070.18-May-2020 4797.01 3817.19 65.94 13.00 199.48 2540.22
   03:24:36.270.18-May-2020 4797.01 3817.10 65.94 13.00 199.68 2540.22
   03:24:36.470.18-May-2020 4797.01 3817.15 65.94 13.00 199.88 2540.22
   03:24:36.670.18-May-2020 4797.01 3817.04 65.94 13.00 200.08 2540.22
   03:24:36.870.18-May-2020 4797.01 3817.04 65.94 13.00 200.28 2540.22
   03:24:37.070.18-May-2020 4797.01 3817.10 65.94 13.00 200.48 2540.22
   03:24:37.270.18-May-2020 4797.01 3817.39 65.94 13.00 200.68 2540.22
   03:24:37.470.18-May-2020 4797.01 3817.38 65.94 13.00 200.88 2540.22
   03:24:37.670.18-May-2020 4797.01 3817.24 65.94 13.00 201.08 2540.22
   03:24:37.870.18-May-2020 4797.01 3817.24 65.94 13.00 201.28 2540.22
   03:24:38.070.18-May-2020 4797.01 3817.16 65.94 13.00 201.48 2540.22
   03:24:38.270.18-May-2020 4797.01 3817.17 65.94 13.00 201.68 2540.22
   03:24:38.470.18-May-2020 4797.01 3817.14 65.94 13.00 201.88 2540.22
   03:24:38.671.18-May-2020 4797.01 3816.27 65.94 13.00 202.08 2540.22
   03:24:38.871.18-May-2020 4797.01 3816.27 65.94 13.00 202.28 2540.22
   03:24:39.071.18-May-2020 4797.01 3817.15 65.94 13.00 202.48 2540.22
   03:24:39.271.18-May-2020 4797.01 3817.14 65.94 13.00 202.68 2540.22
   03:24:39.471.18-May-2020 4797.01 3817.65 65.94 13.00 202.88 2540.22
   03:24:39.671.18-May-2020 4797.01 3816.40 65.94 13.00 203.08 2540.22
   03:24:39.871.18-May-2020 4797.01 3816.40 65.94 13.00 203.28 2540.22
