~Version Information
 VERS.                  2.0:   CWLS log ASCII Standard -VERSION 2.0
 WRAP.                   NO:   One line per depth step
~Well Information Block
#MNEM.UNIT     VALUE/NAME     DESCRIPTION
#---------     -----------    ---------------------------
 STRT.S             12:13:26 20-May-20: START TIME 12:13:26 20-May-20
 STOP.S             12:20:31 20-May-20: STOP TIME  12:20:31 20-May-20
 STEP.S                   0.00: STEP TIME
 NULL.                 -999.25: NULL VALUE
 UNIT.                     N/A:  LOGGING EQUIPMENT ID
 DCON.         Sperry Drilling:  DIRECTNL CONTR
 DOE .                     N/A:  DOE NUMBER
 JOBN.        AZ-XX-0906252240:  JOB TICKET NUMB
 MWDS.                     N/A:  MWD SHOP
 PROV.                    Baku:  PROVINCE
 STAT.                    Baku:  STATE NAME
 REGN.                   EESSA:  REGION
 BASE.              Azerbaijan:  LOGGING EQUIPMENT BASE LOCATION
 UWI .                     N/A:  UNIQUE WELL IDENTIFIER
 API .                     N/A:  API NUMBER
 MDS .        Operator Entered:  MAG DATA SOURCE
 WTYP.                Deviated:  WELL TYPE
 COMP.     BP Exploration (Caspian Sea) Ltd.:  COMPANY
 SRVC.          Turan Drilling:  CONTRACTOR
 WELL.           J23 (Slot 07):  WELL NAME
 CTRY.              Azerbaijan:  COUNTRY NAME
 FLD .                     ACG:  FIELD NAME
 PDAT.          Mean Sea Level:  PERMANENT DATUM
 RIG .             West Chirag:  RIG NAME
 SON .        AZ-XX-0906252240:  JOB NUMBER
 FTOP.          Formation Tops:  FORM TOPS DESC
 ILTD.               Lithology:  INTERP LTH DESC
 SVYD.                  Survey:  SURVEY DESC
 DMOD.             Drill Model:  DRILL MOD DESC
 HPTY.       Minimum Curvature:  HOLE POS TYPE
 NREF.                    Grid:  NORTH REFERENCE
 SPUD.               27-Aug-20:  SPUD DATE
 DATE.      00.00.00 19-May-20:  END TIME
 STIM.      03.00.00 25-Mar-20:  START TIME
 DMF .             Drill Floor:  DRILL MEAS FROM
 DFST.                        :  DIST FSL TEXT
 DFWT.                        :  DIST FWL TEXT
 CNTY.                        :  COUNTY
 LOC .                        :  LOCATION
 LMF .             Drill Floor:  LOG MEASURED FROM
 VSNS.m                   9.43:  VERT SEC N/S
 VSEW.m                  -8.91:  VERT SEC E/W
 AGAP.m                  43.00:  AIR GAP
 DEP .m                 354.17:  DEPTH
 APD .m                  43.00:  DEPTH ABOVE PD
 WDMS.m                 169.80:  WD ELEV
 EGL .m                   0.00:  GROUND ELEVATION
 EPD .m                   0.00:  ELEVATION
 AZTC.deg                 6.31:  AZM TOTAL CORR
 GRDC.deg                 0.14:  GRID CORRECTION
 MDEC.deg                 6.45:  MAGNETIC DECL
 MDIP.deg                59.56:  MAGNETIC DIP
 MFLD.nT              50295.00:  MAGNETIC FIELD
 GVFD.g                   1.00:  GRAVITY FIELD
 VSDR.deg               179.88:  VERT SEC DIRECT
 TDD .m                5150.01:  TOTAL DEPTH (DRILLER)
 SDEP.m                 864.00:  START DEPTH
 DFSL.m                   0.00:  DISTANCE FSL
 DFWL.m                   0.00:  DISTANCE FWL
 UTMY.m             4443793.85:  UTM Y
 UTMX.m              519005.06:  UTM X
 WHEW.m                  -8.91:  WELL HEAD E/W
 WHNS.m                   9.43:  WELL HEAD N/S
 LONG.deg                51.22:  LONGITUDE
 LATI.deg                40.13:  LATITUDE
 TVDS.m                  43.00:  TVDSS CORRECTN
 EKB .m                   0.00:  KB ELEVATION
 EDF .m                  43.00:  DF ELEVATION
 TDL .m                 363.00:  TOTAL DEPTH (LOGGER)
 MAGU.                 1850802:  MAGUTM CHECKSUM
 VSC .                       0:  VS TO CLOSURE
~Parameter Information Block
#MNEM.UNIT       Value        Description
#---------     -----------    ---------------------------
 AV  .mps                 2.30:  Ann Velocity 
 AVMX.mps                 4.40:  Max Ann Veloc 
 AZIF.deg               110.24:  Azm, Final 
 BHAT.        Rotary Steerable:  BHA Type 
 BREV.rev               331.00:  Rev Bit Total 
 BROT.°/30m               0.00:  Build Rotating 
 BS  .in                  8.50:  Bit Size 
 BSZ .in                  8.50:  Bit Size 
 BTPL.psig              585.00:  Bit Press Loss 
 CABU.                     Yes:  Customer Abuse 
 COMM.                     моЊ:  Run Comments 1 
 TCS .hr                122.75:  Time Ciculation Ended 
 CV  .mps                 2.67:  Crit Velocity 
 CVMX.mps                 3.56:  Max Crit Veloc 
 DD1 .          Rashad Habibov:  Direct Drillr 1 
 DD2 .         Rasim Ibrahimov:  Direct Drillr 2 
 DDSV.               Geo-Pilot:  DD Service 
 DEFF.%                  98.00:  % Det Eff 
 DLRX.°/30m               0.75:  Dogleg Rot Max 
 DLSO.°/30m               1.25:  Dogleg Oriented 
 DLSX.°/30m               2.06:  Dogleg Str Max 
 DRET.      07.45.00 17-May-20:  Drill End Time 
 DRST.      22.50.00 15-May-20:  Drill Start Tim 
 DTIM.hr                 20.75:  Time Drilling 
 EDEP.m                5124.01:  End Depth 
 ENG1.           Eldar Hajiyev:  Engineer 1 
 ENG2.        Marcelo Sandoval:  Engineer 2 
 ENG3.        Davud huseynzada:  Engineer 3 
 ENG4.          Ruslan Safarov:  Engineer 4 
 ETIM.      04.33.00 23-May-20:  End Time 
 FLOI.gpm               450.00:  Flow In 
 FLON.gpm               400.00:  Flow In Min 
 FLOS.cptm                0.00:  Fluid Loss 
 FLOX.gpm               500.00:  Flow In Max 
 FTRO.       Formation Presure:  FTWD Run Obj 
 HFLO.                      No:  High Flow 
 HPRE.                     Yes:  High Pressure 
 HTEM.                      No:  High Temp 
 HYDO.m                   1.80:  Hydro Offset 
 IFIN.deg                75.06:  Inc, Final 
 IMAX.deg                75.38:  Inc Max 
 IMIN.deg                74.69:  Inc Min 
 IMND.m                5027.38:  Inc Min Depth 
 IMXD.m                4771.61:  Inc Max Depth 
 JARR.                      No:  Jarring 
 LETM.      07.45.00 17-May-20:  Log End Time 
 LOST.hr                     0:  Lost Rig Time 
 LSTM.      22.50.00 15-May-20:  Log Start Time 
 MDCL.ppm             42000.00:  Mud Chlorides 
 MDES.     Inversion Oil/Synthetic:  Mud Desc 
 DFD .sg                  1.34:  Mud Density 
 MDMN.sg                  1.34:  Dens Mud Min 
 MDMX.sg                  1.34:  Dens Mud Max 
 MOIL.                       0:  Run Mud Oil % 
 MOWR.                   67:33:  Run Mud OWR 
 MSND.                       0:  Run Mud Sand % 
 MSOL.                     1.8:  Run Mud Solids% 
 DFV .spqt               76.00:  Mud Viscosity 
 MWOD.in                  6.75:  MWD Tool OD 
 MWSI.                      No:  Serv Intrp, MWD 
 OTIM.hr                228.19:  Time Operating 
 PCON.           Look Like New:  Pad Condition 
 PMAX.psia             6164.70:  Press Op, Max 
 PV  .cP                 28.00:  Mud PV 
 RUN .                     900:  Run Number 
 ROPA.m/hr               19.00:  ROP Avg 
 ROPN.m/hr               11.00:  ROP Min 
 ROPX.m/hr               36.00:  ROP Max 
 RPMA.rpm               120.00:  RPM Surface Avg 
 RPMN.rpm               120.00:  RPM Surface Min 
 RPMX.rpm               120.00:  RPM Surface Max 
 RRUN.                    L604:  Rig Run Number 
 RTIM.hr                  7.00:  Time Reaming 
 SAZI.deg               109.27:  Azm, Start 
 SDEP.m                4761.01:  Start Depth 
 SIDD.                      No:  Serv Intrp, DD 
 SINC.deg                75.38:  Inc, Start 
 SPPA.psig             3574.00:  SPP Avg 
 SPPN.psig             3475.00:  SPP Min 
 SPPX.psig             3791.00:  SPP Max 
 STIM.      07.08.48 13-May-20:  Start Time 
 SVCS.                 DD, MWD:  Services 
 SVER.                    9.20:  Sperry Version 
 TDAT.m                 363.00:  Tot Depth Attmp 
 TDDF.                      No:  Trip for DD 
 TDLG.m                 363.00:  Tot Depth Loggd 
 TFF .                      No:  Trip for Fail 
 TQAA.f-kp               20.00:  Torque Abs Avg 
 TQAN.f-kp               18.00:  Torque Abs Min 
 TQAX.f-kp               22.00:  Torque Abs Max 
 TRRT.°/30m              -0.35:  Turn Rotating 
 MRT .                    HCIM:  Maximum Recorded Temperature 
 TTMX.degC               92.16:  Max Tool Temp 
 VS01.                90586518:  Virtual Str1 SN 
 VS02.        AZ90560654Z1W1C6:  Virtual Str2 SN 
 VS03.           AZ90610398F11:  Virtual Str3 SN 
 VS04.                90514975:  Virtual Str4 SN 
 VS05.                90514972:  Virtual Str5 SN 
 VS06.     AZ90603282F11V7D1A6:  Virtual Str6 SN 
 WBMN.klb                 7.00:  WOB Min 
 WOBA.klb                12.00:  WOB Avg 
 WOBX.klb                14.00:  WOB Max 
 YP  .lhf2               32.00:  Yield Point 
~Curve Information Block
#MNEM.UNIT                 API CODE     Curve Description
#---------               -----------    ---------------------------
 TIME.HHMMSS            00 000 000 000:  GT Time & Date
 GTDEPTH.m              00 000 000 000:  GT Depth
 GTPQH.psia             00 000 000 000:  GT HR Quartz Pressure
 GTTQ.degC              00 000 000 000:  GT Quartz Temperature
 GTTN.NONE              00 000 000 000:  GT Test Number
 GTET.sec               00 000 000 000:  GT Elapsed Test Time
 GTTVD.m                00 000 000 000:  GT True Vertical Depth
#Other Information
#
#WARRANTY: Halliburton will use its best efforts to furnish customers with 
#accurate information and interpretations that are part of, and incident to, the services 
#provided.  However, Halliburton cannot and does not warrant the accuracy 
#or correctness of such information and interpretations.  Under no circumstances should any 
#such information or interpretation be relied upon as the sole basis for any drilling, 
#completion, production, or financial decision or any procedure involving any risk to the 
#safety of any drilling venture, drilling rig or its crew or any other third party.  The 
#Customer has full responsibility for all drilling, completion and production operation.  
#Halliburton makes no representations or warranties, either expressed or 
#implied, including, but not limited to, the implied warranties of merchantability or fitness 
#for a particular purpose, with respect to the services rendered.  In no event will 
#Halliburton be liable for failure to obtain any particular results or for 
#any damages, including, but not limited to, indirect, special or consequential damages, 
#resulting from the use of any information or interpretation provided by Halliburton.
#
~A           TIME           GTDEPTH  GTPQH  GTTQ  GTTN   GTET   GTTVD  
# ...
   12:19:51.024.20-May-2020 4766.51 5480.89 69.05 15.00 384.32 2532.42
   12:19:51.224.20-May-2020 4766.51 5479.94 69.05 15.00 384.52 2532.42
   12:19:51.424.20-May-2020 4766.51 5490.84 69.05 15.00 384.72 2532.42
   12:19:51.624.20-May-2020 4766.51 5482.23 69.05 15.00 384.92 2532.42
   12:19:51.824.20-May-2020 4766.51 5480.06 69.05 15.00 385.12 2532.42
   12:19:52.024.20-May-2020 4766.51 5480.06 69.05 15.00 385.32 2532.42
   12:19:52.224.20-May-2020 4766.51 5492.21 69.05 15.00 385.52 2532.42
   12:19:52.424.20-May-2020 4766.51 5484.57 69.05 15.00 385.72 2532.42
   12:19:52.624.20-May-2020 4766.51 5481.34 69.05 15.00 385.92 2532.42
   12:19:52.824.20-May-2020 4766.51 5480.26 69.05 15.00 386.12 2532.42
   12:19:53.024.20-May-2020 4766.51 5480.26 69.05 15.00 386.32 2532.42
   12:19:53.224.20-May-2020 4766.51 5488.41 69.05 15.00 386.52 2532.42
   12:19:53.424.20-May-2020 4766.51 5481.99 69.05 15.00 386.72 2532.42
   12:19:53.624.20-May-2020 4766.51 5480.34 69.05 15.00 386.92 2532.42
   12:19:53.825.20-May-2020 4766.51 5481.27 69.05 15.00 387.12 2532.42
   12:19:54.025.20-May-2020 4766.51 5497.35 69.05 15.00 387.32 2532.42
   12:19:54.225.20-May-2020 4766.51 5483.05 69.04 15.00 387.52 2532.42
   12:19:54.425.20-May-2020 4766.51 5481.26 69.04 15.00 387.72 2532.42
   12:19:54.625.20-May-2020 4766.51 5481.59 69.04 15.00 387.92 2532.42
   12:19:54.825.20-May-2020 4766.51 5483.35 69.04 15.00 388.12 2532.42
   12:19:55.025.20-May-2020 4766.51 5483.35 69.04 15.00 388.32 2532.42
   12:19:55.225.20-May-2020 4766.51 5481.19 69.04 15.00 388.52 2532.42
   12:19:55.425.20-May-2020 4766.51 5480.62 69.04 15.00 388.72 2532.42
   12:19:55.625.20-May-2020 4766.51 5480.74 69.04 15.00 388.92 2532.42
   12:19:55.825.20-May-2020 4766.51 5480.16 69.04 15.00 389.12 2532.42
   12:19:56.025.20-May-2020 4766.51 5480.16 69.04 15.00 389.32 2532.42
   12:19:56.225.20-May-2020 4766.51 5480.70 69.04 15.00 389.52 2532.42
   12:19:56.425.20-May-2020 4766.51 5479.96 69.04 15.00 389.72 2532.42
   12:19:56.625.20-May-2020 4766.51 5479.65 69.04 15.00 389.92 2532.42
   12:19:56.825.20-May-2020 4766.51 5480.15 69.04 15.00 390.12 2532.42
   12:19:57.026.20-May-2020 4766.51 5480.15 69.04 15.00 390.32 2532.42
   12:19:57.226.20-May-2020 4766.51 5480.22 69.04 15.00 390.52 2532.42
   12:19:57.426.20-May-2020 4766.51 5479.78 69.04 15.00 390.72 2532.42
   12:19:57.626.20-May-2020 4766.51 5480.26 69.04 15.00 390.93 2532.42
   12:19:57.826.20-May-2020 4766.51 5479.95 69.04 15.00 391.13 2532.42
   12:19:58.026.20-May-2020 4766.51 5479.27 69.04 15.00 391.33 2532.42
   12:19:58.226.20-May-2020 4766.51 5489.30 69.04 15.00 391.53 2532.42
   12:19:58.426.20-May-2020 4766.51 5482.48 69.04 15.00 391.73 2532.42
   12:19:58.626.20-May-2020 4766.51 5479.60 69.04 15.00 391.93 2532.42
   12:19:58.826.20-May-2020 4766.51 5479.31 69.04 15.00 392.13 2532.42
   12:19:59.026.20-May-2020 4766.51 5479.31 69.04 15.00 392.33 2532.42
   12:19:59.226.20-May-2020 4766.51 5484.49 69.04 15.00 392.53 2532.42
   12:19:59.426.20-May-2020 4766.51 5480.86 69.04 15.00 392.73 2532.42
   12:19:59.626.20-May-2020 4766.51 5479.85 69.04 15.00 392.93 2532.42
   12:19:59.826.20-May-2020 4766.51 5488.78 69.04 15.00 393.13 2532.42
   12:20:00.026.20-May-2020 4766.51 5488.78 69.04 15.00 393.33 2532.42
   12:20:00.227.20-May-2020 4766.51 5481.92 69.04 15.00 393.53 2532.42
   12:20:00.427.20-May-2020 4766.51 5480.35 69.04 15.00 393.73 2532.42
   12:20:00.627.20-May-2020 4766.51 5480.67 69.04 15.00 393.93 2532.42
   12:20:00.827.20-May-2020 4766.51 5497.21 69.04 15.00 394.13 2532.42
   12:20:01.027.20-May-2020 4766.51 5497.21 69.04 15.00 394.33 2532.42
   12:20:01.227.20-May-2020 4766.51 5481.21 69.04 15.00 394.53 2532.42
   12:20:01.427.20-May-2020 4766.51 5481.23 69.04 15.00 394.73 2532.42
   12:20:01.627.20-May-2020 4766.51 5482.14 69.03 15.00 394.93 2532.42
   12:20:01.827.20-May-2020 4766.51 5482.71 69.03 15.00 395.13 2532.42
   12:20:02.027.20-May-2020 4766.51 5480.64 69.03 15.00 395.33 2532.42
   12:20:02.227.20-May-2020 4766.51 5480.19 69.03 15.00 395.53 2532.42
   12:20:02.427.20-May-2020 4766.51 5480.44 69.03 15.00 395.73 2532.42
   12:20:02.627.20-May-2020 4766.51 5480.10 69.03 15.00 395.93 2532.42
   12:20:02.827.20-May-2020 4766.51 5491.67 69.03 15.00 396.13 2532.42
   12:20:03.027.20-May-2020 4766.51 5491.67 69.03 15.00 396.33 2532.42
   12:20:03.228.20-May-2020 4766.51 5479.91 69.03 15.00 396.53 2532.42
   12:20:03.428.20-May-2020 4766.51 5479.60 69.03 15.00 396.73 2532.42
   12:20:03.628.20-May-2020 4766.51 5479.83 69.03 15.00 396.93 2532.42
   12:20:03.828.20-May-2020 4766.51 5481.67 69.03 15.00 397.13 2532.42
   12:20:04.028.20-May-2020 4766.51 5481.67 69.03 15.00 397.33 2532.42
   12:20:04.228.20-May-2020 4766.51 5479.60 69.03 15.00 397.53 2532.42
   12:20:04.428.20-May-2020 4766.51 5480.27 69.03 15.00 397.73 2532.42
   12:20:04.628.20-May-2020 4766.51 5480.13 69.03 15.00 397.93 2532.42
   12:20:04.828.20-May-2020 4766.51 5479.50 69.03 15.00 398.13 2532.42
   12:20:05.028.20-May-2020 4766.51 5479.50 69.03 15.00 398.33 2532.42
   12:20:05.228.20-May-2020 4766.51 5484.08 69.03 15.00 398.53 2532.42
   12:20:05.428.20-May-2020 4766.51 5481.55 69.03 15.00 398.73 2532.42
   12:20:05.628.20-May-2020 4766.51 5480.82 69.03 15.00 398.93 2532.42
   12:20:05.828.20-May-2020 4766.51 5493.28 69.03 15.00 399.13 2532.42
   12:20:06.028.20-May-2020 4766.51 5485.29 69.03 15.00 399.33 2532.42
   12:20:06.228.20-May-2020 4766.51 5482.47 69.03 15.00 399.53 2532.42
   12:20:06.429.20-May-2020 4766.51 5481.41 69.03 15.00 399.73 2532.42
   12:20:06.629.20-May-2020 4766.51 5483.85 69.03 15.00 399.93 2532.42
   12:20:06.829.20-May-2020 4766.51 5496.84 69.03 15.00 400.13 2532.42
   12:20:07.029.20-May-2020 4766.51 5496.84 69.03 15.00 400.33 2532.42
   12:20:07.229.20-May-2020 4766.51 5483.35 69.03 15.00 400.53 2532.42
   12:20:07.429.20-May-2020 4766.51 5494.11 69.03 15.00 400.73 2532.42
   12:20:07.629.20-May-2020 4766.51 5485.22 69.03 15.00 400.93 2532.42
   12:20:07.829.20-May-2020 4766.51 5484.31 69.03 15.00 401.13 2532.42
   12:20:08.029.20-May-2020 4766.51 5484.31 69.03 15.00 401.33 2532.42
   12:20:08.229.20-May-2020 4766.51 5483.90 69.03 15.00 401.53 2532.42
   12:20:08.429.20-May-2020 4766.51 5484.10 69.03 15.00 401.73 2532.42
   12:20:08.629.20-May-2020 4766.51 5482.46 69.03 15.00 401.93 2532.42
   12:20:08.829.20-May-2020 4766.51 5480.96 69.03 15.00 402.13 2532.42
   12:20:09.029.20-May-2020 4766.51 5480.96 69.03 15.00 402.33 2532.42
   12:20:09.229.20-May-2020 4766.51 5481.97 69.02 15.00 402.53 2532.42
   12:20:09.430.20-May-2020 4766.51 5495.27 69.02 15.00 402.73 2532.42
   12:20:09.630.20-May-2020 4766.51 5482.41 69.02 15.00 402.93 2532.42
   12:20:09.830.20-May-2020 4766.51 5482.31 69.02 15.00 403.13 2532.42
   12:20:10.030.20-May-2020 4766.51 5482.31 69.02 15.00 403.33 2532.42
   12:20:10.230.20-May-2020 4766.51 5482.43 69.02 15.00 403.53 2532.42
   12:20:10.430.20-May-2020 4766.51 5483.04 69.02 15.00 403.73 2532.42
   12:20:10.630.20-May-2020 4766.51 5481.49 69.02 15.00 403.93 2532.42
   12:20:10.830.20-May-2020 4766.51 5480.93 69.02 15.00 404.13 2532.42
   12:20:11.030.20-May-2020 4766.51 5480.93 69.02 15.00 404.33 2532.42
   12:20:11.230.20-May-2020 4766.51 5481.56 69.02 15.00 404.53 2532.42
   12:20:11.430.20-May-2020 4766.51 5481.60 69.02 15.00 404.73 2532.42
   12:20:11.630.20-May-2020 4766.51 5492.65 69.02 15.00 404.93 2532.42
   12:20:11.830.20-May-2020 4766.51 5482.70 69.02 15.00 405.13 2532.42
   12:20:12.030.20-May-2020 4766.51 5482.70 69.02 15.00 405.33 2532.42
   12:20:12.230.20-May-2020 4766.51 5480.92 69.02 15.00 405.53 2532.42
   12:20:12.430.20-May-2020 4766.51 5493.88 69.02 15.00 405.73 2532.42
   12:20:12.631.20-May-2020 4766.51 5485.03 69.02 15.00 405.93 2532.42
   12:20:12.831.20-May-2020 4766.51 5482.15 69.02 15.00 406.13 2532.42
   12:20:13.031.20-May-2020 4766.51 5482.15 69.02 15.00 406.33 2532.42
   12:20:13.231.20-May-2020 4766.51 5492.62 69.02 15.00 406.53 2532.42
   12:20:13.431.20-May-2020 4766.51 5488.57 69.02 15.00 406.73 2532.42
