~Version Information
 VERS.                  2.0:   CWLS log ASCII Standard -VERSION 2.0
 WRAP.                   NO:   One line per depth step
~Well Information Block
#MNEM.UNIT     VALUE/NAME     DESCRIPTION
#---------     -----------    ---------------------------
 STRT.S             10:16:33 09-Sep-20: START TIME 10:16:33 09-Sep-20
 STOP.S             10:23:34 09-Sep-20: STOP TIME  10:23:34 09-Sep-20
 STEP.S                   0.00: STEP TIME
 NULL.                 -999.25: NULL VALUE
 MDS .        Operator Entered:  MAG DATA SOURCE
 PDAT.          Mean Sea Level:  PERMANENT DATUM
 DCON.         Sperry Drilling:  DIRECTNL CONTR
 RIG .              West Azeri:  RIG NAME
 WELL.           C40 (Slot 20):  WELL NAME
 SRVC.     Turan Drilling Engineering:  CONTRACTOR
 FLD .                     ACG:  FIELD NAME
 CTRY.              Azerbaijan:  COUNTRY NAME
 PROV.                    Baku:  PROVINCE
 STAT.                    Baku:  STATE NAME
 REGN.                   EESSA:  REGION
 BASE.              Azerbaijan:  LOGGING EQUIPMENT BASE LOCATION
 COMP.     BP Exploration (Caspian Sea) Ltd:  COMPANY
 WTYP.                Deviated:  WELL TYPE
 SON .        AZ-XX-0906344804:  JOB NUMBER
 FTOP.          Formation Tops:  FORM TOPS DESC
 ILTD.               Lithology:  INTERP LTH DESC
 SVYD.                  Survey:  SURVEY DESC
 DMOD.             Drill Model:  DRILL MOD DESC
 HPTY.       Minimum Curvature:  HOLE POS TYPE
 NREF.                    Grid:  NORTH REFERENCE
 SPUD.               01-Jan-20:  SPUD DATE
 DATE.      00.59.44 15-Sep-20:  END TIME
 STIM.      12.00.00 12-Jun-20:  START TIME
 DMF .             Drill Floor:  DRILL MEAS FROM
 DFST.                        :  DIST FSL TEXT
 DFWT.                        :  DIST FWL TEXT
 API .                        :  API NUMBER
 CNTY.                        :  COUNTY
 UWI .                        :  UNIQUE WELL IDENTIFIER
 LOC .                        :  LOCATION
 LMF .             Drill Floor:  LOG MEASURED FROM
 VSNS.m                   2.88:  VERT SEC N/S
 VSEW.m                  -3.84:  VERT SEC E/W
 AGAP.m                  43.42:  AIR GAP
 APD .m                  43.42:  DEPTH ABOVE PD
 WDMS.m                 118.27:  WD ELEV
 EGL .m                   0.00:  GROUND ELEVATION
 EPD .m                   0.00:  ELEVATION
 AZTC.deg                 6.23:  AZM TOTAL CORR
 GRDC.deg                 0.20:  GRID CORRECTION
 MDEC.deg                 6.43:  MAGNETIC DECL
 MDIP.deg                59.49:  MAGNETIC DIP
 MFLD.nT              50277.00:  MAGNETIC FIELD
 GVFD.g                   1.00:  GRAVITY FIELD
 VSDR.deg               173.20:  VERT SEC DIRECT
 TDD .m                5790.01:  TOTAL DEPTH (DRILLER)
 SDEP.m                5231.01:  START DEPTH
 DFSL.m                   0.00:  DISTANCE FSL
 DFWL.m                   0.00:  DISTANCE FWL
 UTMY.m             4435808.83:  UTM Y
 UTMX.m              526266.40:  UTM X
 WHEW.m                  -3.84:  WELL HEAD E/W
 WHNS.m                   2.88:  WELL HEAD N/S
 LONG.deg                51.31:  LONGITUDE
 LATI.deg                40.06:  LATITUDE
 TVDS.m                  43.42:  TVDSS CORRECTN
 DEP .m                 430.08:  DEPTH
 EKB .m                  43.42:  KB ELEVATION
 EDF .m                  43.42:  DF ELEVATION
 TDL .m                 559.00:  TOTAL DEPTH (LOGGER)
 MAGU.                 1849381:  MAGUTM CHECKSUM
 VSC .                       0:  VS TO CLOSURE
~Parameter Information Block
#MNEM.UNIT       Value        Description
#---------     -----------    ---------------------------
 AV  .mps                 4.87:  Ann Velocity 
 AVMX.mps                 7.08:  Max Ann Veloc 
 AZIF.deg               108.87:  Azm, Final 
 BHAT.                  Rotary:  BHA Type 
 BROT.°/30m               0.35:  Build Rotating 
 BS  .in                  8.50:  Bit Size 
 BSZ .in                  8.50:  Bit Size 
 BTPL.psig              360.00:  Bit Press Loss 
 CABU.                     Yes:  Customer Abuse 
 COMM.                     \Gp:  Run Comments 1 
 TCS .hr                106.24:  Time Ciculation Ended 
 CV  .mps                 1.77:  Crit Velocity 
 CVMX.mps                 2.03:  Max Crit Veloc 
 DD1 .         Aykhan Agagulov:  Direct Drillr 1 
 DD2 .            Nonso Okofor:  Direct Drillr 2 
 DDSV.               Geo-Pilot:  DD Service 
 DEFF.%                  98.00:  % Det Eff 
 DLRX.°/30m               0.50:  Dogleg Rot Max 
 DLSO.°/30m               0.40:  Dogleg Oriented 
 DLSX.°/30m               0.94:  Dogleg Str Max 
 DRET.      20.30.00 08-Sep-20:  Drill End Time 
 DRST.      22.15.00 06-Sep-20:  Drill Start Tim 
 DTIM.hr                 31.31:  Time Drilling 
 EDEP.m                5790.01:  End Depth 
 ENG1.           Amrah Tahirov:  Engineer 1 
 ENG2.         Dair Mahammadov:  Engineer 2 
 ENG3.           Emil Huseynov:  Engineer 3 
 ETIM.      04.01.04 12-Sep-20:  End Time 
 FLOI.gpm               450.00:  Flow In 
 FLON.gpm               450.00:  Flow In Min 
 FLOS.cptm                2.00:  Fluid Loss 
 FLOX.gpm               450.00:  Flow In Max 
 FTRO.       Formation Presure:  FTWD Run Obj 
 HFLO.                      No:  High Flow 
 HPRE.                      No:  High Pressure 
 HTEM.                      No:  High Temp 
 HYDO.m                   1.80:  Hydro Offset 
 IFIN.deg                72.03:  Inc, Final 
 IMAX.deg                73.72:  Inc Max 
 IMIN.deg                70.94:  Inc Min 
 IMND.m                5508.52:  Inc Min Depth 
 IMXD.m                5253.60:  Inc Max Depth 
 JARR.                      No:  Jarring 
 LETM.      20.30.00 08-Sep-20:  Log End Time 
 LOST.hr                     0:  Lost Rig Time 
 LSTM.      22.15.00 06-Sep-20:  Log Start Time 
 MDCL.ppm             36000.00:  Mud Chlorides 
 MDES.     Inversion Oil/Synthetic:  Mud Desc 
 DFD .sg                  1.44:  Mud Density 
 MDMN.sg                  1.44:  Dens Mud Min 
 MDMX.sg                  1.57:  Dens Mud Max 
 MOIL.                      70:  Run Mud Oil % 
 MOWR.                   70:30:  Run Mud OWR 
 MSND.                       0:  Run Mud Sand % 
 MSOL.                      21:  Run Mud Solids% 
 DFV .spqt               68.00:  Mud Viscosity 
 MWOD.in                  6.75:  MWD Tool OD 
 MWSI.                     Yes:  Serv Intrp, MWD 
 OTIM.hr                174.84:  Time Operating 
 PCON.           Look Like New:  Pad Condition 
 PMAX.psia            10616.93:  Press Op, Max 
 PV  .cP                 50.00:  Mud PV 
 RUN .                     700:  Run Number 
 ROPA.m/hr               14.24:  ROP Avg 
 ROPN.m/hr               10.00:  ROP Min 
 ROPX.m/hr               32.00:  ROP Max 
 RPMA.rpm               120.90:  RPM Surface Avg 
 RPMN.rpm               120.00:  RPM Surface Min 
 RPMX.rpm               140.00:  RPM Surface Max 
 RRUN.                    0700:  Rig Run Number 
 RTIM.hr                  3.20:  Time Reaming 
 SAZI.deg               109.99:  Azm, Start 
 SDEP.m                5231.01:  Start Depth 
 SIDD.                      No:  Serv Intrp, DD 
 SINC.deg                73.72:  Inc, Start 
 SPPA.psig             3051.00:  SPP Avg 
 SPPN.psig             2950.00:  SPP Min 
 SPPX.psig             3250.00:  SPP Max 
 STIM.      08.00.00 05-Sep-20:  Start Time 
 SVCS.                 DD, MWD:  Services 
 SVER.                    9.20:  Sperry Version 
 TDAT.m                 559.00:  Tot Depth Attmp 
 TDDF.                      No:  Trip for DD 
 TDLG.m                 559.00:  Tot Depth Loggd 
 TFF .                      No:  Trip for Fail 
 TQAA.f-kp               26.49:  Torque Abs Avg 
 TQAN.f-kp               25.00:  Torque Abs Min 
 TQAX.f-kp               27.00:  Torque Abs Max 
 TRRT.°/30m               1.50:  Turn Rotating 
 MRT .                    HCIM:  Maximum Recorded Temperature 
 TTMX.degC               90.20:  Max Tool Temp 
 VS01.                90542671:  Virtual Str1 SN 
 VS02.                90545185:  Virtual Str2 SN 
 VS03.                90602015:  Virtual Str3 SN 
 VS04.                90515230:  Virtual Str4 SN 
 WBMN.klb                 5.00:  WOB Min 
 WOBA.klb                14.79:  WOB Avg 
 WOBX.klb                20.00:  WOB Max 
 YP  .lhf2               29.00:  Yield Point 
~Curve Information Block
#MNEM.UNIT                 API CODE     Curve Description
#---------               -----------    ---------------------------
 TIME.HHMMSS            00 000 000 000:  GT Time & Date
 GTDEPTH.m              00 000 000 000:  GT Depth
 GTPQH.psia             00 000 000 000:  GT HR Quartz Pressure
 GTTQ.degC              00 000 000 000:  GT Quartz Temperature
 GTTN.NONE              00 000 000 000:  GT Test Number
 GTET.sec               00 000 000 000:  GT Elapsed Test Time
 GTTVD.m                00 000 000 000:  GT True Vertical Depth
#Other Information
#
#WARRANTY: Halliburton will use its best efforts to furnish customers with 
#accurate information and interpretations that are part of, and incident to, the services 
#provided.  However, Halliburton cannot and does not warrant the accuracy 
#or correctness of such information and interpretations.  Under no circumstances should any 
#such information or interpretation be relied upon as the sole basis for any drilling, 
#completion, production, or financial decision or any procedure involving any risk to the 
#safety of any drilling venture, drilling rig or its crew or any other third party.  The 
#Customer has full responsibility for all drilling, completion and production operation.  
#Halliburton makes no representations or warranties, either expressed or 
#implied, including, but not limited to, the implied warranties of merchantability or fitness 
#for a particular purpose, with respect to the services rendered.  In no event will 
#Halliburton be liable for failure to obtain any particular results or for 
#any damages, including, but not limited to, indirect, special or consequential damages, 
#resulting from the use of any information or interpretation provided by Halliburton.
#
~A           TIME           GTDEPTH  GTPQH  GTTQ  GTTN  GTET   GTTVD  
# ...
   10:19:14.000.09-Sep-2020 5468.01 3483.62 76.56 9.00 161.00 2608.52
   10:19:14.200.09-Sep-2020 5468.01 3544.81 76.56 9.00 161.20 2608.52
   10:19:14.400.09-Sep-2020 5468.01 3581.54 76.56 9.00 161.40 2608.52
   10:19:14.600.09-Sep-2020 5468.01 3581.71 76.56 9.00 161.60 2608.52
   10:19:14.800.09-Sep-2020 5468.01 3582.10 76.56 9.00 161.80 2608.52
   10:19:15.000.09-Sep-2020 5468.01 3581.85 76.56 9.00 162.00 2608.52
   10:19:15.200.09-Sep-2020 5468.01 3581.85 76.56 9.00 162.20 2608.52
   10:19:15.400.09-Sep-2020 5468.01 3581.92 76.56 9.00 162.40 2608.52
   10:19:15.600.09-Sep-2020 5468.01 3581.97 76.56 9.00 162.60 2608.52
   10:19:15.800.09-Sep-2020 5468.01 3582.00 76.56 9.00 162.80 2608.52
   10:19:16.000.09-Sep-2020 5468.01 3582.03 76.56 9.00 163.00 2608.52
   10:19:16.200.09-Sep-2020 5468.01 3582.03 76.56 9.00 163.20 2608.52
   10:19:16.400.09-Sep-2020 5468.01 3582.07 76.56 9.00 163.40 2608.52
   10:19:16.600.09-Sep-2020 5468.01 3582.11 76.56 9.00 163.60 2608.52
   10:19:16.800.09-Sep-2020 5468.01 3582.12 76.56 9.00 163.80 2608.52
   10:19:17.000.09-Sep-2020 5468.01 3582.14 76.56 9.00 164.00 2608.52
   10:19:17.200.09-Sep-2020 5468.01 3582.14 76.56 9.00 164.20 2608.52
   10:19:17.400.09-Sep-2020 5468.01 3582.16 76.56 9.00 164.40 2608.52
   10:19:17.600.09-Sep-2020 5468.01 3582.17 76.56 9.00 164.60 2608.52
   10:19:17.800.09-Sep-2020 5468.01 3582.18 76.56 9.00 164.80 2608.52
   10:19:18.000.09-Sep-2020 5468.01 3582.19 76.56 9.00 165.00 2608.52
   10:19:18.200.09-Sep-2020 5468.01 3582.19 76.56 9.00 165.20 2608.52
   10:19:18.400.09-Sep-2020 5468.01 3582.34 76.56 9.00 165.40 2608.52
   10:19:18.600.09-Sep-2020 5468.01 3582.05 76.56 9.00 165.60 2608.52
   10:19:18.800.09-Sep-2020 5468.01 3582.21 76.56 9.00 165.80 2608.52
   10:19:19.000.09-Sep-2020 5468.01 3582.23 76.56 9.00 166.00 2608.52
   10:19:19.200.09-Sep-2020 5468.01 3582.23 76.56 9.00 166.20 2608.52
   10:19:19.400.09-Sep-2020 5468.01 3582.16 76.56 9.00 166.40 2608.52
   10:19:19.600.09-Sep-2020 5468.01 3582.23 76.56 9.00 166.60 2608.52
   10:19:19.800.09-Sep-2020 5468.01 3582.23 76.56 9.00 166.80 2608.52
   10:19:20.000.09-Sep-2020 5468.01 3582.24 76.56 9.00 167.00 2608.52
   10:19:20.200.09-Sep-2020 5468.01 3582.24 76.56 9.00 167.20 2608.52
   10:19:20.400.09-Sep-2020 5468.01 3582.22 76.56 9.00 167.40 2608.52
   10:19:20.600.09-Sep-2020 5468.01 3582.24 76.56 9.00 167.60 2608.52
   10:19:20.800.09-Sep-2020 5468.01 3582.24 76.56 9.00 167.80 2608.52
   10:19:21.000.09-Sep-2020 5468.01 3582.25 76.56 9.00 168.00 2608.52
   10:19:21.200.09-Sep-2020 5468.01 3582.25 76.56 9.00 168.20 2608.52
   10:19:21.400.09-Sep-2020 5468.01 3582.25 76.56 9.00 168.40 2608.52
   10:19:21.600.09-Sep-2020 5468.01 3582.25 76.56 9.00 168.60 2608.52
   10:19:21.800.09-Sep-2020 5468.01 3582.20 76.56 9.00 168.80 2608.52
   10:19:22.000.09-Sep-2020 5468.01 3582.28 76.56 9.00 169.00 2608.52
   10:19:22.200.09-Sep-2020 5468.01 3582.24 76.56 9.00 169.20 2608.52
   10:19:22.400.09-Sep-2020 5468.01 3582.28 76.56 9.00 169.40 2608.52
   10:19:22.600.09-Sep-2020 5468.01 3582.29 76.56 9.00 169.60 2608.52
   10:19:22.800.09-Sep-2020 5468.01 3581.94 76.56 9.00 169.80 2608.52
   10:19:23.000.09-Sep-2020 5468.01 3582.53 76.56 9.00 170.00 2608.52
   10:19:23.200.09-Sep-2020 5468.01 3582.53 76.56 9.00 170.20 2608.52
   10:19:23.400.09-Sep-2020 5468.01 3582.24 76.56 9.00 170.40 2608.52
   10:19:23.600.09-Sep-2020 5468.01 3582.25 76.56 9.00 170.60 2608.52
   10:19:23.800.09-Sep-2020 5468.01 3582.27 76.56 9.00 170.80 2608.52
   10:19:24.000.09-Sep-2020 5468.01 3582.27 76.56 9.00 171.00 2608.52
   10:19:24.200.09-Sep-2020 5468.01 3582.27 76.56 9.00 171.20 2608.52
   10:19:24.400.09-Sep-2020 5468.01 3582.37 76.56 9.00 171.40 2608.52
   10:19:24.600.09-Sep-2020 5468.01 3582.24 76.56 9.00 171.60 2608.52
   10:19:24.800.09-Sep-2020 5468.01 3582.29 76.56 9.00 171.80 2608.52
   10:19:25.000.09-Sep-2020 5468.01 3582.22 76.56 9.00 172.00 2608.52
   10:19:25.200.09-Sep-2020 5468.01 3582.22 76.56 9.00 172.20 2608.52
   10:19:25.400.09-Sep-2020 5468.01 3582.53 76.56 9.00 172.40 2608.52
   10:19:25.600.09-Sep-2020 5468.01 3582.27 76.56 9.00 172.60 2608.52
   10:19:25.800.09-Sep-2020 5468.01 3582.28 76.56 9.00 172.80 2608.52
   10:19:26.000.09-Sep-2020 5468.01 3582.25 76.56 9.00 173.00 2608.52
   10:19:26.200.09-Sep-2020 5468.01 3582.28 76.56 9.00 173.20 2608.52
   10:19:26.400.09-Sep-2020 5468.01 3582.28 76.56 9.00 173.40 2608.52
   10:19:26.600.09-Sep-2020 5468.01 3582.43 76.56 9.00 173.60 2608.52
   10:19:26.800.09-Sep-2020 5468.01 3582.11 76.56 9.00 173.80 2608.52
   10:19:27.000.09-Sep-2020 5468.01 3582.26 76.56 9.00 174.00 2608.52
   10:19:27.200.09-Sep-2020 5468.01 3582.26 76.56 9.00 174.20 2608.52
   10:19:27.400.09-Sep-2020 5468.01 3582.33 76.56 9.00 174.40 2608.52
   10:19:27.600.09-Sep-2020 5468.01 3582.23 76.56 9.00 174.60 2608.52
   10:19:27.800.09-Sep-2020 5468.01 3582.28 76.56 9.00 174.80 2608.52
   10:19:28.000.09-Sep-2020 5468.01 3582.27 76.56 9.00 175.00 2608.52
   10:19:28.200.09-Sep-2020 5468.01 3582.27 76.56 9.00 175.20 2608.52
   10:19:28.400.09-Sep-2020 5468.01 3582.28 76.56 9.00 175.40 2608.52
   10:19:28.600.09-Sep-2020 5468.01 3582.27 76.56 9.00 175.60 2608.52
   10:19:28.800.09-Sep-2020 5468.01 3582.28 76.56 9.00 175.80 2608.52
   10:19:29.000.09-Sep-2020 5468.01 3582.28 76.56 9.00 176.00 2608.52
   10:19:29.200.09-Sep-2020 5468.01 3582.28 76.56 9.00 176.20 2608.52
   10:19:29.400.09-Sep-2020 5468.01 3582.28 76.56 9.00 176.40 2608.52
   10:19:29.600.09-Sep-2020 5468.01 3582.28 76.56 9.00 176.60 2608.52
   10:19:29.800.09-Sep-2020 5468.01 3582.28 76.56 9.00 176.80 2608.52
   10:19:30.000.09-Sep-2020 5468.01 3582.29 76.56 9.00 177.00 2608.52
   10:19:30.200.09-Sep-2020 5468.01 3582.01 76.56 9.00 177.20 2608.52
   10:19:30.400.09-Sep-2020 5468.01 3582.54 76.56 9.00 177.40 2608.52
   10:19:30.600.09-Sep-2020 5468.01 3582.28 76.56 9.00 177.60 2608.52
   10:19:30.800.09-Sep-2020 5468.01 3582.27 76.56 9.00 177.80 2608.52
   10:19:31.000.09-Sep-2020 5468.01 3582.27 76.56 9.00 178.00 2608.52
   10:19:31.200.09-Sep-2020 5468.01 3582.27 76.56 9.00 178.20 2608.52
   10:19:31.400.09-Sep-2020 5468.01 3582.28 76.56 9.00 178.40 2608.52
   10:19:31.600.09-Sep-2020 5468.01 3582.28 76.56 9.00 178.60 2608.52
   10:19:31.800.09-Sep-2020 5468.01 3582.28 76.56 9.00 178.80 2608.52
   10:19:32.000.09-Sep-2020 5468.01 3582.25 76.56 9.00 179.00 2608.52
   10:19:32.200.09-Sep-2020 5468.01 3582.25 76.56 9.00 179.20 2608.52
   10:19:32.400.09-Sep-2020 5468.01 3582.29 76.56 9.00 179.40 2608.52
   10:19:32.600.09-Sep-2020 5468.01 3582.28 76.56 9.00 179.60 2608.52
   10:19:32.800.09-Sep-2020 5468.01 3582.29 76.56 9.00 179.80 2608.52
   10:19:33.000.09-Sep-2020 5468.01 3582.27 76.56 9.00 180.00 2608.52
   10:19:33.200.09-Sep-2020 5468.01 3582.27 76.56 9.00 180.20 2608.52
   10:19:33.400.09-Sep-2020 5468.01 3582.27 76.56 9.00 180.40 2608.52
   10:19:33.600.09-Sep-2020 5468.01 3582.16 76.56 9.00 180.60 2608.52
   10:19:33.800.09-Sep-2020 5468.01 3582.39 76.56 9.00 180.80 2608.52
   10:19:34.000.09-Sep-2020 5468.01 3582.27 76.56 9.00 181.00 2608.52
   10:19:34.200.09-Sep-2020 5468.01 3582.30 76.56 9.00 181.20 2608.52
   10:19:34.400.09-Sep-2020 5468.01 3582.23 76.56 9.00 181.40 2608.52
   10:19:34.600.09-Sep-2020 5468.01 3582.30 76.56 9.00 181.60 2608.52
   10:19:34.800.09-Sep-2020 5468.01 3582.44 76.56 9.00 181.80 2608.52
   10:19:35.000.09-Sep-2020 5468.01 3582.12 76.56 9.00 182.00 2608.52
   10:19:35.200.09-Sep-2020 5468.01 3582.12 76.56 9.00 182.20 2608.52
   10:19:35.400.09-Sep-2020 5468.01 3582.28 76.56 9.00 182.40 2608.52
   10:19:35.600.09-Sep-2020 5468.01 3582.32 76.56 9.00 182.60 2608.52
   10:19:35.800.09-Sep-2020 5468.01 3582.23 76.56 9.00 182.80 2608.52
   10:19:36.000.09-Sep-2020 5468.01 3582.28 76.56 9.00 183.00 2608.52
   10:19:36.200.09-Sep-2020 5468.01 3582.28 76.56 9.00 183.20 2608.52
   10:19:36.400.09-Sep-2020 5468.01 3582.25 76.56 9.00 183.40 2608.52
   10:19:36.600.09-Sep-2020 5468.01 3582.30 76.56 9.00 183.60 2608.52
   10:19:36.800.09-Sep-2020 5468.01 3582.26 76.56 9.00 183.80 2608.52
