~Version Information
 VERS.                  2.0:   CWLS log ASCII Standard -VERSION 2.0
 WRAP.                   NO:   One line per depth step
~Well Information Block
#MNEM.UNIT     VALUE/NAME     DESCRIPTION
#---------     -----------    ---------------------------
 STRT.S             16:28:49 09-Sep-20: START TIME 16:28:49 09-Sep-20
 STOP.S             16:37:06 09-Sep-20: STOP TIME  16:37:06 09-Sep-20
 STEP.S                   0.00: STEP TIME
 NULL.                 -999.25: NULL VALUE
 MDS .        Operator Entered:  MAG DATA SOURCE
 PDAT.          Mean Sea Level:  PERMANENT DATUM
 DCON.         Sperry Drilling:  DIRECTNL CONTR
 RIG .              West Azeri:  RIG NAME
 WELL.           C40 (Slot 20):  WELL NAME
 SRVC.     Turan Drilling Engineering:  CONTRACTOR
 FLD .                     ACG:  FIELD NAME
 CTRY.              Azerbaijan:  COUNTRY NAME
 PROV.                    Baku:  PROVINCE
 STAT.                    Baku:  STATE NAME
 REGN.                   EESSA:  REGION
 BASE.              Azerbaijan:  LOGGING EQUIPMENT BASE LOCATION
 COMP.     BP Exploration (Caspian Sea) Ltd:  COMPANY
 WTYP.                Deviated:  WELL TYPE
 SON .        AZ-XX-0906344804:  JOB NUMBER
 FTOP.          Formation Tops:  FORM TOPS DESC
 ILTD.               Lithology:  INTERP LTH DESC
 SVYD.                  Survey:  SURVEY DESC
 DMOD.             Drill Model:  DRILL MOD DESC
 HPTY.       Minimum Curvature:  HOLE POS TYPE
 NREF.                    Grid:  NORTH REFERENCE
 SPUD.               01-Jan-20:  SPUD DATE
 DATE.      00.59.44 15-Sep-20:  END TIME
 STIM.      12.00.00 12-Jun-20:  START TIME
 DMF .             Drill Floor:  DRILL MEAS FROM
 DFST.                        :  DIST FSL TEXT
 DFWT.                        :  DIST FWL TEXT
 API .                        :  API NUMBER
 CNTY.                        :  COUNTY
 UWI .                        :  UNIQUE WELL IDENTIFIER
 LOC .                        :  LOCATION
 LMF .             Drill Floor:  LOG MEASURED FROM
 VSNS.m                   2.88:  VERT SEC N/S
 VSEW.m                  -3.84:  VERT SEC E/W
 AGAP.m                  43.42:  AIR GAP
 APD .m                  43.42:  DEPTH ABOVE PD
 WDMS.m                 118.27:  WD ELEV
 EGL .m                   0.00:  GROUND ELEVATION
 EPD .m                   0.00:  ELEVATION
 AZTC.deg                 6.23:  AZM TOTAL CORR
 GRDC.deg                 0.20:  GRID CORRECTION
 MDEC.deg                 6.43:  MAGNETIC DECL
 MDIP.deg                59.49:  MAGNETIC DIP
 MFLD.nT              50277.00:  MAGNETIC FIELD
 GVFD.g                   1.00:  GRAVITY FIELD
 VSDR.deg               173.20:  VERT SEC DIRECT
 TDD .m                5790.01:  TOTAL DEPTH (DRILLER)
 SDEP.m                5231.01:  START DEPTH
 DFSL.m                   0.00:  DISTANCE FSL
 DFWL.m                   0.00:  DISTANCE FWL
 UTMY.m             4435808.83:  UTM Y
 UTMX.m              526266.40:  UTM X
 WHEW.m                  -3.84:  WELL HEAD E/W
 WHNS.m                   2.88:  WELL HEAD N/S
 LONG.deg                51.31:  LONGITUDE
 LATI.deg                40.06:  LATITUDE
 TVDS.m                  43.42:  TVDSS CORRECTN
 DEP .m                 430.08:  DEPTH
 EKB .m                  43.42:  KB ELEVATION
 EDF .m                  43.42:  DF ELEVATION
 TDL .m                 559.00:  TOTAL DEPTH (LOGGER)
 MAGU.                 1849381:  MAGUTM CHECKSUM
 VSC .                       0:  VS TO CLOSURE
~Parameter Information Block
#MNEM.UNIT       Value        Description
#---------     -----------    ---------------------------
 AV  .mps                 4.87:  Ann Velocity 
 AVMX.mps                 7.08:  Max Ann Veloc 
 AZIF.deg               108.87:  Azm, Final 
 BHAT.                  Rotary:  BHA Type 
 BROT.°/30m               0.35:  Build Rotating 
 BS  .in                  8.50:  Bit Size 
 BSZ .in                  8.50:  Bit Size 
 BTPL.psig              360.00:  Bit Press Loss 
 CABU.                     Yes:  Customer Abuse 
 TCS .hr                106.24:  Time Ciculation Ended 
 CV  .mps                 1.77:  Crit Velocity 
 CVMX.mps                 2.03:  Max Crit Veloc 
 DD1 .         Aykhan Agagulov:  Direct Drillr 1 
 DD2 .            Nonso Okofor:  Direct Drillr 2 
 DDSV.               Geo-Pilot:  DD Service 
 DEFF.%                  98.00:  % Det Eff 
 DLRX.°/30m               0.50:  Dogleg Rot Max 
 DLSO.°/30m               0.40:  Dogleg Oriented 
 DLSX.°/30m               0.94:  Dogleg Str Max 
 DRET.      20.30.00 08-Sep-20:  Drill End Time 
 DRST.      22.15.00 06-Sep-20:  Drill Start Tim 
 DTIM.hr                 31.31:  Time Drilling 
 EDEP.m                5790.01:  End Depth 
 ENG1.           Amrah Tahirov:  Engineer 1 
 ENG2.         Dair Mahammadov:  Engineer 2 
 ENG3.           Emil Huseynov:  Engineer 3 
 ETIM.      04.01.04 12-Sep-20:  End Time 
 FLOI.gpm               450.00:  Flow In 
 FLON.gpm               450.00:  Flow In Min 
 FLOS.cptm                2.00:  Fluid Loss 
 FLOX.gpm               450.00:  Flow In Max 
 FTRO.       Formation Presure:  FTWD Run Obj 
 HFLO.                      No:  High Flow 
 HPRE.                      No:  High Pressure 
 HTEM.                      No:  High Temp 
 HYDO.m                   1.80:  Hydro Offset 
 IFIN.deg                72.03:  Inc, Final 
 IMAX.deg                73.72:  Inc Max 
 IMIN.deg                70.94:  Inc Min 
 IMND.m                5508.52:  Inc Min Depth 
 IMXD.m                5253.60:  Inc Max Depth 
 JARR.                      No:  Jarring 
 LETM.      20.30.00 08-Sep-20:  Log End Time 
 LOST.hr                     0:  Lost Rig Time 
 LSTM.      22.15.00 06-Sep-20:  Log Start Time 
 MDCL.ppm             36000.00:  Mud Chlorides 
 MDES.     Inversion Oil/Synthetic:  Mud Desc 
 DFD .sg                  1.44:  Mud Density 
 MDMN.sg                  1.44:  Dens Mud Min 
 MDMX.sg                  1.57:  Dens Mud Max 
 MOIL.                      70:  Run Mud Oil % 
 MOWR.                   70:30:  Run Mud OWR 
 MSND.                       0:  Run Mud Sand % 
 MSOL.                      21:  Run Mud Solids% 
 DFV .spqt               68.00:  Mud Viscosity 
 MWOD.in                  6.75:  MWD Tool OD 
 MWSI.                     Yes:  Serv Intrp, MWD 
 OTIM.hr                174.84:  Time Operating 
 PCON.           Look Like New:  Pad Condition 
 PMAX.psia            10616.93:  Press Op, Max 
 PV  .cP                 50.00:  Mud PV 
 RUN .                     700:  Run Number 
 ROPA.m/hr               14.24:  ROP Avg 
 ROPN.m/hr               10.00:  ROP Min 
 ROPX.m/hr               32.00:  ROP Max 
 RPMA.rpm               120.90:  RPM Surface Avg 
 RPMN.rpm               120.00:  RPM Surface Min 
 RPMX.rpm               140.00:  RPM Surface Max 
 RRUN.                    0700:  Rig Run Number 
 RTIM.hr                  3.20:  Time Reaming 
 SAZI.deg               109.99:  Azm, Start 
 SDEP.m                5231.01:  Start Depth 
 SIDD.                      No:  Serv Intrp, DD 
 SINC.deg                73.72:  Inc, Start 
 SPPA.psig             3051.00:  SPP Avg 
 SPPN.psig             2950.00:  SPP Min 
 SPPX.psig             3250.00:  SPP Max 
 STIM.      08.00.00 05-Sep-20:  Start Time 
 SVCS.                 DD, MWD:  Services 
 SVER.                    9.20:  Sperry Version 
 TDAT.m                 559.00:  Tot Depth Attmp 
 TDDF.                      No:  Trip for DD 
 TDLG.m                 559.00:  Tot Depth Loggd 
 TFF .                      No:  Trip for Fail 
 TQAA.f-kp               26.49:  Torque Abs Avg 
 TQAN.f-kp               25.00:  Torque Abs Min 
 TQAX.f-kp               27.00:  Torque Abs Max 
 TRRT.°/30m               1.50:  Turn Rotating 
 MRT .                    HCIM:  Maximum Recorded Temperature 
 TTMX.degC               90.20:  Max Tool Temp 
 VS01.                90542671:  Virtual Str1 SN 
 VS02.                90545185:  Virtual Str2 SN 
 VS03.                90602015:  Virtual Str3 SN 
 VS04.                90515230:  Virtual Str4 SN 
 WBMN.klb                 5.00:  WOB Min 
 WOBA.klb                14.79:  WOB Avg 
 WOBX.klb                20.00:  WOB Max 
 YP  .lhf2               29.00:  Yield Point 
~Curve Information Block
#MNEM.UNIT                 API CODE     Curve Description
#---------               -----------    ---------------------------
 TIME.HHMMSS            00 000 000 000:  GT Time & Date
 GTDEPTH.m              00 000 000 000:  GT Depth
 GTPQH.psia             00 000 000 000:  GT HR Quartz Pressure
 GTTQ.degC              00 000 000 000:  GT Quartz Temperature
 GTTN.NONE              00 000 000 000:  GT Test Number
 GTET.sec               00 000 000 000:  GT Elapsed Test Time
 GTTVD.m                00 000 000 000:  GT True Vertical Depth
#Other Information
#
#WARRANTY: Halliburton will use its best efforts to furnish customers with 
#accurate information and interpretations that are part of, and incident to, the services 
#provided.  However, Halliburton cannot and does not warrant the accuracy 
#or correctness of such information and interpretations.  Under no circumstances should any 
#such information or interpretation be relied upon as the sole basis for any drilling, 
#completion, production, or financial decision or any procedure involving any risk to the 
#safety of any drilling venture, drilling rig or its crew or any other third party.  The 
#Customer has full responsibility for all drilling, completion and production operation.  
#Halliburton makes no representations or warranties, either expressed or 
#implied, including, but not limited to, the implied warranties of merchantability or fitness 
#for a particular purpose, with respect to the services rendered.  In no event will 
#Halliburton be liable for failure to obtain any particular results or for 
#any damages, including, but not limited to, indirect, special or consequential damages, 
#resulting from the use of any information or interpretation provided by Halliburton.
#
~A           TIME           GTDEPTH  GTPQH  GTTQ  GTTN   GTET   GTTVD  
# ...
   16:36:44.295.09-Sep-2020 5323.01 6350.78 74.97 18.00 474.83 2563.11
   16:36:44.496.09-Sep-2020 5323.01 6350.37 74.97 18.00 475.03 2563.11
   16:36:44.696.09-Sep-2020 5323.01 6351.66 74.97 18.00 475.23 2563.11
   16:36:44.896.09-Sep-2020 5323.01 6351.66 74.97 18.00 475.43 2563.11
   16:36:45.096.09-Sep-2020 5323.01 6363.18 74.97 18.00 475.63 2563.11
   16:36:45.296.09-Sep-2020 5323.01 6347.75 74.97 18.00 475.83 2563.11
   16:36:45.496.09-Sep-2020 5323.01 6350.31 74.97 18.00 476.03 2563.11
   16:36:45.696.09-Sep-2020 5323.01 6351.22 74.97 18.00 476.23 2563.11
   16:36:45.896.09-Sep-2020 5323.01 6351.22 74.97 18.00 476.43 2563.11
   16:36:46.096.09-Sep-2020 5323.01 6352.87 74.97 18.00 476.63 2563.11
   16:36:46.296.09-Sep-2020 5323.01 6352.18 74.96 18.00 476.83 2563.11
   16:36:46.497.09-Sep-2020 5323.01 6358.91 74.96 18.00 477.03 2563.11
   16:36:46.697.09-Sep-2020 5323.01 6352.72 74.96 18.00 477.23 2563.11
   16:36:46.897.09-Sep-2020 5323.01 6352.72 74.96 18.00 477.43 2563.11
   16:36:47.097.09-Sep-2020 5323.01 6352.17 74.96 18.00 477.63 2563.11
   16:36:47.297.09-Sep-2020 5323.01 6364.79 74.96 18.00 477.83 2563.11
   16:36:47.497.09-Sep-2020 5323.01 6350.51 74.96 18.00 478.03 2563.11
   16:36:47.697.09-Sep-2020 5323.01 6352.54 74.96 18.00 478.23 2563.11
   16:36:47.897.09-Sep-2020 5323.01 6352.54 74.96 18.00 478.43 2563.11
   16:36:48.097.09-Sep-2020 5323.01 6351.96 74.96 18.00 478.63 2563.11
   16:36:48.297.09-Sep-2020 5323.01 6354.69 74.96 18.00 478.83 2563.11
   16:36:48.498.09-Sep-2020 5323.01 6353.42 74.96 18.00 479.03 2563.11
   16:36:48.698.09-Sep-2020 5323.01 6352.85 74.96 18.00 479.23 2563.11
   16:36:48.898.09-Sep-2020 5323.01 6352.85 74.96 18.00 479.43 2563.11
   16:36:49.098.09-Sep-2020 5323.01 6352.08 74.96 18.00 479.63 2563.11
   16:36:49.298.09-Sep-2020 5323.01 6352.22 74.96 18.00 479.83 2563.11
   16:36:49.498.09-Sep-2020 5323.01 6351.57 74.96 18.00 480.03 2563.11
   16:36:49.698.09-Sep-2020 5323.01 6351.49 74.96 18.00 480.23 2563.11
   16:36:49.898.09-Sep-2020 5323.01 6351.49 74.96 18.00 480.43 2563.11
   16:36:50.098.09-Sep-2020 5323.01 6351.48 74.96 18.00 480.63 2563.11
   16:36:50.298.09-Sep-2020 5323.01 6351.34 74.96 18.00 480.83 2563.11
   16:36:50.498.09-Sep-2020 5323.01 6351.52 74.96 18.00 481.03 2563.11
   16:36:50.699.09-Sep-2020 5323.01 6351.44 74.96 18.00 481.23 2563.11
   16:36:50.899.09-Sep-2020 5323.01 6351.61 74.96 18.00 481.43 2563.11
   16:36:51.099.09-Sep-2020 5323.01 6358.78 74.96 18.00 481.63 2563.11
   16:36:51.299.09-Sep-2020 5323.01 6352.83 74.96 18.00 481.83 2563.11
   16:36:51.499.09-Sep-2020 5323.01 6350.75 74.96 18.00 482.03 2563.11
   16:36:51.699.09-Sep-2020 5323.01 6351.07 74.96 18.00 482.23 2563.11
   16:36:51.899.09-Sep-2020 5323.01 6351.07 74.96 18.00 482.43 2563.11
   16:36:52.099.09-Sep-2020 5323.01 6352.77 74.96 18.00 482.63 2563.11
   16:36:52.299.09-Sep-2020 5323.01 6351.71 74.96 18.00 482.83 2563.11
   16:36:52.499.09-Sep-2020 5323.01 6350.33 74.96 18.00 483.03 2563.11
   16:36:52.700.09-Sep-2020 5323.01 6349.60 74.96 18.00 483.23 2563.11
   16:36:52.900.09-Sep-2020 5323.01 6349.60 74.96 18.00 483.43 2563.11
   16:36:53.100.09-Sep-2020 5323.01 6350.24 74.96 18.00 483.63 2563.11
   16:36:53.300.09-Sep-2020 5323.01 6350.06 74.96 18.00 483.83 2563.11
   16:36:53.500.09-Sep-2020 5323.01 6350.13 74.96 18.00 484.03 2563.11
   16:36:53.700.09-Sep-2020 5323.01 6349.84 74.96 18.00 484.23 2563.11
   16:36:53.900.09-Sep-2020 5323.01 6349.84 74.96 18.00 484.43 2563.11
   16:36:54.100.09-Sep-2020 5323.01 6349.07 74.96 18.00 484.63 2563.11
   16:36:54.300.09-Sep-2020 5323.01 6349.20 74.96 18.00 484.83 2563.11
   16:36:54.500.09-Sep-2020 5323.01 6356.46 74.96 18.00 485.03 2563.11
   16:36:54.700.09-Sep-2020 5323.01 6350.99 74.96 18.00 485.23 2563.11
   16:36:54.901.09-Sep-2020 5323.01 6350.99 74.96 18.00 485.43 2563.11
   16:36:55.101.09-Sep-2020 5323.01 6349.10 74.96 18.00 485.63 2563.11
   16:36:55.301.09-Sep-2020 5323.01 6349.60 74.96 18.00 485.83 2563.11
   16:36:55.501.09-Sep-2020 5323.01 6356.56 74.96 18.00 486.03 2563.11
   16:36:55.701.09-Sep-2020 5323.01 6352.27 74.96 18.00 486.23 2563.11
   16:36:55.901.09-Sep-2020 5323.01 6352.27 74.96 18.00 486.43 2563.11
   16:36:56.101.09-Sep-2020 5323.01 6350.14 74.96 18.00 486.63 2563.11
   16:36:56.301.09-Sep-2020 5323.01 6350.21 74.96 18.00 486.83 2563.11
   16:36:56.501.09-Sep-2020 5323.01 6350.68 74.96 18.00 487.03 2563.11
   16:36:56.701.09-Sep-2020 5323.01 6350.63 74.96 18.00 487.23 2563.11
   16:36:56.902.09-Sep-2020 5323.01 6350.63 74.96 18.00 487.43 2563.11
   16:36:57.102.09-Sep-2020 5323.01 6347.00 74.95 18.00 487.63 2563.11
   16:36:57.302.09-Sep-2020 5323.01 6349.73 74.95 18.00 487.83 2563.11
   16:36:57.502.09-Sep-2020 5323.01 6350.70 74.95 18.00 488.03 2563.11
   16:36:57.702.09-Sep-2020 5323.01 6349.93 74.95 18.00 488.23 2563.11
   16:36:57.902.09-Sep-2020 5323.01 6349.93 74.95 18.00 488.43 2563.11
   16:36:58.102.09-Sep-2020 5323.01 6351.40 74.95 18.00 488.63 2563.11
   16:36:58.302.09-Sep-2020 5323.01 6358.62 74.95 18.00 488.83 2563.11
   16:36:58.502.09-Sep-2020 5323.01 6352.18 74.95 18.00 489.03 2563.11
   16:36:58.702.09-Sep-2020 5323.01 6350.44 74.95 18.00 489.23 2563.11
   16:36:58.902.09-Sep-2020 5323.01 6350.44 74.95 18.00 489.43 2563.11
   16:36:59.103.09-Sep-2020 5323.01 6363.82 74.95 18.00 489.63 2563.11
   16:36:59.303.09-Sep-2020 5323.01 6349.95 74.95 18.00 489.83 2563.11
   16:36:59.503.09-Sep-2020 5323.01 6352.10 74.95 18.00 490.03 2563.11
   16:36:59.703.09-Sep-2020 5323.01 6351.74 74.95 18.00 490.23 2563.11
   16:36:59.903.09-Sep-2020 5323.01 6351.74 74.95 18.00 490.44 2563.11
   16:37:00.103.09-Sep-2020 5323.01 6354.17 74.95 18.00 490.64 2563.11
   16:37:00.303.09-Sep-2020 5323.01 6353.09 74.95 18.00 490.84 2563.11
   16:37:00.503.09-Sep-2020 5323.01 6352.74 74.95 18.00 491.04 2563.11
   16:37:00.703.09-Sep-2020 5323.01 6352.24 74.95 18.00 491.24 2563.11
   16:37:00.903.09-Sep-2020 5323.01 6352.24 74.95 18.00 491.44 2563.11
   16:37:01.104.09-Sep-2020 5323.01 6352.20 74.95 18.00 491.64 2563.11
   16:37:01.304.09-Sep-2020 5323.01 6351.85 74.95 18.00 491.84 2563.11
   16:37:01.504.09-Sep-2020 5323.01 6351.67 74.95 18.00 492.04 2563.11
   16:37:01.704.09-Sep-2020 5323.01 6351.56 74.95 18.00 492.24 2563.11
   16:37:01.904.09-Sep-2020 5323.01 6351.56 74.95 18.00 492.44 2563.11
   16:37:02.104.09-Sep-2020 5323.01 6351.59 74.95 18.00 492.64 2563.11
   16:37:02.304.09-Sep-2020 5323.01 6351.55 74.95 18.00 492.84 2563.11
   16:37:02.504.09-Sep-2020 5323.01 6351.84 74.95 18.00 493.04 2563.11
   16:37:02.704.09-Sep-2020 5323.01 6351.68 74.95 18.00 493.24 2563.11
   16:37:02.904.09-Sep-2020 5323.01 6359.17 74.95 18.00 493.44 2563.11
   16:37:03.105.09-Sep-2020 5323.01 6353.36 74.95 18.00 493.64 2563.11
   16:37:03.305.09-Sep-2020 5323.01 6351.24 74.95 18.00 493.84 2563.11
   16:37:03.505.09-Sep-2020 5323.01 6351.71 74.95 18.00 494.04 2563.11
   16:37:03.705.09-Sep-2020 5323.01 6352.08 74.95 18.00 494.24 2563.11
   16:37:03.905.09-Sep-2020 5323.01 6353.48 74.95 18.00 494.44 2563.11
   16:37:04.105.09-Sep-2020 5323.01 6352.29 74.95 18.00 494.64 2563.11
   16:37:04.305.09-Sep-2020 5323.01 6350.88 74.95 18.00 494.84 2563.11
   16:37:04.505.09-Sep-2020 5323.01 6350.07 74.95 18.00 495.04 2563.11
   16:37:04.705.09-Sep-2020 5323.01 6350.45 74.95 18.00 495.24 2563.11
   16:37:04.905.09-Sep-2020 5323.01 6350.45 74.95 18.00 495.44 2563.11
   16:37:05.105.09-Sep-2020 5323.01 6350.44 74.95 18.00 495.64 2563.11
   16:37:05.306.09-Sep-2020 5323.01 6350.73 74.95 18.00 495.84 2563.11
   16:37:05.506.09-Sep-2020 5323.01 6350.33 74.95 18.00 496.04 2563.11
   16:37:05.706.09-Sep-2020 5323.01 6349.71 74.95 18.00 496.24 2563.11
   16:37:05.906.09-Sep-2020 5323.01 6349.51 74.95 18.00 496.44 2563.11
   16:37:06.106.09-Sep-2020 5323.01 6349.49 74.95 18.00 496.64 2563.11
   16:37:06.306.09-Sep-2020 5323.01 6357.42 74.95 18.00 496.84 2563.11
   16:37:06.506.09-Sep-2020 5323.01 6351.71 74.95 18.00 497.04 2563.11
