~Version Information
 VERS.                  2.0:   CWLS log ASCII Standard -VERSION 2.0
 WRAP.                   NO:   One line per depth step
~Well Information Block
#MNEM.UNIT     VALUE/NAME     DESCRIPTION
#---------     -----------    ---------------------------
 STRT.S             13:30:41 09-Sep-20: START TIME 13:30:41 09-Sep-20
 STOP.S             13:37:24 09-Sep-20: STOP TIME  13:37:24 09-Sep-20
 STEP.S                   0.00: STEP TIME
 NULL.                 -999.25: NULL VALUE
 MDS .        Operator Entered:  MAG DATA SOURCE
 PDAT.          Mean Sea Level:  PERMANENT DATUM
 DCON.         Sperry Drilling:  DIRECTNL CONTR
 RIG .              West Azeri:  RIG NAME
 WELL.           C40 (Slot 20):  WELL NAME
 SRVC.     Turan Drilling Engineering:  CONTRACTOR
 FLD .                     ACG:  FIELD NAME
 CTRY.              Azerbaijan:  COUNTRY NAME
 PROV.                    Baku:  PROVINCE
 STAT.                    Baku:  STATE NAME
 REGN.                   EESSA:  REGION
 BASE.              Azerbaijan:  LOGGING EQUIPMENT BASE LOCATION
 COMP.     BP Exploration (Caspian Sea) Ltd:  COMPANY
 WTYP.                Deviated:  WELL TYPE
 SON .        AZ-XX-0906344804:  JOB NUMBER
 FTOP.          Formation Tops:  FORM TOPS DESC
 ILTD.               Lithology:  INTERP LTH DESC
 SVYD.                  Survey:  SURVEY DESC
 DMOD.             Drill Model:  DRILL MOD DESC
 HPTY.       Minimum Curvature:  HOLE POS TYPE
 NREF.                    Grid:  NORTH REFERENCE
 SPUD.               01-Jan-20:  SPUD DATE
 DATE.      00.59.44 15-Sep-20:  END TIME
 STIM.      12.00.00 12-Jun-20:  START TIME
 DMF .             Drill Floor:  DRILL MEAS FROM
 DFST.                        :  DIST FSL TEXT
 DFWT.                        :  DIST FWL TEXT
 API .                        :  API NUMBER
 CNTY.                        :  COUNTY
 UWI .                        :  UNIQUE WELL IDENTIFIER
 LOC .                        :  LOCATION
 LMF .             Drill Floor:  LOG MEASURED FROM
 VSNS.m                   2.88:  VERT SEC N/S
 VSEW.m                  -3.84:  VERT SEC E/W
 AGAP.m                  43.42:  AIR GAP
 APD .m                  43.42:  DEPTH ABOVE PD
 WDMS.m                 118.27:  WD ELEV
 EGL .m                   0.00:  GROUND ELEVATION
 EPD .m                   0.00:  ELEVATION
 AZTC.deg                 6.23:  AZM TOTAL CORR
 GRDC.deg                 0.20:  GRID CORRECTION
 MDEC.deg                 6.43:  MAGNETIC DECL
 MDIP.deg                59.49:  MAGNETIC DIP
 MFLD.nT              50277.00:  MAGNETIC FIELD
 GVFD.g                   1.00:  GRAVITY FIELD
 VSDR.deg               173.20:  VERT SEC DIRECT
 TDD .m                5790.01:  TOTAL DEPTH (DRILLER)
 SDEP.m                5231.01:  START DEPTH
 DFSL.m                   0.00:  DISTANCE FSL
 DFWL.m                   0.00:  DISTANCE FWL
 UTMY.m             4435808.83:  UTM Y
 UTMX.m              526266.40:  UTM X
 WHEW.m                  -3.84:  WELL HEAD E/W
 WHNS.m                   2.88:  WELL HEAD N/S
 LONG.deg                51.31:  LONGITUDE
 LATI.deg                40.06:  LATITUDE
 TVDS.m                  43.42:  TVDSS CORRECTN
 DEP .m                 430.08:  DEPTH
 EKB .m                  43.42:  KB ELEVATION
 EDF .m                  43.42:  DF ELEVATION
 TDL .m                 559.00:  TOTAL DEPTH (LOGGER)
 MAGU.                 1849381:  MAGUTM CHECKSUM
 VSC .                       0:  VS TO CLOSURE
~Parameter Information Block
#MNEM.UNIT       Value        Description
#---------     -----------    ---------------------------
 AV  .mps                 4.87:  Ann Velocity 
 AVMX.mps                 7.08:  Max Ann Veloc 
 AZIF.deg               108.87:  Azm, Final 
 BHAT.                  Rotary:  BHA Type 
 BROT.°/30m               0.35:  Build Rotating 
 BS  .in                  8.50:  Bit Size 
 BSZ .in                  8.50:  Bit Size 
 BTPL.psig              360.00:  Bit Press Loss 
 CABU.                     Yes:  Customer Abuse 
 COMM.                     $ñd:  Run Comments 1 
 TCS .hr                106.24:  Time Ciculation Ended 
 CV  .mps                 1.77:  Crit Velocity 
 CVMX.mps                 2.03:  Max Crit Veloc 
 DD1 .         Aykhan Agagulov:  Direct Drillr 1 
 DD2 .            Nonso Okofor:  Direct Drillr 2 
 DDSV.               Geo-Pilot:  DD Service 
 DEFF.%                  98.00:  % Det Eff 
 DLRX.°/30m               0.50:  Dogleg Rot Max 
 DLSO.°/30m               0.40:  Dogleg Oriented 
 DLSX.°/30m               0.94:  Dogleg Str Max 
 DRET.      20.30.00 08-Sep-20:  Drill End Time 
 DRST.      22.15.00 06-Sep-20:  Drill Start Tim 
 DTIM.hr                 31.31:  Time Drilling 
 EDEP.m                5790.01:  End Depth 
 ENG1.           Amrah Tahirov:  Engineer 1 
 ENG2.         Dair Mahammadov:  Engineer 2 
 ENG3.           Emil Huseynov:  Engineer 3 
 ETIM.      04.01.04 12-Sep-20:  End Time 
 FLOI.gpm               450.00:  Flow In 
 FLON.gpm               450.00:  Flow In Min 
 FLOS.cptm                2.00:  Fluid Loss 
 FLOX.gpm               450.00:  Flow In Max 
 FTRO.       Formation Presure:  FTWD Run Obj 
 HFLO.                      No:  High Flow 
 HPRE.                      No:  High Pressure 
 HTEM.                      No:  High Temp 
 HYDO.m                   1.80:  Hydro Offset 
 IFIN.deg                72.03:  Inc, Final 
 IMAX.deg                73.72:  Inc Max 
 IMIN.deg                70.94:  Inc Min 
 IMND.m                5508.52:  Inc Min Depth 
 IMXD.m                5253.60:  Inc Max Depth 
 JARR.                      No:  Jarring 
 LETM.      20.30.00 08-Sep-20:  Log End Time 
 LOST.hr                     0:  Lost Rig Time 
 LSTM.      22.15.00 06-Sep-20:  Log Start Time 
 MDCL.ppm             36000.00:  Mud Chlorides 
 MDES.     Inversion Oil/Synthetic:  Mud Desc 
 DFD .sg                  1.44:  Mud Density 
 MDMN.sg                  1.44:  Dens Mud Min 
 MDMX.sg                  1.57:  Dens Mud Max 
 MOIL.                      70:  Run Mud Oil % 
 MOWR.                   70:30:  Run Mud OWR 
 MSND.                       0:  Run Mud Sand % 
 MSOL.                      21:  Run Mud Solids% 
 DFV .spqt               68.00:  Mud Viscosity 
 MWOD.in                  6.75:  MWD Tool OD 
 MWSI.                     Yes:  Serv Intrp, MWD 
 OTIM.hr                174.84:  Time Operating 
 PCON.           Look Like New:  Pad Condition 
 PMAX.psia            10616.93:  Press Op, Max 
 PV  .cP                 50.00:  Mud PV 
 RUN .                     700:  Run Number 
 ROPA.m/hr               14.24:  ROP Avg 
 ROPN.m/hr               10.00:  ROP Min 
 ROPX.m/hr               32.00:  ROP Max 
 RPMA.rpm               120.90:  RPM Surface Avg 
 RPMN.rpm               120.00:  RPM Surface Min 
 RPMX.rpm               140.00:  RPM Surface Max 
 RRUN.                    0700:  Rig Run Number 
 RTIM.hr                  3.20:  Time Reaming 
 SAZI.deg               109.99:  Azm, Start 
 SDEP.m                5231.01:  Start Depth 
 SIDD.                      No:  Serv Intrp, DD 
 SINC.deg                73.72:  Inc, Start 
 SPPA.psig             3051.00:  SPP Avg 
 SPPN.psig             2950.00:  SPP Min 
 SPPX.psig             3250.00:  SPP Max 
 STIM.      08.00.00 05-Sep-20:  Start Time 
 SVCS.                 DD, MWD:  Services 
 SVER.                    9.20:  Sperry Version 
 TDAT.m                 559.00:  Tot Depth Attmp 
 TDDF.                      No:  Trip for DD 
 TDLG.m                 559.00:  Tot Depth Loggd 
 TFF .                      No:  Trip for Fail 
 TQAA.f-kp               26.49:  Torque Abs Avg 
 TQAN.f-kp               25.00:  Torque Abs Min 
 TQAX.f-kp               27.00:  Torque Abs Max 
 TRRT.°/30m               1.50:  Turn Rotating 
 MRT .                    HCIM:  Maximum Recorded Temperature 
 TTMX.degC               90.20:  Max Tool Temp 
 VS01.                90542671:  Virtual Str1 SN 
 VS02.                90545185:  Virtual Str2 SN 
 VS03.                90602015:  Virtual Str3 SN 
 VS04.                90515230:  Virtual Str4 SN 
 WBMN.klb                 5.00:  WOB Min 
 WOBA.klb                14.79:  WOB Avg 
 WOBX.klb                20.00:  WOB Max 
 YP  .lhf2               29.00:  Yield Point 
~Curve Information Block
#MNEM.UNIT                 API CODE     Curve Description
#---------               -----------    ---------------------------
 TIME.HHMMSS            00 000 000 000:  GT Time & Date
 GTDEPTH.m              00 000 000 000:  GT Depth
 GTPQH.psia             00 000 000 000:  GT HR Quartz Pressure
 GTTQ.degC              00 000 000 000:  GT Quartz Temperature
 GTTN.NONE              00 000 000 000:  GT Test Number
 GTET.sec               00 000 000 000:  GT Elapsed Test Time
 GTTVD.m                00 000 000 000:  GT True Vertical Depth
#Other Information
#
#WARRANTY: Halliburton will use its best efforts to furnish customers with 
#accurate information and interpretations that are part of, and incident to, the services 
#provided.  However, Halliburton cannot and does not warrant the accuracy 
#or correctness of such information and interpretations.  Under no circumstances should any 
#such information or interpretation be relied upon as the sole basis for any drilling, 
#completion, production, or financial decision or any procedure involving any risk to the 
#safety of any drilling venture, drilling rig or its crew or any other third party.  The 
#Customer has full responsibility for all drilling, completion and production operation.  
#Halliburton makes no representations or warranties, either expressed or 
#implied, including, but not limited to, the implied warranties of merchantability or fitness 
#for a particular purpose, with respect to the services rendered.  In no event will 
#Halliburton be liable for failure to obtain any particular results or for 
#any damages, including, but not limited to, indirect, special or consequential damages, 
#resulting from the use of any information or interpretation provided by Halliburton.
#
~A           TIME           GTDEPTH  GTPQH  GTTQ  GTTN   GTET   GTTVD  
# ...
   13:35:12.850.09-Sep-2020 5408.01 3330.00 75.44 15.00 271.37 2589.60
   13:35:13.050.09-Sep-2020 5408.01 3369.43 75.45 15.00 271.57 2589.60
   13:35:13.251.09-Sep-2020 5408.01 3385.18 75.45 15.00 271.77 2589.60
   13:35:13.451.09-Sep-2020 5408.01 3402.57 75.45 15.00 271.97 2589.60
   13:35:13.651.09-Sep-2020 5408.01 3417.74 75.46 15.00 272.17 2589.60
   13:35:13.851.09-Sep-2020 5408.01 3417.74 75.46 15.00 272.37 2589.60
   13:35:14.051.09-Sep-2020 5408.01 3443.25 75.46 15.00 272.57 2589.60
   13:35:14.251.09-Sep-2020 5408.01 3455.33 75.46 15.00 272.77 2589.60
   13:35:14.451.09-Sep-2020 5408.01 3465.70 75.46 15.00 272.97 2589.60
   13:35:14.651.09-Sep-2020 5408.01 3475.30 75.47 15.00 273.17 2589.60
   13:35:14.852.09-Sep-2020 5408.01 3475.30 75.47 15.00 273.37 2589.60
   13:35:15.052.09-Sep-2020 5408.01 3491.28 75.47 15.00 273.57 2589.60
   13:35:15.252.09-Sep-2020 5408.01 3498.98 75.47 15.00 273.77 2589.60
   13:35:15.452.09-Sep-2020 5408.01 3505.91 75.47 15.00 273.97 2589.60
   13:35:15.652.09-Sep-2020 5408.01 3512.28 75.48 15.00 274.17 2589.60
   13:35:15.852.09-Sep-2020 5408.01 3512.28 75.48 15.00 274.37 2589.60
   13:35:16.052.09-Sep-2020 5408.01 3522.86 75.48 15.00 274.57 2589.60
   13:35:16.252.09-Sep-2020 5408.01 3527.88 75.48 15.00 274.77 2589.60
   13:35:16.452.09-Sep-2020 5408.01 3532.40 75.48 15.00 274.97 2589.60
   13:35:16.653.09-Sep-2020 5408.01 3536.48 75.48 15.00 275.17 2589.60
   13:35:16.853.09-Sep-2020 5408.01 3536.48 75.48 15.00 275.37 2589.60
   13:35:17.053.09-Sep-2020 5408.01 3541.47 75.49 15.00 275.57 2589.60
   13:35:17.253.09-Sep-2020 5408.01 3545.51 75.49 15.00 275.77 2589.60
   13:35:17.453.09-Sep-2020 5408.01 3548.80 75.49 15.00 275.97 2589.60
   13:35:17.653.09-Sep-2020 5408.01 3551.86 75.49 15.00 276.17 2589.60
   13:35:17.853.09-Sep-2020 5408.01 3551.86 75.49 15.00 276.37 2589.60
   13:35:18.053.09-Sep-2020 5408.01 3557.37 75.49 15.00 276.57 2589.60
   13:35:18.254.09-Sep-2020 5408.01 3559.56 75.50 15.00 276.77 2589.60
   13:35:18.454.09-Sep-2020 5408.01 3561.71 75.50 15.00 276.97 2589.60
   13:35:18.654.09-Sep-2020 5408.01 3563.65 75.50 15.00 277.17 2589.60
   13:35:18.854.09-Sep-2020 5408.01 3563.65 75.50 15.00 277.37 2589.60
   13:35:19.054.09-Sep-2020 5408.01 3566.98 75.50 15.00 277.57 2589.60
   13:35:19.254.09-Sep-2020 5408.01 3568.49 75.50 15.00 277.77 2589.60
   13:35:19.454.09-Sep-2020 5408.01 3569.83 75.50 15.00 277.97 2589.60
   13:35:19.654.09-Sep-2020 5408.01 3571.04 75.50 15.00 278.17 2589.60
   13:35:19.855.09-Sep-2020 5408.01 3571.04 75.50 15.00 278.37 2589.60
   13:35:20.055.09-Sep-2020 5408.01 3573.29 75.50 15.00 278.57 2589.60
   13:35:20.255.09-Sep-2020 5408.01 3572.98 75.51 15.00 278.77 2589.60
   13:35:20.455.09-Sep-2020 5408.01 3575.31 75.51 15.00 278.97 2589.60
   13:35:20.655.09-Sep-2020 5408.01 3575.94 75.51 15.00 279.17 2589.60
   13:35:20.855.09-Sep-2020 5408.01 3575.94 75.51 15.00 279.37 2589.60
   13:35:21.055.09-Sep-2020 5408.01 3577.51 75.51 15.00 279.57 2589.60
   13:35:21.255.09-Sep-2020 5408.01 3578.25 75.51 15.00 279.77 2589.60
   13:35:21.456.09-Sep-2020 5408.01 3577.87 75.51 15.00 279.97 2589.60
   13:35:21.656.09-Sep-2020 5408.01 3579.35 75.51 15.00 280.17 2589.60
   13:35:21.856.09-Sep-2020 5408.01 3580.14 75.51 15.00 280.37 2589.60
   13:35:22.056.09-Sep-2020 5408.01 3580.48 75.51 15.00 280.57 2589.60
   13:35:22.256.09-Sep-2020 5408.01 3581.24 75.51 15.00 280.77 2589.60
   13:35:22.456.09-Sep-2020 5408.01 3579.91 75.51 15.00 280.97 2589.60
   13:35:22.656.09-Sep-2020 5408.01 3582.17 75.51 15.00 281.17 2589.60
   13:35:22.856.09-Sep-2020 5408.01 3582.17 75.51 15.00 281.37 2589.60
   13:35:23.057.09-Sep-2020 5408.01 3582.71 75.51 15.00 281.57 2589.60
   13:35:23.257.09-Sep-2020 5408.01 3582.77 75.51 15.00 281.77 2589.60
   13:35:23.457.09-Sep-2020 5408.01 3582.82 75.51 15.00 281.97 2589.60
   13:35:23.657.09-Sep-2020 5408.01 3582.92 75.51 15.00 282.17 2589.60
   13:35:23.857.09-Sep-2020 5408.01 3582.92 75.51 15.00 282.37 2589.60
   13:35:24.057.09-Sep-2020 5408.01 3584.21 75.52 15.00 282.57 2589.60
   13:35:24.257.09-Sep-2020 5408.01 3584.28 75.52 15.00 282.77 2589.60
   13:35:24.457.09-Sep-2020 5408.01 3584.72 75.52 15.00 282.97 2589.60
   13:35:24.658.09-Sep-2020 5408.01 3584.68 75.52 15.00 283.17 2589.60
   13:35:24.858.09-Sep-2020 5408.01 3584.68 75.52 15.00 283.37 2589.60
   13:35:25.058.09-Sep-2020 5408.01 3584.72 75.52 15.00 283.57 2589.60
   13:35:25.258.09-Sep-2020 5408.01 3585.50 75.52 15.00 283.77 2589.60
   13:35:25.458.09-Sep-2020 5408.01 3585.65 75.52 15.00 283.97 2589.60
   13:35:25.658.09-Sep-2020 5408.01 3585.64 75.52 15.00 284.17 2589.60
   13:35:25.858.09-Sep-2020 5408.01 3585.64 75.52 15.00 284.37 2589.60
   13:35:26.058.09-Sep-2020 5408.01 3586.01 75.52 15.00 284.57 2589.60
   13:35:26.258.09-Sep-2020 5408.01 3586.19 75.52 15.00 284.77 2589.60
   13:35:26.459.09-Sep-2020 5408.01 3586.24 75.52 15.00 284.97 2589.60
   13:35:26.659.09-Sep-2020 5408.01 3586.33 75.52 15.00 285.17 2589.60
   13:35:26.859.09-Sep-2020 5408.01 3586.33 75.52 15.00 285.37 2589.60
   13:35:27.059.09-Sep-2020 5408.01 3586.35 75.52 15.00 285.57 2589.60
   13:35:27.259.09-Sep-2020 5408.01 3586.48 75.52 15.00 285.77 2589.60
   13:35:27.459.09-Sep-2020 5408.01 3586.61 75.52 15.00 285.97 2589.60
   13:35:27.659.09-Sep-2020 5408.01 3586.64 75.52 15.00 286.17 2589.60
   13:35:27.859.09-Sep-2020 5408.01 3586.64 75.52 15.00 286.38 2589.60
   13:35:28.060.09-Sep-2020 5408.01 3586.86 75.52 15.00 286.58 2589.60
   13:35:28.260.09-Sep-2020 5408.01 3587.04 75.52 15.00 286.78 2589.60
   13:35:28.460.09-Sep-2020 5408.01 3587.14 75.52 15.00 286.98 2589.60
   13:35:28.660.09-Sep-2020 5408.01 3586.04 75.52 15.00 287.18 2589.60
   13:35:28.860.09-Sep-2020 5408.01 3586.04 75.52 15.00 287.38 2589.60
   13:35:29.060.09-Sep-2020 5408.01 3587.39 75.52 15.00 287.58 2589.60
   13:35:29.260.09-Sep-2020 5408.01 3587.42 75.52 15.00 287.78 2589.60
   13:35:29.460.09-Sep-2020 5408.01 3587.55 75.52 15.00 287.98 2589.60
   13:35:29.661.09-Sep-2020 5408.01 3587.73 75.52 15.00 288.18 2589.60
   13:35:29.861.09-Sep-2020 5408.01 3587.73 75.52 15.00 288.38 2589.60
   13:35:30.061.09-Sep-2020 5408.01 3587.73 75.52 15.00 288.58 2589.60
   13:35:30.261.09-Sep-2020 5408.01 3587.79 75.52 15.00 288.78 2589.60
   13:35:30.461.09-Sep-2020 5408.01 3587.66 75.52 15.00 288.98 2589.60
   13:35:30.661.09-Sep-2020 5408.01 3587.77 75.52 15.00 289.18 2589.60
   13:35:30.861.09-Sep-2020 5408.01 3587.77 75.52 15.00 289.38 2589.60
   13:35:31.061.09-Sep-2020 5408.01 3587.97 75.52 15.00 289.58 2589.60
   13:35:31.262.09-Sep-2020 5408.01 3588.05 75.52 15.00 289.78 2589.60
   13:35:31.462.09-Sep-2020 5408.01 3587.94 75.52 15.00 289.98 2589.60
   13:35:31.662.09-Sep-2020 5408.01 3587.87 75.52 15.00 290.18 2589.60
   13:35:31.862.09-Sep-2020 5408.01 3587.87 75.52 15.00 290.38 2589.60
   13:35:32.062.09-Sep-2020 5408.01 3587.09 75.52 15.00 290.58 2589.60
   13:35:32.262.09-Sep-2020 5408.01 3587.99 75.52 15.00 290.78 2589.60
   13:35:32.462.09-Sep-2020 5408.01 3588.22 75.52 15.00 290.98 2589.60
   13:35:32.662.09-Sep-2020 5408.01 3588.12 75.52 15.00 291.18 2589.60
   13:35:32.863.09-Sep-2020 5408.01 3588.12 75.52 15.00 291.38 2589.60
   13:35:33.063.09-Sep-2020 5408.01 3587.79 75.52 15.00 291.58 2589.60
   13:35:33.263.09-Sep-2020 5408.01 3587.94 75.52 15.00 291.78 2589.60
   13:35:33.463.09-Sep-2020 5408.01 3588.56 75.52 15.00 291.98 2589.60
   13:35:33.663.09-Sep-2020 5408.01 3588.60 75.52 15.00 292.18 2589.60
   13:35:33.863.09-Sep-2020 5408.01 3588.60 75.52 15.00 292.38 2589.60
   13:35:34.063.09-Sep-2020 5408.01 3588.74 75.52 15.00 292.58 2589.60
   13:35:34.263.09-Sep-2020 5408.01 3588.58 75.52 15.00 292.78 2589.60
   13:35:34.463.09-Sep-2020 5408.01 3588.62 75.52 15.00 292.98 2589.60
   13:35:34.664.09-Sep-2020 5408.01 3587.36 75.52 15.00 293.18 2589.60
   13:35:34.864.09-Sep-2020 5408.01 3587.36 75.52 15.00 293.38 2589.60
   13:35:35.064.09-Sep-2020 5408.01 3588.64 75.52 15.00 293.58 2589.60
   13:35:35.264.09-Sep-2020 5408.01 3588.66 75.52 15.00 293.78 2589.60
