~Version Information
 VERS.                  2.0:   CWLS log ASCII Standard -VERSION 2.0
 WRAP.                   NO:   One line per depth step
~Well Information Block
#MNEM.UNIT     VALUE/NAME     DESCRIPTION
#---------     -----------    ---------------------------
 STRT.S             14:18:02 09-Sep-20: START TIME 14:18:02 09-Sep-20
 STOP.S             14:26:13 09-Sep-20: STOP TIME  14:26:13 09-Sep-20
 STEP.S                   0.00: STEP TIME
 NULL.                 -999.25: NULL VALUE
 MDS .        Operator Entered:  MAG DATA SOURCE
 PDAT.          Mean Sea Level:  PERMANENT DATUM
 DCON.         Sperry Drilling:  DIRECTNL CONTR
 RIG .              West Azeri:  RIG NAME
 WELL.           C40 (Slot 20):  WELL NAME
 SRVC.     Turan Drilling Engineering:  CONTRACTOR
 FLD .                     ACG:  FIELD NAME
 CTRY.              Azerbaijan:  COUNTRY NAME
 PROV.                    Baku:  PROVINCE
 STAT.                    Baku:  STATE NAME
 REGN.                   EESSA:  REGION
 BASE.              Azerbaijan:  LOGGING EQUIPMENT BASE LOCATION
 COMP.     BP Exploration (Caspian Sea) Ltd:  COMPANY
 WTYP.                Deviated:  WELL TYPE
 SON .        AZ-XX-0906344804:  JOB NUMBER
 FTOP.          Formation Tops:  FORM TOPS DESC
 ILTD.               Lithology:  INTERP LTH DESC
 SVYD.                  Survey:  SURVEY DESC
 DMOD.             Drill Model:  DRILL MOD DESC
 HPTY.       Minimum Curvature:  HOLE POS TYPE
 NREF.                    Grid:  NORTH REFERENCE
 SPUD.               01-Jan-20:  SPUD DATE
 DATE.      00.59.44 15-Sep-20:  END TIME
 STIM.      12.00.00 12-Jun-20:  START TIME
 DMF .             Drill Floor:  DRILL MEAS FROM
 DFST.                        :  DIST FSL TEXT
 DFWT.                        :  DIST FWL TEXT
 API .                        :  API NUMBER
 CNTY.                        :  COUNTY
 UWI .                        :  UNIQUE WELL IDENTIFIER
 LOC .                        :  LOCATION
 LMF .             Drill Floor:  LOG MEASURED FROM
 VSNS.m                   2.88:  VERT SEC N/S
 VSEW.m                  -3.84:  VERT SEC E/W
 AGAP.m                  43.42:  AIR GAP
 APD .m                  43.42:  DEPTH ABOVE PD
 WDMS.m                 118.27:  WD ELEV
 EGL .m                   0.00:  GROUND ELEVATION
 EPD .m                   0.00:  ELEVATION
 AZTC.deg                 6.23:  AZM TOTAL CORR
 GRDC.deg                 0.20:  GRID CORRECTION
 MDEC.deg                 6.43:  MAGNETIC DECL
 MDIP.deg                59.49:  MAGNETIC DIP
 MFLD.nT              50277.00:  MAGNETIC FIELD
 GVFD.g                   1.00:  GRAVITY FIELD
 VSDR.deg               173.20:  VERT SEC DIRECT
 TDD .m                5790.01:  TOTAL DEPTH (DRILLER)
 SDEP.m                5231.01:  START DEPTH
 DFSL.m                   0.00:  DISTANCE FSL
 DFWL.m                   0.00:  DISTANCE FWL
 UTMY.m             4435808.83:  UTM Y
 UTMX.m              526266.40:  UTM X
 WHEW.m                  -3.84:  WELL HEAD E/W
 WHNS.m                   2.88:  WELL HEAD N/S
 LONG.deg                51.31:  LONGITUDE
 LATI.deg                40.06:  LATITUDE
 TVDS.m                  43.42:  TVDSS CORRECTN
 DEP .m                 430.08:  DEPTH
 EKB .m                  43.42:  KB ELEVATION
 EDF .m                  43.42:  DF ELEVATION
 TDL .m                 559.00:  TOTAL DEPTH (LOGGER)
 MAGU.                 1849381:  MAGUTM CHECKSUM
 VSC .                       0:  VS TO CLOSURE
~Parameter Information Block
#MNEM.UNIT       Value        Description
#---------     -----------    ---------------------------
 AV  .mps                 4.87:  Ann Velocity 
 AVMX.mps                 7.08:  Max Ann Veloc 
 AZIF.deg               108.87:  Azm, Final 
 BHAT.                  Rotary:  BHA Type 
 BROT.°/30m               0.35:  Build Rotating 
 BS  .in                  8.50:  Bit Size 
 BSZ .in                  8.50:  Bit Size 
 BTPL.psig              360.00:  Bit Press Loss 
 CABU.                     Yes:  Customer Abuse 
 TCS .hr                106.24:  Time Ciculation Ended 
 CV  .mps                 1.77:  Crit Velocity 
 CVMX.mps                 2.03:  Max Crit Veloc 
 DD1 .         Aykhan Agagulov:  Direct Drillr 1 
 DD2 .            Nonso Okofor:  Direct Drillr 2 
 DDSV.               Geo-Pilot:  DD Service 
 DEFF.%                  98.00:  % Det Eff 
 DLRX.°/30m               0.50:  Dogleg Rot Max 
 DLSO.°/30m               0.40:  Dogleg Oriented 
 DLSX.°/30m               0.94:  Dogleg Str Max 
 DRET.      20.30.00 08-Sep-20:  Drill End Time 
 DRST.      22.15.00 06-Sep-20:  Drill Start Tim 
 DTIM.hr                 31.31:  Time Drilling 
 EDEP.m                5790.01:  End Depth 
 ENG1.           Amrah Tahirov:  Engineer 1 
 ENG2.         Dair Mahammadov:  Engineer 2 
 ENG3.           Emil Huseynov:  Engineer 3 
 ETIM.      04.01.04 12-Sep-20:  End Time 
 FLOI.gpm               450.00:  Flow In 
 FLON.gpm               450.00:  Flow In Min 
 FLOS.cptm                2.00:  Fluid Loss 
 FLOX.gpm               450.00:  Flow In Max 
 FTRO.       Formation Presure:  FTWD Run Obj 
 HFLO.                      No:  High Flow 
 HPRE.                      No:  High Pressure 
 HTEM.                      No:  High Temp 
 HYDO.m                   1.80:  Hydro Offset 
 IFIN.deg                72.03:  Inc, Final 
 IMAX.deg                73.72:  Inc Max 
 IMIN.deg                70.94:  Inc Min 
 IMND.m                5508.52:  Inc Min Depth 
 IMXD.m                5253.60:  Inc Max Depth 
 JARR.                      No:  Jarring 
 LETM.      20.30.00 08-Sep-20:  Log End Time 
 LOST.hr                     0:  Lost Rig Time 
 LSTM.      22.15.00 06-Sep-20:  Log Start Time 
 MDCL.ppm             36000.00:  Mud Chlorides 
 MDES.     Inversion Oil/Synthetic:  Mud Desc 
 DFD .sg                  1.44:  Mud Density 
 MDMN.sg                  1.44:  Dens Mud Min 
 MDMX.sg                  1.57:  Dens Mud Max 
 MOIL.                      70:  Run Mud Oil % 
 MOWR.                   70:30:  Run Mud OWR 
 MSND.                       0:  Run Mud Sand % 
 MSOL.                      21:  Run Mud Solids% 
 DFV .spqt               68.00:  Mud Viscosity 
 MWOD.in                  6.75:  MWD Tool OD 
 MWSI.                     Yes:  Serv Intrp, MWD 
 OTIM.hr                174.84:  Time Operating 
 PCON.           Look Like New:  Pad Condition 
 PMAX.psia            10616.93:  Press Op, Max 
 PV  .cP                 50.00:  Mud PV 
 RUN .                     700:  Run Number 
 ROPA.m/hr               14.24:  ROP Avg 
 ROPN.m/hr               10.00:  ROP Min 
 ROPX.m/hr               32.00:  ROP Max 
 RPMA.rpm               120.90:  RPM Surface Avg 
 RPMN.rpm               120.00:  RPM Surface Min 
 RPMX.rpm               140.00:  RPM Surface Max 
 RRUN.                    0700:  Rig Run Number 
 RTIM.hr                  3.20:  Time Reaming 
 SAZI.deg               109.99:  Azm, Start 
 SDEP.m                5231.01:  Start Depth 
 SIDD.                      No:  Serv Intrp, DD 
 SINC.deg                73.72:  Inc, Start 
 SPPA.psig             3051.00:  SPP Avg 
 SPPN.psig             2950.00:  SPP Min 
 SPPX.psig             3250.00:  SPP Max 
 STIM.      08.00.00 05-Sep-20:  Start Time 
 SVCS.                 DD, MWD:  Services 
 SVER.                    9.20:  Sperry Version 
 TDAT.m                 559.00:  Tot Depth Attmp 
 TDDF.                      No:  Trip for DD 
 TDLG.m                 559.00:  Tot Depth Loggd 
 TFF .                      No:  Trip for Fail 
 TQAA.f-kp               26.49:  Torque Abs Avg 
 TQAN.f-kp               25.00:  Torque Abs Min 
 TQAX.f-kp               27.00:  Torque Abs Max 
 TRRT.°/30m               1.50:  Turn Rotating 
 MRT .                    HCIM:  Maximum Recorded Temperature 
 TTMX.degC               90.20:  Max Tool Temp 
 VS01.                90542671:  Virtual Str1 SN 
 VS02.                90545185:  Virtual Str2 SN 
 VS03.                90602015:  Virtual Str3 SN 
 VS04.                90515230:  Virtual Str4 SN 
 WBMN.klb                 5.00:  WOB Min 
 WOBA.klb                14.79:  WOB Avg 
 WOBX.klb                20.00:  WOB Max 
 YP  .lhf2               29.00:  Yield Point 
~Curve Information Block
#MNEM.UNIT                 API CODE     Curve Description
#---------               -----------    ---------------------------
 TIME.HHMMSS            00 000 000 000:  GT Time & Date
 GTDEPTH.m              00 000 000 000:  GT Depth
 GTPQH.psia             00 000 000 000:  GT HR Quartz Pressure
 GTTQ.degC              00 000 000 000:  GT Quartz Temperature
 GTTN.NONE              00 000 000 000:  GT Test Number
 GTET.sec               00 000 000 000:  GT Elapsed Test Time
 GTTVD.m                00 000 000 000:  GT True Vertical Depth
#Other Information
#
#WARRANTY: Halliburton will use its best efforts to furnish customers with 
#accurate information and interpretations that are part of, and incident to, the services 
#provided.  However, Halliburton cannot and does not warrant the accuracy 
#or correctness of such information and interpretations.  Under no circumstances should any 
#such information or interpretation be relied upon as the sole basis for any drilling, 
#completion, production, or financial decision or any procedure involving any risk to the 
#safety of any drilling venture, drilling rig or its crew or any other third party.  The 
#Customer has full responsibility for all drilling, completion and production operation.  
#Halliburton makes no representations or warranties, either expressed or 
#implied, including, but not limited to, the implied warranties of merchantability or fitness 
#for a particular purpose, with respect to the services rendered.  In no event will 
#Halliburton be liable for failure to obtain any particular results or for 
#any damages, including, but not limited to, indirect, special or consequential damages, 
#resulting from the use of any information or interpretation provided by Halliburton.
#
~A           TIME           GTDEPTH  GTPQH  GTTQ  GTTN   GTET   GTTVD  
# ...
   14:18:24.834.09-Sep-2020 5408.01 6297.50 75.32 16.00  22.61 2589.60
   14:18:25.035.09-Sep-2020 5408.01 6298.04 75.32 16.00  22.81 2589.60
   14:18:25.235.09-Sep-2020 5408.01 6298.56 75.32 16.00  23.01 2589.60
   14:18:25.435.09-Sep-2020 5408.01 6299.06 75.32 16.00  23.21 2589.60
   14:18:25.635.09-Sep-2020 5408.01 6299.23 75.32 16.00  23.41 2589.60
   14:18:25.835.09-Sep-2020 5408.01 6299.78 75.32 16.00  23.61 2589.60
   14:18:26.035.09-Sep-2020 5408.01 6300.12 75.32 16.00  23.81 2589.60
   14:18:26.235.09-Sep-2020 5408.01 6300.55 75.32 16.00  24.01 2589.60
   14:18:26.435.09-Sep-2020 5408.01 6300.79 75.32 16.00  24.21 2589.60
   14:18:26.635.09-Sep-2020 5408.01 6301.10 75.32 16.00  24.41 2589.60
   14:18:26.836.09-Sep-2020 5408.01 6306.92 75.32 16.00  24.62 2589.60
   14:18:27.036.09-Sep-2020 5408.01 6300.51 75.32 16.00  24.82 2589.60
   14:18:27.236.09-Sep-2020 5408.01 6304.54 75.32 16.00  25.02 2589.60
   14:18:27.436.09-Sep-2020 5408.01 6304.54 75.32 16.00  25.22 2589.60
   14:18:27.636.09-Sep-2020 5408.01 6302.35 75.32 16.00  25.42 2589.60
   14:18:27.836.09-Sep-2020 5408.01 6302.20 75.31 16.00  25.62 2589.60
   14:18:28.036.09-Sep-2020 5408.01 6302.13 75.31 16.00  25.82 2589.60
   14:18:28.236.09-Sep-2020 5408.01 6303.06 75.31 16.00  26.02 2589.60
   14:18:28.437.09-Sep-2020 5408.01 6303.06 75.31 16.00  26.22 2589.60
   14:18:28.637.09-Sep-2020 5408.01 6304.21 75.31 16.00  26.42 2589.60
   14:18:28.837.09-Sep-2020 5408.01 6303.91 75.31 16.00  26.62 2589.60
   14:18:29.037.09-Sep-2020 5408.01 6304.03 75.31 16.00  26.82 2589.60
   14:18:29.237.09-Sep-2020 5408.01 6304.19 75.31 16.00  27.02 2589.60
   14:18:29.437.09-Sep-2020 5408.01 6304.19 75.31 16.00  27.22 2589.60
   14:18:29.637.09-Sep-2020 5408.01 6305.32 75.31 16.00  27.42 2589.60
   14:18:29.837.09-Sep-2020 5408.01 6305.77 75.31 16.00  27.62 2589.60
   14:18:30.038.09-Sep-2020 5408.01 6305.50 75.31 16.00  27.82 2589.60
   14:18:30.238.09-Sep-2020 5408.01 6310.92 75.31 16.00  28.02 2589.60
   14:18:30.438.09-Sep-2020 5408.01 6304.18 75.31 16.00  28.22 2589.60
   14:18:30.638.09-Sep-2020 5408.01 6308.24 75.31 16.00  28.42 2589.60
   14:18:30.838.09-Sep-2020 5408.01 6305.29 75.31 16.00  28.62 2589.60
   14:18:31.038.09-Sep-2020 5408.01 6307.21 75.31 16.00  28.82 2589.60
   14:18:31.238.09-Sep-2020 5408.01 6310.67 75.31 16.00  29.02 2589.60
   14:18:31.438.09-Sep-2020 5408.01 6310.67 75.31 16.00  29.22 2589.60
   14:18:31.639.09-Sep-2020 5408.01 6305.77 75.31 16.00  29.42 2589.60
   14:18:31.839.09-Sep-2020 5408.01 6309.78 75.31 16.00  29.62 2589.60
   14:18:32.039.09-Sep-2020 5408.01 6307.23 75.31 16.00  29.82 2589.60
   14:18:32.239.09-Sep-2020 5408.01 6309.19 75.31 16.00  30.02 2589.60
   14:18:32.439.09-Sep-2020 5408.01 6309.19 75.31 16.00  30.22 2589.60
   14:18:32.639.09-Sep-2020 5408.01 6314.64 75.31 16.00  30.42 2589.60
   14:18:32.839.09-Sep-2020 5408.01 6308.58 75.31 16.00  30.62 2589.60
   14:18:33.039.09-Sep-2020 5408.01 6312.92 75.31 16.00  30.82 2589.60
   14:18:33.240.09-Sep-2020 5408.01 6309.38 75.31 16.00  31.02 2589.60
   14:18:33.440.09-Sep-2020 5408.01 6310.67 75.31 16.00  31.22 2589.60
   14:18:33.640.09-Sep-2020 5408.01 6320.00 75.31 16.00  31.42 2589.60
   14:18:33.840.09-Sep-2020 5408.01 6307.83 75.31 16.00  31.62 2589.60
   14:18:34.040.09-Sep-2020 5408.01 6311.18 75.31 16.00  31.82 2589.60
   14:18:34.240.09-Sep-2020 5408.01 6313.15 75.31 16.00  32.02 2589.60
   14:18:34.440.09-Sep-2020 5408.01 6312.36 75.31 16.00  32.22 2589.60
   14:18:34.640.09-Sep-2020 5408.01 6322.29 75.31 16.00  32.42 2589.60
   14:18:34.841.09-Sep-2020 5408.01 6310.04 75.31 16.00  32.62 2589.60
   14:18:35.041.09-Sep-2020 5408.01 6315.14 75.31 16.00  32.82 2589.60
   14:18:35.241.09-Sep-2020 5408.01 6313.82 75.31 16.00  33.02 2589.60
   14:18:35.441.09-Sep-2020 5408.01 6313.82 75.31 16.00  33.22 2589.60
   14:18:35.641.09-Sep-2020 5408.01 6315.79 75.31 16.00  33.42 2589.60
   14:18:35.841.09-Sep-2020 5408.01 6314.98 75.31 16.00  33.62 2589.60
   14:18:36.041.09-Sep-2020 5408.01 6315.87 75.31 16.00  33.82 2589.60
   14:18:36.241.09-Sep-2020 5408.01 6325.62 75.31 16.00  34.02 2589.60
   14:18:36.441.09-Sep-2020 5408.01 6325.62 75.31 16.00  34.22 2589.60
   14:18:36.642.09-Sep-2020 5408.01 6312.76 75.31 16.00  34.42 2589.60
   14:18:36.842.09-Sep-2020 5408.01 6298.19 75.31 16.00  34.62 2589.60
   14:18:37.042.09-Sep-2020 5408.01 6283.95 75.31 16.00  34.82 2589.60
   14:18:37.242.09-Sep-2020 5408.01 6269.14 75.31 16.00  35.02 2589.60
   14:18:37.442.09-Sep-2020 5408.01 6269.14 75.31 16.00  35.22 2589.60
   14:18:37.642.09-Sep-2020 5408.01 6245.69 75.31 16.00  35.42 2589.60
   14:18:37.842.09-Sep-2020 5408.01 6230.23 75.31 16.00  35.62 2589.60
   14:18:38.042.09-Sep-2020 5408.01 6213.97 75.31 16.00  35.82 2589.60
   14:18:38.243.09-Sep-2020 5408.01 6199.08 75.31 16.00  36.02 2589.60
   14:18:38.443.09-Sep-2020 5408.01 6185.61 75.31 16.00  36.22 2589.60
   14:18:38.643.09-Sep-2020 5408.01 6161.86 75.31 16.00  36.42 2589.60
   14:18:38.843.09-Sep-2020 5408.01 6147.24 75.31 16.00  36.62 2589.60
   14:18:39.043.09-Sep-2020 5408.01 6125.96 75.31 16.00  36.82 2589.60
   14:18:39.243.09-Sep-2020 5408.01 6109.61 75.31 16.00  37.02 2589.60
   14:18:39.443.09-Sep-2020 5408.01 6109.61 75.31 16.00  37.22 2589.60
   14:18:39.643.09-Sep-2020 5408.01 6063.63 75.31 16.00  37.42 2589.60
   14:18:39.844.09-Sep-2020 5408.01 6038.77 75.31 16.00  37.62 2589.60
   14:18:40.044.09-Sep-2020 5408.01 6012.75 75.31 16.00  37.82 2589.60
   14:18:40.244.09-Sep-2020 5408.01 5984.06 75.31 16.00  38.02 2589.60
   14:18:40.444.09-Sep-2020 5408.01 5984.06 75.31 16.00  38.22 2589.60
   14:18:40.644.09-Sep-2020 5408.01 5922.69 75.31 16.00  38.42 2589.60
   14:18:40.844.09-Sep-2020 5408.01 5887.75 75.31 16.00  38.62 2589.60
   14:18:41.044.09-Sep-2020 5408.01 5831.49 75.31 16.00  38.82 2589.60
   14:18:41.244.09-Sep-2020 5408.01 5799.60 75.31 16.00  39.02 2589.60
   14:18:41.445.09-Sep-2020 5408.01 5751.63 75.31 16.00  39.22 2589.60
   14:18:41.645.09-Sep-2020 5408.01 5698.95 75.30 16.00  39.42 2589.60
   14:18:41.845.09-Sep-2020 5408.01 5683.18 75.30 16.00  39.62 2589.60
   14:18:42.045.09-Sep-2020 5408.01 5665.03 75.30 16.00  39.82 2589.60
   14:18:42.245.09-Sep-2020 5408.01 5595.47 75.30 16.00  40.02 2589.60
   14:18:42.445.09-Sep-2020 5408.01 5595.47 75.30 16.00  40.22 2589.60
   14:18:42.645.09-Sep-2020 5408.01 5535.46 75.30 16.00  40.42 2589.60
   14:18:42.845.09-Sep-2020 5408.01 5472.89 75.30 16.00  40.62 2589.60
   14:18:43.046.09-Sep-2020 5408.01 5430.54 75.30 16.00  40.82 2589.60
   14:18:43.246.09-Sep-2020 5408.01 5397.90 75.30 16.00  41.03 2589.60
   14:18:43.446.09-Sep-2020 5408.01 5397.90 75.30 16.00  41.23 2589.60
   14:18:43.646.09-Sep-2020 5408.01 5332.66 75.30 16.00  41.43 2589.60
   14:18:43.846.09-Sep-2020 5408.01 5312.65 75.30 16.00  41.63 2589.60
   14:18:44.046.09-Sep-2020 5408.01 5290.50 75.30 16.00  41.83 2589.60
   14:18:44.246.09-Sep-2020 5408.01 5295.71 75.30 16.00  42.03 2589.60
   14:18:44.446.09-Sep-2020 5408.01 5295.71 75.30 16.00  42.23 2589.60
   14:18:44.646.09-Sep-2020 5408.01 5280.18 75.30 16.00  42.43 2589.60
   14:18:44.847.09-Sep-2020 5408.01 5272.51 75.29 16.00  42.63 2589.60
   14:18:45.047.09-Sep-2020 5408.01 5310.67 75.29 16.00  42.83 2589.60
   14:18:45.247.09-Sep-2020 5408.01 4910.86 75.29 16.00  43.03 2589.60
   14:18:45.447.09-Sep-2020 5408.01 4027.75 75.29 16.00  43.23 2589.60
   14:18:45.647.09-Sep-2020 5408.01 3206.93 75.29 16.00  43.43 2589.60
   14:18:45.847.09-Sep-2020 5408.01 2492.29 75.29 16.00  43.63 2589.60
   14:18:46.047.09-Sep-2020 5408.01 1908.86 75.29 16.00  43.83 2589.60
   14:18:46.247.09-Sep-2020 5408.01 1460.60 75.29 16.00  44.03 2589.60
   14:18:46.448.09-Sep-2020 5408.01 1460.60 75.29 16.00  44.23 2589.60
   14:18:46.648.09-Sep-2020 5408.01  914.21 75.28 16.00  44.43 2589.60
   14:18:46.848.09-Sep-2020 5408.01  734.00 75.28 16.00  44.63 2589.60
   14:18:47.048.09-Sep-2020 5408.01  637.73 75.28 16.00  44.83 2589.60
   14:18:47.248.09-Sep-2020 5408.01  607.72 75.28 16.00  45.03 2589.60
