~Version Information
 VERS.                  2.0:   CWLS log ASCII Standard -VERSION 2.0
 WRAP.                   NO:   One line per depth step
~Well Information Block
#MNEM.UNIT     VALUE/NAME     DESCRIPTION
#---------     -----------    ---------------------------
 STRT.S             18:19:19 09-Sep-20: START TIME 18:19:19 09-Sep-20
 STOP.S             18:27:34 09-Sep-20: STOP TIME  18:27:34 09-Sep-20
 STEP.S                   0.00: STEP TIME
 NULL.                 -999.25: NULL VALUE
 MDS .        Operator Entered:  MAG DATA SOURCE
 PDAT.          Mean Sea Level:  PERMANENT DATUM
 DCON.         Sperry Drilling:  DIRECTNL CONTR
 RIG .              West Azeri:  RIG NAME
 WELL.           C40 (Slot 20):  WELL NAME
 SRVC.     Turan Drilling Engineering:  CONTRACTOR
 FLD .                     ACG:  FIELD NAME
 CTRY.              Azerbaijan:  COUNTRY NAME
 PROV.                    Baku:  PROVINCE
 STAT.                    Baku:  STATE NAME
 REGN.                   EESSA:  REGION
 BASE.              Azerbaijan:  LOGGING EQUIPMENT BASE LOCATION
 COMP.     BP Exploration (Caspian Sea) Ltd:  COMPANY
 WTYP.                Deviated:  WELL TYPE
 SON .        AZ-XX-0906344804:  JOB NUMBER
 FTOP.          Formation Tops:  FORM TOPS DESC
 ILTD.               Lithology:  INTERP LTH DESC
 SVYD.                  Survey:  SURVEY DESC
 DMOD.             Drill Model:  DRILL MOD DESC
 HPTY.       Minimum Curvature:  HOLE POS TYPE
 NREF.                    Grid:  NORTH REFERENCE
 SPUD.               01-Jan-20:  SPUD DATE
 DATE.      00.59.44 15-Sep-20:  END TIME
 STIM.      12.00.00 12-Jun-20:  START TIME
 DMF .             Drill Floor:  DRILL MEAS FROM
 DFST.                        :  DIST FSL TEXT
 DFWT.                        :  DIST FWL TEXT
 API .                        :  API NUMBER
 CNTY.                        :  COUNTY
 UWI .                        :  UNIQUE WELL IDENTIFIER
 LOC .                        :  LOCATION
 LMF .             Drill Floor:  LOG MEASURED FROM
 VSNS.m                   2.88:  VERT SEC N/S
 VSEW.m                  -3.84:  VERT SEC E/W
 AGAP.m                  43.42:  AIR GAP
 APD .m                  43.42:  DEPTH ABOVE PD
 WDMS.m                 118.27:  WD ELEV
 EGL .m                   0.00:  GROUND ELEVATION
 EPD .m                   0.00:  ELEVATION
 AZTC.deg                 6.23:  AZM TOTAL CORR
 GRDC.deg                 0.20:  GRID CORRECTION
 MDEC.deg                 6.43:  MAGNETIC DECL
 MDIP.deg                59.49:  MAGNETIC DIP
 MFLD.nT              50277.00:  MAGNETIC FIELD
 GVFD.g                   1.00:  GRAVITY FIELD
 VSDR.deg               173.20:  VERT SEC DIRECT
 TDD .m                5790.01:  TOTAL DEPTH (DRILLER)
 SDEP.m                5231.01:  START DEPTH
 DFSL.m                   0.00:  DISTANCE FSL
 DFWL.m                   0.00:  DISTANCE FWL
 UTMY.m             4435808.83:  UTM Y
 UTMX.m              526266.40:  UTM X
 WHEW.m                  -3.84:  WELL HEAD E/W
 WHNS.m                   2.88:  WELL HEAD N/S
 LONG.deg                51.31:  LONGITUDE
 LATI.deg                40.06:  LATITUDE
 TVDS.m                  43.42:  TVDSS CORRECTN
 DEP .m                 430.08:  DEPTH
 EKB .m                  43.42:  KB ELEVATION
 EDF .m                  43.42:  DF ELEVATION
 TDL .m                 559.00:  TOTAL DEPTH (LOGGER)
 MAGU.                 1849381:  MAGUTM CHECKSUM
 VSC .                       0:  VS TO CLOSURE
~Parameter Information Block
#MNEM.UNIT       Value        Description
#---------     -----------    ---------------------------
 AV  .mps                 4.87:  Ann Velocity 
 AVMX.mps                 7.08:  Max Ann Veloc 
 AZIF.deg               108.87:  Azm, Final 
 BHAT.                  Rotary:  BHA Type 
 BROT.°/30m               0.35:  Build Rotating 
 BS  .in                  8.50:  Bit Size 
 BSZ .in                  8.50:  Bit Size 
 BTPL.psig              360.00:  Bit Press Loss 
 CABU.                     Yes:  Customer Abuse 
 TCS .hr                106.24:  Time Ciculation Ended 
 CV  .mps                 1.77:  Crit Velocity 
 CVMX.mps                 2.03:  Max Crit Veloc 
 DD1 .         Aykhan Agagulov:  Direct Drillr 1 
 DD2 .            Nonso Okofor:  Direct Drillr 2 
 DDSV.               Geo-Pilot:  DD Service 
 DEFF.%                  98.00:  % Det Eff 
 DLRX.°/30m               0.50:  Dogleg Rot Max 
 DLSO.°/30m               0.40:  Dogleg Oriented 
 DLSX.°/30m               0.94:  Dogleg Str Max 
 DRET.      20.30.00 08-Sep-20:  Drill End Time 
 DRST.      22.15.00 06-Sep-20:  Drill Start Tim 
 DTIM.hr                 31.31:  Time Drilling 
 EDEP.m                5790.01:  End Depth 
 ENG1.           Amrah Tahirov:  Engineer 1 
 ENG2.         Dair Mahammadov:  Engineer 2 
 ENG3.           Emil Huseynov:  Engineer 3 
 ETIM.      04.01.04 12-Sep-20:  End Time 
 FLOI.gpm               450.00:  Flow In 
 FLON.gpm               450.00:  Flow In Min 
 FLOS.cptm                2.00:  Fluid Loss 
 FLOX.gpm               450.00:  Flow In Max 
 FTRO.       Formation Presure:  FTWD Run Obj 
 HFLO.                      No:  High Flow 
 HPRE.                      No:  High Pressure 
 HTEM.                      No:  High Temp 
 HYDO.m                   1.80:  Hydro Offset 
 IFIN.deg                72.03:  Inc, Final 
 IMAX.deg                73.72:  Inc Max 
 IMIN.deg                70.94:  Inc Min 
 IMND.m                5508.52:  Inc Min Depth 
 IMXD.m                5253.60:  Inc Max Depth 
 JARR.                      No:  Jarring 
 LETM.      20.30.00 08-Sep-20:  Log End Time 
 LOST.hr                     0:  Lost Rig Time 
 LSTM.      22.15.00 06-Sep-20:  Log Start Time 
 MDCL.ppm             36000.00:  Mud Chlorides 
 MDES.     Inversion Oil/Synthetic:  Mud Desc 
 DFD .sg                  1.44:  Mud Density 
 MDMN.sg                  1.44:  Dens Mud Min 
 MDMX.sg                  1.57:  Dens Mud Max 
 MOIL.                      70:  Run Mud Oil % 
 MOWR.                   70:30:  Run Mud OWR 
 MSND.                       0:  Run Mud Sand % 
 MSOL.                      21:  Run Mud Solids% 
 DFV .spqt               68.00:  Mud Viscosity 
 MWOD.in                  6.75:  MWD Tool OD 
 MWSI.                     Yes:  Serv Intrp, MWD 
 OTIM.hr                174.84:  Time Operating 
 PCON.           Look Like New:  Pad Condition 
 PMAX.psia            10616.93:  Press Op, Max 
 PV  .cP                 50.00:  Mud PV 
 RUN .                     700:  Run Number 
 ROPA.m/hr               14.24:  ROP Avg 
 ROPN.m/hr               10.00:  ROP Min 
 ROPX.m/hr               32.00:  ROP Max 
 RPMA.rpm               120.90:  RPM Surface Avg 
 RPMN.rpm               120.00:  RPM Surface Min 
 RPMX.rpm               140.00:  RPM Surface Max 
 RRUN.                    0700:  Rig Run Number 
 RTIM.hr                  3.20:  Time Reaming 
 SAZI.deg               109.99:  Azm, Start 
 SDEP.m                5231.01:  Start Depth 
 SIDD.                      No:  Serv Intrp, DD 
 SINC.deg                73.72:  Inc, Start 
 SPPA.psig             3051.00:  SPP Avg 
 SPPN.psig             2950.00:  SPP Min 
 SPPX.psig             3250.00:  SPP Max 
 STIM.      08.00.00 05-Sep-20:  Start Time 
 SVCS.                 DD, MWD:  Services 
 SVER.                    9.20:  Sperry Version 
 TDAT.m                 559.00:  Tot Depth Attmp 
 TDDF.                      No:  Trip for DD 
 TDLG.m                 559.00:  Tot Depth Loggd 
 TFF .                      No:  Trip for Fail 
 TQAA.f-kp               26.49:  Torque Abs Avg 
 TQAN.f-kp               25.00:  Torque Abs Min 
 TQAX.f-kp               27.00:  Torque Abs Max 
 TRRT.°/30m               1.50:  Turn Rotating 
 MRT .                    HCIM:  Maximum Recorded Temperature 
 TTMX.degC               90.20:  Max Tool Temp 
 VS01.                90542671:  Virtual Str1 SN 
 VS02.                90545185:  Virtual Str2 SN 
 VS03.                90602015:  Virtual Str3 SN 
 VS04.                90515230:  Virtual Str4 SN 
 WBMN.klb                 5.00:  WOB Min 
 WOBA.klb                14.79:  WOB Avg 
 WOBX.klb                20.00:  WOB Max 
 YP  .lhf2               29.00:  Yield Point 
~Curve Information Block
#MNEM.UNIT                 API CODE     Curve Description
#---------               -----------    ---------------------------
 TIME.HHMMSS            00 000 000 000:  GT Time & Date
 GTDEPTH.m              00 000 000 000:  GT Depth
 GTPQH.psia             00 000 000 000:  GT HR Quartz Pressure
 GTTQ.degC              00 000 000 000:  GT Quartz Temperature
 GTTN.NONE              00 000 000 000:  GT Test Number
 GTET.sec               00 000 000 000:  GT Elapsed Test Time
 GTTVD.m                00 000 000 000:  GT True Vertical Depth
#Other Information
#
#WARRANTY: Halliburton will use its best efforts to furnish customers with 
#accurate information and interpretations that are part of, and incident to, the services 
#provided.  However, Halliburton cannot and does not warrant the accuracy 
#or correctness of such information and interpretations.  Under no circumstances should any 
#such information or interpretation be relied upon as the sole basis for any drilling, 
#completion, production, or financial decision or any procedure involving any risk to the 
#safety of any drilling venture, drilling rig or its crew or any other third party.  The 
#Customer has full responsibility for all drilling, completion and production operation.  
#Halliburton makes no representations or warranties, either expressed or 
#implied, including, but not limited to, the implied warranties of merchantability or fitness 
#for a particular purpose, with respect to the services rendered.  In no event will 
#Halliburton be liable for failure to obtain any particular results or for 
#any damages, including, but not limited to, indirect, special or consequential damages, 
#resulting from the use of any information or interpretation provided by Halliburton.
#
~A           TIME           GTDEPTH  GTPQH  GTTQ  GTTN   GTET   GTTVD  
# ...
   18:23:05.765.09-Sep-2020 5281.01 4058.12 74.57 21.00 225.82 2550.59
   18:23:05.965.09-Sep-2020 5281.01 4058.12 74.57 21.00 226.02 2550.59
   18:23:06.165.09-Sep-2020 5281.01 4058.19 74.57 21.00 226.22 2550.59
   18:23:06.364.09-Sep-2020 5281.01 4058.17 74.57 21.00 226.42 2550.59
   18:23:06.564.09-Sep-2020 5281.01 4058.12 74.57 21.00 226.62 2550.59
   18:23:06.764.09-Sep-2020 5281.01 4058.15 74.57 21.00 226.82 2550.59
   18:23:06.964.09-Sep-2020 5281.01 4058.15 74.57 21.00 227.02 2550.59
   18:23:07.164.09-Sep-2020 5281.01 4058.14 74.57 21.00 227.22 2550.59
   18:23:07.364.09-Sep-2020 5281.01 4058.12 74.57 21.00 227.42 2550.59
   18:23:07.564.09-Sep-2020 5281.01 4058.10 74.57 21.00 227.62 2550.59
   18:23:07.763.09-Sep-2020 5281.01 4058.06 74.57 21.00 227.82 2550.59
   18:23:07.963.09-Sep-2020 5281.01 4058.06 74.57 21.00 228.02 2550.59
   18:23:08.163.09-Sep-2020 5281.01 4057.98 74.57 21.00 228.22 2550.59
   18:23:08.363.09-Sep-2020 5281.01 4057.94 74.57 21.00 228.42 2550.59
   18:23:08.563.09-Sep-2020 5281.01 4056.39 74.57 21.00 228.62 2550.59
   18:23:08.763.09-Sep-2020 5281.01 4056.31 74.57 21.00 228.82 2550.59
   18:23:08.962.09-Sep-2020 5281.01 4056.31 74.57 21.00 229.02 2550.59
   18:23:09.162.09-Sep-2020 5281.01 4057.32 74.57 21.00 229.22 2550.59
   18:23:09.362.09-Sep-2020 5281.01 4057.56 74.57 21.00 229.42 2550.59
   18:23:09.562.09-Sep-2020 5281.01 4058.02 74.57 21.00 229.62 2550.59
   18:23:09.762.09-Sep-2020 5281.01 4057.97 74.57 21.00 229.82 2550.59
   18:23:09.962.09-Sep-2020 5281.01 4057.97 74.57 21.00 230.02 2550.59
   18:23:10.161.09-Sep-2020 5281.01 4058.08 74.57 21.00 230.22 2550.59
   18:23:10.361.09-Sep-2020 5281.01 4058.13 74.57 21.00 230.42 2550.59
   18:23:10.561.09-Sep-2020 5281.01 4058.22 74.57 21.00 230.62 2550.59
   18:23:10.761.09-Sep-2020 5281.01 4058.24 74.57 21.00 230.82 2550.59
   18:23:10.961.09-Sep-2020 5281.01 4058.24 74.57 21.00 231.02 2550.59
   18:23:11.161.09-Sep-2020 5281.01 4058.14 74.57 21.00 231.22 2550.59
   18:23:11.361.09-Sep-2020 5281.01 4058.19 74.57 21.00 231.42 2550.59
   18:23:11.560.09-Sep-2020 5281.01 4058.23 74.57 21.00 231.62 2550.59
   18:23:11.760.09-Sep-2020 5281.01 4058.24 74.57 21.00 231.82 2550.59
   18:23:11.960.09-Sep-2020 5281.01 4058.24 74.57 21.00 232.02 2550.59
   18:23:12.160.09-Sep-2020 5281.01 4056.30 74.57 21.00 232.22 2550.59
   18:23:12.360.09-Sep-2020 5281.01 4057.32 74.57 21.00 232.42 2550.59
   18:23:12.560.09-Sep-2020 5281.01 4057.67 74.57 21.00 232.62 2550.59
   18:23:12.759.09-Sep-2020 5281.01 4058.17 74.57 21.00 232.82 2550.59
   18:23:12.959.09-Sep-2020 5281.01 4058.17 74.57 21.00 233.02 2550.59
   18:23:13.159.09-Sep-2020 5281.01 4056.79 74.57 21.00 233.22 2550.59
   18:23:13.359.09-Sep-2020 5281.01 4057.43 74.57 21.00 233.42 2550.59
   18:23:13.559.09-Sep-2020 5281.01 4058.16 74.57 21.00 233.62 2550.59
   18:23:13.759.09-Sep-2020 5281.01 4058.36 74.57 21.00 233.82 2550.59
   18:23:13.959.09-Sep-2020 5281.01 4058.36 74.57 21.00 234.02 2550.59
   18:23:14.158.09-Sep-2020 5281.01 4058.87 74.57 21.00 234.22 2550.59
   18:23:14.358.09-Sep-2020 5281.01 4057.67 74.57 21.00 234.42 2550.59
   18:23:14.558.09-Sep-2020 5281.01 4057.53 74.57 21.00 234.62 2550.59
   18:23:14.758.09-Sep-2020 5281.01 4058.63 74.57 21.00 234.82 2550.59
   18:23:14.958.09-Sep-2020 5281.01 4058.63 74.57 21.00 235.02 2550.59
   18:23:15.158.09-Sep-2020 5281.01 4059.47 74.57 21.00 235.22 2550.59
   18:23:15.357.09-Sep-2020 5281.01 4059.50 74.57 21.00 235.42 2550.59
   18:23:15.557.09-Sep-2020 5281.01 4059.70 74.57 21.00 235.62 2550.59
   18:23:15.757.09-Sep-2020 5281.01 4059.27 74.57 21.00 235.82 2550.59
   18:23:15.957.09-Sep-2020 5281.01 4059.27 74.57 21.00 236.01 2550.59
   18:23:16.157.09-Sep-2020 5281.01 4058.65 74.57 21.00 236.21 2550.59
   18:23:16.357.09-Sep-2020 5281.01 4059.42 74.57 21.00 236.41 2550.59
   18:23:16.556.09-Sep-2020 5281.01 4059.68 74.57 21.00 236.61 2550.59
   18:23:16.756.09-Sep-2020 5281.01 4060.07 74.57 21.00 236.81 2550.59
   18:23:16.956.09-Sep-2020 5281.01 4060.07 74.57 21.00 237.01 2550.59
   18:23:17.156.09-Sep-2020 5281.01 4059.04 74.57 21.00 237.21 2550.59
   18:23:17.356.09-Sep-2020 5281.01 4060.15 74.57 21.00 237.41 2550.59
   18:23:17.556.09-Sep-2020 5281.01 4060.41 74.57 21.00 237.61 2550.59
   18:23:17.756.09-Sep-2020 5281.01 4060.83 74.57 21.00 237.81 2550.59
   18:23:17.955.09-Sep-2020 5281.01 4060.83 74.57 21.00 238.01 2550.59
   18:23:18.155.09-Sep-2020 5281.01 4060.87 74.57 21.00 238.21 2550.59
   18:23:18.355.09-Sep-2020 5281.01 4060.75 74.57 21.00 238.41 2550.59
   18:23:18.555.09-Sep-2020 5281.01 4060.72 74.57 21.00 238.61 2550.59
   18:23:18.755.09-Sep-2020 5281.01 4060.64 74.57 21.00 238.81 2550.59
   18:23:18.955.09-Sep-2020 5281.01 4060.64 74.57 21.00 239.01 2550.59
   18:23:19.154.09-Sep-2020 5281.01 4060.63 74.57 21.00 239.21 2550.59
   18:23:19.354.09-Sep-2020 5281.01 4060.52 74.57 21.00 239.41 2550.59
   18:23:19.554.09-Sep-2020 5281.01 4060.50 74.57 21.00 239.61 2550.59
   18:23:19.754.09-Sep-2020 5281.01 4060.47 74.57 21.00 239.81 2550.59
   18:23:19.954.09-Sep-2020 5281.01 4060.47 74.57 21.00 240.01 2550.59
   18:23:20.154.09-Sep-2020 5281.01 4060.31 74.57 21.00 240.21 2550.59
   18:23:20.353.09-Sep-2020 5281.01 4060.30 74.57 21.00 240.41 2550.59
   18:23:20.553.09-Sep-2020 5281.01 4059.87 74.57 21.00 240.61 2550.59
   18:23:20.753.09-Sep-2020 5281.01 4058.47 74.57 21.00 240.81 2550.59
   18:23:20.953.09-Sep-2020 5281.01 4058.47 74.57 21.00 241.01 2550.59
   18:23:21.153.09-Sep-2020 5281.01 4059.52 74.57 21.00 241.21 2550.59
   18:23:21.353.09-Sep-2020 5281.01 4059.84 74.57 21.00 241.41 2550.59
   18:23:21.553.09-Sep-2020 5281.01 4060.26 74.57 21.00 241.61 2550.59
   18:23:21.752.09-Sep-2020 5281.01 4060.11 74.57 21.00 241.81 2550.59
   18:23:21.952.09-Sep-2020 5281.01 4060.11 74.57 21.00 242.01 2550.59
   18:23:22.152.09-Sep-2020 5281.01 4060.28 74.57 21.00 242.21 2550.59
   18:23:22.352.09-Sep-2020 5281.01 4060.32 74.57 21.00 242.41 2550.59
   18:23:22.552.09-Sep-2020 5281.01 4060.36 74.57 21.00 242.61 2550.59
   18:23:22.752.09-Sep-2020 5281.01 4060.37 74.57 21.00 242.81 2550.59
   18:23:22.951.09-Sep-2020 5281.01 4060.37 74.57 21.00 243.01 2550.59
   18:23:23.151.09-Sep-2020 5281.01 4060.23 74.57 21.00 243.21 2550.59
   18:23:23.351.09-Sep-2020 5281.01 4060.24 74.57 21.00 243.41 2550.59
   18:23:23.551.09-Sep-2020 5281.01 4060.26 74.57 21.00 243.61 2550.59
   18:23:23.751.09-Sep-2020 5281.01 4060.30 74.57 21.00 243.81 2550.59
   18:23:23.951.09-Sep-2020 5281.01 4060.30 74.57 21.00 244.01 2550.59
   18:23:24.151.09-Sep-2020 5281.01 4059.06 74.57 21.00 244.21 2550.59
   18:23:24.350.09-Sep-2020 5281.01 4059.01 74.57 21.00 244.41 2550.59
   18:23:24.550.09-Sep-2020 5281.01 4059.61 74.57 21.00 244.61 2550.59
   18:23:24.750.09-Sep-2020 5281.01 4059.80 74.57 21.00 244.81 2550.59
   18:23:24.950.09-Sep-2020 5281.01 4059.80 74.57 21.00 245.01 2550.59
   18:23:25.150.09-Sep-2020 5281.01 4058.81 74.57 21.00 245.21 2550.59
   18:23:25.350.09-Sep-2020 5281.01 4059.36 74.57 21.00 245.41 2550.59
   18:23:25.549.09-Sep-2020 5281.01 4059.94 74.57 21.00 245.61 2550.59
   18:23:25.749.09-Sep-2020 5281.01 4060.29 74.57 21.00 245.81 2550.59
   18:23:25.949.09-Sep-2020 5281.01 4060.29 74.57 21.00 246.01 2550.59
   18:23:26.149.09-Sep-2020 5281.01 4060.95 74.57 21.00 246.21 2550.59
   18:23:26.349.09-Sep-2020 5281.01 4060.58 74.57 21.00 246.41 2550.59
   18:23:26.549.09-Sep-2020 5281.01 4059.31 74.57 21.00 246.61 2550.59
   18:23:26.748.09-Sep-2020 5281.01 4059.98 74.57 21.00 246.81 2550.59
   18:23:26.948.09-Sep-2020 5281.01 4059.98 74.57 21.00 247.01 2550.59
   18:23:27.148.09-Sep-2020 5281.01 4060.91 74.57 21.00 247.21 2550.59
   18:23:27.348.09-Sep-2020 5281.01 4061.34 74.57 21.00 247.41 2550.59
   18:23:27.548.09-Sep-2020 5281.01 4061.21 74.57 21.00 247.61 2550.59
   18:23:27.748.09-Sep-2020 5281.01 4061.38 74.57 21.00 247.81 2550.59
   18:23:27.948.09-Sep-2020 5281.01 4061.38 74.57 21.00 248.01 2550.59
   18:23:28.147.09-Sep-2020 5281.01 4059.92 74.57 21.00 248.21 2550.59
