~Version Information
 VERS.                  2.0:   CWLS log ASCII Standard -VERSION 2.0
 WRAP.                   NO:   One line per depth step
~Well Information Block
#MNEM.UNIT     VALUE/NAME     DESCRIPTION
#---------     -----------    ---------------------------
 STRT.S             16:52:14 09-Sep-20: START TIME 16:52:14 09-Sep-20
 STOP.S             17:00:39 09-Sep-20: STOP TIME  17:00:39 09-Sep-20
 STEP.S                   0.00: STEP TIME
 NULL.                 -999.25: NULL VALUE
 MDS .        Operator Entered:  MAG DATA SOURCE
 PDAT.          Mean Sea Level:  PERMANENT DATUM
 DCON.         Sperry Drilling:  DIRECTNL CONTR
 RIG .              West Azeri:  RIG NAME
 WELL.           C40 (Slot 20):  WELL NAME
 SRVC.     Turan Drilling Engineering:  CONTRACTOR
 FLD .                     ACG:  FIELD NAME
 CTRY.              Azerbaijan:  COUNTRY NAME
 PROV.                    Baku:  PROVINCE
 STAT.                    Baku:  STATE NAME
 REGN.                   EESSA:  REGION
 BASE.              Azerbaijan:  LOGGING EQUIPMENT BASE LOCATION
 COMP.     BP Exploration (Caspian Sea) Ltd:  COMPANY
 WTYP.                Deviated:  WELL TYPE
 SON .        AZ-XX-0906344804:  JOB NUMBER
 FTOP.          Formation Tops:  FORM TOPS DESC
 ILTD.               Lithology:  INTERP LTH DESC
 SVYD.                  Survey:  SURVEY DESC
 DMOD.             Drill Model:  DRILL MOD DESC
 HPTY.       Minimum Curvature:  HOLE POS TYPE
 NREF.                    Grid:  NORTH REFERENCE
 SPUD.               01-Jan-20:  SPUD DATE
 DATE.      00.59.44 15-Sep-20:  END TIME
 STIM.      12.00.00 12-Jun-20:  START TIME
 DMF .             Drill Floor:  DRILL MEAS FROM
 DFST.                        :  DIST FSL TEXT
 DFWT.                        :  DIST FWL TEXT
 API .                        :  API NUMBER
 CNTY.                        :  COUNTY
 UWI .                        :  UNIQUE WELL IDENTIFIER
 LOC .                        :  LOCATION
 LMF .             Drill Floor:  LOG MEASURED FROM
 VSNS.m                   2.88:  VERT SEC N/S
 VSEW.m                  -3.84:  VERT SEC E/W
 AGAP.m                  43.42:  AIR GAP
 APD .m                  43.42:  DEPTH ABOVE PD
 WDMS.m                 118.27:  WD ELEV
 EGL .m                   0.00:  GROUND ELEVATION
 EPD .m                   0.00:  ELEVATION
 AZTC.deg                 6.23:  AZM TOTAL CORR
 GRDC.deg                 0.20:  GRID CORRECTION
 MDEC.deg                 6.43:  MAGNETIC DECL
 MDIP.deg                59.49:  MAGNETIC DIP
 MFLD.nT              50277.00:  MAGNETIC FIELD
 GVFD.g                   1.00:  GRAVITY FIELD
 VSDR.deg               173.20:  VERT SEC DIRECT
 TDD .m                5790.01:  TOTAL DEPTH (DRILLER)
 SDEP.m                5231.01:  START DEPTH
 DFSL.m                   0.00:  DISTANCE FSL
 DFWL.m                   0.00:  DISTANCE FWL
 UTMY.m             4435808.83:  UTM Y
 UTMX.m              526266.40:  UTM X
 WHEW.m                  -3.84:  WELL HEAD E/W
 WHNS.m                   2.88:  WELL HEAD N/S
 LONG.deg                51.31:  LONGITUDE
 LATI.deg                40.06:  LATITUDE
 TVDS.m                  43.42:  TVDSS CORRECTN
 DEP .m                 430.08:  DEPTH
 EKB .m                  43.42:  KB ELEVATION
 EDF .m                  43.42:  DF ELEVATION
 TDL .m                 559.00:  TOTAL DEPTH (LOGGER)
 MAGU.                 1849381:  MAGUTM CHECKSUM
 VSC .                       0:  VS TO CLOSURE
~Parameter Information Block
#MNEM.UNIT       Value        Description
#---------     -----------    ---------------------------
 AV  .mps                 4.87:  Ann Velocity 
 AVMX.mps                 7.08:  Max Ann Veloc 
 AZIF.deg               108.87:  Azm, Final 
 BHAT.                  Rotary:  BHA Type 
 BROT.°/30m               0.35:  Build Rotating 
 BS  .in                  8.50:  Bit Size 
 BSZ .in                  8.50:  Bit Size 
 BTPL.psig              360.00:  Bit Press Loss 
 CABU.                     Yes:  Customer Abuse 
 TCS .hr                106.24:  Time Ciculation Ended 
 CV  .mps                 1.77:  Crit Velocity 
 CVMX.mps                 2.03:  Max Crit Veloc 
 DD1 .         Aykhan Agagulov:  Direct Drillr 1 
 DD2 .            Nonso Okofor:  Direct Drillr 2 
 DDSV.               Geo-Pilot:  DD Service 
 DEFF.%                  98.00:  % Det Eff 
 DLRX.°/30m               0.50:  Dogleg Rot Max 
 DLSO.°/30m               0.40:  Dogleg Oriented 
 DLSX.°/30m               0.94:  Dogleg Str Max 
 DRET.      20.30.00 08-Sep-20:  Drill End Time 
 DRST.      22.15.00 06-Sep-20:  Drill Start Tim 
 DTIM.hr                 31.31:  Time Drilling 
 EDEP.m                5790.01:  End Depth 
 ENG1.           Amrah Tahirov:  Engineer 1 
 ENG2.         Dair Mahammadov:  Engineer 2 
 ENG3.           Emil Huseynov:  Engineer 3 
 ETIM.      04.01.04 12-Sep-20:  End Time 
 FLOI.gpm               450.00:  Flow In 
 FLON.gpm               450.00:  Flow In Min 
 FLOS.cptm                2.00:  Fluid Loss 
 FLOX.gpm               450.00:  Flow In Max 
 FTRO.       Formation Presure:  FTWD Run Obj 
 HFLO.                      No:  High Flow 
 HPRE.                      No:  High Pressure 
 HTEM.                      No:  High Temp 
 HYDO.m                   1.80:  Hydro Offset 
 IFIN.deg                72.03:  Inc, Final 
 IMAX.deg                73.72:  Inc Max 
 IMIN.deg                70.94:  Inc Min 
 IMND.m                5508.52:  Inc Min Depth 
 IMXD.m                5253.60:  Inc Max Depth 
 JARR.                      No:  Jarring 
 LETM.      20.30.00 08-Sep-20:  Log End Time 
 LOST.hr                     0:  Lost Rig Time 
 LSTM.      22.15.00 06-Sep-20:  Log Start Time 
 MDCL.ppm             36000.00:  Mud Chlorides 
 MDES.     Inversion Oil/Synthetic:  Mud Desc 
 DFD .sg                  1.44:  Mud Density 
 MDMN.sg                  1.44:  Dens Mud Min 
 MDMX.sg                  1.57:  Dens Mud Max 
 MOIL.                      70:  Run Mud Oil % 
 MOWR.                   70:30:  Run Mud OWR 
 MSND.                       0:  Run Mud Sand % 
 MSOL.                      21:  Run Mud Solids% 
 DFV .spqt               68.00:  Mud Viscosity 
 MWOD.in                  6.75:  MWD Tool OD 
 MWSI.                     Yes:  Serv Intrp, MWD 
 OTIM.hr                174.84:  Time Operating 
 PCON.           Look Like New:  Pad Condition 
 PMAX.psia            10616.93:  Press Op, Max 
 PV  .cP                 50.00:  Mud PV 
 RUN .                     700:  Run Number 
 ROPA.m/hr               14.24:  ROP Avg 
 ROPN.m/hr               10.00:  ROP Min 
 ROPX.m/hr               32.00:  ROP Max 
 RPMA.rpm               120.90:  RPM Surface Avg 
 RPMN.rpm               120.00:  RPM Surface Min 
 RPMX.rpm               140.00:  RPM Surface Max 
 RRUN.                    0700:  Rig Run Number 
 RTIM.hr                  3.20:  Time Reaming 
 SAZI.deg               109.99:  Azm, Start 
 SDEP.m                5231.01:  Start Depth 
 SIDD.                      No:  Serv Intrp, DD 
 SINC.deg                73.72:  Inc, Start 
 SPPA.psig             3051.00:  SPP Avg 
 SPPN.psig             2950.00:  SPP Min 
 SPPX.psig             3250.00:  SPP Max 
 STIM.      08.00.00 05-Sep-20:  Start Time 
 SVCS.                 DD, MWD:  Services 
 SVER.                    9.20:  Sperry Version 
 TDAT.m                 559.00:  Tot Depth Attmp 
 TDDF.                      No:  Trip for DD 
 TDLG.m                 559.00:  Tot Depth Loggd 
 TFF .                      No:  Trip for Fail 
 TQAA.f-kp               26.49:  Torque Abs Avg 
 TQAN.f-kp               25.00:  Torque Abs Min 
 TQAX.f-kp               27.00:  Torque Abs Max 
 TRRT.°/30m               1.50:  Turn Rotating 
 MRT .                    HCIM:  Maximum Recorded Temperature 
 TTMX.degC               90.20:  Max Tool Temp 
 VS01.                90542671:  Virtual Str1 SN 
 VS02.                90545185:  Virtual Str2 SN 
 VS03.                90602015:  Virtual Str3 SN 
 VS04.                90515230:  Virtual Str4 SN 
 WBMN.klb                 5.00:  WOB Min 
 WOBA.klb                14.79:  WOB Avg 
 WOBX.klb                20.00:  WOB Max 
 YP  .lhf2               29.00:  Yield Point 
~Curve Information Block
#MNEM.UNIT                 API CODE     Curve Description
#---------               -----------    ---------------------------
 TIME.HHMMSS            00 000 000 000:  GT Time & Date
 GTDEPTH.m              00 000 000 000:  GT Depth
 GTPQH.psia             00 000 000 000:  GT HR Quartz Pressure
 GTTQ.degC              00 000 000 000:  GT Quartz Temperature
 GTTN.NONE              00 000 000 000:  GT Test Number
 GTET.sec               00 000 000 000:  GT Elapsed Test Time
 GTTVD.m                00 000 000 000:  GT True Vertical Depth
#Other Information
#
#WARRANTY: Halliburton will use its best efforts to furnish customers with 
#accurate information and interpretations that are part of, and incident to, the services 
#provided.  However, Halliburton cannot and does not warrant the accuracy 
#or correctness of such information and interpretations.  Under no circumstances should any 
#such information or interpretation be relied upon as the sole basis for any drilling, 
#completion, production, or financial decision or any procedure involving any risk to the 
#safety of any drilling venture, drilling rig or its crew or any other third party.  The 
#Customer has full responsibility for all drilling, completion and production operation.  
#Halliburton makes no representations or warranties, either expressed or 
#implied, including, but not limited to, the implied warranties of merchantability or fitness 
#for a particular purpose, with respect to the services rendered.  In no event will 
#Halliburton be liable for failure to obtain any particular results or for 
#any damages, including, but not limited to, indirect, special or consequential damages, 
#resulting from the use of any information or interpretation provided by Halliburton.
#
~A           TIME           GTDEPTH  GTPQH  GTTQ  GTTN   GTET   GTTVD  
# ...
   16:53:21.974.09-Sep-2020 5303.01 6279.24 74.73 19.00  67.83 2557.08
   16:53:22.174.09-Sep-2020 5303.01 6280.14 74.73 19.00  68.03 2557.08
   16:53:22.374.09-Sep-2020 5303.01 6280.14 74.73 19.00  68.23 2557.08
   16:53:22.574.09-Sep-2020 5303.01 6280.27 74.73 19.00  68.43 2557.08
   16:53:22.774.09-Sep-2020 5303.01 6280.32 74.73 19.00  68.63 2557.08
   16:53:22.974.09-Sep-2020 5303.01 6291.42 74.73 19.00  68.83 2557.08
   16:53:23.174.09-Sep-2020 5303.01 6278.30 74.73 19.00  69.03 2557.08
   16:53:23.374.09-Sep-2020 5303.01 6280.05 74.73 19.00  69.23 2557.08
   16:53:23.574.09-Sep-2020 5303.01 6282.30 74.73 19.00  69.43 2557.08
   16:53:23.774.09-Sep-2020 5303.01 6281.65 74.73 19.00  69.63 2557.08
   16:53:23.975.09-Sep-2020 5303.01 6282.35 74.73 19.00  69.83 2557.08
   16:53:24.175.09-Sep-2020 5303.01 6281.95 74.73 19.00  70.03 2557.08
   16:53:24.375.09-Sep-2020 5303.01 6281.95 74.73 19.00  70.23 2557.08
   16:53:24.575.09-Sep-2020 5303.01 6290.71 74.73 19.00  70.43 2557.08
   16:53:24.775.09-Sep-2020 5303.01 6281.93 74.73 19.00  70.63 2557.08
   16:53:24.975.09-Sep-2020 5303.01 6282.22 74.73 19.00  70.83 2557.08
   16:53:25.175.09-Sep-2020 5303.01 6283.42 74.73 19.00  71.03 2557.08
   16:53:25.375.09-Sep-2020 5303.01 6283.42 74.73 19.00  71.23 2557.08
   16:53:25.575.09-Sep-2020 5303.01 6284.20 74.73 19.00  71.43 2557.08
   16:53:25.775.09-Sep-2020 5303.01 6283.92 74.73 19.00  71.63 2557.08
   16:53:25.976.09-Sep-2020 5303.01 6283.39 74.73 19.00  71.83 2557.08
   16:53:26.176.09-Sep-2020 5303.01 6283.67 74.73 19.00  72.03 2557.08
   16:53:26.376.09-Sep-2020 5303.01 6283.67 74.73 19.00  72.23 2557.08
   16:53:26.576.09-Sep-2020 5303.01 6284.20 74.73 19.00  72.43 2557.08
   16:53:26.776.09-Sep-2020 5303.01 6284.86 74.73 19.00  72.63 2557.08
   16:53:26.976.09-Sep-2020 5303.01 6285.05 74.73 19.00  72.83 2557.08
   16:53:27.176.09-Sep-2020 5303.01 6285.15 74.73 19.00  73.04 2557.08
   16:53:27.376.09-Sep-2020 5303.01 6285.15 74.73 19.00  73.24 2557.08
   16:53:27.576.09-Sep-2020 5303.01 6285.18 74.73 19.00  73.44 2557.08
   16:53:27.776.09-Sep-2020 5303.01 6285.18 74.73 19.00  73.64 2557.08
   16:53:27.976.09-Sep-2020 5303.01 6285.26 74.73 19.00  73.84 2557.08
   16:53:28.177.09-Sep-2020 5303.01 6290.92 74.73 19.00  74.04 2557.08
   16:53:28.377.09-Sep-2020 5303.01 6290.92 74.73 19.00  74.24 2557.08
   16:53:28.577.09-Sep-2020 5303.01 6284.82 74.73 19.00  74.44 2557.08
   16:53:28.777.09-Sep-2020 5303.01 6286.50 74.73 19.00  74.64 2557.08
   16:53:28.977.09-Sep-2020 5303.01 6285.91 74.73 19.00  74.84 2557.08
   16:53:29.177.09-Sep-2020 5303.01 6286.05 74.73 19.00  75.04 2557.08
   16:53:29.377.09-Sep-2020 5303.01 6286.05 74.73 19.00  75.24 2557.08
   16:53:29.577.09-Sep-2020 5303.01 6285.27 74.73 19.00  75.44 2557.08
   16:53:29.777.09-Sep-2020 5303.01 6285.22 74.73 19.00  75.64 2557.08
   16:53:29.977.09-Sep-2020 5303.01 6285.74 74.73 19.00  75.84 2557.08
   16:53:30.178.09-Sep-2020 5303.01 6286.11 74.73 19.00  76.04 2557.08
   16:53:30.378.09-Sep-2020 5303.01 6286.11 74.73 19.00  76.24 2557.08
   16:53:30.578.09-Sep-2020 5303.01 6286.20 74.73 19.00  76.44 2557.08
   16:53:30.778.09-Sep-2020 5303.01 6286.15 74.73 19.00  76.64 2557.08
   16:53:30.978.09-Sep-2020 5303.01 6286.28 74.73 19.00  76.84 2557.08
   16:53:31.178.09-Sep-2020 5303.01 6286.71 74.73 19.00  77.04 2557.08
   16:53:31.378.09-Sep-2020 5303.01 6286.95 74.73 19.00  77.24 2557.08
   16:53:31.578.09-Sep-2020 5303.01 6292.00 74.73 19.00  77.44 2557.08
   16:53:31.778.09-Sep-2020 5303.01 6287.88 74.73 19.00  77.64 2557.08
   16:53:31.978.09-Sep-2020 5303.01 6286.02 74.73 19.00  77.84 2557.08
   16:53:32.178.09-Sep-2020 5303.01 6287.56 74.73 19.00  78.04 2557.08
   16:53:32.379.09-Sep-2020 5303.01 6287.56 74.73 19.00  78.24 2557.08
   16:53:32.579.09-Sep-2020 5303.01 6287.93 74.73 19.00  78.44 2557.08
   16:53:32.779.09-Sep-2020 5303.01 6298.12 74.73 19.00  78.64 2557.08
   16:53:32.979.09-Sep-2020 5303.01 6284.80 74.73 19.00  78.84 2557.08
   16:53:33.179.09-Sep-2020 5303.01 6286.12 74.73 19.00  79.04 2557.08
   16:53:33.379.09-Sep-2020 5303.01 6286.12 74.73 19.00  79.24 2557.08
   16:53:33.579.09-Sep-2020 5303.01 6287.87 74.73 19.00  79.44 2557.08
   16:53:33.779.09-Sep-2020 5303.01 6288.50 74.73 19.00  79.64 2557.08
   16:53:33.979.09-Sep-2020 5303.01 6299.18 74.73 19.00  79.84 2557.08
   16:53:34.179.09-Sep-2020 5303.01 6286.08 74.73 19.00  80.04 2557.08
   16:53:34.380.09-Sep-2020 5303.01 6286.08 74.73 19.00  80.24 2557.08
   16:53:34.580.09-Sep-2020 5303.01 6289.56 74.72 19.00  80.44 2557.08
   16:53:34.780.09-Sep-2020 5303.01 6288.61 74.73 19.00  80.64 2557.08
   16:53:34.980.09-Sep-2020 5303.01 6297.84 74.72 19.00  80.84 2557.08
   16:53:35.180.09-Sep-2020 5303.01 6288.30 74.72 19.00  81.04 2557.08
   16:53:35.380.09-Sep-2020 5303.01 6288.30 74.72 19.00  81.24 2557.08
   16:53:35.580.09-Sep-2020 5303.01 6289.93 74.72 19.00  81.44 2557.08
   16:53:35.780.09-Sep-2020 5303.01 6289.84 74.72 19.00  81.64 2557.08
   16:53:35.980.09-Sep-2020 5303.01 6290.46 74.72 19.00  81.84 2557.08
   16:53:36.180.09-Sep-2020 5303.01 6290.05 74.72 19.00  82.04 2557.08
   16:53:36.381.09-Sep-2020 5303.01 6290.05 74.72 19.00  82.24 2557.08
   16:53:36.581.09-Sep-2020 5303.01 6287.52 74.72 19.00  82.44 2557.08
   16:53:36.781.09-Sep-2020 5303.01 6289.53 74.72 19.00  82.64 2557.08
   16:53:36.981.09-Sep-2020 5303.01 6291.76 74.72 19.00  82.84 2557.08
   16:53:37.181.09-Sep-2020 5303.01 6291.32 74.72 19.00  83.04 2557.08
   16:53:37.381.09-Sep-2020 5303.01 6291.32 74.72 19.00  83.24 2557.08
   16:53:37.581.09-Sep-2020 5303.01 6291.70 74.72 19.00  83.44 2557.08
   16:53:37.781.09-Sep-2020 5303.01 6292.06 74.72 19.00  83.64 2557.08
   16:53:37.981.09-Sep-2020 5303.01 6292.45 74.72 19.00  83.84 2557.08
   16:53:38.181.09-Sep-2020 5303.01 6292.51 74.72 19.00  84.04 2557.08
   16:53:38.381.09-Sep-2020 5303.01 6292.51 74.72 19.00  84.24 2557.08
   16:53:38.582.09-Sep-2020 5303.01 6291.99 74.72 19.00  84.44 2557.08
   16:53:38.782.09-Sep-2020 5303.01 6292.02 74.72 19.00  84.64 2557.08
   16:53:38.982.09-Sep-2020 5303.01 6292.49 74.72 19.00  84.84 2557.08
   16:53:39.182.09-Sep-2020 5303.01 6292.86 74.72 19.00  85.04 2557.08
   16:53:39.382.09-Sep-2020 5303.01 6292.86 74.72 19.00  85.24 2557.08
   16:53:39.582.09-Sep-2020 5303.01 6293.15 74.72 19.00  85.44 2557.08
   16:53:39.782.09-Sep-2020 5303.01 6293.23 74.72 19.00  85.64 2557.08
   16:53:39.982.09-Sep-2020 5303.01 6293.37 74.72 19.00  85.84 2557.08
   16:53:40.182.09-Sep-2020 5303.01 6300.24 74.72 19.00  86.04 2557.08
   16:53:40.382.09-Sep-2020 5303.01 6300.24 74.72 19.00  86.24 2557.08
   16:53:40.583.09-Sep-2020 5303.01 6294.57 74.72 19.00  86.44 2557.08
   16:53:40.783.09-Sep-2020 5303.01 6294.28 74.72 19.00  86.64 2557.08
   16:53:40.983.09-Sep-2020 5303.01 6294.50 74.72 19.00  86.84 2557.08
   16:53:41.183.09-Sep-2020 5303.01 6294.49 74.72 19.00  87.04 2557.08
   16:53:41.383.09-Sep-2020 5303.01 6294.49 74.72 19.00  87.24 2557.08
   16:53:41.583.09-Sep-2020 5303.01 6294.64 74.72 19.00  87.44 2557.08
   16:53:41.783.09-Sep-2020 5303.01 6294.61 74.72 19.00  87.64 2557.08
   16:53:41.983.09-Sep-2020 5303.01 6294.37 74.72 19.00  87.84 2557.08
   16:53:42.183.09-Sep-2020 5303.01 6294.18 74.72 19.00  88.04 2557.08
   16:53:42.383.09-Sep-2020 5303.01 6294.18 74.72 19.00  88.24 2557.08
   16:53:42.583.09-Sep-2020 5303.01 6295.09 74.72 19.00  88.44 2557.08
   16:53:42.784.09-Sep-2020 5303.01 6295.04 74.72 19.00  88.64 2557.08
   16:53:42.984.09-Sep-2020 5303.01 6294.59 74.72 19.00  88.84 2557.08
   16:53:43.184.09-Sep-2020 5303.01 6294.40 74.72 19.00  89.04 2557.08
   16:53:43.384.09-Sep-2020 5303.01 6294.40 74.72 19.00  89.24 2557.08
   16:53:43.584.09-Sep-2020 5303.01 6301.41 74.72 19.00  89.44 2557.08
   16:53:43.784.09-Sep-2020 5303.01 6296.01 74.72 19.00  89.64 2557.08
   16:53:43.984.09-Sep-2020 5303.01 6295.95 74.72 19.00  89.84 2557.08
   16:53:44.184.09-Sep-2020 5303.01 6295.49 74.72 19.00  90.04 2557.08
   16:53:44.384.09-Sep-2020 5303.01 6295.49 74.72 19.00  90.24 2557.08
