~Version Information
 VERS.                  2.0:   CWLS log ASCII Standard -VERSION 2.0
 WRAP.                   NO:   One line per depth step
~Well Information Block
#MNEM.UNIT     VALUE/NAME     DESCRIPTION
#---------     -----------    ---------------------------
 STRT.S             11:14:18 09-Sep-20: START TIME 11:14:18 09-Sep-20
 STOP.S             11:21:20 09-Sep-20: STOP TIME  11:21:20 09-Sep-20
 STEP.S                   0.00: STEP TIME
 NULL.                 -999.25: NULL VALUE
 MDS .        Operator Entered:  MAG DATA SOURCE
 PDAT.          Mean Sea Level:  PERMANENT DATUM
 DCON.         Sperry Drilling:  DIRECTNL CONTR
 RIG .              West Azeri:  RIG NAME
 WELL.           C40 (Slot 20):  WELL NAME
 SRVC.     Turan Drilling Engineering:  CONTRACTOR
 FLD .                     ACG:  FIELD NAME
 CTRY.              Azerbaijan:  COUNTRY NAME
 PROV.                    Baku:  PROVINCE
 STAT.                    Baku:  STATE NAME
 REGN.                   EESSA:  REGION
 BASE.              Azerbaijan:  LOGGING EQUIPMENT BASE LOCATION
 COMP.     BP Exploration (Caspian Sea) Ltd:  COMPANY
 WTYP.                Deviated:  WELL TYPE
 SON .        AZ-XX-0906344804:  JOB NUMBER
 FTOP.          Formation Tops:  FORM TOPS DESC
 ILTD.               Lithology:  INTERP LTH DESC
 SVYD.                  Survey:  SURVEY DESC
 DMOD.             Drill Model:  DRILL MOD DESC
 HPTY.       Minimum Curvature:  HOLE POS TYPE
 NREF.                    Grid:  NORTH REFERENCE
 SPUD.               01-Jan-20:  SPUD DATE
 DATE.      00.59.44 15-Sep-20:  END TIME
 STIM.      12.00.00 12-Jun-20:  START TIME
 DMF .             Drill Floor:  DRILL MEAS FROM
 DFST.                        :  DIST FSL TEXT
 DFWT.                        :  DIST FWL TEXT
 API .                        :  API NUMBER
 CNTY.                        :  COUNTY
 UWI .                        :  UNIQUE WELL IDENTIFIER
 LOC .                        :  LOCATION
 LMF .             Drill Floor:  LOG MEASURED FROM
 VSNS.m                   2.88:  VERT SEC N/S
 VSEW.m                  -3.84:  VERT SEC E/W
 AGAP.m                  43.42:  AIR GAP
 APD .m                  43.42:  DEPTH ABOVE PD
 WDMS.m                 118.27:  WD ELEV
 EGL .m                   0.00:  GROUND ELEVATION
 EPD .m                   0.00:  ELEVATION
 AZTC.deg                 6.23:  AZM TOTAL CORR
 GRDC.deg                 0.20:  GRID CORRECTION
 MDEC.deg                 6.43:  MAGNETIC DECL
 MDIP.deg                59.49:  MAGNETIC DIP
 MFLD.nT              50277.00:  MAGNETIC FIELD
 GVFD.g                   1.00:  GRAVITY FIELD
 VSDR.deg               173.20:  VERT SEC DIRECT
 TDD .m                5790.01:  TOTAL DEPTH (DRILLER)
 SDEP.m                5231.01:  START DEPTH
 DFSL.m                   0.00:  DISTANCE FSL
 DFWL.m                   0.00:  DISTANCE FWL
 UTMY.m             4435808.83:  UTM Y
 UTMX.m              526266.40:  UTM X
 WHEW.m                  -3.84:  WELL HEAD E/W
 WHNS.m                   2.88:  WELL HEAD N/S
 LONG.deg                51.31:  LONGITUDE
 LATI.deg                40.06:  LATITUDE
 TVDS.m                  43.42:  TVDSS CORRECTN
 DEP .m                 430.08:  DEPTH
 EKB .m                  43.42:  KB ELEVATION
 EDF .m                  43.42:  DF ELEVATION
 TDL .m                 559.00:  TOTAL DEPTH (LOGGER)
 MAGU.                 1849381:  MAGUTM CHECKSUM
 VSC .                       0:  VS TO CLOSURE
~Parameter Information Block
#MNEM.UNIT       Value        Description
#---------     -----------    ---------------------------
 AV  .mps                 4.87:  Ann Velocity 
 AVMX.mps                 7.08:  Max Ann Veloc 
 AZIF.deg               108.87:  Azm, Final 
 BHAT.                  Rotary:  BHA Type 
 BROT.°/30m               0.35:  Build Rotating 
 BS  .in                  8.50:  Bit Size 
 BSZ .in                  8.50:  Bit Size 
 BTPL.psig              360.00:  Bit Press Loss 
 CABU.                     Yes:  Customer Abuse 
 TCS .hr                106.24:  Time Ciculation Ended 
 CV  .mps                 1.77:  Crit Velocity 
 CVMX.mps                 2.03:  Max Crit Veloc 
 DD1 .         Aykhan Agagulov:  Direct Drillr 1 
 DD2 .            Nonso Okofor:  Direct Drillr 2 
 DDSV.               Geo-Pilot:  DD Service 
 DEFF.%                  98.00:  % Det Eff 
 DLRX.°/30m               0.50:  Dogleg Rot Max 
 DLSO.°/30m               0.40:  Dogleg Oriented 
 DLSX.°/30m               0.94:  Dogleg Str Max 
 DRET.      20.30.00 08-Sep-20:  Drill End Time 
 DRST.      22.15.00 06-Sep-20:  Drill Start Tim 
 DTIM.hr                 31.31:  Time Drilling 
 EDEP.m                5790.01:  End Depth 
 ENG1.           Amrah Tahirov:  Engineer 1 
 ENG2.         Dair Mahammadov:  Engineer 2 
 ENG3.           Emil Huseynov:  Engineer 3 
 ETIM.      04.01.04 12-Sep-20:  End Time 
 FLOI.gpm               450.00:  Flow In 
 FLON.gpm               450.00:  Flow In Min 
 FLOS.cptm                2.00:  Fluid Loss 
 FLOX.gpm               450.00:  Flow In Max 
 FTRO.       Formation Presure:  FTWD Run Obj 
 HFLO.                      No:  High Flow 
 HPRE.                      No:  High Pressure 
 HTEM.                      No:  High Temp 
 HYDO.m                   1.80:  Hydro Offset 
 IFIN.deg                72.03:  Inc, Final 
 IMAX.deg                73.72:  Inc Max 
 IMIN.deg                70.94:  Inc Min 
 IMND.m                5508.52:  Inc Min Depth 
 IMXD.m                5253.60:  Inc Max Depth 
 JARR.                      No:  Jarring 
 LETM.      20.30.00 08-Sep-20:  Log End Time 
 LOST.hr                     0:  Lost Rig Time 
 LSTM.      22.15.00 06-Sep-20:  Log Start Time 
 MDCL.ppm             36000.00:  Mud Chlorides 
 MDES.     Inversion Oil/Synthetic:  Mud Desc 
 DFD .sg                  1.44:  Mud Density 
 MDMN.sg                  1.44:  Dens Mud Min 
 MDMX.sg                  1.57:  Dens Mud Max 
 MOIL.                      70:  Run Mud Oil % 
 MOWR.                   70:30:  Run Mud OWR 
 MSND.                       0:  Run Mud Sand % 
 MSOL.                      21:  Run Mud Solids% 
 DFV .spqt               68.00:  Mud Viscosity 
 MWOD.in                  6.75:  MWD Tool OD 
 MWSI.                     Yes:  Serv Intrp, MWD 
 OTIM.hr                174.84:  Time Operating 
 PCON.           Look Like New:  Pad Condition 
 PMAX.psia            10616.93:  Press Op, Max 
 PV  .cP                 50.00:  Mud PV 
 RUN .                     700:  Run Number 
 ROPA.m/hr               14.24:  ROP Avg 
 ROPN.m/hr               10.00:  ROP Min 
 ROPX.m/hr               32.00:  ROP Max 
 RPMA.rpm               120.90:  RPM Surface Avg 
 RPMN.rpm               120.00:  RPM Surface Min 
 RPMX.rpm               140.00:  RPM Surface Max 
 RRUN.                    0700:  Rig Run Number 
 RTIM.hr                  3.20:  Time Reaming 
 SAZI.deg               109.99:  Azm, Start 
 SDEP.m                5231.01:  Start Depth 
 SIDD.                      No:  Serv Intrp, DD 
 SINC.deg                73.72:  Inc, Start 
 SPPA.psig             3051.00:  SPP Avg 
 SPPN.psig             2950.00:  SPP Min 
 SPPX.psig             3250.00:  SPP Max 
 STIM.      08.00.00 05-Sep-20:  Start Time 
 SVCS.                 DD, MWD:  Services 
 SVER.                    9.20:  Sperry Version 
 TDAT.m                 559.00:  Tot Depth Attmp 
 TDDF.                      No:  Trip for DD 
 TDLG.m                 559.00:  Tot Depth Loggd 
 TFF .                      No:  Trip for Fail 
 TQAA.f-kp               26.49:  Torque Abs Avg 
 TQAN.f-kp               25.00:  Torque Abs Min 
 TQAX.f-kp               27.00:  Torque Abs Max 
 TRRT.°/30m               1.50:  Turn Rotating 
 MRT .                    HCIM:  Maximum Recorded Temperature 
 TTMX.degC               90.20:  Max Tool Temp 
 VS01.                90542671:  Virtual Str1 SN 
 VS02.                90545185:  Virtual Str2 SN 
 VS03.                90602015:  Virtual Str3 SN 
 VS04.                90515230:  Virtual Str4 SN 
 WBMN.klb                 5.00:  WOB Min 
 WOBA.klb                14.79:  WOB Avg 
 WOBX.klb                20.00:  WOB Max 
 YP  .lhf2               29.00:  Yield Point 
~Curve Information Block
#MNEM.UNIT                 API CODE     Curve Description
#---------               -----------    ---------------------------
 TIME.HHMMSS            00 000 000 000:  GT Time & Date
 GTDEPTH.m              00 000 000 000:  GT Depth
 GTPQH.psia             00 000 000 000:  GT HR Quartz Pressure
 GTTQ.degC              00 000 000 000:  GT Quartz Temperature
 GTTN.NONE              00 000 000 000:  GT Test Number
 GTET.sec               00 000 000 000:  GT Elapsed Test Time
 GTTVD.m                00 000 000 000:  GT True Vertical Depth
#Other Information
#
#WARRANTY: Halliburton will use its best efforts to furnish customers with 
#accurate information and interpretations that are part of, and incident to, the services 
#provided.  However, Halliburton cannot and does not warrant the accuracy 
#or correctness of such information and interpretations.  Under no circumstances should any 
#such information or interpretation be relied upon as the sole basis for any drilling, 
#completion, production, or financial decision or any procedure involving any risk to the 
#safety of any drilling venture, drilling rig or its crew or any other third party.  The 
#Customer has full responsibility for all drilling, completion and production operation.  
#Halliburton makes no representations or warranties, either expressed or 
#implied, including, but not limited to, the implied warranties of merchantability or fitness 
#for a particular purpose, with respect to the services rendered.  In no event will 
#Halliburton be liable for failure to obtain any particular results or for 
#any damages, including, but not limited to, indirect, special or consequential damages, 
#resulting from the use of any information or interpretation provided by Halliburton.
#
~A           TIME           GTDEPTH  GTPQH  GTTQ  GTTN   GTET   GTTVD  
# ...
   11:19:12.392.09-Sep-2020 5442.01 3582.04 76.10 11.00 293.88 2600.30
   11:19:12.592.09-Sep-2020 5442.01 3582.03 76.10 11.00 294.08 2600.30
   11:19:12.792.09-Sep-2020 5442.01 3582.03 76.10 11.00 294.28 2600.30
   11:19:12.992.09-Sep-2020 5442.01 3582.03 76.10 11.00 294.48 2600.30
   11:19:13.192.09-Sep-2020 5442.01 3582.03 76.10 11.00 294.68 2600.30
   11:19:13.392.09-Sep-2020 5442.01 3582.03 76.10 11.00 294.88 2600.30
   11:19:13.592.09-Sep-2020 5442.01 3582.04 76.10 11.00 295.08 2600.30
   11:19:13.792.09-Sep-2020 5442.01 3582.04 76.10 11.00 295.28 2600.30
   11:19:13.992.09-Sep-2020 5442.01 3582.03 76.10 11.00 295.48 2600.30
   11:19:14.192.09-Sep-2020 5442.01 3581.99 76.10 11.00 295.68 2600.30
   11:19:14.392.09-Sep-2020 5442.01 3582.08 76.10 11.00 295.88 2600.30
   11:19:14.592.09-Sep-2020 5442.01 3582.02 76.10 11.00 296.08 2600.30
   11:19:14.792.09-Sep-2020 5442.01 3582.04 76.10 11.00 296.28 2600.30
   11:19:14.992.09-Sep-2020 5442.01 3582.03 76.10 11.00 296.48 2600.30
   11:19:15.192.09-Sep-2020 5442.01 3582.02 76.10 11.00 296.68 2600.30
   11:19:15.392.09-Sep-2020 5442.01 3582.03 76.10 11.00 296.88 2600.30
   11:19:15.592.09-Sep-2020 5442.01 3582.03 76.10 11.00 297.08 2600.30
   11:19:15.792.09-Sep-2020 5442.01 3582.03 76.10 11.00 297.28 2600.30
   11:19:15.993.09-Sep-2020 5442.01 3582.04 76.10 11.00 297.48 2600.30
   11:19:16.193.09-Sep-2020 5442.01 3582.03 76.10 11.00 297.68 2600.30
   11:19:16.393.09-Sep-2020 5442.01 3582.03 76.10 11.00 297.88 2600.30
   11:19:16.593.09-Sep-2020 5442.01 3582.04 76.10 11.00 298.08 2600.30
   11:19:16.793.09-Sep-2020 5442.01 3582.04 76.10 11.00 298.28 2600.30
   11:19:16.993.09-Sep-2020 5442.01 3582.03 76.10 11.00 298.48 2600.30
   11:19:17.193.09-Sep-2020 5442.01 3582.03 76.10 11.00 298.68 2600.30
   11:19:17.393.09-Sep-2020 5442.01 3582.03 76.10 11.00 298.88 2600.30
   11:19:17.593.09-Sep-2020 5442.01 3582.05 76.10 11.00 299.08 2600.30
   11:19:17.793.09-Sep-2020 5442.01 3582.05 76.10 11.00 299.28 2600.30
   11:19:17.993.09-Sep-2020 5442.01 3582.02 76.10 11.00 299.48 2600.30
   11:19:18.193.09-Sep-2020 5442.01 3582.03 76.10 11.00 299.68 2600.30
   11:19:18.393.09-Sep-2020 5442.01 3582.03 76.10 11.00 299.88 2600.30
   11:19:18.593.09-Sep-2020 5442.01 3582.03 76.10 11.00 300.08 2600.30
   11:19:18.793.09-Sep-2020 5442.01 3582.05 76.10 11.00 300.28 2600.30
   11:19:18.993.09-Sep-2020 5442.01 3582.01 76.10 11.00 300.48 2600.30
   11:19:19.193.09-Sep-2020 5442.01 3582.03 76.10 11.00 300.68 2600.30
   11:19:19.393.09-Sep-2020 5442.01 3582.02 76.10 11.00 300.88 2600.30
   11:19:19.594.09-Sep-2020 5442.01 3582.04 76.10 11.00 301.08 2600.30
   11:19:19.794.09-Sep-2020 5442.01 3582.04 76.10 11.00 301.28 2600.30
   11:19:19.994.09-Sep-2020 5442.01 3582.02 76.10 11.00 301.48 2600.30
   11:19:20.194.09-Sep-2020 5442.01 3582.03 76.10 11.00 301.68 2600.30
   11:19:20.394.09-Sep-2020 5442.01 3582.01 76.10 11.00 301.88 2600.30
   11:19:20.594.09-Sep-2020 5442.01 3582.06 76.10 11.00 302.08 2600.30
   11:19:20.794.09-Sep-2020 5442.01 3582.06 76.10 11.00 302.28 2600.30
   11:19:20.994.09-Sep-2020 5442.01 3582.03 76.10 11.00 302.48 2600.30
   11:19:21.194.09-Sep-2020 5442.01 3582.02 76.10 11.00 302.68 2600.30
   11:19:21.394.09-Sep-2020 5442.01 3582.02 76.10 11.00 302.88 2600.30
   11:19:21.594.09-Sep-2020 5442.01 3582.02 76.10 11.00 303.08 2600.30
   11:19:21.794.09-Sep-2020 5442.01 3582.02 76.10 11.00 303.28 2600.30
   11:19:21.994.09-Sep-2020 5442.01 3582.02 76.10 11.00 303.48 2600.30
   11:19:22.194.09-Sep-2020 5442.01 3582.02 76.10 11.00 303.68 2600.30
   11:19:22.394.09-Sep-2020 5442.01 3582.03 76.10 11.00 303.88 2600.30
   11:19:22.594.09-Sep-2020 5442.01 3582.02 76.10 11.00 304.08 2600.30
   11:19:22.794.09-Sep-2020 5442.01 3582.03 76.10 11.00 304.28 2600.30
   11:19:22.994.09-Sep-2020 5442.01 3582.02 76.10 11.00 304.48 2600.30
   11:19:23.195.09-Sep-2020 5442.01 3582.05 76.10 11.00 304.68 2600.30
   11:19:23.395.09-Sep-2020 5442.01 3582.01 76.10 11.00 304.88 2600.30
   11:19:23.595.09-Sep-2020 5442.01 3582.02 76.10 11.00 305.08 2600.30
   11:19:23.795.09-Sep-2020 5442.01 3582.02 76.10 11.00 305.28 2600.30
   11:19:23.995.09-Sep-2020 5442.01 3582.02 76.10 11.00 305.48 2600.30
   11:19:24.195.09-Sep-2020 5442.01 3582.03 76.10 11.00 305.68 2600.30
   11:19:24.395.09-Sep-2020 5442.01 3582.02 76.10 11.00 305.88 2600.30
   11:19:24.595.09-Sep-2020 5442.01 3582.03 76.10 11.00 306.08 2600.30
   11:19:24.795.09-Sep-2020 5442.01 3582.03 76.10 11.00 306.28 2600.30
   11:19:24.995.09-Sep-2020 5442.01 3582.03 76.10 11.00 306.48 2600.30
   11:19:25.195.09-Sep-2020 5442.01 3582.02 76.10 11.00 306.68 2600.30
   11:19:25.395.09-Sep-2020 5442.01 3582.03 76.10 11.00 306.88 2600.30
   11:19:25.595.09-Sep-2020 5442.01 3582.03 76.10 11.00 307.08 2600.30
   11:19:25.795.09-Sep-2020 5442.01 3582.03 76.10 11.00 307.28 2600.30
   11:19:25.995.09-Sep-2020 5442.01 3582.03 76.10 11.00 307.48 2600.30
   11:19:26.195.09-Sep-2020 5442.01 3582.03 76.10 11.00 307.68 2600.30
   11:19:26.395.09-Sep-2020 5442.01 3582.03 76.10 11.00 307.89 2600.30
   11:19:26.595.09-Sep-2020 5442.01 3582.03 76.10 11.00 308.09 2600.30
   11:19:26.796.09-Sep-2020 5442.01 3582.03 76.10 11.00 308.29 2600.30
   11:19:26.996.09-Sep-2020 5442.01 3581.99 76.10 11.00 308.49 2600.30
   11:19:27.196.09-Sep-2020 5442.01 3582.06 76.10 11.00 308.69 2600.30
   11:19:27.396.09-Sep-2020 5442.01 3582.04 76.10 11.00 308.89 2600.30
   11:19:27.596.09-Sep-2020 5442.01 3582.03 76.10 11.00 309.09 2600.30
   11:19:27.796.09-Sep-2020 5442.01 3582.03 76.10 11.00 309.29 2600.30
   11:19:27.996.09-Sep-2020 5442.01 3582.02 76.10 11.00 309.49 2600.30
   11:19:28.196.09-Sep-2020 5442.01 3582.03 76.10 11.00 309.69 2600.30
   11:19:28.396.09-Sep-2020 5442.01 3582.04 76.10 11.00 309.89 2600.30
   11:19:28.596.09-Sep-2020 5442.01 3582.02 76.10 11.00 310.09 2600.30
   11:19:28.796.09-Sep-2020 5442.01 3582.02 76.10 11.00 310.29 2600.30
   11:19:28.996.09-Sep-2020 5442.01 3582.02 76.10 11.00 310.49 2600.30
   11:19:29.196.09-Sep-2020 5442.01 3582.02 76.10 11.00 310.69 2600.30
   11:19:29.396.09-Sep-2020 5442.01 3582.03 76.10 11.00 310.89 2600.30
   11:19:29.596.09-Sep-2020 5442.01 3582.02 76.10 11.00 311.09 2600.30
   11:19:29.796.09-Sep-2020 5442.01 3582.02 76.10 11.00 311.29 2600.30
   11:19:29.996.09-Sep-2020 5442.01 3582.02 76.10 11.00 311.49 2600.30
   11:19:30.196.09-Sep-2020 5442.01 3581.98 76.10 11.00 311.69 2600.30
   11:19:30.397.09-Sep-2020 5442.01 3582.07 76.10 11.00 311.89 2600.30
   11:19:30.597.09-Sep-2020 5442.01 3582.01 76.10 11.00 312.09 2600.30
   11:19:30.797.09-Sep-2020 5442.01 3582.02 76.10 11.00 312.29 2600.30
   11:19:30.997.09-Sep-2020 5442.01 3582.02 76.10 11.00 312.49 2600.30
   11:19:31.197.09-Sep-2020 5442.01 3582.02 76.10 11.00 312.69 2600.30
   11:19:31.397.09-Sep-2020 5442.01 3582.04 76.10 11.00 312.89 2600.30
   11:19:31.597.09-Sep-2020 5442.01 3582.00 76.10 11.00 313.09 2600.30
   11:19:31.797.09-Sep-2020 5442.01 3582.03 76.10 11.00 313.29 2600.30
   11:19:31.997.09-Sep-2020 5442.01 3582.02 76.10 11.00 313.49 2600.30
   11:19:32.197.09-Sep-2020 5442.01 3582.02 76.10 11.00 313.69 2600.30
   11:19:32.397.09-Sep-2020 5442.01 3582.03 76.10 11.00 313.89 2600.30
   11:19:32.597.09-Sep-2020 5442.01 3582.03 76.10 11.00 314.09 2600.30
   11:19:32.797.09-Sep-2020 5442.01 3582.03 76.10 11.00 314.29 2600.30
   11:19:32.997.09-Sep-2020 5442.01 3582.05 76.10 11.00 314.49 2600.30
   11:19:33.197.09-Sep-2020 5442.01 3581.99 76.10 11.00 314.69 2600.30
   11:19:33.397.09-Sep-2020 5442.01 3582.03 76.10 11.00 314.89 2600.30
   11:19:33.597.09-Sep-2020 5442.01 3582.02 76.10 11.00 315.09 2600.30
   11:19:33.797.09-Sep-2020 5442.01 3582.02 76.10 11.00 315.29 2600.30
   11:19:33.998.09-Sep-2020 5442.01 3582.01 76.10 11.00 315.49 2600.30
   11:19:34.198.09-Sep-2020 5442.01 3582.02 76.10 11.00 315.69 2600.30
   11:19:34.398.09-Sep-2020 5442.01 3581.99 76.10 11.00 315.89 2600.30
   11:19:34.598.09-Sep-2020 5442.01 3582.06 76.10 11.00 316.09 2600.30
   11:19:34.798.09-Sep-2020 5442.01 3582.06 76.10 11.00 316.29 2600.30
