~Version Information
 VERS.                  2.0:   CWLS log ASCII Standard -VERSION 2.0
 WRAP.                   NO:   One line per depth step
~Well Information Block
#MNEM.UNIT     VALUE/NAME     DESCRIPTION
#---------     -----------    ---------------------------
 STRT.S             08:34:18 09-Sep-20: START TIME 08:34:18 09-Sep-20
 STOP.S             08:41:20 09-Sep-20: STOP TIME  08:41:20 09-Sep-20
 STEP.S                   0.00: STEP TIME
 NULL.                 -999.25: NULL VALUE
 MDS .        Operator Entered:  MAG DATA SOURCE
 PDAT.          Mean Sea Level:  PERMANENT DATUM
 DCON.         Sperry Drilling:  DIRECTNL CONTR
 RIG .              West Azeri:  RIG NAME
 WELL.           C40 (Slot 20):  WELL NAME
 SRVC.     Turan Drilling Engineering:  CONTRACTOR
 FLD .                     ACG:  FIELD NAME
 CTRY.              Azerbaijan:  COUNTRY NAME
 PROV.                    Baku:  PROVINCE
 STAT.                    Baku:  STATE NAME
 REGN.                   EESSA:  REGION
 BASE.              Azerbaijan:  LOGGING EQUIPMENT BASE LOCATION
 COMP.     BP Exploration (Caspian Sea) Ltd:  COMPANY
 WTYP.                Deviated:  WELL TYPE
 SON .        AZ-XX-0906344804:  JOB NUMBER
 FTOP.          Formation Tops:  FORM TOPS DESC
 ILTD.               Lithology:  INTERP LTH DESC
 SVYD.                  Survey:  SURVEY DESC
 DMOD.             Drill Model:  DRILL MOD DESC
 HPTY.       Minimum Curvature:  HOLE POS TYPE
 NREF.                    Grid:  NORTH REFERENCE
 SPUD.               01-Jan-20:  SPUD DATE
 DATE.      00.59.44 15-Sep-20:  END TIME
 STIM.      12.00.00 12-Jun-20:  START TIME
 DMF .             Drill Floor:  DRILL MEAS FROM
 DFST.                        :  DIST FSL TEXT
 DFWT.                        :  DIST FWL TEXT
 API .                        :  API NUMBER
 CNTY.                        :  COUNTY
 UWI .                        :  UNIQUE WELL IDENTIFIER
 LOC .                        :  LOCATION
 LMF .             Drill Floor:  LOG MEASURED FROM
 VSNS.m                   2.88:  VERT SEC N/S
 VSEW.m                  -3.84:  VERT SEC E/W
 AGAP.m                  43.42:  AIR GAP
 APD .m                  43.42:  DEPTH ABOVE PD
 WDMS.m                 118.27:  WD ELEV
 EGL .m                   0.00:  GROUND ELEVATION
 EPD .m                   0.00:  ELEVATION
 AZTC.deg                 6.23:  AZM TOTAL CORR
 GRDC.deg                 0.20:  GRID CORRECTION
 MDEC.deg                 6.43:  MAGNETIC DECL
 MDIP.deg                59.49:  MAGNETIC DIP
 MFLD.nT              50277.00:  MAGNETIC FIELD
 GVFD.g                   1.00:  GRAVITY FIELD
 VSDR.deg               173.20:  VERT SEC DIRECT
 TDD .m                5790.01:  TOTAL DEPTH (DRILLER)
 SDEP.m                5231.01:  START DEPTH
 DFSL.m                   0.00:  DISTANCE FSL
 DFWL.m                   0.00:  DISTANCE FWL
 UTMY.m             4435808.83:  UTM Y
 UTMX.m              526266.40:  UTM X
 WHEW.m                  -3.84:  WELL HEAD E/W
 WHNS.m                   2.88:  WELL HEAD N/S
 LONG.deg                51.31:  LONGITUDE
 LATI.deg                40.06:  LATITUDE
 TVDS.m                  43.42:  TVDSS CORRECTN
 DEP .m                 430.08:  DEPTH
 EKB .m                  43.42:  KB ELEVATION
 EDF .m                  43.42:  DF ELEVATION
 TDL .m                 559.00:  TOTAL DEPTH (LOGGER)
 MAGU.                 1849381:  MAGUTM CHECKSUM
 VSC .                       0:  VS TO CLOSURE
~Parameter Information Block
#MNEM.UNIT       Value        Description
#---------     -----------    ---------------------------
 AV  .mps                 4.87:  Ann Velocity 
 AVMX.mps                 7.08:  Max Ann Veloc 
 AZIF.deg               108.87:  Azm, Final 
 BHAT.                  Rotary:  BHA Type 
 BROT.°/30m               0.35:  Build Rotating 
 BS  .in                  8.50:  Bit Size 
 BSZ .in                  8.50:  Bit Size 
 BTPL.psig              360.00:  Bit Press Loss 
 CABU.                     Yes:  Customer Abuse 
 COMM.                     \¸P:  Run Comments 1 
 TCS .hr                106.24:  Time Ciculation Ended 
 CV  .mps                 1.77:  Crit Velocity 
 CVMX.mps                 2.03:  Max Crit Veloc 
 DD1 .         Aykhan Agagulov:  Direct Drillr 1 
 DD2 .            Nonso Okofor:  Direct Drillr 2 
 DDSV.               Geo-Pilot:  DD Service 
 DEFF.%                  98.00:  % Det Eff 
 DLRX.°/30m               0.50:  Dogleg Rot Max 
 DLSO.°/30m               0.40:  Dogleg Oriented 
 DLSX.°/30m               0.94:  Dogleg Str Max 
 DRET.      20.30.00 08-Sep-20:  Drill End Time 
 DRST.      22.15.00 06-Sep-20:  Drill Start Tim 
 DTIM.hr                 31.31:  Time Drilling 
 EDEP.m                5790.01:  End Depth 
 ENG1.           Amrah Tahirov:  Engineer 1 
 ENG2.         Dair Mahammadov:  Engineer 2 
 ENG3.           Emil Huseynov:  Engineer 3 
 ETIM.      04.01.04 12-Sep-20:  End Time 
 FLOI.gpm               450.00:  Flow In 
 FLON.gpm               450.00:  Flow In Min 
 FLOS.cptm                2.00:  Fluid Loss 
 FLOX.gpm               450.00:  Flow In Max 
 FTRO.       Formation Presure:  FTWD Run Obj 
 HFLO.                      No:  High Flow 
 HPRE.                      No:  High Pressure 
 HTEM.                      No:  High Temp 
 HYDO.m                   1.80:  Hydro Offset 
 IFIN.deg                72.03:  Inc, Final 
 IMAX.deg                73.72:  Inc Max 
 IMIN.deg                70.94:  Inc Min 
 IMND.m                5508.52:  Inc Min Depth 
 IMXD.m                5253.60:  Inc Max Depth 
 JARR.                      No:  Jarring 
 LETM.      20.30.00 08-Sep-20:  Log End Time 
 LOST.hr                     0:  Lost Rig Time 
 LSTM.      22.15.00 06-Sep-20:  Log Start Time 
 MDCL.ppm             36000.00:  Mud Chlorides 
 MDES.     Inversion Oil/Synthetic:  Mud Desc 
 DFD .sg                  1.44:  Mud Density 
 MDMN.sg                  1.44:  Dens Mud Min 
 MDMX.sg                  1.57:  Dens Mud Max 
 MOIL.                      70:  Run Mud Oil % 
 MOWR.                   70:30:  Run Mud OWR 
 MSND.                       0:  Run Mud Sand % 
 MSOL.                      21:  Run Mud Solids% 
 DFV .spqt               68.00:  Mud Viscosity 
 MWOD.in                  6.75:  MWD Tool OD 
 MWSI.                     Yes:  Serv Intrp, MWD 
 OTIM.hr                174.84:  Time Operating 
 PCON.           Look Like New:  Pad Condition 
 PMAX.psia            10616.93:  Press Op, Max 
 PV  .cP                 50.00:  Mud PV 
 RUN .                     700:  Run Number 
 ROPA.m/hr               14.24:  ROP Avg 
 ROPN.m/hr               10.00:  ROP Min 
 ROPX.m/hr               32.00:  ROP Max 
 RPMA.rpm               120.90:  RPM Surface Avg 
 RPMN.rpm               120.00:  RPM Surface Min 
 RPMX.rpm               140.00:  RPM Surface Max 
 RRUN.                    0700:  Rig Run Number 
 RTIM.hr                  3.20:  Time Reaming 
 SAZI.deg               109.99:  Azm, Start 
 SDEP.m                5231.01:  Start Depth 
 SIDD.                      No:  Serv Intrp, DD 
 SINC.deg                73.72:  Inc, Start 
 SPPA.psig             3051.00:  SPP Avg 
 SPPN.psig             2950.00:  SPP Min 
 SPPX.psig             3250.00:  SPP Max 
 STIM.      08.00.00 05-Sep-20:  Start Time 
 SVCS.                 DD, MWD:  Services 
 SVER.                    9.20:  Sperry Version 
 TDAT.m                 559.00:  Tot Depth Attmp 
 TDDF.                      No:  Trip for DD 
 TDLG.m                 559.00:  Tot Depth Loggd 
 TFF .                      No:  Trip for Fail 
 TQAA.f-kp               26.49:  Torque Abs Avg 
 TQAN.f-kp               25.00:  Torque Abs Min 
 TQAX.f-kp               27.00:  Torque Abs Max 
 TRRT.°/30m               1.50:  Turn Rotating 
 MRT .                    HCIM:  Maximum Recorded Temperature 
 TTMX.degC               90.20:  Max Tool Temp 
 VS01.                90542671:  Virtual Str1 SN 
 VS02.                90545185:  Virtual Str2 SN 
 VS03.                90602015:  Virtual Str3 SN 
 VS04.                90515230:  Virtual Str4 SN 
 WBMN.klb                 5.00:  WOB Min 
 WOBA.klb                14.79:  WOB Avg 
 WOBX.klb                20.00:  WOB Max 
 YP  .lhf2               29.00:  Yield Point 
~Curve Information Block
#MNEM.UNIT                 API CODE     Curve Description
#---------               -----------    ---------------------------
 TIME.HHMMSS            00 000 000 000:  GT Time & Date
 GTDEPTH.m              00 000 000 000:  GT Depth
 GTPQH.psia             00 000 000 000:  GT HR Quartz Pressure
 GTTQ.degC              00 000 000 000:  GT Quartz Temperature
 GTTN.NONE              00 000 000 000:  GT Test Number
 GTET.sec               00 000 000 000:  GT Elapsed Test Time
 GTTVD.m                00 000 000 000:  GT True Vertical Depth
#Other Information
#
#WARRANTY: Halliburton will use its best efforts to furnish customers with 
#accurate information and interpretations that are part of, and incident to, the services 
#provided.  However, Halliburton cannot and does not warrant the accuracy 
#or correctness of such information and interpretations.  Under no circumstances should any 
#such information or interpretation be relied upon as the sole basis for any drilling, 
#completion, production, or financial decision or any procedure involving any risk to the 
#safety of any drilling venture, drilling rig or its crew or any other third party.  The 
#Customer has full responsibility for all drilling, completion and production operation.  
#Halliburton makes no representations or warranties, either expressed or 
#implied, including, but not limited to, the implied warranties of merchantability or fitness 
#for a particular purpose, with respect to the services rendered.  In no event will 
#Halliburton be liable for failure to obtain any particular results or for 
#any damages, including, but not limited to, indirect, special or consequential damages, 
#resulting from the use of any information or interpretation provided by Halliburton.
#
~A           TIME           GTDEPTH  GTPQH  GTTQ  GTTN  GTET   GTTVD  
   08:34:18.797.09-Sep-2020 5524.01 6323.01 77.69 6.00   0.00 2626.56
   08:34:18.997.09-Sep-2020 5524.01 6323.01 77.69 6.00   0.20 2626.56
   08:34:19.197.09-Sep-2020 5524.01 6322.07 77.69 6.00   0.40 2626.56
   08:34:19.397.09-Sep-2020 5524.01 6324.95 77.69 6.00   0.60 2626.56
   08:34:19.597.09-Sep-2020 5524.01 6327.56 77.69 6.00   0.80 2626.56
   08:34:19.797.09-Sep-2020 5524.01 6327.27 77.69 6.00   1.00 2626.56
   08:34:19.997.09-Sep-2020 5524.01 6327.27 77.69 6.00   1.20 2626.56
   08:34:20.197.09-Sep-2020 5524.01 6324.45 77.69 6.00   1.40 2626.56
   08:34:20.397.09-Sep-2020 5524.01 6327.08 77.69 6.00   1.60 2626.56
   08:34:20.597.09-Sep-2020 5524.01 6330.33 77.69 6.00   1.80 2626.56
   08:34:20.797.09-Sep-2020 5524.01 6330.04 77.69 6.00   2.00 2626.56
   08:34:20.998.09-Sep-2020 5524.01 6330.04 77.69 6.00   2.20 2626.56
   08:34:21.198.09-Sep-2020 5524.01 6337.71 77.69 6.00   2.40 2626.56
   08:34:21.398.09-Sep-2020 5524.01 6328.54 77.69 6.00   2.60 2626.56
   08:34:21.598.09-Sep-2020 5524.01 6330.21 77.69 6.00   2.80 2626.56
   08:34:21.798.09-Sep-2020 5524.01 6332.62 77.69 6.00   3.00 2626.56
   08:34:21.998.09-Sep-2020 5524.01 6332.62 77.69 6.00   3.20 2626.56
   08:34:22.198.09-Sep-2020 5524.01 6330.69 77.69 6.00   3.40 2626.56
   08:34:22.398.09-Sep-2020 5524.01 6330.47 77.69 6.00   3.60 2626.56
   08:34:22.598.09-Sep-2020 5524.01 6330.29 77.69 6.00   3.80 2626.56
   08:34:22.798.09-Sep-2020 5524.01 6329.46 77.69 6.00   4.00 2626.56
   08:34:22.998.09-Sep-2020 5524.01 6328.67 77.69 6.00   4.20 2626.56
   08:34:23.198.09-Sep-2020 5524.01 6328.42 77.69 6.00   4.40 2626.56
   08:34:23.398.09-Sep-2020 5524.01 6328.40 77.69 6.00   4.60 2626.56
   08:34:23.599.09-Sep-2020 5524.01 6328.26 77.69 6.00   4.80 2626.56
   08:34:23.799.09-Sep-2020 5524.01 6328.02 77.69 6.00   5.00 2626.56
   08:34:23.999.09-Sep-2020 5524.01 6328.02 77.69 6.00   5.20 2626.56
   08:34:24.199.09-Sep-2020 5524.01 6328.95 77.69 6.00   5.40 2626.56
   08:34:24.399.09-Sep-2020 5524.01 6329.60 77.69 6.00   5.60 2626.56
   08:34:24.599.09-Sep-2020 5524.01 6330.73 77.69 6.00   5.80 2626.56
   08:34:24.799.09-Sep-2020 5524.01 6331.73 77.69 6.00   6.00 2626.56
   08:34:24.999.09-Sep-2020 5524.01 6331.73 77.69 6.00   6.20 2626.56
   08:34:25.199.09-Sep-2020 5524.01 6331.07 77.69 6.00   6.40 2626.56
   08:34:25.399.09-Sep-2020 5524.01 6334.97 77.69 6.00   6.60 2626.56
   08:34:25.599.09-Sep-2020 5524.01 6337.66 77.69 6.00   6.80 2626.56
   08:34:25.799.09-Sep-2020 5524.01 6336.86 77.69 6.00   7.00 2626.56
   08:34:26.000.09-Sep-2020 5524.01 6336.86 77.69 6.00   7.20 2626.56
   08:34:26.200.09-Sep-2020 5524.01 6338.36 77.69 6.00   7.40 2626.56
   08:34:26.400.09-Sep-2020 5524.01 6339.69 77.69 6.00   7.60 2626.56
   08:34:26.600.09-Sep-2020 5524.01 6339.01 77.69 6.00   7.80 2626.56
   08:34:26.800.09-Sep-2020 5524.01 6339.53 77.68 6.00   8.00 2626.56
   08:34:27.000.09-Sep-2020 5524.01 6339.53 77.68 6.00   8.20 2626.56
   08:34:27.200.09-Sep-2020 5524.01 6340.54 77.68 6.00   8.40 2626.56
   08:34:27.400.09-Sep-2020 5524.01 6340.36 77.68 6.00   8.60 2626.56
   08:34:27.600.09-Sep-2020 5524.01 6340.11 77.68 6.00   8.80 2626.56
   08:34:27.800.09-Sep-2020 5524.01 6340.20 77.68 6.00   9.00 2626.56
   08:34:28.000.09-Sep-2020 5524.01 6340.20 77.68 6.00   9.20 2626.56
   08:34:28.200.09-Sep-2020 5524.01 6340.79 77.68 6.00   9.40 2626.56
   08:34:28.400.09-Sep-2020 5524.01 6340.79 77.68 6.00   9.60 2626.56
   08:34:28.601.09-Sep-2020 5524.01 6347.24 77.68 6.00   9.80 2626.56
   08:34:28.801.09-Sep-2020 5524.01 6337.91 77.68 6.00  10.00 2626.56
   08:34:29.001.09-Sep-2020 5524.01 6337.91 77.68 6.00  10.20 2626.56
   08:34:29.201.09-Sep-2020 5524.01 6342.87 77.68 6.00  10.40 2626.56
   08:34:29.401.09-Sep-2020 5524.01 6341.42 77.68 6.00  10.60 2626.56
   08:34:29.601.09-Sep-2020 5524.01 6342.06 77.68 6.00  10.80 2626.56
   08:34:29.801.09-Sep-2020 5524.01 6351.45 77.68 6.00  11.00 2626.56
   08:34:30.001.09-Sep-2020 5524.01 6336.61 77.68 6.00  11.20 2626.56
   08:34:30.201.09-Sep-2020 5524.01 6341.77 77.68 6.00  11.40 2626.56
   08:34:30.401.09-Sep-2020 5524.01 6343.80 77.68 6.00  11.60 2626.56
   08:34:30.601.09-Sep-2020 5524.01 6343.17 77.68 6.00  11.80 2626.56
   08:34:30.801.09-Sep-2020 5524.01 6343.48 77.68 6.00  12.00 2626.56
   08:34:31.001.09-Sep-2020 5524.01 6343.48 77.68 6.00  12.20 2626.56
   08:34:31.202.09-Sep-2020 5524.01 6342.06 77.68 6.00  12.40 2626.56
   08:34:31.402.09-Sep-2020 5524.01 6343.36 77.68 6.00  12.60 2626.56
   08:34:31.602.09-Sep-2020 5524.01 6346.39 77.68 6.00  12.81 2626.56
   08:34:31.802.09-Sep-2020 5524.01 6346.29 77.68 6.00  13.01 2626.56
   08:34:32.002.09-Sep-2020 5524.01 6346.29 77.68 6.00  13.21 2626.56
   08:34:32.202.09-Sep-2020 5524.01 6352.92 77.68 6.00  13.41 2626.56
   08:34:32.402.09-Sep-2020 5524.01 6343.94 77.68 6.00  13.61 2626.56
   08:34:32.602.09-Sep-2020 5524.01 6345.54 77.68 6.00  13.81 2626.56
   08:34:32.802.09-Sep-2020 5524.01 6348.32 77.68 6.00  14.01 2626.56
   08:34:33.002.09-Sep-2020 5524.01 6348.32 77.68 6.00  14.21 2626.56
   08:34:33.202.09-Sep-2020 5524.01 6352.23 77.68 6.00  14.41 2626.56
   08:34:33.402.09-Sep-2020 5524.01 6346.57 77.68 6.00  14.61 2626.56
   08:34:33.603.09-Sep-2020 5524.01 6349.42 77.68 6.00  14.81 2626.56
   08:34:33.803.09-Sep-2020 5524.01 6351.64 77.68 6.00  15.01 2626.56
   08:34:34.003.09-Sep-2020 5524.01 6351.64 77.68 6.00  15.21 2626.56
   08:34:34.203.09-Sep-2020 5524.01 6350.79 77.68 6.00  15.41 2626.56
   08:34:34.403.09-Sep-2020 5524.01 6354.21 77.68 6.00  15.61 2626.56
   08:34:34.603.09-Sep-2020 5524.01 6349.14 77.68 6.00  15.81 2626.56
   08:34:34.803.09-Sep-2020 5524.01 6350.85 77.68 6.00  16.01 2626.56
   08:34:35.003.09-Sep-2020 5524.01 6353.33 77.68 6.00  16.21 2626.56
   08:34:35.203.09-Sep-2020 5524.01 6350.58 77.68 6.00  16.41 2626.56
   08:34:35.403.09-Sep-2020 5524.01 6351.78 77.68 6.00  16.61 2626.56
   08:34:35.603.09-Sep-2020 5524.01 6351.36 77.68 6.00  16.81 2626.56
   08:34:35.803.09-Sep-2020 5524.01 6352.14 77.68 6.00  17.01 2626.56
   08:34:36.003.09-Sep-2020 5524.01 6352.14 77.68 6.00  17.21 2626.56
   08:34:36.204.09-Sep-2020 5524.01 6352.29 77.68 6.00  17.41 2626.56
   08:34:36.404.09-Sep-2020 5524.01 6353.37 77.68 6.00  17.61 2626.56
   08:34:36.604.09-Sep-2020 5524.01 6354.00 77.68 6.00  17.81 2626.56
   08:34:36.804.09-Sep-2020 5524.01 6354.57 77.68 6.00  18.01 2626.56
   08:34:37.004.09-Sep-2020 5524.01 6354.57 77.68 6.00  18.21 2626.56
   08:34:37.204.09-Sep-2020 5524.01 6355.35 77.68 6.00  18.41 2626.56
   08:34:37.404.09-Sep-2020 5524.01 6355.67 77.68 6.00  18.61 2626.56
   08:34:37.604.09-Sep-2020 5524.01 6356.09 77.68 6.00  18.81 2626.56
   08:34:37.804.09-Sep-2020 5524.01 6356.46 77.68 6.00  19.01 2626.56
   08:34:38.004.09-Sep-2020 5524.01 6367.57 77.68 6.00  19.21 2626.56
   08:34:38.204.09-Sep-2020 5524.01 6351.11 77.68 6.00  19.41 2626.56
   08:34:38.404.09-Sep-2020 5524.01 6357.19 77.68 6.00  19.61 2626.56
   08:34:38.604.09-Sep-2020 5524.01 6359.11 77.68 6.00  19.81 2626.56
   08:34:38.805.09-Sep-2020 5524.01 6358.73 77.68 6.00  20.01 2626.56
   08:34:39.005.09-Sep-2020 5524.01 6358.76 77.68 6.00  20.21 2626.56
   08:34:39.205.09-Sep-2020 5524.01 6357.36 77.68 6.00  20.41 2626.56
   08:34:39.405.09-Sep-2020 5524.01 6358.30 77.68 6.00  20.61 2626.56
   08:34:39.605.09-Sep-2020 5524.01 6357.53 77.68 6.00  20.81 2626.56
   08:34:39.805.09-Sep-2020 5524.01 6358.06 77.68 6.00  21.01 2626.56
   08:34:40.005.09-Sep-2020 5524.01 6358.06 77.68 6.00  21.21 2626.56
   08:34:40.205.09-Sep-2020 5524.01 6359.47 77.68 6.00  21.41 2626.56
   08:34:40.405.09-Sep-2020 5524.01 6359.16 77.68 6.00  21.61 2626.56
   08:34:40.605.09-Sep-2020 5524.01 6359.13 77.68 6.00  21.81 2626.56
   08:34:40.805.09-Sep-2020 5524.01 6359.18 77.68 6.00  22.01 2626.56
   08:34:41.005.09-Sep-2020 5524.01 6359.18 77.68 6.00  22.21 2626.56
   08:34:41.206.09-Sep-2020 5524.01 6360.84 77.67 6.00  22.41 2626.56
   08:34:41.406.09-Sep-2020 5524.01 6372.30 77.67 6.00  22.61 2626.56
   08:34:41.606.09-Sep-2020 5524.01 6355.06 77.67 6.00  22.81 2626.56
