~Version Information
 VERS.                  2.0:   CWLS log ASCII Standard -VERSION 2.0
 WRAP.                   NO:   One line per depth step
~Well Information Block
#MNEM.UNIT     VALUE/NAME     DESCRIPTION
#---------     -----------    ---------------------------
 STRT.S             16:52:14 09-Sep-20: START TIME 16:52:14 09-Sep-20
 STOP.S             17:00:39 09-Sep-20: STOP TIME  17:00:39 09-Sep-20
 STEP.S                   0.00: STEP TIME
 NULL.                 -999.25: NULL VALUE
 MDS .        Operator Entered:  MAG DATA SOURCE
 PDAT.          Mean Sea Level:  PERMANENT DATUM
 DCON.         Sperry Drilling:  DIRECTNL CONTR
 RIG .              West Azeri:  RIG NAME
 WELL.           C40 (Slot 20):  WELL NAME
 SRVC.     Turan Drilling Engineering:  CONTRACTOR
 FLD .                     ACG:  FIELD NAME
 CTRY.              Azerbaijan:  COUNTRY NAME
 PROV.                    Baku:  PROVINCE
 STAT.                    Baku:  STATE NAME
 REGN.                   EESSA:  REGION
 BASE.              Azerbaijan:  LOGGING EQUIPMENT BASE LOCATION
 COMP.     BP Exploration (Caspian Sea) Ltd:  COMPANY
 WTYP.                Deviated:  WELL TYPE
 SON .        AZ-XX-0906344804:  JOB NUMBER
 FTOP.          Formation Tops:  FORM TOPS DESC
 ILTD.               Lithology:  INTERP LTH DESC
 SVYD.                  Survey:  SURVEY DESC
 DMOD.             Drill Model:  DRILL MOD DESC
 HPTY.       Minimum Curvature:  HOLE POS TYPE
 NREF.                    Grid:  NORTH REFERENCE
 SPUD.               01-Jan-20:  SPUD DATE
 DATE.      00.59.44 15-Sep-20:  END TIME
 STIM.      12.00.00 12-Jun-20:  START TIME
 DMF .             Drill Floor:  DRILL MEAS FROM
 DFST.                        :  DIST FSL TEXT
 DFWT.                        :  DIST FWL TEXT
 API .                        :  API NUMBER
 CNTY.                        :  COUNTY
 UWI .                        :  UNIQUE WELL IDENTIFIER
 LOC .                        :  LOCATION
 LMF .             Drill Floor:  LOG MEASURED FROM
 VSNS.m                   2.88:  VERT SEC N/S
 VSEW.m                  -3.84:  VERT SEC E/W
 AGAP.m                  43.42:  AIR GAP
 APD .m                  43.42:  DEPTH ABOVE PD
 WDMS.m                 118.27:  WD ELEV
 EGL .m                   0.00:  GROUND ELEVATION
 EPD .m                   0.00:  ELEVATION
 AZTC.deg                 6.23:  AZM TOTAL CORR
 GRDC.deg                 0.20:  GRID CORRECTION
 MDEC.deg                 6.43:  MAGNETIC DECL
 MDIP.deg                59.49:  MAGNETIC DIP
 MFLD.nT              50277.00:  MAGNETIC FIELD
 GVFD.g                   1.00:  GRAVITY FIELD
 VSDR.deg               173.20:  VERT SEC DIRECT
 TDD .m                5790.01:  TOTAL DEPTH (DRILLER)
 SDEP.m                5231.01:  START DEPTH
 DFSL.m                   0.00:  DISTANCE FSL
 DFWL.m                   0.00:  DISTANCE FWL
 UTMY.m             4435808.83:  UTM Y
 UTMX.m              526266.40:  UTM X
 WHEW.m                  -3.84:  WELL HEAD E/W
 WHNS.m                   2.88:  WELL HEAD N/S
 LONG.deg                51.31:  LONGITUDE
 LATI.deg                40.06:  LATITUDE
 TVDS.m                  43.42:  TVDSS CORRECTN
 DEP .m                 430.08:  DEPTH
 EKB .m                  43.42:  KB ELEVATION
 EDF .m                  43.42:  DF ELEVATION
 TDL .m                 559.00:  TOTAL DEPTH (LOGGER)
 MAGU.                 1849381:  MAGUTM CHECKSUM
 VSC .                       0:  VS TO CLOSURE
~Parameter Information Block
#MNEM.UNIT       Value        Description
#---------     -----------    ---------------------------
 AV  .mps                 4.87:  Ann Velocity 
 AVMX.mps                 7.08:  Max Ann Veloc 
 AZIF.deg               108.87:  Azm, Final 
 BHAT.                  Rotary:  BHA Type 
 BROT.°/30m               0.35:  Build Rotating 
 BS  .in                  8.50:  Bit Size 
 BSZ .in                  8.50:  Bit Size 
 BTPL.psig              360.00:  Bit Press Loss 
 CABU.                     Yes:  Customer Abuse 
 TCS .hr                106.24:  Time Ciculation Ended 
 CV  .mps                 1.77:  Crit Velocity 
 CVMX.mps                 2.03:  Max Crit Veloc 
 DD1 .         Aykhan Agagulov:  Direct Drillr 1 
 DD2 .            Nonso Okofor:  Direct Drillr 2 
 DDSV.               Geo-Pilot:  DD Service 
 DEFF.%                  98.00:  % Det Eff 
 DLRX.°/30m               0.50:  Dogleg Rot Max 
 DLSO.°/30m               0.40:  Dogleg Oriented 
 DLSX.°/30m               0.94:  Dogleg Str Max 
 DRET.      20.30.00 08-Sep-20:  Drill End Time 
 DRST.      22.15.00 06-Sep-20:  Drill Start Tim 
 DTIM.hr                 31.31:  Time Drilling 
 EDEP.m                5790.01:  End Depth 
 ENG1.           Amrah Tahirov:  Engineer 1 
 ENG2.         Dair Mahammadov:  Engineer 2 
 ENG3.           Emil Huseynov:  Engineer 3 
 ETIM.      04.01.04 12-Sep-20:  End Time 
 FLOI.gpm               450.00:  Flow In 
 FLON.gpm               450.00:  Flow In Min 
 FLOS.cptm                2.00:  Fluid Loss 
 FLOX.gpm               450.00:  Flow In Max 
 FTRO.       Formation Presure:  FTWD Run Obj 
 HFLO.                      No:  High Flow 
 HPRE.                      No:  High Pressure 
 HTEM.                      No:  High Temp 
 HYDO.m                   1.80:  Hydro Offset 
 IFIN.deg                72.03:  Inc, Final 
 IMAX.deg                73.72:  Inc Max 
 IMIN.deg                70.94:  Inc Min 
 IMND.m                5508.52:  Inc Min Depth 
 IMXD.m                5253.60:  Inc Max Depth 
 JARR.                      No:  Jarring 
 LETM.      20.30.00 08-Sep-20:  Log End Time 
 LOST.hr                     0:  Lost Rig Time 
 LSTM.      22.15.00 06-Sep-20:  Log Start Time 
 MDCL.ppm             36000.00:  Mud Chlorides 
 MDES.     Inversion Oil/Synthetic:  Mud Desc 
 DFD .sg                  1.44:  Mud Density 
 MDMN.sg                  1.44:  Dens Mud Min 
 MDMX.sg                  1.57:  Dens Mud Max 
 MOIL.                      70:  Run Mud Oil % 
 MOWR.                   70:30:  Run Mud OWR 
 MSND.                       0:  Run Mud Sand % 
 MSOL.                      21:  Run Mud Solids% 
 DFV .spqt               68.00:  Mud Viscosity 
 MWOD.in                  6.75:  MWD Tool OD 
 MWSI.                     Yes:  Serv Intrp, MWD 
 OTIM.hr                174.84:  Time Operating 
 PCON.           Look Like New:  Pad Condition 
 PMAX.psia            10616.93:  Press Op, Max 
 PV  .cP                 50.00:  Mud PV 
 RUN .                     700:  Run Number 
 ROPA.m/hr               14.24:  ROP Avg 
 ROPN.m/hr               10.00:  ROP Min 
 ROPX.m/hr               32.00:  ROP Max 
 RPMA.rpm               120.90:  RPM Surface Avg 
 RPMN.rpm               120.00:  RPM Surface Min 
 RPMX.rpm               140.00:  RPM Surface Max 
 RRUN.                    0700:  Rig Run Number 
 RTIM.hr                  3.20:  Time Reaming 
 SAZI.deg               109.99:  Azm, Start 
 SDEP.m                5231.01:  Start Depth 
 SIDD.                      No:  Serv Intrp, DD 
 SINC.deg                73.72:  Inc, Start 
 SPPA.psig             3051.00:  SPP Avg 
 SPPN.psig             2950.00:  SPP Min 
 SPPX.psig             3250.00:  SPP Max 
 STIM.      08.00.00 05-Sep-20:  Start Time 
 SVCS.                 DD, MWD:  Services 
 SVER.                    9.20:  Sperry Version 
 TDAT.m                 559.00:  Tot Depth Attmp 
 TDDF.                      No:  Trip for DD 
 TDLG.m                 559.00:  Tot Depth Loggd 
 TFF .                      No:  Trip for Fail 
 TQAA.f-kp               26.49:  Torque Abs Avg 
 TQAN.f-kp               25.00:  Torque Abs Min 
 TQAX.f-kp               27.00:  Torque Abs Max 
 TRRT.°/30m               1.50:  Turn Rotating 
 MRT .                    HCIM:  Maximum Recorded Temperature 
 TTMX.degC               90.20:  Max Tool Temp 
 VS01.                90542671:  Virtual Str1 SN 
 VS02.                90545185:  Virtual Str2 SN 
 VS03.                90602015:  Virtual Str3 SN 
 VS04.                90515230:  Virtual Str4 SN 
 WBMN.klb                 5.00:  WOB Min 
 WOBA.klb                14.79:  WOB Avg 
 WOBX.klb                20.00:  WOB Max 
 YP  .lhf2               29.00:  Yield Point 
~Curve Information Block
#MNEM.UNIT                 API CODE     Curve Description
#---------               -----------    ---------------------------
 TIME.HHMMSS            00 000 000 000:  GT Time & Date
 GTDEPTH.m              00 000 000 000:  GT Depth
 GTPQH.psia             00 000 000 000:  GT HR Quartz Pressure
 GTTQ.degC              00 000 000 000:  GT Quartz Temperature
 GTTN.NONE              00 000 000 000:  GT Test Number
 GTET.sec               00 000 000 000:  GT Elapsed Test Time
 GTTVD.m                00 000 000 000:  GT True Vertical Depth
#Other Information
#
#WARRANTY: Halliburton will use its best efforts to furnish customers with 
#accurate information and interpretations that are part of, and incident to, the services 
#provided.  However, Halliburton cannot and does not warrant the accuracy 
#or correctness of such information and interpretations.  Under no circumstances should any 
#such information or interpretation be relied upon as the sole basis for any drilling, 
#completion, production, or financial decision or any procedure involving any risk to the 
#safety of any drilling venture, drilling rig or its crew or any other third party.  The 
#Customer has full responsibility for all drilling, completion and production operation.  
#Halliburton makes no representations or warranties, either expressed or 
#implied, including, but not limited to, the implied warranties of merchantability or fitness 
#for a particular purpose, with respect to the services rendered.  In no event will 
#Halliburton be liable for failure to obtain any particular results or for 
#any damages, including, but not limited to, indirect, special or consequential damages, 
#resulting from the use of any information or interpretation provided by Halliburton.
#
~A           TIME           GTDEPTH  GTPQH  GTTQ  GTTN   GTET   GTTVD  
# ...
   16:56:00.249.09-Sep-2020 5303.01 6324.60 74.68 19.00 226.11 2557.08
   16:56:00.450.09-Sep-2020 5303.01 6324.60 74.68 19.00 226.31 2557.08
   16:56:00.650.09-Sep-2020 5303.01 6324.80 74.68 19.00 226.51 2557.08
   16:56:00.850.09-Sep-2020 5303.01 6324.84 74.68 19.00 226.71 2557.08
   16:56:01.050.09-Sep-2020 5303.01 6324.84 74.68 19.00 226.91 2557.08
   16:56:01.250.09-Sep-2020 5303.01 6334.19 74.68 19.00 227.11 2557.08
   16:56:01.450.09-Sep-2020 5303.01 6334.19 74.68 19.00 227.31 2557.08
   16:56:01.650.09-Sep-2020 5303.01 6323.96 74.68 19.00 227.51 2557.08
   16:56:01.850.09-Sep-2020 5303.01 6325.78 74.68 19.00 227.71 2557.08
   16:56:02.050.09-Sep-2020 5303.01 6325.39 74.68 19.00 227.91 2557.08
   16:56:02.250.09-Sep-2020 5303.01 6326.24 74.68 19.00 228.11 2557.08
   16:56:02.451.09-Sep-2020 5303.01 6326.24 74.68 19.00 228.31 2557.08
   16:56:02.651.09-Sep-2020 5303.01 6325.97 74.68 19.00 228.51 2557.08
   16:56:02.851.09-Sep-2020 5303.01 6324.76 74.68 19.00 228.71 2557.08
   16:56:03.051.09-Sep-2020 5303.01 6324.41 74.68 19.00 228.91 2557.08
   16:56:03.251.09-Sep-2020 5303.01 6324.65 74.68 19.00 229.11 2557.08
   16:56:03.451.09-Sep-2020 5303.01 6324.65 74.68 19.00 229.31 2557.08
   16:56:03.651.09-Sep-2020 5303.01 6324.67 74.68 19.00 229.51 2557.08
   16:56:03.851.09-Sep-2020 5303.01 6324.68 74.68 19.00 229.71 2557.08
   16:56:04.051.09-Sep-2020 5303.01 6324.02 74.68 19.00 229.91 2557.08
   16:56:04.251.09-Sep-2020 5303.01 6323.70 74.68 19.00 230.11 2557.08
   16:56:04.451.09-Sep-2020 5303.01 6323.70 74.68 19.00 230.31 2557.08
   16:56:04.652.09-Sep-2020 5303.01 6332.61 74.68 19.00 230.51 2557.08
   16:56:04.852.09-Sep-2020 5303.01 6322.60 74.68 19.00 230.71 2557.08
   16:56:05.052.09-Sep-2020 5303.01 6322.74 74.68 19.00 230.91 2557.08
   16:56:05.252.09-Sep-2020 5303.01 6324.92 74.68 19.00 231.11 2557.08
   16:56:05.452.09-Sep-2020 5303.01 6324.92 74.68 19.00 231.31 2557.08
   16:56:05.652.09-Sep-2020 5303.01 6324.73 74.68 19.00 231.51 2557.08
   16:56:05.852.09-Sep-2020 5303.01 6335.11 74.68 19.00 231.71 2557.08
   16:56:06.052.09-Sep-2020 5303.01 6322.53 74.68 19.00 231.91 2557.08
   16:56:06.252.09-Sep-2020 5303.01 6322.82 74.68 19.00 232.11 2557.08
   16:56:06.452.09-Sep-2020 5303.01 6322.82 74.68 19.00 232.31 2557.08
   16:56:06.653.09-Sep-2020 5303.01 6323.99 74.68 19.00 232.51 2557.08
   16:56:06.853.09-Sep-2020 5303.01 6325.20 74.68 19.00 232.71 2557.08
   16:56:07.053.09-Sep-2020 5303.01 6325.33 74.68 19.00 232.91 2557.08
   16:56:07.253.09-Sep-2020 5303.01 6334.88 74.68 19.00 233.11 2557.08
   16:56:07.453.09-Sep-2020 5303.01 6334.88 74.68 19.00 233.31 2557.08
   16:56:07.653.09-Sep-2020 5303.01 6322.31 74.68 19.00 233.51 2557.08
   16:56:07.853.09-Sep-2020 5303.01 6325.07 74.68 19.00 233.71 2557.08
   16:56:08.053.09-Sep-2020 5303.01 6324.78 74.68 19.00 233.91 2557.08
   16:56:08.253.09-Sep-2020 5303.01 6328.79 74.68 19.00 234.11 2557.08
   16:56:08.453.09-Sep-2020 5303.01 6328.79 74.68 19.00 234.31 2557.08
   16:56:08.653.09-Sep-2020 5303.01 6325.15 74.68 19.00 234.51 2557.08
   16:56:08.854.09-Sep-2020 5303.01 6325.34 74.68 19.00 234.71 2557.08
   16:56:09.054.09-Sep-2020 5303.01 6325.59 74.68 19.00 234.91 2557.08
   16:56:09.254.09-Sep-2020 5303.01 6326.82 74.68 19.00 235.11 2557.08
   16:56:09.454.09-Sep-2020 5303.01 6326.82 74.68 19.00 235.31 2557.08
   16:56:09.654.09-Sep-2020 5303.01 6324.52 74.68 19.00 235.51 2557.08
   16:56:09.854.09-Sep-2020 5303.01 6324.35 74.68 19.00 235.71 2557.08
   16:56:10.054.09-Sep-2020 5303.01 6326.32 74.68 19.00 235.91 2557.08
   16:56:10.254.09-Sep-2020 5303.01 6326.21 74.68 19.00 236.11 2557.08
   16:56:10.454.09-Sep-2020 5303.01 6326.21 74.68 19.00 236.31 2557.08
   16:56:10.654.09-Sep-2020 5303.01 6327.17 74.68 19.00 236.51 2557.08
   16:56:10.855.09-Sep-2020 5303.01 6326.38 74.68 19.00 236.71 2557.08
   16:56:11.055.09-Sep-2020 5303.01 6326.07 74.68 19.00 236.91 2557.08
   16:56:11.255.09-Sep-2020 5303.01 6325.81 74.68 19.00 237.11 2557.08
   16:56:11.455.09-Sep-2020 5303.01 6325.81 74.68 19.00 237.31 2557.08
   16:56:11.655.09-Sep-2020 5303.01 6325.66 74.68 19.00 237.51 2557.08
   16:56:11.855.09-Sep-2020 5303.01 6325.68 74.68 19.00 237.71 2557.08
   16:56:12.055.09-Sep-2020 5303.01 6325.78 74.68 19.00 237.91 2557.08
   16:56:12.255.09-Sep-2020 5303.01 6325.64 74.68 19.00 238.11 2557.08
   16:56:12.455.09-Sep-2020 5303.01 6325.64 74.68 19.00 238.31 2557.08
   16:56:12.655.09-Sep-2020 5303.01 6325.68 74.68 19.00 238.51 2557.08
   16:56:12.856.09-Sep-2020 5303.01 6325.80 74.68 19.00 238.71 2557.08
   16:56:13.056.09-Sep-2020 5303.01 6328.26 74.68 19.00 238.91 2557.08
   16:56:13.256.09-Sep-2020 5303.01 6330.02 74.68 19.00 239.11 2557.08
   16:56:13.456.09-Sep-2020 5303.01 6330.02 74.68 19.00 239.31 2557.08
   16:56:13.656.09-Sep-2020 5303.01 6326.39 74.68 19.00 239.51 2557.08
   16:56:13.856.09-Sep-2020 5303.01 6326.22 74.68 19.00 239.71 2557.08
   16:56:14.056.09-Sep-2020 5303.01 6326.90 74.68 19.00 239.91 2557.08
   16:56:14.256.09-Sep-2020 5303.01 6327.00 74.68 19.00 240.12 2557.08
   16:56:14.456.09-Sep-2020 5303.01 6327.00 74.68 19.00 240.32 2557.08
   16:56:14.656.09-Sep-2020 5303.01 6325.61 74.68 19.00 240.52 2557.08
   16:56:14.856.09-Sep-2020 5303.01 6325.16 74.68 19.00 240.72 2557.08
   16:56:15.057.09-Sep-2020 5303.01 6325.33 74.68 19.00 240.92 2557.08
   16:56:15.257.09-Sep-2020 5303.01 6325.28 74.68 19.00 241.12 2557.08
   16:56:15.457.09-Sep-2020 5303.01 6325.28 74.68 19.00 241.32 2557.08
   16:56:15.657.09-Sep-2020 5303.01 6325.25 74.68 19.00 241.52 2557.08
   16:56:15.857.09-Sep-2020 5303.01 6324.69 74.68 19.00 241.72 2557.08
   16:56:16.057.09-Sep-2020 5303.01 6324.37 74.68 19.00 241.92 2557.08
   16:56:16.257.09-Sep-2020 5303.01 6324.19 74.68 19.00 242.12 2557.08
   16:56:16.457.09-Sep-2020 5303.01 6324.19 74.68 19.00 242.32 2557.08
   16:56:16.657.09-Sep-2020 5303.01 6328.54 74.68 19.00 242.52 2557.08
   16:56:16.857.09-Sep-2020 5303.01 6324.51 74.68 19.00 242.72 2557.08
   16:56:17.058.09-Sep-2020 5303.01 6325.00 74.68 19.00 242.92 2557.08
   16:56:17.258.09-Sep-2020 5303.01 6324.40 74.68 19.00 243.12 2557.08
   16:56:17.458.09-Sep-2020 5303.01 6324.40 74.68 19.00 243.32 2557.08
   16:56:17.658.09-Sep-2020 5303.01 6333.89 74.68 19.00 243.52 2557.08
   16:56:17.858.09-Sep-2020 5303.01 6324.55 74.68 19.00 243.72 2557.08
   16:56:18.058.09-Sep-2020 5303.01 6323.26 74.68 19.00 243.92 2557.08
   16:56:18.258.09-Sep-2020 5303.01 6325.10 74.68 19.00 244.12 2557.08
   16:56:18.458.09-Sep-2020 5303.01 6325.10 74.68 19.00 244.32 2557.08
   16:56:18.658.09-Sep-2020 5303.01 6325.69 74.68 19.00 244.52 2557.08
   16:56:18.858.09-Sep-2020 5303.01 6325.96 74.68 19.00 244.72 2557.08
   16:56:19.058.09-Sep-2020 5303.01 6328.06 74.68 19.00 244.92 2557.08
   16:56:19.259.09-Sep-2020 5303.01 6329.48 74.68 19.00 245.12 2557.08
   16:56:19.459.09-Sep-2020 5303.01 6329.48 74.68 19.00 245.32 2557.08
   16:56:19.659.09-Sep-2020 5303.01 6325.33 74.68 19.00 245.52 2557.08
   16:56:19.859.09-Sep-2020 5303.01 6325.03 74.68 19.00 245.72 2557.08
   16:56:20.059.09-Sep-2020 5303.01 6328.12 74.68 19.00 245.92 2557.08
   16:56:20.259.09-Sep-2020 5303.01 6330.21 74.68 19.00 246.12 2557.08
   16:56:20.459.09-Sep-2020 5303.01 6330.21 74.68 19.00 246.32 2557.08
   16:56:20.659.09-Sep-2020 5303.01 6324.78 74.68 19.00 246.52 2557.08
   16:56:20.859.09-Sep-2020 5303.01 6324.60 74.68 19.00 246.72 2557.08
   16:56:21.059.09-Sep-2020 5303.01 6325.71 74.68 19.00 246.92 2557.08
   16:56:21.260.09-Sep-2020 5303.01 6336.52 74.68 19.00 247.12 2557.08
   16:56:21.460.09-Sep-2020 5303.01 6336.52 74.68 19.00 247.32 2557.08
   16:56:21.660.09-Sep-2020 5303.01 6323.52 74.68 19.00 247.52 2557.08
   16:56:21.860.09-Sep-2020 5303.01 6325.55 74.68 19.00 247.72 2557.08
   16:56:22.060.09-Sep-2020 5303.01 6325.56 74.68 19.00 247.92 2557.08
   16:56:22.260.09-Sep-2020 5303.01 6326.91 74.68 19.00 248.12 2557.08
   16:56:22.460.09-Sep-2020 5303.01 6326.91 74.68 19.00 248.32 2557.08
   16:56:22.660.09-Sep-2020 5303.01 6325.87 74.68 19.00 248.52 2557.08
