~Version Information
 VERS.                  2.0:   CWLS log ASCII Standard -VERSION 2.0
 WRAP.                   NO:   One line per depth step
~Well Information Block
#MNEM.UNIT     VALUE/NAME     DESCRIPTION
#---------     -----------    ---------------------------
 STRT.S             15:34:19 09-Sep-20: START TIME 15:34:19 09-Sep-20
 STOP.S             15:42:34 09-Sep-20: STOP TIME  15:42:34 09-Sep-20
 STEP.S                   0.00: STEP TIME
 NULL.                 -999.25: NULL VALUE
 MDS .        Operator Entered:  MAG DATA SOURCE
 PDAT.          Mean Sea Level:  PERMANENT DATUM
 DCON.         Sperry Drilling:  DIRECTNL CONTR
 RIG .              West Azeri:  RIG NAME
 WELL.           C40 (Slot 20):  WELL NAME
 SRVC.     Turan Drilling Engineering:  CONTRACTOR
 FLD .                     ACG:  FIELD NAME
 CTRY.              Azerbaijan:  COUNTRY NAME
 PROV.                    Baku:  PROVINCE
 STAT.                    Baku:  STATE NAME
 REGN.                   EESSA:  REGION
 BASE.              Azerbaijan:  LOGGING EQUIPMENT BASE LOCATION
 COMP.     BP Exploration (Caspian Sea) Ltd:  COMPANY
 WTYP.                Deviated:  WELL TYPE
 SON .        AZ-XX-0906344804:  JOB NUMBER
 FTOP.          Formation Tops:  FORM TOPS DESC
 ILTD.               Lithology:  INTERP LTH DESC
 SVYD.                  Survey:  SURVEY DESC
 DMOD.             Drill Model:  DRILL MOD DESC
 HPTY.       Minimum Curvature:  HOLE POS TYPE
 NREF.                    Grid:  NORTH REFERENCE
 SPUD.               01-Jan-20:  SPUD DATE
 DATE.      00.59.44 15-Sep-20:  END TIME
 STIM.      12.00.00 12-Jun-20:  START TIME
 DMF .             Drill Floor:  DRILL MEAS FROM
 DFST.                        :  DIST FSL TEXT
 DFWT.                        :  DIST FWL TEXT
 API .                        :  API NUMBER
 CNTY.                        :  COUNTY
 UWI .                        :  UNIQUE WELL IDENTIFIER
 LOC .                        :  LOCATION
 LMF .             Drill Floor:  LOG MEASURED FROM
 VSNS.m                   2.88:  VERT SEC N/S
 VSEW.m                  -3.84:  VERT SEC E/W
 AGAP.m                  43.42:  AIR GAP
 APD .m                  43.42:  DEPTH ABOVE PD
 WDMS.m                 118.27:  WD ELEV
 EGL .m                   0.00:  GROUND ELEVATION
 EPD .m                   0.00:  ELEVATION
 AZTC.deg                 6.23:  AZM TOTAL CORR
 GRDC.deg                 0.20:  GRID CORRECTION
 MDEC.deg                 6.43:  MAGNETIC DECL
 MDIP.deg                59.49:  MAGNETIC DIP
 MFLD.nT              50277.00:  MAGNETIC FIELD
 GVFD.g                   1.00:  GRAVITY FIELD
 VSDR.deg               173.20:  VERT SEC DIRECT
 TDD .m                5790.01:  TOTAL DEPTH (DRILLER)
 SDEP.m                5231.01:  START DEPTH
 DFSL.m                   0.00:  DISTANCE FSL
 DFWL.m                   0.00:  DISTANCE FWL
 UTMY.m             4435808.83:  UTM Y
 UTMX.m              526266.40:  UTM X
 WHEW.m                  -3.84:  WELL HEAD E/W
 WHNS.m                   2.88:  WELL HEAD N/S
 LONG.deg                51.31:  LONGITUDE
 LATI.deg                40.06:  LATITUDE
 TVDS.m                  43.42:  TVDSS CORRECTN
 DEP .m                 430.08:  DEPTH
 EKB .m                  43.42:  KB ELEVATION
 EDF .m                  43.42:  DF ELEVATION
 TDL .m                 559.00:  TOTAL DEPTH (LOGGER)
 MAGU.                 1849381:  MAGUTM CHECKSUM
 VSC .                       0:  VS TO CLOSURE
~Parameter Information Block
#MNEM.UNIT       Value        Description
#---------     -----------    ---------------------------
 AV  .mps                 4.87:  Ann Velocity 
 AVMX.mps                 7.08:  Max Ann Veloc 
 AZIF.deg               108.87:  Azm, Final 
 BHAT.                  Rotary:  BHA Type 
 BROT.°/30m               0.35:  Build Rotating 
 BS  .in                  8.50:  Bit Size 
 BSZ .in                  8.50:  Bit Size 
 BTPL.psig              360.00:  Bit Press Loss 
 CABU.                     Yes:  Customer Abuse 
 COMM.                     ¼m:  Run Comments 1 
 TCS .hr                106.24:  Time Ciculation Ended 
 CV  .mps                 1.77:  Crit Velocity 
 CVMX.mps                 2.03:  Max Crit Veloc 
 DD1 .         Aykhan Agagulov:  Direct Drillr 1 
 DD2 .            Nonso Okofor:  Direct Drillr 2 
 DDSV.               Geo-Pilot:  DD Service 
 DEFF.%                  98.00:  % Det Eff 
 DLRX.°/30m               0.50:  Dogleg Rot Max 
 DLSO.°/30m               0.40:  Dogleg Oriented 
 DLSX.°/30m               0.94:  Dogleg Str Max 
 DRET.      20.30.00 08-Sep-20:  Drill End Time 
 DRST.      22.15.00 06-Sep-20:  Drill Start Tim 
 DTIM.hr                 31.31:  Time Drilling 
 EDEP.m                5790.01:  End Depth 
 ENG1.           Amrah Tahirov:  Engineer 1 
 ENG2.         Dair Mahammadov:  Engineer 2 
 ENG3.           Emil Huseynov:  Engineer 3 
 ETIM.      04.01.04 12-Sep-20:  End Time 
 FLOI.gpm               450.00:  Flow In 
 FLON.gpm               450.00:  Flow In Min 
 FLOS.cptm                2.00:  Fluid Loss 
 FLOX.gpm               450.00:  Flow In Max 
 FTRO.       Formation Presure:  FTWD Run Obj 
 HFLO.                      No:  High Flow 
 HPRE.                      No:  High Pressure 
 HTEM.                      No:  High Temp 
 HYDO.m                   1.80:  Hydro Offset 
 IFIN.deg                72.03:  Inc, Final 
 IMAX.deg                73.72:  Inc Max 
 IMIN.deg                70.94:  Inc Min 
 IMND.m                5508.52:  Inc Min Depth 
 IMXD.m                5253.60:  Inc Max Depth 
 JARR.                      No:  Jarring 
 LETM.      20.30.00 08-Sep-20:  Log End Time 
 LOST.hr                     0:  Lost Rig Time 
 LSTM.      22.15.00 06-Sep-20:  Log Start Time 
 MDCL.ppm             36000.00:  Mud Chlorides 
 MDES.     Inversion Oil/Synthetic:  Mud Desc 
 DFD .sg                  1.44:  Mud Density 
 MDMN.sg                  1.44:  Dens Mud Min 
 MDMX.sg                  1.57:  Dens Mud Max 
 MOIL.                      70:  Run Mud Oil % 
 MOWR.                   70:30:  Run Mud OWR 
 MSND.                       0:  Run Mud Sand % 
 MSOL.                      21:  Run Mud Solids% 
 DFV .spqt               68.00:  Mud Viscosity 
 MWOD.in                  6.75:  MWD Tool OD 
 MWSI.                     Yes:  Serv Intrp, MWD 
 OTIM.hr                174.84:  Time Operating 
 PCON.           Look Like New:  Pad Condition 
 PMAX.psia            10616.93:  Press Op, Max 
 PV  .cP                 50.00:  Mud PV 
 RUN .                     700:  Run Number 
 ROPA.m/hr               14.24:  ROP Avg 
 ROPN.m/hr               10.00:  ROP Min 
 ROPX.m/hr               32.00:  ROP Max 
 RPMA.rpm               120.90:  RPM Surface Avg 
 RPMN.rpm               120.00:  RPM Surface Min 
 RPMX.rpm               140.00:  RPM Surface Max 
 RRUN.                    0700:  Rig Run Number 
 RTIM.hr                  3.20:  Time Reaming 
 SAZI.deg               109.99:  Azm, Start 
 SDEP.m                5231.01:  Start Depth 
 SIDD.                      No:  Serv Intrp, DD 
 SINC.deg                73.72:  Inc, Start 
 SPPA.psig             3051.00:  SPP Avg 
 SPPN.psig             2950.00:  SPP Min 
 SPPX.psig             3250.00:  SPP Max 
 STIM.      08.00.00 05-Sep-20:  Start Time 
 SVCS.                 DD, MWD:  Services 
 SVER.                    9.20:  Sperry Version 
 TDAT.m                 559.00:  Tot Depth Attmp 
 TDDF.                      No:  Trip for DD 
 TDLG.m                 559.00:  Tot Depth Loggd 
 TFF .                      No:  Trip for Fail 
 TQAA.f-kp               26.49:  Torque Abs Avg 
 TQAN.f-kp               25.00:  Torque Abs Min 
 TQAX.f-kp               27.00:  Torque Abs Max 
 TRRT.°/30m               1.50:  Turn Rotating 
 MRT .                    HCIM:  Maximum Recorded Temperature 
 TTMX.degC               90.20:  Max Tool Temp 
 VS01.                90542671:  Virtual Str1 SN 
 VS02.                90545185:  Virtual Str2 SN 
 VS03.                90602015:  Virtual Str3 SN 
 VS04.                90515230:  Virtual Str4 SN 
 WBMN.klb                 5.00:  WOB Min 
 WOBA.klb                14.79:  WOB Avg 
 WOBX.klb                20.00:  WOB Max 
 YP  .lhf2               29.00:  Yield Point 
~Curve Information Block
#MNEM.UNIT                 API CODE     Curve Description
#---------               -----------    ---------------------------
 TIME.HHMMSS            00 000 000 000:  GT Time & Date
 GTDEPTH.m              00 000 000 000:  GT Depth
 GTPQH.psia             00 000 000 000:  GT HR Quartz Pressure
 GTTQ.degC              00 000 000 000:  GT Quartz Temperature
 GTTN.NONE              00 000 000 000:  GT Test Number
 GTET.sec               00 000 000 000:  GT Elapsed Test Time
 GTTVD.m                00 000 000 000:  GT True Vertical Depth
#Other Information
#
#WARRANTY: Halliburton will use its best efforts to furnish customers with 
#accurate information and interpretations that are part of, and incident to, the services 
#provided.  However, Halliburton cannot and does not warrant the accuracy 
#or correctness of such information and interpretations.  Under no circumstances should any 
#such information or interpretation be relied upon as the sole basis for any drilling, 
#completion, production, or financial decision or any procedure involving any risk to the 
#safety of any drilling venture, drilling rig or its crew or any other third party.  The 
#Customer has full responsibility for all drilling, completion and production operation.  
#Halliburton makes no representations or warranties, either expressed or 
#implied, including, but not limited to, the implied warranties of merchantability or fitness 
#for a particular purpose, with respect to the services rendered.  In no event will 
#Halliburton be liable for failure to obtain any particular results or for 
#any damages, including, but not limited to, indirect, special or consequential damages, 
#resulting from the use of any information or interpretation provided by Halliburton.
#
~A           TIME           GTDEPTH  GTPQH  GTTQ  GTTN   GTET   GTTVD  
# ...
   15:41:05.800.09-Sep-2020 5351.51 3819.33 75.25 17.00 406.80 2571.85
   15:41:06.000.09-Sep-2020 5351.51 3819.36 75.25 17.00 407.00 2571.85
   15:41:06.200.09-Sep-2020 5351.51 3819.36 75.25 17.00 407.20 2571.85
   15:41:06.400.09-Sep-2020 5351.51 3819.48 75.25 17.00 407.40 2571.85
   15:41:06.600.09-Sep-2020 5351.51 3819.34 75.25 17.00 407.60 2571.85
   15:41:06.800.09-Sep-2020 5351.51 3819.33 75.25 17.00 407.80 2571.85
   15:41:07.000.09-Sep-2020 5351.51 3819.37 75.25 17.00 408.00 2571.85
   15:41:07.200.09-Sep-2020 5351.51 3819.37 75.25 17.00 408.20 2571.85
   15:41:07.400.09-Sep-2020 5351.51 3819.27 75.25 17.00 408.40 2571.85
   15:41:07.600.09-Sep-2020 5351.51 3819.34 75.25 17.00 408.60 2571.85
   15:41:07.800.09-Sep-2020 5351.51 3819.34 75.25 17.00 408.80 2571.85
   15:41:08.000.09-Sep-2020 5351.51 3819.38 75.25 17.00 409.00 2571.85
   15:41:08.200.09-Sep-2020 5351.51 3819.38 75.25 17.00 409.20 2571.85
   15:41:08.400.09-Sep-2020 5351.51 3819.34 75.25 17.00 409.40 2571.85
   15:41:08.600.09-Sep-2020 5351.51 3819.33 75.25 17.00 409.60 2571.85
   15:41:08.800.09-Sep-2020 5351.51 3819.33 75.25 17.00 409.80 2571.85
   15:41:09.000.09-Sep-2020 5351.51 3819.35 75.25 17.00 410.00 2571.85
   15:41:09.200.09-Sep-2020 5351.51 3819.35 75.25 17.00 410.20 2571.85
   15:41:09.400.09-Sep-2020 5351.51 3819.34 75.25 17.00 410.40 2571.85
   15:41:09.600.09-Sep-2020 5351.51 3819.33 75.25 17.00 410.60 2571.85
   15:41:09.800.09-Sep-2020 5351.51 3819.35 75.25 17.00 410.80 2571.85
   15:41:10.000.09-Sep-2020 5351.51 3819.33 75.25 17.00 411.00 2571.85
   15:41:10.200.09-Sep-2020 5351.51 3819.33 75.25 17.00 411.20 2571.85
   15:41:10.400.09-Sep-2020 5351.51 3819.34 75.25 17.00 411.40 2571.85
   15:41:10.600.09-Sep-2020 5351.51 3819.35 75.25 17.00 411.60 2571.85
   15:41:10.800.09-Sep-2020 5351.51 3819.16 75.25 17.00 411.80 2571.85
   15:41:11.000.09-Sep-2020 5351.51 3819.50 75.25 17.00 412.00 2571.85
   15:41:11.200.09-Sep-2020 5351.51 3819.50 75.25 17.00 412.20 2571.85
   15:41:11.400.09-Sep-2020 5351.51 3819.34 75.25 17.00 412.40 2571.85
   15:41:11.600.09-Sep-2020 5351.51 3819.36 75.25 17.00 412.60 2571.85
   15:41:11.800.09-Sep-2020 5351.51 3819.33 75.25 17.00 412.80 2571.85
   15:41:12.000.09-Sep-2020 5351.51 3819.34 75.25 17.00 413.00 2571.85
   15:41:12.200.09-Sep-2020 5351.51 3819.34 75.25 17.00 413.20 2571.85
   15:41:12.400.09-Sep-2020 5351.51 3819.34 75.25 17.00 413.40 2571.85
   15:41:12.600.09-Sep-2020 5351.51 3819.34 75.25 17.00 413.60 2571.85
   15:41:12.800.09-Sep-2020 5351.51 3819.35 75.25 17.00 413.80 2571.85
   15:41:13.000.09-Sep-2020 5351.51 3819.34 75.25 17.00 414.00 2571.85
   15:41:13.200.09-Sep-2020 5351.51 3819.34 75.25 17.00 414.20 2571.85
   15:41:13.400.09-Sep-2020 5351.51 3819.33 75.25 17.00 414.40 2571.85
   15:41:13.600.09-Sep-2020 5351.51 3819.33 75.25 17.00 414.60 2571.85
   15:41:13.800.09-Sep-2020 5351.51 3819.34 75.25 17.00 414.80 2571.85
   15:41:14.000.09-Sep-2020 5351.51 3819.35 75.25 17.00 415.00 2571.85
   15:41:14.200.09-Sep-2020 5351.51 3819.35 75.25 17.00 415.20 2571.85
   15:41:14.400.09-Sep-2020 5351.51 3819.25 75.25 17.00 415.40 2571.85
   15:41:14.600.09-Sep-2020 5351.51 3819.33 75.25 17.00 415.60 2571.85
   15:41:14.800.09-Sep-2020 5351.51 3819.32 75.25 17.00 415.80 2571.85
   15:41:15.000.09-Sep-2020 5351.51 3819.38 75.25 17.00 416.00 2571.85
   15:41:15.200.09-Sep-2020 5351.51 3819.38 75.25 17.00 416.20 2571.85
   15:41:15.400.09-Sep-2020 5351.51 3819.38 75.25 17.00 416.40 2571.85
   15:41:15.600.09-Sep-2020 5351.51 3819.28 75.25 17.00 416.60 2571.85
   15:41:15.800.09-Sep-2020 5351.51 3819.35 75.25 17.00 416.80 2571.85
   15:41:16.000.09-Sep-2020 5351.51 3819.34 75.25 17.00 417.00 2571.85
   15:41:16.200.09-Sep-2020 5351.51 3819.34 75.25 17.00 417.20 2571.85
   15:41:16.400.09-Sep-2020 5351.51 3819.32 75.25 17.00 417.40 2571.85
   15:41:16.600.09-Sep-2020 5351.51 3819.34 75.25 17.00 417.60 2571.85
   15:41:16.800.09-Sep-2020 5351.51 3819.17 75.25 17.00 417.80 2571.85
   15:41:17.000.09-Sep-2020 5351.51 3819.48 75.25 17.00 418.00 2571.85
   15:41:17.200.09-Sep-2020 5351.51 3819.48 75.25 17.00 418.20 2571.85
   15:41:17.400.09-Sep-2020 5351.51 3819.33 75.25 17.00 418.40 2571.85
   15:41:17.600.09-Sep-2020 5351.51 3819.36 75.25 17.00 418.60 2571.85
   15:41:17.800.09-Sep-2020 5351.51 3819.34 75.25 17.00 418.80 2571.85
   15:41:18.000.09-Sep-2020 5351.51 3819.35 75.25 17.00 419.00 2571.85
   15:41:18.200.09-Sep-2020 5351.51 3819.35 75.25 17.00 419.20 2571.85
   15:41:18.400.09-Sep-2020 5351.51 3819.28 75.25 17.00 419.40 2571.85
   15:41:18.600.09-Sep-2020 5351.51 3819.34 75.25 17.00 419.60 2571.85
   15:41:18.800.09-Sep-2020 5351.51 3819.36 75.25 17.00 419.80 2571.85
   15:41:19.000.09-Sep-2020 5351.51 3819.47 75.25 17.00 420.00 2571.85
   15:41:19.200.09-Sep-2020 5351.51 3819.21 75.25 17.00 420.20 2571.85
   15:41:19.400.09-Sep-2020 5351.51 3819.31 75.25 17.00 420.40 2571.85
   15:41:19.600.09-Sep-2020 5351.51 3819.31 75.25 17.00 420.60 2571.85
   15:41:19.800.09-Sep-2020 5351.51 3819.38 75.25 17.00 420.80 2571.85
   15:41:20.000.09-Sep-2020 5351.51 3819.34 75.25 17.00 421.00 2571.85
   15:41:20.200.09-Sep-2020 5351.51 3819.34 75.25 17.00 421.20 2571.85
   15:41:20.400.09-Sep-2020 5351.51 3819.33 75.25 17.00 421.40 2571.85
   15:41:20.600.09-Sep-2020 5351.51 3819.35 75.25 17.00 421.60 2571.85
   15:41:20.800.09-Sep-2020 5351.51 3819.33 75.25 17.00 421.80 2571.85
   15:41:21.000.09-Sep-2020 5351.51 3819.35 75.25 17.00 422.00 2571.85
   15:41:21.200.09-Sep-2020 5351.51 3819.35 75.25 17.00 422.20 2571.85
   15:41:21.400.09-Sep-2020 5351.51 3819.35 75.25 17.00 422.40 2571.85
   15:41:21.600.09-Sep-2020 5351.51 3819.34 75.25 17.00 422.60 2571.85
   15:41:21.800.09-Sep-2020 5351.51 3819.33 75.25 17.00 422.80 2571.85
   15:41:22.000.09-Sep-2020 5351.51 3819.34 75.25 17.00 423.00 2571.85
   15:41:22.200.09-Sep-2020 5351.51 3819.34 75.25 17.00 423.20 2571.85
   15:41:22.400.09-Sep-2020 5351.51 3819.34 75.25 17.00 423.40 2571.85
   15:41:22.600.09-Sep-2020 5351.51 3819.34 75.25 17.00 423.60 2571.85
   15:41:22.800.09-Sep-2020 5351.51 3819.38 75.25 17.00 423.80 2571.85
   15:41:23.000.09-Sep-2020 5351.51 3819.27 75.25 17.00 424.00 2571.85
   15:41:23.200.09-Sep-2020 5351.51 3819.27 75.25 17.00 424.20 2571.85
   15:41:23.400.09-Sep-2020 5351.51 3819.34 75.25 17.00 424.40 2571.85
   15:41:23.600.09-Sep-2020 5351.51 3819.39 75.25 17.00 424.60 2571.85
   15:41:23.800.09-Sep-2020 5351.51 3819.30 75.25 17.00 424.80 2571.85
   15:41:24.000.09-Sep-2020 5351.51 3819.32 75.25 17.00 425.00 2571.85
   15:41:24.200.09-Sep-2020 5351.51 3819.33 75.25 17.00 425.20 2571.85
   15:41:24.400.09-Sep-2020 5351.51 3819.33 75.25 17.00 425.40 2571.85
   15:41:24.600.09-Sep-2020 5351.51 3819.34 75.25 17.00 425.60 2571.85
   15:41:24.800.09-Sep-2020 5351.51 3819.34 75.25 17.00 425.80 2571.85
   15:41:25.000.09-Sep-2020 5351.51 3819.36 75.25 17.00 426.00 2571.85
   15:41:25.200.09-Sep-2020 5351.51 3819.36 75.25 17.00 426.20 2571.85
   15:41:25.400.09-Sep-2020 5351.51 3819.33 75.25 17.00 426.40 2571.85
   15:41:25.600.09-Sep-2020 5351.51 3819.33 75.25 17.00 426.60 2571.85
   15:41:25.800.09-Sep-2020 5351.51 3819.34 75.25 17.00 426.80 2571.85
   15:41:26.000.09-Sep-2020 5351.51 3819.20 75.25 17.00 427.00 2571.85
   15:41:26.200.09-Sep-2020 5351.51 3819.20 75.25 17.00 427.20 2571.85
   15:41:26.400.09-Sep-2020 5351.51 3819.35 75.25 17.00 427.40 2571.85
   15:41:26.600.09-Sep-2020 5351.51 3819.33 75.25 17.00 427.60 2571.85
   15:41:26.800.09-Sep-2020 5351.51 3819.31 75.25 17.00 427.80 2571.85
   15:41:27.000.09-Sep-2020 5351.51 3819.36 75.25 17.00 428.00 2571.85
   15:41:27.200.09-Sep-2020 5351.51 3819.36 75.25 17.00 428.20 2571.85
   15:41:27.400.09-Sep-2020 5351.51 3819.23 75.25 17.00 428.40 2571.85
   15:41:27.600.09-Sep-2020 5351.51 3819.32 75.25 17.00 428.60 2571.85
   15:41:27.800.09-Sep-2020 5351.51 3819.32 75.25 17.00 428.80 2571.85
   15:41:28.000.09-Sep-2020 5351.51 3819.38 75.25 17.00 429.00 2571.85
   15:41:28.200.09-Sep-2020 5351.51 3819.38 75.25 17.00 429.20 2571.85
