~Version Information
 VERS.                  2.0:   CWLS log ASCII Standard -VERSION 2.0
 WRAP.                   NO:   One line per depth step
~Well Information Block
#MNEM.UNIT     VALUE/NAME     DESCRIPTION
#---------     -----------    ---------------------------
 STRT.S             07:31:38 09-Sep-20: START TIME 07:31:38 09-Sep-20
 STOP.S             07:38:38 09-Sep-20: STOP TIME  07:38:38 09-Sep-20
 STEP.S                   0.00: STEP TIME
 NULL.                 -999.25: NULL VALUE
 MDS .        Operator Entered:  MAG DATA SOURCE
 PDAT.          Mean Sea Level:  PERMANENT DATUM
 DCON.         Sperry Drilling:  DIRECTNL CONTR
 RIG .              West Azeri:  RIG NAME
 WELL.           C40 (Slot 20):  WELL NAME
 SRVC.     Turan Drilling Engineering:  CONTRACTOR
 FLD .                     ACG:  FIELD NAME
 CTRY.              Azerbaijan:  COUNTRY NAME
 PROV.                    Baku:  PROVINCE
 STAT.                    Baku:  STATE NAME
 REGN.                   EESSA:  REGION
 BASE.              Azerbaijan:  LOGGING EQUIPMENT BASE LOCATION
 COMP.     BP Exploration (Caspian Sea) Ltd:  COMPANY
 WTYP.                Deviated:  WELL TYPE
 SON .        AZ-XX-0906344804:  JOB NUMBER
 FTOP.          Formation Tops:  FORM TOPS DESC
 ILTD.               Lithology:  INTERP LTH DESC
 SVYD.                  Survey:  SURVEY DESC
 DMOD.             Drill Model:  DRILL MOD DESC
 HPTY.       Minimum Curvature:  HOLE POS TYPE
 NREF.                    Grid:  NORTH REFERENCE
 SPUD.               01-Jan-20:  SPUD DATE
 DATE.      00.59.44 15-Sep-20:  END TIME
 STIM.      12.00.00 12-Jun-20:  START TIME
 DMF .             Drill Floor:  DRILL MEAS FROM
 DFST.                        :  DIST FSL TEXT
 DFWT.                        :  DIST FWL TEXT
 API .                        :  API NUMBER
 CNTY.                        :  COUNTY
 UWI .                        :  UNIQUE WELL IDENTIFIER
 LOC .                        :  LOCATION
 LMF .             Drill Floor:  LOG MEASURED FROM
 VSNS.m                   2.88:  VERT SEC N/S
 VSEW.m                  -3.84:  VERT SEC E/W
 AGAP.m                  43.42:  AIR GAP
 APD .m                  43.42:  DEPTH ABOVE PD
 WDMS.m                 118.27:  WD ELEV
 EGL .m                   0.00:  GROUND ELEVATION
 EPD .m                   0.00:  ELEVATION
 AZTC.deg                 6.23:  AZM TOTAL CORR
 GRDC.deg                 0.20:  GRID CORRECTION
 MDEC.deg                 6.43:  MAGNETIC DECL
 MDIP.deg                59.49:  MAGNETIC DIP
 MFLD.nT              50277.00:  MAGNETIC FIELD
 GVFD.g                   1.00:  GRAVITY FIELD
 VSDR.deg               173.20:  VERT SEC DIRECT
 TDD .m                5790.01:  TOTAL DEPTH (DRILLER)
 SDEP.m                5231.01:  START DEPTH
 DFSL.m                   0.00:  DISTANCE FSL
 DFWL.m                   0.00:  DISTANCE FWL
 UTMY.m             4435808.83:  UTM Y
 UTMX.m              526266.40:  UTM X
 WHEW.m                  -3.84:  WELL HEAD E/W
 WHNS.m                   2.88:  WELL HEAD N/S
 LONG.deg                51.31:  LONGITUDE
 LATI.deg                40.06:  LATITUDE
 TVDS.m                  43.42:  TVDSS CORRECTN
 DEP .m                 430.08:  DEPTH
 EKB .m                  43.42:  KB ELEVATION
 EDF .m                  43.42:  DF ELEVATION
 TDL .m                 559.00:  TOTAL DEPTH (LOGGER)
 MAGU.                 1849381:  MAGUTM CHECKSUM
 VSC .                       0:  VS TO CLOSURE
~Parameter Information Block
#MNEM.UNIT       Value        Description
#---------     -----------    ---------------------------
 AV  .mps                 4.87:  Ann Velocity 
 AVMX.mps                 7.08:  Max Ann Veloc 
 AZIF.deg               108.87:  Azm, Final 
 BHAT.                  Rotary:  BHA Type 
 BROT.°/30m               0.35:  Build Rotating 
 BS  .in                  8.50:  Bit Size 
 BSZ .in                  8.50:  Bit Size 
 BTPL.psig              360.00:  Bit Press Loss 
 CABU.                     Yes:  Customer Abuse 
 COMM.                     |L:  Run Comments 1 
 TCS .hr                106.24:  Time Ciculation Ended 
 CV  .mps                 1.77:  Crit Velocity 
 CVMX.mps                 2.03:  Max Crit Veloc 
 DD1 .         Aykhan Agagulov:  Direct Drillr 1 
 DD2 .            Nonso Okofor:  Direct Drillr 2 
 DDSV.               Geo-Pilot:  DD Service 
 DEFF.%                  98.00:  % Det Eff 
 DLRX.°/30m               0.50:  Dogleg Rot Max 
 DLSO.°/30m               0.40:  Dogleg Oriented 
 DLSX.°/30m               0.94:  Dogleg Str Max 
 DRET.      20.30.00 08-Sep-20:  Drill End Time 
 DRST.      22.15.00 06-Sep-20:  Drill Start Tim 
 DTIM.hr                 31.31:  Time Drilling 
 EDEP.m                5790.01:  End Depth 
 ENG1.           Amrah Tahirov:  Engineer 1 
 ENG2.         Dair Mahammadov:  Engineer 2 
 ENG3.           Emil Huseynov:  Engineer 3 
 ETIM.      04.01.04 12-Sep-20:  End Time 
 FLOI.gpm               450.00:  Flow In 
 FLON.gpm               450.00:  Flow In Min 
 FLOS.cptm                2.00:  Fluid Loss 
 FLOX.gpm               450.00:  Flow In Max 
 FTRO.       Formation Presure:  FTWD Run Obj 
 HFLO.                      No:  High Flow 
 HPRE.                      No:  High Pressure 
 HTEM.                      No:  High Temp 
 HYDO.m                   1.80:  Hydro Offset 
 IFIN.deg                72.03:  Inc, Final 
 IMAX.deg                73.72:  Inc Max 
 IMIN.deg                70.94:  Inc Min 
 IMND.m                5508.52:  Inc Min Depth 
 IMXD.m                5253.60:  Inc Max Depth 
 JARR.                      No:  Jarring 
 LETM.      20.30.00 08-Sep-20:  Log End Time 
 LOST.hr                     0:  Lost Rig Time 
 LSTM.      22.15.00 06-Sep-20:  Log Start Time 
 MDCL.ppm             36000.00:  Mud Chlorides 
 MDES.     Inversion Oil/Synthetic:  Mud Desc 
 DFD .sg                  1.44:  Mud Density 
 MDMN.sg                  1.44:  Dens Mud Min 
 MDMX.sg                  1.57:  Dens Mud Max 
 MOIL.                      70:  Run Mud Oil % 
 MOWR.                   70:30:  Run Mud OWR 
 MSND.                       0:  Run Mud Sand % 
 MSOL.                      21:  Run Mud Solids% 
 DFV .spqt               68.00:  Mud Viscosity 
 MWOD.in                  6.75:  MWD Tool OD 
 MWSI.                     Yes:  Serv Intrp, MWD 
 OTIM.hr                174.84:  Time Operating 
 PCON.           Look Like New:  Pad Condition 
 PMAX.psia            10616.93:  Press Op, Max 
 PV  .cP                 50.00:  Mud PV 
 RUN .                     700:  Run Number 
 ROPA.m/hr               14.24:  ROP Avg 
 ROPN.m/hr               10.00:  ROP Min 
 ROPX.m/hr               32.00:  ROP Max 
 RPMA.rpm               120.90:  RPM Surface Avg 
 RPMN.rpm               120.00:  RPM Surface Min 
 RPMX.rpm               140.00:  RPM Surface Max 
 RRUN.                    0700:  Rig Run Number 
 RTIM.hr                  3.20:  Time Reaming 
 SAZI.deg               109.99:  Azm, Start 
 SDEP.m                5231.01:  Start Depth 
 SIDD.                      No:  Serv Intrp, DD 
 SINC.deg                73.72:  Inc, Start 
 SPPA.psig             3051.00:  SPP Avg 
 SPPN.psig             2950.00:  SPP Min 
 SPPX.psig             3250.00:  SPP Max 
 STIM.      08.00.00 05-Sep-20:  Start Time 
 SVCS.                 DD, MWD:  Services 
 SVER.                    9.20:  Sperry Version 
 TDAT.m                 559.00:  Tot Depth Attmp 
 TDDF.                      No:  Trip for DD 
 TDLG.m                 559.00:  Tot Depth Loggd 
 TFF .                      No:  Trip for Fail 
 TQAA.f-kp               26.49:  Torque Abs Avg 
 TQAN.f-kp               25.00:  Torque Abs Min 
 TQAX.f-kp               27.00:  Torque Abs Max 
 TRRT.°/30m               1.50:  Turn Rotating 
 MRT .                    HCIM:  Maximum Recorded Temperature 
 TTMX.degC               90.20:  Max Tool Temp 
 VS01.                90542671:  Virtual Str1 SN 
 VS02.                90545185:  Virtual Str2 SN 
 VS03.                90602015:  Virtual Str3 SN 
 VS04.                90515230:  Virtual Str4 SN 
 WBMN.klb                 5.00:  WOB Min 
 WOBA.klb                14.79:  WOB Avg 
 WOBX.klb                20.00:  WOB Max 
 YP  .lhf2               29.00:  Yield Point 
~Curve Information Block
#MNEM.UNIT                 API CODE     Curve Description
#---------               -----------    ---------------------------
 TIME.HHMMSS            00 000 000 000:  GT Time & Date
 GTDEPTH.m              00 000 000 000:  GT Depth
 GTPQH.psia             00 000 000 000:  GT HR Quartz Pressure
 GTTQ.degC              00 000 000 000:  GT Quartz Temperature
 GTTN.NONE              00 000 000 000:  GT Test Number
 GTET.sec               00 000 000 000:  GT Elapsed Test Time
 GTTVD.m                00 000 000 000:  GT True Vertical Depth
#Other Information
#
#WARRANTY: Halliburton will use its best efforts to furnish customers with 
#accurate information and interpretations that are part of, and incident to, the services 
#provided.  However, Halliburton cannot and does not warrant the accuracy 
#or correctness of such information and interpretations.  Under no circumstances should any 
#such information or interpretation be relied upon as the sole basis for any drilling, 
#completion, production, or financial decision or any procedure involving any risk to the 
#safety of any drilling venture, drilling rig or its crew or any other third party.  The 
#Customer has full responsibility for all drilling, completion and production operation.  
#Halliburton makes no representations or warranties, either expressed or 
#implied, including, but not limited to, the implied warranties of merchantability or fitness 
#for a particular purpose, with respect to the services rendered.  In no event will 
#Halliburton be liable for failure to obtain any particular results or for 
#any damages, including, but not limited to, indirect, special or consequential damages, 
#resulting from the use of any information or interpretation provided by Halliburton.
#
~A           TIME           GTDEPTH  GTPQH  GTTQ  GTTN  GTET   GTTVD  
# ...
   07:37:23.429.09-Sep-2020 5569.01 3533.42 78.50 4.00 345.14 2640.81
   07:37:23.629.09-Sep-2020 5569.01 3533.42 78.50 4.00 345.34 2640.81
   07:37:23.829.09-Sep-2020 5569.01 3533.37 78.50 4.00 345.54 2640.81
   07:37:24.029.09-Sep-2020 5569.01 3533.39 78.50 4.00 345.74 2640.81
   07:37:24.229.09-Sep-2020 5569.01 3533.39 78.50 4.00 345.94 2640.81
   07:37:24.429.09-Sep-2020 5569.01 3533.38 78.50 4.00 346.14 2640.81
   07:37:24.629.09-Sep-2020 5569.01 3533.38 78.50 4.00 346.34 2640.81
   07:37:24.829.09-Sep-2020 5569.01 3533.37 78.50 4.00 346.54 2640.81
   07:37:25.029.09-Sep-2020 5569.01 3533.40 78.50 4.00 346.74 2640.81
   07:37:25.229.09-Sep-2020 5569.01 3533.41 78.50 4.00 346.94 2640.81
   07:37:25.429.09-Sep-2020 5569.01 3533.36 78.50 4.00 347.14 2640.81
   07:37:25.629.09-Sep-2020 5569.01 3533.36 78.50 4.00 347.34 2640.81
   07:37:25.830.09-Sep-2020 5569.01 3533.37 78.50 4.00 347.54 2640.81
   07:37:26.030.09-Sep-2020 5569.01 3533.38 78.50 4.00 347.74 2640.81
   07:37:26.230.09-Sep-2020 5569.01 3533.39 78.50 4.00 347.94 2640.81
   07:37:26.430.09-Sep-2020 5569.01 3533.37 78.50 4.00 348.14 2640.81
   07:37:26.630.09-Sep-2020 5569.01 3533.37 78.50 4.00 348.34 2640.81
   07:37:26.830.09-Sep-2020 5569.01 3533.39 78.50 4.00 348.54 2640.81
   07:37:27.030.09-Sep-2020 5569.01 3533.40 78.50 4.00 348.74 2640.81
   07:37:27.230.09-Sep-2020 5569.01 3533.34 78.50 4.00 348.94 2640.81
   07:37:27.430.09-Sep-2020 5569.01 3533.39 78.50 4.00 349.14 2640.81
   07:37:27.630.09-Sep-2020 5569.01 3533.39 78.50 4.00 349.34 2640.81
   07:37:27.830.09-Sep-2020 5569.01 3533.38 78.50 4.00 349.54 2640.81
   07:37:28.030.09-Sep-2020 5569.01 3533.38 78.50 4.00 349.74 2640.81
   07:37:28.231.09-Sep-2020 5569.01 3533.37 78.50 4.00 349.94 2640.81
   07:37:28.431.09-Sep-2020 5569.01 3533.37 78.50 4.00 350.14 2640.81
   07:37:28.631.09-Sep-2020 5569.01 3533.37 78.50 4.00 350.34 2640.81
   07:37:28.831.09-Sep-2020 5569.01 3533.37 78.50 4.00 350.54 2640.81
   07:37:29.031.09-Sep-2020 5569.01 3533.39 78.50 4.00 350.74 2640.81
   07:37:29.231.09-Sep-2020 5569.01 3533.38 78.50 4.00 350.94 2640.81
   07:37:29.431.09-Sep-2020 5569.01 3533.38 78.50 4.00 351.14 2640.81
   07:37:29.631.09-Sep-2020 5569.01 3533.38 78.50 4.00 351.34 2640.81
   07:37:29.831.09-Sep-2020 5569.01 3533.38 78.50 4.00 351.54 2640.81
   07:37:30.031.09-Sep-2020 5569.01 3533.37 78.50 4.00 351.74 2640.81
   07:37:30.231.09-Sep-2020 5569.01 3533.38 78.50 4.00 351.94 2640.81
   07:37:30.431.09-Sep-2020 5569.01 3533.38 78.50 4.00 352.14 2640.81
   07:37:30.631.09-Sep-2020 5569.01 3533.38 78.50 4.00 352.34 2640.81
   07:37:30.832.09-Sep-2020 5569.01 3533.36 78.50 4.00 352.54 2640.81
   07:37:31.032.09-Sep-2020 5569.01 3533.40 78.50 4.00 352.74 2640.81
   07:37:31.232.09-Sep-2020 5569.01 3533.40 78.50 4.00 352.94 2640.81
   07:37:31.432.09-Sep-2020 5569.01 3533.35 78.50 4.00 353.14 2640.81
   07:37:31.632.09-Sep-2020 5569.01 3533.35 78.50 4.00 353.34 2640.81
   07:37:31.832.09-Sep-2020 5569.01 3533.36 78.50 4.00 353.54 2640.81
   07:37:32.032.09-Sep-2020 5569.01 3533.39 78.50 4.00 353.74 2640.81
   07:37:32.232.09-Sep-2020 5569.01 3533.37 78.50 4.00 353.94 2640.81
   07:37:32.432.09-Sep-2020 5569.01 3533.38 78.50 4.00 354.14 2640.81
   07:37:32.632.09-Sep-2020 5569.01 3533.38 78.50 4.00 354.34 2640.81
   07:37:32.832.09-Sep-2020 5569.01 3533.38 78.50 4.00 354.54 2640.81
   07:37:33.032.09-Sep-2020 5569.01 3533.37 78.50 4.00 354.75 2640.81
   07:37:33.233.09-Sep-2020 5569.01 3533.38 78.50 4.00 354.95 2640.81
   07:37:33.433.09-Sep-2020 5569.01 3533.37 78.50 4.00 355.15 2640.81
   07:37:33.633.09-Sep-2020 5569.01 3533.37 78.50 4.00 355.35 2640.81
   07:37:33.833.09-Sep-2020 5569.01 3533.37 78.50 4.00 355.55 2640.81
   07:37:34.033.09-Sep-2020 5569.01 3533.37 78.50 4.00 355.75 2640.81
   07:37:34.233.09-Sep-2020 5569.01 3533.38 78.50 4.00 355.95 2640.81
   07:37:34.433.09-Sep-2020 5569.01 3533.37 78.50 4.00 356.15 2640.81
   07:37:34.633.09-Sep-2020 5569.01 3533.37 78.50 4.00 356.35 2640.81
   07:37:34.833.09-Sep-2020 5569.01 3533.38 78.50 4.00 356.55 2640.81
   07:37:35.033.09-Sep-2020 5569.01 3533.37 78.50 4.00 356.75 2640.81
   07:37:35.233.09-Sep-2020 5569.01 3533.40 78.50 4.00 356.95 2640.81
   07:37:35.433.09-Sep-2020 5569.01 3533.35 78.50 4.00 357.15 2640.81
   07:37:35.634.09-Sep-2020 5569.01 3533.35 78.50 4.00 357.35 2640.81
   07:37:35.834.09-Sep-2020 5569.01 3533.38 78.50 4.00 357.55 2640.81
   07:37:36.034.09-Sep-2020 5569.01 3533.37 78.50 4.00 357.75 2640.81
   07:37:36.234.09-Sep-2020 5569.01 3533.38 78.50 4.00 357.95 2640.81
   07:37:36.434.09-Sep-2020 5569.01 3533.37 78.50 4.00 358.15 2640.81
   07:37:36.634.09-Sep-2020 5569.01 3533.37 78.50 4.00 358.35 2640.81
   07:37:36.834.09-Sep-2020 5569.01 3533.39 78.50 4.00 358.55 2640.81
   07:37:37.034.09-Sep-2020 5569.01 3533.40 78.50 4.00 358.75 2640.81
   07:37:37.234.09-Sep-2020 5569.01 3533.36 78.50 4.00 358.95 2640.81
   07:37:37.434.09-Sep-2020 5569.01 3533.37 78.50 4.00 359.15 2640.81
   07:37:37.634.09-Sep-2020 5569.01 3533.37 78.50 4.00 359.35 2640.81
   07:37:37.834.09-Sep-2020 5569.01 3533.36 78.50 4.00 359.55 2640.81
   07:37:38.035.09-Sep-2020 5569.01 3533.37 78.50 4.00 359.75 2640.81
   07:37:38.235.09-Sep-2020 5569.01 3533.36 78.50 4.00 359.95 2640.81
   07:37:38.435.09-Sep-2020 5569.01 3533.39 78.50 4.00 360.15 2640.81
   07:37:38.635.09-Sep-2020 5569.01 3533.39 78.50 4.00 360.35 2640.81
   07:37:38.835.09-Sep-2020 5569.01 3533.40 78.50 4.00 360.55 2640.81
   07:37:39.035.09-Sep-2020 5569.01 3533.34 78.50 4.00 360.75 2640.81
   07:37:39.235.09-Sep-2020 5569.01 3533.38 78.50 4.00 360.95 2640.81
   07:37:39.435.09-Sep-2020 5569.01 3533.37 78.50 4.00 361.15 2640.81
   07:37:39.635.09-Sep-2020 5569.01 3533.37 78.50 4.00 361.35 2640.81
   07:37:39.835.09-Sep-2020 5569.01 3533.37 78.50 4.00 361.55 2640.81
   07:37:40.035.09-Sep-2020 5569.01 3533.37 78.50 4.00 361.75 2640.81
   07:37:40.235.09-Sep-2020 5569.01 3533.38 78.50 4.00 361.95 2640.81
   07:37:40.435.09-Sep-2020 5569.01 3533.37 78.50 4.00 362.15 2640.81
   07:37:40.636.09-Sep-2020 5569.01 3533.37 78.50 4.00 362.35 2640.81
   07:37:40.836.09-Sep-2020 5569.01 3533.37 78.50 4.00 362.55 2640.81
   07:37:41.036.09-Sep-2020 5569.01 3533.37 78.50 4.00 362.75 2640.81
   07:37:41.236.09-Sep-2020 5569.01 3533.37 78.50 4.00 362.95 2640.81
   07:37:41.436.09-Sep-2020 5569.01 3533.37 78.50 4.00 363.15 2640.81
   07:37:41.636.09-Sep-2020 5569.01 3533.37 78.50 4.00 363.35 2640.81
   07:37:41.836.09-Sep-2020 5569.01 3533.65 78.50 4.00 363.55 2640.81
   07:37:42.036.09-Sep-2020 5569.01 3533.88 78.50 4.00 363.75 2640.81
   07:37:42.236.09-Sep-2020 5569.01 3539.97 78.50 4.00 363.95 2640.81
   07:37:42.436.09-Sep-2020 5569.01 5948.27 78.50 4.00 364.15 2640.81
   07:37:42.636.09-Sep-2020 5569.01 5948.27 78.50 4.00 364.35 2640.81
   07:37:42.836.09-Sep-2020 5569.01 6490.23 78.50 4.00 364.55 2640.81
   07:37:43.037.09-Sep-2020 5569.01 6494.16 78.50 4.00 364.75 2640.81
   07:37:43.237.09-Sep-2020 5569.01 6491.61 78.50 4.00 364.95 2640.81
   07:37:43.437.09-Sep-2020 5569.01 6493.79 78.51 4.00 365.15 2640.81
   07:37:43.637.09-Sep-2020 5569.01 6493.79 78.51 4.00 365.35 2640.81
   07:37:43.837.09-Sep-2020 5569.01 6493.60 78.51 4.00 365.55 2640.81
   07:37:44.037.09-Sep-2020 5569.01 6495.44 78.51 4.00 365.75 2640.81
   07:37:44.237.09-Sep-2020 5569.01 6494.84 78.51 4.00 365.95 2640.81
   07:37:44.437.09-Sep-2020 5569.01 6495.37 78.51 4.00 366.15 2640.81
   07:37:44.637.09-Sep-2020 5569.01 6495.37 78.51 4.00 366.35 2640.81
   07:37:44.837.09-Sep-2020 5569.01 6495.53 78.52 4.00 366.55 2640.81
   07:37:45.037.09-Sep-2020 5569.01 6495.59 78.52 4.00 366.75 2640.81
   07:37:45.237.09-Sep-2020 5569.01 6496.30 78.52 4.00 366.95 2640.81
   07:37:45.438.09-Sep-2020 5569.01 6497.09 78.53 4.00 367.15 2640.81
   07:37:45.638.09-Sep-2020 5569.01 6497.09 78.53 4.00 367.35 2640.81
   07:37:45.838.09-Sep-2020 5569.01 6500.08 78.53 4.00 367.55 2640.81
   07:37:46.038.09-Sep-2020 5569.01 6500.49 78.53 4.00 367.75 2640.81
   07:37:46.238.09-Sep-2020 5569.01 6496.64 78.54 4.00 367.95 2640.81
