~Version Information
 VERS.                  2.0:   CWLS log ASCII Standard -VERSION 2.0
 WRAP.                   NO:   One line per depth step
~Well Information Block
#MNEM.UNIT     VALUE/NAME     DESCRIPTION
#---------     -----------    ---------------------------
 STRT.S             08:13:58 09-Sep-20: START TIME 08:13:58 09-Sep-20
 STOP.S             08:20:59 09-Sep-20: STOP TIME  08:20:59 09-Sep-20
 STEP.S                   0.00: STEP TIME
 NULL.                 -999.25: NULL VALUE
 MDS .        Operator Entered:  MAG DATA SOURCE
 PDAT.          Mean Sea Level:  PERMANENT DATUM
 DCON.         Sperry Drilling:  DIRECTNL CONTR
 RIG .              West Azeri:  RIG NAME
 WELL.           C40 (Slot 20):  WELL NAME
 SRVC.     Turan Drilling Engineering:  CONTRACTOR
 FLD .                     ACG:  FIELD NAME
 CTRY.              Azerbaijan:  COUNTRY NAME
 PROV.                    Baku:  PROVINCE
 STAT.                    Baku:  STATE NAME
 REGN.                   EESSA:  REGION
 BASE.              Azerbaijan:  LOGGING EQUIPMENT BASE LOCATION
 COMP.     BP Exploration (Caspian Sea) Ltd:  COMPANY
 WTYP.                Deviated:  WELL TYPE
 SON .        AZ-XX-0906344804:  JOB NUMBER
 FTOP.          Formation Tops:  FORM TOPS DESC
 ILTD.               Lithology:  INTERP LTH DESC
 SVYD.                  Survey:  SURVEY DESC
 DMOD.             Drill Model:  DRILL MOD DESC
 HPTY.       Minimum Curvature:  HOLE POS TYPE
 NREF.                    Grid:  NORTH REFERENCE
 SPUD.               01-Jan-20:  SPUD DATE
 DATE.      00.59.44 15-Sep-20:  END TIME
 STIM.      12.00.00 12-Jun-20:  START TIME
 DMF .             Drill Floor:  DRILL MEAS FROM
 DFST.                        :  DIST FSL TEXT
 DFWT.                        :  DIST FWL TEXT
 API .                        :  API NUMBER
 CNTY.                        :  COUNTY
 UWI .                        :  UNIQUE WELL IDENTIFIER
 LOC .                        :  LOCATION
 LMF .             Drill Floor:  LOG MEASURED FROM
 VSNS.m                   2.88:  VERT SEC N/S
 VSEW.m                  -3.84:  VERT SEC E/W
 AGAP.m                  43.42:  AIR GAP
 APD .m                  43.42:  DEPTH ABOVE PD
 WDMS.m                 118.27:  WD ELEV
 EGL .m                   0.00:  GROUND ELEVATION
 EPD .m                   0.00:  ELEVATION
 AZTC.deg                 6.23:  AZM TOTAL CORR
 GRDC.deg                 0.20:  GRID CORRECTION
 MDEC.deg                 6.43:  MAGNETIC DECL
 MDIP.deg                59.49:  MAGNETIC DIP
 MFLD.nT              50277.00:  MAGNETIC FIELD
 GVFD.g                   1.00:  GRAVITY FIELD
 VSDR.deg               173.20:  VERT SEC DIRECT
 TDD .m                5790.01:  TOTAL DEPTH (DRILLER)
 SDEP.m                5231.01:  START DEPTH
 DFSL.m                   0.00:  DISTANCE FSL
 DFWL.m                   0.00:  DISTANCE FWL
 UTMY.m             4435808.83:  UTM Y
 UTMX.m              526266.40:  UTM X
 WHEW.m                  -3.84:  WELL HEAD E/W
 WHNS.m                   2.88:  WELL HEAD N/S
 LONG.deg                51.31:  LONGITUDE
 LATI.deg                40.06:  LATITUDE
 TVDS.m                  43.42:  TVDSS CORRECTN
 DEP .m                 430.08:  DEPTH
 EKB .m                  43.42:  KB ELEVATION
 EDF .m                  43.42:  DF ELEVATION
 TDL .m                 559.00:  TOTAL DEPTH (LOGGER)
 MAGU.                 1849381:  MAGUTM CHECKSUM
 VSC .                       0:  VS TO CLOSURE
~Parameter Information Block
#MNEM.UNIT       Value        Description
#---------     -----------    ---------------------------
 AV  .mps                 4.87:  Ann Velocity 
 AVMX.mps                 7.08:  Max Ann Veloc 
 AZIF.deg               108.87:  Azm, Final 
 BHAT.                  Rotary:  BHA Type 
 BROT.°/30m               0.35:  Build Rotating 
 BS  .in                  8.50:  Bit Size 
 BSZ .in                  8.50:  Bit Size 
 BTPL.psig              360.00:  Bit Press Loss 
 CABU.                     Yes:  Customer Abuse 
 COMM.                     t›a:  Run Comments 1 
 TCS .hr                106.24:  Time Ciculation Ended 
 CV  .mps                 1.77:  Crit Velocity 
 CVMX.mps                 2.03:  Max Crit Veloc 
 DD1 .         Aykhan Agagulov:  Direct Drillr 1 
 DD2 .            Nonso Okofor:  Direct Drillr 2 
 DDSV.               Geo-Pilot:  DD Service 
 DEFF.%                  98.00:  % Det Eff 
 DLRX.°/30m               0.50:  Dogleg Rot Max 
 DLSO.°/30m               0.40:  Dogleg Oriented 
 DLSX.°/30m               0.94:  Dogleg Str Max 
 DRET.      20.30.00 08-Sep-20:  Drill End Time 
 DRST.      22.15.00 06-Sep-20:  Drill Start Tim 
 DTIM.hr                 31.31:  Time Drilling 
 EDEP.m                5790.01:  End Depth 
 ENG1.           Amrah Tahirov:  Engineer 1 
 ENG2.         Dair Mahammadov:  Engineer 2 
 ENG3.           Emil Huseynov:  Engineer 3 
 ETIM.      04.01.04 12-Sep-20:  End Time 
 FLOI.gpm               450.00:  Flow In 
 FLON.gpm               450.00:  Flow In Min 
 FLOS.cptm                2.00:  Fluid Loss 
 FLOX.gpm               450.00:  Flow In Max 
 FTRO.       Formation Presure:  FTWD Run Obj 
 HFLO.                      No:  High Flow 
 HPRE.                      No:  High Pressure 
 HTEM.                      No:  High Temp 
 HYDO.m                   1.80:  Hydro Offset 
 IFIN.deg                72.03:  Inc, Final 
 IMAX.deg                73.72:  Inc Max 
 IMIN.deg                70.94:  Inc Min 
 IMND.m                5508.52:  Inc Min Depth 
 IMXD.m                5253.60:  Inc Max Depth 
 JARR.                      No:  Jarring 
 LETM.      20.30.00 08-Sep-20:  Log End Time 
 LOST.hr                     0:  Lost Rig Time 
 LSTM.      22.15.00 06-Sep-20:  Log Start Time 
 MDCL.ppm             36000.00:  Mud Chlorides 
 MDES.     Inversion Oil/Synthetic:  Mud Desc 
 DFD .sg                  1.44:  Mud Density 
 MDMN.sg                  1.44:  Dens Mud Min 
 MDMX.sg                  1.57:  Dens Mud Max 
 MOIL.                      70:  Run Mud Oil % 
 MOWR.                   70:30:  Run Mud OWR 
 MSND.                       0:  Run Mud Sand % 
 MSOL.                      21:  Run Mud Solids% 
 DFV .spqt               68.00:  Mud Viscosity 
 MWOD.in                  6.75:  MWD Tool OD 
 MWSI.                     Yes:  Serv Intrp, MWD 
 OTIM.hr                174.84:  Time Operating 
 PCON.           Look Like New:  Pad Condition 
 PMAX.psia            10616.93:  Press Op, Max 
 PV  .cP                 50.00:  Mud PV 
 RUN .                     700:  Run Number 
 ROPA.m/hr               14.24:  ROP Avg 
 ROPN.m/hr               10.00:  ROP Min 
 ROPX.m/hr               32.00:  ROP Max 
 RPMA.rpm               120.90:  RPM Surface Avg 
 RPMN.rpm               120.00:  RPM Surface Min 
 RPMX.rpm               140.00:  RPM Surface Max 
 RRUN.                    0700:  Rig Run Number 
 RTIM.hr                  3.20:  Time Reaming 
 SAZI.deg               109.99:  Azm, Start 
 SDEP.m                5231.01:  Start Depth 
 SIDD.                      No:  Serv Intrp, DD 
 SINC.deg                73.72:  Inc, Start 
 SPPA.psig             3051.00:  SPP Avg 
 SPPN.psig             2950.00:  SPP Min 
 SPPX.psig             3250.00:  SPP Max 
 STIM.      08.00.00 05-Sep-20:  Start Time 
 SVCS.                 DD, MWD:  Services 
 SVER.                    9.20:  Sperry Version 
 TDAT.m                 559.00:  Tot Depth Attmp 
 TDDF.                      No:  Trip for DD 
 TDLG.m                 559.00:  Tot Depth Loggd 
 TFF .                      No:  Trip for Fail 
 TQAA.f-kp               26.49:  Torque Abs Avg 
 TQAN.f-kp               25.00:  Torque Abs Min 
 TQAX.f-kp               27.00:  Torque Abs Max 
 TRRT.°/30m               1.50:  Turn Rotating 
 MRT .                    HCIM:  Maximum Recorded Temperature 
 TTMX.degC               90.20:  Max Tool Temp 
 VS01.                90542671:  Virtual Str1 SN 
 VS02.                90545185:  Virtual Str2 SN 
 VS03.                90602015:  Virtual Str3 SN 
 VS04.                90515230:  Virtual Str4 SN 
 WBMN.klb                 5.00:  WOB Min 
 WOBA.klb                14.79:  WOB Avg 
 WOBX.klb                20.00:  WOB Max 
 YP  .lhf2               29.00:  Yield Point 
~Curve Information Block
#MNEM.UNIT                 API CODE     Curve Description
#---------               -----------    ---------------------------
 TIME.HHMMSS            00 000 000 000:  GT Time & Date
 GTDEPTH.m              00 000 000 000:  GT Depth
 GTPQH.psia             00 000 000 000:  GT HR Quartz Pressure
 GTTQ.degC              00 000 000 000:  GT Quartz Temperature
 GTTN.NONE              00 000 000 000:  GT Test Number
 GTET.sec               00 000 000 000:  GT Elapsed Test Time
 GTTVD.m                00 000 000 000:  GT True Vertical Depth
#Other Information
#
#WARRANTY: Halliburton will use its best efforts to furnish customers with 
#accurate information and interpretations that are part of, and incident to, the services 
#provided.  However, Halliburton cannot and does not warrant the accuracy 
#or correctness of such information and interpretations.  Under no circumstances should any 
#such information or interpretation be relied upon as the sole basis for any drilling, 
#completion, production, or financial decision or any procedure involving any risk to the 
#safety of any drilling venture, drilling rig or its crew or any other third party.  The 
#Customer has full responsibility for all drilling, completion and production operation.  
#Halliburton makes no representations or warranties, either expressed or 
#implied, including, but not limited to, the implied warranties of merchantability or fitness 
#for a particular purpose, with respect to the services rendered.  In no event will 
#Halliburton be liable for failure to obtain any particular results or for 
#any damages, including, but not limited to, indirect, special or consequential damages, 
#resulting from the use of any information or interpretation provided by Halliburton.
#
~A           TIME           GTDEPTH  GTPQH  GTTQ  GTTN  GTET   GTTVD  
# ...
   08:16:16.369.09-Sep-2020 5533.01 3703.85 78.02 5.00 138.05 2629.43
   08:16:16.569.09-Sep-2020 5533.01 3703.85 78.02 5.00 138.25 2629.43
   08:16:16.769.09-Sep-2020 5533.01 3703.98 78.02 5.00 138.45 2629.43
   08:16:16.969.09-Sep-2020 5533.01 3703.74 78.02 5.00 138.65 2629.43
   08:16:17.170.09-Sep-2020 5533.01 3703.86 78.02 5.00 138.85 2629.43
   08:16:17.370.09-Sep-2020 5533.01 3703.84 78.02 5.00 139.05 2629.43
   08:16:17.570.09-Sep-2020 5533.01 3703.84 78.02 5.00 139.25 2629.43
   08:16:17.770.09-Sep-2020 5533.01 3703.77 78.02 5.00 139.46 2629.43
   08:16:17.970.09-Sep-2020 5533.01 3703.84 78.02 5.00 139.66 2629.43
   08:16:18.170.09-Sep-2020 5533.01 3703.85 78.02 5.00 139.86 2629.43
   08:16:18.370.09-Sep-2020 5533.01 3703.84 78.02 5.00 140.06 2629.43
   08:16:18.570.09-Sep-2020 5533.01 3703.84 78.02 5.00 140.26 2629.43
   08:16:18.770.09-Sep-2020 5533.01 3703.84 78.02 5.00 140.46 2629.43
   08:16:18.970.09-Sep-2020 5533.01 3703.86 78.02 5.00 140.66 2629.43
   08:16:19.170.09-Sep-2020 5533.01 3703.86 78.02 5.00 140.86 2629.43
   08:16:19.370.09-Sep-2020 5533.01 3703.84 78.02 5.00 141.06 2629.43
   08:16:19.571.09-Sep-2020 5533.01 3703.84 78.02 5.00 141.26 2629.43
   08:16:19.771.09-Sep-2020 5533.01 3703.84 78.02 5.00 141.46 2629.43
   08:16:19.971.09-Sep-2020 5533.01 3703.51 78.02 5.00 141.66 2629.43
   08:16:20.171.09-Sep-2020 5533.01 3704.22 78.02 5.00 141.86 2629.43
   08:16:20.371.09-Sep-2020 5533.01 3703.82 78.02 5.00 142.06 2629.43
   08:16:20.571.09-Sep-2020 5533.01 3703.82 78.02 5.00 142.26 2629.43
   08:16:20.771.09-Sep-2020 5533.01 3703.80 78.02 5.00 142.46 2629.43
   08:16:20.971.09-Sep-2020 5533.01 3703.86 78.02 5.00 142.66 2629.43
   08:16:21.171.09-Sep-2020 5533.01 3703.91 78.02 5.00 142.86 2629.43
   08:16:21.371.09-Sep-2020 5533.01 3703.81 78.02 5.00 143.06 2629.43
   08:16:21.571.09-Sep-2020 5533.01 3703.81 78.02 5.00 143.26 2629.43
   08:16:21.771.09-Sep-2020 5533.01 3703.82 78.02 5.00 143.46 2629.43
   08:16:21.971.09-Sep-2020 5533.01 3703.91 78.02 5.00 143.66 2629.43
   08:16:22.172.09-Sep-2020 5533.01 3703.49 78.02 5.00 143.86 2629.43
   08:16:22.372.09-Sep-2020 5533.01 3704.20 78.02 5.00 144.06 2629.43
   08:16:22.572.09-Sep-2020 5533.01 3704.20 78.02 5.00 144.26 2629.43
   08:16:22.772.09-Sep-2020 5533.01 3703.88 78.02 5.00 144.46 2629.43
   08:16:22.972.09-Sep-2020 5533.01 3703.81 78.02 5.00 144.66 2629.43
   08:16:23.172.09-Sep-2020 5533.01 3703.87 78.02 5.00 144.86 2629.43
   08:16:23.372.09-Sep-2020 5533.01 3703.83 78.02 5.00 145.06 2629.43
   08:16:23.572.09-Sep-2020 5533.01 3703.83 78.02 5.00 145.26 2629.43
   08:16:23.772.09-Sep-2020 5533.01 3703.90 78.02 5.00 145.46 2629.43
   08:16:23.972.09-Sep-2020 5533.01 3703.79 78.02 5.00 145.66 2629.43
   08:16:24.172.09-Sep-2020 5533.01 3703.85 78.02 5.00 145.86 2629.43
   08:16:24.372.09-Sep-2020 5533.01 3703.83 78.02 5.00 146.06 2629.43
   08:16:24.572.09-Sep-2020 5533.01 3703.83 78.02 5.00 146.26 2629.43
   08:16:24.773.09-Sep-2020 5533.01 3703.82 78.02 5.00 146.46 2629.43
   08:16:24.973.09-Sep-2020 5533.01 3703.98 78.02 5.00 146.66 2629.43
   08:16:25.173.09-Sep-2020 5533.01 3703.74 78.02 5.00 146.86 2629.43
   08:16:25.373.09-Sep-2020 5533.01 3703.86 78.02 5.00 147.06 2629.43
   08:16:25.573.09-Sep-2020 5533.01 3703.86 78.02 5.00 147.26 2629.43
   08:16:25.773.09-Sep-2020 5533.01 3703.95 78.02 5.00 147.46 2629.43
   08:16:25.973.09-Sep-2020 5533.01 3703.75 78.02 5.00 147.66 2629.43
   08:16:26.173.09-Sep-2020 5533.01 3703.85 78.02 5.00 147.86 2629.43
   08:16:26.373.09-Sep-2020 5533.01 3703.85 78.02 5.00 148.06 2629.43
   08:16:26.573.09-Sep-2020 5533.01 3703.86 78.02 5.00 148.26 2629.43
   08:16:26.773.09-Sep-2020 5533.01 3703.85 78.02 5.00 148.46 2629.43
   08:16:26.973.09-Sep-2020 5533.01 3703.84 78.02 5.00 148.66 2629.43
   08:16:27.174.09-Sep-2020 5533.01 3703.84 78.02 5.00 148.86 2629.43
   08:16:27.374.09-Sep-2020 5533.01 3703.85 78.02 5.00 149.06 2629.43
   08:16:27.574.09-Sep-2020 5533.01 3703.85 78.02 5.00 149.26 2629.43
   08:16:27.774.09-Sep-2020 5533.01 3703.85 78.02 5.00 149.46 2629.43
   08:16:27.974.09-Sep-2020 5533.01 3703.85 78.02 5.00 149.66 2629.43
   08:16:28.174.09-Sep-2020 5533.01 3703.85 78.02 5.00 149.86 2629.43
   08:16:28.374.09-Sep-2020 5533.01 3703.85 78.02 5.00 150.06 2629.43
   08:16:28.574.09-Sep-2020 5533.01 3703.85 78.02 5.00 150.26 2629.43
   08:16:28.774.09-Sep-2020 5533.01 3611.74 78.02 5.00 150.46 2629.43
   08:16:28.974.09-Sep-2020 5533.01 3519.44 78.02 5.00 150.66 2629.43
   08:16:29.174.09-Sep-2020 5533.01 3509.38 78.02 5.00 150.86 2629.43
   08:16:29.374.09-Sep-2020 5533.01 3513.52 78.02 5.00 151.06 2629.43
   08:16:29.574.09-Sep-2020 5533.01 3513.52 78.02 5.00 151.26 2629.43
   08:16:29.775.09-Sep-2020 5533.01 3511.61 78.02 5.00 151.46 2629.43
   08:16:29.975.09-Sep-2020 5533.01 3512.34 78.02 5.00 151.66 2629.43
   08:16:30.175.09-Sep-2020 5533.01 3513.67 78.02 5.00 151.86 2629.43
   08:16:30.375.09-Sep-2020 5533.01 3512.73 78.02 5.00 152.06 2629.43
   08:16:30.575.09-Sep-2020 5533.01 3507.36 78.02 5.00 152.26 2629.43
   08:16:30.775.09-Sep-2020 5533.01 3512.61 78.02 5.00 152.46 2629.43
   08:16:30.975.09-Sep-2020 5533.01 3514.92 78.02 5.00 152.66 2629.43
   08:16:31.175.09-Sep-2020 5533.01 3509.35 78.02 5.00 152.86 2629.43
   08:16:31.375.09-Sep-2020 5533.01 3514.43 78.02 5.00 153.06 2629.43
   08:16:31.575.09-Sep-2020 5533.01 3514.43 78.02 5.00 153.26 2629.43
   08:16:31.775.09-Sep-2020 5533.01 3509.59 78.02 5.00 153.46 2629.43
   08:16:31.975.09-Sep-2020 5533.01 3514.37 78.02 5.00 153.66 2629.43
   08:16:32.175.09-Sep-2020 5533.01 3505.02 78.02 5.00 153.86 2629.43
   08:16:32.376.09-Sep-2020 5533.01 3511.00 78.02 5.00 154.06 2629.43
   08:16:32.576.09-Sep-2020 5533.01 3511.00 78.02 5.00 154.26 2629.43
   08:16:32.776.09-Sep-2020 5533.01 3511.28 78.02 5.00 154.46 2629.43
   08:16:32.976.09-Sep-2020 5533.01 3509.96 78.02 5.00 154.66 2629.43
   08:16:33.176.09-Sep-2020 5533.01 3505.35 78.02 5.00 154.86 2629.43
   08:16:33.376.09-Sep-2020 5533.01 3507.46 78.02 5.00 155.06 2629.43
   08:16:33.576.09-Sep-2020 5533.01 3507.46 78.02 5.00 155.26 2629.43
   08:16:33.776.09-Sep-2020 5533.01 3511.13 78.02 5.00 155.46 2629.43
   08:16:33.976.09-Sep-2020 5533.01 3511.52 78.02 5.00 155.66 2629.43
   08:16:34.176.09-Sep-2020 5533.01 3507.61 78.02 5.00 155.86 2629.43
   08:16:34.376.09-Sep-2020 5533.01 3505.58 78.02 5.00 156.06 2629.43
   08:16:34.576.09-Sep-2020 5533.01 3511.34 78.02 5.00 156.26 2629.43
   08:16:34.777.09-Sep-2020 5533.01 3508.69 78.02 5.00 156.46 2629.43
   08:16:34.977.09-Sep-2020 5533.01 3509.43 78.02 5.00 156.66 2629.43
   08:16:35.177.09-Sep-2020 5533.01 3510.30 78.02 5.00 156.86 2629.43
   08:16:35.377.09-Sep-2020 5533.01 3511.18 78.02 5.00 157.06 2629.43
   08:16:35.577.09-Sep-2020 5533.01 3511.18 78.02 5.00 157.26 2629.43
   08:16:35.777.09-Sep-2020 5533.01 3507.76 78.01 5.00 157.46 2629.43
   08:16:35.977.09-Sep-2020 5533.01 3501.41 78.01 5.00 157.66 2629.43
   08:16:36.177.09-Sep-2020 5533.01 3509.74 78.01 5.00 157.86 2629.43
   08:16:36.377.09-Sep-2020 5533.01 3517.70 78.01 5.00 158.06 2629.43
   08:16:36.577.09-Sep-2020 5533.01 3517.70 78.01 5.00 158.26 2629.43
   08:16:36.777.09-Sep-2020 5533.01 3504.85 78.01 5.00 158.46 2629.43
   08:16:36.977.09-Sep-2020 5533.01 3502.96 78.01 5.00 158.66 2629.43
   08:16:37.177.09-Sep-2020 5533.01 3507.93 78.01 5.00 158.86 2629.43
   08:16:37.378.09-Sep-2020 5533.01 3509.51 78.01 5.00 159.06 2629.43
   08:16:37.578.09-Sep-2020 5533.01 3509.51 78.01 5.00 159.26 2629.43
   08:16:37.778.09-Sep-2020 5533.01 3506.49 78.01 5.00 159.46 2629.43
   08:16:37.978.09-Sep-2020 5533.01 3506.19 78.01 5.00 159.66 2629.43
   08:16:38.178.09-Sep-2020 5533.01 3503.81 78.01 5.00 159.86 2629.43
   08:16:38.378.09-Sep-2020 5533.01 3504.65 78.01 5.00 160.06 2629.43
   08:16:38.578.09-Sep-2020 5533.01 3500.42 78.01 5.00 160.26 2629.43
   08:16:38.778.09-Sep-2020 5533.01 3521.70 78.01 5.00 160.46 2629.43
   08:16:38.978.09-Sep-2020 5533.01 3673.63 78.01 5.00 160.66 2629.43
   08:16:39.178.09-Sep-2020 5533.01 3701.39 78.01 5.00 160.86 2629.43
