~Version Information
 VERS.                  2.0:   CWLS log ASCII Standard -VERSION 2.0
 WRAP.                   NO:   One line per depth step
~Well Information Block
#MNEM.UNIT     VALUE/NAME     DESCRIPTION
#---------     -----------    ---------------------------
 STRT.S             20:00:32 09-Sep-20: START TIME 20:00:32 09-Sep-20
 STOP.S             20:08:52 09-Sep-20: STOP TIME  20:08:52 09-Sep-20
 STEP.S                   0.00: STEP TIME
 NULL.                 -999.25: NULL VALUE
 MDS .        Operator Entered:  MAG DATA SOURCE
 PDAT.          Mean Sea Level:  PERMANENT DATUM
 DCON.         Sperry Drilling:  DIRECTNL CONTR
 RIG .              West Azeri:  RIG NAME
 WELL.           C40 (Slot 20):  WELL NAME
 SRVC.     Turan Drilling Engineering:  CONTRACTOR
 FLD .                     ACG:  FIELD NAME
 CTRY.              Azerbaijan:  COUNTRY NAME
 PROV.                    Baku:  PROVINCE
 STAT.                    Baku:  STATE NAME
 REGN.                   EESSA:  REGION
 BASE.              Azerbaijan:  LOGGING EQUIPMENT BASE LOCATION
 COMP.     BP Exploration (Caspian Sea) Ltd:  COMPANY
 WTYP.                Deviated:  WELL TYPE
 SON .        AZ-XX-0906344804:  JOB NUMBER
 FTOP.          Formation Tops:  FORM TOPS DESC
 ILTD.               Lithology:  INTERP LTH DESC
 SVYD.                  Survey:  SURVEY DESC
 DMOD.             Drill Model:  DRILL MOD DESC
 HPTY.       Minimum Curvature:  HOLE POS TYPE
 NREF.                    Grid:  NORTH REFERENCE
 SPUD.               01-Jan-20:  SPUD DATE
 DATE.      00.59.44 15-Sep-20:  END TIME
 STIM.      12.00.00 12-Jun-20:  START TIME
 DMF .             Drill Floor:  DRILL MEAS FROM
 DFST.                        :  DIST FSL TEXT
 DFWT.                        :  DIST FWL TEXT
 API .                        :  API NUMBER
 CNTY.                        :  COUNTY
 UWI .                        :  UNIQUE WELL IDENTIFIER
 LOC .                        :  LOCATION
 LMF .             Drill Floor:  LOG MEASURED FROM
 VSNS.m                   2.88:  VERT SEC N/S
 VSEW.m                  -3.84:  VERT SEC E/W
 AGAP.m                  43.42:  AIR GAP
 APD .m                  43.42:  DEPTH ABOVE PD
 WDMS.m                 118.27:  WD ELEV
 EGL .m                   0.00:  GROUND ELEVATION
 EPD .m                   0.00:  ELEVATION
 AZTC.deg                 6.23:  AZM TOTAL CORR
 GRDC.deg                 0.20:  GRID CORRECTION
 MDEC.deg                 6.43:  MAGNETIC DECL
 MDIP.deg                59.49:  MAGNETIC DIP
 MFLD.nT              50277.00:  MAGNETIC FIELD
 GVFD.g                   1.00:  GRAVITY FIELD
 VSDR.deg               173.20:  VERT SEC DIRECT
 TDD .m                5790.01:  TOTAL DEPTH (DRILLER)
 SDEP.m                5231.01:  START DEPTH
 DFSL.m                   0.00:  DISTANCE FSL
 DFWL.m                   0.00:  DISTANCE FWL
 UTMY.m             4435808.83:  UTM Y
 UTMX.m              526266.40:  UTM X
 WHEW.m                  -3.84:  WELL HEAD E/W
 WHNS.m                   2.88:  WELL HEAD N/S
 LONG.deg                51.31:  LONGITUDE
 LATI.deg                40.06:  LATITUDE
 TVDS.m                  43.42:  TVDSS CORRECTN
 DEP .m                 430.08:  DEPTH
 EKB .m                  43.42:  KB ELEVATION
 EDF .m                  43.42:  DF ELEVATION
 TDL .m                 559.00:  TOTAL DEPTH (LOGGER)
 MAGU.                 1849381:  MAGUTM CHECKSUM
 VSC .                       0:  VS TO CLOSURE
~Parameter Information Block
#MNEM.UNIT       Value        Description
#---------     -----------    ---------------------------
 AV  .mps                 4.87:  Ann Velocity 
 AVMX.mps                 7.08:  Max Ann Veloc 
 AZIF.deg               108.87:  Azm, Final 
 BHAT.                  Rotary:  BHA Type 
 BROT.°/30m               0.35:  Build Rotating 
 BS  .in                  8.50:  Bit Size 
 BSZ .in                  8.50:  Bit Size 
 BTPL.psig              360.00:  Bit Press Loss 
 CABU.                     Yes:  Customer Abuse 
 TCS .hr                106.24:  Time Ciculation Ended 
 CV  .mps                 1.77:  Crit Velocity 
 CVMX.mps                 2.03:  Max Crit Veloc 
 DD1 .         Aykhan Agagulov:  Direct Drillr 1 
 DD2 .            Nonso Okofor:  Direct Drillr 2 
 DDSV.               Geo-Pilot:  DD Service 
 DEFF.%                  98.00:  % Det Eff 
 DLRX.°/30m               0.50:  Dogleg Rot Max 
 DLSO.°/30m               0.40:  Dogleg Oriented 
 DLSX.°/30m               0.94:  Dogleg Str Max 
 DRET.      20.30.00 08-Sep-20:  Drill End Time 
 DRST.      22.15.00 06-Sep-20:  Drill Start Tim 
 DTIM.hr                 31.31:  Time Drilling 
 EDEP.m                5790.01:  End Depth 
 ENG1.           Amrah Tahirov:  Engineer 1 
 ENG2.         Dair Mahammadov:  Engineer 2 
 ENG3.           Emil Huseynov:  Engineer 3 
 ETIM.      04.01.04 12-Sep-20:  End Time 
 FLOI.gpm               450.00:  Flow In 
 FLON.gpm               450.00:  Flow In Min 
 FLOS.cptm                2.00:  Fluid Loss 
 FLOX.gpm               450.00:  Flow In Max 
 FTRO.       Formation Presure:  FTWD Run Obj 
 HFLO.                      No:  High Flow 
 HPRE.                      No:  High Pressure 
 HTEM.                      No:  High Temp 
 HYDO.m                   1.80:  Hydro Offset 
 IFIN.deg                72.03:  Inc, Final 
 IMAX.deg                73.72:  Inc Max 
 IMIN.deg                70.94:  Inc Min 
 IMND.m                5508.52:  Inc Min Depth 
 IMXD.m                5253.60:  Inc Max Depth 
 JARR.                      No:  Jarring 
 LETM.      20.30.00 08-Sep-20:  Log End Time 
 LOST.hr                     0:  Lost Rig Time 
 LSTM.      22.15.00 06-Sep-20:  Log Start Time 
 MDCL.ppm             36000.00:  Mud Chlorides 
 MDES.     Inversion Oil/Synthetic:  Mud Desc 
 DFD .sg                  1.44:  Mud Density 
 MDMN.sg                  1.44:  Dens Mud Min 
 MDMX.sg                  1.57:  Dens Mud Max 
 MOIL.                      70:  Run Mud Oil % 
 MOWR.                   70:30:  Run Mud OWR 
 MSND.                       0:  Run Mud Sand % 
 MSOL.                      21:  Run Mud Solids% 
 DFV .spqt               68.00:  Mud Viscosity 
 MWOD.in                  6.75:  MWD Tool OD 
 MWSI.                     Yes:  Serv Intrp, MWD 
 OTIM.hr                174.84:  Time Operating 
 PCON.           Look Like New:  Pad Condition 
 PMAX.psia            10616.93:  Press Op, Max 
 PV  .cP                 50.00:  Mud PV 
 RUN .                     700:  Run Number 
 ROPA.m/hr               14.24:  ROP Avg 
 ROPN.m/hr               10.00:  ROP Min 
 ROPX.m/hr               32.00:  ROP Max 
 RPMA.rpm               120.90:  RPM Surface Avg 
 RPMN.rpm               120.00:  RPM Surface Min 
 RPMX.rpm               140.00:  RPM Surface Max 
 RRUN.                    0700:  Rig Run Number 
 RTIM.hr                  3.20:  Time Reaming 
 SAZI.deg               109.99:  Azm, Start 
 SDEP.m                5231.01:  Start Depth 
 SIDD.                      No:  Serv Intrp, DD 
 SINC.deg                73.72:  Inc, Start 
 SPPA.psig             3051.00:  SPP Avg 
 SPPN.psig             2950.00:  SPP Min 
 SPPX.psig             3250.00:  SPP Max 
 STIM.      08.00.00 05-Sep-20:  Start Time 
 SVCS.                 DD, MWD:  Services 
 SVER.                    9.20:  Sperry Version 
 TDAT.m                 559.00:  Tot Depth Attmp 
 TDDF.                      No:  Trip for DD 
 TDLG.m                 559.00:  Tot Depth Loggd 
 TFF .                      No:  Trip for Fail 
 TQAA.f-kp               26.49:  Torque Abs Avg 
 TQAN.f-kp               25.00:  Torque Abs Min 
 TQAX.f-kp               27.00:  Torque Abs Max 
 TRRT.°/30m               1.50:  Turn Rotating 
 MRT .                    HCIM:  Maximum Recorded Temperature 
 TTMX.degC               90.20:  Max Tool Temp 
 VS01.                90542671:  Virtual Str1 SN 
 VS02.                90545185:  Virtual Str2 SN 
 VS03.                90602015:  Virtual Str3 SN 
 VS04.                90515230:  Virtual Str4 SN 
 WBMN.klb                 5.00:  WOB Min 
 WOBA.klb                14.79:  WOB Avg 
 WOBX.klb                20.00:  WOB Max 
 YP  .lhf2               29.00:  Yield Point 
~Curve Information Block
#MNEM.UNIT                 API CODE     Curve Description
#---------               -----------    ---------------------------
 TIME.HHMMSS            00 000 000 000:  GT Time & Date
 GTDEPTH.m              00 000 000 000:  GT Depth
 GTPQH.psia             00 000 000 000:  GT HR Quartz Pressure
 GTTQ.degC              00 000 000 000:  GT Quartz Temperature
 GTTN.NONE              00 000 000 000:  GT Test Number
 GTET.sec               00 000 000 000:  GT Elapsed Test Time
 GTTVD.m                00 000 000 000:  GT True Vertical Depth
#Other Information
#
#WARRANTY: Halliburton will use its best efforts to furnish customers with 
#accurate information and interpretations that are part of, and incident to, the services 
#provided.  However, Halliburton cannot and does not warrant the accuracy 
#or correctness of such information and interpretations.  Under no circumstances should any 
#such information or interpretation be relied upon as the sole basis for any drilling, 
#completion, production, or financial decision or any procedure involving any risk to the 
#safety of any drilling venture, drilling rig or its crew or any other third party.  The 
#Customer has full responsibility for all drilling, completion and production operation.  
#Halliburton makes no representations or warranties, either expressed or 
#implied, including, but not limited to, the implied warranties of merchantability or fitness 
#for a particular purpose, with respect to the services rendered.  In no event will 
#Halliburton be liable for failure to obtain any particular results or for 
#any damages, including, but not limited to, indirect, special or consequential damages, 
#resulting from the use of any information or interpretation provided by Halliburton.
#
~A           TIME           GTDEPTH  GTPQH  GTTQ  GTTN   GTET   GTTVD  
# ...
   20:00:54.680.09-Sep-2020 5259.51 6186.91 74.19 24.00  22.61 2544.41
   20:00:54.880.09-Sep-2020 5259.51 6186.68 74.19 24.00  22.81 2544.41
   20:00:55.080.09-Sep-2020 5259.51 6188.62 74.19 24.00  23.01 2544.41
   20:00:55.280.09-Sep-2020 5259.51 6188.62 74.19 24.00  23.21 2544.41
   20:00:55.480.09-Sep-2020 5259.51 6188.63 74.19 24.00  23.41 2544.41
   20:00:55.680.09-Sep-2020 5259.51 6188.63 74.19 24.00  23.61 2544.41
   20:00:55.880.09-Sep-2020 5259.51 6188.80 74.19 24.00  23.81 2544.41
   20:00:56.080.09-Sep-2020 5259.51 6188.92 74.19 24.00  24.01 2544.41
   20:00:56.280.09-Sep-2020 5259.51 6188.92 74.19 24.00  24.21 2544.41
   20:00:56.481.09-Sep-2020 5259.51 6190.43 74.19 24.00  24.41 2544.41
   20:00:56.681.09-Sep-2020 5259.51 6190.62 74.19 24.00  24.61 2544.41
   20:00:56.881.09-Sep-2020 5259.51 6190.35 74.19 24.00  24.81 2544.41
   20:00:57.081.09-Sep-2020 5259.51 6190.48 74.19 24.00  25.01 2544.41
   20:00:57.281.09-Sep-2020 5259.51 6200.89 74.19 24.00  25.21 2544.41
   20:00:57.481.09-Sep-2020 5259.51 6186.48 74.19 24.00  25.41 2544.41
   20:00:57.681.09-Sep-2020 5259.51 6192.18 74.19 24.00  25.61 2544.41
   20:00:57.881.09-Sep-2020 5259.51 6192.00 74.18 24.00  25.81 2544.41
   20:00:58.081.09-Sep-2020 5259.51 6192.04 74.18 24.00  26.01 2544.41
   20:00:58.281.09-Sep-2020 5259.51 6192.04 74.18 24.00  26.21 2544.41
   20:00:58.481.09-Sep-2020 5259.51 6200.44 74.18 24.00  26.41 2544.41
   20:00:58.682.09-Sep-2020 5259.51 6190.95 74.18 24.00  26.61 2544.41
   20:00:58.882.09-Sep-2020 5259.51 6193.28 74.18 24.00  26.81 2544.41
   20:00:59.082.09-Sep-2020 5259.51 6193.12 74.18 24.00  27.01 2544.41
   20:00:59.282.09-Sep-2020 5259.51 6193.12 74.18 24.00  27.21 2544.41
   20:00:59.482.09-Sep-2020 5259.51 6203.67 74.18 24.00  27.41 2544.41
   20:00:59.682.09-Sep-2020 5259.51 6191.03 74.18 24.00  27.61 2544.41
   20:00:59.882.09-Sep-2020 5259.51 6195.77 74.18 24.00  27.81 2544.41
   20:01:00.082.09-Sep-2020 5259.51 6195.10 74.18 24.00  28.01 2544.41
   20:01:00.282.09-Sep-2020 5259.51 6195.10 74.18 24.00  28.21 2544.41
   20:01:00.482.09-Sep-2020 5259.51 6202.90 74.18 24.00  28.41 2544.41
   20:01:00.682.09-Sep-2020 5259.51 6195.71 74.18 24.00  28.61 2544.41
   20:01:00.883.09-Sep-2020 5259.51 6197.03 74.18 24.00  28.81 2544.41
   20:01:01.083.09-Sep-2020 5259.51 6197.50 74.18 24.00  29.01 2544.41
   20:01:01.283.09-Sep-2020 5259.51 6197.50 74.18 24.00  29.21 2544.41
   20:01:01.483.09-Sep-2020 5259.51 6198.08 74.18 24.00  29.41 2544.41
   20:01:01.683.09-Sep-2020 5259.51 6211.36 74.18 24.00  29.61 2544.41
   20:01:01.883.09-Sep-2020 5259.51 6193.75 74.18 24.00  29.81 2544.41
   20:01:02.083.09-Sep-2020 5259.51 6201.05 74.18 24.00  30.01 2544.41
   20:01:02.283.09-Sep-2020 5259.51 6201.05 74.18 24.00  30.21 2544.41
   20:01:02.483.09-Sep-2020 5259.51 6200.15 74.18 24.00  30.41 2544.41
   20:01:02.683.09-Sep-2020 5259.51 6201.23 74.18 24.00  30.61 2544.41
   20:01:02.883.09-Sep-2020 5259.51 6201.88 74.18 24.00  30.81 2544.41
   20:01:03.084.09-Sep-2020 5259.51 6201.65 74.18 24.00  31.01 2544.41
   20:01:03.284.09-Sep-2020 5259.51 6201.65 74.18 24.00  31.21 2544.41
   20:01:03.484.09-Sep-2020 5259.51 6202.79 74.18 24.00  31.41 2544.41
   20:01:03.684.09-Sep-2020 5259.51 6202.82 74.18 24.00  31.61 2544.41
   20:01:03.884.09-Sep-2020 5259.51 6202.53 74.18 24.00  31.81 2544.41
   20:01:04.084.09-Sep-2020 5259.51 6202.67 74.18 24.00  32.01 2544.41
   20:01:04.284.09-Sep-2020 5259.51 6202.67 74.18 24.00  32.21 2544.41
   20:01:04.484.09-Sep-2020 5259.51 6203.65 74.18 24.00  32.41 2544.41
   20:01:04.684.09-Sep-2020 5259.51 6204.29 74.18 24.00  32.62 2544.41
   20:01:04.884.09-Sep-2020 5259.51 6204.59 74.18 24.00  32.82 2544.41
   20:01:05.084.09-Sep-2020 5259.51 6205.09 74.18 24.00  33.02 2544.41
   20:01:05.285.09-Sep-2020 5259.51 6205.09 74.18 24.00  33.22 2544.41
   20:01:05.485.09-Sep-2020 5259.51 6213.05 74.18 24.00  33.42 2544.41
   20:01:05.685.09-Sep-2020 5259.51 6204.18 74.18 24.00  33.62 2544.41
   20:01:05.885.09-Sep-2020 5259.51 6205.92 74.18 24.00  33.82 2544.41
   20:01:06.085.09-Sep-2020 5259.51 6205.51 74.18 24.00  34.02 2544.41
   20:01:06.285.09-Sep-2020 5259.51 6205.51 74.18 24.00  34.22 2544.41
   20:01:06.485.09-Sep-2020 5259.51 6205.12 74.18 24.00  34.42 2544.41
   20:01:06.685.09-Sep-2020 5259.51 6206.94 74.18 24.00  34.62 2544.41
   20:01:06.885.09-Sep-2020 5259.51 6206.22 74.18 24.00  34.82 2544.41
   20:01:07.085.09-Sep-2020 5259.51 6206.65 74.18 24.00  35.02 2544.41
   20:01:07.286.09-Sep-2020 5259.51 6206.65 74.18 24.00  35.22 2544.41
   20:01:07.486.09-Sep-2020 5259.51 6206.31 74.18 24.00  35.42 2544.41
   20:01:07.686.09-Sep-2020 5259.51 6206.49 74.18 24.00  35.62 2544.41
   20:01:07.886.09-Sep-2020 5259.51 6207.42 74.18 24.00  35.82 2544.41
   20:01:08.086.09-Sep-2020 5259.51 6207.94 74.18 24.00  36.02 2544.41
   20:01:08.286.09-Sep-2020 5259.51 6207.94 74.18 24.00  36.22 2544.41
   20:01:08.486.09-Sep-2020 5259.51 6225.77 74.18 24.00  36.42 2544.41
   20:01:08.686.09-Sep-2020 5259.51 6282.27 74.18 24.00  36.62 2544.41
   20:01:08.886.09-Sep-2020 5259.51 6294.82 74.18 24.00  36.82 2544.41
   20:01:09.086.09-Sep-2020 5259.51 6293.08 74.18 24.00  37.02 2544.41
   20:01:09.286.09-Sep-2020 5259.51 6293.08 74.18 24.00  37.22 2544.41
   20:01:09.487.09-Sep-2020 5259.51 6300.18 74.18 24.00  37.42 2544.41
   20:01:09.687.09-Sep-2020 5259.51 6298.50 74.18 24.00  37.62 2544.41
   20:01:09.887.09-Sep-2020 5259.51 6296.98 74.18 24.00  37.82 2544.41
   20:01:10.087.09-Sep-2020 5259.51 6287.90 74.18 24.00  38.02 2544.41
   20:01:10.287.09-Sep-2020 5259.51 6269.47 74.18 24.00  38.22 2544.41
   20:01:10.487.09-Sep-2020 5259.51 6252.76 74.18 24.00  38.42 2544.41
   20:01:10.687.09-Sep-2020 5259.51 6237.17 74.18 24.00  38.62 2544.41
   20:01:10.887.09-Sep-2020 5259.51 6224.48 74.18 24.00  38.82 2544.41
   20:01:11.087.09-Sep-2020 5259.51 6216.61 74.18 24.00  39.02 2544.41
   20:01:11.287.09-Sep-2020 5259.51 6216.61 74.18 24.00  39.22 2544.41
   20:01:11.487.09-Sep-2020 5259.51 6189.32 74.18 24.00  39.42 2544.41
   20:01:11.688.09-Sep-2020 5259.51 6175.50 74.18 24.00  39.62 2544.41
   20:01:11.888.09-Sep-2020 5259.51 6161.99 74.18 24.00  39.82 2544.41
   20:01:12.088.09-Sep-2020 5259.51 6158.10 74.18 24.00  40.02 2544.41
   20:01:12.288.09-Sep-2020 5259.51 6158.10 74.18 24.00  40.22 2544.41
   20:01:12.488.09-Sep-2020 5259.51 6132.38 74.18 24.00  40.42 2544.41
   20:01:12.688.09-Sep-2020 5259.51 6119.94 74.18 24.00  40.62 2544.41
   20:01:12.888.09-Sep-2020 5259.51 6116.04 74.18 24.00  40.82 2544.41
   20:01:13.088.09-Sep-2020 5259.51 6104.37 74.18 24.00  41.02 2544.41
   20:01:13.288.09-Sep-2020 5259.51 6104.37 74.18 24.00  41.22 2544.41
   20:01:13.488.09-Sep-2020 5259.51 6083.45 74.18 24.00  41.42 2544.41
   20:01:13.688.09-Sep-2020 5259.51 6074.89 74.18 24.00  41.62 2544.41
   20:01:13.889.09-Sep-2020 5259.51 6043.79 74.18 24.00  41.82 2544.41
   20:01:14.089.09-Sep-2020 5259.51 5700.15 74.18 24.00  42.02 2544.41
   20:01:14.289.09-Sep-2020 5259.51 5700.15 74.18 24.00  42.22 2544.41
   20:01:14.489.09-Sep-2020 5259.51 4651.76 74.18 24.00  42.42 2544.41
   20:01:14.689.09-Sep-2020 5259.51 4465.37 74.18 24.00  42.62 2544.41
   20:01:14.889.09-Sep-2020 5259.51 4195.35 74.17 24.00  42.82 2544.41
   20:01:15.089.09-Sep-2020 5259.51 3653.72 74.17 24.00  43.02 2544.41
   20:01:15.289.09-Sep-2020 5259.51 3653.72 74.17 24.00  43.22 2544.41
   20:01:15.489.09-Sep-2020 5259.51 2954.70 74.17 24.00  43.42 2544.41
   20:01:15.689.09-Sep-2020 5259.51 2984.40 74.17 24.00  43.62 2544.41
   20:01:15.889.09-Sep-2020 5259.51 2998.02 74.17 24.00  43.82 2544.41
   20:01:16.090.09-Sep-2020 5259.51 3026.58 74.17 24.00  44.02 2544.41
   20:01:16.290.09-Sep-2020 5259.51 3060.93 74.17 24.00  44.22 2544.41
   20:01:16.490.09-Sep-2020 5259.51 3095.63 74.16 24.00  44.42 2544.41
   20:01:16.690.09-Sep-2020 5259.51 3125.09 74.16 24.00  44.62 2544.41
   20:01:16.890.09-Sep-2020 5259.51 3159.84 74.16 24.00  44.82 2544.41
   20:01:17.090.09-Sep-2020 5259.51 3182.98 74.16 24.00  45.02 2544.41
