~Version Information
 VERS.                  2.0:   CWLS log ASCII Standard -VERSION 2.0
 WRAP.                   NO:   One line per depth step
~Well Information Block
#MNEM.UNIT     VALUE/NAME     DESCRIPTION
#---------     -----------    ---------------------------
 STRT.S             18:49:58 09-Sep-20: START TIME 18:49:58 09-Sep-20
 STOP.S             18:58:03 09-Sep-20: STOP TIME  18:58:03 09-Sep-20
 STEP.S                   0.00: STEP TIME
 NULL.                 -999.25: NULL VALUE
 MDS .        Operator Entered:  MAG DATA SOURCE
 PDAT.          Mean Sea Level:  PERMANENT DATUM
 DCON.         Sperry Drilling:  DIRECTNL CONTR
 RIG .              West Azeri:  RIG NAME
 WELL.           C40 (Slot 20):  WELL NAME
 SRVC.     Turan Drilling Engineering:  CONTRACTOR
 FLD .                     ACG:  FIELD NAME
 CTRY.              Azerbaijan:  COUNTRY NAME
 PROV.                    Baku:  PROVINCE
 STAT.                    Baku:  STATE NAME
 REGN.                   EESSA:  REGION
 BASE.              Azerbaijan:  LOGGING EQUIPMENT BASE LOCATION
 COMP.     BP Exploration (Caspian Sea) Ltd:  COMPANY
 WTYP.                Deviated:  WELL TYPE
 SON .        AZ-XX-0906344804:  JOB NUMBER
 FTOP.          Formation Tops:  FORM TOPS DESC
 ILTD.               Lithology:  INTERP LTH DESC
 SVYD.                  Survey:  SURVEY DESC
 DMOD.             Drill Model:  DRILL MOD DESC
 HPTY.       Minimum Curvature:  HOLE POS TYPE
 NREF.                    Grid:  NORTH REFERENCE
 SPUD.               01-Jan-20:  SPUD DATE
 DATE.      00.59.44 15-Sep-20:  END TIME
 STIM.      12.00.00 12-Jun-20:  START TIME
 DMF .             Drill Floor:  DRILL MEAS FROM
 DFST.                        :  DIST FSL TEXT
 DFWT.                        :  DIST FWL TEXT
 API .                        :  API NUMBER
 CNTY.                        :  COUNTY
 UWI .                        :  UNIQUE WELL IDENTIFIER
 LOC .                        :  LOCATION
 LMF .             Drill Floor:  LOG MEASURED FROM
 VSNS.m                   2.88:  VERT SEC N/S
 VSEW.m                  -3.84:  VERT SEC E/W
 AGAP.m                  43.42:  AIR GAP
 APD .m                  43.42:  DEPTH ABOVE PD
 WDMS.m                 118.27:  WD ELEV
 EGL .m                   0.00:  GROUND ELEVATION
 EPD .m                   0.00:  ELEVATION
 AZTC.deg                 6.23:  AZM TOTAL CORR
 GRDC.deg                 0.20:  GRID CORRECTION
 MDEC.deg                 6.43:  MAGNETIC DECL
 MDIP.deg                59.49:  MAGNETIC DIP
 MFLD.nT              50277.00:  MAGNETIC FIELD
 GVFD.g                   1.00:  GRAVITY FIELD
 VSDR.deg               173.20:  VERT SEC DIRECT
 TDD .m                5790.01:  TOTAL DEPTH (DRILLER)
 SDEP.m                5231.01:  START DEPTH
 DFSL.m                   0.00:  DISTANCE FSL
 DFWL.m                   0.00:  DISTANCE FWL
 UTMY.m             4435808.83:  UTM Y
 UTMX.m              526266.40:  UTM X
 WHEW.m                  -3.84:  WELL HEAD E/W
 WHNS.m                   2.88:  WELL HEAD N/S
 LONG.deg                51.31:  LONGITUDE
 LATI.deg                40.06:  LATITUDE
 TVDS.m                  43.42:  TVDSS CORRECTN
 DEP .m                 430.08:  DEPTH
 EKB .m                  43.42:  KB ELEVATION
 EDF .m                  43.42:  DF ELEVATION
 TDL .m                 559.00:  TOTAL DEPTH (LOGGER)
 MAGU.                 1849381:  MAGUTM CHECKSUM
 VSC .                       0:  VS TO CLOSURE
~Parameter Information Block
#MNEM.UNIT       Value        Description
#---------     -----------    ---------------------------
 AV  .mps                 4.87:  Ann Velocity 
 AVMX.mps                 7.08:  Max Ann Veloc 
 AZIF.deg               108.87:  Azm, Final 
 BHAT.                  Rotary:  BHA Type 
 BROT.°/30m               0.35:  Build Rotating 
 BS  .in                  8.50:  Bit Size 
 BSZ .in                  8.50:  Bit Size 
 BTPL.psig              360.00:  Bit Press Loss 
 CABU.                     Yes:  Customer Abuse 
 COMM.                     „T:  Run Comments 1 
 TCS .hr                106.24:  Time Ciculation Ended 
 CV  .mps                 1.77:  Crit Velocity 
 CVMX.mps                 2.03:  Max Crit Veloc 
 DD1 .         Aykhan Agagulov:  Direct Drillr 1 
 DD2 .            Nonso Okofor:  Direct Drillr 2 
 DDSV.               Geo-Pilot:  DD Service 
 DEFF.%                  98.00:  % Det Eff 
 DLRX.°/30m               0.50:  Dogleg Rot Max 
 DLSO.°/30m               0.40:  Dogleg Oriented 
 DLSX.°/30m               0.94:  Dogleg Str Max 
 DRET.      20.30.00 08-Sep-20:  Drill End Time 
 DRST.      22.15.00 06-Sep-20:  Drill Start Tim 
 DTIM.hr                 31.31:  Time Drilling 
 EDEP.m                5790.01:  End Depth 
 ENG1.           Amrah Tahirov:  Engineer 1 
 ENG2.         Dair Mahammadov:  Engineer 2 
 ENG3.           Emil Huseynov:  Engineer 3 
 ETIM.      04.01.04 12-Sep-20:  End Time 
 FLOI.gpm               450.00:  Flow In 
 FLON.gpm               450.00:  Flow In Min 
 FLOS.cptm                2.00:  Fluid Loss 
 FLOX.gpm               450.00:  Flow In Max 
 FTRO.       Formation Presure:  FTWD Run Obj 
 HFLO.                      No:  High Flow 
 HPRE.                      No:  High Pressure 
 HTEM.                      No:  High Temp 
 HYDO.m                   1.80:  Hydro Offset 
 IFIN.deg                72.03:  Inc, Final 
 IMAX.deg                73.72:  Inc Max 
 IMIN.deg                70.94:  Inc Min 
 IMND.m                5508.52:  Inc Min Depth 
 IMXD.m                5253.60:  Inc Max Depth 
 JARR.                      No:  Jarring 
 LETM.      20.30.00 08-Sep-20:  Log End Time 
 LOST.hr                     0:  Lost Rig Time 
 LSTM.      22.15.00 06-Sep-20:  Log Start Time 
 MDCL.ppm             36000.00:  Mud Chlorides 
 MDES.     Inversion Oil/Synthetic:  Mud Desc 
 DFD .sg                  1.44:  Mud Density 
 MDMN.sg                  1.44:  Dens Mud Min 
 MDMX.sg                  1.57:  Dens Mud Max 
 MOIL.                      70:  Run Mud Oil % 
 MOWR.                   70:30:  Run Mud OWR 
 MSND.                       0:  Run Mud Sand % 
 MSOL.                      21:  Run Mud Solids% 
 DFV .spqt               68.00:  Mud Viscosity 
 MWOD.in                  6.75:  MWD Tool OD 
 MWSI.                     Yes:  Serv Intrp, MWD 
 OTIM.hr                174.84:  Time Operating 
 PCON.           Look Like New:  Pad Condition 
 PMAX.psia            10616.93:  Press Op, Max 
 PV  .cP                 50.00:  Mud PV 
 RUN .                     700:  Run Number 
 ROPA.m/hr               14.24:  ROP Avg 
 ROPN.m/hr               10.00:  ROP Min 
 ROPX.m/hr               32.00:  ROP Max 
 RPMA.rpm               120.90:  RPM Surface Avg 
 RPMN.rpm               120.00:  RPM Surface Min 
 RPMX.rpm               140.00:  RPM Surface Max 
 RRUN.                    0700:  Rig Run Number 
 RTIM.hr                  3.20:  Time Reaming 
 SAZI.deg               109.99:  Azm, Start 
 SDEP.m                5231.01:  Start Depth 
 SIDD.                      No:  Serv Intrp, DD 
 SINC.deg                73.72:  Inc, Start 
 SPPA.psig             3051.00:  SPP Avg 
 SPPN.psig             2950.00:  SPP Min 
 SPPX.psig             3250.00:  SPP Max 
 STIM.      08.00.00 05-Sep-20:  Start Time 
 SVCS.                 DD, MWD:  Services 
 SVER.                    9.20:  Sperry Version 
 TDAT.m                 559.00:  Tot Depth Attmp 
 TDDF.                      No:  Trip for DD 
 TDLG.m                 559.00:  Tot Depth Loggd 
 TFF .                      No:  Trip for Fail 
 TQAA.f-kp               26.49:  Torque Abs Avg 
 TQAN.f-kp               25.00:  Torque Abs Min 
 TQAX.f-kp               27.00:  Torque Abs Max 
 TRRT.°/30m               1.50:  Turn Rotating 
 MRT .                    HCIM:  Maximum Recorded Temperature 
 TTMX.degC               90.20:  Max Tool Temp 
 VS01.                90542671:  Virtual Str1 SN 
 VS02.                90545185:  Virtual Str2 SN 
 VS03.                90602015:  Virtual Str3 SN 
 VS04.                90515230:  Virtual Str4 SN 
 WBMN.klb                 5.00:  WOB Min 
 WOBA.klb                14.79:  WOB Avg 
 WOBX.klb                20.00:  WOB Max 
 YP  .lhf2               29.00:  Yield Point 
~Curve Information Block
#MNEM.UNIT                 API CODE     Curve Description
#---------               -----------    ---------------------------
 TIME.HHMMSS            00 000 000 000:  GT Time & Date
 GTDEPTH.m              00 000 000 000:  GT Depth
 GTPQH.psia             00 000 000 000:  GT HR Quartz Pressure
 GTTQ.degC              00 000 000 000:  GT Quartz Temperature
 GTTN.NONE              00 000 000 000:  GT Test Number
 GTET.sec               00 000 000 000:  GT Elapsed Test Time
 GTTVD.m                00 000 000 000:  GT True Vertical Depth
#Other Information
#
#WARRANTY: Halliburton will use its best efforts to furnish customers with 
#accurate information and interpretations that are part of, and incident to, the services 
#provided.  However, Halliburton cannot and does not warrant the accuracy 
#or correctness of such information and interpretations.  Under no circumstances should any 
#such information or interpretation be relied upon as the sole basis for any drilling, 
#completion, production, or financial decision or any procedure involving any risk to the 
#safety of any drilling venture, drilling rig or its crew or any other third party.  The 
#Customer has full responsibility for all drilling, completion and production operation.  
#Halliburton makes no representations or warranties, either expressed or 
#implied, including, but not limited to, the implied warranties of merchantability or fitness 
#for a particular purpose, with respect to the services rendered.  In no event will 
#Halliburton be liable for failure to obtain any particular results or for 
#any damages, including, but not limited to, indirect, special or consequential damages, 
#resulting from the use of any information or interpretation provided by Halliburton.
#
~A           TIME           GTDEPTH  GTPQH  GTTQ  GTTN   GTET   GTTVD  
# ...
   18:54:52.069.09-Sep-2020 5280.51  554.23 74.30 22.00 293.57 2550.44
   18:54:52.269.09-Sep-2020 5280.51  554.27 74.30 22.00 293.77 2550.44
   18:54:52.469.09-Sep-2020 5280.51  554.64 74.30 22.00 293.97 2550.44
   18:54:52.669.09-Sep-2020 5280.51  553.93 74.30 22.00 294.17 2550.44
   18:54:52.869.09-Sep-2020 5280.51  554.93 74.30 22.00 294.37 2550.44
   18:54:53.069.09-Sep-2020 5280.51  555.04 74.30 22.00 294.57 2550.44
   18:54:53.269.09-Sep-2020 5280.51  555.16 74.30 22.00 294.77 2550.44
   18:54:53.468.09-Sep-2020 5280.51  555.16 74.30 22.00 294.97 2550.44
   18:54:53.668.09-Sep-2020 5280.51  555.66 74.30 22.00 295.17 2550.44
   18:54:53.868.09-Sep-2020 5280.51  554.81 74.30 22.00 295.37 2550.44
   18:54:54.068.09-Sep-2020 5280.51  556.18 74.30 22.00 295.57 2550.44
   18:54:54.268.09-Sep-2020 5280.51  556.08 74.30 22.00 295.77 2550.44
   18:54:54.468.09-Sep-2020 5280.51  556.08 74.30 22.00 295.97 2550.44
   18:54:54.667.09-Sep-2020 5280.51  556.34 74.30 22.00 296.17 2550.44
   18:54:54.867.09-Sep-2020 5280.51  556.74 74.30 22.00 296.37 2550.44
   18:54:55.067.09-Sep-2020 5280.51  556.79 74.30 22.00 296.57 2550.44
   18:54:55.267.09-Sep-2020 5280.51  556.95 74.30 22.00 296.77 2550.44
   18:54:55.467.09-Sep-2020 5280.51  556.95 74.30 22.00 296.97 2550.44
   18:54:55.667.09-Sep-2020 5280.51  557.29 74.30 22.00 297.17 2550.44
   18:54:55.867.09-Sep-2020 5280.51  557.51 74.30 22.00 297.37 2550.44
   18:54:56.066.09-Sep-2020 5280.51  557.62 74.30 22.00 297.57 2550.44
   18:54:56.266.09-Sep-2020 5280.51  557.76 74.30 22.00 297.77 2550.44
   18:54:56.466.09-Sep-2020 5280.51  557.95 74.30 22.00 297.97 2550.44
   18:54:56.666.09-Sep-2020 5280.51  558.14 74.30 22.00 298.17 2550.44
   18:54:56.866.09-Sep-2020 5280.51  558.30 74.30 22.00 298.37 2550.44
   18:54:57.066.09-Sep-2020 5280.51  558.50 74.30 22.00 298.57 2550.44
   18:54:57.265.09-Sep-2020 5280.51  558.64 74.30 22.00 298.77 2550.44
   18:54:57.465.09-Sep-2020 5280.51  558.64 74.30 22.00 298.97 2550.44
   18:54:57.665.09-Sep-2020 5280.51  558.79 74.30 22.00 299.17 2550.44
   18:54:57.865.09-Sep-2020 5280.51  559.16 74.30 22.00 299.37 2550.44
   18:54:58.065.09-Sep-2020 5280.51  559.32 74.30 22.00 299.57 2550.44
   18:54:58.265.09-Sep-2020 5280.51  559.46 74.30 22.00 299.76 2550.44
   18:54:58.464.09-Sep-2020 5280.51  559.46 74.30 22.00 299.96 2550.44
   18:54:58.664.09-Sep-2020 5280.51  559.82 74.30 22.00 300.16 2550.44
   18:54:58.864.09-Sep-2020 5280.51  560.02 74.30 22.00 300.36 2550.44
   18:54:59.064.09-Sep-2020 5280.51  560.19 74.30 22.00 300.56 2550.44
   18:54:59.264.09-Sep-2020 5280.51  560.30 74.30 22.00 300.76 2550.44
   18:54:59.464.09-Sep-2020 5280.51  560.30 74.30 22.00 300.96 2550.44
   18:54:59.664.09-Sep-2020 5280.51  560.64 74.30 22.00 301.16 2550.44
   18:54:59.863.09-Sep-2020 5280.51  560.85 74.30 22.00 301.36 2550.44
   18:55:00.063.09-Sep-2020 5280.51  561.03 74.30 22.00 301.56 2550.44
   18:55:00.263.09-Sep-2020 5280.51  561.19 74.30 22.00 301.76 2550.44
   18:55:00.463.09-Sep-2020 5280.51  561.30 74.30 22.00 301.96 2550.44
   18:55:00.663.09-Sep-2020 5280.51  560.98 74.30 22.00 302.16 2550.44
   18:55:00.863.09-Sep-2020 5280.51  561.40 74.30 22.00 302.36 2550.44
   18:55:01.062.09-Sep-2020 5280.51  561.80 74.30 22.00 302.56 2550.44
   18:55:01.262.09-Sep-2020 5280.51  561.96 74.30 22.00 302.76 2550.44
   18:55:01.462.09-Sep-2020 5280.51  561.96 74.30 22.00 302.96 2550.44
   18:55:01.662.09-Sep-2020 5280.51  562.34 74.30 22.00 303.16 2550.44
   18:55:01.862.09-Sep-2020 5280.51  561.45 74.30 22.00 303.36 2550.44
   18:55:02.062.09-Sep-2020 5280.51  562.91 74.30 22.00 303.56 2550.44
   18:55:02.262.09-Sep-2020 5280.51  562.76 74.30 22.00 303.76 2550.44
   18:55:02.461.09-Sep-2020 5280.51  562.76 74.30 22.00 303.96 2550.44
   18:55:02.661.09-Sep-2020 5280.51  562.96 74.30 22.00 304.16 2550.44
   18:55:02.861.09-Sep-2020 5280.51  563.36 74.30 22.00 304.36 2550.44
   18:55:03.061.09-Sep-2020 5280.51  562.77 74.30 22.00 304.56 2550.44
   18:55:03.261.09-Sep-2020 5280.51  563.54 74.30 22.00 304.76 2550.44
   18:55:03.461.09-Sep-2020 5280.51  563.54 74.30 22.00 304.96 2550.44
   18:55:03.660.09-Sep-2020 5280.51  563.83 74.30 22.00 305.16 2550.44
   18:55:03.860.09-Sep-2020 5280.51  563.50 74.30 22.00 305.36 2550.44
   18:55:04.060.09-Sep-2020 5280.51  564.14 74.30 22.00 305.56 2550.44
   18:55:04.260.09-Sep-2020 5280.51  564.42 74.30 22.00 305.76 2550.44
   18:55:04.460.09-Sep-2020 5280.51  564.51 74.30 22.00 305.96 2550.44
   18:55:04.660.09-Sep-2020 5280.51  563.89 74.30 22.00 306.16 2550.44
   18:55:04.859.09-Sep-2020 5280.51  565.16 74.30 22.00 306.36 2550.44
   18:55:05.059.09-Sep-2020 5280.51  565.04 74.30 22.00 306.56 2550.44
   18:55:05.259.09-Sep-2020 5280.51  565.18 74.30 22.00 306.76 2550.44
   18:55:05.459.09-Sep-2020 5280.51  565.18 74.30 22.00 306.96 2550.44
   18:55:05.659.09-Sep-2020 5280.51  565.66 74.30 22.00 307.16 2550.44
   18:55:05.859.09-Sep-2020 5280.51  565.75 74.30 22.00 307.36 2550.44
   18:55:06.059.09-Sep-2020 5280.51  565.91 74.30 22.00 307.56 2550.44
   18:55:06.258.09-Sep-2020 5280.51  566.06 74.30 22.00 307.76 2550.44
   18:55:06.458.09-Sep-2020 5280.51  566.06 74.30 22.00 307.96 2550.44
   18:55:06.658.09-Sep-2020 5280.51  566.38 74.30 22.00 308.16 2550.44
   18:55:06.858.09-Sep-2020 5280.51  566.57 74.30 22.00 308.36 2550.44
   18:55:07.058.09-Sep-2020 5280.51  566.75 74.30 22.00 308.56 2550.44
   18:55:07.258.09-Sep-2020 5280.51  566.89 74.30 22.00 308.76 2550.44
   18:55:07.457.09-Sep-2020 5280.51  566.89 74.30 22.00 308.96 2550.44
   18:55:07.657.09-Sep-2020 5280.51  567.17 74.30 22.00 309.16 2550.44
   18:55:07.857.09-Sep-2020 5280.51  567.35 74.30 22.00 309.36 2550.44
   18:55:08.057.09-Sep-2020 5280.51  567.54 74.30 22.00 309.56 2550.44
   18:55:08.257.09-Sep-2020 5280.51  567.27 74.30 22.00 309.76 2550.44
   18:55:08.457.09-Sep-2020 5280.51  567.27 74.30 22.00 309.96 2550.44
   18:55:08.656.09-Sep-2020 5280.51  568.02 74.30 22.00 310.16 2550.44
   18:55:08.856.09-Sep-2020 5280.51  568.18 74.30 22.00 310.36 2550.44
   18:55:09.056.09-Sep-2020 5280.51  568.31 74.30 22.00 310.56 2550.44
   18:55:09.256.09-Sep-2020 5280.51  568.62 74.30 22.00 310.76 2550.44
   18:55:09.456.09-Sep-2020 5280.51  568.69 74.30 22.00 310.96 2550.44
   18:55:09.656.09-Sep-2020 5280.51  568.88 74.30 22.00 311.16 2550.44
   18:55:09.856.09-Sep-2020 5280.51  569.04 74.30 22.00 311.36 2550.44
   18:55:10.055.09-Sep-2020 5280.51  569.20 74.30 22.00 311.56 2550.44
   18:55:10.255.09-Sep-2020 5280.51  569.38 74.30 22.00 311.76 2550.44
   18:55:10.455.09-Sep-2020 5280.51  569.53 74.30 22.00 311.96 2550.44
   18:55:10.655.09-Sep-2020 5280.51  569.63 74.30 22.00 312.16 2550.44
   18:55:10.855.09-Sep-2020 5280.51  569.80 74.30 22.00 312.35 2550.44
   18:55:11.055.09-Sep-2020 5280.51  569.99 74.30 22.00 312.55 2550.44
   18:55:11.254.09-Sep-2020 5280.51  570.19 74.30 22.00 312.75 2550.44
   18:55:11.454.09-Sep-2020 5280.51  569.91 74.30 22.00 312.95 2550.44
   18:55:11.654.09-Sep-2020 5280.51  565.16 74.30 22.00 313.15 2550.44
   18:55:11.854.09-Sep-2020 5280.51  555.56 74.30 22.00 313.35 2550.44
   18:55:12.054.09-Sep-2020 5280.51  544.09 74.30 22.00 313.55 2550.44
   18:55:12.254.09-Sep-2020 5280.51  532.72 74.30 22.00 313.75 2550.44
   18:55:12.454.09-Sep-2020 5280.51  526.59 74.30 22.00 313.95 2550.44
   18:55:12.653.09-Sep-2020 5280.51  521.72 74.30 22.00 314.15 2550.44
   18:55:12.853.09-Sep-2020 5280.51  517.13 74.30 22.00 314.35 2550.44
   18:55:13.053.09-Sep-2020 5280.51  512.38 74.30 22.00 314.55 2550.44
   18:55:13.253.09-Sep-2020 5280.51  509.94 74.30 22.00 314.75 2550.44
   18:55:13.453.09-Sep-2020 5280.51  509.94 74.30 22.00 314.95 2550.44
   18:55:13.653.09-Sep-2020 5280.51  505.51 74.30 22.00 315.15 2550.44
   18:55:13.852.09-Sep-2020 5280.51  503.18 74.30 22.00 315.35 2550.44
   18:55:14.052.09-Sep-2020 5280.51  500.50 74.30 22.00 315.55 2550.44
   18:55:14.252.09-Sep-2020 5280.51  499.55 74.30 22.00 315.75 2550.44
   18:55:14.452.09-Sep-2020 5280.51  499.55 74.30 22.00 315.95 2550.44
