~Version Information
 VERS.                  2.0:   CWLS log ASCII Standard -VERSION 2.0
 WRAP.                   NO:   One line per depth step
~Well Information Block
#MNEM.UNIT     VALUE/NAME     DESCRIPTION
#---------     -----------    ---------------------------
 STRT.S             14:18:02 09-Sep-20: START TIME 14:18:02 09-Sep-20
 STOP.S             14:26:13 09-Sep-20: STOP TIME  14:26:13 09-Sep-20
 STEP.S                   0.00: STEP TIME
 NULL.                 -999.25: NULL VALUE
 MDS .        Operator Entered:  MAG DATA SOURCE
 PDAT.          Mean Sea Level:  PERMANENT DATUM
 DCON.         Sperry Drilling:  DIRECTNL CONTR
 RIG .              West Azeri:  RIG NAME
 WELL.           C40 (Slot 20):  WELL NAME
 SRVC.     Turan Drilling Engineering:  CONTRACTOR
 FLD .                     ACG:  FIELD NAME
 CTRY.              Azerbaijan:  COUNTRY NAME
 PROV.                    Baku:  PROVINCE
 STAT.                    Baku:  STATE NAME
 REGN.                   EESSA:  REGION
 BASE.              Azerbaijan:  LOGGING EQUIPMENT BASE LOCATION
 COMP.     BP Exploration (Caspian Sea) Ltd:  COMPANY
 WTYP.                Deviated:  WELL TYPE
 SON .        AZ-XX-0906344804:  JOB NUMBER
 FTOP.          Formation Tops:  FORM TOPS DESC
 ILTD.               Lithology:  INTERP LTH DESC
 SVYD.                  Survey:  SURVEY DESC
 DMOD.             Drill Model:  DRILL MOD DESC
 HPTY.       Minimum Curvature:  HOLE POS TYPE
 NREF.                    Grid:  NORTH REFERENCE
 SPUD.               01-Jan-20:  SPUD DATE
 DATE.      00.59.44 15-Sep-20:  END TIME
 STIM.      12.00.00 12-Jun-20:  START TIME
 DMF .             Drill Floor:  DRILL MEAS FROM
 DFST.                        :  DIST FSL TEXT
 DFWT.                        :  DIST FWL TEXT
 API .                        :  API NUMBER
 CNTY.                        :  COUNTY
 UWI .                        :  UNIQUE WELL IDENTIFIER
 LOC .                        :  LOCATION
 LMF .             Drill Floor:  LOG MEASURED FROM
 VSNS.m                   2.88:  VERT SEC N/S
 VSEW.m                  -3.84:  VERT SEC E/W
 AGAP.m                  43.42:  AIR GAP
 APD .m                  43.42:  DEPTH ABOVE PD
 WDMS.m                 118.27:  WD ELEV
 EGL .m                   0.00:  GROUND ELEVATION
 EPD .m                   0.00:  ELEVATION
 AZTC.deg                 6.23:  AZM TOTAL CORR
 GRDC.deg                 0.20:  GRID CORRECTION
 MDEC.deg                 6.43:  MAGNETIC DECL
 MDIP.deg                59.49:  MAGNETIC DIP
 MFLD.nT              50277.00:  MAGNETIC FIELD
 GVFD.g                   1.00:  GRAVITY FIELD
 VSDR.deg               173.20:  VERT SEC DIRECT
 TDD .m                5790.01:  TOTAL DEPTH (DRILLER)
 SDEP.m                5231.01:  START DEPTH
 DFSL.m                   0.00:  DISTANCE FSL
 DFWL.m                   0.00:  DISTANCE FWL
 UTMY.m             4435808.83:  UTM Y
 UTMX.m              526266.40:  UTM X
 WHEW.m                  -3.84:  WELL HEAD E/W
 WHNS.m                   2.88:  WELL HEAD N/S
 LONG.deg                51.31:  LONGITUDE
 LATI.deg                40.06:  LATITUDE
 TVDS.m                  43.42:  TVDSS CORRECTN
 DEP .m                 430.08:  DEPTH
 EKB .m                  43.42:  KB ELEVATION
 EDF .m                  43.42:  DF ELEVATION
 TDL .m                 559.00:  TOTAL DEPTH (LOGGER)
 MAGU.                 1849381:  MAGUTM CHECKSUM
 VSC .                       0:  VS TO CLOSURE
~Parameter Information Block
#MNEM.UNIT       Value        Description
#---------     -----------    ---------------------------
 AV  .mps                 4.87:  Ann Velocity 
 AVMX.mps                 7.08:  Max Ann Veloc 
 AZIF.deg               108.87:  Azm, Final 
 BHAT.                  Rotary:  BHA Type 
 BROT.°/30m               0.35:  Build Rotating 
 BS  .in                  8.50:  Bit Size 
 BSZ .in                  8.50:  Bit Size 
 BTPL.psig              360.00:  Bit Press Loss 
 CABU.                     Yes:  Customer Abuse 
 TCS .hr                106.24:  Time Ciculation Ended 
 CV  .mps                 1.77:  Crit Velocity 
 CVMX.mps                 2.03:  Max Crit Veloc 
 DD1 .         Aykhan Agagulov:  Direct Drillr 1 
 DD2 .            Nonso Okofor:  Direct Drillr 2 
 DDSV.               Geo-Pilot:  DD Service 
 DEFF.%                  98.00:  % Det Eff 
 DLRX.°/30m               0.50:  Dogleg Rot Max 
 DLSO.°/30m               0.40:  Dogleg Oriented 
 DLSX.°/30m               0.94:  Dogleg Str Max 
 DRET.      20.30.00 08-Sep-20:  Drill End Time 
 DRST.      22.15.00 06-Sep-20:  Drill Start Tim 
 DTIM.hr                 31.31:  Time Drilling 
 EDEP.m                5790.01:  End Depth 
 ENG1.           Amrah Tahirov:  Engineer 1 
 ENG2.         Dair Mahammadov:  Engineer 2 
 ENG3.           Emil Huseynov:  Engineer 3 
 ETIM.      04.01.04 12-Sep-20:  End Time 
 FLOI.gpm               450.00:  Flow In 
 FLON.gpm               450.00:  Flow In Min 
 FLOS.cptm                2.00:  Fluid Loss 
 FLOX.gpm               450.00:  Flow In Max 
 FTRO.       Formation Presure:  FTWD Run Obj 
 HFLO.                      No:  High Flow 
 HPRE.                      No:  High Pressure 
 HTEM.                      No:  High Temp 
 HYDO.m                   1.80:  Hydro Offset 
 IFIN.deg                72.03:  Inc, Final 
 IMAX.deg                73.72:  Inc Max 
 IMIN.deg                70.94:  Inc Min 
 IMND.m                5508.52:  Inc Min Depth 
 IMXD.m                5253.60:  Inc Max Depth 
 JARR.                      No:  Jarring 
 LETM.      20.30.00 08-Sep-20:  Log End Time 
 LOST.hr                     0:  Lost Rig Time 
 LSTM.      22.15.00 06-Sep-20:  Log Start Time 
 MDCL.ppm             36000.00:  Mud Chlorides 
 MDES.     Inversion Oil/Synthetic:  Mud Desc 
 DFD .sg                  1.44:  Mud Density 
 MDMN.sg                  1.44:  Dens Mud Min 
 MDMX.sg                  1.57:  Dens Mud Max 
 MOIL.                      70:  Run Mud Oil % 
 MOWR.                   70:30:  Run Mud OWR 
 MSND.                       0:  Run Mud Sand % 
 MSOL.                      21:  Run Mud Solids% 
 DFV .spqt               68.00:  Mud Viscosity 
 MWOD.in                  6.75:  MWD Tool OD 
 MWSI.                     Yes:  Serv Intrp, MWD 
 OTIM.hr                174.84:  Time Operating 
 PCON.           Look Like New:  Pad Condition 
 PMAX.psia            10616.93:  Press Op, Max 
 PV  .cP                 50.00:  Mud PV 
 RUN .                     700:  Run Number 
 ROPA.m/hr               14.24:  ROP Avg 
 ROPN.m/hr               10.00:  ROP Min 
 ROPX.m/hr               32.00:  ROP Max 
 RPMA.rpm               120.90:  RPM Surface Avg 
 RPMN.rpm               120.00:  RPM Surface Min 
 RPMX.rpm               140.00:  RPM Surface Max 
 RRUN.                    0700:  Rig Run Number 
 RTIM.hr                  3.20:  Time Reaming 
 SAZI.deg               109.99:  Azm, Start 
 SDEP.m                5231.01:  Start Depth 
 SIDD.                      No:  Serv Intrp, DD 
 SINC.deg                73.72:  Inc, Start 
 SPPA.psig             3051.00:  SPP Avg 
 SPPN.psig             2950.00:  SPP Min 
 SPPX.psig             3250.00:  SPP Max 
 STIM.      08.00.00 05-Sep-20:  Start Time 
 SVCS.                 DD, MWD:  Services 
 SVER.                    9.20:  Sperry Version 
 TDAT.m                 559.00:  Tot Depth Attmp 
 TDDF.                      No:  Trip for DD 
 TDLG.m                 559.00:  Tot Depth Loggd 
 TFF .                      No:  Trip for Fail 
 TQAA.f-kp               26.49:  Torque Abs Avg 
 TQAN.f-kp               25.00:  Torque Abs Min 
 TQAX.f-kp               27.00:  Torque Abs Max 
 TRRT.°/30m               1.50:  Turn Rotating 
 MRT .                    HCIM:  Maximum Recorded Temperature 
 TTMX.degC               90.20:  Max Tool Temp 
 VS01.                90542671:  Virtual Str1 SN 
 VS02.                90545185:  Virtual Str2 SN 
 VS03.                90602015:  Virtual Str3 SN 
 VS04.                90515230:  Virtual Str4 SN 
 WBMN.klb                 5.00:  WOB Min 
 WOBA.klb                14.79:  WOB Avg 
 WOBX.klb                20.00:  WOB Max 
 YP  .lhf2               29.00:  Yield Point 
~Curve Information Block
#MNEM.UNIT                 API CODE     Curve Description
#---------               -----------    ---------------------------
 TIME.HHMMSS            00 000 000 000:  GT Time & Date
 GTDEPTH.m              00 000 000 000:  GT Depth
 GTPQH.psia             00 000 000 000:  GT HR Quartz Pressure
 GTTQ.degC              00 000 000 000:  GT Quartz Temperature
 GTTN.NONE              00 000 000 000:  GT Test Number
 GTET.sec               00 000 000 000:  GT Elapsed Test Time
 GTTVD.m                00 000 000 000:  GT True Vertical Depth
#Other Information
#
#WARRANTY: Halliburton will use its best efforts to furnish customers with 
#accurate information and interpretations that are part of, and incident to, the services 
#provided.  However, Halliburton cannot and does not warrant the accuracy 
#or correctness of such information and interpretations.  Under no circumstances should any 
#such information or interpretation be relied upon as the sole basis for any drilling, 
#completion, production, or financial decision or any procedure involving any risk to the 
#safety of any drilling venture, drilling rig or its crew or any other third party.  The 
#Customer has full responsibility for all drilling, completion and production operation.  
#Halliburton makes no representations or warranties, either expressed or 
#implied, including, but not limited to, the implied warranties of merchantability or fitness 
#for a particular purpose, with respect to the services rendered.  In no event will 
#Halliburton be liable for failure to obtain any particular results or for 
#any damages, including, but not limited to, indirect, special or consequential damages, 
#resulting from the use of any information or interpretation provided by Halliburton.
#
~A           TIME           GTDEPTH  GTPQH  GTTQ  GTTN   GTET   GTTVD  
# ...
   14:25:57.111.09-Sep-2020 5408.01 6401.86 75.39 16.00 474.89 2589.60
   14:25:57.311.09-Sep-2020 5408.01 6405.77 75.39 16.00 475.09 2589.60
   14:25:57.511.09-Sep-2020 5408.01 6403.06 75.39 16.00 475.29 2589.60
   14:25:57.711.09-Sep-2020 5408.01 6403.06 75.39 16.00 475.49 2589.60
   14:25:57.911.09-Sep-2020 5408.01 6402.47 75.39 16.00 475.69 2589.60
   14:25:58.111.09-Sep-2020 5408.01 6402.50 75.38 16.00 475.89 2589.60
   14:25:58.312.09-Sep-2020 5408.01 6402.39 75.38 16.00 476.09 2589.60
   14:25:58.512.09-Sep-2020 5408.01 6402.24 75.38 16.00 476.29 2589.60
   14:25:58.712.09-Sep-2020 5408.01 6402.24 75.38 16.00 476.49 2589.60
   14:25:58.912.09-Sep-2020 5408.01 6402.31 75.38 16.00 476.69 2589.60
   14:25:59.112.09-Sep-2020 5408.01 6402.49 75.38 16.00 476.89 2589.60
   14:25:59.312.09-Sep-2020 5408.01 6402.40 75.38 16.00 477.09 2589.60
   14:25:59.512.09-Sep-2020 5408.01 6402.28 75.38 16.00 477.29 2589.60
   14:25:59.712.09-Sep-2020 5408.01 6402.28 75.38 16.00 477.49 2589.60
   14:25:59.913.09-Sep-2020 5408.01 6402.09 75.38 16.00 477.69 2589.60
   14:26:00.113.09-Sep-2020 5408.01 6411.10 75.38 16.00 477.89 2589.60
   14:26:00.313.09-Sep-2020 5408.01 6398.80 75.38 16.00 478.09 2589.60
   14:26:00.513.09-Sep-2020 5408.01 6402.43 75.38 16.00 478.29 2589.60
   14:26:00.713.09-Sep-2020 5408.01 6402.43 75.38 16.00 478.49 2589.60
   14:26:00.913.09-Sep-2020 5408.01 6403.60 75.38 16.00 478.69 2589.60
   14:26:01.113.09-Sep-2020 5408.01 6403.64 75.38 16.00 478.89 2589.60
   14:26:01.313.09-Sep-2020 5408.01 6401.05 75.38 16.00 479.09 2589.60
   14:26:01.513.09-Sep-2020 5408.01 6401.92 75.38 16.00 479.29 2589.60
   14:26:01.714.09-Sep-2020 5408.01 6401.92 75.38 16.00 479.49 2589.60
   14:26:01.914.09-Sep-2020 5408.01 6402.13 75.38 16.00 479.69 2589.60
   14:26:02.114.09-Sep-2020 5408.01 6401.72 75.37 16.00 479.89 2589.60
   14:26:02.314.09-Sep-2020 5408.01 6401.79 75.37 16.00 480.09 2589.60
   14:26:02.514.09-Sep-2020 5408.01 6401.03 75.37 16.00 480.29 2589.60
   14:26:02.714.09-Sep-2020 5408.01 6401.03 75.37 16.00 480.49 2589.60
   14:26:02.914.09-Sep-2020 5408.01 6401.03 75.37 16.00 480.69 2589.60
   14:26:03.114.09-Sep-2020 5408.01 6400.71 75.37 16.00 480.89 2589.60
   14:26:03.315.09-Sep-2020 5408.01 6400.77 75.37 16.00 481.09 2589.60
   14:26:03.515.09-Sep-2020 5408.01 6408.91 75.37 16.00 481.29 2589.60
   14:26:03.715.09-Sep-2020 5408.01 6399.28 75.37 16.00 481.49 2589.60
   14:26:03.915.09-Sep-2020 5408.01 6399.20 75.37 16.00 481.69 2589.60
   14:26:04.115.09-Sep-2020 5408.01 6401.82 75.37 16.00 481.89 2589.60
   14:26:04.315.09-Sep-2020 5408.01 6400.43 75.37 16.00 482.09 2589.60
   14:26:04.515.09-Sep-2020 5408.01 6403.60 75.37 16.00 482.29 2589.60
   14:26:04.715.09-Sep-2020 5408.01 6403.60 75.37 16.00 482.49 2589.60
   14:26:04.916.09-Sep-2020 5408.01 6398.40 75.37 16.00 482.70 2589.60
   14:26:05.116.09-Sep-2020 5408.01 6401.61 75.37 16.00 482.90 2589.60
   14:26:05.316.09-Sep-2020 5408.01 6401.50 75.37 16.00 483.10 2589.60
   14:26:05.516.09-Sep-2020 5408.01 6410.75 75.37 16.00 483.30 2589.60
   14:26:05.716.09-Sep-2020 5408.01 6410.75 75.37 16.00 483.50 2589.60
   14:26:05.916.09-Sep-2020 5408.01 6401.50 75.37 16.00 483.70 2589.60
   14:26:06.116.09-Sep-2020 5408.01 6402.04 75.36 16.00 483.90 2589.60
   14:26:06.316.09-Sep-2020 5408.01 6410.65 75.36 16.00 484.10 2589.60
   14:26:06.517.09-Sep-2020 5408.01 6401.92 75.36 16.00 484.30 2589.60
   14:26:06.717.09-Sep-2020 5408.01 6401.92 75.36 16.00 484.50 2589.60
   14:26:06.917.09-Sep-2020 5408.01 6403.65 75.36 16.00 484.70 2589.60
   14:26:07.117.09-Sep-2020 5408.01 6401.47 75.36 16.00 484.90 2589.60
   14:26:07.317.09-Sep-2020 5408.01 6405.23 75.36 16.00 485.10 2589.60
   14:26:07.517.09-Sep-2020 5408.01 6401.03 75.36 16.00 485.30 2589.60
   14:26:07.717.09-Sep-2020 5408.01 6401.03 75.36 16.00 485.50 2589.60
   14:26:07.917.09-Sep-2020 5408.01 6400.53 75.36 16.00 485.70 2589.60
   14:26:08.118.09-Sep-2020 5408.01 6404.74 75.36 16.00 485.90 2589.60
   14:26:08.318.09-Sep-2020 5408.01 6401.01 75.36 16.00 486.10 2589.60
   14:26:08.518.09-Sep-2020 5408.01 6403.77 75.36 16.00 486.30 2589.60
   14:26:08.718.09-Sep-2020 5408.01 6403.77 75.36 16.00 486.50 2589.60
   14:26:08.918.09-Sep-2020 5408.01 6402.62 75.36 16.00 486.70 2589.60
   14:26:09.118.09-Sep-2020 5408.01 6402.51 75.36 16.00 486.90 2589.60
   14:26:09.318.09-Sep-2020 5408.01 6401.98 75.36 16.00 487.10 2589.60
   14:26:09.518.09-Sep-2020 5408.01 6401.87 75.36 16.00 487.30 2589.60
   14:26:09.719.09-Sep-2020 5408.01 6401.87 75.36 16.00 487.50 2589.60
   14:26:09.919.09-Sep-2020 5408.01 6402.58 75.36 16.00 487.70 2589.60
   14:26:10.119.09-Sep-2020 5408.01 6402.16 75.36 16.00 487.90 2589.60
   14:26:10.319.09-Sep-2020 5408.01 6401.29 75.36 16.00 488.10 2589.60
   14:26:10.519.09-Sep-2020 5408.01 6400.90 75.36 16.00 488.30 2589.60
   14:26:10.719.09-Sep-2020 5408.01 6400.82 75.35 16.00 488.50 2589.60
   14:26:10.919.09-Sep-2020 5408.01 6400.94 75.35 16.00 488.70 2589.60
   14:26:11.119.09-Sep-2020 5408.01 6401.20 75.35 16.00 488.90 2589.60
   14:26:11.319.09-Sep-2020 5408.01 6409.27 75.35 16.00 489.10 2589.60
   14:26:11.520.09-Sep-2020 5408.01 6400.17 75.35 16.00 489.30 2589.60
   14:26:11.720.09-Sep-2020 5408.01 6400.17 75.35 16.00 489.50 2589.60
   14:26:11.920.09-Sep-2020 5408.01 6403.44 75.35 16.00 489.70 2589.60
   14:26:12.120.09-Sep-2020 5408.01 6402.11 75.35 16.00 489.90 2589.60
   14:26:12.320.09-Sep-2020 5408.01 6405.23 75.35 16.00 490.10 2589.60
   14:26:12.520.09-Sep-2020 5408.01 6401.44 75.35 16.00 490.30 2589.60
   14:26:12.720.09-Sep-2020 5408.01 6401.44 75.35 16.00 490.50 2589.60
   14:26:12.920.09-Sep-2020 5408.01 6401.97 75.35 16.00 490.70 2589.60
   14:26:13.121.09-Sep-2020 5408.01 6402.48 75.35 16.00 490.90 2589.60
   14:26:13.321.09-Sep-2020 5408.01 6402.04 75.35 16.00 491.10 2589.60
