~Version Information
 VERS.                  2.0:   CWLS log ASCII Standard -VERSION 2.0
 WRAP.                   NO:   One line per depth step
~Well Information Block
#MNEM.UNIT     VALUE/NAME     DESCRIPTION
#---------     -----------    ---------------------------
 STRT.S             16:52:14 09-Sep-20: START TIME 16:52:14 09-Sep-20
 STOP.S             17:00:39 09-Sep-20: STOP TIME  17:00:39 09-Sep-20
 STEP.S                   0.00: STEP TIME
 NULL.                 -999.25: NULL VALUE
 MDS .        Operator Entered:  MAG DATA SOURCE
 PDAT.          Mean Sea Level:  PERMANENT DATUM
 DCON.         Sperry Drilling:  DIRECTNL CONTR
 RIG .              West Azeri:  RIG NAME
 WELL.           C40 (Slot 20):  WELL NAME
 SRVC.     Turan Drilling Engineering:  CONTRACTOR
 FLD .                     ACG:  FIELD NAME
 CTRY.              Azerbaijan:  COUNTRY NAME
 PROV.                    Baku:  PROVINCE
 STAT.                    Baku:  STATE NAME
 REGN.                   EESSA:  REGION
 BASE.              Azerbaijan:  LOGGING EQUIPMENT BASE LOCATION
 COMP.     BP Exploration (Caspian Sea) Ltd:  COMPANY
 WTYP.                Deviated:  WELL TYPE
 SON .        AZ-XX-0906344804:  JOB NUMBER
 FTOP.          Formation Tops:  FORM TOPS DESC
 ILTD.               Lithology:  INTERP LTH DESC
 SVYD.                  Survey:  SURVEY DESC
 DMOD.             Drill Model:  DRILL MOD DESC
 HPTY.       Minimum Curvature:  HOLE POS TYPE
 NREF.                    Grid:  NORTH REFERENCE
 SPUD.               01-Jan-20:  SPUD DATE
 DATE.      00.59.44 15-Sep-20:  END TIME
 STIM.      12.00.00 12-Jun-20:  START TIME
 DMF .             Drill Floor:  DRILL MEAS FROM
 DFST.                        :  DIST FSL TEXT
 DFWT.                        :  DIST FWL TEXT
 API .                        :  API NUMBER
 CNTY.                        :  COUNTY
 UWI .                        :  UNIQUE WELL IDENTIFIER
 LOC .                        :  LOCATION
 LMF .             Drill Floor:  LOG MEASURED FROM
 VSNS.m                   2.88:  VERT SEC N/S
 VSEW.m                  -3.84:  VERT SEC E/W
 AGAP.m                  43.42:  AIR GAP
 APD .m                  43.42:  DEPTH ABOVE PD
 WDMS.m                 118.27:  WD ELEV
 EGL .m                   0.00:  GROUND ELEVATION
 EPD .m                   0.00:  ELEVATION
 AZTC.deg                 6.23:  AZM TOTAL CORR
 GRDC.deg                 0.20:  GRID CORRECTION
 MDEC.deg                 6.43:  MAGNETIC DECL
 MDIP.deg                59.49:  MAGNETIC DIP
 MFLD.nT              50277.00:  MAGNETIC FIELD
 GVFD.g                   1.00:  GRAVITY FIELD
 VSDR.deg               173.20:  VERT SEC DIRECT
 TDD .m                5790.01:  TOTAL DEPTH (DRILLER)
 SDEP.m                5231.01:  START DEPTH
 DFSL.m                   0.00:  DISTANCE FSL
 DFWL.m                   0.00:  DISTANCE FWL
 UTMY.m             4435808.83:  UTM Y
 UTMX.m              526266.40:  UTM X
 WHEW.m                  -3.84:  WELL HEAD E/W
 WHNS.m                   2.88:  WELL HEAD N/S
 LONG.deg                51.31:  LONGITUDE
 LATI.deg                40.06:  LATITUDE
 TVDS.m                  43.42:  TVDSS CORRECTN
 DEP .m                 430.08:  DEPTH
 EKB .m                  43.42:  KB ELEVATION
 EDF .m                  43.42:  DF ELEVATION
 TDL .m                 559.00:  TOTAL DEPTH (LOGGER)
 MAGU.                 1849381:  MAGUTM CHECKSUM
 VSC .                       0:  VS TO CLOSURE
~Parameter Information Block
#MNEM.UNIT       Value        Description
#---------     -----------    ---------------------------
 AV  .mps                 4.87:  Ann Velocity 
 AVMX.mps                 7.08:  Max Ann Veloc 
 AZIF.deg               108.87:  Azm, Final 
 BHAT.                  Rotary:  BHA Type 
 BROT.°/30m               0.35:  Build Rotating 
 BS  .in                  8.50:  Bit Size 
 BSZ .in                  8.50:  Bit Size 
 BTPL.psig              360.00:  Bit Press Loss 
 CABU.                     Yes:  Customer Abuse 
 TCS .hr                106.24:  Time Ciculation Ended 
 CV  .mps                 1.77:  Crit Velocity 
 CVMX.mps                 2.03:  Max Crit Veloc 
 DD1 .         Aykhan Agagulov:  Direct Drillr 1 
 DD2 .            Nonso Okofor:  Direct Drillr 2 
 DDSV.               Geo-Pilot:  DD Service 
 DEFF.%                  98.00:  % Det Eff 
 DLRX.°/30m               0.50:  Dogleg Rot Max 
 DLSO.°/30m               0.40:  Dogleg Oriented 
 DLSX.°/30m               0.94:  Dogleg Str Max 
 DRET.      20.30.00 08-Sep-20:  Drill End Time 
 DRST.      22.15.00 06-Sep-20:  Drill Start Tim 
 DTIM.hr                 31.31:  Time Drilling 
 EDEP.m                5790.01:  End Depth 
 ENG1.           Amrah Tahirov:  Engineer 1 
 ENG2.         Dair Mahammadov:  Engineer 2 
 ENG3.           Emil Huseynov:  Engineer 3 
 ETIM.      04.01.04 12-Sep-20:  End Time 
 FLOI.gpm               450.00:  Flow In 
 FLON.gpm               450.00:  Flow In Min 
 FLOS.cptm                2.00:  Fluid Loss 
 FLOX.gpm               450.00:  Flow In Max 
 FTRO.       Formation Presure:  FTWD Run Obj 
 HFLO.                      No:  High Flow 
 HPRE.                      No:  High Pressure 
 HTEM.                      No:  High Temp 
 HYDO.m                   1.80:  Hydro Offset 
 IFIN.deg                72.03:  Inc, Final 
 IMAX.deg                73.72:  Inc Max 
 IMIN.deg                70.94:  Inc Min 
 IMND.m                5508.52:  Inc Min Depth 
 IMXD.m                5253.60:  Inc Max Depth 
 JARR.                      No:  Jarring 
 LETM.      20.30.00 08-Sep-20:  Log End Time 
 LOST.hr                     0:  Lost Rig Time 
 LSTM.      22.15.00 06-Sep-20:  Log Start Time 
 MDCL.ppm             36000.00:  Mud Chlorides 
 MDES.     Inversion Oil/Synthetic:  Mud Desc 
 DFD .sg                  1.44:  Mud Density 
 MDMN.sg                  1.44:  Dens Mud Min 
 MDMX.sg                  1.57:  Dens Mud Max 
 MOIL.                      70:  Run Mud Oil % 
 MOWR.                   70:30:  Run Mud OWR 
 MSND.                       0:  Run Mud Sand % 
 MSOL.                      21:  Run Mud Solids% 
 DFV .spqt               68.00:  Mud Viscosity 
 MWOD.in                  6.75:  MWD Tool OD 
 MWSI.                     Yes:  Serv Intrp, MWD 
 OTIM.hr                174.84:  Time Operating 
 PCON.           Look Like New:  Pad Condition 
 PMAX.psia            10616.93:  Press Op, Max 
 PV  .cP                 50.00:  Mud PV 
 RUN .                     700:  Run Number 
 ROPA.m/hr               14.24:  ROP Avg 
 ROPN.m/hr               10.00:  ROP Min 
 ROPX.m/hr               32.00:  ROP Max 
 RPMA.rpm               120.90:  RPM Surface Avg 
 RPMN.rpm               120.00:  RPM Surface Min 
 RPMX.rpm               140.00:  RPM Surface Max 
 RRUN.                    0700:  Rig Run Number 
 RTIM.hr                  3.20:  Time Reaming 
 SAZI.deg               109.99:  Azm, Start 
 SDEP.m                5231.01:  Start Depth 
 SIDD.                      No:  Serv Intrp, DD 
 SINC.deg                73.72:  Inc, Start 
 SPPA.psig             3051.00:  SPP Avg 
 SPPN.psig             2950.00:  SPP Min 
 SPPX.psig             3250.00:  SPP Max 
 STIM.      08.00.00 05-Sep-20:  Start Time 
 SVCS.                 DD, MWD:  Services 
 SVER.                    9.20:  Sperry Version 
 TDAT.m                 559.00:  Tot Depth Attmp 
 TDDF.                      No:  Trip for DD 
 TDLG.m                 559.00:  Tot Depth Loggd 
 TFF .                      No:  Trip for Fail 
 TQAA.f-kp               26.49:  Torque Abs Avg 
 TQAN.f-kp               25.00:  Torque Abs Min 
 TQAX.f-kp               27.00:  Torque Abs Max 
 TRRT.°/30m               1.50:  Turn Rotating 
 MRT .                    HCIM:  Maximum Recorded Temperature 
 TTMX.degC               90.20:  Max Tool Temp 
 VS01.                90542671:  Virtual Str1 SN 
 VS02.                90545185:  Virtual Str2 SN 
 VS03.                90602015:  Virtual Str3 SN 
 VS04.                90515230:  Virtual Str4 SN 
 WBMN.klb                 5.00:  WOB Min 
 WOBA.klb                14.79:  WOB Avg 
 WOBX.klb                20.00:  WOB Max 
 YP  .lhf2               29.00:  Yield Point 
~Curve Information Block
#MNEM.UNIT                 API CODE     Curve Description
#---------               -----------    ---------------------------
 TIME.HHMMSS            00 000 000 000:  GT Time & Date
 GTDEPTH.m              00 000 000 000:  GT Depth
 GTPQH.psia             00 000 000 000:  GT HR Quartz Pressure
 GTTQ.degC              00 000 000 000:  GT Quartz Temperature
 GTTN.NONE              00 000 000 000:  GT Test Number
 GTET.sec               00 000 000 000:  GT Elapsed Test Time
 GTTVD.m                00 000 000 000:  GT True Vertical Depth
#Other Information
#
#WARRANTY: Halliburton will use its best efforts to furnish customers with 
#accurate information and interpretations that are part of, and incident to, the services 
#provided.  However, Halliburton cannot and does not warrant the accuracy 
#or correctness of such information and interpretations.  Under no circumstances should any 
#such information or interpretation be relied upon as the sole basis for any drilling, 
#completion, production, or financial decision or any procedure involving any risk to the 
#safety of any drilling venture, drilling rig or its crew or any other third party.  The 
#Customer has full responsibility for all drilling, completion and production operation.  
#Halliburton makes no representations or warranties, either expressed or 
#implied, including, but not limited to, the implied warranties of merchantability or fitness 
#for a particular purpose, with respect to the services rendered.  In no event will 
#Halliburton be liable for failure to obtain any particular results or for 
#any damages, including, but not limited to, indirect, special or consequential damages, 
#resulting from the use of any information or interpretation provided by Halliburton.
#
~A           TIME           GTDEPTH  GTPQH  GTTQ  GTTN   GTET   GTTVD  
# ...
   16:59:01.136.09-Sep-2020 5303.01 6326.29 74.66 19.00 407.00 2557.08
   16:59:01.336.09-Sep-2020 5303.01 6327.10 74.66 19.00 407.20 2557.08
   16:59:01.536.09-Sep-2020 5303.01 6327.10 74.66 19.00 407.40 2557.08
   16:59:01.736.09-Sep-2020 5303.01 6326.00 74.66 19.00 407.60 2557.08
   16:59:01.937.09-Sep-2020 5303.01 6325.73 74.66 19.00 407.80 2557.08
   16:59:02.137.09-Sep-2020 5303.01 6325.69 74.66 19.00 408.00 2557.08
   16:59:02.337.09-Sep-2020 5303.01 6325.70 74.66 19.00 408.20 2557.08
   16:59:02.537.09-Sep-2020 5303.01 6325.70 74.66 19.00 408.40 2557.08
   16:59:02.737.09-Sep-2020 5303.01 6331.59 74.66 19.00 408.60 2557.08
   16:59:02.937.09-Sep-2020 5303.01 6327.36 74.66 19.00 408.80 2557.08
   16:59:03.137.09-Sep-2020 5303.01 6325.47 74.66 19.00 409.00 2557.08
   16:59:03.337.09-Sep-2020 5303.01 6326.00 74.66 19.00 409.20 2557.08
   16:59:03.537.09-Sep-2020 5303.01 6326.00 74.66 19.00 409.40 2557.08
   16:59:03.737.09-Sep-2020 5303.01 6326.62 74.66 19.00 409.60 2557.08
   16:59:03.937.09-Sep-2020 5303.01 6338.65 74.66 19.00 409.80 2557.08
   16:59:04.138.09-Sep-2020 5303.01 6324.23 74.66 19.00 410.00 2557.08
   16:59:04.338.09-Sep-2020 5303.01 6324.02 74.66 19.00 410.20 2557.08
   16:59:04.538.09-Sep-2020 5303.01 6324.02 74.66 19.00 410.40 2557.08
   16:59:04.738.09-Sep-2020 5303.01 6325.84 74.66 19.00 410.60 2557.08
   16:59:04.938.09-Sep-2020 5303.01 6326.88 74.66 19.00 410.80 2557.08
   16:59:05.138.09-Sep-2020 5303.01 6327.65 74.66 19.00 411.00 2557.08
   16:59:05.338.09-Sep-2020 5303.01 6332.18 74.66 19.00 411.20 2557.08
   16:59:05.538.09-Sep-2020 5303.01 6332.18 74.66 19.00 411.40 2557.08
   16:59:05.738.09-Sep-2020 5303.01 6324.57 74.66 19.00 411.60 2557.08
   16:59:05.938.09-Sep-2020 5303.01 6326.35 74.66 19.00 411.80 2557.08
   16:59:06.139.09-Sep-2020 5303.01 6325.77 74.66 19.00 412.00 2557.08
   16:59:06.339.09-Sep-2020 5303.01 6326.70 74.66 19.00 412.20 2557.08
   16:59:06.539.09-Sep-2020 5303.01 6326.70 74.66 19.00 412.40 2557.08
   16:59:06.739.09-Sep-2020 5303.01 6326.03 74.66 19.00 412.60 2557.08
   16:59:06.939.09-Sep-2020 5303.01 6324.87 74.66 19.00 412.80 2557.08
   16:59:07.139.09-Sep-2020 5303.01 6326.15 74.66 19.00 413.00 2557.08
   16:59:07.339.09-Sep-2020 5303.01 6332.43 74.66 19.00 413.20 2557.08
   16:59:07.539.09-Sep-2020 5303.01 6332.43 74.66 19.00 413.40 2557.08
   16:59:07.739.09-Sep-2020 5303.01 6327.91 74.66 19.00 413.60 2557.08
   16:59:07.939.09-Sep-2020 5303.01 6327.19 74.66 19.00 413.80 2557.08
   16:59:08.140.09-Sep-2020 5303.01 6326.51 74.66 19.00 414.00 2557.08
   16:59:08.340.09-Sep-2020 5303.01 6327.67 74.66 19.00 414.20 2557.08
   16:59:08.540.09-Sep-2020 5303.01 6327.67 74.66 19.00 414.40 2557.08
   16:59:08.740.09-Sep-2020 5303.01 6328.70 74.66 19.00 414.60 2557.08
   16:59:08.940.09-Sep-2020 5303.01 6327.58 74.66 19.00 414.80 2557.08
   16:59:09.140.09-Sep-2020 5303.01 6327.49 74.66 19.00 415.00 2557.08
   16:59:09.340.09-Sep-2020 5303.01 6327.44 74.66 19.00 415.20 2557.08
   16:59:09.540.09-Sep-2020 5303.01 6327.44 74.66 19.00 415.40 2557.08
   16:59:09.740.09-Sep-2020 5303.01 6327.00 74.66 19.00 415.60 2557.08
   16:59:09.940.09-Sep-2020 5303.01 6326.92 74.66 19.00 415.80 2557.08
   16:59:10.140.09-Sep-2020 5303.01 6326.94 74.66 19.00 416.00 2557.08
   16:59:10.341.09-Sep-2020 5303.01 6327.05 74.66 19.00 416.20 2557.08
   16:59:10.541.09-Sep-2020 5303.01 6327.05 74.66 19.00 416.40 2557.08
   16:59:10.741.09-Sep-2020 5303.01 6326.93 74.66 19.00 416.60 2557.08
   16:59:10.941.09-Sep-2020 5303.01 6326.94 74.66 19.00 416.80 2557.08
   16:59:11.141.09-Sep-2020 5303.01 6335.52 74.66 19.00 417.00 2557.08
   16:59:11.341.09-Sep-2020 5303.01 6326.22 74.66 19.00 417.20 2557.08
   16:59:11.541.09-Sep-2020 5303.01 6326.22 74.66 19.00 417.40 2557.08
   16:59:11.741.09-Sep-2020 5303.01 6327.23 74.66 19.00 417.60 2557.08
   16:59:11.941.09-Sep-2020 5303.01 6326.79 74.66 19.00 417.80 2557.08
   16:59:12.141.09-Sep-2020 5303.01 6328.34 74.66 19.00 418.00 2557.08
   16:59:12.342.09-Sep-2020 5303.01 6328.80 74.66 19.00 418.20 2557.08
   16:59:12.542.09-Sep-2020 5303.01 6328.80 74.66 19.00 418.40 2557.08
   16:59:12.742.09-Sep-2020 5303.01 6326.34 74.66 19.00 418.60 2557.08
   16:59:12.942.09-Sep-2020 5303.01 6325.85 74.66 19.00 418.80 2557.08
   16:59:13.142.09-Sep-2020 5303.01 6326.57 74.66 19.00 419.00 2557.08
   16:59:13.342.09-Sep-2020 5303.01 6326.09 74.66 19.00 419.20 2557.08
   16:59:13.542.09-Sep-2020 5303.01 6326.09 74.66 19.00 419.40 2557.08
   16:59:13.742.09-Sep-2020 5303.01 6326.19 74.66 19.00 419.60 2557.08
   16:59:13.942.09-Sep-2020 5303.01 6325.68 74.66 19.00 419.80 2557.08
   16:59:14.142.09-Sep-2020 5303.01 6325.60 74.66 19.00 420.00 2557.08
   16:59:14.342.09-Sep-2020 5303.01 6325.33 74.66 19.00 420.20 2557.08
   16:59:14.543.09-Sep-2020 5303.01 6325.33 74.66 19.00 420.40 2557.08
   16:59:14.743.09-Sep-2020 5303.01 6324.53 74.66 19.00 420.60 2557.08
   16:59:14.943.09-Sep-2020 5303.01 6324.89 74.66 19.00 420.80 2557.08
   16:59:15.143.09-Sep-2020 5303.01 6326.29 74.66 19.00 421.00 2557.08
   16:59:15.343.09-Sep-2020 5303.01 6325.90 74.66 19.00 421.20 2557.08
   16:59:15.543.09-Sep-2020 5303.01 6325.90 74.66 19.00 421.40 2557.08
   16:59:15.743.09-Sep-2020 5303.01 6333.77 74.66 19.00 421.60 2557.08
   16:59:15.943.09-Sep-2020 5303.01 6326.59 74.66 19.00 421.80 2557.08
   16:59:16.143.09-Sep-2020 5303.01 6326.30 74.66 19.00 422.00 2557.08
   16:59:16.343.09-Sep-2020 5303.01 6326.27 74.66 19.00 422.20 2557.08
   16:59:16.544.09-Sep-2020 5303.01 6326.27 74.66 19.00 422.40 2557.08
   16:59:16.744.09-Sep-2020 5303.01 6327.32 74.66 19.00 422.60 2557.08
   16:59:16.944.09-Sep-2020 5303.01 6327.51 74.66 19.00 422.80 2557.08
   16:59:17.144.09-Sep-2020 5303.01 6334.98 74.66 19.00 423.00 2557.08
   16:59:17.344.09-Sep-2020 5303.01 6325.08 74.66 19.00 423.20 2557.08
   16:59:17.544.09-Sep-2020 5303.01 6325.08 74.66 19.00 423.40 2557.08
   16:59:17.744.09-Sep-2020 5303.01 6326.10 74.66 19.00 423.60 2557.08
   16:59:17.944.09-Sep-2020 5303.01 6325.79 74.66 19.00 423.80 2557.08
   16:59:18.144.09-Sep-2020 5303.01 6327.65 74.66 19.00 424.00 2557.08
   16:59:18.344.09-Sep-2020 5303.01 6334.35 74.66 19.00 424.20 2557.08
   16:59:18.544.09-Sep-2020 5303.01 6334.35 74.66 19.00 424.40 2557.08
   16:59:18.745.09-Sep-2020 5303.01 6325.80 74.66 19.00 424.60 2557.08
   16:59:18.945.09-Sep-2020 5303.01 6325.69 74.66 19.00 424.80 2557.08
   16:59:19.145.09-Sep-2020 5303.01 6333.65 74.66 19.00 425.00 2557.08
   16:59:19.345.09-Sep-2020 5303.01 6328.98 74.66 19.00 425.20 2557.08
   16:59:19.545.09-Sep-2020 5303.01 6328.98 74.66 19.00 425.40 2557.08
   16:59:19.745.09-Sep-2020 5303.01 6326.30 74.66 19.00 425.60 2557.08
   16:59:19.945.09-Sep-2020 5303.01 6326.70 74.66 19.00 425.80 2557.08
   16:59:20.145.09-Sep-2020 5303.01 6328.45 74.66 19.00 426.00 2557.08
   16:59:20.345.09-Sep-2020 5303.01 6328.62 74.66 19.00 426.20 2557.08
   16:59:20.545.09-Sep-2020 5303.01 6328.62 74.66 19.00 426.40 2557.08
   16:59:20.746.09-Sep-2020 5303.01 6327.19 74.66 19.00 426.60 2557.08
   16:59:20.946.09-Sep-2020 5303.01 6327.14 74.66 19.00 426.80 2557.08
   16:59:21.146.09-Sep-2020 5303.01 6326.74 74.66 19.00 427.00 2557.08
   16:59:21.346.09-Sep-2020 5303.01 6326.55 74.66 19.00 427.20 2557.08
   16:59:21.546.09-Sep-2020 5303.01 6326.55 74.66 19.00 427.40 2557.08
   16:59:21.746.09-Sep-2020 5303.01 6326.48 74.66 19.00 427.60 2557.08
   16:59:21.946.09-Sep-2020 5303.01 6326.58 74.66 19.00 427.81 2557.08
   16:59:22.146.09-Sep-2020 5303.01 6326.55 74.66 19.00 428.01 2557.08
   16:59:22.346.09-Sep-2020 5303.01 6326.44 74.66 19.00 428.21 2557.08
   16:59:22.546.09-Sep-2020 5303.01 6326.44 74.66 19.00 428.41 2557.08
   16:59:22.747.09-Sep-2020 5303.01 6337.24 74.66 19.00 428.61 2557.08
   16:59:22.947.09-Sep-2020 5303.01 6323.72 74.66 19.00 428.81 2557.08
   16:59:23.147.09-Sep-2020 5303.01 6324.83 74.66 19.00 429.01 2557.08
   16:59:23.347.09-Sep-2020 5303.01 6326.90 74.66 19.00 429.21 2557.08
   16:59:23.547.09-Sep-2020 5303.01 6326.90 74.66 19.00 429.41 2557.08
