~Version Information
 VERS.                  2.0:   CWLS log ASCII Standard -VERSION 2.0
 WRAP.                   NO:   One line per depth step
~Well Information Block
#MNEM.UNIT     VALUE/NAME     DESCRIPTION
#---------     -----------    ---------------------------
 STRT.S             18:49:58 09-Sep-20: START TIME 18:49:58 09-Sep-20
 STOP.S             18:58:03 09-Sep-20: STOP TIME  18:58:03 09-Sep-20
 STEP.S                   0.00: STEP TIME
 NULL.                 -999.25: NULL VALUE
 MDS .        Operator Entered:  MAG DATA SOURCE
 PDAT.          Mean Sea Level:  PERMANENT DATUM
 DCON.         Sperry Drilling:  DIRECTNL CONTR
 RIG .              West Azeri:  RIG NAME
 WELL.           C40 (Slot 20):  WELL NAME
 SRVC.     Turan Drilling Engineering:  CONTRACTOR
 FLD .                     ACG:  FIELD NAME
 CTRY.              Azerbaijan:  COUNTRY NAME
 PROV.                    Baku:  PROVINCE
 STAT.                    Baku:  STATE NAME
 REGN.                   EESSA:  REGION
 BASE.              Azerbaijan:  LOGGING EQUIPMENT BASE LOCATION
 COMP.     BP Exploration (Caspian Sea) Ltd:  COMPANY
 WTYP.                Deviated:  WELL TYPE
 SON .        AZ-XX-0906344804:  JOB NUMBER
 FTOP.          Formation Tops:  FORM TOPS DESC
 ILTD.               Lithology:  INTERP LTH DESC
 SVYD.                  Survey:  SURVEY DESC
 DMOD.             Drill Model:  DRILL MOD DESC
 HPTY.       Minimum Curvature:  HOLE POS TYPE
 NREF.                    Grid:  NORTH REFERENCE
 SPUD.               01-Jan-20:  SPUD DATE
 DATE.      00.59.44 15-Sep-20:  END TIME
 STIM.      12.00.00 12-Jun-20:  START TIME
 DMF .             Drill Floor:  DRILL MEAS FROM
 DFST.                        :  DIST FSL TEXT
 DFWT.                        :  DIST FWL TEXT
 API .                        :  API NUMBER
 CNTY.                        :  COUNTY
 UWI .                        :  UNIQUE WELL IDENTIFIER
 LOC .                        :  LOCATION
 LMF .             Drill Floor:  LOG MEASURED FROM
 VSNS.m                   2.88:  VERT SEC N/S
 VSEW.m                  -3.84:  VERT SEC E/W
 AGAP.m                  43.42:  AIR GAP
 APD .m                  43.42:  DEPTH ABOVE PD
 WDMS.m                 118.27:  WD ELEV
 EGL .m                   0.00:  GROUND ELEVATION
 EPD .m                   0.00:  ELEVATION
 AZTC.deg                 6.23:  AZM TOTAL CORR
 GRDC.deg                 0.20:  GRID CORRECTION
 MDEC.deg                 6.43:  MAGNETIC DECL
 MDIP.deg                59.49:  MAGNETIC DIP
 MFLD.nT              50277.00:  MAGNETIC FIELD
 GVFD.g                   1.00:  GRAVITY FIELD
 VSDR.deg               173.20:  VERT SEC DIRECT
 TDD .m                5790.01:  TOTAL DEPTH (DRILLER)
 SDEP.m                5231.01:  START DEPTH
 DFSL.m                   0.00:  DISTANCE FSL
 DFWL.m                   0.00:  DISTANCE FWL
 UTMY.m             4435808.83:  UTM Y
 UTMX.m              526266.40:  UTM X
 WHEW.m                  -3.84:  WELL HEAD E/W
 WHNS.m                   2.88:  WELL HEAD N/S
 LONG.deg                51.31:  LONGITUDE
 LATI.deg                40.06:  LATITUDE
 TVDS.m                  43.42:  TVDSS CORRECTN
 DEP .m                 430.08:  DEPTH
 EKB .m                  43.42:  KB ELEVATION
 EDF .m                  43.42:  DF ELEVATION
 TDL .m                 559.00:  TOTAL DEPTH (LOGGER)
 MAGU.                 1849381:  MAGUTM CHECKSUM
 VSC .                       0:  VS TO CLOSURE
~Parameter Information Block
#MNEM.UNIT       Value        Description
#---------     -----------    ---------------------------
 AV  .mps                 4.87:  Ann Velocity 
 AVMX.mps                 7.08:  Max Ann Veloc 
 AZIF.deg               108.87:  Azm, Final 
 BHAT.                  Rotary:  BHA Type 
 BROT.°/30m               0.35:  Build Rotating 
 BS  .in                  8.50:  Bit Size 
 BSZ .in                  8.50:  Bit Size 
 BTPL.psig              360.00:  Bit Press Loss 
 CABU.                     Yes:  Customer Abuse 
 COMM.                     „T:  Run Comments 1 
 TCS .hr                106.24:  Time Ciculation Ended 
 CV  .mps                 1.77:  Crit Velocity 
 CVMX.mps                 2.03:  Max Crit Veloc 
 DD1 .         Aykhan Agagulov:  Direct Drillr 1 
 DD2 .            Nonso Okofor:  Direct Drillr 2 
 DDSV.               Geo-Pilot:  DD Service 
 DEFF.%                  98.00:  % Det Eff 
 DLRX.°/30m               0.50:  Dogleg Rot Max 
 DLSO.°/30m               0.40:  Dogleg Oriented 
 DLSX.°/30m               0.94:  Dogleg Str Max 
 DRET.      20.30.00 08-Sep-20:  Drill End Time 
 DRST.      22.15.00 06-Sep-20:  Drill Start Tim 
 DTIM.hr                 31.31:  Time Drilling 
 EDEP.m                5790.01:  End Depth 
 ENG1.           Amrah Tahirov:  Engineer 1 
 ENG2.         Dair Mahammadov:  Engineer 2 
 ENG3.           Emil Huseynov:  Engineer 3 
 ETIM.      04.01.04 12-Sep-20:  End Time 
 FLOI.gpm               450.00:  Flow In 
 FLON.gpm               450.00:  Flow In Min 
 FLOS.cptm                2.00:  Fluid Loss 
 FLOX.gpm               450.00:  Flow In Max 
 FTRO.       Formation Presure:  FTWD Run Obj 
 HFLO.                      No:  High Flow 
 HPRE.                      No:  High Pressure 
 HTEM.                      No:  High Temp 
 HYDO.m                   1.80:  Hydro Offset 
 IFIN.deg                72.03:  Inc, Final 
 IMAX.deg                73.72:  Inc Max 
 IMIN.deg                70.94:  Inc Min 
 IMND.m                5508.52:  Inc Min Depth 
 IMXD.m                5253.60:  Inc Max Depth 
 JARR.                      No:  Jarring 
 LETM.      20.30.00 08-Sep-20:  Log End Time 
 LOST.hr                     0:  Lost Rig Time 
 LSTM.      22.15.00 06-Sep-20:  Log Start Time 
 MDCL.ppm             36000.00:  Mud Chlorides 
 MDES.     Inversion Oil/Synthetic:  Mud Desc 
 DFD .sg                  1.44:  Mud Density 
 MDMN.sg                  1.44:  Dens Mud Min 
 MDMX.sg                  1.57:  Dens Mud Max 
 MOIL.                      70:  Run Mud Oil % 
 MOWR.                   70:30:  Run Mud OWR 
 MSND.                       0:  Run Mud Sand % 
 MSOL.                      21:  Run Mud Solids% 
 DFV .spqt               68.00:  Mud Viscosity 
 MWOD.in                  6.75:  MWD Tool OD 
 MWSI.                     Yes:  Serv Intrp, MWD 
 OTIM.hr                174.84:  Time Operating 
 PCON.           Look Like New:  Pad Condition 
 PMAX.psia            10616.93:  Press Op, Max 
 PV  .cP                 50.00:  Mud PV 
 RUN .                     700:  Run Number 
 ROPA.m/hr               14.24:  ROP Avg 
 ROPN.m/hr               10.00:  ROP Min 
 ROPX.m/hr               32.00:  ROP Max 
 RPMA.rpm               120.90:  RPM Surface Avg 
 RPMN.rpm               120.00:  RPM Surface Min 
 RPMX.rpm               140.00:  RPM Surface Max 
 RRUN.                    0700:  Rig Run Number 
 RTIM.hr                  3.20:  Time Reaming 
 SAZI.deg               109.99:  Azm, Start 
 SDEP.m                5231.01:  Start Depth 
 SIDD.                      No:  Serv Intrp, DD 
 SINC.deg                73.72:  Inc, Start 
 SPPA.psig             3051.00:  SPP Avg 
 SPPN.psig             2950.00:  SPP Min 
 SPPX.psig             3250.00:  SPP Max 
 STIM.      08.00.00 05-Sep-20:  Start Time 
 SVCS.                 DD, MWD:  Services 
 SVER.                    9.20:  Sperry Version 
 TDAT.m                 559.00:  Tot Depth Attmp 
 TDDF.                      No:  Trip for DD 
 TDLG.m                 559.00:  Tot Depth Loggd 
 TFF .                      No:  Trip for Fail 
 TQAA.f-kp               26.49:  Torque Abs Avg 
 TQAN.f-kp               25.00:  Torque Abs Min 
 TQAX.f-kp               27.00:  Torque Abs Max 
 TRRT.°/30m               1.50:  Turn Rotating 
 MRT .                    HCIM:  Maximum Recorded Temperature 
 TTMX.degC               90.20:  Max Tool Temp 
 VS01.                90542671:  Virtual Str1 SN 
 VS02.                90545185:  Virtual Str2 SN 
 VS03.                90602015:  Virtual Str3 SN 
 VS04.                90515230:  Virtual Str4 SN 
 WBMN.klb                 5.00:  WOB Min 
 WOBA.klb                14.79:  WOB Avg 
 WOBX.klb                20.00:  WOB Max 
 YP  .lhf2               29.00:  Yield Point 
~Curve Information Block
#MNEM.UNIT                 API CODE     Curve Description
#---------               -----------    ---------------------------
 TIME.HHMMSS            00 000 000 000:  GT Time & Date
 GTDEPTH.m              00 000 000 000:  GT Depth
 GTPQH.psia             00 000 000 000:  GT HR Quartz Pressure
 GTTQ.degC              00 000 000 000:  GT Quartz Temperature
 GTTN.NONE              00 000 000 000:  GT Test Number
 GTET.sec               00 000 000 000:  GT Elapsed Test Time
 GTTVD.m                00 000 000 000:  GT True Vertical Depth
#Other Information
#
#WARRANTY: Halliburton will use its best efforts to furnish customers with 
#accurate information and interpretations that are part of, and incident to, the services 
#provided.  However, Halliburton cannot and does not warrant the accuracy 
#or correctness of such information and interpretations.  Under no circumstances should any 
#such information or interpretation be relied upon as the sole basis for any drilling, 
#completion, production, or financial decision or any procedure involving any risk to the 
#safety of any drilling venture, drilling rig or its crew or any other third party.  The 
#Customer has full responsibility for all drilling, completion and production operation.  
#Halliburton makes no representations or warranties, either expressed or 
#implied, including, but not limited to, the implied warranties of merchantability or fitness 
#for a particular purpose, with respect to the services rendered.  In no event will 
#Halliburton be liable for failure to obtain any particular results or for 
#any damages, including, but not limited to, indirect, special or consequential damages, 
#resulting from the use of any information or interpretation provided by Halliburton.
#
~A           TIME           GTDEPTH  GTPQH  GTTQ  GTTN   GTET   GTTVD  
# ...
   18:52:59.158.09-Sep-2020 5280.51  477.42 74.29 22.00 180.66 2550.44
   18:52:59.358.09-Sep-2020 5280.51  474.69 74.29 22.00 180.86 2550.44
   18:52:59.558.09-Sep-2020 5280.51  474.69 74.29 22.00 181.06 2550.44
   18:52:59.758.09-Sep-2020 5280.51  469.20 74.29 22.00 181.26 2550.44
   18:52:59.957.09-Sep-2020 5280.51  466.40 74.29 22.00 181.46 2550.44
   18:53:00.157.09-Sep-2020 5280.51  464.20 74.29 22.00 181.66 2550.44
   18:53:00.357.09-Sep-2020 5280.51  461.90 74.29 22.00 181.86 2550.44
   18:53:00.557.09-Sep-2020 5280.51  459.79 74.29 22.00 182.06 2550.44
   18:53:00.757.09-Sep-2020 5280.51  458.05 74.29 22.00 182.26 2550.44
   18:53:00.957.09-Sep-2020 5280.51  455.85 74.29 22.00 182.46 2550.44
   18:53:01.157.09-Sep-2020 5280.51  453.69 74.29 22.00 182.66 2550.44
   18:53:01.356.09-Sep-2020 5280.51  451.92 74.29 22.00 182.86 2550.44
   18:53:01.556.09-Sep-2020 5280.51  450.10 74.29 22.00 183.06 2550.44
   18:53:01.756.09-Sep-2020 5280.51  448.21 74.29 22.00 183.26 2550.44
   18:53:01.956.09-Sep-2020 5280.51  446.46 74.29 22.00 183.46 2550.44
   18:53:02.156.09-Sep-2020 5280.51  444.48 74.29 22.00 183.66 2550.44
   18:53:02.356.09-Sep-2020 5280.51  441.74 74.29 22.00 183.86 2550.44
   18:53:02.555.09-Sep-2020 5280.51  438.99 74.29 22.00 184.06 2550.44
   18:53:02.755.09-Sep-2020 5280.51  437.44 74.29 22.00 184.26 2550.44
   18:53:02.955.09-Sep-2020 5280.51  436.08 74.28 22.00 184.46 2550.44
   18:53:03.155.09-Sep-2020 5280.51  434.85 74.28 22.00 184.66 2550.44
   18:53:03.355.09-Sep-2020 5280.51  433.33 74.28 22.00 184.85 2550.44
   18:53:03.555.09-Sep-2020 5280.51  433.33 74.28 22.00 185.05 2550.44
   18:53:03.754.09-Sep-2020 5280.51  430.28 74.28 22.00 185.25 2550.44
   18:53:03.954.09-Sep-2020 5280.51  428.91 74.28 22.00 185.45 2550.44
   18:53:04.154.09-Sep-2020 5280.51  429.23 74.28 22.00 185.65 2550.44
   18:53:04.354.09-Sep-2020 5280.51  431.05 74.28 22.00 185.85 2550.44
   18:53:04.554.09-Sep-2020 5280.51  432.20 74.28 22.00 186.05 2550.44
   18:53:04.754.09-Sep-2020 5280.51  432.51 74.28 22.00 186.25 2550.44
   18:53:04.954.09-Sep-2020 5280.51  432.88 74.28 22.00 186.45 2550.44
   18:53:05.153.09-Sep-2020 5280.51  433.59 74.28 22.00 186.65 2550.44
   18:53:05.353.09-Sep-2020 5280.51  433.21 74.28 22.00 186.85 2550.44
   18:53:05.553.09-Sep-2020 5280.51  433.21 74.28 22.00 187.05 2550.44
   18:53:05.753.09-Sep-2020 5280.51  434.34 74.28 22.00 187.25 2550.44
   18:53:05.953.09-Sep-2020 5280.51  434.93 74.28 22.00 187.45 2550.44
   18:53:06.153.09-Sep-2020 5280.51  435.52 74.28 22.00 187.65 2550.44
   18:53:06.352.09-Sep-2020 5280.51  436.57 74.28 22.00 187.85 2550.44
   18:53:06.552.09-Sep-2020 5280.51  436.57 74.28 22.00 188.05 2550.44
   18:53:06.752.09-Sep-2020 5280.51  436.62 74.28 22.00 188.25 2550.44
   18:53:06.952.09-Sep-2020 5280.51  437.30 74.28 22.00 188.45 2550.44
   18:53:07.152.09-Sep-2020 5280.51  437.84 74.28 22.00 188.65 2550.44
   18:53:07.352.09-Sep-2020 5280.51  438.50 74.28 22.00 188.85 2550.44
   18:53:07.551.09-Sep-2020 5280.51  438.50 74.28 22.00 189.05 2550.44
   18:53:07.751.09-Sep-2020 5280.51  439.18 74.28 22.00 189.25 2550.44
   18:53:07.951.09-Sep-2020 5280.51  439.15 74.28 22.00 189.45 2550.44
   18:53:08.151.09-Sep-2020 5280.51  439.65 74.28 22.00 189.65 2550.44
   18:53:08.351.09-Sep-2020 5280.51  439.97 74.28 22.00 189.85 2550.44
   18:53:08.551.09-Sep-2020 5280.51  439.97 74.28 22.00 190.05 2550.44
   18:53:08.751.09-Sep-2020 5280.51  440.28 74.28 22.00 190.25 2550.44
   18:53:08.950.09-Sep-2020 5280.51  440.77 74.28 22.00 190.45 2550.44
   18:53:09.150.09-Sep-2020 5280.51  441.25 74.28 22.00 190.65 2550.44
   18:53:09.350.09-Sep-2020 5280.51  441.65 74.28 22.00 190.85 2550.44
   18:53:09.550.09-Sep-2020 5280.51  441.65 74.28 22.00 191.05 2550.44
   18:53:09.750.09-Sep-2020 5280.51  442.12 74.28 22.00 191.25 2550.44
   18:53:09.950.09-Sep-2020 5280.51  442.60 74.28 22.00 191.45 2550.44
   18:53:10.149.09-Sep-2020 5280.51  443.03 74.28 22.00 191.65 2550.44
   18:53:10.349.09-Sep-2020 5280.51  443.67 74.28 22.00 191.85 2550.44
   18:53:10.549.09-Sep-2020 5280.51  443.67 74.28 22.00 192.05 2550.44
   18:53:10.749.09-Sep-2020 5280.51  444.59 74.28 22.00 192.25 2550.44
   18:53:10.949.09-Sep-2020 5280.51  445.01 74.28 22.00 192.45 2550.44
   18:53:11.149.09-Sep-2020 5280.51  445.48 74.28 22.00 192.65 2550.44
   18:53:11.349.09-Sep-2020 5280.51  445.91 74.28 22.00 192.85 2550.44
   18:53:11.548.09-Sep-2020 5280.51  445.91 74.28 22.00 193.05 2550.44
   18:53:11.748.09-Sep-2020 5280.51  446.82 74.28 22.00 193.25 2550.44
   18:53:11.948.09-Sep-2020 5280.51  447.20 74.28 22.00 193.45 2550.44
   18:53:12.148.09-Sep-2020 5280.51  447.57 74.28 22.00 193.65 2550.44
   18:53:12.348.09-Sep-2020 5280.51  447.99 74.28 22.00 193.85 2550.44
   18:53:12.548.09-Sep-2020 5280.51  448.42 74.28 22.00 194.05 2550.44
   18:53:12.747.09-Sep-2020 5280.51  448.84 74.28 22.00 194.25 2550.44
   18:53:12.947.09-Sep-2020 5280.51  449.26 74.28 22.00 194.45 2550.44
   18:53:13.147.09-Sep-2020 5280.51  448.81 74.28 22.00 194.65 2550.44
   18:53:13.347.09-Sep-2020 5280.51  449.27 74.28 22.00 194.85 2550.44
   18:53:13.547.09-Sep-2020 5280.51  449.27 74.28 22.00 195.05 2550.44
   18:53:13.747.09-Sep-2020 5280.51  450.03 74.28 22.00 195.25 2550.44
   18:53:13.946.09-Sep-2020 5280.51  450.49 74.28 22.00 195.45 2550.44
   18:53:14.146.09-Sep-2020 5280.51  450.84 74.28 22.00 195.65 2550.44
   18:53:14.346.09-Sep-2020 5280.51  451.21 74.28 22.00 195.85 2550.44
   18:53:14.546.09-Sep-2020 5280.51  451.54 74.28 22.00 196.05 2550.44
   18:53:14.746.09-Sep-2020 5280.51  451.95 74.28 22.00 196.25 2550.44
   18:53:14.946.09-Sep-2020 5280.51  452.28 74.28 22.00 196.45 2550.44
   18:53:15.146.09-Sep-2020 5280.51  452.63 74.28 22.00 196.65 2550.44
   18:53:15.345.09-Sep-2020 5280.51  452.95 74.28 22.00 196.85 2550.44
   18:53:15.545.09-Sep-2020 5280.51  453.30 74.28 22.00 197.05 2550.44
   18:53:15.745.09-Sep-2020 5280.51  453.68 74.28 22.00 197.25 2550.44
   18:53:15.945.09-Sep-2020 5280.51  454.10 74.28 22.00 197.45 2550.44
   18:53:16.145.09-Sep-2020 5280.51  454.48 74.28 22.00 197.64 2550.44
   18:53:16.345.09-Sep-2020 5280.51  453.68 74.28 22.00 197.84 2550.44
   18:53:16.544.09-Sep-2020 5280.51  454.86 74.28 22.00 198.04 2550.44
   18:53:16.744.09-Sep-2020 5280.51  454.74 74.28 22.00 198.24 2550.44
   18:53:16.944.09-Sep-2020 5280.51  455.14 74.28 22.00 198.44 2550.44
   18:53:17.144.09-Sep-2020 5280.51  455.38 74.28 22.00 198.64 2550.44
   18:53:17.344.09-Sep-2020 5280.51  455.96 74.28 22.00 198.84 2550.44
   18:53:17.544.09-Sep-2020 5280.51  455.35 74.28 22.00 199.04 2550.44
   18:53:17.743.09-Sep-2020 5280.51  455.97 74.28 22.00 199.24 2550.44
   18:53:17.943.09-Sep-2020 5280.51  456.34 74.28 22.00 199.44 2550.44
   18:53:18.143.09-Sep-2020 5280.51  456.64 74.28 22.00 199.64 2550.44
   18:53:18.343.09-Sep-2020 5280.51  457.10 74.28 22.00 199.84 2550.44
   18:53:18.543.09-Sep-2020 5280.51  457.10 74.28 22.00 200.04 2550.44
   18:53:18.743.09-Sep-2020 5280.51  457.61 74.28 22.00 200.24 2550.44
   18:53:18.943.09-Sep-2020 5280.51  456.89 74.28 22.00 200.44 2550.44
   18:53:19.142.09-Sep-2020 5280.51  458.35 74.28 22.00 200.64 2550.44
   18:53:19.342.09-Sep-2020 5280.51  458.20 74.28 22.00 200.84 2550.44
   18:53:19.542.09-Sep-2020 5280.51  458.20 74.28 22.00 201.04 2550.44
   18:53:19.742.09-Sep-2020 5280.51  458.73 74.28 22.00 201.24 2550.44
   18:53:19.942.09-Sep-2020 5280.51  458.63 74.28 22.00 201.44 2550.44
   18:53:20.142.09-Sep-2020 5280.51  459.31 74.28 22.00 201.64 2550.44
   18:53:20.341.09-Sep-2020 5280.51  459.48 74.28 22.00 201.84 2550.44
   18:53:20.541.09-Sep-2020 5280.51  459.81 74.28 22.00 202.04 2550.44
   18:53:20.741.09-Sep-2020 5280.51  460.02 74.28 22.00 202.24 2550.44
   18:53:20.941.09-Sep-2020 5280.51  460.54 74.28 22.00 202.44 2550.44
   18:53:21.141.09-Sep-2020 5280.51  459.88 74.28 22.00 202.64 2550.44
   18:53:21.341.09-Sep-2020 5280.51  460.66 74.28 22.00 202.84 2550.44
   18:53:21.541.09-Sep-2020 5280.51  460.66 74.28 22.00 203.04 2550.44
