~Version Information
 VERS.                  2.0:   CWLS log ASCII Standard -VERSION 2.0
 WRAP.                   NO:   One line per depth step
~Well Information Block
#MNEM.UNIT     VALUE/NAME     DESCRIPTION
#---------     -----------    ---------------------------
 STRT.S             20:00:32 09-Sep-20: START TIME 20:00:32 09-Sep-20
 STOP.S             20:08:52 09-Sep-20: STOP TIME  20:08:52 09-Sep-20
 STEP.S                   0.00: STEP TIME
 NULL.                 -999.25: NULL VALUE
 MDS .        Operator Entered:  MAG DATA SOURCE
 PDAT.          Mean Sea Level:  PERMANENT DATUM
 DCON.         Sperry Drilling:  DIRECTNL CONTR
 RIG .              West Azeri:  RIG NAME
 WELL.           C40 (Slot 20):  WELL NAME
 SRVC.     Turan Drilling Engineering:  CONTRACTOR
 FLD .                     ACG:  FIELD NAME
 CTRY.              Azerbaijan:  COUNTRY NAME
 PROV.                    Baku:  PROVINCE
 STAT.                    Baku:  STATE NAME
 REGN.                   EESSA:  REGION
 BASE.              Azerbaijan:  LOGGING EQUIPMENT BASE LOCATION
 COMP.     BP Exploration (Caspian Sea) Ltd:  COMPANY
 WTYP.                Deviated:  WELL TYPE
 SON .        AZ-XX-0906344804:  JOB NUMBER
 FTOP.          Formation Tops:  FORM TOPS DESC
 ILTD.               Lithology:  INTERP LTH DESC
 SVYD.                  Survey:  SURVEY DESC
 DMOD.             Drill Model:  DRILL MOD DESC
 HPTY.       Minimum Curvature:  HOLE POS TYPE
 NREF.                    Grid:  NORTH REFERENCE
 SPUD.               01-Jan-20:  SPUD DATE
 DATE.      00.59.44 15-Sep-20:  END TIME
 STIM.      12.00.00 12-Jun-20:  START TIME
 DMF .             Drill Floor:  DRILL MEAS FROM
 DFST.                        :  DIST FSL TEXT
 DFWT.                        :  DIST FWL TEXT
 API .                        :  API NUMBER
 CNTY.                        :  COUNTY
 UWI .                        :  UNIQUE WELL IDENTIFIER
 LOC .                        :  LOCATION
 LMF .             Drill Floor:  LOG MEASURED FROM
 VSNS.m                   2.88:  VERT SEC N/S
 VSEW.m                  -3.84:  VERT SEC E/W
 AGAP.m                  43.42:  AIR GAP
 APD .m                  43.42:  DEPTH ABOVE PD
 WDMS.m                 118.27:  WD ELEV
 EGL .m                   0.00:  GROUND ELEVATION
 EPD .m                   0.00:  ELEVATION
 AZTC.deg                 6.23:  AZM TOTAL CORR
 GRDC.deg                 0.20:  GRID CORRECTION
 MDEC.deg                 6.43:  MAGNETIC DECL
 MDIP.deg                59.49:  MAGNETIC DIP
 MFLD.nT              50277.00:  MAGNETIC FIELD
 GVFD.g                   1.00:  GRAVITY FIELD
 VSDR.deg               173.20:  VERT SEC DIRECT
 TDD .m                5790.01:  TOTAL DEPTH (DRILLER)
 SDEP.m                5231.01:  START DEPTH
 DFSL.m                   0.00:  DISTANCE FSL
 DFWL.m                   0.00:  DISTANCE FWL
 UTMY.m             4435808.83:  UTM Y
 UTMX.m              526266.40:  UTM X
 WHEW.m                  -3.84:  WELL HEAD E/W
 WHNS.m                   2.88:  WELL HEAD N/S
 LONG.deg                51.31:  LONGITUDE
 LATI.deg                40.06:  LATITUDE
 TVDS.m                  43.42:  TVDSS CORRECTN
 DEP .m                 430.08:  DEPTH
 EKB .m                  43.42:  KB ELEVATION
 EDF .m                  43.42:  DF ELEVATION
 TDL .m                 559.00:  TOTAL DEPTH (LOGGER)
 MAGU.                 1849381:  MAGUTM CHECKSUM
 VSC .                       0:  VS TO CLOSURE
~Parameter Information Block
#MNEM.UNIT       Value        Description
#---------     -----------    ---------------------------
 AV  .mps                 4.87:  Ann Velocity 
 AVMX.mps                 7.08:  Max Ann Veloc 
 AZIF.deg               108.87:  Azm, Final 
 BHAT.                  Rotary:  BHA Type 
 BROT.°/30m               0.35:  Build Rotating 
 BS  .in                  8.50:  Bit Size 
 BSZ .in                  8.50:  Bit Size 
 BTPL.psig              360.00:  Bit Press Loss 
 CABU.                     Yes:  Customer Abuse 
 TCS .hr                106.24:  Time Ciculation Ended 
 CV  .mps                 1.77:  Crit Velocity 
 CVMX.mps                 2.03:  Max Crit Veloc 
 DD1 .         Aykhan Agagulov:  Direct Drillr 1 
 DD2 .            Nonso Okofor:  Direct Drillr 2 
 DDSV.               Geo-Pilot:  DD Service 
 DEFF.%                  98.00:  % Det Eff 
 DLRX.°/30m               0.50:  Dogleg Rot Max 
 DLSO.°/30m               0.40:  Dogleg Oriented 
 DLSX.°/30m               0.94:  Dogleg Str Max 
 DRET.      20.30.00 08-Sep-20:  Drill End Time 
 DRST.      22.15.00 06-Sep-20:  Drill Start Tim 
 DTIM.hr                 31.31:  Time Drilling 
 EDEP.m                5790.01:  End Depth 
 ENG1.           Amrah Tahirov:  Engineer 1 
 ENG2.         Dair Mahammadov:  Engineer 2 
 ENG3.           Emil Huseynov:  Engineer 3 
 ETIM.      04.01.04 12-Sep-20:  End Time 
 FLOI.gpm               450.00:  Flow In 
 FLON.gpm               450.00:  Flow In Min 
 FLOS.cptm                2.00:  Fluid Loss 
 FLOX.gpm               450.00:  Flow In Max 
 FTRO.       Formation Presure:  FTWD Run Obj 
 HFLO.                      No:  High Flow 
 HPRE.                      No:  High Pressure 
 HTEM.                      No:  High Temp 
 HYDO.m                   1.80:  Hydro Offset 
 IFIN.deg                72.03:  Inc, Final 
 IMAX.deg                73.72:  Inc Max 
 IMIN.deg                70.94:  Inc Min 
 IMND.m                5508.52:  Inc Min Depth 
 IMXD.m                5253.60:  Inc Max Depth 
 JARR.                      No:  Jarring 
 LETM.      20.30.00 08-Sep-20:  Log End Time 
 LOST.hr                     0:  Lost Rig Time 
 LSTM.      22.15.00 06-Sep-20:  Log Start Time 
 MDCL.ppm             36000.00:  Mud Chlorides 
 MDES.     Inversion Oil/Synthetic:  Mud Desc 
 DFD .sg                  1.44:  Mud Density 
 MDMN.sg                  1.44:  Dens Mud Min 
 MDMX.sg                  1.57:  Dens Mud Max 
 MOIL.                      70:  Run Mud Oil % 
 MOWR.                   70:30:  Run Mud OWR 
 MSND.                       0:  Run Mud Sand % 
 MSOL.                      21:  Run Mud Solids% 
 DFV .spqt               68.00:  Mud Viscosity 
 MWOD.in                  6.75:  MWD Tool OD 
 MWSI.                     Yes:  Serv Intrp, MWD 
 OTIM.hr                174.84:  Time Operating 
 PCON.           Look Like New:  Pad Condition 
 PMAX.psia            10616.93:  Press Op, Max 
 PV  .cP                 50.00:  Mud PV 
 RUN .                     700:  Run Number 
 ROPA.m/hr               14.24:  ROP Avg 
 ROPN.m/hr               10.00:  ROP Min 
 ROPX.m/hr               32.00:  ROP Max 
 RPMA.rpm               120.90:  RPM Surface Avg 
 RPMN.rpm               120.00:  RPM Surface Min 
 RPMX.rpm               140.00:  RPM Surface Max 
 RRUN.                    0700:  Rig Run Number 
 RTIM.hr                  3.20:  Time Reaming 
 SAZI.deg               109.99:  Azm, Start 
 SDEP.m                5231.01:  Start Depth 
 SIDD.                      No:  Serv Intrp, DD 
 SINC.deg                73.72:  Inc, Start 
 SPPA.psig             3051.00:  SPP Avg 
 SPPN.psig             2950.00:  SPP Min 
 SPPX.psig             3250.00:  SPP Max 
 STIM.      08.00.00 05-Sep-20:  Start Time 
 SVCS.                 DD, MWD:  Services 
 SVER.                    9.20:  Sperry Version 
 TDAT.m                 559.00:  Tot Depth Attmp 
 TDDF.                      No:  Trip for DD 
 TDLG.m                 559.00:  Tot Depth Loggd 
 TFF .                      No:  Trip for Fail 
 TQAA.f-kp               26.49:  Torque Abs Avg 
 TQAN.f-kp               25.00:  Torque Abs Min 
 TQAX.f-kp               27.00:  Torque Abs Max 
 TRRT.°/30m               1.50:  Turn Rotating 
 MRT .                    HCIM:  Maximum Recorded Temperature 
 TTMX.degC               90.20:  Max Tool Temp 
 VS01.                90542671:  Virtual Str1 SN 
 VS02.                90545185:  Virtual Str2 SN 
 VS03.                90602015:  Virtual Str3 SN 
 VS04.                90515230:  Virtual Str4 SN 
 WBMN.klb                 5.00:  WOB Min 
 WOBA.klb                14.79:  WOB Avg 
 WOBX.klb                20.00:  WOB Max 
 YP  .lhf2               29.00:  Yield Point 
~Curve Information Block
#MNEM.UNIT                 API CODE     Curve Description
#---------               -----------    ---------------------------
 TIME.HHMMSS            00 000 000 000:  GT Time & Date
 GTDEPTH.m              00 000 000 000:  GT Depth
 GTPQH.psia             00 000 000 000:  GT HR Quartz Pressure
 GTTQ.degC              00 000 000 000:  GT Quartz Temperature
 GTTN.NONE              00 000 000 000:  GT Test Number
 GTET.sec               00 000 000 000:  GT Elapsed Test Time
 GTTVD.m                00 000 000 000:  GT True Vertical Depth
#Other Information
#
#WARRANTY: Halliburton will use its best efforts to furnish customers with 
#accurate information and interpretations that are part of, and incident to, the services 
#provided.  However, Halliburton cannot and does not warrant the accuracy 
#or correctness of such information and interpretations.  Under no circumstances should any 
#such information or interpretation be relied upon as the sole basis for any drilling, 
#completion, production, or financial decision or any procedure involving any risk to the 
#safety of any drilling venture, drilling rig or its crew or any other third party.  The 
#Customer has full responsibility for all drilling, completion and production operation.  
#Halliburton makes no representations or warranties, either expressed or 
#implied, including, but not limited to, the implied warranties of merchantability or fitness 
#for a particular purpose, with respect to the services rendered.  In no event will 
#Halliburton be liable for failure to obtain any particular results or for 
#any damages, including, but not limited to, indirect, special or consequential damages, 
#resulting from the use of any information or interpretation provided by Halliburton.
#
~A           TIME           GTDEPTH  GTPQH  GTTQ  GTTN   GTET   GTTVD  
# ...
   20:07:19.057.09-Sep-2020 5259.51 4138.86 74.10 24.00 406.99 2544.41
   20:07:19.257.09-Sep-2020 5259.51 4140.77 74.10 24.00 407.19 2544.41
   20:07:19.457.09-Sep-2020 5259.51 4140.77 74.10 24.00 407.39 2544.41
   20:07:19.657.09-Sep-2020 5259.51 4139.94 74.10 24.00 407.59 2544.41
   20:07:19.857.09-Sep-2020 5259.51 4139.87 74.10 24.00 407.79 2544.41
   20:07:20.057.09-Sep-2020 5259.51 4140.13 74.10 24.00 407.99 2544.41
   20:07:20.257.09-Sep-2020 5259.51 4140.02 74.10 24.00 408.19 2544.41
   20:07:20.458.09-Sep-2020 5259.51 4140.02 74.10 24.00 408.39 2544.41
   20:07:20.658.09-Sep-2020 5259.51 4139.91 74.10 24.00 408.59 2544.41
   20:07:20.858.09-Sep-2020 5259.51 4139.92 74.10 24.00 408.79 2544.41
   20:07:21.058.09-Sep-2020 5259.51 4139.99 74.10 24.00 408.99 2544.41
   20:07:21.258.09-Sep-2020 5259.51 4140.00 74.10 24.00 409.19 2544.41
   20:07:21.458.09-Sep-2020 5259.51 4140.00 74.10 24.00 409.39 2544.41
   20:07:21.658.09-Sep-2020 5259.51 4139.93 74.10 24.00 409.59 2544.41
   20:07:21.858.09-Sep-2020 5259.51 4139.92 74.10 24.00 409.79 2544.41
   20:07:22.058.09-Sep-2020 5259.51 4139.96 74.10 24.00 409.99 2544.41
   20:07:22.258.09-Sep-2020 5259.51 4139.98 74.10 24.00 410.19 2544.41
   20:07:22.458.09-Sep-2020 5259.51 4139.98 74.10 24.00 410.39 2544.41
   20:07:22.659.09-Sep-2020 5259.51 4138.93 74.10 24.00 410.59 2544.41
   20:07:22.859.09-Sep-2020 5259.51 4140.77 74.10 24.00 410.79 2544.41
   20:07:23.059.09-Sep-2020 5259.51 4140.29 74.10 24.00 410.99 2544.41
   20:07:23.259.09-Sep-2020 5259.51 4140.19 74.10 24.00 411.19 2544.41
   20:07:23.459.09-Sep-2020 5259.51 4140.19 74.10 24.00 411.39 2544.41
   20:07:23.659.09-Sep-2020 5259.51 4140.26 74.10 24.00 411.59 2544.41
   20:07:23.859.09-Sep-2020 5259.51 4140.09 74.10 24.00 411.79 2544.41
   20:07:24.059.09-Sep-2020 5259.51 4139.98 74.10 24.00 411.99 2544.41
   20:07:24.259.09-Sep-2020 5259.51 4139.99 74.10 24.00 412.19 2544.41
   20:07:24.459.09-Sep-2020 5259.51 4139.99 74.10 24.00 412.39 2544.41
   20:07:24.659.09-Sep-2020 5259.51 4140.02 74.10 24.00 412.59 2544.41
   20:07:24.860.09-Sep-2020 5259.51 4139.96 74.10 24.00 412.79 2544.41
   20:07:25.060.09-Sep-2020 5259.51 4139.91 74.10 24.00 412.99 2544.41
   20:07:25.260.09-Sep-2020 5259.51 4139.92 74.10 24.00 413.19 2544.41
   20:07:25.460.09-Sep-2020 5259.51 4139.95 74.10 24.00 413.39 2544.41
   20:07:25.660.09-Sep-2020 5259.51 4139.99 74.10 24.00 413.59 2544.41
   20:07:25.860.09-Sep-2020 5259.51 4139.99 74.10 24.00 413.79 2544.41
   20:07:26.060.09-Sep-2020 5259.51 4138.87 74.10 24.00 413.99 2544.41
   20:07:26.260.09-Sep-2020 5259.51 4140.65 74.10 24.00 414.19 2544.41
   20:07:26.460.09-Sep-2020 5259.51 4140.23 74.10 24.00 414.39 2544.41
   20:07:26.660.09-Sep-2020 5259.51 4140.12 74.10 24.00 414.59 2544.41
   20:07:26.860.09-Sep-2020 5259.51 4139.99 74.10 24.00 414.79 2544.41
   20:07:27.061.09-Sep-2020 5259.51 4140.20 74.10 24.00 414.99 2544.41
   20:07:27.261.09-Sep-2020 5259.51 4139.42 74.10 24.00 415.19 2544.41
   20:07:27.461.09-Sep-2020 5259.51 4139.96 74.10 24.00 415.39 2544.41
   20:07:27.661.09-Sep-2020 5259.51 4140.01 74.10 24.00 415.59 2544.41
   20:07:27.861.09-Sep-2020 5259.51 4139.89 74.10 24.00 415.79 2544.41
   20:07:28.061.09-Sep-2020 5259.51 4140.03 74.10 24.00 415.99 2544.41
   20:07:28.261.09-Sep-2020 5259.51 4139.85 74.10 24.00 416.19 2544.41
   20:07:28.461.09-Sep-2020 5259.51 4139.85 74.10 24.00 416.39 2544.41
   20:07:28.661.09-Sep-2020 5259.51 4140.17 74.10 24.00 416.59 2544.41
   20:07:28.861.09-Sep-2020 5259.51 4140.06 74.10 24.00 416.79 2544.41
   20:07:29.061.09-Sep-2020 5259.51 4139.94 74.10 24.00 416.99 2544.41
   20:07:29.262.09-Sep-2020 5259.51 4139.59 74.10 24.00 417.19 2544.41
   20:07:29.462.09-Sep-2020 5259.51 4139.59 74.10 24.00 417.39 2544.41
   20:07:29.662.09-Sep-2020 5259.51 4140.03 74.10 24.00 417.59 2544.41
   20:07:29.862.09-Sep-2020 5259.51 4139.89 74.10 24.00 417.79 2544.41
   20:07:30.062.09-Sep-2020 5259.51 4139.19 74.10 24.00 417.99 2544.41
   20:07:30.262.09-Sep-2020 5259.51 4140.45 74.10 24.00 418.19 2544.41
   20:07:30.462.09-Sep-2020 5259.51 4140.45 74.10 24.00 418.39 2544.41
   20:07:30.662.09-Sep-2020 5259.51 4140.05 74.10 24.00 418.59 2544.41
   20:07:30.862.09-Sep-2020 5259.51 4139.97 74.10 24.00 418.79 2544.41
   20:07:31.062.09-Sep-2020 5259.51 4140.16 74.10 24.00 418.99 2544.41
   20:07:31.262.09-Sep-2020 5259.51 4140.04 74.10 24.00 419.19 2544.41
   20:07:31.463.09-Sep-2020 5259.51 4140.04 74.10 24.00 419.39 2544.41
   20:07:31.663.09-Sep-2020 5259.51 4139.96 74.10 24.00 419.59 2544.41
   20:07:31.863.09-Sep-2020 5259.51 4139.96 74.10 24.00 419.79 2544.41
   20:07:32.063.09-Sep-2020 5259.51 4140.02 74.10 24.00 419.99 2544.41
   20:07:32.263.09-Sep-2020 5259.51 4140.02 74.10 24.00 420.19 2544.41
   20:07:32.463.09-Sep-2020 5259.51 4140.02 74.10 24.00 420.39 2544.41
   20:07:32.663.09-Sep-2020 5259.51 4139.93 74.10 24.00 420.59 2544.41
   20:07:32.863.09-Sep-2020 5259.51 4139.94 74.10 24.00 420.79 2544.41
   20:07:33.063.09-Sep-2020 5259.51 4139.98 74.10 24.00 420.99 2544.41
   20:07:33.263.09-Sep-2020 5259.51 4139.99 74.10 24.00 421.19 2544.41
   20:07:33.464.09-Sep-2020 5259.51 4139.99 74.10 24.00 421.39 2544.41
   20:07:33.664.09-Sep-2020 5259.51 4139.19 74.10 24.00 421.59 2544.41
   20:07:33.864.09-Sep-2020 5259.51 4140.42 74.10 24.00 421.79 2544.41
   20:07:34.064.09-Sep-2020 5259.51 4140.31 74.10 24.00 421.99 2544.41
   20:07:34.264.09-Sep-2020 5259.51 4140.20 74.10 24.00 422.19 2544.41
   20:07:34.464.09-Sep-2020 5259.51 4140.20 74.10 24.00 422.39 2544.41
   20:07:34.664.09-Sep-2020 5259.51 4140.25 74.10 24.00 422.59 2544.41
   20:07:34.864.09-Sep-2020 5259.51 4140.06 74.10 24.00 422.79 2544.41
   20:07:35.064.09-Sep-2020 5259.51 4140.02 74.10 24.00 422.99 2544.41
   20:07:35.264.09-Sep-2020 5259.51 4140.02 74.10 24.00 423.20 2544.41
   20:07:35.464.09-Sep-2020 5259.51 4140.02 74.10 24.00 423.40 2544.41
   20:07:35.665.09-Sep-2020 5259.51 4140.04 74.10 24.00 423.60 2544.41
   20:07:35.865.09-Sep-2020 5259.51 4139.96 74.10 24.00 423.80 2544.41
   20:07:36.065.09-Sep-2020 5259.51 4139.93 74.10 24.00 424.00 2544.41
   20:07:36.265.09-Sep-2020 5259.51 4139.93 74.10 24.00 424.20 2544.41
   20:07:36.465.09-Sep-2020 5259.51 4139.99 74.10 24.00 424.40 2544.41
   20:07:36.665.09-Sep-2020 5259.51 4140.03 74.10 24.00 424.60 2544.41
   20:07:36.865.09-Sep-2020 5259.51 4140.02 74.10 24.00 424.80 2544.41
   20:07:37.065.09-Sep-2020 5259.51 4139.13 74.10 24.00 425.00 2544.41
   20:07:37.265.09-Sep-2020 5259.51 4140.32 74.10 24.00 425.20 2544.41
   20:07:37.465.09-Sep-2020 5259.51 4140.32 74.10 24.00 425.40 2544.41
   20:07:37.665.09-Sep-2020 5259.51 4140.15 74.10 24.00 425.60 2544.41
   20:07:37.866.09-Sep-2020 5259.51 4140.08 74.10 24.00 425.80 2544.41
   20:07:38.066.09-Sep-2020 5259.51 4140.20 74.10 24.00 426.00 2544.41
   20:07:38.266.09-Sep-2020 5259.51 4138.88 74.10 24.00 426.20 2544.41
   20:07:38.466.09-Sep-2020 5259.51 4138.88 74.10 24.00 426.40 2544.41
   20:07:38.666.09-Sep-2020 5259.51 4140.07 74.10 24.00 426.60 2544.41
   20:07:38.866.09-Sep-2020 5259.51 4139.96 74.10 24.00 426.80 2544.41
   20:07:39.066.09-Sep-2020 5259.51 4139.82 74.10 24.00 427.00 2544.41
   20:07:39.266.09-Sep-2020 5259.51 4140.08 74.10 24.00 427.20 2544.41
   20:07:39.466.09-Sep-2020 5259.51 4140.08 74.10 24.00 427.40 2544.41
   20:07:39.666.09-Sep-2020 5259.51 4140.20 74.10 24.00 427.60 2544.41
   20:07:39.866.09-Sep-2020 5259.51 4140.11 74.10 24.00 427.80 2544.41
   20:07:40.067.09-Sep-2020 5259.51 4139.95 74.10 24.00 428.00 2544.41
   20:07:40.267.09-Sep-2020 5259.51 4139.04 74.10 24.00 428.20 2544.41
   20:07:40.467.09-Sep-2020 5259.51 4139.04 74.10 24.00 428.40 2544.41
   20:07:40.667.09-Sep-2020 5259.51 4140.19 74.10 24.00 428.60 2544.41
   20:07:40.867.09-Sep-2020 5259.51 4140.02 74.10 24.00 428.80 2544.41
   20:07:41.067.09-Sep-2020 5259.51 4138.80 74.10 24.00 429.00 2544.41
   20:07:41.267.09-Sep-2020 5259.51 4140.77 74.10 24.00 429.20 2544.41
   20:07:41.467.09-Sep-2020 5259.51 4140.77 74.10 24.00 429.40 2544.41
