~Version Information
 VERS.                  2.0:   CWLS log ASCII Standard -VERSION 2.0
 WRAP.                   NO:   One line per depth step
~Well Information Block
#MNEM.UNIT     VALUE/NAME     DESCRIPTION
#---------     -----------    ---------------------------
 STRT.S             12:49:18 09-Sep-20: START TIME 12:49:18 09-Sep-20
 STOP.S             12:55:59 09-Sep-20: STOP TIME  12:55:59 09-Sep-20
 STEP.S                   0.00: STEP TIME
 NULL.                 -999.25: NULL VALUE
 MDS .        Operator Entered:  MAG DATA SOURCE
 PDAT.          Mean Sea Level:  PERMANENT DATUM
 DCON.         Sperry Drilling:  DIRECTNL CONTR
 RIG .              West Azeri:  RIG NAME
 WELL.           C40 (Slot 20):  WELL NAME
 SRVC.     Turan Drilling Engineering:  CONTRACTOR
 FLD .                     ACG:  FIELD NAME
 CTRY.              Azerbaijan:  COUNTRY NAME
 PROV.                    Baku:  PROVINCE
 STAT.                    Baku:  STATE NAME
 REGN.                   EESSA:  REGION
 BASE.              Azerbaijan:  LOGGING EQUIPMENT BASE LOCATION
 COMP.     BP Exploration (Caspian Sea) Ltd:  COMPANY
 WTYP.                Deviated:  WELL TYPE
 SON .        AZ-XX-0906344804:  JOB NUMBER
 FTOP.          Formation Tops:  FORM TOPS DESC
 ILTD.               Lithology:  INTERP LTH DESC
 SVYD.                  Survey:  SURVEY DESC
 DMOD.             Drill Model:  DRILL MOD DESC
 HPTY.       Minimum Curvature:  HOLE POS TYPE
 NREF.                    Grid:  NORTH REFERENCE
 SPUD.               01-Jan-20:  SPUD DATE
 DATE.      00.59.44 15-Sep-20:  END TIME
 STIM.      12.00.00 12-Jun-20:  START TIME
 DMF .             Drill Floor:  DRILL MEAS FROM
 DFST.                        :  DIST FSL TEXT
 DFWT.                        :  DIST FWL TEXT
 API .                        :  API NUMBER
 CNTY.                        :  COUNTY
 UWI .                        :  UNIQUE WELL IDENTIFIER
 LOC .                        :  LOCATION
 LMF .             Drill Floor:  LOG MEASURED FROM
 VSNS.m                   2.88:  VERT SEC N/S
 VSEW.m                  -3.84:  VERT SEC E/W
 AGAP.m                  43.42:  AIR GAP
 APD .m                  43.42:  DEPTH ABOVE PD
 WDMS.m                 118.27:  WD ELEV
 EGL .m                   0.00:  GROUND ELEVATION
 EPD .m                   0.00:  ELEVATION
 AZTC.deg                 6.23:  AZM TOTAL CORR
 GRDC.deg                 0.20:  GRID CORRECTION
 MDEC.deg                 6.43:  MAGNETIC DECL
 MDIP.deg                59.49:  MAGNETIC DIP
 MFLD.nT              50277.00:  MAGNETIC FIELD
 GVFD.g                   1.00:  GRAVITY FIELD
 VSDR.deg               173.20:  VERT SEC DIRECT
 TDD .m                5790.01:  TOTAL DEPTH (DRILLER)
 SDEP.m                5231.01:  START DEPTH
 DFSL.m                   0.00:  DISTANCE FSL
 DFWL.m                   0.00:  DISTANCE FWL
 UTMY.m             4435808.83:  UTM Y
 UTMX.m              526266.40:  UTM X
 WHEW.m                  -3.84:  WELL HEAD E/W
 WHNS.m                   2.88:  WELL HEAD N/S
 LONG.deg                51.31:  LONGITUDE
 LATI.deg                40.06:  LATITUDE
 TVDS.m                  43.42:  TVDSS CORRECTN
 DEP .m                 430.08:  DEPTH
 EKB .m                  43.42:  KB ELEVATION
 EDF .m                  43.42:  DF ELEVATION
 TDL .m                 559.00:  TOTAL DEPTH (LOGGER)
 MAGU.                 1849381:  MAGUTM CHECKSUM
 VSC .                       0:  VS TO CLOSURE
~Parameter Information Block
#MNEM.UNIT       Value        Description
#---------     -----------    ---------------------------
 AV  .mps                 4.87:  Ann Velocity 
 AVMX.mps                 7.08:  Max Ann Veloc 
 AZIF.deg               108.87:  Azm, Final 
 BHAT.                  Rotary:  BHA Type 
 BROT.°/30m               0.35:  Build Rotating 
 BS  .in                  8.50:  Bit Size 
 BSZ .in                  8.50:  Bit Size 
 BTPL.psig              360.00:  Bit Press Loss 
 CABU.                     Yes:  Customer Abuse 
 COMM.                     ¤C}:  Run Comments 1 
 TCS .hr                106.24:  Time Ciculation Ended 
 CV  .mps                 1.77:  Crit Velocity 
 CVMX.mps                 2.03:  Max Crit Veloc 
 DD1 .         Aykhan Agagulov:  Direct Drillr 1 
 DD2 .            Nonso Okofor:  Direct Drillr 2 
 DDSV.               Geo-Pilot:  DD Service 
 DEFF.%                  98.00:  % Det Eff 
 DLRX.°/30m               0.50:  Dogleg Rot Max 
 DLSO.°/30m               0.40:  Dogleg Oriented 
 DLSX.°/30m               0.94:  Dogleg Str Max 
 DRET.      20.30.00 08-Sep-20:  Drill End Time 
 DRST.      22.15.00 06-Sep-20:  Drill Start Tim 
 DTIM.hr                 31.31:  Time Drilling 
 EDEP.m                5790.01:  End Depth 
 ENG1.           Amrah Tahirov:  Engineer 1 
 ENG2.         Dair Mahammadov:  Engineer 2 
 ENG3.           Emil Huseynov:  Engineer 3 
 ETIM.      04.01.04 12-Sep-20:  End Time 
 FLOI.gpm               450.00:  Flow In 
 FLON.gpm               450.00:  Flow In Min 
 FLOS.cptm                2.00:  Fluid Loss 
 FLOX.gpm               450.00:  Flow In Max 
 FTRO.       Formation Presure:  FTWD Run Obj 
 HFLO.                      No:  High Flow 
 HPRE.                      No:  High Pressure 
 HTEM.                      No:  High Temp 
 HYDO.m                   1.80:  Hydro Offset 
 IFIN.deg                72.03:  Inc, Final 
 IMAX.deg                73.72:  Inc Max 
 IMIN.deg                70.94:  Inc Min 
 IMND.m                5508.52:  Inc Min Depth 
 IMXD.m                5253.60:  Inc Max Depth 
 JARR.                      No:  Jarring 
 LETM.      20.30.00 08-Sep-20:  Log End Time 
 LOST.hr                     0:  Lost Rig Time 
 LSTM.      22.15.00 06-Sep-20:  Log Start Time 
 MDCL.ppm             36000.00:  Mud Chlorides 
 MDES.     Inversion Oil/Synthetic:  Mud Desc 
 DFD .sg                  1.44:  Mud Density 
 MDMN.sg                  1.44:  Dens Mud Min 
 MDMX.sg                  1.57:  Dens Mud Max 
 MOIL.                      70:  Run Mud Oil % 
 MOWR.                   70:30:  Run Mud OWR 
 MSND.                       0:  Run Mud Sand % 
 MSOL.                      21:  Run Mud Solids% 
 DFV .spqt               68.00:  Mud Viscosity 
 MWOD.in                  6.75:  MWD Tool OD 
 MWSI.                     Yes:  Serv Intrp, MWD 
 OTIM.hr                174.84:  Time Operating 
 PCON.           Look Like New:  Pad Condition 
 PMAX.psia            10616.93:  Press Op, Max 
 PV  .cP                 50.00:  Mud PV 
 RUN .                     700:  Run Number 
 ROPA.m/hr               14.24:  ROP Avg 
 ROPN.m/hr               10.00:  ROP Min 
 ROPX.m/hr               32.00:  ROP Max 
 RPMA.rpm               120.90:  RPM Surface Avg 
 RPMN.rpm               120.00:  RPM Surface Min 
 RPMX.rpm               140.00:  RPM Surface Max 
 RRUN.                    0700:  Rig Run Number 
 RTIM.hr                  3.20:  Time Reaming 
 SAZI.deg               109.99:  Azm, Start 
 SDEP.m                5231.01:  Start Depth 
 SIDD.                      No:  Serv Intrp, DD 
 SINC.deg                73.72:  Inc, Start 
 SPPA.psig             3051.00:  SPP Avg 
 SPPN.psig             2950.00:  SPP Min 
 SPPX.psig             3250.00:  SPP Max 
 STIM.      08.00.00 05-Sep-20:  Start Time 
 SVCS.                 DD, MWD:  Services 
 SVER.                    9.20:  Sperry Version 
 TDAT.m                 559.00:  Tot Depth Attmp 
 TDDF.                      No:  Trip for DD 
 TDLG.m                 559.00:  Tot Depth Loggd 
 TFF .                      No:  Trip for Fail 
 TQAA.f-kp               26.49:  Torque Abs Avg 
 TQAN.f-kp               25.00:  Torque Abs Min 
 TQAX.f-kp               27.00:  Torque Abs Max 
 TRRT.°/30m               1.50:  Turn Rotating 
 MRT .                    HCIM:  Maximum Recorded Temperature 
 TTMX.degC               90.20:  Max Tool Temp 
 VS01.                90542671:  Virtual Str1 SN 
 VS02.                90545185:  Virtual Str2 SN 
 VS03.                90602015:  Virtual Str3 SN 
 VS04.                90515230:  Virtual Str4 SN 
 WBMN.klb                 5.00:  WOB Min 
 WOBA.klb                14.79:  WOB Avg 
 WOBX.klb                20.00:  WOB Max 
 YP  .lhf2               29.00:  Yield Point 
~Curve Information Block
#MNEM.UNIT                 API CODE     Curve Description
#---------               -----------    ---------------------------
 TIME.HHMMSS            00 000 000 000:  GT Time & Date
 GTDEPTH.m              00 000 000 000:  GT Depth
 GTPQH.psia             00 000 000 000:  GT HR Quartz Pressure
 GTTQ.degC              00 000 000 000:  GT Quartz Temperature
 GTTN.NONE              00 000 000 000:  GT Test Number
 GTET.sec               00 000 000 000:  GT Elapsed Test Time
 GTTVD.m                00 000 000 000:  GT True Vertical Depth
#Other Information
#
#WARRANTY: Halliburton will use its best efforts to furnish customers with 
#accurate information and interpretations that are part of, and incident to, the services 
#provided.  However, Halliburton cannot and does not warrant the accuracy 
#or correctness of such information and interpretations.  Under no circumstances should any 
#such information or interpretation be relied upon as the sole basis for any drilling, 
#completion, production, or financial decision or any procedure involving any risk to the 
#safety of any drilling venture, drilling rig or its crew or any other third party.  The 
#Customer has full responsibility for all drilling, completion and production operation.  
#Halliburton makes no representations or warranties, either expressed or 
#implied, including, but not limited to, the implied warranties of merchantability or fitness 
#for a particular purpose, with respect to the services rendered.  In no event will 
#Halliburton be liable for failure to obtain any particular results or for 
#any damages, including, but not limited to, indirect, special or consequential damages, 
#resulting from the use of any information or interpretation provided by Halliburton.
#
~A           TIME           GTDEPTH  GTPQH  GTTQ  GTTN   GTET   GTTVD  
# ...
   12:52:18.800.09-Sep-2020 5424.51  953.32 75.42 14.00 180.80 2594.79
   12:52:19.000.09-Sep-2020 5424.51  957.37 75.42 14.00 181.00 2594.79
   12:52:19.200.09-Sep-2020 5424.51  957.37 75.42 14.00 181.20 2594.79
   12:52:19.400.09-Sep-2020 5424.51  963.90 75.43 14.00 181.40 2594.79
   12:52:19.600.09-Sep-2020 5424.51  966.69 75.43 14.00 181.60 2594.79
   12:52:19.800.09-Sep-2020 5424.51  970.72 75.43 14.00 181.80 2594.79
   12:52:20.000.09-Sep-2020 5424.51  974.78 75.43 14.00 182.00 2594.79
   12:52:20.200.09-Sep-2020 5424.51  974.78 75.43 14.00 182.20 2594.79
   12:52:20.400.09-Sep-2020 5424.51  982.85 75.43 14.00 182.40 2594.79
   12:52:20.600.09-Sep-2020 5424.51  986.87 75.43 14.00 182.60 2594.79
   12:52:20.800.09-Sep-2020 5424.51  990.07 75.43 14.00 182.80 2594.79
   12:52:21.000.09-Sep-2020 5424.51  994.59 75.43 14.00 183.00 2594.79
   12:52:21.200.09-Sep-2020 5424.51  994.59 75.43 14.00 183.20 2594.79
   12:52:21.400.09-Sep-2020 5424.51 1002.66 75.43 14.00 183.40 2594.79
   12:52:21.600.09-Sep-2020 5424.51 1006.83 75.43 14.00 183.60 2594.79
   12:52:21.800.09-Sep-2020 5424.51 1010.75 75.43 14.00 183.80 2594.79
   12:52:22.000.09-Sep-2020 5424.51 1014.73 75.43 14.00 184.00 2594.79
   12:52:22.200.09-Sep-2020 5424.51 1014.73 75.43 14.00 184.20 2594.79
   12:52:22.400.09-Sep-2020 5424.51 1022.70 75.43 14.00 184.40 2594.79
   12:52:22.600.09-Sep-2020 5424.51 1026.60 75.43 14.00 184.60 2594.79
   12:52:22.800.09-Sep-2020 5424.51 1030.54 75.43 14.00 184.80 2594.79
   12:52:23.000.09-Sep-2020 5424.51 1033.94 75.43 14.00 185.00 2594.79
   12:52:23.200.09-Sep-2020 5424.51 1033.94 75.43 14.00 185.20 2594.79
   12:52:23.400.09-Sep-2020 5424.51 1041.38 75.43 14.00 185.40 2594.79
   12:52:23.600.09-Sep-2020 5424.51 1045.33 75.43 14.00 185.60 2594.79
   12:52:23.800.09-Sep-2020 5424.51 1049.23 75.43 14.00 185.80 2594.79
   12:52:24.000.09-Sep-2020 5424.51 1051.93 75.43 14.00 186.00 2594.79
   12:52:24.200.09-Sep-2020 5424.51 1051.93 75.43 14.00 186.20 2594.79
   12:52:24.400.09-Sep-2020 5424.51 1060.45 75.43 14.00 186.40 2594.79
   12:52:24.600.09-Sep-2020 5424.51 1062.78 75.43 14.00 186.60 2594.79
   12:52:24.800.09-Sep-2020 5424.51 1066.59 75.43 14.00 186.80 2594.79
   12:52:25.000.09-Sep-2020 5424.51 1070.72 75.43 14.00 187.00 2594.79
   12:52:25.200.09-Sep-2020 5424.51 1070.72 75.43 14.00 187.20 2594.79
   12:52:25.400.09-Sep-2020 5424.51 1078.18 75.43 14.00 187.40 2594.79
   12:52:25.600.09-Sep-2020 5424.51 1082.20 75.43 14.00 187.60 2594.79
   12:52:25.800.09-Sep-2020 5424.51 1086.13 75.43 14.00 187.80 2594.79
   12:52:26.000.09-Sep-2020 5424.51 1090.14 75.43 14.00 188.00 2594.79
   12:52:26.200.09-Sep-2020 5424.51 1090.14 75.43 14.00 188.20 2594.79
   12:52:26.400.09-Sep-2020 5424.51 1097.15 75.43 14.00 188.40 2594.79
   12:52:26.600.09-Sep-2020 5424.51 1101.13 75.43 14.00 188.60 2594.79
   12:52:26.800.09-Sep-2020 5424.51 1105.08 75.43 14.00 188.80 2594.79
   12:52:27.000.09-Sep-2020 5424.51 1109.18 75.43 14.00 189.00 2594.79
   12:52:27.200.09-Sep-2020 5424.51 1109.18 75.43 14.00 189.20 2594.79
   12:52:27.400.09-Sep-2020 5424.51 1115.70 75.43 14.00 189.40 2594.79
   12:52:27.600.09-Sep-2020 5424.51 1120.86 75.43 14.00 189.60 2594.79
   12:52:27.800.09-Sep-2020 5424.51 1120.86 75.44 14.00 189.80 2594.79
   12:52:28.000.09-Sep-2020 5424.51 1128.57 75.44 14.00 190.00 2594.79
   12:52:28.200.09-Sep-2020 5424.51 1128.57 75.44 14.00 190.20 2594.79
   12:52:28.400.09-Sep-2020 5424.51 1135.45 75.44 14.00 190.40 2594.79
   12:52:28.600.09-Sep-2020 5424.51 1138.23 75.44 14.00 190.60 2594.79
   12:52:28.800.09-Sep-2020 5424.51 1142.24 75.44 14.00 190.80 2594.79
   12:52:29.000.09-Sep-2020 5424.51 1146.16 75.44 14.00 191.00 2594.79
   12:52:29.200.09-Sep-2020 5424.51 1146.16 75.44 14.00 191.20 2594.79
   12:52:29.400.09-Sep-2020 5424.51 1154.05 75.44 14.00 191.40 2594.79
   12:52:29.600.09-Sep-2020 5424.51 1157.91 75.44 14.00 191.60 2594.79
   12:52:29.800.09-Sep-2020 5424.51 1161.73 75.44 14.00 191.80 2594.79
   12:52:30.000.09-Sep-2020 5424.51 1165.56 75.44 14.00 192.00 2594.79
   12:52:30.200.09-Sep-2020 5424.51 1165.56 75.44 14.00 192.20 2594.79
   12:52:30.400.09-Sep-2020 5424.51 1173.16 75.44 14.00 192.40 2594.79
   12:52:30.600.09-Sep-2020 5424.51 1176.94 75.44 14.00 192.60 2594.79
   12:52:30.800.09-Sep-2020 5424.51 1180.67 75.44 14.00 192.80 2594.79
   12:52:31.000.09-Sep-2020 5424.51 1184.38 75.44 14.00 193.00 2594.79
   12:52:31.200.09-Sep-2020 5424.51 1184.38 75.44 14.00 193.20 2594.79
   12:52:31.400.09-Sep-2020 5424.51 1191.89 75.44 14.00 193.40 2594.79
   12:52:31.600.09-Sep-2020 5424.51 1195.57 75.44 14.00 193.60 2594.79
   12:52:31.800.09-Sep-2020 5424.51 1198.08 75.44 14.00 193.80 2594.79
   12:52:32.000.09-Sep-2020 5424.51 1199.65 75.44 14.00 194.00 2594.79
   12:52:32.200.09-Sep-2020 5424.51 1199.65 75.44 14.00 194.20 2594.79
   12:52:32.400.09-Sep-2020 5424.51 1207.68 75.44 14.00 194.40 2594.79
   12:52:32.600.09-Sep-2020 5424.51 1211.39 75.44 14.00 194.60 2594.79
   12:52:32.800.09-Sep-2020 5424.51 1215.30 75.44 14.00 194.80 2594.79
   12:52:33.000.09-Sep-2020 5424.51 1218.94 75.44 14.00 195.00 2594.79
   12:52:33.200.09-Sep-2020 5424.51 1218.94 75.44 14.00 195.20 2594.79
   12:52:33.400.09-Sep-2020 5424.51 1226.32 75.44 14.00 195.40 2594.79
   12:52:33.600.09-Sep-2020 5424.51 1230.08 75.44 14.00 195.60 2594.79
   12:52:33.800.09-Sep-2020 5424.51 1233.72 75.44 14.00 195.80 2594.79
   12:52:34.000.09-Sep-2020 5424.51 1237.41 75.44 14.00 196.00 2594.79
   12:52:34.200.09-Sep-2020 5424.51 1237.41 75.44 14.00 196.20 2594.79
   12:52:34.400.09-Sep-2020 5424.51 1244.63 75.44 14.00 196.40 2594.79
   12:52:34.600.09-Sep-2020 5424.51 1248.26 75.44 14.00 196.60 2594.79
   12:52:34.800.09-Sep-2020 5424.51 1251.95 75.44 14.00 196.80 2594.79
   12:52:35.000.09-Sep-2020 5424.51 1255.60 75.44 14.00 197.00 2594.79
   12:52:35.200.09-Sep-2020 5424.51 1255.60 75.44 14.00 197.20 2594.79
   12:52:35.400.09-Sep-2020 5424.51 1261.86 75.44 14.00 197.40 2594.79
   12:52:35.600.09-Sep-2020 5424.51 1264.37 75.44 14.00 197.60 2594.79
   12:52:35.800.09-Sep-2020 5424.51 1268.10 75.44 14.00 197.80 2594.79
   12:52:36.000.09-Sep-2020 5424.51 1271.69 75.44 14.00 198.00 2594.79
   12:52:36.200.09-Sep-2020 5424.51 1271.69 75.44 14.00 198.20 2594.79
   12:52:36.400.09-Sep-2020 5424.51 1277.75 75.44 14.00 198.40 2594.79
   12:52:36.600.09-Sep-2020 5424.51 1282.74 75.44 14.00 198.60 2594.79
   12:52:36.800.09-Sep-2020 5424.51 1286.10 75.44 14.00 198.80 2594.79
   12:52:37.000.09-Sep-2020 5424.51 1289.84 75.44 14.00 199.00 2594.79
   12:52:37.200.09-Sep-2020 5424.51 1289.84 75.44 14.00 199.20 2594.79
   12:52:37.400.09-Sep-2020 5424.51 1297.36 75.44 14.00 199.40 2594.79
   12:52:37.600.09-Sep-2020 5424.51 1299.89 75.44 14.00 199.60 2594.79
   12:52:37.800.09-Sep-2020 5424.51 1304.19 75.44 14.00 199.80 2594.79
   12:52:38.000.09-Sep-2020 5424.51 1307.98 75.44 14.00 200.00 2594.79
   12:52:38.200.09-Sep-2020 5424.51 1307.98 75.44 14.00 200.20 2594.79
   12:52:38.400.09-Sep-2020 5424.51 1314.53 75.44 14.00 200.40 2594.79
   12:52:38.600.09-Sep-2020 5424.51 1316.44 75.44 14.00 200.60 2594.79
   12:52:38.800.09-Sep-2020 5424.51 1320.04 75.44 14.00 200.80 2594.79
   12:52:39.000.09-Sep-2020 5424.51 1323.71 75.44 14.00 201.00 2594.79
   12:52:39.200.09-Sep-2020 5424.51 1323.71 75.44 14.00 201.20 2594.79
   12:52:39.400.09-Sep-2020 5424.51 1330.31 75.44 14.00 201.40 2594.79
   12:52:39.600.09-Sep-2020 5424.51 1334.75 75.45 14.00 201.60 2594.79
   12:52:39.800.09-Sep-2020 5424.51 1338.39 75.45 14.00 201.80 2594.79
   12:52:40.000.09-Sep-2020 5424.51 1342.15 75.45 14.00 202.00 2594.79
   12:52:40.200.09-Sep-2020 5424.51 1342.15 75.45 14.00 202.20 2594.79
   12:52:40.400.09-Sep-2020 5424.51 1349.60 75.45 14.00 202.40 2594.79
   12:52:40.600.09-Sep-2020 5424.51 1353.09 75.45 14.00 202.60 2594.79
   12:52:40.800.09-Sep-2020 5424.51 1356.71 75.45 14.00 202.80 2594.79
   12:52:41.000.09-Sep-2020 5424.51 1360.32 75.45 14.00 203.00 2594.79
   12:52:41.200.09-Sep-2020 5424.51 1360.32 75.45 14.00 203.20 2594.79
