~Version Information
 VERS.                  2.0:   CWLS log ASCII Standard -VERSION 2.0
 WRAP.                   NO:   One line per depth step
~Well Information Block
#MNEM.UNIT     VALUE/NAME     DESCRIPTION
#---------     -----------    ---------------------------
 STRT.S             07:31:38 09-Sep-20: START TIME 07:31:38 09-Sep-20
 STOP.S             07:38:38 09-Sep-20: STOP TIME  07:38:38 09-Sep-20
 STEP.S                   0.00: STEP TIME
 NULL.                 -999.25: NULL VALUE
 MDS .        Operator Entered:  MAG DATA SOURCE
 PDAT.          Mean Sea Level:  PERMANENT DATUM
 DCON.         Sperry Drilling:  DIRECTNL CONTR
 RIG .              West Azeri:  RIG NAME
 WELL.           C40 (Slot 20):  WELL NAME
 SRVC.     Turan Drilling Engineering:  CONTRACTOR
 FLD .                     ACG:  FIELD NAME
 CTRY.              Azerbaijan:  COUNTRY NAME
 PROV.                    Baku:  PROVINCE
 STAT.                    Baku:  STATE NAME
 REGN.                   EESSA:  REGION
 BASE.              Azerbaijan:  LOGGING EQUIPMENT BASE LOCATION
 COMP.     BP Exploration (Caspian Sea) Ltd:  COMPANY
 WTYP.                Deviated:  WELL TYPE
 SON .        AZ-XX-0906344804:  JOB NUMBER
 FTOP.          Formation Tops:  FORM TOPS DESC
 ILTD.               Lithology:  INTERP LTH DESC
 SVYD.                  Survey:  SURVEY DESC
 DMOD.             Drill Model:  DRILL MOD DESC
 HPTY.       Minimum Curvature:  HOLE POS TYPE
 NREF.                    Grid:  NORTH REFERENCE
 SPUD.               01-Jan-20:  SPUD DATE
 DATE.      00.59.44 15-Sep-20:  END TIME
 STIM.      12.00.00 12-Jun-20:  START TIME
 DMF .             Drill Floor:  DRILL MEAS FROM
 DFST.                        :  DIST FSL TEXT
 DFWT.                        :  DIST FWL TEXT
 API .                        :  API NUMBER
 CNTY.                        :  COUNTY
 UWI .                        :  UNIQUE WELL IDENTIFIER
 LOC .                        :  LOCATION
 LMF .             Drill Floor:  LOG MEASURED FROM
 VSNS.m                   2.88:  VERT SEC N/S
 VSEW.m                  -3.84:  VERT SEC E/W
 AGAP.m                  43.42:  AIR GAP
 APD .m                  43.42:  DEPTH ABOVE PD
 WDMS.m                 118.27:  WD ELEV
 EGL .m                   0.00:  GROUND ELEVATION
 EPD .m                   0.00:  ELEVATION
 AZTC.deg                 6.23:  AZM TOTAL CORR
 GRDC.deg                 0.20:  GRID CORRECTION
 MDEC.deg                 6.43:  MAGNETIC DECL
 MDIP.deg                59.49:  MAGNETIC DIP
 MFLD.nT              50277.00:  MAGNETIC FIELD
 GVFD.g                   1.00:  GRAVITY FIELD
 VSDR.deg               173.20:  VERT SEC DIRECT
 TDD .m                5790.01:  TOTAL DEPTH (DRILLER)
 SDEP.m                5231.01:  START DEPTH
 DFSL.m                   0.00:  DISTANCE FSL
 DFWL.m                   0.00:  DISTANCE FWL
 UTMY.m             4435808.83:  UTM Y
 UTMX.m              526266.40:  UTM X
 WHEW.m                  -3.84:  WELL HEAD E/W
 WHNS.m                   2.88:  WELL HEAD N/S
 LONG.deg                51.31:  LONGITUDE
 LATI.deg                40.06:  LATITUDE
 TVDS.m                  43.42:  TVDSS CORRECTN
 DEP .m                 430.08:  DEPTH
 EKB .m                  43.42:  KB ELEVATION
 EDF .m                  43.42:  DF ELEVATION
 TDL .m                 559.00:  TOTAL DEPTH (LOGGER)
 MAGU.                 1849381:  MAGUTM CHECKSUM
 VSC .                       0:  VS TO CLOSURE
~Parameter Information Block
#MNEM.UNIT       Value        Description
#---------     -----------    ---------------------------
 AV  .mps                 4.87:  Ann Velocity 
 AVMX.mps                 7.08:  Max Ann Veloc 
 AZIF.deg               108.87:  Azm, Final 
 BHAT.                  Rotary:  BHA Type 
 BROT.°/30m               0.35:  Build Rotating 
 BS  .in                  8.50:  Bit Size 
 BSZ .in                  8.50:  Bit Size 
 BTPL.psig              360.00:  Bit Press Loss 
 CABU.                     Yes:  Customer Abuse 
 COMM.                     |L:  Run Comments 1 
 TCS .hr                106.24:  Time Ciculation Ended 
 CV  .mps                 1.77:  Crit Velocity 
 CVMX.mps                 2.03:  Max Crit Veloc 
 DD1 .         Aykhan Agagulov:  Direct Drillr 1 
 DD2 .            Nonso Okofor:  Direct Drillr 2 
 DDSV.               Geo-Pilot:  DD Service 
 DEFF.%                  98.00:  % Det Eff 
 DLRX.°/30m               0.50:  Dogleg Rot Max 
 DLSO.°/30m               0.40:  Dogleg Oriented 
 DLSX.°/30m               0.94:  Dogleg Str Max 
 DRET.      20.30.00 08-Sep-20:  Drill End Time 
 DRST.      22.15.00 06-Sep-20:  Drill Start Tim 
 DTIM.hr                 31.31:  Time Drilling 
 EDEP.m                5790.01:  End Depth 
 ENG1.           Amrah Tahirov:  Engineer 1 
 ENG2.         Dair Mahammadov:  Engineer 2 
 ENG3.           Emil Huseynov:  Engineer 3 
 ETIM.      04.01.04 12-Sep-20:  End Time 
 FLOI.gpm               450.00:  Flow In 
 FLON.gpm               450.00:  Flow In Min 
 FLOS.cptm                2.00:  Fluid Loss 
 FLOX.gpm               450.00:  Flow In Max 
 FTRO.       Formation Presure:  FTWD Run Obj 
 HFLO.                      No:  High Flow 
 HPRE.                      No:  High Pressure 
 HTEM.                      No:  High Temp 
 HYDO.m                   1.80:  Hydro Offset 
 IFIN.deg                72.03:  Inc, Final 
 IMAX.deg                73.72:  Inc Max 
 IMIN.deg                70.94:  Inc Min 
 IMND.m                5508.52:  Inc Min Depth 
 IMXD.m                5253.60:  Inc Max Depth 
 JARR.                      No:  Jarring 
 LETM.      20.30.00 08-Sep-20:  Log End Time 
 LOST.hr                     0:  Lost Rig Time 
 LSTM.      22.15.00 06-Sep-20:  Log Start Time 
 MDCL.ppm             36000.00:  Mud Chlorides 
 MDES.     Inversion Oil/Synthetic:  Mud Desc 
 DFD .sg                  1.44:  Mud Density 
 MDMN.sg                  1.44:  Dens Mud Min 
 MDMX.sg                  1.57:  Dens Mud Max 
 MOIL.                      70:  Run Mud Oil % 
 MOWR.                   70:30:  Run Mud OWR 
 MSND.                       0:  Run Mud Sand % 
 MSOL.                      21:  Run Mud Solids% 
 DFV .spqt               68.00:  Mud Viscosity 
 MWOD.in                  6.75:  MWD Tool OD 
 MWSI.                     Yes:  Serv Intrp, MWD 
 OTIM.hr                174.84:  Time Operating 
 PCON.           Look Like New:  Pad Condition 
 PMAX.psia            10616.93:  Press Op, Max 
 PV  .cP                 50.00:  Mud PV 
 RUN .                     700:  Run Number 
 ROPA.m/hr               14.24:  ROP Avg 
 ROPN.m/hr               10.00:  ROP Min 
 ROPX.m/hr               32.00:  ROP Max 
 RPMA.rpm               120.90:  RPM Surface Avg 
 RPMN.rpm               120.00:  RPM Surface Min 
 RPMX.rpm               140.00:  RPM Surface Max 
 RRUN.                    0700:  Rig Run Number 
 RTIM.hr                  3.20:  Time Reaming 
 SAZI.deg               109.99:  Azm, Start 
 SDEP.m                5231.01:  Start Depth 
 SIDD.                      No:  Serv Intrp, DD 
 SINC.deg                73.72:  Inc, Start 
 SPPA.psig             3051.00:  SPP Avg 
 SPPN.psig             2950.00:  SPP Min 
 SPPX.psig             3250.00:  SPP Max 
 STIM.      08.00.00 05-Sep-20:  Start Time 
 SVCS.                 DD, MWD:  Services 
 SVER.                    9.20:  Sperry Version 
 TDAT.m                 559.00:  Tot Depth Attmp 
 TDDF.                      No:  Trip for DD 
 TDLG.m                 559.00:  Tot Depth Loggd 
 TFF .                      No:  Trip for Fail 
 TQAA.f-kp               26.49:  Torque Abs Avg 
 TQAN.f-kp               25.00:  Torque Abs Min 
 TQAX.f-kp               27.00:  Torque Abs Max 
 TRRT.°/30m               1.50:  Turn Rotating 
 MRT .                    HCIM:  Maximum Recorded Temperature 
 TTMX.degC               90.20:  Max Tool Temp 
 VS01.                90542671:  Virtual Str1 SN 
 VS02.                90545185:  Virtual Str2 SN 
 VS03.                90602015:  Virtual Str3 SN 
 VS04.                90515230:  Virtual Str4 SN 
 WBMN.klb                 5.00:  WOB Min 
 WOBA.klb                14.79:  WOB Avg 
 WOBX.klb                20.00:  WOB Max 
 YP  .lhf2               29.00:  Yield Point 
~Curve Information Block
#MNEM.UNIT                 API CODE     Curve Description
#---------               -----------    ---------------------------
 TIME.HHMMSS            00 000 000 000:  GT Time & Date
 GTDEPTH.m              00 000 000 000:  GT Depth
 GTPQH.psia             00 000 000 000:  GT HR Quartz Pressure
 GTTQ.degC              00 000 000 000:  GT Quartz Temperature
 GTTN.NONE              00 000 000 000:  GT Test Number
 GTET.sec               00 000 000 000:  GT Elapsed Test Time
 GTTVD.m                00 000 000 000:  GT True Vertical Depth
#Other Information
#
#WARRANTY: Halliburton will use its best efforts to furnish customers with 
#accurate information and interpretations that are part of, and incident to, the services 
#provided.  However, Halliburton cannot and does not warrant the accuracy 
#or correctness of such information and interpretations.  Under no circumstances should any 
#such information or interpretation be relied upon as the sole basis for any drilling, 
#completion, production, or financial decision or any procedure involving any risk to the 
#safety of any drilling venture, drilling rig or its crew or any other third party.  The 
#Customer has full responsibility for all drilling, completion and production operation.  
#Halliburton makes no representations or warranties, either expressed or 
#implied, including, but not limited to, the implied warranties of merchantability or fitness 
#for a particular purpose, with respect to the services rendered.  In no event will 
#Halliburton be liable for failure to obtain any particular results or for 
#any damages, including, but not limited to, indirect, special or consequential damages, 
#resulting from the use of any information or interpretation provided by Halliburton.
#
~A           TIME           GTDEPTH  GTPQH  GTTQ  GTTN  GTET   GTTVD  
# ...
   07:33:33.334.09-Sep-2020 5569.01 3533.49 78.52 4.00 115.05 2640.81
   07:33:33.535.09-Sep-2020 5569.01 3533.49 78.52 4.00 115.25 2640.81
   07:33:33.735.09-Sep-2020 5569.01 3533.50 78.52 4.00 115.45 2640.81
   07:33:33.935.09-Sep-2020 5569.01 3533.51 78.52 4.00 115.65 2640.81
   07:33:34.135.09-Sep-2020 5569.01 3533.49 78.52 4.00 115.85 2640.81
   07:33:34.335.09-Sep-2020 5569.01 3533.52 78.52 4.00 116.05 2640.81
   07:33:34.535.09-Sep-2020 5569.01 3533.52 78.52 4.00 116.25 2640.81
   07:33:34.735.09-Sep-2020 5569.01 3533.51 78.52 4.00 116.45 2640.81
   07:33:34.935.09-Sep-2020 5569.01 3533.48 78.52 4.00 116.65 2640.81
   07:33:35.135.09-Sep-2020 5569.01 3533.50 78.52 4.00 116.85 2640.81
   07:33:35.335.09-Sep-2020 5569.01 3533.50 78.52 4.00 117.05 2640.81
   07:33:35.535.09-Sep-2020 5569.01 3533.50 78.52 4.00 117.25 2640.81
   07:33:35.735.09-Sep-2020 5569.01 3533.49 78.52 4.00 117.45 2640.81
   07:33:35.936.09-Sep-2020 5569.01 3533.50 78.52 4.00 117.65 2640.81
   07:33:36.136.09-Sep-2020 5569.01 3533.49 78.52 4.00 117.85 2640.81
   07:33:36.336.09-Sep-2020 5569.01 3533.50 78.52 4.00 118.05 2640.81
   07:33:36.536.09-Sep-2020 5569.01 3533.50 78.52 4.00 118.25 2640.81
   07:33:36.736.09-Sep-2020 5569.01 3533.50 78.52 4.00 118.45 2640.81
   07:33:36.936.09-Sep-2020 5569.01 3533.50 78.52 4.00 118.65 2640.81
   07:33:37.136.09-Sep-2020 5569.01 3533.45 78.52 4.00 118.85 2640.81
   07:33:37.336.09-Sep-2020 5569.01 3533.53 78.52 4.00 119.05 2640.81
   07:33:37.536.09-Sep-2020 5569.01 3533.53 78.52 4.00 119.25 2640.81
   07:33:37.736.09-Sep-2020 5569.01 3533.51 78.52 4.00 119.45 2640.81
   07:33:37.936.09-Sep-2020 5569.01 3533.49 78.52 4.00 119.65 2640.81
   07:33:38.136.09-Sep-2020 5569.01 3533.50 78.52 4.00 119.85 2640.81
   07:33:38.337.09-Sep-2020 5569.01 3533.49 78.52 4.00 120.05 2640.81
   07:33:38.537.09-Sep-2020 5569.01 3533.49 78.52 4.00 120.25 2640.81
   07:33:38.737.09-Sep-2020 5569.01 3533.48 78.52 4.00 120.45 2640.81
   07:33:38.937.09-Sep-2020 5569.01 3533.50 78.52 4.00 120.65 2640.81
   07:33:39.137.09-Sep-2020 5569.01 3533.50 78.52 4.00 120.85 2640.81
   07:33:39.337.09-Sep-2020 5569.01 3533.50 78.52 4.00 121.05 2640.81
   07:33:39.537.09-Sep-2020 5569.01 3533.50 78.52 4.00 121.25 2640.81
   07:33:39.737.09-Sep-2020 5569.01 3533.52 78.52 4.00 121.45 2640.81
   07:33:39.937.09-Sep-2020 5569.01 3533.49 78.52 4.00 121.65 2640.81
   07:33:40.137.09-Sep-2020 5569.01 3533.51 78.52 4.00 121.85 2640.81
   07:33:40.337.09-Sep-2020 5569.01 3533.49 78.52 4.00 122.05 2640.81
   07:33:40.537.09-Sep-2020 5569.01 3533.49 78.52 4.00 122.25 2640.81
   07:33:40.737.09-Sep-2020 5569.01 3533.49 78.52 4.00 122.45 2640.81
   07:33:40.938.09-Sep-2020 5569.01 3533.45 78.52 4.00 122.65 2640.81
   07:33:41.138.09-Sep-2020 5569.01 3533.54 78.52 4.00 122.85 2640.81
   07:33:41.338.09-Sep-2020 5569.01 3533.51 78.52 4.00 123.05 2640.81
   07:33:41.538.09-Sep-2020 5569.01 3533.51 78.52 4.00 123.25 2640.81
   07:33:41.738.09-Sep-2020 5569.01 3533.49 78.52 4.00 123.45 2640.81
   07:33:41.938.09-Sep-2020 5569.01 3533.51 78.52 4.00 123.65 2640.81
   07:33:42.138.09-Sep-2020 5569.01 3533.51 78.52 4.00 123.85 2640.81
   07:33:42.338.09-Sep-2020 5569.01 3533.50 78.52 4.00 124.05 2640.81
   07:33:42.538.09-Sep-2020 5569.01 3533.50 78.52 4.00 124.25 2640.81
   07:33:42.738.09-Sep-2020 5569.01 3533.50 78.52 4.00 124.45 2640.81
   07:33:42.938.09-Sep-2020 5569.01 3533.51 78.52 4.00 124.65 2640.81
   07:33:43.138.09-Sep-2020 5569.01 3533.50 78.52 4.00 124.85 2640.81
   07:33:43.339.09-Sep-2020 5569.01 3533.51 78.52 4.00 125.05 2640.81
   07:33:43.539.09-Sep-2020 5569.01 3533.51 78.52 4.00 125.25 2640.81
   07:33:43.739.09-Sep-2020 5569.01 3533.50 78.52 4.00 125.45 2640.81
   07:33:43.939.09-Sep-2020 5569.01 3533.51 78.52 4.00 125.65 2640.81
   07:33:44.139.09-Sep-2020 5569.01 3533.50 78.52 4.00 125.85 2640.81
   07:33:44.339.09-Sep-2020 5569.01 3533.50 78.52 4.00 126.05 2640.81
   07:33:44.539.09-Sep-2020 5569.01 3533.50 78.52 4.00 126.25 2640.81
   07:33:44.739.09-Sep-2020 5569.01 3533.50 78.52 4.00 126.45 2640.81
   07:33:44.939.09-Sep-2020 5569.01 3533.50 78.52 4.00 126.65 2640.81
   07:33:45.139.09-Sep-2020 5569.01 3533.50 78.52 4.00 126.85 2640.81
   07:33:45.339.09-Sep-2020 5569.01 3533.50 78.52 4.00 127.05 2640.81
   07:33:45.539.09-Sep-2020 5569.01 3533.50 78.52 4.00 127.25 2640.81
   07:33:45.740.09-Sep-2020 5569.01 3533.52 78.52 4.00 127.45 2640.81
   07:33:45.940.09-Sep-2020 5569.01 3533.49 78.52 4.00 127.65 2640.81
   07:33:46.140.09-Sep-2020 5569.01 3533.52 78.52 4.00 127.85 2640.81
   07:33:46.340.09-Sep-2020 5569.01 3533.49 78.52 4.00 128.05 2640.81
   07:33:46.540.09-Sep-2020 5569.01 3533.49 78.52 4.00 128.25 2640.81
   07:33:46.740.09-Sep-2020 5569.01 3533.49 78.52 4.00 128.45 2640.81
   07:33:46.940.09-Sep-2020 5569.01 3533.50 78.52 4.00 128.65 2640.81
   07:33:47.140.09-Sep-2020 5569.01 3533.51 78.52 4.00 128.85 2640.81
   07:33:47.340.09-Sep-2020 5569.01 3533.51 78.52 4.00 129.05 2640.81
   07:33:47.540.09-Sep-2020 5569.01 3533.51 78.52 4.00 129.25 2640.81
   07:33:47.740.09-Sep-2020 5569.01 3533.50 78.52 4.00 129.45 2640.81
   07:33:47.940.09-Sep-2020 5569.01 3533.51 78.52 4.00 129.65 2640.81
   07:33:48.141.09-Sep-2020 5569.01 3533.50 78.52 4.00 129.85 2640.81
   07:33:48.341.09-Sep-2020 5569.01 3533.51 78.52 4.00 130.05 2640.81
   07:33:48.541.09-Sep-2020 5569.01 3533.51 78.52 4.00 130.25 2640.81
   07:33:48.741.09-Sep-2020 5569.01 3533.51 78.52 4.00 130.45 2640.81
   07:33:48.941.09-Sep-2020 5569.01 3533.45 78.52 4.00 130.65 2640.81
   07:33:49.141.09-Sep-2020 5569.01 3533.55 78.52 4.00 130.85 2640.81
   07:33:49.341.09-Sep-2020 5569.01 3533.51 78.52 4.00 131.05 2640.81
   07:33:49.541.09-Sep-2020 5569.01 3533.51 78.52 4.00 131.25 2640.81
   07:33:49.741.09-Sep-2020 5569.01 3533.50 78.52 4.00 131.45 2640.81
   07:33:49.941.09-Sep-2020 5569.01 3533.51 78.52 4.00 131.65 2640.81
   07:33:50.141.09-Sep-2020 5569.01 3533.49 78.52 4.00 131.85 2640.81
   07:33:50.341.09-Sep-2020 5569.01 3533.53 78.52 4.00 132.05 2640.81
   07:33:50.542.09-Sep-2020 5569.01 3533.53 78.52 4.00 132.25 2640.81
   07:33:50.742.09-Sep-2020 5569.01 3533.51 78.52 4.00 132.45 2640.81
   07:33:50.942.09-Sep-2020 5569.01 3533.50 78.52 4.00 132.65 2640.81
   07:33:51.142.09-Sep-2020 5569.01 3533.51 78.52 4.00 132.85 2640.81
   07:33:51.342.09-Sep-2020 5569.01 3533.50 78.52 4.00 133.05 2640.81
   07:33:51.542.09-Sep-2020 5569.01 3533.50 78.52 4.00 133.25 2640.81
   07:33:51.742.09-Sep-2020 5569.01 3533.48 78.52 4.00 133.45 2640.81
   07:33:51.942.09-Sep-2020 5569.01 3533.52 78.52 4.00 133.65 2640.81
   07:33:52.142.09-Sep-2020 5569.01 3533.49 78.52 4.00 133.85 2640.81
   07:33:52.342.09-Sep-2020 5569.01 3533.52 78.52 4.00 134.05 2640.81
   07:33:52.542.09-Sep-2020 5569.01 3533.52 78.52 4.00 134.25 2640.81
   07:33:52.742.09-Sep-2020 5569.01 3533.46 78.52 4.00 134.45 2640.81
   07:33:52.942.09-Sep-2020 5569.01 3533.55 78.52 4.00 134.66 2640.81
   07:33:53.143.09-Sep-2020 5569.01 3533.51 78.52 4.00 134.86 2640.81
   07:33:53.343.09-Sep-2020 5569.01 3533.52 78.52 4.00 135.06 2640.81
   07:33:53.543.09-Sep-2020 5569.01 3533.52 78.52 4.00 135.26 2640.81
   07:33:53.743.09-Sep-2020 5569.01 3533.51 78.52 4.00 135.46 2640.81
   07:33:53.943.09-Sep-2020 5569.01 3533.50 78.52 4.00 135.66 2640.81
   07:33:54.143.09-Sep-2020 5569.01 3533.51 78.52 4.00 135.86 2640.81
   07:33:54.343.09-Sep-2020 5569.01 3533.50 78.52 4.00 136.06 2640.81
   07:33:54.543.09-Sep-2020 5569.01 3533.50 78.52 4.00 136.26 2640.81
   07:33:54.743.09-Sep-2020 5569.01 3533.51 78.52 4.00 136.46 2640.81
   07:33:54.943.09-Sep-2020 5569.01 3533.50 78.52 4.00 136.66 2640.81
   07:33:55.143.09-Sep-2020 5569.01 3533.51 78.52 4.00 136.86 2640.81
   07:33:55.343.09-Sep-2020 5569.01 3533.50 78.52 4.00 137.06 2640.81
   07:33:55.544.09-Sep-2020 5569.01 3533.50 78.52 4.00 137.26 2640.81
   07:33:55.744.09-Sep-2020 5569.01 3533.51 78.52 4.00 137.46 2640.81
   07:33:55.944.09-Sep-2020 5569.01 3533.51 78.52 4.00 137.66 2640.81
   07:33:56.144.09-Sep-2020 5569.01 3533.50 78.52 4.00 137.86 2640.81
