~Version Information
 VERS.                  2.0:   CWLS log ASCII Standard -VERSION 2.0
 WRAP.                   NO:   One line per depth step
~Well Information Block
#MNEM.UNIT     VALUE/NAME     DESCRIPTION
#---------     -----------    ---------------------------
 STRT.S             18:49:58 09-Sep-20: START TIME 18:49:58 09-Sep-20
 STOP.S             18:58:03 09-Sep-20: STOP TIME  18:58:03 09-Sep-20
 STEP.S                   0.00: STEP TIME
 NULL.                 -999.25: NULL VALUE
 MDS .        Operator Entered:  MAG DATA SOURCE
 PDAT.          Mean Sea Level:  PERMANENT DATUM
 DCON.         Sperry Drilling:  DIRECTNL CONTR
 RIG .              West Azeri:  RIG NAME
 WELL.           C40 (Slot 20):  WELL NAME
 SRVC.     Turan Drilling Engineering:  CONTRACTOR
 FLD .                     ACG:  FIELD NAME
 CTRY.              Azerbaijan:  COUNTRY NAME
 PROV.                    Baku:  PROVINCE
 STAT.                    Baku:  STATE NAME
 REGN.                   EESSA:  REGION
 BASE.              Azerbaijan:  LOGGING EQUIPMENT BASE LOCATION
 COMP.     BP Exploration (Caspian Sea) Ltd:  COMPANY
 WTYP.                Deviated:  WELL TYPE
 SON .        AZ-XX-0906344804:  JOB NUMBER
 FTOP.          Formation Tops:  FORM TOPS DESC
 ILTD.               Lithology:  INTERP LTH DESC
 SVYD.                  Survey:  SURVEY DESC
 DMOD.             Drill Model:  DRILL MOD DESC
 HPTY.       Minimum Curvature:  HOLE POS TYPE
 NREF.                    Grid:  NORTH REFERENCE
 SPUD.               01-Jan-20:  SPUD DATE
 DATE.      00.59.44 15-Sep-20:  END TIME
 STIM.      12.00.00 12-Jun-20:  START TIME
 DMF .             Drill Floor:  DRILL MEAS FROM
 DFST.                        :  DIST FSL TEXT
 DFWT.                        :  DIST FWL TEXT
 API .                        :  API NUMBER
 CNTY.                        :  COUNTY
 UWI .                        :  UNIQUE WELL IDENTIFIER
 LOC .                        :  LOCATION
 LMF .             Drill Floor:  LOG MEASURED FROM
 VSNS.m                   2.88:  VERT SEC N/S
 VSEW.m                  -3.84:  VERT SEC E/W
 AGAP.m                  43.42:  AIR GAP
 APD .m                  43.42:  DEPTH ABOVE PD
 WDMS.m                 118.27:  WD ELEV
 EGL .m                   0.00:  GROUND ELEVATION
 EPD .m                   0.00:  ELEVATION
 AZTC.deg                 6.23:  AZM TOTAL CORR
 GRDC.deg                 0.20:  GRID CORRECTION
 MDEC.deg                 6.43:  MAGNETIC DECL
 MDIP.deg                59.49:  MAGNETIC DIP
 MFLD.nT              50277.00:  MAGNETIC FIELD
 GVFD.g                   1.00:  GRAVITY FIELD
 VSDR.deg               173.20:  VERT SEC DIRECT
 TDD .m                5790.01:  TOTAL DEPTH (DRILLER)
 SDEP.m                5231.01:  START DEPTH
 DFSL.m                   0.00:  DISTANCE FSL
 DFWL.m                   0.00:  DISTANCE FWL
 UTMY.m             4435808.83:  UTM Y
 UTMX.m              526266.40:  UTM X
 WHEW.m                  -3.84:  WELL HEAD E/W
 WHNS.m                   2.88:  WELL HEAD N/S
 LONG.deg                51.31:  LONGITUDE
 LATI.deg                40.06:  LATITUDE
 TVDS.m                  43.42:  TVDSS CORRECTN
 DEP .m                 430.08:  DEPTH
 EKB .m                  43.42:  KB ELEVATION
 EDF .m                  43.42:  DF ELEVATION
 TDL .m                 559.00:  TOTAL DEPTH (LOGGER)
 MAGU.                 1849381:  MAGUTM CHECKSUM
 VSC .                       0:  VS TO CLOSURE
~Parameter Information Block
#MNEM.UNIT       Value        Description
#---------     -----------    ---------------------------
 AV  .mps                 4.87:  Ann Velocity 
 AVMX.mps                 7.08:  Max Ann Veloc 
 AZIF.deg               108.87:  Azm, Final 
 BHAT.                  Rotary:  BHA Type 
 BROT.°/30m               0.35:  Build Rotating 
 BS  .in                  8.50:  Bit Size 
 BSZ .in                  8.50:  Bit Size 
 BTPL.psig              360.00:  Bit Press Loss 
 CABU.                     Yes:  Customer Abuse 
 COMM.                     „T:  Run Comments 1 
 TCS .hr                106.24:  Time Ciculation Ended 
 CV  .mps                 1.77:  Crit Velocity 
 CVMX.mps                 2.03:  Max Crit Veloc 
 DD1 .         Aykhan Agagulov:  Direct Drillr 1 
 DD2 .            Nonso Okofor:  Direct Drillr 2 
 DDSV.               Geo-Pilot:  DD Service 
 DEFF.%                  98.00:  % Det Eff 
 DLRX.°/30m               0.50:  Dogleg Rot Max 
 DLSO.°/30m               0.40:  Dogleg Oriented 
 DLSX.°/30m               0.94:  Dogleg Str Max 
 DRET.      20.30.00 08-Sep-20:  Drill End Time 
 DRST.      22.15.00 06-Sep-20:  Drill Start Tim 
 DTIM.hr                 31.31:  Time Drilling 
 EDEP.m                5790.01:  End Depth 
 ENG1.           Amrah Tahirov:  Engineer 1 
 ENG2.         Dair Mahammadov:  Engineer 2 
 ENG3.           Emil Huseynov:  Engineer 3 
 ETIM.      04.01.04 12-Sep-20:  End Time 
 FLOI.gpm               450.00:  Flow In 
 FLON.gpm               450.00:  Flow In Min 
 FLOS.cptm                2.00:  Fluid Loss 
 FLOX.gpm               450.00:  Flow In Max 
 FTRO.       Formation Presure:  FTWD Run Obj 
 HFLO.                      No:  High Flow 
 HPRE.                      No:  High Pressure 
 HTEM.                      No:  High Temp 
 HYDO.m                   1.80:  Hydro Offset 
 IFIN.deg                72.03:  Inc, Final 
 IMAX.deg                73.72:  Inc Max 
 IMIN.deg                70.94:  Inc Min 
 IMND.m                5508.52:  Inc Min Depth 
 IMXD.m                5253.60:  Inc Max Depth 
 JARR.                      No:  Jarring 
 LETM.      20.30.00 08-Sep-20:  Log End Time 
 LOST.hr                     0:  Lost Rig Time 
 LSTM.      22.15.00 06-Sep-20:  Log Start Time 
 MDCL.ppm             36000.00:  Mud Chlorides 
 MDES.     Inversion Oil/Synthetic:  Mud Desc 
 DFD .sg                  1.44:  Mud Density 
 MDMN.sg                  1.44:  Dens Mud Min 
 MDMX.sg                  1.57:  Dens Mud Max 
 MOIL.                      70:  Run Mud Oil % 
 MOWR.                   70:30:  Run Mud OWR 
 MSND.                       0:  Run Mud Sand % 
 MSOL.                      21:  Run Mud Solids% 
 DFV .spqt               68.00:  Mud Viscosity 
 MWOD.in                  6.75:  MWD Tool OD 
 MWSI.                     Yes:  Serv Intrp, MWD 
 OTIM.hr                174.84:  Time Operating 
 PCON.           Look Like New:  Pad Condition 
 PMAX.psia            10616.93:  Press Op, Max 
 PV  .cP                 50.00:  Mud PV 
 RUN .                     700:  Run Number 
 ROPA.m/hr               14.24:  ROP Avg 
 ROPN.m/hr               10.00:  ROP Min 
 ROPX.m/hr               32.00:  ROP Max 
 RPMA.rpm               120.90:  RPM Surface Avg 
 RPMN.rpm               120.00:  RPM Surface Min 
 RPMX.rpm               140.00:  RPM Surface Max 
 RRUN.                    0700:  Rig Run Number 
 RTIM.hr                  3.20:  Time Reaming 
 SAZI.deg               109.99:  Azm, Start 
 SDEP.m                5231.01:  Start Depth 
 SIDD.                      No:  Serv Intrp, DD 
 SINC.deg                73.72:  Inc, Start 
 SPPA.psig             3051.00:  SPP Avg 
 SPPN.psig             2950.00:  SPP Min 
 SPPX.psig             3250.00:  SPP Max 
 STIM.      08.00.00 05-Sep-20:  Start Time 
 SVCS.                 DD, MWD:  Services 
 SVER.                    9.20:  Sperry Version 
 TDAT.m                 559.00:  Tot Depth Attmp 
 TDDF.                      No:  Trip for DD 
 TDLG.m                 559.00:  Tot Depth Loggd 
 TFF .                      No:  Trip for Fail 
 TQAA.f-kp               26.49:  Torque Abs Avg 
 TQAN.f-kp               25.00:  Torque Abs Min 
 TQAX.f-kp               27.00:  Torque Abs Max 
 TRRT.°/30m               1.50:  Turn Rotating 
 MRT .                    HCIM:  Maximum Recorded Temperature 
 TTMX.degC               90.20:  Max Tool Temp 
 VS01.                90542671:  Virtual Str1 SN 
 VS02.                90545185:  Virtual Str2 SN 
 VS03.                90602015:  Virtual Str3 SN 
 VS04.                90515230:  Virtual Str4 SN 
 WBMN.klb                 5.00:  WOB Min 
 WOBA.klb                14.79:  WOB Avg 
 WOBX.klb                20.00:  WOB Max 
 YP  .lhf2               29.00:  Yield Point 
~Curve Information Block
#MNEM.UNIT                 API CODE     Curve Description
#---------               -----------    ---------------------------
 TIME.HHMMSS            00 000 000 000:  GT Time & Date
 GTDEPTH.m              00 000 000 000:  GT Depth
 GTPQH.psia             00 000 000 000:  GT HR Quartz Pressure
 GTTQ.degC              00 000 000 000:  GT Quartz Temperature
 GTTN.NONE              00 000 000 000:  GT Test Number
 GTET.sec               00 000 000 000:  GT Elapsed Test Time
 GTTVD.m                00 000 000 000:  GT True Vertical Depth
#Other Information
#
#WARRANTY: Halliburton will use its best efforts to furnish customers with 
#accurate information and interpretations that are part of, and incident to, the services 
#provided.  However, Halliburton cannot and does not warrant the accuracy 
#or correctness of such information and interpretations.  Under no circumstances should any 
#such information or interpretation be relied upon as the sole basis for any drilling, 
#completion, production, or financial decision or any procedure involving any risk to the 
#safety of any drilling venture, drilling rig or its crew or any other third party.  The 
#Customer has full responsibility for all drilling, completion and production operation.  
#Halliburton makes no representations or warranties, either expressed or 
#implied, including, but not limited to, the implied warranties of merchantability or fitness 
#for a particular purpose, with respect to the services rendered.  In no event will 
#Halliburton be liable for failure to obtain any particular results or for 
#any damages, including, but not limited to, indirect, special or consequential damages, 
#resulting from the use of any information or interpretation provided by Halliburton.
#
~A           TIME           GTDEPTH  GTPQH  GTTQ  GTTN   GTET   GTTVD  
# ...
   18:52:36.576.09-Sep-2020 5280.51  879.08 74.29 22.00 158.08 2550.44
   18:52:36.776.09-Sep-2020 5280.51  879.41 74.29 22.00 158.28 2550.44
   18:52:36.975.09-Sep-2020 5280.51  879.71 74.29 22.00 158.48 2550.44
   18:52:37.175.09-Sep-2020 5280.51  880.02 74.29 22.00 158.68 2550.44
   18:52:37.375.09-Sep-2020 5280.51  880.35 74.29 22.00 158.88 2550.44
   18:52:37.575.09-Sep-2020 5280.51  880.35 74.29 22.00 159.08 2550.44
   18:52:37.775.09-Sep-2020 5280.51  881.06 74.29 22.00 159.28 2550.44
   18:52:37.975.09-Sep-2020 5280.51  881.38 74.29 22.00 159.47 2550.44
   18:52:38.175.09-Sep-2020 5280.51  881.70 74.29 22.00 159.67 2550.44
   18:52:38.374.09-Sep-2020 5280.51  882.03 74.29 22.00 159.87 2550.44
   18:52:38.574.09-Sep-2020 5280.51  882.03 74.29 22.00 160.07 2550.44
   18:52:38.774.09-Sep-2020 5280.51  882.74 74.29 22.00 160.27 2550.44
   18:52:38.974.09-Sep-2020 5280.51  882.94 74.29 22.00 160.47 2550.44
   18:52:39.174.09-Sep-2020 5280.51  883.27 74.29 22.00 160.67 2550.44
   18:52:39.374.09-Sep-2020 5280.51  883.53 74.29 22.00 160.87 2550.44
   18:52:39.573.09-Sep-2020 5280.51  883.53 74.29 22.00 161.07 2550.44
   18:52:39.773.09-Sep-2020 5280.51  884.28 74.29 22.00 161.27 2550.44
   18:52:39.973.09-Sep-2020 5280.51  884.60 74.29 22.00 161.47 2550.44
   18:52:40.173.09-Sep-2020 5280.51  884.91 74.29 22.00 161.67 2550.44
   18:52:40.373.09-Sep-2020 5280.51  885.19 74.29 22.00 161.87 2550.44
   18:52:40.573.09-Sep-2020 5280.51  885.55 74.29 22.00 162.07 2550.44
   18:52:40.772.09-Sep-2020 5280.51  885.91 74.29 22.00 162.27 2550.44
   18:52:40.972.09-Sep-2020 5280.51  886.26 74.29 22.00 162.47 2550.44
   18:52:41.172.09-Sep-2020 5280.51  886.58 74.29 22.00 162.67 2550.44
   18:52:41.372.09-Sep-2020 5280.51  886.85 74.29 22.00 162.87 2550.44
   18:52:41.572.09-Sep-2020 5280.51  886.85 74.29 22.00 163.07 2550.44
   18:52:41.772.09-Sep-2020 5280.51  887.43 74.29 22.00 163.27 2550.44
   18:52:41.972.09-Sep-2020 5280.51  887.19 74.29 22.00 163.47 2550.44
   18:52:42.171.09-Sep-2020 5280.51  888.08 74.29 22.00 163.67 2550.44
   18:52:42.371.09-Sep-2020 5280.51  888.39 74.29 22.00 163.87 2550.44
   18:52:42.571.09-Sep-2020 5280.51  888.39 74.29 22.00 164.07 2550.44
   18:52:42.771.09-Sep-2020 5280.51  889.16 74.29 22.00 164.27 2550.44
   18:52:42.971.09-Sep-2020 5280.51  888.55 74.29 22.00 164.47 2550.44
   18:52:43.171.09-Sep-2020 5280.51  889.75 74.29 22.00 164.67 2550.44
   18:52:43.370.09-Sep-2020 5280.51  889.95 74.29 22.00 164.87 2550.44
   18:52:43.570.09-Sep-2020 5280.51  889.95 74.29 22.00 165.07 2550.44
   18:52:43.770.09-Sep-2020 5280.51  890.47 74.29 22.00 165.27 2550.44
   18:52:43.970.09-Sep-2020 5280.51  890.92 74.29 22.00 165.47 2550.44
   18:52:44.170.09-Sep-2020 5280.51  890.52 74.29 22.00 165.67 2550.44
   18:52:44.370.09-Sep-2020 5280.51  891.49 74.29 22.00 165.87 2550.44
   18:52:44.570.09-Sep-2020 5280.51  891.83 74.29 22.00 166.07 2550.44
   18:52:44.769.09-Sep-2020 5280.51  892.07 74.29 22.00 166.27 2550.44
   18:52:44.969.09-Sep-2020 5280.51  892.53 74.29 22.00 166.47 2550.44
   18:52:45.169.09-Sep-2020 5280.51  892.69 74.29 22.00 166.67 2550.44
   18:52:45.369.09-Sep-2020 5280.51  891.99 74.29 22.00 166.87 2550.44
   18:52:45.569.09-Sep-2020 5280.51  891.99 74.29 22.00 167.07 2550.44
   18:52:45.769.09-Sep-2020 5280.51  893.67 74.29 22.00 167.27 2550.44
   18:52:45.968.09-Sep-2020 5280.51  893.94 74.29 22.00 167.47 2550.44
   18:52:46.168.09-Sep-2020 5280.51  894.14 74.29 22.00 167.67 2550.44
   18:52:46.368.09-Sep-2020 5280.51  894.70 74.29 22.00 167.87 2550.44
   18:52:46.568.09-Sep-2020 5280.51  894.70 74.29 22.00 168.07 2550.44
   18:52:46.768.09-Sep-2020 5280.51  894.51 74.29 22.00 168.27 2550.44
   18:52:46.968.09-Sep-2020 5280.51  895.44 74.29 22.00 168.47 2550.44
   18:52:47.167.09-Sep-2020 5280.51  895.75 74.29 22.00 168.67 2550.44
   18:52:47.367.09-Sep-2020 5280.51  896.03 74.29 22.00 168.87 2550.44
   18:52:47.567.09-Sep-2020 5280.51  896.03 74.29 22.00 169.07 2550.44
   18:52:47.767.09-Sep-2020 5280.51  896.62 74.29 22.00 169.27 2550.44
   18:52:47.967.09-Sep-2020 5280.51  896.98 74.29 22.00 169.47 2550.44
   18:52:48.167.09-Sep-2020 5280.51  897.28 74.29 22.00 169.67 2550.44
   18:52:48.367.09-Sep-2020 5280.51  897.61 74.29 22.00 169.87 2550.44
   18:52:48.566.09-Sep-2020 5280.51  897.61 74.29 22.00 170.07 2550.44
   18:52:48.766.09-Sep-2020 5280.51  898.15 74.29 22.00 170.27 2550.44
   18:52:48.966.09-Sep-2020 5280.51  898.48 74.29 22.00 170.47 2550.44
   18:52:49.166.09-Sep-2020 5280.51  898.80 74.29 22.00 170.67 2550.44
   18:52:49.366.09-Sep-2020 5280.51  899.10 74.29 22.00 170.87 2550.44
   18:52:49.566.09-Sep-2020 5280.51  899.10 74.29 22.00 171.07 2550.44
   18:52:49.765.09-Sep-2020 5280.51  899.67 74.29 22.00 171.27 2550.44
   18:52:49.965.09-Sep-2020 5280.51  899.98 74.29 22.00 171.47 2550.44
   18:52:50.165.09-Sep-2020 5280.51  900.28 74.29 22.00 171.67 2550.44
   18:52:50.365.09-Sep-2020 5280.51  899.89 74.29 22.00 171.87 2550.44
   18:52:50.565.09-Sep-2020 5280.51  899.89 74.29 22.00 172.07 2550.44
   18:52:50.765.09-Sep-2020 5280.51  901.16 74.29 22.00 172.26 2550.44
   18:52:50.965.09-Sep-2020 5280.51  901.42 74.29 22.00 172.46 2550.44
   18:52:51.164.09-Sep-2020 5280.51  901.83 74.29 22.00 172.66 2550.44
   18:52:51.364.09-Sep-2020 5280.51  902.10 74.29 22.00 172.86 2550.44
   18:52:51.564.09-Sep-2020 5280.51  902.10 74.29 22.00 173.06 2550.44
   18:52:51.764.09-Sep-2020 5280.51  902.58 74.29 22.00 173.26 2550.44
   18:52:51.964.09-Sep-2020 5280.51  902.88 74.29 22.00 173.46 2550.44
   18:52:52.164.09-Sep-2020 5280.51  903.17 74.30 22.00 173.66 2550.44
   18:52:52.363.09-Sep-2020 5280.51  903.52 74.30 22.00 173.86 2550.44
   18:52:52.563.09-Sep-2020 5280.51  903.83 74.30 22.00 174.06 2550.44
   18:52:52.763.09-Sep-2020 5280.51  904.12 74.30 22.00 174.26 2550.44
   18:52:52.963.09-Sep-2020 5280.51  904.35 74.30 22.00 174.46 2550.44
   18:52:53.163.09-Sep-2020 5280.51  904.64 74.30 22.00 174.66 2550.44
   18:52:53.363.09-Sep-2020 5280.51  904.94 74.30 22.00 174.86 2550.44
   18:52:53.562.09-Sep-2020 5280.51  904.94 74.30 22.00 175.06 2550.44
   18:52:53.762.09-Sep-2020 5280.51  900.46 74.30 22.00 175.26 2550.44
   18:52:53.962.09-Sep-2020 5280.51  884.70 74.30 22.00 175.46 2550.44
   18:52:54.162.09-Sep-2020 5280.51  870.77 74.30 22.00 175.66 2550.44
   18:52:54.362.09-Sep-2020 5280.51  825.59 74.30 22.00 175.86 2550.44
   18:52:54.562.09-Sep-2020 5280.51  825.59 74.30 22.00 176.06 2550.44
   18:52:54.762.09-Sep-2020 5280.51  731.77 74.30 22.00 176.26 2550.44
   18:52:54.961.09-Sep-2020 5280.51  695.12 74.30 22.00 176.46 2550.44
   18:52:55.161.09-Sep-2020 5280.51  617.70 74.30 22.00 176.66 2550.44
   18:52:55.361.09-Sep-2020 5280.51  567.88 74.30 22.00 176.86 2550.44
   18:52:55.561.09-Sep-2020 5280.51  567.88 74.30 22.00 177.06 2550.44
   18:52:55.761.09-Sep-2020 5280.51  548.58 74.30 22.00 177.26 2550.44
   18:52:55.961.09-Sep-2020 5280.51  542.27 74.29 22.00 177.46 2550.44
   18:52:56.160.09-Sep-2020 5280.51  534.25 74.29 22.00 177.66 2550.44
   18:52:56.360.09-Sep-2020 5280.51  527.65 74.29 22.00 177.86 2550.44
   18:52:56.560.09-Sep-2020 5280.51  527.65 74.29 22.00 178.06 2550.44
   18:52:56.760.09-Sep-2020 5280.51  518.70 74.29 22.00 178.26 2550.44
   18:52:56.960.09-Sep-2020 5280.51  515.09 74.29 22.00 178.46 2550.44
   18:52:57.160.09-Sep-2020 5280.51  511.11 74.29 22.00 178.66 2550.44
   18:52:57.359.09-Sep-2020 5280.51  507.27 74.29 22.00 178.86 2550.44
   18:52:57.559.09-Sep-2020 5280.51  507.27 74.29 22.00 179.06 2550.44
   18:52:57.759.09-Sep-2020 5280.51  499.92 74.29 22.00 179.26 2550.44
   18:52:57.959.09-Sep-2020 5280.51  496.79 74.29 22.00 179.46 2550.44
   18:52:58.159.09-Sep-2020 5280.51  494.47 74.29 22.00 179.66 2550.44
   18:52:58.359.09-Sep-2020 5280.51  491.74 74.29 22.00 179.86 2550.44
   18:52:58.559.09-Sep-2020 5280.51  491.74 74.29 22.00 180.06 2550.44
   18:52:58.758.09-Sep-2020 5280.51  483.02 74.29 22.00 180.26 2550.44
   18:52:58.958.09-Sep-2020 5280.51  480.33 74.29 22.00 180.46 2550.44
