~Version Information
 VERS.                  2.0:   CWLS log ASCII Standard -VERSION 2.0
 WRAP.                   NO:   One line per depth step
~Well Information Block
#MNEM.UNIT     VALUE/NAME     DESCRIPTION
#---------     -----------    ---------------------------
 STRT.S             18:19:19 09-Sep-20: START TIME 18:19:19 09-Sep-20
 STOP.S             18:27:34 09-Sep-20: STOP TIME  18:27:34 09-Sep-20
 STEP.S                   0.00: STEP TIME
 NULL.                 -999.25: NULL VALUE
 MDS .        Operator Entered:  MAG DATA SOURCE
 PDAT.          Mean Sea Level:  PERMANENT DATUM
 DCON.         Sperry Drilling:  DIRECTNL CONTR
 RIG .              West Azeri:  RIG NAME
 WELL.           C40 (Slot 20):  WELL NAME
 SRVC.     Turan Drilling Engineering:  CONTRACTOR
 FLD .                     ACG:  FIELD NAME
 CTRY.              Azerbaijan:  COUNTRY NAME
 PROV.                    Baku:  PROVINCE
 STAT.                    Baku:  STATE NAME
 REGN.                   EESSA:  REGION
 BASE.              Azerbaijan:  LOGGING EQUIPMENT BASE LOCATION
 COMP.     BP Exploration (Caspian Sea) Ltd:  COMPANY
 WTYP.                Deviated:  WELL TYPE
 SON .        AZ-XX-0906344804:  JOB NUMBER
 FTOP.          Formation Tops:  FORM TOPS DESC
 ILTD.               Lithology:  INTERP LTH DESC
 SVYD.                  Survey:  SURVEY DESC
 DMOD.             Drill Model:  DRILL MOD DESC
 HPTY.       Minimum Curvature:  HOLE POS TYPE
 NREF.                    Grid:  NORTH REFERENCE
 SPUD.               01-Jan-20:  SPUD DATE
 DATE.      00.59.44 15-Sep-20:  END TIME
 STIM.      12.00.00 12-Jun-20:  START TIME
 DMF .             Drill Floor:  DRILL MEAS FROM
 DFST.                        :  DIST FSL TEXT
 DFWT.                        :  DIST FWL TEXT
 API .                        :  API NUMBER
 CNTY.                        :  COUNTY
 UWI .                        :  UNIQUE WELL IDENTIFIER
 LOC .                        :  LOCATION
 LMF .             Drill Floor:  LOG MEASURED FROM
 VSNS.m                   2.88:  VERT SEC N/S
 VSEW.m                  -3.84:  VERT SEC E/W
 AGAP.m                  43.42:  AIR GAP
 APD .m                  43.42:  DEPTH ABOVE PD
 WDMS.m                 118.27:  WD ELEV
 EGL .m                   0.00:  GROUND ELEVATION
 EPD .m                   0.00:  ELEVATION
 AZTC.deg                 6.23:  AZM TOTAL CORR
 GRDC.deg                 0.20:  GRID CORRECTION
 MDEC.deg                 6.43:  MAGNETIC DECL
 MDIP.deg                59.49:  MAGNETIC DIP
 MFLD.nT              50277.00:  MAGNETIC FIELD
 GVFD.g                   1.00:  GRAVITY FIELD
 VSDR.deg               173.20:  VERT SEC DIRECT
 TDD .m                5790.01:  TOTAL DEPTH (DRILLER)
 SDEP.m                5231.01:  START DEPTH
 DFSL.m                   0.00:  DISTANCE FSL
 DFWL.m                   0.00:  DISTANCE FWL
 UTMY.m             4435808.83:  UTM Y
 UTMX.m              526266.40:  UTM X
 WHEW.m                  -3.84:  WELL HEAD E/W
 WHNS.m                   2.88:  WELL HEAD N/S
 LONG.deg                51.31:  LONGITUDE
 LATI.deg                40.06:  LATITUDE
 TVDS.m                  43.42:  TVDSS CORRECTN
 DEP .m                 430.08:  DEPTH
 EKB .m                  43.42:  KB ELEVATION
 EDF .m                  43.42:  DF ELEVATION
 TDL .m                 559.00:  TOTAL DEPTH (LOGGER)
 MAGU.                 1849381:  MAGUTM CHECKSUM
 VSC .                       0:  VS TO CLOSURE
~Parameter Information Block
#MNEM.UNIT       Value        Description
#---------     -----------    ---------------------------
 AV  .mps                 4.87:  Ann Velocity 
 AVMX.mps                 7.08:  Max Ann Veloc 
 AZIF.deg               108.87:  Azm, Final 
 BHAT.                  Rotary:  BHA Type 
 BROT.°/30m               0.35:  Build Rotating 
 BS  .in                  8.50:  Bit Size 
 BSZ .in                  8.50:  Bit Size 
 BTPL.psig              360.00:  Bit Press Loss 
 CABU.                     Yes:  Customer Abuse 
 TCS .hr                106.24:  Time Ciculation Ended 
 CV  .mps                 1.77:  Crit Velocity 
 CVMX.mps                 2.03:  Max Crit Veloc 
 DD1 .         Aykhan Agagulov:  Direct Drillr 1 
 DD2 .            Nonso Okofor:  Direct Drillr 2 
 DDSV.               Geo-Pilot:  DD Service 
 DEFF.%                  98.00:  % Det Eff 
 DLRX.°/30m               0.50:  Dogleg Rot Max 
 DLSO.°/30m               0.40:  Dogleg Oriented 
 DLSX.°/30m               0.94:  Dogleg Str Max 
 DRET.      20.30.00 08-Sep-20:  Drill End Time 
 DRST.      22.15.00 06-Sep-20:  Drill Start Tim 
 DTIM.hr                 31.31:  Time Drilling 
 EDEP.m                5790.01:  End Depth 
 ENG1.           Amrah Tahirov:  Engineer 1 
 ENG2.         Dair Mahammadov:  Engineer 2 
 ENG3.           Emil Huseynov:  Engineer 3 
 ETIM.      04.01.04 12-Sep-20:  End Time 
 FLOI.gpm               450.00:  Flow In 
 FLON.gpm               450.00:  Flow In Min 
 FLOS.cptm                2.00:  Fluid Loss 
 FLOX.gpm               450.00:  Flow In Max 
 FTRO.       Formation Presure:  FTWD Run Obj 
 HFLO.                      No:  High Flow 
 HPRE.                      No:  High Pressure 
 HTEM.                      No:  High Temp 
 HYDO.m                   1.80:  Hydro Offset 
 IFIN.deg                72.03:  Inc, Final 
 IMAX.deg                73.72:  Inc Max 
 IMIN.deg                70.94:  Inc Min 
 IMND.m                5508.52:  Inc Min Depth 
 IMXD.m                5253.60:  Inc Max Depth 
 JARR.                      No:  Jarring 
 LETM.      20.30.00 08-Sep-20:  Log End Time 
 LOST.hr                     0:  Lost Rig Time 
 LSTM.      22.15.00 06-Sep-20:  Log Start Time 
 MDCL.ppm             36000.00:  Mud Chlorides 
 MDES.     Inversion Oil/Synthetic:  Mud Desc 
 DFD .sg                  1.44:  Mud Density 
 MDMN.sg                  1.44:  Dens Mud Min 
 MDMX.sg                  1.57:  Dens Mud Max 
 MOIL.                      70:  Run Mud Oil % 
 MOWR.                   70:30:  Run Mud OWR 
 MSND.                       0:  Run Mud Sand % 
 MSOL.                      21:  Run Mud Solids% 
 DFV .spqt               68.00:  Mud Viscosity 
 MWOD.in                  6.75:  MWD Tool OD 
 MWSI.                     Yes:  Serv Intrp, MWD 
 OTIM.hr                174.84:  Time Operating 
 PCON.           Look Like New:  Pad Condition 
 PMAX.psia            10616.93:  Press Op, Max 
 PV  .cP                 50.00:  Mud PV 
 RUN .                     700:  Run Number 
 ROPA.m/hr               14.24:  ROP Avg 
 ROPN.m/hr               10.00:  ROP Min 
 ROPX.m/hr               32.00:  ROP Max 
 RPMA.rpm               120.90:  RPM Surface Avg 
 RPMN.rpm               120.00:  RPM Surface Min 
 RPMX.rpm               140.00:  RPM Surface Max 
 RRUN.                    0700:  Rig Run Number 
 RTIM.hr                  3.20:  Time Reaming 
 SAZI.deg               109.99:  Azm, Start 
 SDEP.m                5231.01:  Start Depth 
 SIDD.                      No:  Serv Intrp, DD 
 SINC.deg                73.72:  Inc, Start 
 SPPA.psig             3051.00:  SPP Avg 
 SPPN.psig             2950.00:  SPP Min 
 SPPX.psig             3250.00:  SPP Max 
 STIM.      08.00.00 05-Sep-20:  Start Time 
 SVCS.                 DD, MWD:  Services 
 SVER.                    9.20:  Sperry Version 
 TDAT.m                 559.00:  Tot Depth Attmp 
 TDDF.                      No:  Trip for DD 
 TDLG.m                 559.00:  Tot Depth Loggd 
 TFF .                      No:  Trip for Fail 
 TQAA.f-kp               26.49:  Torque Abs Avg 
 TQAN.f-kp               25.00:  Torque Abs Min 
 TQAX.f-kp               27.00:  Torque Abs Max 
 TRRT.°/30m               1.50:  Turn Rotating 
 MRT .                    HCIM:  Maximum Recorded Temperature 
 TTMX.degC               90.20:  Max Tool Temp 
 VS01.                90542671:  Virtual Str1 SN 
 VS02.                90545185:  Virtual Str2 SN 
 VS03.                90602015:  Virtual Str3 SN 
 VS04.                90515230:  Virtual Str4 SN 
 WBMN.klb                 5.00:  WOB Min 
 WOBA.klb                14.79:  WOB Avg 
 WOBX.klb                20.00:  WOB Max 
 YP  .lhf2               29.00:  Yield Point 
~Curve Information Block
#MNEM.UNIT                 API CODE     Curve Description
#---------               -----------    ---------------------------
 TIME.HHMMSS            00 000 000 000:  GT Time & Date
 GTDEPTH.m              00 000 000 000:  GT Depth
 GTPQH.psia             00 000 000 000:  GT HR Quartz Pressure
 GTTQ.degC              00 000 000 000:  GT Quartz Temperature
 GTTN.NONE              00 000 000 000:  GT Test Number
 GTET.sec               00 000 000 000:  GT Elapsed Test Time
 GTTVD.m                00 000 000 000:  GT True Vertical Depth
#Other Information
#
#WARRANTY: Halliburton will use its best efforts to furnish customers with 
#accurate information and interpretations that are part of, and incident to, the services 
#provided.  However, Halliburton cannot and does not warrant the accuracy 
#or correctness of such information and interpretations.  Under no circumstances should any 
#such information or interpretation be relied upon as the sole basis for any drilling, 
#completion, production, or financial decision or any procedure involving any risk to the 
#safety of any drilling venture, drilling rig or its crew or any other third party.  The 
#Customer has full responsibility for all drilling, completion and production operation.  
#Halliburton makes no representations or warranties, either expressed or 
#implied, including, but not limited to, the implied warranties of merchantability or fitness 
#for a particular purpose, with respect to the services rendered.  In no event will 
#Halliburton be liable for failure to obtain any particular results or for 
#any damages, including, but not limited to, indirect, special or consequential damages, 
#resulting from the use of any information or interpretation provided by Halliburton.
#
~A           TIME           GTDEPTH  GTPQH  GTTQ  GTTN   GTET   GTTVD  
# ...
   18:21:35.436.09-Sep-2020 5281.01 4060.27 74.58 21.00 135.49 2550.59
   18:21:35.636.09-Sep-2020 5281.01 4060.94 74.58 21.00 135.69 2550.59
   18:21:35.835.09-Sep-2020 5281.01 4061.29 74.58 21.00 135.89 2550.59
   18:21:36.035.09-Sep-2020 5281.01 4061.29 74.58 21.00 136.09 2550.59
   18:21:36.235.09-Sep-2020 5281.01 4061.67 74.58 21.00 136.29 2550.59
   18:21:36.435.09-Sep-2020 5281.01 4061.89 74.58 21.00 136.49 2550.59
   18:21:36.635.09-Sep-2020 5281.01 4061.13 74.58 21.00 136.69 2550.59
   18:21:36.835.09-Sep-2020 5281.01 4061.14 74.58 21.00 136.89 2550.59
   18:21:37.035.09-Sep-2020 5281.01 4061.14 74.58 21.00 137.09 2550.59
   18:21:37.234.09-Sep-2020 5281.01 4061.92 74.58 21.00 137.29 2550.59
   18:21:37.434.09-Sep-2020 5281.01 4062.08 74.58 21.00 137.49 2550.59
   18:21:37.634.09-Sep-2020 5281.01 4062.29 74.58 21.00 137.69 2550.59
   18:21:37.834.09-Sep-2020 5281.01 4062.16 74.58 21.00 137.89 2550.59
   18:21:38.034.09-Sep-2020 5281.01 4062.16 74.58 21.00 138.09 2550.59
   18:21:38.234.09-Sep-2020 5281.01 4061.02 74.58 21.00 138.29 2550.59
   18:21:38.433.09-Sep-2020 5281.01 4061.63 74.58 21.00 138.49 2550.59
   18:21:38.633.09-Sep-2020 5281.01 4062.19 74.58 21.00 138.69 2550.59
   18:21:38.833.09-Sep-2020 5281.01 4062.36 74.58 21.00 138.89 2550.59
   18:21:39.033.09-Sep-2020 5281.01 4062.36 74.58 21.00 139.09 2550.59
   18:21:39.233.09-Sep-2020 5281.01 4062.69 74.58 21.00 139.29 2550.59
   18:21:39.433.09-Sep-2020 5281.01 4062.60 74.58 21.00 139.49 2550.59
   18:21:39.633.09-Sep-2020 5281.01 4061.43 74.58 21.00 139.69 2550.59
   18:21:39.832.09-Sep-2020 5281.01 4062.00 74.58 21.00 139.89 2550.59
   18:21:40.032.09-Sep-2020 5281.01 4062.00 74.58 21.00 140.09 2550.59
   18:21:40.232.09-Sep-2020 5281.01 4062.78 74.58 21.00 140.29 2550.59
   18:21:40.432.09-Sep-2020 5281.01 4063.10 74.58 21.00 140.49 2550.59
   18:21:40.632.09-Sep-2020 5281.01 4062.88 74.58 21.00 140.69 2550.59
   18:21:40.832.09-Sep-2020 5281.01 4062.88 74.58 21.00 140.89 2550.59
   18:21:41.031.09-Sep-2020 5281.01 4062.88 74.58 21.00 141.09 2550.59
   18:21:41.231.09-Sep-2020 5281.01 4062.83 74.58 21.00 141.29 2550.59
   18:21:41.431.09-Sep-2020 5281.01 4062.79 74.58 21.00 141.49 2550.59
   18:21:41.631.09-Sep-2020 5281.01 4062.79 74.58 21.00 141.69 2550.59
   18:21:41.831.09-Sep-2020 5281.01 4062.72 74.58 21.00 141.89 2550.59
   18:21:42.031.09-Sep-2020 5281.01 4062.65 74.58 21.00 142.09 2550.59
   18:21:42.230.09-Sep-2020 5281.01 4062.67 74.58 21.00 142.29 2550.59
   18:21:42.430.09-Sep-2020 5281.01 4062.62 74.58 21.00 142.49 2550.59
   18:21:42.630.09-Sep-2020 5281.01 4062.57 74.58 21.00 142.69 2550.59
   18:21:42.830.09-Sep-2020 5281.01 4062.49 74.58 21.00 142.89 2550.59
   18:21:43.030.09-Sep-2020 5281.01 4062.49 74.58 21.00 143.09 2550.59
   18:21:43.230.09-Sep-2020 5281.01 4061.73 74.58 21.00 143.29 2550.59
   18:21:43.430.09-Sep-2020 5281.01 4061.50 74.58 21.00 143.49 2550.59
   18:21:43.629.09-Sep-2020 5281.01 4061.79 74.58 21.00 143.69 2550.59
   18:21:43.829.09-Sep-2020 5281.01 4062.19 74.58 21.00 143.89 2550.59
   18:21:44.029.09-Sep-2020 5281.01 4062.22 74.58 21.00 144.09 2550.59
   18:21:44.229.09-Sep-2020 5281.01 4062.39 74.58 21.00 144.29 2550.59
   18:21:44.429.09-Sep-2020 5281.01 4062.27 74.58 21.00 144.49 2550.59
   18:21:44.629.09-Sep-2020 5281.01 4062.34 74.58 21.00 144.69 2550.59
   18:21:44.828.09-Sep-2020 5281.01 4062.42 74.58 21.00 144.89 2550.59
   18:21:45.028.09-Sep-2020 5281.01 4062.42 74.58 21.00 145.09 2550.59
   18:21:45.228.09-Sep-2020 5281.01 4062.34 74.58 21.00 145.29 2550.59
   18:21:45.428.09-Sep-2020 5281.01 4062.25 74.58 21.00 145.49 2550.59
   18:21:45.628.09-Sep-2020 5281.01 4062.24 74.58 21.00 145.69 2550.59
   18:21:45.828.09-Sep-2020 5281.01 4062.25 74.58 21.00 145.89 2550.59
   18:21:46.027.09-Sep-2020 5281.01 4062.25 74.58 21.00 146.09 2550.59
   18:21:46.227.09-Sep-2020 5281.01 4062.30 74.58 21.00 146.29 2550.59
   18:21:46.427.09-Sep-2020 5281.01 4062.25 74.58 21.00 146.49 2550.59
   18:21:46.627.09-Sep-2020 5281.01 4060.67 74.58 21.00 146.68 2550.59
   18:21:46.827.09-Sep-2020 5281.01 4061.91 74.58 21.00 146.88 2550.59
   18:21:47.027.09-Sep-2020 5281.01 4061.91 74.58 21.00 147.08 2550.59
   18:21:47.227.09-Sep-2020 5281.01 4062.08 74.58 21.00 147.28 2550.59
   18:21:47.426.09-Sep-2020 5281.01 4062.12 74.58 21.00 147.48 2550.59
   18:21:47.626.09-Sep-2020 5281.01 4062.54 74.58 21.00 147.68 2550.59
   18:21:47.826.09-Sep-2020 5281.01 4061.18 74.58 21.00 147.88 2550.59
   18:21:48.026.09-Sep-2020 5281.01 4061.18 74.58 21.00 148.08 2550.59
   18:21:48.226.09-Sep-2020 5281.01 4062.07 74.58 21.00 148.28 2550.59
   18:21:48.426.09-Sep-2020 5281.01 4062.26 74.58 21.00 148.48 2550.59
   18:21:48.625.09-Sep-2020 5281.01 4062.43 74.58 21.00 148.68 2550.59
   18:21:48.825.09-Sep-2020 5281.01 4062.69 74.58 21.00 148.88 2550.59
   18:21:49.025.09-Sep-2020 5281.01 4062.69 74.58 21.00 149.08 2550.59
   18:21:49.225.09-Sep-2020 5281.01 4061.71 74.58 21.00 149.28 2550.59
   18:21:49.425.09-Sep-2020 5281.01 4062.06 74.58 21.00 149.48 2550.59
   18:21:49.625.09-Sep-2020 5281.01 4062.57 74.58 21.00 149.68 2550.59
   18:21:49.825.09-Sep-2020 5281.01 4062.72 74.58 21.00 149.88 2550.59
   18:21:50.024.09-Sep-2020 5281.01 4062.72 74.58 21.00 150.08 2550.59
   18:21:50.224.09-Sep-2020 5281.01 4062.91 74.58 21.00 150.28 2550.59
   18:21:50.424.09-Sep-2020 5281.01 4063.03 74.58 21.00 150.48 2550.59
   18:21:50.624.09-Sep-2020 5281.01 4061.46 74.58 21.00 150.68 2550.59
   18:21:50.824.09-Sep-2020 5281.01 4062.45 74.58 21.00 150.88 2550.59
   18:21:51.024.09-Sep-2020 5281.01 4062.45 74.58 21.00 151.08 2550.59
   18:21:51.223.09-Sep-2020 5281.01 4062.64 74.58 21.00 151.28 2550.59
   18:21:51.423.09-Sep-2020 5281.01 4062.64 74.58 21.00 151.48 2550.59
   18:21:51.623.09-Sep-2020 5281.01 4063.09 74.58 21.00 151.68 2550.59
   18:21:51.823.09-Sep-2020 5281.01 4062.29 74.58 21.00 151.88 2550.59
   18:21:52.023.09-Sep-2020 5281.01 4062.29 74.58 21.00 152.08 2550.59
   18:21:52.223.09-Sep-2020 5281.01 4062.18 74.58 21.00 152.28 2550.59
   18:21:52.422.09-Sep-2020 5281.01 4062.69 74.58 21.00 152.48 2550.59
   18:21:52.622.09-Sep-2020 5281.01 4063.02 74.58 21.00 152.68 2550.59
   18:21:52.822.09-Sep-2020 5281.01 4063.32 74.58 21.00 152.88 2550.59
   18:21:53.022.09-Sep-2020 5281.01 4063.32 74.58 21.00 153.08 2550.59
   18:21:53.222.09-Sep-2020 5281.01 4063.18 74.58 21.00 153.28 2550.59
   18:21:53.422.09-Sep-2020 5281.01 4063.24 74.58 21.00 153.48 2550.59
   18:21:53.622.09-Sep-2020 5281.01 4063.24 74.58 21.00 153.68 2550.59
   18:21:53.821.09-Sep-2020 5281.01 4063.27 74.58 21.00 153.88 2550.59
   18:21:54.021.09-Sep-2020 5281.01 4063.27 74.58 21.00 154.08 2550.59
   18:21:54.221.09-Sep-2020 5281.01 4063.25 74.58 21.00 154.28 2550.59
   18:21:54.421.09-Sep-2020 5281.01 4063.18 74.58 21.00 154.48 2550.59
   18:21:54.621.09-Sep-2020 5281.01 4063.14 74.58 21.00 154.68 2550.59
   18:21:54.821.09-Sep-2020 5281.01 4063.13 74.58 21.00 154.88 2550.59
   18:21:55.020.09-Sep-2020 5281.01 4063.13 74.58 21.00 155.08 2550.59
   18:21:55.220.09-Sep-2020 5281.01 4063.08 74.58 21.00 155.28 2550.59
   18:21:55.420.09-Sep-2020 5281.01 4063.07 74.58 21.00 155.48 2550.59
   18:21:55.620.09-Sep-2020 5281.01 4061.48 74.58 21.00 155.68 2550.59
   18:21:55.820.09-Sep-2020 5281.01 4062.19 74.58 21.00 155.88 2550.59
   18:21:56.020.09-Sep-2020 5281.01 4062.19 74.58 21.00 156.08 2550.59
   18:21:56.219.09-Sep-2020 5281.01 4062.42 74.58 21.00 156.28 2550.59
   18:21:56.419.09-Sep-2020 5281.01 4062.43 74.58 21.00 156.48 2550.59
   18:21:56.619.09-Sep-2020 5281.01 4062.82 74.58 21.00 156.68 2550.59
   18:21:56.819.09-Sep-2020 5281.01 4062.73 74.58 21.00 156.88 2550.59
   18:21:57.019.09-Sep-2020 5281.01 4062.73 74.58 21.00 157.08 2550.59
   18:21:57.219.09-Sep-2020 5281.01 4062.88 74.58 21.00 157.28 2550.59
   18:21:57.419.09-Sep-2020 5281.01 4062.93 74.58 21.00 157.48 2550.59
   18:21:57.618.09-Sep-2020 5281.01 4062.87 74.58 21.00 157.68 2550.59
   18:21:57.818.09-Sep-2020 5281.01 4062.78 74.58 21.00 157.88 2550.59
