~Version Information
 VERS.                  2.0:   CWLS log ASCII Standard -VERSION 2.0
 WRAP.                   NO:   One line per depth step
~Well Information Block
#MNEM.UNIT     VALUE/NAME     DESCRIPTION
#---------     -----------    ---------------------------
 STRT.S             14:18:02 09-Sep-20: START TIME 14:18:02 09-Sep-20
 STOP.S             14:26:13 09-Sep-20: STOP TIME  14:26:13 09-Sep-20
 STEP.S                   0.00: STEP TIME
 NULL.                 -999.25: NULL VALUE
 MDS .        Operator Entered:  MAG DATA SOURCE
 PDAT.          Mean Sea Level:  PERMANENT DATUM
 DCON.         Sperry Drilling:  DIRECTNL CONTR
 RIG .              West Azeri:  RIG NAME
 WELL.           C40 (Slot 20):  WELL NAME
 SRVC.     Turan Drilling Engineering:  CONTRACTOR
 FLD .                     ACG:  FIELD NAME
 CTRY.              Azerbaijan:  COUNTRY NAME
 PROV.                    Baku:  PROVINCE
 STAT.                    Baku:  STATE NAME
 REGN.                   EESSA:  REGION
 BASE.              Azerbaijan:  LOGGING EQUIPMENT BASE LOCATION
 COMP.     BP Exploration (Caspian Sea) Ltd:  COMPANY
 WTYP.                Deviated:  WELL TYPE
 SON .        AZ-XX-0906344804:  JOB NUMBER
 FTOP.          Formation Tops:  FORM TOPS DESC
 ILTD.               Lithology:  INTERP LTH DESC
 SVYD.                  Survey:  SURVEY DESC
 DMOD.             Drill Model:  DRILL MOD DESC
 HPTY.       Minimum Curvature:  HOLE POS TYPE
 NREF.                    Grid:  NORTH REFERENCE
 SPUD.               01-Jan-20:  SPUD DATE
 DATE.      00.59.44 15-Sep-20:  END TIME
 STIM.      12.00.00 12-Jun-20:  START TIME
 DMF .             Drill Floor:  DRILL MEAS FROM
 DFST.                        :  DIST FSL TEXT
 DFWT.                        :  DIST FWL TEXT
 API .                        :  API NUMBER
 CNTY.                        :  COUNTY
 UWI .                        :  UNIQUE WELL IDENTIFIER
 LOC .                        :  LOCATION
 LMF .             Drill Floor:  LOG MEASURED FROM
 VSNS.m                   2.88:  VERT SEC N/S
 VSEW.m                  -3.84:  VERT SEC E/W
 AGAP.m                  43.42:  AIR GAP
 APD .m                  43.42:  DEPTH ABOVE PD
 WDMS.m                 118.27:  WD ELEV
 EGL .m                   0.00:  GROUND ELEVATION
 EPD .m                   0.00:  ELEVATION
 AZTC.deg                 6.23:  AZM TOTAL CORR
 GRDC.deg                 0.20:  GRID CORRECTION
 MDEC.deg                 6.43:  MAGNETIC DECL
 MDIP.deg                59.49:  MAGNETIC DIP
 MFLD.nT              50277.00:  MAGNETIC FIELD
 GVFD.g                   1.00:  GRAVITY FIELD
 VSDR.deg               173.20:  VERT SEC DIRECT
 TDD .m                5790.01:  TOTAL DEPTH (DRILLER)
 SDEP.m                5231.01:  START DEPTH
 DFSL.m                   0.00:  DISTANCE FSL
 DFWL.m                   0.00:  DISTANCE FWL
 UTMY.m             4435808.83:  UTM Y
 UTMX.m              526266.40:  UTM X
 WHEW.m                  -3.84:  WELL HEAD E/W
 WHNS.m                   2.88:  WELL HEAD N/S
 LONG.deg                51.31:  LONGITUDE
 LATI.deg                40.06:  LATITUDE
 TVDS.m                  43.42:  TVDSS CORRECTN
 DEP .m                 430.08:  DEPTH
 EKB .m                  43.42:  KB ELEVATION
 EDF .m                  43.42:  DF ELEVATION
 TDL .m                 559.00:  TOTAL DEPTH (LOGGER)
 MAGU.                 1849381:  MAGUTM CHECKSUM
 VSC .                       0:  VS TO CLOSURE
~Parameter Information Block
#MNEM.UNIT       Value        Description
#---------     -----------    ---------------------------
 AV  .mps                 4.87:  Ann Velocity 
 AVMX.mps                 7.08:  Max Ann Veloc 
 AZIF.deg               108.87:  Azm, Final 
 BHAT.                  Rotary:  BHA Type 
 BROT.°/30m               0.35:  Build Rotating 
 BS  .in                  8.50:  Bit Size 
 BSZ .in                  8.50:  Bit Size 
 BTPL.psig              360.00:  Bit Press Loss 
 CABU.                     Yes:  Customer Abuse 
 TCS .hr                106.24:  Time Ciculation Ended 
 CV  .mps                 1.77:  Crit Velocity 
 CVMX.mps                 2.03:  Max Crit Veloc 
 DD1 .         Aykhan Agagulov:  Direct Drillr 1 
 DD2 .            Nonso Okofor:  Direct Drillr 2 
 DDSV.               Geo-Pilot:  DD Service 
 DEFF.%                  98.00:  % Det Eff 
 DLRX.°/30m               0.50:  Dogleg Rot Max 
 DLSO.°/30m               0.40:  Dogleg Oriented 
 DLSX.°/30m               0.94:  Dogleg Str Max 
 DRET.      20.30.00 08-Sep-20:  Drill End Time 
 DRST.      22.15.00 06-Sep-20:  Drill Start Tim 
 DTIM.hr                 31.31:  Time Drilling 
 EDEP.m                5790.01:  End Depth 
 ENG1.           Amrah Tahirov:  Engineer 1 
 ENG2.         Dair Mahammadov:  Engineer 2 
 ENG3.           Emil Huseynov:  Engineer 3 
 ETIM.      04.01.04 12-Sep-20:  End Time 
 FLOI.gpm               450.00:  Flow In 
 FLON.gpm               450.00:  Flow In Min 
 FLOS.cptm                2.00:  Fluid Loss 
 FLOX.gpm               450.00:  Flow In Max 
 FTRO.       Formation Presure:  FTWD Run Obj 
 HFLO.                      No:  High Flow 
 HPRE.                      No:  High Pressure 
 HTEM.                      No:  High Temp 
 HYDO.m                   1.80:  Hydro Offset 
 IFIN.deg                72.03:  Inc, Final 
 IMAX.deg                73.72:  Inc Max 
 IMIN.deg                70.94:  Inc Min 
 IMND.m                5508.52:  Inc Min Depth 
 IMXD.m                5253.60:  Inc Max Depth 
 JARR.                      No:  Jarring 
 LETM.      20.30.00 08-Sep-20:  Log End Time 
 LOST.hr                     0:  Lost Rig Time 
 LSTM.      22.15.00 06-Sep-20:  Log Start Time 
 MDCL.ppm             36000.00:  Mud Chlorides 
 MDES.     Inversion Oil/Synthetic:  Mud Desc 
 DFD .sg                  1.44:  Mud Density 
 MDMN.sg                  1.44:  Dens Mud Min 
 MDMX.sg                  1.57:  Dens Mud Max 
 MOIL.                      70:  Run Mud Oil % 
 MOWR.                   70:30:  Run Mud OWR 
 MSND.                       0:  Run Mud Sand % 
 MSOL.                      21:  Run Mud Solids% 
 DFV .spqt               68.00:  Mud Viscosity 
 MWOD.in                  6.75:  MWD Tool OD 
 MWSI.                     Yes:  Serv Intrp, MWD 
 OTIM.hr                174.84:  Time Operating 
 PCON.           Look Like New:  Pad Condition 
 PMAX.psia            10616.93:  Press Op, Max 
 PV  .cP                 50.00:  Mud PV 
 RUN .                     700:  Run Number 
 ROPA.m/hr               14.24:  ROP Avg 
 ROPN.m/hr               10.00:  ROP Min 
 ROPX.m/hr               32.00:  ROP Max 
 RPMA.rpm               120.90:  RPM Surface Avg 
 RPMN.rpm               120.00:  RPM Surface Min 
 RPMX.rpm               140.00:  RPM Surface Max 
 RRUN.                    0700:  Rig Run Number 
 RTIM.hr                  3.20:  Time Reaming 
 SAZI.deg               109.99:  Azm, Start 
 SDEP.m                5231.01:  Start Depth 
 SIDD.                      No:  Serv Intrp, DD 
 SINC.deg                73.72:  Inc, Start 
 SPPA.psig             3051.00:  SPP Avg 
 SPPN.psig             2950.00:  SPP Min 
 SPPX.psig             3250.00:  SPP Max 
 STIM.      08.00.00 05-Sep-20:  Start Time 
 SVCS.                 DD, MWD:  Services 
 SVER.                    9.20:  Sperry Version 
 TDAT.m                 559.00:  Tot Depth Attmp 
 TDDF.                      No:  Trip for DD 
 TDLG.m                 559.00:  Tot Depth Loggd 
 TFF .                      No:  Trip for Fail 
 TQAA.f-kp               26.49:  Torque Abs Avg 
 TQAN.f-kp               25.00:  Torque Abs Min 
 TQAX.f-kp               27.00:  Torque Abs Max 
 TRRT.°/30m               1.50:  Turn Rotating 
 MRT .                    HCIM:  Maximum Recorded Temperature 
 TTMX.degC               90.20:  Max Tool Temp 
 VS01.                90542671:  Virtual Str1 SN 
 VS02.                90545185:  Virtual Str2 SN 
 VS03.                90602015:  Virtual Str3 SN 
 VS04.                90515230:  Virtual Str4 SN 
 WBMN.klb                 5.00:  WOB Min 
 WOBA.klb                14.79:  WOB Avg 
 WOBX.klb                20.00:  WOB Max 
 YP  .lhf2               29.00:  Yield Point 
~Curve Information Block
#MNEM.UNIT                 API CODE     Curve Description
#---------               -----------    ---------------------------
 TIME.HHMMSS            00 000 000 000:  GT Time & Date
 GTDEPTH.m              00 000 000 000:  GT Depth
 GTPQH.psia             00 000 000 000:  GT HR Quartz Pressure
 GTTQ.degC              00 000 000 000:  GT Quartz Temperature
 GTTN.NONE              00 000 000 000:  GT Test Number
 GTET.sec               00 000 000 000:  GT Elapsed Test Time
 GTTVD.m                00 000 000 000:  GT True Vertical Depth
#Other Information
#
#WARRANTY: Halliburton will use its best efforts to furnish customers with 
#accurate information and interpretations that are part of, and incident to, the services 
#provided.  However, Halliburton cannot and does not warrant the accuracy 
#or correctness of such information and interpretations.  Under no circumstances should any 
#such information or interpretation be relied upon as the sole basis for any drilling, 
#completion, production, or financial decision or any procedure involving any risk to the 
#safety of any drilling venture, drilling rig or its crew or any other third party.  The 
#Customer has full responsibility for all drilling, completion and production operation.  
#Halliburton makes no representations or warranties, either expressed or 
#implied, including, but not limited to, the implied warranties of merchantability or fitness 
#for a particular purpose, with respect to the services rendered.  In no event will 
#Halliburton be liable for failure to obtain any particular results or for 
#any damages, including, but not limited to, indirect, special or consequential damages, 
#resulting from the use of any information or interpretation provided by Halliburton.
#
~A           TIME           GTDEPTH  GTPQH  GTTQ  GTTN   GTET   GTTVD  
# ...
   14:22:56.200.09-Sep-2020 5408.01  725.39 75.20 16.00 293.98 2589.60
   14:22:56.400.09-Sep-2020 5408.01  725.54 75.20 16.00 294.18 2589.60
   14:22:56.600.09-Sep-2020 5408.01  725.54 75.20 16.00 294.38 2589.60
   14:22:56.801.09-Sep-2020 5408.01  725.77 75.20 16.00 294.58 2589.60
   14:22:57.001.09-Sep-2020 5408.01  725.94 75.20 16.00 294.78 2589.60
   14:22:57.201.09-Sep-2020 5408.01  726.09 75.20 16.00 294.98 2589.60
   14:22:57.401.09-Sep-2020 5408.01  725.33 75.20 16.00 295.18 2589.60
   14:22:57.601.09-Sep-2020 5408.01  725.33 75.20 16.00 295.38 2589.60
   14:22:57.801.09-Sep-2020 5408.01  726.68 75.20 16.00 295.58 2589.60
   14:22:58.001.09-Sep-2020 5408.01  726.88 75.20 16.00 295.78 2589.60
   14:22:58.201.09-Sep-2020 5408.01  726.80 75.20 16.00 295.98 2589.60
   14:22:58.402.09-Sep-2020 5408.01  727.21 75.20 16.00 296.18 2589.60
   14:22:58.602.09-Sep-2020 5408.01  726.72 75.20 16.00 296.38 2589.60
   14:22:58.802.09-Sep-2020 5408.01  727.45 75.20 16.00 296.58 2589.60
   14:22:59.002.09-Sep-2020 5408.01  727.56 75.20 16.00 296.78 2589.60
   14:22:59.202.09-Sep-2020 5408.01  727.73 75.20 16.00 296.98 2589.60
   14:22:59.402.09-Sep-2020 5408.01  728.04 75.20 16.00 297.18 2589.60
   14:22:59.602.09-Sep-2020 5408.01  728.04 75.20 16.00 297.38 2589.60
   14:22:59.802.09-Sep-2020 5408.01  727.56 75.20 16.00 297.58 2589.60
   14:23:00.003.09-Sep-2020 5408.01  728.44 75.20 16.00 297.78 2589.60
   14:23:00.203.09-Sep-2020 5408.01  728.79 75.20 16.00 297.98 2589.60
   14:23:00.403.09-Sep-2020 5408.01  728.80 75.21 16.00 298.18 2589.60
   14:23:00.603.09-Sep-2020 5408.01  728.80 75.21 16.00 298.38 2589.60
   14:23:00.803.09-Sep-2020 5408.01  729.25 75.21 16.00 298.58 2589.60
   14:23:01.003.09-Sep-2020 5408.01  729.24 75.20 16.00 298.78 2589.60
   14:23:01.203.09-Sep-2020 5408.01  728.43 75.20 16.00 298.98 2589.60
   14:23:01.403.09-Sep-2020 5408.01  729.75 75.21 16.00 299.18 2589.60
   14:23:01.604.09-Sep-2020 5408.01  729.75 75.21 16.00 299.38 2589.60
   14:23:01.804.09-Sep-2020 5408.01  730.08 75.20 16.00 299.58 2589.60
   14:23:02.004.09-Sep-2020 5408.01  729.94 75.21 16.00 299.78 2589.60
   14:23:02.204.09-Sep-2020 5408.01  730.31 75.20 16.00 299.98 2589.60
   14:23:02.404.09-Sep-2020 5408.01  729.84 75.21 16.00 300.18 2589.60
   14:23:02.604.09-Sep-2020 5408.01  729.84 75.21 16.00 300.38 2589.60
   14:23:02.804.09-Sep-2020 5408.01  730.68 75.21 16.00 300.58 2589.60
   14:23:03.004.09-Sep-2020 5408.01  730.77 75.21 16.00 300.78 2589.60
   14:23:03.205.09-Sep-2020 5408.01  731.33 75.21 16.00 300.98 2589.60
   14:23:03.405.09-Sep-2020 5408.01  731.21 75.21 16.00 301.18 2589.60
   14:23:03.605.09-Sep-2020 5408.01  731.21 75.21 16.00 301.38 2589.60
   14:23:03.805.09-Sep-2020 5408.01  731.49 75.21 16.00 301.58 2589.60
   14:23:04.005.09-Sep-2020 5408.01  731.77 75.21 16.00 301.78 2589.60
   14:23:04.205.09-Sep-2020 5408.01  731.83 75.21 16.00 301.98 2589.60
   14:23:04.405.09-Sep-2020 5408.01  731.90 75.21 16.00 302.18 2589.60
   14:23:04.605.09-Sep-2020 5408.01  731.90 75.21 16.00 302.38 2589.60
   14:23:04.805.09-Sep-2020 5408.01  732.28 75.21 16.00 302.58 2589.60
   14:23:05.006.09-Sep-2020 5408.01  732.45 75.21 16.00 302.79 2589.60
   14:23:05.206.09-Sep-2020 5408.01  732.62 75.21 16.00 302.99 2589.60
   14:23:05.406.09-Sep-2020 5408.01  732.78 75.21 16.00 303.19 2589.60
   14:23:05.606.09-Sep-2020 5408.01  732.78 75.21 16.00 303.39 2589.60
   14:23:05.806.09-Sep-2020 5408.01  733.05 75.21 16.00 303.59 2589.60
   14:23:06.006.09-Sep-2020 5408.01  732.65 75.21 16.00 303.79 2589.60
   14:23:06.206.09-Sep-2020 5408.01  733.30 75.21 16.00 303.99 2589.60
   14:23:06.406.09-Sep-2020 5408.01  733.52 75.21 16.00 304.19 2589.60
   14:23:06.607.09-Sep-2020 5408.01  733.77 75.21 16.00 304.39 2589.60
   14:23:06.807.09-Sep-2020 5408.01  734.02 75.21 16.00 304.59 2589.60
   14:23:07.007.09-Sep-2020 5408.01  734.05 75.21 16.00 304.79 2589.60
   14:23:07.207.09-Sep-2020 5408.01  734.14 75.21 16.00 304.99 2589.60
   14:23:07.407.09-Sep-2020 5408.01  734.31 75.21 16.00 305.19 2589.60
   14:23:07.607.09-Sep-2020 5408.01  734.31 75.21 16.00 305.39 2589.60
   14:23:07.807.09-Sep-2020 5408.01  734.53 75.21 16.00 305.59 2589.60
   14:23:08.007.09-Sep-2020 5408.01  734.70 75.21 16.00 305.79 2589.60
   14:23:08.208.09-Sep-2020 5408.01  734.90 75.21 16.00 305.99 2589.60
   14:23:08.408.09-Sep-2020 5408.01  735.05 75.21 16.00 306.19 2589.60
   14:23:08.608.09-Sep-2020 5408.01  735.05 75.21 16.00 306.39 2589.60
   14:23:08.808.09-Sep-2020 5408.01  735.27 75.21 16.00 306.59 2589.60
   14:23:09.008.09-Sep-2020 5408.01  735.41 75.21 16.00 306.79 2589.60
   14:23:09.208.09-Sep-2020 5408.01  735.01 75.21 16.00 306.99 2589.60
   14:23:09.408.09-Sep-2020 5408.01  735.71 75.21 16.00 307.19 2589.60
   14:23:09.608.09-Sep-2020 5408.01  735.71 75.21 16.00 307.39 2589.60
   14:23:09.809.09-Sep-2020 5408.01  736.11 75.21 16.00 307.59 2589.60
   14:23:10.009.09-Sep-2020 5408.01  736.34 75.21 16.00 307.79 2589.60
   14:23:10.209.09-Sep-2020 5408.01  736.39 75.21 16.00 307.99 2589.60
   14:23:10.409.09-Sep-2020 5408.01  735.94 75.21 16.00 308.19 2589.60
   14:23:10.609.09-Sep-2020 5408.01  736.84 75.21 16.00 308.39 2589.60
   14:23:10.809.09-Sep-2020 5408.01  736.95 75.21 16.00 308.59 2589.60
   14:23:11.009.09-Sep-2020 5408.01  736.95 75.21 16.00 308.79 2589.60
   14:23:11.209.09-Sep-2020 5408.01  737.44 75.21 16.00 308.99 2589.60
   14:23:11.410.09-Sep-2020 5408.01  737.36 75.21 16.00 309.19 2589.60
   14:23:11.610.09-Sep-2020 5408.01  737.36 75.21 16.00 309.39 2589.60
   14:23:11.810.09-Sep-2020 5408.01  737.59 75.21 16.00 309.59 2589.60
   14:23:12.010.09-Sep-2020 5408.01  737.86 75.21 16.00 309.79 2589.60
   14:23:12.210.09-Sep-2020 5408.01  737.99 75.21 16.00 309.99 2589.60
   14:23:12.410.09-Sep-2020 5408.01  738.18 75.21 16.00 310.19 2589.60
   14:23:12.610.09-Sep-2020 5408.01  738.18 75.21 16.00 310.39 2589.60
   14:23:12.810.09-Sep-2020 5408.01  738.37 75.21 16.00 310.59 2589.60
   14:23:13.011.09-Sep-2020 5408.01  738.59 75.21 16.00 310.79 2589.60
   14:23:13.211.09-Sep-2020 5408.01  738.19 75.21 16.00 310.99 2589.60
   14:23:13.411.09-Sep-2020 5408.01  738.94 75.21 16.00 311.19 2589.60
   14:23:13.611.09-Sep-2020 5408.01  738.96 75.21 16.00 311.39 2589.60
   14:23:13.811.09-Sep-2020 5408.01  739.09 75.21 16.00 311.59 2589.60
   14:23:14.011.09-Sep-2020 5408.01  738.66 75.21 16.00 311.79 2589.60
   14:23:14.211.09-Sep-2020 5408.01  739.71 75.21 16.00 311.99 2589.60
   14:23:14.411.09-Sep-2020 5408.01  739.73 75.21 16.00 312.19 2589.60
   14:23:14.611.09-Sep-2020 5408.01  739.95 75.21 16.00 312.39 2589.60
   14:23:14.812.09-Sep-2020 5408.01  739.92 75.21 16.00 312.59 2589.60
   14:23:15.012.09-Sep-2020 5408.01  740.23 75.21 16.00 312.79 2589.60
   14:23:15.212.09-Sep-2020 5408.01  740.22 75.21 16.00 312.99 2589.60
   14:23:15.412.09-Sep-2020 5408.01  740.45 75.21 16.00 313.19 2589.60
   14:23:15.612.09-Sep-2020 5408.01  740.45 75.21 16.00 313.39 2589.60
   14:23:15.812.09-Sep-2020 5408.01  740.72 75.21 16.00 313.59 2589.60
   14:23:16.012.09-Sep-2020 5408.01  740.84 75.21 16.00 313.79 2589.60
   14:23:16.212.09-Sep-2020 5408.01  740.93 75.21 16.00 313.99 2589.60
   14:23:16.413.09-Sep-2020 5408.01  741.03 75.21 16.00 314.19 2589.60
   14:23:16.613.09-Sep-2020 5408.01  741.03 75.21 16.00 314.39 2589.60
   14:23:16.813.09-Sep-2020 5408.01  741.43 75.21 16.00 314.59 2589.60
   14:23:17.013.09-Sep-2020 5408.01  741.59 75.21 16.00 314.79 2589.60
   14:23:17.213.09-Sep-2020 5408.01  741.70 75.21 16.00 314.99 2589.60
   14:23:17.413.09-Sep-2020 5408.01  741.84 75.21 16.00 315.19 2589.60
   14:23:17.613.09-Sep-2020 5408.01  741.84 75.21 16.00 315.39 2589.60
   14:23:17.813.09-Sep-2020 5408.01  742.04 75.21 16.00 315.59 2589.60
   14:23:18.014.09-Sep-2020 5408.01  742.44 75.21 16.00 315.79 2589.60
   14:23:18.214.09-Sep-2020 5408.01  742.51 75.21 16.00 315.99 2589.60
   14:23:18.414.09-Sep-2020 5408.01  742.50 75.21 16.00 316.19 2589.60
   14:23:18.614.09-Sep-2020 5408.01  742.93 75.21 16.00 316.39 2589.60
