~Version Information
 VERS.                  2.0:   CWLS log ASCII Standard -VERSION 2.0
 WRAP.                   NO:   One line per depth step
~Well Information Block
#MNEM.UNIT     VALUE/NAME     DESCRIPTION
#---------     -----------    ---------------------------
 STRT.S             13:30:41 09-Sep-20: START TIME 13:30:41 09-Sep-20
 STOP.S             13:37:24 09-Sep-20: STOP TIME  13:37:24 09-Sep-20
 STEP.S                   0.00: STEP TIME
 NULL.                 -999.25: NULL VALUE
 MDS .        Operator Entered:  MAG DATA SOURCE
 PDAT.          Mean Sea Level:  PERMANENT DATUM
 DCON.         Sperry Drilling:  DIRECTNL CONTR
 RIG .              West Azeri:  RIG NAME
 WELL.           C40 (Slot 20):  WELL NAME
 SRVC.     Turan Drilling Engineering:  CONTRACTOR
 FLD .                     ACG:  FIELD NAME
 CTRY.              Azerbaijan:  COUNTRY NAME
 PROV.                    Baku:  PROVINCE
 STAT.                    Baku:  STATE NAME
 REGN.                   EESSA:  REGION
 BASE.              Azerbaijan:  LOGGING EQUIPMENT BASE LOCATION
 COMP.     BP Exploration (Caspian Sea) Ltd:  COMPANY
 WTYP.                Deviated:  WELL TYPE
 SON .        AZ-XX-0906344804:  JOB NUMBER
 FTOP.          Formation Tops:  FORM TOPS DESC
 ILTD.               Lithology:  INTERP LTH DESC
 SVYD.                  Survey:  SURVEY DESC
 DMOD.             Drill Model:  DRILL MOD DESC
 HPTY.       Minimum Curvature:  HOLE POS TYPE
 NREF.                    Grid:  NORTH REFERENCE
 SPUD.               01-Jan-20:  SPUD DATE
 DATE.      00.59.44 15-Sep-20:  END TIME
 STIM.      12.00.00 12-Jun-20:  START TIME
 DMF .             Drill Floor:  DRILL MEAS FROM
 DFST.                        :  DIST FSL TEXT
 DFWT.                        :  DIST FWL TEXT
 API .                        :  API NUMBER
 CNTY.                        :  COUNTY
 UWI .                        :  UNIQUE WELL IDENTIFIER
 LOC .                        :  LOCATION
 LMF .             Drill Floor:  LOG MEASURED FROM
 VSNS.m                   2.88:  VERT SEC N/S
 VSEW.m                  -3.84:  VERT SEC E/W
 AGAP.m                  43.42:  AIR GAP
 APD .m                  43.42:  DEPTH ABOVE PD
 WDMS.m                 118.27:  WD ELEV
 EGL .m                   0.00:  GROUND ELEVATION
 EPD .m                   0.00:  ELEVATION
 AZTC.deg                 6.23:  AZM TOTAL CORR
 GRDC.deg                 0.20:  GRID CORRECTION
 MDEC.deg                 6.43:  MAGNETIC DECL
 MDIP.deg                59.49:  MAGNETIC DIP
 MFLD.nT              50277.00:  MAGNETIC FIELD
 GVFD.g                   1.00:  GRAVITY FIELD
 VSDR.deg               173.20:  VERT SEC DIRECT
 TDD .m                5790.01:  TOTAL DEPTH (DRILLER)
 SDEP.m                5231.01:  START DEPTH
 DFSL.m                   0.00:  DISTANCE FSL
 DFWL.m                   0.00:  DISTANCE FWL
 UTMY.m             4435808.83:  UTM Y
 UTMX.m              526266.40:  UTM X
 WHEW.m                  -3.84:  WELL HEAD E/W
 WHNS.m                   2.88:  WELL HEAD N/S
 LONG.deg                51.31:  LONGITUDE
 LATI.deg                40.06:  LATITUDE
 TVDS.m                  43.42:  TVDSS CORRECTN
 DEP .m                 430.08:  DEPTH
 EKB .m                  43.42:  KB ELEVATION
 EDF .m                  43.42:  DF ELEVATION
 TDL .m                 559.00:  TOTAL DEPTH (LOGGER)
 MAGU.                 1849381:  MAGUTM CHECKSUM
 VSC .                       0:  VS TO CLOSURE
~Parameter Information Block
#MNEM.UNIT       Value        Description
#---------     -----------    ---------------------------
 AV  .mps                 4.87:  Ann Velocity 
 AVMX.mps                 7.08:  Max Ann Veloc 
 AZIF.deg               108.87:  Azm, Final 
 BHAT.                  Rotary:  BHA Type 
 BROT.°/30m               0.35:  Build Rotating 
 BS  .in                  8.50:  Bit Size 
 BSZ .in                  8.50:  Bit Size 
 BTPL.psig              360.00:  Bit Press Loss 
 CABU.                     Yes:  Customer Abuse 
 COMM.                     $ñd:  Run Comments 1 
 TCS .hr                106.24:  Time Ciculation Ended 
 CV  .mps                 1.77:  Crit Velocity 
 CVMX.mps                 2.03:  Max Crit Veloc 
 DD1 .         Aykhan Agagulov:  Direct Drillr 1 
 DD2 .            Nonso Okofor:  Direct Drillr 2 
 DDSV.               Geo-Pilot:  DD Service 
 DEFF.%                  98.00:  % Det Eff 
 DLRX.°/30m               0.50:  Dogleg Rot Max 
 DLSO.°/30m               0.40:  Dogleg Oriented 
 DLSX.°/30m               0.94:  Dogleg Str Max 
 DRET.      20.30.00 08-Sep-20:  Drill End Time 
 DRST.      22.15.00 06-Sep-20:  Drill Start Tim 
 DTIM.hr                 31.31:  Time Drilling 
 EDEP.m                5790.01:  End Depth 
 ENG1.           Amrah Tahirov:  Engineer 1 
 ENG2.         Dair Mahammadov:  Engineer 2 
 ENG3.           Emil Huseynov:  Engineer 3 
 ETIM.      04.01.04 12-Sep-20:  End Time 
 FLOI.gpm               450.00:  Flow In 
 FLON.gpm               450.00:  Flow In Min 
 FLOS.cptm                2.00:  Fluid Loss 
 FLOX.gpm               450.00:  Flow In Max 
 FTRO.       Formation Presure:  FTWD Run Obj 
 HFLO.                      No:  High Flow 
 HPRE.                      No:  High Pressure 
 HTEM.                      No:  High Temp 
 HYDO.m                   1.80:  Hydro Offset 
 IFIN.deg                72.03:  Inc, Final 
 IMAX.deg                73.72:  Inc Max 
 IMIN.deg                70.94:  Inc Min 
 IMND.m                5508.52:  Inc Min Depth 
 IMXD.m                5253.60:  Inc Max Depth 
 JARR.                      No:  Jarring 
 LETM.      20.30.00 08-Sep-20:  Log End Time 
 LOST.hr                     0:  Lost Rig Time 
 LSTM.      22.15.00 06-Sep-20:  Log Start Time 
 MDCL.ppm             36000.00:  Mud Chlorides 
 MDES.     Inversion Oil/Synthetic:  Mud Desc 
 DFD .sg                  1.44:  Mud Density 
 MDMN.sg                  1.44:  Dens Mud Min 
 MDMX.sg                  1.57:  Dens Mud Max 
 MOIL.                      70:  Run Mud Oil % 
 MOWR.                   70:30:  Run Mud OWR 
 MSND.                       0:  Run Mud Sand % 
 MSOL.                      21:  Run Mud Solids% 
 DFV .spqt               68.00:  Mud Viscosity 
 MWOD.in                  6.75:  MWD Tool OD 
 MWSI.                     Yes:  Serv Intrp, MWD 
 OTIM.hr                174.84:  Time Operating 
 PCON.           Look Like New:  Pad Condition 
 PMAX.psia            10616.93:  Press Op, Max 
 PV  .cP                 50.00:  Mud PV 
 RUN .                     700:  Run Number 
 ROPA.m/hr               14.24:  ROP Avg 
 ROPN.m/hr               10.00:  ROP Min 
 ROPX.m/hr               32.00:  ROP Max 
 RPMA.rpm               120.90:  RPM Surface Avg 
 RPMN.rpm               120.00:  RPM Surface Min 
 RPMX.rpm               140.00:  RPM Surface Max 
 RRUN.                    0700:  Rig Run Number 
 RTIM.hr                  3.20:  Time Reaming 
 SAZI.deg               109.99:  Azm, Start 
 SDEP.m                5231.01:  Start Depth 
 SIDD.                      No:  Serv Intrp, DD 
 SINC.deg                73.72:  Inc, Start 
 SPPA.psig             3051.00:  SPP Avg 
 SPPN.psig             2950.00:  SPP Min 
 SPPX.psig             3250.00:  SPP Max 
 STIM.      08.00.00 05-Sep-20:  Start Time 
 SVCS.                 DD, MWD:  Services 
 SVER.                    9.20:  Sperry Version 
 TDAT.m                 559.00:  Tot Depth Attmp 
 TDDF.                      No:  Trip for DD 
 TDLG.m                 559.00:  Tot Depth Loggd 
 TFF .                      No:  Trip for Fail 
 TQAA.f-kp               26.49:  Torque Abs Avg 
 TQAN.f-kp               25.00:  Torque Abs Min 
 TQAX.f-kp               27.00:  Torque Abs Max 
 TRRT.°/30m               1.50:  Turn Rotating 
 MRT .                    HCIM:  Maximum Recorded Temperature 
 TTMX.degC               90.20:  Max Tool Temp 
 VS01.                90542671:  Virtual Str1 SN 
 VS02.                90545185:  Virtual Str2 SN 
 VS03.                90602015:  Virtual Str3 SN 
 VS04.                90515230:  Virtual Str4 SN 
 WBMN.klb                 5.00:  WOB Min 
 WOBA.klb                14.79:  WOB Avg 
 WOBX.klb                20.00:  WOB Max 
 YP  .lhf2               29.00:  Yield Point 
~Curve Information Block
#MNEM.UNIT                 API CODE     Curve Description
#---------               -----------    ---------------------------
 TIME.HHMMSS            00 000 000 000:  GT Time & Date
 GTDEPTH.m              00 000 000 000:  GT Depth
 GTPQH.psia             00 000 000 000:  GT HR Quartz Pressure
 GTTQ.degC              00 000 000 000:  GT Quartz Temperature
 GTTN.NONE              00 000 000 000:  GT Test Number
 GTET.sec               00 000 000 000:  GT Elapsed Test Time
 GTTVD.m                00 000 000 000:  GT True Vertical Depth
#Other Information
#
#WARRANTY: Halliburton will use its best efforts to furnish customers with 
#accurate information and interpretations that are part of, and incident to, the services 
#provided.  However, Halliburton cannot and does not warrant the accuracy 
#or correctness of such information and interpretations.  Under no circumstances should any 
#such information or interpretation be relied upon as the sole basis for any drilling, 
#completion, production, or financial decision or any procedure involving any risk to the 
#safety of any drilling venture, drilling rig or its crew or any other third party.  The 
#Customer has full responsibility for all drilling, completion and production operation.  
#Halliburton makes no representations or warranties, either expressed or 
#implied, including, but not limited to, the implied warranties of merchantability or fitness 
#for a particular purpose, with respect to the services rendered.  In no event will 
#Halliburton be liable for failure to obtain any particular results or for 
#any damages, including, but not limited to, indirect, special or consequential damages, 
#resulting from the use of any information or interpretation provided by Halliburton.
#
~A           TIME           GTDEPTH  GTPQH  GTTQ  GTTN   GTET   GTTVD  
# ...
   13:31:04.098.09-Sep-2020 5408.01 6297.30 75.55 15.00  22.61 2589.60
   13:31:04.298.09-Sep-2020 5408.01 6297.63 75.55 15.00  22.81 2589.60
   13:31:04.499.09-Sep-2020 5408.01 6298.00 75.55 15.00  23.01 2589.60
   13:31:04.699.09-Sep-2020 5408.01 6298.00 75.55 15.00  23.21 2589.60
   13:31:04.899.09-Sep-2020 5408.01 6298.66 75.55 15.00  23.41 2589.60
   13:31:05.099.09-Sep-2020 5408.01 6308.79 75.55 15.00  23.61 2589.60
   13:31:05.299.09-Sep-2020 5408.01 6294.50 75.55 15.00  23.81 2589.60
   13:31:05.499.09-Sep-2020 5408.01 6300.21 75.55 15.00  24.01 2589.60
   13:31:05.699.09-Sep-2020 5408.01 6300.24 75.55 15.00  24.21 2589.60
   13:31:05.899.09-Sep-2020 5408.01 6300.02 75.55 15.00  24.41 2589.60
   13:31:06.099.09-Sep-2020 5408.01 6300.44 75.55 15.00  24.62 2589.60
   13:31:06.300.09-Sep-2020 5408.01 6299.29 75.55 15.00  24.82 2589.60
   13:31:06.500.09-Sep-2020 5408.01 6300.72 75.55 15.00  25.02 2589.60
   13:31:06.700.09-Sep-2020 5408.01 6300.72 75.55 15.00  25.22 2589.60
   13:31:06.900.09-Sep-2020 5408.01 6302.08 75.55 15.00  25.42 2589.60
   13:31:07.100.09-Sep-2020 5408.01 6301.91 75.55 15.00  25.62 2589.60
   13:31:07.300.09-Sep-2020 5408.01 6301.61 75.55 15.00  25.82 2589.60
   13:31:07.500.09-Sep-2020 5408.01 6301.75 75.55 15.00  26.02 2589.60
   13:31:07.700.09-Sep-2020 5408.01 6301.75 75.55 15.00  26.22 2589.60
   13:31:07.901.09-Sep-2020 5408.01 6302.81 75.55 15.00  26.42 2589.60
   13:31:08.101.09-Sep-2020 5408.01 6303.33 75.55 15.00  26.62 2589.60
   13:31:08.301.09-Sep-2020 5408.01 6303.72 75.55 15.00  26.82 2589.60
   13:31:08.501.09-Sep-2020 5408.01 6313.19 75.55 15.00  27.02 2589.60
   13:31:08.701.09-Sep-2020 5408.01 6313.19 75.55 15.00  27.22 2589.60
   13:31:08.901.09-Sep-2020 5408.01 6304.26 75.55 15.00  27.42 2589.60
   13:31:09.101.09-Sep-2020 5408.01 6304.52 75.55 15.00  27.62 2589.60
   13:31:09.301.09-Sep-2020 5408.01 6305.09 75.55 15.00  27.82 2589.60
   13:31:09.502.09-Sep-2020 5408.01 6305.64 75.55 15.00  28.02 2589.60
   13:31:09.702.09-Sep-2020 5408.01 6305.64 75.55 15.00  28.22 2589.60
   13:31:09.902.09-Sep-2020 5408.01 6303.12 75.55 15.00  28.42 2589.60
   13:31:10.102.09-Sep-2020 5408.01 6307.89 75.55 15.00  28.62 2589.60
   13:31:10.302.09-Sep-2020 5408.01 6305.39 75.55 15.00  28.82 2589.60
   13:31:10.502.09-Sep-2020 5408.01 6306.36 75.55 15.00  29.02 2589.60
   13:31:10.702.09-Sep-2020 5408.01 6306.36 75.55 15.00  29.22 2589.60
   13:31:10.902.09-Sep-2020 5408.01 6313.07 75.55 15.00  29.42 2589.60
   13:31:11.103.09-Sep-2020 5408.01 6306.34 75.55 15.00  29.62 2589.60
   13:31:11.303.09-Sep-2020 5408.01 6306.71 75.55 15.00  29.82 2589.60
   13:31:11.503.09-Sep-2020 5408.01 6309.52 75.55 15.00  30.02 2589.60
   13:31:11.703.09-Sep-2020 5408.01 6309.52 75.55 15.00  30.22 2589.60
   13:31:11.903.09-Sep-2020 5408.01 6317.18 75.55 15.00  30.42 2589.60
   13:31:12.103.09-Sep-2020 5408.01 6304.95 75.55 15.00  30.62 2589.60
   13:31:12.303.09-Sep-2020 5408.01 6311.02 75.55 15.00  30.82 2589.60
   13:31:12.503.09-Sep-2020 5408.01 6308.21 75.55 15.00  31.02 2589.60
   13:31:12.704.09-Sep-2020 5408.01 6308.21 75.55 15.00  31.22 2589.60
   13:31:12.904.09-Sep-2020 5408.01 6311.30 75.55 15.00  31.42 2589.60
   13:31:13.104.09-Sep-2020 5408.01 6315.64 75.55 15.00  31.62 2589.60
   13:31:13.304.09-Sep-2020 5408.01 6309.48 75.55 15.00  31.82 2589.60
   13:31:13.504.09-Sep-2020 5408.01 6313.58 75.55 15.00  32.02 2589.60
   13:31:13.704.09-Sep-2020 5408.01 6313.58 75.55 15.00  32.22 2589.60
   13:31:13.904.09-Sep-2020 5408.01 6313.20 75.55 15.00  32.42 2589.60
   13:31:14.104.09-Sep-2020 5408.01 6312.64 75.55 15.00  32.62 2589.60
   13:31:14.304.09-Sep-2020 5408.01 6313.21 75.55 15.00  32.82 2589.60
   13:31:14.505.09-Sep-2020 5408.01 6313.57 75.55 15.00  33.02 2589.60
   13:31:14.705.09-Sep-2020 5408.01 6313.57 75.55 15.00  33.22 2589.60
   13:31:14.905.09-Sep-2020 5408.01 6360.51 75.55 15.00  33.42 2589.60
   13:31:15.105.09-Sep-2020 5408.01 6333.69 75.55 15.00  33.62 2589.60
   13:31:15.305.09-Sep-2020 5408.01 6302.74 75.55 15.00  33.82 2589.60
   13:31:15.505.09-Sep-2020 5408.01 6269.21 75.55 15.00  34.02 2589.60
   13:31:15.705.09-Sep-2020 5408.01 6269.21 75.55 15.00  34.22 2589.60
   13:31:15.905.09-Sep-2020 5408.01 6209.45 75.55 15.00  34.42 2589.60
   13:31:16.106.09-Sep-2020 5408.01 6180.85 75.55 15.00  34.62 2589.60
   13:31:16.306.09-Sep-2020 5408.01 6146.54 75.55 15.00  34.82 2589.60
   13:31:16.506.09-Sep-2020 5408.01 6110.07 75.55 15.00  35.02 2589.60
   13:31:16.706.09-Sep-2020 5408.01 6110.07 75.55 15.00  35.22 2589.60
   13:31:16.906.09-Sep-2020 5408.01 6031.34 75.55 15.00  35.42 2589.60
   13:31:17.106.09-Sep-2020 5408.01 5983.10 75.55 15.00  35.62 2589.60
   13:31:17.306.09-Sep-2020 5408.01 5933.58 75.55 15.00  35.82 2589.60
   13:31:17.506.09-Sep-2020 5408.01 5884.47 75.55 15.00  36.02 2589.60
   13:31:17.707.09-Sep-2020 5408.01 5834.31 75.55 15.00  36.22 2589.60
   13:31:17.907.09-Sep-2020 5408.01 5781.85 75.55 15.00  36.42 2589.60
   13:31:18.107.09-Sep-2020 5408.01 5730.02 75.55 15.00  36.62 2589.60
   13:31:18.307.09-Sep-2020 5408.01 5675.35 75.55 15.00  36.82 2589.60
   13:31:18.507.09-Sep-2020 5408.01 5618.40 75.55 15.00  37.02 2589.60
   13:31:18.707.09-Sep-2020 5408.01 5618.40 75.55 15.00  37.22 2589.60
   13:31:18.907.09-Sep-2020 5408.01 5499.35 75.54 15.00  37.42 2589.60
   13:31:19.107.09-Sep-2020 5408.01 5436.65 75.54 15.00  37.62 2589.60
   13:31:19.308.09-Sep-2020 5408.01 5373.18 75.54 15.00  37.82 2589.60
   13:31:19.508.09-Sep-2020 5408.01 5310.11 75.54 15.00  38.02 2589.60
   13:31:19.708.09-Sep-2020 5408.01 5310.11 75.54 15.00  38.22 2589.60
   13:31:19.908.09-Sep-2020 5408.01 5182.19 75.54 15.00  38.42 2589.60
   13:31:20.108.09-Sep-2020 5408.01 5119.90 75.54 15.00  38.62 2589.60
   13:31:20.308.09-Sep-2020 5408.01 5062.16 75.54 15.00  38.82 2589.60
   13:31:20.508.09-Sep-2020 5408.01 5007.41 75.54 15.00  39.02 2589.60
   13:31:20.708.09-Sep-2020 5408.01 5007.41 75.54 15.00  39.22 2589.60
   13:31:20.909.09-Sep-2020 5408.01 4898.38 75.54 15.00  39.42 2589.60
   13:31:21.109.09-Sep-2020 5408.01 4842.42 75.54 15.00  39.62 2589.60
   13:31:21.309.09-Sep-2020 5408.01 4789.91 75.54 15.00  39.82 2589.60
   13:31:21.509.09-Sep-2020 5408.01 4739.88 75.53 15.00  40.02 2589.60
   13:31:21.709.09-Sep-2020 5408.01 4694.91 75.53 15.00  40.22 2589.60
   13:31:21.909.09-Sep-2020 5408.01 4651.33 75.53 15.00  40.42 2589.60
   13:31:22.109.09-Sep-2020 5408.01 4610.08 75.53 15.00  40.62 2589.60
   13:31:22.309.09-Sep-2020 5408.01 4570.04 75.53 15.00  40.82 2589.60
   13:31:22.510.09-Sep-2020 5408.01 4534.09 75.53 15.00  41.03 2589.60
   13:31:22.710.09-Sep-2020 5408.01 4534.09 75.53 15.00  41.23 2589.60
   13:31:22.910.09-Sep-2020 5408.01 4522.14 75.53 15.00  41.43 2589.60
   13:31:23.110.09-Sep-2020 5408.01 4437.53 75.52 15.00  41.63 2589.60
   13:31:23.310.09-Sep-2020 5408.01 3527.86 75.52 15.00  41.83 2589.60
   13:31:23.510.09-Sep-2020 5408.01 2580.56 75.52 15.00  42.03 2589.60
   13:31:23.710.09-Sep-2020 5408.01 2580.56 75.52 15.00  42.23 2589.60
   13:31:23.910.09-Sep-2020 5408.01 1339.50 75.52 15.00  42.43 2589.60
   13:31:24.110.09-Sep-2020 5408.01 1010.29 75.52 15.00  42.63 2589.60
   13:31:24.311.09-Sep-2020 5408.01  797.96 75.51 15.00  42.83 2589.60
   13:31:24.511.09-Sep-2020 5408.01  709.74 75.51 15.00  43.03 2589.60
   13:31:24.711.09-Sep-2020 5408.01  709.74 75.51 15.00  43.23 2589.60
   13:31:24.911.09-Sep-2020 5408.01  688.22 75.51 15.00  43.43 2589.60
   13:31:25.111.09-Sep-2020 5408.01  668.42 75.50 15.00  43.63 2589.60
   13:31:25.311.09-Sep-2020 5408.01  663.39 75.50 15.00  43.83 2589.60
   13:31:25.511.09-Sep-2020 5408.01  661.57 75.50 15.00  44.03 2589.60
   13:31:25.711.09-Sep-2020 5408.01  661.96 75.49 15.00  44.23 2589.60
   13:31:25.912.09-Sep-2020 5408.01  657.30 75.49 15.00  44.43 2589.60
   13:31:26.112.09-Sep-2020 5408.01  660.77 75.48 15.00  44.63 2589.60
   13:31:26.312.09-Sep-2020 5408.01  655.59 75.48 15.00  44.83 2589.60
   13:31:26.512.09-Sep-2020 5408.01  648.98 75.48 15.00  45.03 2589.60
