~Version Information
 VERS.                  2.0:   CWLS log ASCII Standard -VERSION 2.0
 WRAP.                   NO:   One line per depth step
~Well Information Block
#MNEM.UNIT     VALUE/NAME     DESCRIPTION
#---------     -----------    ---------------------------
 STRT.S             06:25:59 09-Sep-20: START TIME 06:25:59 09-Sep-20
 STOP.S             06:32:43 09-Sep-20: STOP TIME  06:32:43 09-Sep-20
 STEP.S                   0.00: STEP TIME
 NULL.                 -999.25: NULL VALUE
 MDS .        Operator Entered:  MAG DATA SOURCE
 PDAT.          Mean Sea Level:  PERMANENT DATUM
 DCON.         Sperry Drilling:  DIRECTNL CONTR
 RIG .              West Azeri:  RIG NAME
 WELL.           C40 (Slot 20):  WELL NAME
 SRVC.     Turan Drilling Engineering:  CONTRACTOR
 FLD .                     ACG:  FIELD NAME
 CTRY.              Azerbaijan:  COUNTRY NAME
 PROV.                    Baku:  PROVINCE
 STAT.                    Baku:  STATE NAME
 REGN.                   EESSA:  REGION
 BASE.              Azerbaijan:  LOGGING EQUIPMENT BASE LOCATION
 COMP.     BP Exploration (Caspian Sea) Ltd:  COMPANY
 WTYP.                Deviated:  WELL TYPE
 SON .        AZ-XX-0906344804:  JOB NUMBER
 FTOP.          Formation Tops:  FORM TOPS DESC
 ILTD.               Lithology:  INTERP LTH DESC
 SVYD.                  Survey:  SURVEY DESC
 DMOD.             Drill Model:  DRILL MOD DESC
 HPTY.       Minimum Curvature:  HOLE POS TYPE
 NREF.                    Grid:  NORTH REFERENCE
 SPUD.               01-Jan-20:  SPUD DATE
 DATE.      00.59.44 15-Sep-20:  END TIME
 STIM.      12.00.00 12-Jun-20:  START TIME
 DMF .             Drill Floor:  DRILL MEAS FROM
 DFST.                        :  DIST FSL TEXT
 DFWT.                        :  DIST FWL TEXT
 API .                        :  API NUMBER
 CNTY.                        :  COUNTY
 UWI .                        :  UNIQUE WELL IDENTIFIER
 LOC .                        :  LOCATION
 LMF .             Drill Floor:  LOG MEASURED FROM
 VSNS.m                   2.88:  VERT SEC N/S
 VSEW.m                  -3.84:  VERT SEC E/W
 AGAP.m                  43.42:  AIR GAP
 APD .m                  43.42:  DEPTH ABOVE PD
 WDMS.m                 118.27:  WD ELEV
 EGL .m                   0.00:  GROUND ELEVATION
 EPD .m                   0.00:  ELEVATION
 AZTC.deg                 6.23:  AZM TOTAL CORR
 GRDC.deg                 0.20:  GRID CORRECTION
 MDEC.deg                 6.43:  MAGNETIC DECL
 MDIP.deg                59.49:  MAGNETIC DIP
 MFLD.nT              50277.00:  MAGNETIC FIELD
 GVFD.g                   1.00:  GRAVITY FIELD
 VSDR.deg               173.20:  VERT SEC DIRECT
 TDD .m                5790.01:  TOTAL DEPTH (DRILLER)
 SDEP.m                5231.01:  START DEPTH
 DFSL.m                   0.00:  DISTANCE FSL
 DFWL.m                   0.00:  DISTANCE FWL
 UTMY.m             4435808.83:  UTM Y
 UTMX.m              526266.40:  UTM X
 WHEW.m                  -3.84:  WELL HEAD E/W
 WHNS.m                   2.88:  WELL HEAD N/S
 LONG.deg                51.31:  LONGITUDE
 LATI.deg                40.06:  LATITUDE
 TVDS.m                  43.42:  TVDSS CORRECTN
 DEP .m                 430.08:  DEPTH
 EKB .m                  43.42:  KB ELEVATION
 EDF .m                  43.42:  DF ELEVATION
 TDL .m                 559.00:  TOTAL DEPTH (LOGGER)
 MAGU.                 1849381:  MAGUTM CHECKSUM
 VSC .                       0:  VS TO CLOSURE
~Parameter Information Block
#MNEM.UNIT       Value        Description
#---------     -----------    ---------------------------
 AV  .mps                 4.87:  Ann Velocity 
 AVMX.mps                 7.08:  Max Ann Veloc 
 AZIF.deg               108.87:  Azm, Final 
 BHAT.                  Rotary:  BHA Type 
 BROT.°/30m               0.35:  Build Rotating 
 BS  .in                  8.50:  Bit Size 
 BSZ .in                  8.50:  Bit Size 
 BTPL.psig              360.00:  Bit Press Loss 
 CABU.                     Yes:  Customer Abuse 
 COMM.                     ìOW:  Run Comments 1 
 TCS .hr                106.24:  Time Ciculation Ended 
 CV  .mps                 1.77:  Crit Velocity 
 CVMX.mps                 2.03:  Max Crit Veloc 
 DD1 .         Aykhan Agagulov:  Direct Drillr 1 
 DD2 .            Nonso Okofor:  Direct Drillr 2 
 DDSV.               Geo-Pilot:  DD Service 
 DEFF.%                  98.00:  % Det Eff 
 DLRX.°/30m               0.50:  Dogleg Rot Max 
 DLSO.°/30m               0.40:  Dogleg Oriented 
 DLSX.°/30m               0.94:  Dogleg Str Max 
 DRET.      20.30.00 08-Sep-20:  Drill End Time 
 DRST.      22.15.00 06-Sep-20:  Drill Start Tim 
 DTIM.hr                 31.31:  Time Drilling 
 EDEP.m                5790.01:  End Depth 
 ENG1.           Amrah Tahirov:  Engineer 1 
 ENG2.         Dair Mahammadov:  Engineer 2 
 ENG3.           Emil Huseynov:  Engineer 3 
 ETIM.      04.01.04 12-Sep-20:  End Time 
 FLOI.gpm               450.00:  Flow In 
 FLON.gpm               450.00:  Flow In Min 
 FLOS.cptm                2.00:  Fluid Loss 
 FLOX.gpm               450.00:  Flow In Max 
 FTRO.       Formation Presure:  FTWD Run Obj 
 HFLO.                      No:  High Flow 
 HPRE.                      No:  High Pressure 
 HTEM.                      No:  High Temp 
 HYDO.m                   1.80:  Hydro Offset 
 IFIN.deg                72.03:  Inc, Final 
 IMAX.deg                73.72:  Inc Max 
 IMIN.deg                70.94:  Inc Min 
 IMND.m                5508.52:  Inc Min Depth 
 IMXD.m                5253.60:  Inc Max Depth 
 JARR.                      No:  Jarring 
 LETM.      20.30.00 08-Sep-20:  Log End Time 
 LOST.hr                     0:  Lost Rig Time 
 LSTM.      22.15.00 06-Sep-20:  Log Start Time 
 MDCL.ppm             36000.00:  Mud Chlorides 
 MDES.     Inversion Oil/Synthetic:  Mud Desc 
 DFD .sg                  1.44:  Mud Density 
 MDMN.sg                  1.44:  Dens Mud Min 
 MDMX.sg                  1.57:  Dens Mud Max 
 MOIL.                      70:  Run Mud Oil % 
 MOWR.                   70:30:  Run Mud OWR 
 MSND.                       0:  Run Mud Sand % 
 MSOL.                      21:  Run Mud Solids% 
 DFV .spqt               68.00:  Mud Viscosity 
 MWOD.in                  6.75:  MWD Tool OD 
 MWSI.                     Yes:  Serv Intrp, MWD 
 OTIM.hr                174.84:  Time Operating 
 PCON.           Look Like New:  Pad Condition 
 PMAX.psia            10616.93:  Press Op, Max 
 PV  .cP                 50.00:  Mud PV 
 RUN .                     700:  Run Number 
 ROPA.m/hr               14.24:  ROP Avg 
 ROPN.m/hr               10.00:  ROP Min 
 ROPX.m/hr               32.00:  ROP Max 
 RPMA.rpm               120.90:  RPM Surface Avg 
 RPMN.rpm               120.00:  RPM Surface Min 
 RPMX.rpm               140.00:  RPM Surface Max 
 RRUN.                    0700:  Rig Run Number 
 RTIM.hr                  3.20:  Time Reaming 
 SAZI.deg               109.99:  Azm, Start 
 SDEP.m                5231.01:  Start Depth 
 SIDD.                      No:  Serv Intrp, DD 
 SINC.deg                73.72:  Inc, Start 
 SPPA.psig             3051.00:  SPP Avg 
 SPPN.psig             2950.00:  SPP Min 
 SPPX.psig             3250.00:  SPP Max 
 STIM.      08.00.00 05-Sep-20:  Start Time 
 SVCS.                 DD, MWD:  Services 
 SVER.                    9.20:  Sperry Version 
 TDAT.m                 559.00:  Tot Depth Attmp 
 TDDF.                      No:  Trip for DD 
 TDLG.m                 559.00:  Tot Depth Loggd 
 TFF .                      No:  Trip for Fail 
 TQAA.f-kp               26.49:  Torque Abs Avg 
 TQAN.f-kp               25.00:  Torque Abs Min 
 TQAX.f-kp               27.00:  Torque Abs Max 
 TRRT.°/30m               1.50:  Turn Rotating 
 MRT .                    HCIM:  Maximum Recorded Temperature 
 TTMX.degC               90.20:  Max Tool Temp 
 VS01.                90542671:  Virtual Str1 SN 
 VS02.                90545185:  Virtual Str2 SN 
 VS03.                90602015:  Virtual Str3 SN 
 VS04.                90515230:  Virtual Str4 SN 
 WBMN.klb                 5.00:  WOB Min 
 WOBA.klb                14.79:  WOB Avg 
 WOBX.klb                20.00:  WOB Max 
 YP  .lhf2               29.00:  Yield Point 
~Curve Information Block
#MNEM.UNIT                 API CODE     Curve Description
#---------               -----------    ---------------------------
 TIME.HHMMSS            00 000 000 000:  GT Time & Date
 GTDEPTH.m              00 000 000 000:  GT Depth
 GTPQH.psia             00 000 000 000:  GT HR Quartz Pressure
 GTTQ.degC              00 000 000 000:  GT Quartz Temperature
 GTTN.NONE              00 000 000 000:  GT Test Number
 GTET.sec               00 000 000 000:  GT Elapsed Test Time
 GTTVD.m                00 000 000 000:  GT True Vertical Depth
#Other Information
#
#WARRANTY: Halliburton will use its best efforts to furnish customers with 
#accurate information and interpretations that are part of, and incident to, the services 
#provided.  However, Halliburton cannot and does not warrant the accuracy 
#or correctness of such information and interpretations.  Under no circumstances should any 
#such information or interpretation be relied upon as the sole basis for any drilling, 
#completion, production, or financial decision or any procedure involving any risk to the 
#safety of any drilling venture, drilling rig or its crew or any other third party.  The 
#Customer has full responsibility for all drilling, completion and production operation.  
#Halliburton makes no representations or warranties, either expressed or 
#implied, including, but not limited to, the implied warranties of merchantability or fitness 
#for a particular purpose, with respect to the services rendered.  In no event will 
#Halliburton be liable for failure to obtain any particular results or for 
#any damages, including, but not limited to, indirect, special or consequential damages, 
#resulting from the use of any information or interpretation provided by Halliburton.
#
~A           TIME           GTDEPTH  GTPQH  GTTQ  GTTN  GTET   GTTVD  
# ...
   06:27:08.000.09-Sep-2020 5602.01 1950.11 79.46 2.00  69.00 2651.01
   06:27:08.200.09-Sep-2020 5602.01 1950.11 79.46 2.00  69.20 2651.01
   06:27:08.400.09-Sep-2020 5602.01 1967.89 79.46 2.00  69.40 2651.01
   06:27:08.600.09-Sep-2020 5602.01 1975.57 79.46 2.00  69.60 2651.01
   06:27:08.800.09-Sep-2020 5602.01 1988.53 79.46 2.00  69.80 2651.01
   06:27:09.000.09-Sep-2020 5602.01 2003.02 79.46 2.00  70.00 2651.01
   06:27:09.200.09-Sep-2020 5602.01 2003.02 79.47 2.00  70.20 2651.01
   06:27:09.400.09-Sep-2020 5602.01 2021.33 79.47 2.00  70.40 2651.01
   06:27:09.600.09-Sep-2020 5602.01 2030.00 79.47 2.00  70.60 2651.01
   06:27:09.800.09-Sep-2020 5602.01 2037.10 79.47 2.00  70.80 2651.01
   06:27:10.000.09-Sep-2020 5602.01 2045.02 79.47 2.00  71.00 2651.01
   06:27:10.200.09-Sep-2020 5602.01 2052.88 79.47 2.00  71.20 2651.01
   06:27:10.400.09-Sep-2020 5602.01 2060.79 79.47 2.00  71.40 2651.01
   06:27:10.600.09-Sep-2020 5602.01 2068.60 79.47 2.00  71.60 2651.01
   06:27:10.800.09-Sep-2020 5602.01 2075.84 79.47 2.00  71.80 2651.01
   06:27:11.000.09-Sep-2020 5602.01 2082.93 79.47 2.00  72.00 2651.01
   06:27:11.200.09-Sep-2020 5602.01 2082.93 79.47 2.00  72.20 2651.01
   06:27:11.400.09-Sep-2020 5602.01 2096.35 79.47 2.00  72.40 2651.01
   06:27:11.600.09-Sep-2020 5602.01 2104.09 79.47 2.00  72.60 2651.01
   06:27:11.800.09-Sep-2020 5602.01 2112.04 79.48 2.00  72.80 2651.01
   06:27:12.000.09-Sep-2020 5602.01 2119.17 79.48 2.00  73.00 2651.01
   06:27:12.200.09-Sep-2020 5602.01 2119.17 79.48 2.00  73.20 2651.01
   06:27:12.400.09-Sep-2020 5602.01 2137.46 79.48 2.00  73.40 2651.01
   06:27:12.600.09-Sep-2020 5602.01 2145.56 79.48 2.00  73.60 2651.01
   06:27:12.800.09-Sep-2020 5602.01 2153.31 79.48 2.00  73.80 2651.01
   06:27:13.000.09-Sep-2020 5602.01 2161.20 79.48 2.00  74.00 2651.01
   06:27:13.200.09-Sep-2020 5602.01 2161.20 79.48 2.00  74.20 2651.01
   06:27:13.400.09-Sep-2020 5602.01 2176.38 79.48 2.00  74.40 2651.01
   06:27:13.600.09-Sep-2020 5602.01 2184.17 79.48 2.00  74.60 2651.01
   06:27:13.800.09-Sep-2020 5602.01 2191.07 79.48 2.00  74.80 2651.01
   06:27:14.000.09-Sep-2020 5602.01 2198.26 79.48 2.00  75.00 2651.01
   06:27:14.200.09-Sep-2020 5602.01 2205.38 79.48 2.00  75.20 2651.01
   06:27:14.400.09-Sep-2020 5602.01 2212.25 79.48 2.00  75.40 2651.01
   06:27:14.600.09-Sep-2020 5602.01 2219.05 79.48 2.00  75.60 2651.01
   06:27:14.800.09-Sep-2020 5602.01 2225.21 79.48 2.00  75.80 2651.01
   06:27:15.000.09-Sep-2020 5602.01 2232.26 79.49 2.00  76.00 2651.01
   06:27:15.200.09-Sep-2020 5602.01 2232.26 79.49 2.00  76.20 2651.01
   06:27:15.400.09-Sep-2020 5602.01 2245.50 79.49 2.00  76.40 2651.01
   06:27:15.600.09-Sep-2020 5602.01 2252.25 79.49 2.00  76.60 2651.01
   06:27:15.800.09-Sep-2020 5602.01 2258.42 79.49 2.00  76.80 2651.01
   06:27:16.000.09-Sep-2020 5602.01 2264.54 79.49 2.00  77.00 2651.01
   06:27:16.200.09-Sep-2020 5602.01 2264.54 79.49 2.00  77.20 2651.01
   06:27:16.400.09-Sep-2020 5602.01 2276.95 79.49 2.00  77.40 2651.01
   06:27:16.600.09-Sep-2020 5602.01 2283.53 79.49 2.00  77.60 2651.01
   06:27:16.800.09-Sep-2020 5602.01 2289.26 79.49 2.00  77.80 2651.01
   06:27:17.000.09-Sep-2020 5602.01 2295.53 79.49 2.00  78.00 2651.01
   06:27:17.200.09-Sep-2020 5602.01 2295.53 79.49 2.00  78.20 2651.01
   06:27:17.400.09-Sep-2020 5602.01 2307.02 79.49 2.00  78.40 2651.01
   06:27:17.600.09-Sep-2020 5602.01 2312.31 79.49 2.00  78.60 2651.01
   06:27:17.800.09-Sep-2020 5602.01 2318.65 79.49 2.00  78.80 2651.01
   06:27:18.000.09-Sep-2020 5602.01 2324.72 79.49 2.00  79.00 2651.01
   06:27:18.200.09-Sep-2020 5602.01 2330.41 79.49 2.00  79.20 2651.01
   06:27:18.400.09-Sep-2020 5602.01 2336.03 79.49 2.00  79.40 2651.01
   06:27:18.600.09-Sep-2020 5602.01 2340.84 79.49 2.00  79.60 2651.01
   06:27:18.800.09-Sep-2020 5602.01 2346.22 79.49 2.00  79.80 2651.01
   06:27:19.000.09-Sep-2020 5602.01 2351.59 79.49 2.00  80.00 2651.01
   06:27:19.200.09-Sep-2020 5602.01 2351.59 79.49 2.00  80.20 2651.01
   06:27:19.400.09-Sep-2020 5602.01 2361.86 79.50 2.00  80.40 2651.01
   06:27:19.600.09-Sep-2020 5602.01 2366.87 79.50 2.00  80.60 2651.01
   06:27:19.800.09-Sep-2020 5602.01 2371.78 79.50 2.00  80.80 2651.01
   06:27:20.000.09-Sep-2020 5602.01 2376.65 79.50 2.00  81.00 2651.01
   06:27:20.200.09-Sep-2020 5602.01 2376.65 79.50 2.00  81.20 2651.01
   06:27:20.400.09-Sep-2020 5602.01 2386.23 79.50 2.00  81.40 2651.01
   06:27:20.600.09-Sep-2020 5602.01 2390.53 79.50 2.00  81.60 2651.01
   06:27:20.800.09-Sep-2020 5602.01 2394.78 79.50 2.00  81.80 2651.01
   06:27:21.000.09-Sep-2020 5602.01 2399.44 79.50 2.00  82.00 2651.01
   06:27:21.200.09-Sep-2020 5602.01 2399.44 79.50 2.00  82.20 2651.01
   06:27:21.400.09-Sep-2020 5602.01 2409.35 79.50 2.00  82.40 2651.01
   06:27:21.600.09-Sep-2020 5602.01 2415.39 79.50 2.00  82.60 2651.01
   06:27:21.800.09-Sep-2020 5602.01 2420.85 79.50 2.00  82.80 2651.01
   06:27:22.000.09-Sep-2020 5602.01 2426.06 79.50 2.00  83.00 2651.01
   06:27:22.200.09-Sep-2020 5602.01 2426.06 79.50 2.00  83.20 2651.01
   06:27:22.400.09-Sep-2020 5602.01 2436.28 79.50 2.00  83.40 2651.01
   06:27:22.600.09-Sep-2020 5602.01 2441.23 79.50 2.00  83.60 2651.01
   06:27:22.800.09-Sep-2020 5602.01 2445.56 79.50 2.00  83.80 2651.01
   06:27:23.000.09-Sep-2020 5602.01 2450.22 79.50 2.00  84.00 2651.01
   06:27:23.200.09-Sep-2020 5602.01 2450.22 79.50 2.00  84.20 2651.01
   06:27:23.400.09-Sep-2020 5602.01 2459.91 79.50 2.00  84.40 2651.01
   06:27:23.600.09-Sep-2020 5602.01 2464.61 79.50 2.00  84.60 2651.01
   06:27:23.800.09-Sep-2020 5602.01 2469.20 79.50 2.00  84.80 2651.01
   06:27:24.000.09-Sep-2020 5602.01 2473.77 79.50 2.00  85.00 2651.01
   06:27:24.200.09-Sep-2020 5602.01 2473.77 79.50 2.00  85.20 2651.01
   06:27:24.400.09-Sep-2020 5602.01 2482.02 79.50 2.00  85.40 2651.01
   06:27:24.600.09-Sep-2020 5602.01 2487.67 79.50 2.00  85.60 2651.01
   06:27:24.800.09-Sep-2020 5602.01 2492.69 79.50 2.00  85.80 2651.01
   06:27:25.000.09-Sep-2020 5602.01 2497.61 79.50 2.00  86.00 2651.01
   06:27:25.200.09-Sep-2020 5602.01 2497.61 79.51 2.00  86.20 2651.01
   06:27:25.400.09-Sep-2020 5602.01 2507.72 79.51 2.00  86.40 2651.01
   06:27:25.600.09-Sep-2020 5602.01 2512.09 79.51 2.00  86.60 2651.01
   06:27:25.800.09-Sep-2020 5602.01 2518.16 79.51 2.00  86.80 2651.01
   06:27:26.000.09-Sep-2020 5602.01 2523.83 79.51 2.00  87.00 2651.01
   06:27:26.200.09-Sep-2020 5602.01 2528.79 79.51 2.00  87.20 2651.01
   06:27:26.400.09-Sep-2020 5602.01 2533.49 79.51 2.00  87.40 2651.01
   06:27:26.600.09-Sep-2020 5602.01 2537.67 79.51 2.00  87.60 2651.01
   06:27:26.800.09-Sep-2020 5602.01 2542.02 79.51 2.00  87.80 2651.01
   06:27:27.000.09-Sep-2020 5602.01 2545.97 79.51 2.00  88.00 2651.01
   06:27:27.200.09-Sep-2020 5602.01 2545.97 79.51 2.00  88.20 2651.01
   06:27:27.400.09-Sep-2020 5602.01 2556.36 79.51 2.00  88.40 2651.01
   06:27:27.600.09-Sep-2020 5602.01 2561.14 79.51 2.00  88.60 2651.01
   06:27:27.800.09-Sep-2020 5602.01 2565.23 79.51 2.00  88.80 2651.01
   06:27:28.000.09-Sep-2020 5602.01 2569.50 79.51 2.00  89.00 2651.01
   06:27:28.200.09-Sep-2020 5602.01 2569.50 79.51 2.00  89.20 2651.01
   06:27:28.400.09-Sep-2020 5602.01 2579.54 79.51 2.00  89.40 2651.01
   06:27:28.600.09-Sep-2020 5602.01 2584.05 79.51 2.00  89.60 2651.01
   06:27:28.800.09-Sep-2020 5602.01 2588.14 79.51 2.00  89.80 2651.01
   06:27:29.000.09-Sep-2020 5602.01 2592.40 79.51 2.00  90.00 2651.01
   06:27:29.200.09-Sep-2020 5602.01 2592.40 79.51 2.00  90.20 2651.01
   06:27:29.400.09-Sep-2020 5602.01 2601.24 79.51 2.00  90.40 2651.01
   06:27:29.600.09-Sep-2020 5602.01 2606.46 79.51 2.00  90.60 2651.01
   06:27:29.800.09-Sep-2020 5602.01 2611.07 79.51 2.00  90.80 2651.01
   06:27:30.000.09-Sep-2020 5602.01 2615.35 79.51 2.00  91.00 2651.01
   06:27:30.200.09-Sep-2020 5602.01 2619.84 79.51 2.00  91.20 2651.01
   06:27:30.400.09-Sep-2020 5602.01 2623.93 79.51 2.00  91.40 2651.01
   06:27:30.600.09-Sep-2020 5602.01 2628.22 79.51 2.00  91.60 2651.01
   06:27:30.800.09-Sep-2020 5602.01 2632.30 79.51 2.00  91.80 2651.01
