~Version Information
 VERS.                  2.0:   CWLS log ASCII Standard -VERSION 2.0
 WRAP.                   NO:   One line per depth step
~Well Information Block
#MNEM.UNIT     VALUE/NAME     DESCRIPTION
#---------     -----------    ---------------------------
 STRT.S             05:36:14 09-Sep-20: START TIME 05:36:14 09-Sep-20
 STOP.S             05:43:10 09-Sep-20: STOP TIME  05:43:10 09-Sep-20
 STEP.S                   0.00: STEP TIME
 NULL.                 -999.25: NULL VALUE
 MDS .        Operator Entered:  MAG DATA SOURCE
 PDAT.          Mean Sea Level:  PERMANENT DATUM
 DCON.         Sperry Drilling:  DIRECTNL CONTR
 RIG .              West Azeri:  RIG NAME
 WELL.           C40 (Slot 20):  WELL NAME
 SRVC.     Turan Drilling Engineering:  CONTRACTOR
 FLD .                     ACG:  FIELD NAME
 CTRY.              Azerbaijan:  COUNTRY NAME
 PROV.                    Baku:  PROVINCE
 STAT.                    Baku:  STATE NAME
 REGN.                   EESSA:  REGION
 BASE.              Azerbaijan:  LOGGING EQUIPMENT BASE LOCATION
 COMP.     BP Exploration (Caspian Sea) Ltd:  COMPANY
 WTYP.                Deviated:  WELL TYPE
 SON .        AZ-XX-0906344804:  JOB NUMBER
 FTOP.          Formation Tops:  FORM TOPS DESC
 ILTD.               Lithology:  INTERP LTH DESC
 SVYD.                  Survey:  SURVEY DESC
 DMOD.             Drill Model:  DRILL MOD DESC
 HPTY.       Minimum Curvature:  HOLE POS TYPE
 NREF.                    Grid:  NORTH REFERENCE
 SPUD.               01-Jan-20:  SPUD DATE
 DATE.      00.59.44 15-Sep-20:  END TIME
 STIM.      12.00.00 12-Jun-20:  START TIME
 DMF .             Drill Floor:  DRILL MEAS FROM
 DFST.                        :  DIST FSL TEXT
 DFWT.                        :  DIST FWL TEXT
 API .                        :  API NUMBER
 CNTY.                        :  COUNTY
 UWI .                        :  UNIQUE WELL IDENTIFIER
 LOC .                        :  LOCATION
 LMF .             Drill Floor:  LOG MEASURED FROM
 VSNS.m                   2.88:  VERT SEC N/S
 VSEW.m                  -3.84:  VERT SEC E/W
 AGAP.m                  43.42:  AIR GAP
 APD .m                  43.42:  DEPTH ABOVE PD
 WDMS.m                 118.27:  WD ELEV
 EGL .m                   0.00:  GROUND ELEVATION
 EPD .m                   0.00:  ELEVATION
 AZTC.deg                 6.23:  AZM TOTAL CORR
 GRDC.deg                 0.20:  GRID CORRECTION
 MDEC.deg                 6.43:  MAGNETIC DECL
 MDIP.deg                59.49:  MAGNETIC DIP
 MFLD.nT              50277.00:  MAGNETIC FIELD
 GVFD.g                   1.00:  GRAVITY FIELD
 VSDR.deg               173.20:  VERT SEC DIRECT
 TDD .m                5790.01:  TOTAL DEPTH (DRILLER)
 SDEP.m                5231.01:  START DEPTH
 DFSL.m                   0.00:  DISTANCE FSL
 DFWL.m                   0.00:  DISTANCE FWL
 UTMY.m             4435808.83:  UTM Y
 UTMX.m              526266.40:  UTM X
 WHEW.m                  -3.84:  WELL HEAD E/W
 WHNS.m                   2.88:  WELL HEAD N/S
 LONG.deg                51.31:  LONGITUDE
 LATI.deg                40.06:  LATITUDE
 TVDS.m                  43.42:  TVDSS CORRECTN
 DEP .m                 430.08:  DEPTH
 EKB .m                  43.42:  KB ELEVATION
 EDF .m                  43.42:  DF ELEVATION
 TDL .m                 559.00:  TOTAL DEPTH (LOGGER)
 MAGU.                 1849381:  MAGUTM CHECKSUM
 VSC .                       0:  VS TO CLOSURE
~Parameter Information Block
#MNEM.UNIT       Value        Description
#---------     -----------    ---------------------------
 AV  .mps                 4.87:  Ann Velocity 
 AVMX.mps                 7.08:  Max Ann Veloc 
 AZIF.deg               108.87:  Azm, Final 
 BHAT.                  Rotary:  BHA Type 
 BROT.°/30m               0.35:  Build Rotating 
 BS  .in                  8.50:  Bit Size 
 BSZ .in                  8.50:  Bit Size 
 BTPL.psig              360.00:  Bit Press Loss 
 CABU.                     Yes:  Customer Abuse 
 COMM.                     ”£|:  Run Comments 1 
 TCS .hr                106.24:  Time Ciculation Ended 
 CV  .mps                 1.77:  Crit Velocity 
 CVMX.mps                 2.03:  Max Crit Veloc 
 DD1 .         Aykhan Agagulov:  Direct Drillr 1 
 DD2 .            Nonso Okofor:  Direct Drillr 2 
 DDSV.               Geo-Pilot:  DD Service 
 DEFF.%                  98.00:  % Det Eff 
 DLRX.°/30m               0.50:  Dogleg Rot Max 
 DLSO.°/30m               0.40:  Dogleg Oriented 
 DLSX.°/30m               0.94:  Dogleg Str Max 
 DRET.      20.30.00 08-Sep-20:  Drill End Time 
 DRST.      22.15.00 06-Sep-20:  Drill Start Tim 
 DTIM.hr                 31.31:  Time Drilling 
 EDEP.m                5790.01:  End Depth 
 ENG1.           Amrah Tahirov:  Engineer 1 
 ENG2.         Dair Mahammadov:  Engineer 2 
 ENG3.           Emil Huseynov:  Engineer 3 
 ETIM.      04.01.04 12-Sep-20:  End Time 
 FLOI.gpm               450.00:  Flow In 
 FLON.gpm               450.00:  Flow In Min 
 FLOS.cptm                2.00:  Fluid Loss 
 FLOX.gpm               450.00:  Flow In Max 
 FTRO.       Formation Presure:  FTWD Run Obj 
 HFLO.                      No:  High Flow 
 HPRE.                      No:  High Pressure 
 HTEM.                      No:  High Temp 
 HYDO.m                   1.80:  Hydro Offset 
 IFIN.deg                72.03:  Inc, Final 
 IMAX.deg                73.72:  Inc Max 
 IMIN.deg                70.94:  Inc Min 
 IMND.m                5508.52:  Inc Min Depth 
 IMXD.m                5253.60:  Inc Max Depth 
 JARR.                      No:  Jarring 
 LETM.      20.30.00 08-Sep-20:  Log End Time 
 LOST.hr                     0:  Lost Rig Time 
 LSTM.      22.15.00 06-Sep-20:  Log Start Time 
 MDCL.ppm             36000.00:  Mud Chlorides 
 MDES.     Inversion Oil/Synthetic:  Mud Desc 
 DFD .sg                  1.44:  Mud Density 
 MDMN.sg                  1.44:  Dens Mud Min 
 MDMX.sg                  1.57:  Dens Mud Max 
 MOIL.                      70:  Run Mud Oil % 
 MOWR.                   70:30:  Run Mud OWR 
 MSND.                       0:  Run Mud Sand % 
 MSOL.                      21:  Run Mud Solids% 
 DFV .spqt               68.00:  Mud Viscosity 
 MWOD.in                  6.75:  MWD Tool OD 
 MWSI.                     Yes:  Serv Intrp, MWD 
 OTIM.hr                174.84:  Time Operating 
 PCON.           Look Like New:  Pad Condition 
 PMAX.psia            10616.93:  Press Op, Max 
 PV  .cP                 50.00:  Mud PV 
 RUN .                     700:  Run Number 
 ROPA.m/hr               14.24:  ROP Avg 
 ROPN.m/hr               10.00:  ROP Min 
 ROPX.m/hr               32.00:  ROP Max 
 RPMA.rpm               120.90:  RPM Surface Avg 
 RPMN.rpm               120.00:  RPM Surface Min 
 RPMX.rpm               140.00:  RPM Surface Max 
 RRUN.                    0700:  Rig Run Number 
 RTIM.hr                  3.20:  Time Reaming 
 SAZI.deg               109.99:  Azm, Start 
 SDEP.m                5231.01:  Start Depth 
 SIDD.                      No:  Serv Intrp, DD 
 SINC.deg                73.72:  Inc, Start 
 SPPA.psig             3051.00:  SPP Avg 
 SPPN.psig             2950.00:  SPP Min 
 SPPX.psig             3250.00:  SPP Max 
 STIM.      08.00.00 05-Sep-20:  Start Time 
 SVCS.                 DD, MWD:  Services 
 SVER.                    9.20:  Sperry Version 
 TDAT.m                 559.00:  Tot Depth Attmp 
 TDDF.                      No:  Trip for DD 
 TDLG.m                 559.00:  Tot Depth Loggd 
 TFF .                      No:  Trip for Fail 
 TQAA.f-kp               26.49:  Torque Abs Avg 
 TQAN.f-kp               25.00:  Torque Abs Min 
 TQAX.f-kp               27.00:  Torque Abs Max 
 TRRT.°/30m               1.50:  Turn Rotating 
 MRT .                    HCIM:  Maximum Recorded Temperature 
 TTMX.degC               90.20:  Max Tool Temp 
 VS01.                90542671:  Virtual Str1 SN 
 VS02.                90545185:  Virtual Str2 SN 
 VS03.                90602015:  Virtual Str3 SN 
 VS04.                90515230:  Virtual Str4 SN 
 WBMN.klb                 5.00:  WOB Min 
 WOBA.klb                14.79:  WOB Avg 
 WOBX.klb                20.00:  WOB Max 
 YP  .lhf2               29.00:  Yield Point 
~Curve Information Block
#MNEM.UNIT                 API CODE     Curve Description
#---------               -----------    ---------------------------
 TIME.HHMMSS            00 000 000 000:  GT Time & Date
 GTDEPTH.m              00 000 000 000:  GT Depth
 GTPQH.psia             00 000 000 000:  GT HR Quartz Pressure
 GTTQ.degC              00 000 000 000:  GT Quartz Temperature
 GTTN.NONE              00 000 000 000:  GT Test Number
 GTET.sec               00 000 000 000:  GT Elapsed Test Time
 GTTVD.m                00 000 000 000:  GT True Vertical Depth
#Other Information
#
#WARRANTY: Halliburton will use its best efforts to furnish customers with 
#accurate information and interpretations that are part of, and incident to, the services 
#provided.  However, Halliburton cannot and does not warrant the accuracy 
#or correctness of such information and interpretations.  Under no circumstances should any 
#such information or interpretation be relied upon as the sole basis for any drilling, 
#completion, production, or financial decision or any procedure involving any risk to the 
#safety of any drilling venture, drilling rig or its crew or any other third party.  The 
#Customer has full responsibility for all drilling, completion and production operation.  
#Halliburton makes no representations or warranties, either expressed or 
#implied, including, but not limited to, the implied warranties of merchantability or fitness 
#for a particular purpose, with respect to the services rendered.  In no event will 
#Halliburton be liable for failure to obtain any particular results or for 
#any damages, including, but not limited to, indirect, special or consequential damages, 
#resulting from the use of any information or interpretation provided by Halliburton.
#
~A           TIME           GTDEPTH  GTPQH  GTTQ  GTTN  GTET   GTTVD  
# ...
   05:39:41.074.09-Sep-2020 5634.01 3689.32 79.94 1.00 206.99 2660.75
   05:39:41.274.09-Sep-2020 5634.01 3689.32 79.94 1.00 207.19 2660.75
   05:39:41.474.09-Sep-2020 5634.01 3689.27 79.94 1.00 207.39 2660.75
   05:39:41.674.09-Sep-2020 5634.01 3689.35 79.94 1.00 207.59 2660.75
   05:39:41.874.09-Sep-2020 5634.01 3689.29 79.94 1.00 207.79 2660.75
   05:39:42.074.09-Sep-2020 5634.01 3689.34 79.94 1.00 207.99 2660.75
   05:39:42.274.09-Sep-2020 5634.01 3689.34 79.94 1.00 208.19 2660.75
   05:39:42.474.09-Sep-2020 5634.01 3689.10 79.94 1.00 208.39 2660.75
   05:39:42.674.09-Sep-2020 5634.01 3689.51 79.94 1.00 208.59 2660.75
   05:39:42.874.09-Sep-2020 5634.01 3689.35 79.94 1.00 208.79 2660.75
   05:39:43.074.09-Sep-2020 5634.01 3689.27 79.94 1.00 208.99 2660.75
   05:39:43.274.09-Sep-2020 5634.01 3689.30 79.94 1.00 209.19 2660.75
   05:39:43.474.09-Sep-2020 5634.01 3689.32 79.94 1.00 209.39 2660.75
   05:39:43.674.09-Sep-2020 5634.01 3689.31 79.94 1.00 209.59 2660.75
   05:39:43.874.09-Sep-2020 5634.01 3689.34 79.94 1.00 209.79 2660.75
   05:39:44.074.09-Sep-2020 5634.01 3689.31 79.94 1.00 209.99 2660.75
   05:39:44.274.09-Sep-2020 5634.01 3689.31 79.94 1.00 210.19 2660.75
   05:39:44.474.09-Sep-2020 5634.01 3689.33 79.94 1.00 210.39 2660.75
   05:39:44.674.09-Sep-2020 5634.01 3689.31 79.94 1.00 210.59 2660.75
   05:39:44.874.09-Sep-2020 5634.01 3689.32 79.94 1.00 210.79 2660.75
   05:39:45.074.09-Sep-2020 5634.01 3689.31 79.94 1.00 210.99 2660.75
   05:39:45.274.09-Sep-2020 5634.01 3689.31 79.94 1.00 211.19 2660.75
   05:39:45.474.09-Sep-2020 5634.01 3689.31 79.94 1.00 211.39 2660.75
   05:39:45.674.09-Sep-2020 5634.01 3689.31 79.94 1.00 211.59 2660.75
   05:39:45.874.09-Sep-2020 5634.01 3689.32 79.94 1.00 211.79 2660.75
   05:39:46.074.09-Sep-2020 5634.01 3689.32 79.94 1.00 211.99 2660.75
   05:39:46.274.09-Sep-2020 5634.01 3689.32 79.94 1.00 212.19 2660.75
   05:39:46.474.09-Sep-2020 5634.01 3689.33 79.94 1.00 212.39 2660.75
   05:39:46.674.09-Sep-2020 5634.01 3689.33 79.94 1.00 212.59 2660.75
   05:39:46.874.09-Sep-2020 5634.01 3689.30 79.94 1.00 212.79 2660.75
   05:39:47.074.09-Sep-2020 5634.01 3689.28 79.94 1.00 212.99 2660.75
   05:39:47.274.09-Sep-2020 5634.01 3689.28 79.94 1.00 213.19 2660.75
   05:39:47.474.09-Sep-2020 5634.01 3689.31 79.94 1.00 213.39 2660.75
   05:39:47.674.09-Sep-2020 5634.01 3689.33 79.94 1.00 213.59 2660.75
   05:39:47.874.09-Sep-2020 5634.01 3689.31 79.94 1.00 213.79 2660.75
   05:39:48.074.09-Sep-2020 5634.01 3689.31 79.94 1.00 213.99 2660.75
   05:39:48.274.09-Sep-2020 5634.01 3689.31 79.94 1.00 214.19 2660.75
   05:39:48.474.09-Sep-2020 5634.01 3689.31 79.94 1.00 214.39 2660.75
   05:39:48.674.09-Sep-2020 5634.01 3689.32 79.94 1.00 214.59 2660.75
   05:39:48.874.09-Sep-2020 5634.01 3689.31 79.94 1.00 214.79 2660.75
   05:39:49.074.09-Sep-2020 5634.01 3689.31 79.94 1.00 214.99 2660.75
   05:39:49.274.09-Sep-2020 5634.01 3689.31 79.94 1.00 215.19 2660.75
   05:39:49.474.09-Sep-2020 5634.01 3689.31 79.94 1.00 215.39 2660.75
   05:39:49.674.09-Sep-2020 5634.01 3689.27 79.94 1.00 215.59 2660.75
   05:39:49.874.09-Sep-2020 5634.01 3689.35 79.94 1.00 215.79 2660.75
   05:39:50.074.09-Sep-2020 5634.01 3689.31 79.94 1.00 215.99 2660.75
   05:39:50.274.09-Sep-2020 5634.01 3689.31 79.94 1.00 216.19 2660.75
   05:39:50.474.09-Sep-2020 5634.01 3689.31 79.94 1.00 216.39 2660.75
   05:39:50.674.09-Sep-2020 5634.01 3689.10 79.94 1.00 216.59 2660.75
   05:39:50.874.09-Sep-2020 5634.01 3689.51 79.94 1.00 216.79 2660.75
   05:39:51.074.09-Sep-2020 5634.01 3689.34 79.94 1.00 216.99 2660.75
   05:39:51.274.09-Sep-2020 5634.01 3689.34 79.94 1.00 217.19 2660.75
   05:39:51.474.09-Sep-2020 5634.01 3689.30 79.94 1.00 217.39 2660.75
   05:39:51.674.09-Sep-2020 5634.01 3689.32 79.94 1.00 217.59 2660.75
   05:39:51.874.09-Sep-2020 5634.01 3689.48 79.94 1.00 217.79 2660.75
   05:39:52.074.09-Sep-2020 5634.01 3689.13 79.94 1.00 217.99 2660.75
   05:39:52.274.09-Sep-2020 5634.01 3689.13 79.94 1.00 218.19 2660.75
   05:39:52.474.09-Sep-2020 5634.01 3689.29 79.94 1.00 218.39 2660.75
   05:39:52.674.09-Sep-2020 5634.01 3689.36 79.94 1.00 218.59 2660.75
   05:39:52.874.09-Sep-2020 5634.01 3689.29 79.94 1.00 218.79 2660.75
   05:39:53.074.09-Sep-2020 5634.01 3689.40 79.94 1.00 218.99 2660.75
   05:39:53.274.09-Sep-2020 5634.01 3689.40 79.94 1.00 219.19 2660.75
   05:39:53.474.09-Sep-2020 5634.01 3689.32 79.94 1.00 219.39 2660.75
   05:39:53.674.09-Sep-2020 5634.01 3689.31 79.94 1.00 219.59 2660.75
   05:39:53.874.09-Sep-2020 5634.01 3689.28 79.94 1.00 219.79 2660.75
   05:39:54.074.09-Sep-2020 5634.01 3689.35 79.94 1.00 219.99 2660.75
   05:39:54.274.09-Sep-2020 5634.01 3689.35 79.94 1.00 220.19 2660.75
   05:39:54.474.09-Sep-2020 5634.01 3689.13 79.94 1.00 220.39 2660.75
   05:39:54.674.09-Sep-2020 5634.01 3689.34 79.94 1.00 220.59 2660.75
   05:39:54.874.09-Sep-2020 5634.01 3689.31 79.94 1.00 220.79 2660.75
   05:39:55.074.09-Sep-2020 5634.01 3689.35 79.94 1.00 220.99 2660.75
   05:39:55.274.09-Sep-2020 5634.01 3689.35 79.94 1.00 221.19 2660.75
   05:39:55.474.09-Sep-2020 5634.01 3689.33 79.93 1.00 221.39 2660.75
   05:39:55.674.09-Sep-2020 5634.01 3689.32 79.94 1.00 221.59 2660.75
   05:39:55.874.09-Sep-2020 5634.01 3689.32 79.93 1.00 221.79 2660.75
   05:39:56.074.09-Sep-2020 5634.01 3689.33 79.93 1.00 221.99 2660.75
   05:39:56.274.09-Sep-2020 5634.01 3689.33 79.93 1.00 222.19 2660.75
   05:39:56.474.09-Sep-2020 5634.01 3689.33 79.93 1.00 222.39 2660.75
   05:39:56.674.09-Sep-2020 5634.01 3689.33 79.93 1.00 222.59 2660.75
   05:39:56.874.09-Sep-2020 5634.01 3689.32 79.93 1.00 222.79 2660.75
   05:39:57.074.09-Sep-2020 5634.01 3689.32 79.93 1.00 222.99 2660.75
   05:39:57.274.09-Sep-2020 5634.01 3689.32 79.93 1.00 223.19 2660.75
   05:39:57.474.09-Sep-2020 5634.01 3689.32 79.93 1.00 223.39 2660.75
   05:39:57.674.09-Sep-2020 5634.01 3689.33 79.93 1.00 223.59 2660.75
   05:39:57.873.09-Sep-2020 5634.01 3689.33 79.93 1.00 223.79 2660.75
   05:39:58.073.09-Sep-2020 5634.01 3689.29 79.93 1.00 223.99 2660.75
   05:39:58.273.09-Sep-2020 5634.01 3689.29 79.93 1.00 224.19 2660.75
   05:39:58.473.09-Sep-2020 5634.01 3689.31 79.93 1.00 224.39 2660.75
   05:39:58.673.09-Sep-2020 5634.01 3689.34 79.93 1.00 224.59 2660.75
   05:39:58.873.09-Sep-2020 5634.01 3689.33 79.93 1.00 224.79 2660.75
   05:39:59.073.09-Sep-2020 5634.01 3689.31 79.93 1.00 224.99 2660.75
   05:39:59.273.09-Sep-2020 5634.01 3689.31 79.93 1.00 225.19 2660.75
   05:39:59.473.09-Sep-2020 5634.01 3689.33 79.93 1.00 225.39 2660.75
   05:39:59.673.09-Sep-2020 5634.01 3689.32 79.93 1.00 225.59 2660.75
   05:39:59.873.09-Sep-2020 5634.01 3689.32 79.93 1.00 225.79 2660.75
   05:40:00.073.09-Sep-2020 5634.01 3689.32 79.93 1.00 225.99 2660.75
   05:40:00.273.09-Sep-2020 5634.01 3689.32 79.93 1.00 226.19 2660.75
   05:40:00.473.09-Sep-2020 5634.01 3689.31 79.93 1.00 226.39 2660.75
   05:40:00.673.09-Sep-2020 5634.01 3689.32 79.93 1.00 226.59 2660.75
   05:40:00.873.09-Sep-2020 5634.01 3689.32 79.93 1.00 226.79 2660.75
   05:40:01.073.09-Sep-2020 5634.01 3689.32 79.93 1.00 226.99 2660.75
   05:40:01.273.09-Sep-2020 5634.01 3689.32 79.93 1.00 227.19 2660.75
   05:40:01.473.09-Sep-2020 5634.01 3689.33 79.93 1.00 227.39 2660.75
   05:40:01.673.09-Sep-2020 5634.01 3689.32 79.93 1.00 227.59 2660.75
   05:40:01.873.09-Sep-2020 5634.01 3689.30 79.93 1.00 227.79 2660.75
   05:40:02.073.09-Sep-2020 5634.01 3689.28 79.93 1.00 227.99 2660.75
   05:40:02.273.09-Sep-2020 5634.01 3689.28 79.93 1.00 228.19 2660.75
   05:40:02.473.09-Sep-2020 5634.01 3689.49 79.93 1.00 228.39 2660.75
   05:40:02.673.09-Sep-2020 5634.01 3689.13 79.93 1.00 228.59 2660.75
   05:40:02.873.09-Sep-2020 5634.01 3689.34 79.93 1.00 228.79 2660.75
   05:40:03.073.09-Sep-2020 5634.01 3689.31 79.93 1.00 228.99 2660.75
   05:40:03.273.09-Sep-2020 5634.01 3689.31 79.93 1.00 229.19 2660.75
   05:40:03.473.09-Sep-2020 5634.01 3689.09 79.93 1.00 229.39 2660.75
   05:40:03.673.09-Sep-2020 5634.01 3689.52 79.93 1.00 229.59 2660.75
   05:40:03.873.09-Sep-2020 5634.01 3689.36 79.93 1.00 229.79 2660.75
