~Version Information
 VERS.                  2.0:   CWLS log ASCII Standard -VERSION 2.0
 WRAP.                   NO:   One line per depth step
~Well Information Block
#MNEM.UNIT     VALUE/NAME     DESCRIPTION
#---------     -----------    ---------------------------
 STRT.S             13:30:41 09-Sep-20: START TIME 13:30:41 09-Sep-20
 STOP.S             13:37:24 09-Sep-20: STOP TIME  13:37:24 09-Sep-20
 STEP.S                   0.00: STEP TIME
 NULL.                 -999.25: NULL VALUE
 MDS .        Operator Entered:  MAG DATA SOURCE
 PDAT.          Mean Sea Level:  PERMANENT DATUM
 DCON.         Sperry Drilling:  DIRECTNL CONTR
 RIG .              West Azeri:  RIG NAME
 WELL.           C40 (Slot 20):  WELL NAME
 SRVC.     Turan Drilling Engineering:  CONTRACTOR
 FLD .                     ACG:  FIELD NAME
 CTRY.              Azerbaijan:  COUNTRY NAME
 PROV.                    Baku:  PROVINCE
 STAT.                    Baku:  STATE NAME
 REGN.                   EESSA:  REGION
 BASE.              Azerbaijan:  LOGGING EQUIPMENT BASE LOCATION
 COMP.     BP Exploration (Caspian Sea) Ltd:  COMPANY
 WTYP.                Deviated:  WELL TYPE
 SON .        AZ-XX-0906344804:  JOB NUMBER
 FTOP.          Formation Tops:  FORM TOPS DESC
 ILTD.               Lithology:  INTERP LTH DESC
 SVYD.                  Survey:  SURVEY DESC
 DMOD.             Drill Model:  DRILL MOD DESC
 HPTY.       Minimum Curvature:  HOLE POS TYPE
 NREF.                    Grid:  NORTH REFERENCE
 SPUD.               01-Jan-20:  SPUD DATE
 DATE.      00.59.44 15-Sep-20:  END TIME
 STIM.      12.00.00 12-Jun-20:  START TIME
 DMF .             Drill Floor:  DRILL MEAS FROM
 DFST.                        :  DIST FSL TEXT
 DFWT.                        :  DIST FWL TEXT
 API .                        :  API NUMBER
 CNTY.                        :  COUNTY
 UWI .                        :  UNIQUE WELL IDENTIFIER
 LOC .                        :  LOCATION
 LMF .             Drill Floor:  LOG MEASURED FROM
 VSNS.m                   2.88:  VERT SEC N/S
 VSEW.m                  -3.84:  VERT SEC E/W
 AGAP.m                  43.42:  AIR GAP
 APD .m                  43.42:  DEPTH ABOVE PD
 WDMS.m                 118.27:  WD ELEV
 EGL .m                   0.00:  GROUND ELEVATION
 EPD .m                   0.00:  ELEVATION
 AZTC.deg                 6.23:  AZM TOTAL CORR
 GRDC.deg                 0.20:  GRID CORRECTION
 MDEC.deg                 6.43:  MAGNETIC DECL
 MDIP.deg                59.49:  MAGNETIC DIP
 MFLD.nT              50277.00:  MAGNETIC FIELD
 GVFD.g                   1.00:  GRAVITY FIELD
 VSDR.deg               173.20:  VERT SEC DIRECT
 TDD .m                5790.01:  TOTAL DEPTH (DRILLER)
 SDEP.m                5231.01:  START DEPTH
 DFSL.m                   0.00:  DISTANCE FSL
 DFWL.m                   0.00:  DISTANCE FWL
 UTMY.m             4435808.83:  UTM Y
 UTMX.m              526266.40:  UTM X
 WHEW.m                  -3.84:  WELL HEAD E/W
 WHNS.m                   2.88:  WELL HEAD N/S
 LONG.deg                51.31:  LONGITUDE
 LATI.deg                40.06:  LATITUDE
 TVDS.m                  43.42:  TVDSS CORRECTN
 DEP .m                 430.08:  DEPTH
 EKB .m                  43.42:  KB ELEVATION
 EDF .m                  43.42:  DF ELEVATION
 TDL .m                 559.00:  TOTAL DEPTH (LOGGER)
 MAGU.                 1849381:  MAGUTM CHECKSUM
 VSC .                       0:  VS TO CLOSURE
~Parameter Information Block
#MNEM.UNIT       Value        Description
#---------     -----------    ---------------------------
 AV  .mps                 4.87:  Ann Velocity 
 AVMX.mps                 7.08:  Max Ann Veloc 
 AZIF.deg               108.87:  Azm, Final 
 BHAT.                  Rotary:  BHA Type 
 BROT.°/30m               0.35:  Build Rotating 
 BS  .in                  8.50:  Bit Size 
 BSZ .in                  8.50:  Bit Size 
 BTPL.psig              360.00:  Bit Press Loss 
 CABU.                     Yes:  Customer Abuse 
 COMM.                     $ñd:  Run Comments 1 
 TCS .hr                106.24:  Time Ciculation Ended 
 CV  .mps                 1.77:  Crit Velocity 
 CVMX.mps                 2.03:  Max Crit Veloc 
 DD1 .         Aykhan Agagulov:  Direct Drillr 1 
 DD2 .            Nonso Okofor:  Direct Drillr 2 
 DDSV.               Geo-Pilot:  DD Service 
 DEFF.%                  98.00:  % Det Eff 
 DLRX.°/30m               0.50:  Dogleg Rot Max 
 DLSO.°/30m               0.40:  Dogleg Oriented 
 DLSX.°/30m               0.94:  Dogleg Str Max 
 DRET.      20.30.00 08-Sep-20:  Drill End Time 
 DRST.      22.15.00 06-Sep-20:  Drill Start Tim 
 DTIM.hr                 31.31:  Time Drilling 
 EDEP.m                5790.01:  End Depth 
 ENG1.           Amrah Tahirov:  Engineer 1 
 ENG2.         Dair Mahammadov:  Engineer 2 
 ENG3.           Emil Huseynov:  Engineer 3 
 ETIM.      04.01.04 12-Sep-20:  End Time 
 FLOI.gpm               450.00:  Flow In 
 FLON.gpm               450.00:  Flow In Min 
 FLOS.cptm                2.00:  Fluid Loss 
 FLOX.gpm               450.00:  Flow In Max 
 FTRO.       Formation Presure:  FTWD Run Obj 
 HFLO.                      No:  High Flow 
 HPRE.                      No:  High Pressure 
 HTEM.                      No:  High Temp 
 HYDO.m                   1.80:  Hydro Offset 
 IFIN.deg                72.03:  Inc, Final 
 IMAX.deg                73.72:  Inc Max 
 IMIN.deg                70.94:  Inc Min 
 IMND.m                5508.52:  Inc Min Depth 
 IMXD.m                5253.60:  Inc Max Depth 
 JARR.                      No:  Jarring 
 LETM.      20.30.00 08-Sep-20:  Log End Time 
 LOST.hr                     0:  Lost Rig Time 
 LSTM.      22.15.00 06-Sep-20:  Log Start Time 
 MDCL.ppm             36000.00:  Mud Chlorides 
 MDES.     Inversion Oil/Synthetic:  Mud Desc 
 DFD .sg                  1.44:  Mud Density 
 MDMN.sg                  1.44:  Dens Mud Min 
 MDMX.sg                  1.57:  Dens Mud Max 
 MOIL.                      70:  Run Mud Oil % 
 MOWR.                   70:30:  Run Mud OWR 
 MSND.                       0:  Run Mud Sand % 
 MSOL.                      21:  Run Mud Solids% 
 DFV .spqt               68.00:  Mud Viscosity 
 MWOD.in                  6.75:  MWD Tool OD 
 MWSI.                     Yes:  Serv Intrp, MWD 
 OTIM.hr                174.84:  Time Operating 
 PCON.           Look Like New:  Pad Condition 
 PMAX.psia            10616.93:  Press Op, Max 
 PV  .cP                 50.00:  Mud PV 
 RUN .                     700:  Run Number 
 ROPA.m/hr               14.24:  ROP Avg 
 ROPN.m/hr               10.00:  ROP Min 
 ROPX.m/hr               32.00:  ROP Max 
 RPMA.rpm               120.90:  RPM Surface Avg 
 RPMN.rpm               120.00:  RPM Surface Min 
 RPMX.rpm               140.00:  RPM Surface Max 
 RRUN.                    0700:  Rig Run Number 
 RTIM.hr                  3.20:  Time Reaming 
 SAZI.deg               109.99:  Azm, Start 
 SDEP.m                5231.01:  Start Depth 
 SIDD.                      No:  Serv Intrp, DD 
 SINC.deg                73.72:  Inc, Start 
 SPPA.psig             3051.00:  SPP Avg 
 SPPN.psig             2950.00:  SPP Min 
 SPPX.psig             3250.00:  SPP Max 
 STIM.      08.00.00 05-Sep-20:  Start Time 
 SVCS.                 DD, MWD:  Services 
 SVER.                    9.20:  Sperry Version 
 TDAT.m                 559.00:  Tot Depth Attmp 
 TDDF.                      No:  Trip for DD 
 TDLG.m                 559.00:  Tot Depth Loggd 
 TFF .                      No:  Trip for Fail 
 TQAA.f-kp               26.49:  Torque Abs Avg 
 TQAN.f-kp               25.00:  Torque Abs Min 
 TQAX.f-kp               27.00:  Torque Abs Max 
 TRRT.°/30m               1.50:  Turn Rotating 
 MRT .                    HCIM:  Maximum Recorded Temperature 
 TTMX.degC               90.20:  Max Tool Temp 
 VS01.                90542671:  Virtual Str1 SN 
 VS02.                90545185:  Virtual Str2 SN 
 VS03.                90602015:  Virtual Str3 SN 
 VS04.                90515230:  Virtual Str4 SN 
 WBMN.klb                 5.00:  WOB Min 
 WOBA.klb                14.79:  WOB Avg 
 WOBX.klb                20.00:  WOB Max 
 YP  .lhf2               29.00:  Yield Point 
~Curve Information Block
#MNEM.UNIT                 API CODE     Curve Description
#---------               -----------    ---------------------------
 TIME.HHMMSS            00 000 000 000:  GT Time & Date
 GTDEPTH.m              00 000 000 000:  GT Depth
 GTPQH.psia             00 000 000 000:  GT HR Quartz Pressure
 GTTQ.degC              00 000 000 000:  GT Quartz Temperature
 GTTN.NONE              00 000 000 000:  GT Test Number
 GTET.sec               00 000 000 000:  GT Elapsed Test Time
 GTTVD.m                00 000 000 000:  GT True Vertical Depth
#Other Information
#
#WARRANTY: Halliburton will use its best efforts to furnish customers with 
#accurate information and interpretations that are part of, and incident to, the services 
#provided.  However, Halliburton cannot and does not warrant the accuracy 
#or correctness of such information and interpretations.  Under no circumstances should any 
#such information or interpretation be relied upon as the sole basis for any drilling, 
#completion, production, or financial decision or any procedure involving any risk to the 
#safety of any drilling venture, drilling rig or its crew or any other third party.  The 
#Customer has full responsibility for all drilling, completion and production operation.  
#Halliburton makes no representations or warranties, either expressed or 
#implied, including, but not limited to, the implied warranties of merchantability or fitness 
#for a particular purpose, with respect to the services rendered.  In no event will 
#Halliburton be liable for failure to obtain any particular results or for 
#any damages, including, but not limited to, indirect, special or consequential damages, 
#resulting from the use of any information or interpretation provided by Halliburton.
#
~A           TIME           GTDEPTH  GTPQH  GTTQ  GTTN   GTET   GTTVD  
# ...
   13:36:20.692.09-Sep-2020 5408.01 3590.47 75.51 15.00 339.21 2589.60
   13:36:20.892.09-Sep-2020 5408.01 3590.47 75.51 15.00 339.41 2589.60
   13:36:21.092.09-Sep-2020 5408.01 3590.54 75.51 15.00 339.61 2589.60
   13:36:21.292.09-Sep-2020 5408.01 3589.44 75.51 15.00 339.81 2589.60
   13:36:21.492.09-Sep-2020 5408.01 3590.91 75.51 15.00 340.01 2589.60
   13:36:21.692.09-Sep-2020 5408.01 3590.68 75.51 15.00 340.21 2589.60
   13:36:21.892.09-Sep-2020 5408.01 3590.68 75.51 15.00 340.41 2589.60
   13:36:22.093.09-Sep-2020 5408.01 3590.70 75.51 15.00 340.61 2589.60
   13:36:22.293.09-Sep-2020 5408.01 3590.97 75.51 15.00 340.81 2589.60
   13:36:22.493.09-Sep-2020 5408.01 3590.77 75.51 15.00 341.01 2589.60
   13:36:22.693.09-Sep-2020 5408.01 3590.47 75.51 15.00 341.21 2589.60
   13:36:22.893.09-Sep-2020 5408.01 3590.47 75.51 15.00 341.41 2589.60
   13:36:23.093.09-Sep-2020 5408.01 3590.94 75.51 15.00 341.61 2589.60
   13:36:23.293.09-Sep-2020 5408.01 3590.84 75.51 15.00 341.81 2589.60
   13:36:23.493.09-Sep-2020 5408.01 3590.61 75.51 15.00 342.01 2589.60
   13:36:23.694.09-Sep-2020 5408.01 3590.87 75.51 15.00 342.21 2589.60
   13:36:23.894.09-Sep-2020 5408.01 3590.87 75.51 15.00 342.41 2589.60
   13:36:24.094.09-Sep-2020 5408.01 3590.83 75.51 15.00 342.61 2589.60
   13:36:24.294.09-Sep-2020 5408.01 3590.84 75.51 15.00 342.81 2589.60
   13:36:24.494.09-Sep-2020 5408.01 3590.79 75.51 15.00 343.01 2589.60
   13:36:24.694.09-Sep-2020 5408.01 3590.77 75.51 15.00 343.21 2589.60
   13:36:24.894.09-Sep-2020 5408.01 3590.77 75.51 15.00 343.41 2589.60
   13:36:25.094.09-Sep-2020 5408.01 3590.81 75.51 15.00 343.61 2589.60
   13:36:25.295.09-Sep-2020 5408.01 3590.77 75.51 15.00 343.81 2589.60
   13:36:25.495.09-Sep-2020 5408.01 3590.72 75.51 15.00 344.01 2589.60
   13:36:25.695.09-Sep-2020 5408.01 3590.74 75.51 15.00 344.21 2589.60
   13:36:25.895.09-Sep-2020 5408.01 3590.74 75.51 15.00 344.41 2589.60
   13:36:26.095.09-Sep-2020 5408.01 3590.92 75.51 15.00 344.61 2589.60
   13:36:26.295.09-Sep-2020 5408.01 3590.99 75.51 15.00 344.81 2589.60
   13:36:26.495.09-Sep-2020 5408.01 3589.64 75.51 15.00 345.01 2589.60
   13:36:26.695.09-Sep-2020 5408.01 3591.25 75.51 15.00 345.21 2589.60
   13:36:26.896.09-Sep-2020 5408.01 3591.25 75.51 15.00 345.41 2589.60
   13:36:27.096.09-Sep-2020 5408.01 3590.86 75.51 15.00 345.61 2589.60
   13:36:27.296.09-Sep-2020 5408.01 3590.67 75.51 15.00 345.81 2589.60
   13:36:27.496.09-Sep-2020 5408.01 3591.03 75.51 15.00 346.01 2589.60
   13:36:27.696.09-Sep-2020 5408.01 3590.72 75.51 15.00 346.21 2589.60
   13:36:27.896.09-Sep-2020 5408.01 3590.72 75.51 15.00 346.41 2589.60
   13:36:28.096.09-Sep-2020 5408.01 3590.64 75.51 15.00 346.61 2589.60
   13:36:28.296.09-Sep-2020 5408.01 3590.63 75.51 15.00 346.81 2589.60
   13:36:28.497.09-Sep-2020 5408.01 3590.71 75.51 15.00 347.01 2589.60
   13:36:28.697.09-Sep-2020 5408.01 3590.68 75.51 15.00 347.21 2589.60
   13:36:28.897.09-Sep-2020 5408.01 3590.68 75.51 15.00 347.41 2589.60
   13:36:29.097.09-Sep-2020 5408.01 3590.78 75.51 15.00 347.61 2589.60
   13:36:29.297.09-Sep-2020 5408.01 3590.82 75.51 15.00 347.81 2589.60
   13:36:29.497.09-Sep-2020 5408.01 3590.77 75.51 15.00 348.01 2589.60
   13:36:29.697.09-Sep-2020 5408.01 3590.68 75.51 15.00 348.21 2589.60
   13:36:29.897.09-Sep-2020 5408.01 3590.68 75.51 15.00 348.41 2589.60
   13:36:30.097.09-Sep-2020 5408.01 3590.69 75.51 15.00 348.61 2589.60
   13:36:30.298.09-Sep-2020 5408.01 3590.89 75.51 15.00 348.81 2589.60
   13:36:30.498.09-Sep-2020 5408.01 3590.82 75.51 15.00 349.01 2589.60
   13:36:30.698.09-Sep-2020 5408.01 3591.03 75.51 15.00 349.21 2589.60
   13:36:30.898.09-Sep-2020 5408.01 3591.03 75.51 15.00 349.41 2589.60
   13:36:31.098.09-Sep-2020 5408.01 3590.03 75.51 15.00 349.61 2589.60
   13:36:31.298.09-Sep-2020 5408.01 3590.90 75.51 15.00 349.81 2589.60
   13:36:31.498.09-Sep-2020 5408.01 3590.96 75.51 15.00 350.01 2589.60
   13:36:31.698.09-Sep-2020 5408.01 3590.69 75.51 15.00 350.21 2589.60
   13:36:31.899.09-Sep-2020 5408.01 3590.69 75.51 15.00 350.41 2589.60
   13:36:32.099.09-Sep-2020 5408.01 3590.53 75.51 15.00 350.61 2589.60
   13:36:32.299.09-Sep-2020 5408.01 3590.82 75.51 15.00 350.81 2589.60
   13:36:32.499.09-Sep-2020 5408.01 3590.81 75.51 15.00 351.01 2589.60
   13:36:32.699.09-Sep-2020 5408.01 3589.73 75.51 15.00 351.21 2589.60
   13:36:32.899.09-Sep-2020 5408.01 3589.73 75.51 15.00 351.41 2589.60
   13:36:33.099.09-Sep-2020 5408.01 3590.80 75.51 15.00 351.61 2589.60
   13:36:33.299.09-Sep-2020 5408.01 3590.83 75.51 15.00 351.82 2589.60
   13:36:33.500.09-Sep-2020 5408.01 3590.85 75.51 15.00 352.02 2589.60
   13:36:33.700.09-Sep-2020 5408.01 3591.14 75.51 15.00 352.22 2589.60
   13:36:33.900.09-Sep-2020 5408.01 3591.14 75.51 15.00 352.42 2589.60
   13:36:34.100.09-Sep-2020 5408.01 3590.36 75.51 15.00 352.62 2589.60
   13:36:34.300.09-Sep-2020 5408.01 3590.09 75.51 15.00 352.82 2589.60
   13:36:34.500.09-Sep-2020 5408.01 3590.97 75.51 15.00 353.02 2589.60
   13:36:34.700.09-Sep-2020 5408.01 3590.96 75.51 15.00 353.22 2589.60
   13:36:34.900.09-Sep-2020 5408.01 3590.96 75.51 15.00 353.42 2589.60
   13:36:35.101.09-Sep-2020 5408.01 3591.11 75.51 15.00 353.62 2589.60
   13:36:35.301.09-Sep-2020 5408.01 3590.80 75.51 15.00 353.82 2589.60
   13:36:35.501.09-Sep-2020 5408.01 3590.93 75.51 15.00 354.02 2589.60
   13:36:35.701.09-Sep-2020 5408.01 3590.93 75.51 15.00 354.22 2589.60
   13:36:35.901.09-Sep-2020 5408.01 3590.93 75.51 15.00 354.42 2589.60
   13:36:36.101.09-Sep-2020 5408.01 3590.93 75.51 15.00 354.62 2589.60
   13:36:36.301.09-Sep-2020 5408.01 3590.98 75.51 15.00 354.82 2589.60
   13:36:36.501.09-Sep-2020 5408.01 3591.09 75.51 15.00 355.02 2589.60
   13:36:36.702.09-Sep-2020 5408.01 3591.08 75.51 15.00 355.22 2589.60
   13:36:36.902.09-Sep-2020 5408.01 3591.08 75.51 15.00 355.42 2589.60
   13:36:37.102.09-Sep-2020 5408.01 3590.99 75.51 15.00 355.62 2589.60
   13:36:37.302.09-Sep-2020 5408.01 3591.06 75.51 15.00 355.82 2589.60
   13:36:37.502.09-Sep-2020 5408.01 3591.14 75.51 15.00 356.02 2589.60
   13:36:37.702.09-Sep-2020 5408.01 3591.10 75.51 15.00 356.22 2589.60
   13:36:37.902.09-Sep-2020 5408.01 3591.10 75.51 15.00 356.42 2589.60
   13:36:38.102.09-Sep-2020 5408.01 3591.24 75.51 15.00 356.62 2589.60
   13:36:38.303.09-Sep-2020 5408.01 3590.87 75.51 15.00 356.82 2589.60
   13:36:38.503.09-Sep-2020 5408.01 3590.92 75.51 15.00 357.02 2589.60
   13:36:38.703.09-Sep-2020 5408.01 3590.78 75.51 15.00 357.22 2589.60
   13:36:38.903.09-Sep-2020 5408.01 3590.78 75.51 15.00 357.42 2589.60
   13:36:39.103.09-Sep-2020 5408.01 3590.85 75.51 15.00 357.62 2589.60
   13:36:39.303.09-Sep-2020 5408.01 3590.79 75.51 15.00 357.82 2589.60
   13:36:39.503.09-Sep-2020 5408.01 3590.86 75.51 15.00 358.02 2589.60
   13:36:39.703.09-Sep-2020 5408.01 3590.89 75.51 15.00 358.22 2589.60
   13:36:39.903.09-Sep-2020 5408.01 3590.89 75.51 15.00 358.42 2589.60
   13:36:40.104.09-Sep-2020 5408.01 3590.83 75.51 15.00 358.62 2589.60
   13:36:40.304.09-Sep-2020 5408.01 3590.73 75.51 15.00 358.82 2589.60
   13:36:40.504.09-Sep-2020 5408.01 3590.77 75.51 15.00 359.02 2589.60
   13:36:40.704.09-Sep-2020 5408.01 3590.88 75.51 15.00 359.22 2589.60
   13:36:40.904.09-Sep-2020 5408.01 3590.88 75.51 15.00 359.42 2589.60
   13:36:41.104.09-Sep-2020 5408.01 3590.91 75.51 15.00 359.62 2589.60
   13:36:41.304.09-Sep-2020 5408.01 3590.03 75.51 15.00 359.82 2589.60
   13:36:41.504.09-Sep-2020 5408.01 3590.82 75.51 15.00 360.02 2589.60
   13:36:41.705.09-Sep-2020 5408.01 3590.99 75.51 15.00 360.22 2589.60
   13:36:41.905.09-Sep-2020 5408.01 3590.99 75.51 15.00 360.42 2589.60
   13:36:42.105.09-Sep-2020 5408.01 3591.10 75.51 15.00 360.62 2589.60
   13:36:42.305.09-Sep-2020 5408.01 3590.50 75.51 15.00 360.82 2589.60
   13:36:42.505.09-Sep-2020 5408.01 3590.20 75.51 15.00 361.02 2589.60
   13:36:42.705.09-Sep-2020 5408.01 3591.01 75.51 15.00 361.22 2589.60
   13:36:42.905.09-Sep-2020 5408.01 3591.01 75.51 15.00 361.42 2589.60
   13:36:43.105.09-Sep-2020 5408.01 3590.91 75.51 15.00 361.62 2589.60
