~Version Information
 VERS.                  2.0:   CWLS log ASCII Standard -VERSION 2.0
 WRAP.                   NO:   One line per depth step
~Well Information Block
#MNEM.UNIT     VALUE/NAME     DESCRIPTION
#---------     -----------    ---------------------------
 STRT.S             17:25:53 09-Sep-20: START TIME 17:25:53 09-Sep-20
 STOP.S             17:34:04 09-Sep-20: STOP TIME  17:34:04 09-Sep-20
 STEP.S                   0.00: STEP TIME
 NULL.                 -999.25: NULL VALUE
 MDS .        Operator Entered:  MAG DATA SOURCE
 PDAT.          Mean Sea Level:  PERMANENT DATUM
 DCON.         Sperry Drilling:  DIRECTNL CONTR
 RIG .              West Azeri:  RIG NAME
 WELL.           C40 (Slot 20):  WELL NAME
 SRVC.     Turan Drilling Engineering:  CONTRACTOR
 FLD .                     ACG:  FIELD NAME
 CTRY.              Azerbaijan:  COUNTRY NAME
 PROV.                    Baku:  PROVINCE
 STAT.                    Baku:  STATE NAME
 REGN.                   EESSA:  REGION
 BASE.              Azerbaijan:  LOGGING EQUIPMENT BASE LOCATION
 COMP.     BP Exploration (Caspian Sea) Ltd:  COMPANY
 WTYP.                Deviated:  WELL TYPE
 SON .        AZ-XX-0906344804:  JOB NUMBER
 FTOP.          Formation Tops:  FORM TOPS DESC
 ILTD.               Lithology:  INTERP LTH DESC
 SVYD.                  Survey:  SURVEY DESC
 DMOD.             Drill Model:  DRILL MOD DESC
 HPTY.       Minimum Curvature:  HOLE POS TYPE
 NREF.                    Grid:  NORTH REFERENCE
 SPUD.               01-Jan-20:  SPUD DATE
 DATE.      00.59.44 15-Sep-20:  END TIME
 STIM.      12.00.00 12-Jun-20:  START TIME
 DMF .             Drill Floor:  DRILL MEAS FROM
 DFST.                        :  DIST FSL TEXT
 DFWT.                        :  DIST FWL TEXT
 API .                        :  API NUMBER
 CNTY.                        :  COUNTY
 UWI .                        :  UNIQUE WELL IDENTIFIER
 LOC .                        :  LOCATION
 LMF .             Drill Floor:  LOG MEASURED FROM
 VSNS.m                   2.88:  VERT SEC N/S
 VSEW.m                  -3.84:  VERT SEC E/W
 AGAP.m                  43.42:  AIR GAP
 APD .m                  43.42:  DEPTH ABOVE PD
 WDMS.m                 118.27:  WD ELEV
 EGL .m                   0.00:  GROUND ELEVATION
 EPD .m                   0.00:  ELEVATION
 AZTC.deg                 6.23:  AZM TOTAL CORR
 GRDC.deg                 0.20:  GRID CORRECTION
 MDEC.deg                 6.43:  MAGNETIC DECL
 MDIP.deg                59.49:  MAGNETIC DIP
 MFLD.nT              50277.00:  MAGNETIC FIELD
 GVFD.g                   1.00:  GRAVITY FIELD
 VSDR.deg               173.20:  VERT SEC DIRECT
 TDD .m                5790.01:  TOTAL DEPTH (DRILLER)
 SDEP.m                5231.01:  START DEPTH
 DFSL.m                   0.00:  DISTANCE FSL
 DFWL.m                   0.00:  DISTANCE FWL
 UTMY.m             4435808.83:  UTM Y
 UTMX.m              526266.40:  UTM X
 WHEW.m                  -3.84:  WELL HEAD E/W
 WHNS.m                   2.88:  WELL HEAD N/S
 LONG.deg                51.31:  LONGITUDE
 LATI.deg                40.06:  LATITUDE
 TVDS.m                  43.42:  TVDSS CORRECTN
 DEP .m                 430.08:  DEPTH
 EKB .m                  43.42:  KB ELEVATION
 EDF .m                  43.42:  DF ELEVATION
 TDL .m                 559.00:  TOTAL DEPTH (LOGGER)
 MAGU.                 1849381:  MAGUTM CHECKSUM
 VSC .                       0:  VS TO CLOSURE
~Parameter Information Block
#MNEM.UNIT       Value        Description
#---------     -----------    ---------------------------
 AV  .mps                 4.87:  Ann Velocity 
 AVMX.mps                 7.08:  Max Ann Veloc 
 AZIF.deg               108.87:  Azm, Final 
 BHAT.                  Rotary:  BHA Type 
 BROT.°/30m               0.35:  Build Rotating 
 BS  .in                  8.50:  Bit Size 
 BSZ .in                  8.50:  Bit Size 
 BTPL.psig              360.00:  Bit Press Loss 
 CABU.                     Yes:  Customer Abuse 
 COMM.                     ô¸n:  Run Comments 1 
 TCS .hr                106.24:  Time Ciculation Ended 
 CV  .mps                 1.77:  Crit Velocity 
 CVMX.mps                 2.03:  Max Crit Veloc 
 DD1 .         Aykhan Agagulov:  Direct Drillr 1 
 DD2 .            Nonso Okofor:  Direct Drillr 2 
 DDSV.               Geo-Pilot:  DD Service 
 DEFF.%                  98.00:  % Det Eff 
 DLRX.°/30m               0.50:  Dogleg Rot Max 
 DLSO.°/30m               0.40:  Dogleg Oriented 
 DLSX.°/30m               0.94:  Dogleg Str Max 
 DRET.      20.30.00 08-Sep-20:  Drill End Time 
 DRST.      22.15.00 06-Sep-20:  Drill Start Tim 
 DTIM.hr                 31.31:  Time Drilling 
 EDEP.m                5790.01:  End Depth 
 ENG1.           Amrah Tahirov:  Engineer 1 
 ENG2.         Dair Mahammadov:  Engineer 2 
 ENG3.           Emil Huseynov:  Engineer 3 
 ETIM.      04.01.04 12-Sep-20:  End Time 
 FLOI.gpm               450.00:  Flow In 
 FLON.gpm               450.00:  Flow In Min 
 FLOS.cptm                2.00:  Fluid Loss 
 FLOX.gpm               450.00:  Flow In Max 
 FTRO.       Formation Presure:  FTWD Run Obj 
 HFLO.                      No:  High Flow 
 HPRE.                      No:  High Pressure 
 HTEM.                      No:  High Temp 
 HYDO.m                   1.80:  Hydro Offset 
 IFIN.deg                72.03:  Inc, Final 
 IMAX.deg                73.72:  Inc Max 
 IMIN.deg                70.94:  Inc Min 
 IMND.m                5508.52:  Inc Min Depth 
 IMXD.m                5253.60:  Inc Max Depth 
 JARR.                      No:  Jarring 
 LETM.      20.30.00 08-Sep-20:  Log End Time 
 LOST.hr                     0:  Lost Rig Time 
 LSTM.      22.15.00 06-Sep-20:  Log Start Time 
 MDCL.ppm             36000.00:  Mud Chlorides 
 MDES.     Inversion Oil/Synthetic:  Mud Desc 
 DFD .sg                  1.44:  Mud Density 
 MDMN.sg                  1.44:  Dens Mud Min 
 MDMX.sg                  1.57:  Dens Mud Max 
 MOIL.                      70:  Run Mud Oil % 
 MOWR.                   70:30:  Run Mud OWR 
 MSND.                       0:  Run Mud Sand % 
 MSOL.                      21:  Run Mud Solids% 
 DFV .spqt               68.00:  Mud Viscosity 
 MWOD.in                  6.75:  MWD Tool OD 
 MWSI.                     Yes:  Serv Intrp, MWD 
 OTIM.hr                174.84:  Time Operating 
 PCON.           Look Like New:  Pad Condition 
 PMAX.psia            10616.93:  Press Op, Max 
 PV  .cP                 50.00:  Mud PV 
 RUN .                     700:  Run Number 
 ROPA.m/hr               14.24:  ROP Avg 
 ROPN.m/hr               10.00:  ROP Min 
 ROPX.m/hr               32.00:  ROP Max 
 RPMA.rpm               120.90:  RPM Surface Avg 
 RPMN.rpm               120.00:  RPM Surface Min 
 RPMX.rpm               140.00:  RPM Surface Max 
 RRUN.                    0700:  Rig Run Number 
 RTIM.hr                  3.20:  Time Reaming 
 SAZI.deg               109.99:  Azm, Start 
 SDEP.m                5231.01:  Start Depth 
 SIDD.                      No:  Serv Intrp, DD 
 SINC.deg                73.72:  Inc, Start 
 SPPA.psig             3051.00:  SPP Avg 
 SPPN.psig             2950.00:  SPP Min 
 SPPX.psig             3250.00:  SPP Max 
 STIM.      08.00.00 05-Sep-20:  Start Time 
 SVCS.                 DD, MWD:  Services 
 SVER.                    9.20:  Sperry Version 
 TDAT.m                 559.00:  Tot Depth Attmp 
 TDDF.                      No:  Trip for DD 
 TDLG.m                 559.00:  Tot Depth Loggd 
 TFF .                      No:  Trip for Fail 
 TQAA.f-kp               26.49:  Torque Abs Avg 
 TQAN.f-kp               25.00:  Torque Abs Min 
 TQAX.f-kp               27.00:  Torque Abs Max 
 TRRT.°/30m               1.50:  Turn Rotating 
 MRT .                    HCIM:  Maximum Recorded Temperature 
 TTMX.degC               90.20:  Max Tool Temp 
 VS01.                90542671:  Virtual Str1 SN 
 VS02.                90545185:  Virtual Str2 SN 
 VS03.                90602015:  Virtual Str3 SN 
 VS04.                90515230:  Virtual Str4 SN 
 WBMN.klb                 5.00:  WOB Min 
 WOBA.klb                14.79:  WOB Avg 
 WOBX.klb                20.00:  WOB Max 
 YP  .lhf2               29.00:  Yield Point 
~Curve Information Block
#MNEM.UNIT                 API CODE     Curve Description
#---------               -----------    ---------------------------
 TIME.HHMMSS            00 000 000 000:  GT Time & Date
 GTDEPTH.m              00 000 000 000:  GT Depth
 GTPQH.psia             00 000 000 000:  GT HR Quartz Pressure
 GTTQ.degC              00 000 000 000:  GT Quartz Temperature
 GTTN.NONE              00 000 000 000:  GT Test Number
 GTET.sec               00 000 000 000:  GT Elapsed Test Time
 GTTVD.m                00 000 000 000:  GT True Vertical Depth
#Other Information
#
#WARRANTY: Halliburton will use its best efforts to furnish customers with 
#accurate information and interpretations that are part of, and incident to, the services 
#provided.  However, Halliburton cannot and does not warrant the accuracy 
#or correctness of such information and interpretations.  Under no circumstances should any 
#such information or interpretation be relied upon as the sole basis for any drilling, 
#completion, production, or financial decision or any procedure involving any risk to the 
#safety of any drilling venture, drilling rig or its crew or any other third party.  The 
#Customer has full responsibility for all drilling, completion and production operation.  
#Halliburton makes no representations or warranties, either expressed or 
#implied, including, but not limited to, the implied warranties of merchantability or fitness 
#for a particular purpose, with respect to the services rendered.  In no event will 
#Halliburton be liable for failure to obtain any particular results or for 
#any damages, including, but not limited to, indirect, special or consequential damages, 
#resulting from the use of any information or interpretation provided by Halliburton.
#
~A           TIME           GTDEPTH  GTPQH  GTTQ  GTTN   GTET   GTTVD  
# ...
   17:26:15.719.09-Sep-2020 5302.51 6237.00 74.65 20.00  22.61 2556.93
   17:26:15.920.09-Sep-2020 5302.51 6238.25 74.65 20.00  22.81 2556.93
   17:26:16.120.09-Sep-2020 5302.51 6238.27 74.65 20.00  23.01 2556.93
   17:26:16.320.09-Sep-2020 5302.51 6238.27 74.65 20.00  23.21 2556.93
   17:26:16.520.09-Sep-2020 5302.51 6239.62 74.65 20.00  23.41 2556.93
   17:26:16.720.09-Sep-2020 5302.51 6239.91 74.65 20.00  23.61 2556.93
   17:26:16.920.09-Sep-2020 5302.51 6239.79 74.65 20.00  23.81 2556.93
   17:26:17.120.09-Sep-2020 5302.51 6240.04 74.65 20.00  24.01 2556.93
   17:26:17.320.09-Sep-2020 5302.51 6240.04 74.65 20.00  24.21 2556.93
   17:26:17.520.09-Sep-2020 5302.51 6240.89 74.65 20.00  24.41 2556.93
   17:26:17.720.09-Sep-2020 5302.51 6241.42 74.65 20.00  24.61 2556.93
   17:26:17.921.09-Sep-2020 5302.51 6241.73 74.65 20.00  24.81 2556.93
   17:26:18.121.09-Sep-2020 5302.51 6241.46 74.65 20.00  25.01 2556.93
   17:26:18.321.09-Sep-2020 5302.51 6241.46 74.65 20.00  25.21 2556.93
   17:26:18.521.09-Sep-2020 5302.51 6239.47 74.65 20.00  25.41 2556.93
   17:26:18.721.09-Sep-2020 5302.51 6240.57 74.65 20.00  25.61 2556.93
   17:26:18.921.09-Sep-2020 5302.51 6242.52 74.65 20.00  25.81 2556.93
   17:26:19.121.09-Sep-2020 5302.51 6242.16 74.65 20.00  26.01 2556.93
   17:26:19.321.09-Sep-2020 5302.51 6242.16 74.65 20.00  26.21 2556.93
   17:26:19.521.09-Sep-2020 5302.51 6249.58 74.65 20.00  26.41 2556.93
   17:26:19.721.09-Sep-2020 5302.51 6242.61 74.65 20.00  26.61 2556.93
   17:26:19.922.09-Sep-2020 5302.51 6243.78 74.65 20.00  26.81 2556.93
   17:26:20.122.09-Sep-2020 5302.51 6243.26 74.65 20.00  27.01 2556.93
   17:26:20.322.09-Sep-2020 5302.51 6243.26 74.65 20.00  27.21 2556.93
   17:26:20.522.09-Sep-2020 5302.51 6249.83 74.65 20.00  27.41 2556.93
   17:26:20.722.09-Sep-2020 5302.51 6244.98 74.65 20.00  27.61 2556.93
   17:26:20.922.09-Sep-2020 5302.51 6246.09 74.65 20.00  27.81 2556.93
   17:26:21.122.09-Sep-2020 5302.51 6245.57 74.65 20.00  28.01 2556.93
   17:26:21.322.09-Sep-2020 5302.51 6245.57 74.65 20.00  28.21 2556.93
   17:26:21.522.09-Sep-2020 5302.51 6245.95 74.65 20.00  28.41 2556.93
   17:26:21.722.09-Sep-2020 5302.51 6256.41 74.65 20.00  28.61 2556.93
   17:26:21.922.09-Sep-2020 5302.51 6244.23 74.65 20.00  28.81 2556.93
   17:26:22.123.09-Sep-2020 5302.51 6246.25 74.65 20.00  29.01 2556.93
   17:26:22.323.09-Sep-2020 5302.51 6246.25 74.65 20.00  29.21 2556.93
   17:26:22.523.09-Sep-2020 5302.51 6257.61 74.65 20.00  29.41 2556.93
   17:26:22.723.09-Sep-2020 5302.51 6246.56 74.65 20.00  29.61 2556.93
   17:26:22.923.09-Sep-2020 5302.51 6247.61 74.65 20.00  29.81 2556.93
   17:26:23.123.09-Sep-2020 5302.51 6249.47 74.65 20.00  30.01 2556.93
   17:26:23.323.09-Sep-2020 5302.51 6249.47 74.65 20.00  30.21 2556.93
   17:26:23.523.09-Sep-2020 5302.51 6250.50 74.65 20.00  30.41 2556.93
   17:26:23.723.09-Sep-2020 5302.51 6250.44 74.65 20.00  30.61 2556.93
   17:26:23.923.09-Sep-2020 5302.51 6250.64 74.65 20.00  30.81 2556.93
   17:26:24.124.09-Sep-2020 5302.51 6251.01 74.65 20.00  31.01 2556.93
   17:26:24.324.09-Sep-2020 5302.51 6251.01 74.65 20.00  31.21 2556.93
   17:26:24.524.09-Sep-2020 5302.51 6252.26 74.65 20.00  31.42 2556.93
   17:26:24.724.09-Sep-2020 5302.51 6252.63 74.65 20.00  31.62 2556.93
   17:26:24.924.09-Sep-2020 5302.51 6252.61 74.65 20.00  31.82 2556.93
   17:26:25.124.09-Sep-2020 5302.51 6252.55 74.65 20.00  32.02 2556.93
   17:26:25.324.09-Sep-2020 5302.51 6252.55 74.65 20.00  32.22 2556.93
   17:26:25.524.09-Sep-2020 5302.51 6253.29 74.65 20.00  32.42 2556.93
   17:26:25.724.09-Sep-2020 5302.51 6253.80 74.65 20.00  32.62 2556.93
   17:26:25.924.09-Sep-2020 5302.51 6254.22 74.65 20.00  32.82 2556.93
   17:26:26.124.09-Sep-2020 5302.51 6254.85 74.65 20.00  33.02 2556.93
   17:26:26.325.09-Sep-2020 5302.51 6254.85 74.65 20.00  33.22 2556.93
   17:26:26.525.09-Sep-2020 5302.51 6254.91 74.65 20.00  33.42 2556.93
   17:26:26.725.09-Sep-2020 5302.51 6255.83 74.65 20.00  33.62 2556.93
   17:26:26.925.09-Sep-2020 5302.51 6254.96 74.65 20.00  33.82 2556.93
   17:26:27.125.09-Sep-2020 5302.51 6255.54 74.65 20.00  34.02 2556.93
   17:26:27.325.09-Sep-2020 5302.51 6255.54 74.65 20.00  34.22 2556.93
   17:26:27.525.09-Sep-2020 5302.51 6256.02 74.65 20.00  34.42 2556.93
   17:26:27.725.09-Sep-2020 5302.51 6256.34 74.65 20.00  34.62 2556.93
   17:26:27.925.09-Sep-2020 5302.51 6256.63 74.65 20.00  34.82 2556.93
   17:26:28.125.09-Sep-2020 5302.51 6256.77 74.65 20.00  35.02 2556.93
   17:26:28.326.09-Sep-2020 5302.51 6256.77 74.65 20.00  35.22 2556.93
   17:26:28.526.09-Sep-2020 5302.51 6256.68 74.65 20.00  35.42 2556.93
   17:26:28.726.09-Sep-2020 5302.51 6256.88 74.65 20.00  35.62 2556.93
   17:26:28.926.09-Sep-2020 5302.51 6257.40 74.65 20.00  35.82 2556.93
   17:26:29.126.09-Sep-2020 5302.51 6257.97 74.65 20.00  36.02 2556.93
   17:26:29.326.09-Sep-2020 5302.51 6257.97 74.65 20.00  36.22 2556.93
   17:26:29.526.09-Sep-2020 5302.51 6258.47 74.65 20.00  36.42 2556.93
   17:26:29.726.09-Sep-2020 5302.51 6258.57 74.65 20.00  36.62 2556.93
   17:26:29.926.09-Sep-2020 5302.51 6264.41 74.65 20.00  36.82 2556.93
   17:26:30.126.09-Sep-2020 5302.51 6259.21 74.65 20.00  37.02 2556.93
   17:26:30.326.09-Sep-2020 5302.51 6259.21 74.65 20.00  37.22 2556.93
   17:26:30.527.09-Sep-2020 5302.51 6258.68 74.65 20.00  37.42 2556.93
   17:26:30.727.09-Sep-2020 5302.51 6259.23 74.65 20.00  37.62 2556.93
   17:26:30.927.09-Sep-2020 5302.51 6259.15 74.65 20.00  37.82 2556.93
   17:26:31.127.09-Sep-2020 5302.51 6267.28 74.65 20.00  38.02 2556.93
   17:26:31.327.09-Sep-2020 5302.51 6267.28 74.65 20.00  38.22 2556.93
   17:26:31.527.09-Sep-2020 5302.51 6261.29 74.65 20.00  38.42 2556.93
   17:26:31.727.09-Sep-2020 5302.51 6260.70 74.64 20.00  38.62 2556.93
   17:26:31.927.09-Sep-2020 5302.51 6260.60 74.64 20.00  38.82 2556.93
   17:26:32.127.09-Sep-2020 5302.51 6261.88 74.64 20.00  39.02 2556.93
   17:26:32.327.09-Sep-2020 5302.51 6261.88 74.64 20.00  39.22 2556.93
   17:26:32.528.09-Sep-2020 5302.51 6259.95 74.64 20.00  39.42 2556.93
   17:26:32.728.09-Sep-2020 5302.51 6261.25 74.64 20.00  39.62 2556.93
   17:26:32.928.09-Sep-2020 5302.51 6263.12 74.64 20.00  39.82 2556.93
   17:26:33.128.09-Sep-2020 5302.51 6263.13 74.64 20.00  40.02 2556.93
   17:26:33.328.09-Sep-2020 5302.51 6263.13 74.64 20.00  40.22 2556.93
   17:26:33.528.09-Sep-2020 5302.51 6274.00 74.64 20.00  40.42 2556.93
   17:26:33.728.09-Sep-2020 5302.51 6262.24 74.64 20.00  40.62 2556.93
   17:26:33.928.09-Sep-2020 5302.51 6263.33 74.64 20.00  40.82 2556.93
   17:26:34.128.09-Sep-2020 5302.51 6265.39 74.64 20.00  41.02 2556.93
   17:26:34.328.09-Sep-2020 5302.51 6265.39 74.64 20.00  41.22 2556.93
   17:26:34.529.09-Sep-2020 5302.51 6268.66 74.64 20.00  41.42 2556.93
   17:26:34.729.09-Sep-2020 5302.51 6265.59 74.64 20.00  41.62 2556.93
   17:26:34.929.09-Sep-2020 5302.51 6267.19 74.64 20.00  41.82 2556.93
   17:26:35.129.09-Sep-2020 5302.51 6266.93 74.64 20.00  42.02 2556.93
   17:26:35.329.09-Sep-2020 5302.51 6266.93 74.64 20.00  42.22 2556.93
   17:26:35.529.09-Sep-2020 5302.51 6265.56 74.64 20.00  42.42 2556.93
   17:26:35.729.09-Sep-2020 5302.51 6258.61 74.64 20.00  42.62 2556.93
   17:26:35.929.09-Sep-2020 5302.51 6257.01 74.64 20.00  42.82 2556.93
   17:26:36.129.09-Sep-2020 5302.51 6259.33 74.64 20.00  43.02 2556.93
   17:26:36.329.09-Sep-2020 5302.51 6259.33 74.64 20.00  43.22 2556.93
   17:26:36.529.09-Sep-2020 5302.51 6260.24 74.64 20.00  43.42 2556.93
   17:26:36.730.09-Sep-2020 5302.51 6259.39 74.64 20.00  43.62 2556.93
   17:26:36.930.09-Sep-2020 5302.51 6259.88 74.64 20.00  43.82 2556.93
   17:26:37.130.09-Sep-2020 5302.51 6260.34 74.64 20.00  44.02 2556.93
   17:26:37.330.09-Sep-2020 5302.51 6260.34 74.64 20.00  44.22 2556.93
   17:26:37.530.09-Sep-2020 5302.51 6261.82 74.64 20.00  44.42 2556.93
   17:26:37.730.09-Sep-2020 5302.51 6262.24 74.64 20.00  44.62 2556.93
   17:26:37.930.09-Sep-2020 5302.51 6261.73 74.64 20.00  44.82 2556.93
   17:26:38.130.09-Sep-2020 5302.51 6260.86 74.64 20.00  45.02 2556.93
