~Version Information
 VERS.                  2.0:   CWLS log ASCII Standard -VERSION 2.0
 WRAP.                   NO:   One line per depth step
~Well Information Block
#MNEM.UNIT     VALUE/NAME     DESCRIPTION
#---------     -----------    ---------------------------
 STRT.S             13:30:41 09-Sep-20: START TIME 13:30:41 09-Sep-20
 STOP.S             13:37:24 09-Sep-20: STOP TIME  13:37:24 09-Sep-20
 STEP.S                   0.00: STEP TIME
 NULL.                 -999.25: NULL VALUE
 MDS .        Operator Entered:  MAG DATA SOURCE
 PDAT.          Mean Sea Level:  PERMANENT DATUM
 DCON.         Sperry Drilling:  DIRECTNL CONTR
 RIG .              West Azeri:  RIG NAME
 WELL.           C40 (Slot 20):  WELL NAME
 SRVC.     Turan Drilling Engineering:  CONTRACTOR
 FLD .                     ACG:  FIELD NAME
 CTRY.              Azerbaijan:  COUNTRY NAME
 PROV.                    Baku:  PROVINCE
 STAT.                    Baku:  STATE NAME
 REGN.                   EESSA:  REGION
 BASE.              Azerbaijan:  LOGGING EQUIPMENT BASE LOCATION
 COMP.     BP Exploration (Caspian Sea) Ltd:  COMPANY
 WTYP.                Deviated:  WELL TYPE
 SON .        AZ-XX-0906344804:  JOB NUMBER
 FTOP.          Formation Tops:  FORM TOPS DESC
 ILTD.               Lithology:  INTERP LTH DESC
 SVYD.                  Survey:  SURVEY DESC
 DMOD.             Drill Model:  DRILL MOD DESC
 HPTY.       Minimum Curvature:  HOLE POS TYPE
 NREF.                    Grid:  NORTH REFERENCE
 SPUD.               01-Jan-20:  SPUD DATE
 DATE.      00.59.44 15-Sep-20:  END TIME
 STIM.      12.00.00 12-Jun-20:  START TIME
 DMF .             Drill Floor:  DRILL MEAS FROM
 DFST.                        :  DIST FSL TEXT
 DFWT.                        :  DIST FWL TEXT
 API .                        :  API NUMBER
 CNTY.                        :  COUNTY
 UWI .                        :  UNIQUE WELL IDENTIFIER
 LOC .                        :  LOCATION
 LMF .             Drill Floor:  LOG MEASURED FROM
 VSNS.m                   2.88:  VERT SEC N/S
 VSEW.m                  -3.84:  VERT SEC E/W
 AGAP.m                  43.42:  AIR GAP
 APD .m                  43.42:  DEPTH ABOVE PD
 WDMS.m                 118.27:  WD ELEV
 EGL .m                   0.00:  GROUND ELEVATION
 EPD .m                   0.00:  ELEVATION
 AZTC.deg                 6.23:  AZM TOTAL CORR
 GRDC.deg                 0.20:  GRID CORRECTION
 MDEC.deg                 6.43:  MAGNETIC DECL
 MDIP.deg                59.49:  MAGNETIC DIP
 MFLD.nT              50277.00:  MAGNETIC FIELD
 GVFD.g                   1.00:  GRAVITY FIELD
 VSDR.deg               173.20:  VERT SEC DIRECT
 TDD .m                5790.01:  TOTAL DEPTH (DRILLER)
 SDEP.m                5231.01:  START DEPTH
 DFSL.m                   0.00:  DISTANCE FSL
 DFWL.m                   0.00:  DISTANCE FWL
 UTMY.m             4435808.83:  UTM Y
 UTMX.m              526266.40:  UTM X
 WHEW.m                  -3.84:  WELL HEAD E/W
 WHNS.m                   2.88:  WELL HEAD N/S
 LONG.deg                51.31:  LONGITUDE
 LATI.deg                40.06:  LATITUDE
 TVDS.m                  43.42:  TVDSS CORRECTN
 DEP .m                 430.08:  DEPTH
 EKB .m                  43.42:  KB ELEVATION
 EDF .m                  43.42:  DF ELEVATION
 TDL .m                 559.00:  TOTAL DEPTH (LOGGER)
 MAGU.                 1849381:  MAGUTM CHECKSUM
 VSC .                       0:  VS TO CLOSURE
~Parameter Information Block
#MNEM.UNIT       Value        Description
#---------     -----------    ---------------------------
 AV  .mps                 4.87:  Ann Velocity 
 AVMX.mps                 7.08:  Max Ann Veloc 
 AZIF.deg               108.87:  Azm, Final 
 BHAT.                  Rotary:  BHA Type 
 BROT.°/30m               0.35:  Build Rotating 
 BS  .in                  8.50:  Bit Size 
 BSZ .in                  8.50:  Bit Size 
 BTPL.psig              360.00:  Bit Press Loss 
 CABU.                     Yes:  Customer Abuse 
 COMM.                     $ñd:  Run Comments 1 
 TCS .hr                106.24:  Time Ciculation Ended 
 CV  .mps                 1.77:  Crit Velocity 
 CVMX.mps                 2.03:  Max Crit Veloc 
 DD1 .         Aykhan Agagulov:  Direct Drillr 1 
 DD2 .            Nonso Okofor:  Direct Drillr 2 
 DDSV.               Geo-Pilot:  DD Service 
 DEFF.%                  98.00:  % Det Eff 
 DLRX.°/30m               0.50:  Dogleg Rot Max 
 DLSO.°/30m               0.40:  Dogleg Oriented 
 DLSX.°/30m               0.94:  Dogleg Str Max 
 DRET.      20.30.00 08-Sep-20:  Drill End Time 
 DRST.      22.15.00 06-Sep-20:  Drill Start Tim 
 DTIM.hr                 31.31:  Time Drilling 
 EDEP.m                5790.01:  End Depth 
 ENG1.           Amrah Tahirov:  Engineer 1 
 ENG2.         Dair Mahammadov:  Engineer 2 
 ENG3.           Emil Huseynov:  Engineer 3 
 ETIM.      04.01.04 12-Sep-20:  End Time 
 FLOI.gpm               450.00:  Flow In 
 FLON.gpm               450.00:  Flow In Min 
 FLOS.cptm                2.00:  Fluid Loss 
 FLOX.gpm               450.00:  Flow In Max 
 FTRO.       Formation Presure:  FTWD Run Obj 
 HFLO.                      No:  High Flow 
 HPRE.                      No:  High Pressure 
 HTEM.                      No:  High Temp 
 HYDO.m                   1.80:  Hydro Offset 
 IFIN.deg                72.03:  Inc, Final 
 IMAX.deg                73.72:  Inc Max 
 IMIN.deg                70.94:  Inc Min 
 IMND.m                5508.52:  Inc Min Depth 
 IMXD.m                5253.60:  Inc Max Depth 
 JARR.                      No:  Jarring 
 LETM.      20.30.00 08-Sep-20:  Log End Time 
 LOST.hr                     0:  Lost Rig Time 
 LSTM.      22.15.00 06-Sep-20:  Log Start Time 
 MDCL.ppm             36000.00:  Mud Chlorides 
 MDES.     Inversion Oil/Synthetic:  Mud Desc 
 DFD .sg                  1.44:  Mud Density 
 MDMN.sg                  1.44:  Dens Mud Min 
 MDMX.sg                  1.57:  Dens Mud Max 
 MOIL.                      70:  Run Mud Oil % 
 MOWR.                   70:30:  Run Mud OWR 
 MSND.                       0:  Run Mud Sand % 
 MSOL.                      21:  Run Mud Solids% 
 DFV .spqt               68.00:  Mud Viscosity 
 MWOD.in                  6.75:  MWD Tool OD 
 MWSI.                     Yes:  Serv Intrp, MWD 
 OTIM.hr                174.84:  Time Operating 
 PCON.           Look Like New:  Pad Condition 
 PMAX.psia            10616.93:  Press Op, Max 
 PV  .cP                 50.00:  Mud PV 
 RUN .                     700:  Run Number 
 ROPA.m/hr               14.24:  ROP Avg 
 ROPN.m/hr               10.00:  ROP Min 
 ROPX.m/hr               32.00:  ROP Max 
 RPMA.rpm               120.90:  RPM Surface Avg 
 RPMN.rpm               120.00:  RPM Surface Min 
 RPMX.rpm               140.00:  RPM Surface Max 
 RRUN.                    0700:  Rig Run Number 
 RTIM.hr                  3.20:  Time Reaming 
 SAZI.deg               109.99:  Azm, Start 
 SDEP.m                5231.01:  Start Depth 
 SIDD.                      No:  Serv Intrp, DD 
 SINC.deg                73.72:  Inc, Start 
 SPPA.psig             3051.00:  SPP Avg 
 SPPN.psig             2950.00:  SPP Min 
 SPPX.psig             3250.00:  SPP Max 
 STIM.      08.00.00 05-Sep-20:  Start Time 
 SVCS.                 DD, MWD:  Services 
 SVER.                    9.20:  Sperry Version 
 TDAT.m                 559.00:  Tot Depth Attmp 
 TDDF.                      No:  Trip for DD 
 TDLG.m                 559.00:  Tot Depth Loggd 
 TFF .                      No:  Trip for Fail 
 TQAA.f-kp               26.49:  Torque Abs Avg 
 TQAN.f-kp               25.00:  Torque Abs Min 
 TQAX.f-kp               27.00:  Torque Abs Max 
 TRRT.°/30m               1.50:  Turn Rotating 
 MRT .                    HCIM:  Maximum Recorded Temperature 
 TTMX.degC               90.20:  Max Tool Temp 
 VS01.                90542671:  Virtual Str1 SN 
 VS02.                90545185:  Virtual Str2 SN 
 VS03.                90602015:  Virtual Str3 SN 
 VS04.                90515230:  Virtual Str4 SN 
 WBMN.klb                 5.00:  WOB Min 
 WOBA.klb                14.79:  WOB Avg 
 WOBX.klb                20.00:  WOB Max 
 YP  .lhf2               29.00:  Yield Point 
~Curve Information Block
#MNEM.UNIT                 API CODE     Curve Description
#---------               -----------    ---------------------------
 TIME.HHMMSS            00 000 000 000:  GT Time & Date
 GTDEPTH.m              00 000 000 000:  GT Depth
 GTPQH.psia             00 000 000 000:  GT HR Quartz Pressure
 GTTQ.degC              00 000 000 000:  GT Quartz Temperature
 GTTN.NONE              00 000 000 000:  GT Test Number
 GTET.sec               00 000 000 000:  GT Elapsed Test Time
 GTTVD.m                00 000 000 000:  GT True Vertical Depth
#Other Information
#
#WARRANTY: Halliburton will use its best efforts to furnish customers with 
#accurate information and interpretations that are part of, and incident to, the services 
#provided.  However, Halliburton cannot and does not warrant the accuracy 
#or correctness of such information and interpretations.  Under no circumstances should any 
#such information or interpretation be relied upon as the sole basis for any drilling, 
#completion, production, or financial decision or any procedure involving any risk to the 
#safety of any drilling venture, drilling rig or its crew or any other third party.  The 
#Customer has full responsibility for all drilling, completion and production operation.  
#Halliburton makes no representations or warranties, either expressed or 
#implied, including, but not limited to, the implied warranties of merchantability or fitness 
#for a particular purpose, with respect to the services rendered.  In no event will 
#Halliburton be liable for failure to obtain any particular results or for 
#any damages, including, but not limited to, indirect, special or consequential damages, 
#resulting from the use of any information or interpretation provided by Halliburton.
#
~A           TIME           GTDEPTH  GTPQH  GTTQ  GTTN   GTET   GTTVD  
# ...
   13:34:27.623.09-Sep-2020 5408.01 3591.81 75.51 15.00 226.14 2589.60
   13:34:27.823.09-Sep-2020 5408.01 3591.81 75.51 15.00 226.34 2589.60
   13:34:28.023.09-Sep-2020 5408.01 3592.22 75.51 15.00 226.54 2589.60
   13:34:28.223.09-Sep-2020 5408.01 3592.07 75.51 15.00 226.74 2589.60
   13:34:28.423.09-Sep-2020 5408.01 3591.95 75.51 15.00 226.94 2589.60
   13:34:28.623.09-Sep-2020 5408.01 3592.04 75.51 15.00 227.14 2589.60
   13:34:28.823.09-Sep-2020 5408.01 3592.04 75.51 15.00 227.34 2589.60
   13:34:29.024.09-Sep-2020 5408.01 3591.96 75.51 15.00 227.54 2589.60
   13:34:29.224.09-Sep-2020 5408.01 3592.05 75.51 15.00 227.74 2589.60
   13:34:29.424.09-Sep-2020 5408.01 3592.04 75.51 15.00 227.94 2589.60
   13:34:29.624.09-Sep-2020 5408.01 3591.93 75.51 15.00 228.14 2589.60
   13:34:29.824.09-Sep-2020 5408.01 3591.93 75.51 15.00 228.34 2589.60
   13:34:30.024.09-Sep-2020 5408.01 3592.07 75.51 15.00 228.54 2589.60
   13:34:30.224.09-Sep-2020 5408.01 3592.14 75.51 15.00 228.74 2589.60
   13:34:30.424.09-Sep-2020 5408.01 3592.16 75.51 15.00 228.94 2589.60
   13:34:30.624.09-Sep-2020 5408.01 3592.09 75.51 15.00 229.14 2589.60
   13:34:30.825.09-Sep-2020 5408.01 3592.09 75.51 15.00 229.34 2589.60
   13:34:31.025.09-Sep-2020 5408.01 3592.14 75.51 15.00 229.54 2589.60
   13:34:31.225.09-Sep-2020 5408.01 3592.22 75.50 15.00 229.74 2589.60
   13:34:31.425.09-Sep-2020 5408.01 3592.23 75.50 15.00 229.94 2589.60
   13:34:31.625.09-Sep-2020 5408.01 3591.14 75.51 15.00 230.14 2589.60
   13:34:31.825.09-Sep-2020 5408.01 3591.14 75.51 15.00 230.34 2589.60
   13:34:32.025.09-Sep-2020 5408.01 3592.01 75.51 15.00 230.54 2589.60
   13:34:32.225.09-Sep-2020 5408.01 3591.92 75.50 15.00 230.74 2589.60
   13:34:32.426.09-Sep-2020 5408.01 3592.23 75.50 15.00 230.94 2589.60
   13:34:32.626.09-Sep-2020 5408.01 3591.97 75.50 15.00 231.14 2589.60
   13:34:32.826.09-Sep-2020 5408.01 3591.97 75.50 15.00 231.34 2589.60
   13:34:33.026.09-Sep-2020 5408.01 3592.01 75.50 15.00 231.54 2589.60
   13:34:33.226.09-Sep-2020 5408.01 3592.01 75.50 15.00 231.74 2589.60
   13:34:33.426.09-Sep-2020 5408.01 3591.92 75.50 15.00 231.94 2589.60
   13:34:33.626.09-Sep-2020 5408.01 3591.83 75.50 15.00 232.14 2589.60
   13:34:33.826.09-Sep-2020 5408.01 3591.75 75.50 15.00 232.34 2589.60
   13:34:34.027.09-Sep-2020 5408.01 3591.76 75.50 15.00 232.54 2589.60
   13:34:34.227.09-Sep-2020 5408.01 3591.89 75.50 15.00 232.74 2589.60
   13:34:34.427.09-Sep-2020 5408.01 3591.91 75.50 15.00 232.94 2589.60
   13:34:34.627.09-Sep-2020 5408.01 3591.80 75.50 15.00 233.14 2589.60
   13:34:34.827.09-Sep-2020 5408.01 3591.80 75.50 15.00 233.34 2589.60
   13:34:35.027.09-Sep-2020 5408.01 3592.29 75.50 15.00 233.54 2589.60
   13:34:35.227.09-Sep-2020 5408.01 3592.05 75.50 15.00 233.74 2589.60
   13:34:35.427.09-Sep-2020 5408.01 3592.09 75.50 15.00 233.94 2589.60
   13:34:35.628.09-Sep-2020 5408.01 3591.89 75.50 15.00 234.14 2589.60
   13:34:35.828.09-Sep-2020 5408.01 3591.89 75.50 15.00 234.34 2589.60
   13:34:36.028.09-Sep-2020 5408.01 3590.61 75.50 15.00 234.54 2589.60
   13:34:36.228.09-Sep-2020 5408.01 3592.23 75.50 15.00 234.74 2589.60
   13:34:36.428.09-Sep-2020 5408.01 3592.07 75.50 15.00 234.94 2589.60
   13:34:36.628.09-Sep-2020 5408.01 3592.00 75.50 15.00 235.14 2589.60
   13:34:36.828.09-Sep-2020 5408.01 3592.00 75.50 15.00 235.34 2589.60
   13:34:37.028.09-Sep-2020 5408.01 3592.50 75.50 15.00 235.54 2589.60
   13:34:37.229.09-Sep-2020 5408.01 3591.99 75.50 15.00 235.74 2589.60
   13:34:37.429.09-Sep-2020 5408.01 3592.04 75.50 15.00 235.94 2589.60
   13:34:37.629.09-Sep-2020 5408.01 3591.91 75.50 15.00 236.14 2589.60
   13:34:37.829.09-Sep-2020 5408.01 3590.86 75.50 15.00 236.34 2589.60
   13:34:38.029.09-Sep-2020 5408.01 3592.11 75.50 15.00 236.54 2589.60
   13:34:38.229.09-Sep-2020 5408.01 3591.90 75.50 15.00 236.74 2589.60
   13:34:38.429.09-Sep-2020 5408.01 3591.91 75.50 15.00 236.94 2589.60
   13:34:38.629.09-Sep-2020 5408.01 3592.02 75.50 15.00 237.14 2589.60
   13:34:38.829.09-Sep-2020 5408.01 3592.02 75.50 15.00 237.35 2589.60
   13:34:39.030.09-Sep-2020 5408.01 3591.96 75.50 15.00 237.55 2589.60
   13:34:39.230.09-Sep-2020 5408.01 3591.99 75.50 15.00 237.75 2589.60
   13:34:39.430.09-Sep-2020 5408.01 3591.05 75.50 15.00 237.95 2589.60
   13:34:39.630.09-Sep-2020 5408.01 3592.08 75.50 15.00 238.15 2589.60
   13:34:39.830.09-Sep-2020 5408.01 3592.08 75.50 15.00 238.35 2589.60
   13:34:40.030.09-Sep-2020 5408.01 3592.01 75.50 15.00 238.55 2589.60
   13:34:40.230.09-Sep-2020 5408.01 3592.28 75.50 15.00 238.75 2589.60
   13:34:40.430.09-Sep-2020 5408.01 3592.04 75.50 15.00 238.95 2589.60
   13:34:40.631.09-Sep-2020 5408.01 3592.20 75.50 15.00 239.15 2589.60
   13:34:40.831.09-Sep-2020 5408.01 3592.18 75.50 15.00 239.35 2589.60
   13:34:41.031.09-Sep-2020 5408.01 3592.17 75.50 15.00 239.55 2589.60
   13:34:41.231.09-Sep-2020 5408.01 3592.20 75.50 15.00 239.75 2589.60
   13:34:41.431.09-Sep-2020 5408.01 3592.24 75.50 15.00 239.95 2589.60
   13:34:41.631.09-Sep-2020 5408.01 3592.27 75.50 15.00 240.15 2589.60
   13:34:41.831.09-Sep-2020 5408.01 3592.26 75.50 15.00 240.35 2589.60
   13:34:42.031.09-Sep-2020 5408.01 3592.25 75.50 15.00 240.55 2589.60
   13:34:42.232.09-Sep-2020 5408.01 3592.31 75.50 15.00 240.75 2589.60
   13:34:42.432.09-Sep-2020 5408.01 3592.41 75.50 15.00 240.95 2589.60
   13:34:42.632.09-Sep-2020 5408.01 3592.48 75.50 15.00 241.15 2589.60
   13:34:42.832.09-Sep-2020 5408.01 3592.48 75.50 15.00 241.35 2589.60
   13:34:43.032.09-Sep-2020 5408.01 3591.61 75.50 15.00 241.55 2589.60
   13:34:43.232.09-Sep-2020 5408.01 3591.85 75.50 15.00 241.75 2589.60
   13:34:43.432.09-Sep-2020 5408.01 3592.26 75.50 15.00 241.95 2589.60
   13:34:43.632.09-Sep-2020 5408.01 3592.24 75.50 15.00 242.15 2589.60
   13:34:43.833.09-Sep-2020 5408.01 3592.24 75.50 15.00 242.35 2589.60
   13:34:44.033.09-Sep-2020 5408.01 3592.36 75.50 15.00 242.55 2589.60
   13:34:44.233.09-Sep-2020 5408.01 3592.10 75.50 15.00 242.75 2589.60
   13:34:44.433.09-Sep-2020 5408.01 3592.10 75.50 15.00 242.95 2589.60
   13:34:44.633.09-Sep-2020 5408.01 3592.18 75.50 15.00 243.15 2589.60
   13:34:44.833.09-Sep-2020 5408.01 3592.18 75.50 15.00 243.35 2589.60
   13:34:45.033.09-Sep-2020 5408.01 3592.04 75.50 15.00 243.55 2589.60
   13:34:45.233.09-Sep-2020 5408.01 3592.04 75.50 15.00 243.75 2589.60
   13:34:45.434.09-Sep-2020 5408.01 3592.10 75.50 15.00 243.95 2589.60
   13:34:45.634.09-Sep-2020 5408.01 3592.18 75.50 15.00 244.15 2589.60
   13:34:45.834.09-Sep-2020 5408.01 3592.23 75.50 15.00 244.35 2589.60
   13:34:46.034.09-Sep-2020 5408.01 3592.08 75.50 15.00 244.55 2589.60
   13:34:46.234.09-Sep-2020 5408.01 3592.01 75.50 15.00 244.75 2589.60
   13:34:46.434.09-Sep-2020 5408.01 3590.76 75.50 15.00 244.95 2589.60
   13:34:46.634.09-Sep-2020 5408.01 3592.33 75.50 15.00 245.15 2589.60
   13:34:46.834.09-Sep-2020 5408.01 3592.33 75.50 15.00 245.35 2589.60
   13:34:47.035.09-Sep-2020 5408.01 3592.08 75.50 15.00 245.55 2589.60
   13:34:47.235.09-Sep-2020 5408.01 3592.11 75.50 15.00 245.75 2589.60
   13:34:47.435.09-Sep-2020 5408.01 3592.24 75.50 15.00 245.95 2589.60
   13:34:47.635.09-Sep-2020 5408.01 3591.12 75.50 15.00 246.15 2589.60
   13:34:47.835.09-Sep-2020 5408.01 3591.12 75.50 15.00 246.35 2589.60
   13:34:48.035.09-Sep-2020 5408.01 3592.33 75.50 15.00 246.55 2589.60
   13:34:48.235.09-Sep-2020 5408.01 3592.15 75.50 15.00 246.75 2589.60
   13:34:48.435.09-Sep-2020 5408.01 3590.91 75.50 15.00 246.95 2589.60
   13:34:48.635.09-Sep-2020 5408.01 3592.56 75.50 15.00 247.15 2589.60
   13:34:48.836.09-Sep-2020 5408.01 3592.56 75.50 15.00 247.35 2589.60
   13:34:49.036.09-Sep-2020 5408.01 3592.25 75.50 15.00 247.55 2589.60
   13:34:49.236.09-Sep-2020 5408.01 3590.68 75.50 15.00 247.75 2589.60
   13:34:49.436.09-Sep-2020 5408.01 3592.73 75.50 15.00 247.95 2589.60
   13:34:49.636.09-Sep-2020 5408.01 3592.03 75.50 15.00 248.15 2589.60
   13:34:49.836.09-Sep-2020 5408.01 3592.03 75.50 15.00 248.35 2589.60
   13:34:50.036.09-Sep-2020 5408.01 3591.95 75.50 15.00 248.55 2589.60
