~Version Information
 VERS.                  2.0:   CWLS log ASCII Standard -VERSION 2.0
 WRAP.                   NO:   One line per depth step
~Well Information Block
#MNEM.UNIT     VALUE/NAME     DESCRIPTION
#---------     -----------    ---------------------------
 STRT.S             19:35:07 09-Sep-20: START TIME 19:35:07 09-Sep-20
 STOP.S             19:43:27 09-Sep-20: STOP TIME  19:43:27 09-Sep-20
 STEP.S                   0.00: STEP TIME
 NULL.                 -999.25: NULL VALUE
 MDS .        Operator Entered:  MAG DATA SOURCE
 PDAT.          Mean Sea Level:  PERMANENT DATUM
 DCON.         Sperry Drilling:  DIRECTNL CONTR
 RIG .              West Azeri:  RIG NAME
 WELL.           C40 (Slot 20):  WELL NAME
 SRVC.     Turan Drilling Engineering:  CONTRACTOR
 FLD .                     ACG:  FIELD NAME
 CTRY.              Azerbaijan:  COUNTRY NAME
 PROV.                    Baku:  PROVINCE
 STAT.                    Baku:  STATE NAME
 REGN.                   EESSA:  REGION
 BASE.              Azerbaijan:  LOGGING EQUIPMENT BASE LOCATION
 COMP.     BP Exploration (Caspian Sea) Ltd:  COMPANY
 WTYP.                Deviated:  WELL TYPE
 SON .        AZ-XX-0906344804:  JOB NUMBER
 FTOP.          Formation Tops:  FORM TOPS DESC
 ILTD.               Lithology:  INTERP LTH DESC
 SVYD.                  Survey:  SURVEY DESC
 DMOD.             Drill Model:  DRILL MOD DESC
 HPTY.       Minimum Curvature:  HOLE POS TYPE
 NREF.                    Grid:  NORTH REFERENCE
 SPUD.               01-Jan-20:  SPUD DATE
 DATE.      00.59.44 15-Sep-20:  END TIME
 STIM.      12.00.00 12-Jun-20:  START TIME
 DMF .             Drill Floor:  DRILL MEAS FROM
 DFST.                        :  DIST FSL TEXT
 DFWT.                        :  DIST FWL TEXT
 API .                        :  API NUMBER
 CNTY.                        :  COUNTY
 UWI .                        :  UNIQUE WELL IDENTIFIER
 LOC .                        :  LOCATION
 LMF .             Drill Floor:  LOG MEASURED FROM
 VSNS.m                   2.88:  VERT SEC N/S
 VSEW.m                  -3.84:  VERT SEC E/W
 AGAP.m                  43.42:  AIR GAP
 APD .m                  43.42:  DEPTH ABOVE PD
 WDMS.m                 118.27:  WD ELEV
 EGL .m                   0.00:  GROUND ELEVATION
 EPD .m                   0.00:  ELEVATION
 AZTC.deg                 6.23:  AZM TOTAL CORR
 GRDC.deg                 0.20:  GRID CORRECTION
 MDEC.deg                 6.43:  MAGNETIC DECL
 MDIP.deg                59.49:  MAGNETIC DIP
 MFLD.nT              50277.00:  MAGNETIC FIELD
 GVFD.g                   1.00:  GRAVITY FIELD
 VSDR.deg               173.20:  VERT SEC DIRECT
 TDD .m                5790.01:  TOTAL DEPTH (DRILLER)
 SDEP.m                5231.01:  START DEPTH
 DFSL.m                   0.00:  DISTANCE FSL
 DFWL.m                   0.00:  DISTANCE FWL
 UTMY.m             4435808.83:  UTM Y
 UTMX.m              526266.40:  UTM X
 WHEW.m                  -3.84:  WELL HEAD E/W
 WHNS.m                   2.88:  WELL HEAD N/S
 LONG.deg                51.31:  LONGITUDE
 LATI.deg                40.06:  LATITUDE
 TVDS.m                  43.42:  TVDSS CORRECTN
 DEP .m                 430.08:  DEPTH
 EKB .m                  43.42:  KB ELEVATION
 EDF .m                  43.42:  DF ELEVATION
 TDL .m                 559.00:  TOTAL DEPTH (LOGGER)
 MAGU.                 1849381:  MAGUTM CHECKSUM
 VSC .                       0:  VS TO CLOSURE
~Parameter Information Block
#MNEM.UNIT       Value        Description
#---------     -----------    ---------------------------
 AV  .mps                 4.87:  Ann Velocity 
 AVMX.mps                 7.08:  Max Ann Veloc 
 AZIF.deg               108.87:  Azm, Final 
 BHAT.                  Rotary:  BHA Type 
 BROT.°/30m               0.35:  Build Rotating 
 BS  .in                  8.50:  Bit Size 
 BSZ .in                  8.50:  Bit Size 
 BTPL.psig              360.00:  Bit Press Loss 
 CABU.                     Yes:  Customer Abuse 
 COMM.                     ¼«|:  Run Comments 1 
 TCS .hr                106.24:  Time Ciculation Ended 
 CV  .mps                 1.77:  Crit Velocity 
 CVMX.mps                 2.03:  Max Crit Veloc 
 DD1 .         Aykhan Agagulov:  Direct Drillr 1 
 DD2 .            Nonso Okofor:  Direct Drillr 2 
 DDSV.               Geo-Pilot:  DD Service 
 DEFF.%                  98.00:  % Det Eff 
 DLRX.°/30m               0.50:  Dogleg Rot Max 
 DLSO.°/30m               0.40:  Dogleg Oriented 
 DLSX.°/30m               0.94:  Dogleg Str Max 
 DRET.      20.30.00 08-Sep-20:  Drill End Time 
 DRST.      22.15.00 06-Sep-20:  Drill Start Tim 
 DTIM.hr                 31.31:  Time Drilling 
 EDEP.m                5790.01:  End Depth 
 ENG1.           Amrah Tahirov:  Engineer 1 
 ENG2.         Dair Mahammadov:  Engineer 2 
 ENG3.           Emil Huseynov:  Engineer 3 
 ETIM.      04.01.04 12-Sep-20:  End Time 
 FLOI.gpm               450.00:  Flow In 
 FLON.gpm               450.00:  Flow In Min 
 FLOS.cptm                2.00:  Fluid Loss 
 FLOX.gpm               450.00:  Flow In Max 
 FTRO.       Formation Presure:  FTWD Run Obj 
 HFLO.                      No:  High Flow 
 HPRE.                      No:  High Pressure 
 HTEM.                      No:  High Temp 
 HYDO.m                   1.80:  Hydro Offset 
 IFIN.deg                72.03:  Inc, Final 
 IMAX.deg                73.72:  Inc Max 
 IMIN.deg                70.94:  Inc Min 
 IMND.m                5508.52:  Inc Min Depth 
 IMXD.m                5253.60:  Inc Max Depth 
 JARR.                      No:  Jarring 
 LETM.      20.30.00 08-Sep-20:  Log End Time 
 LOST.hr                     0:  Lost Rig Time 
 LSTM.      22.15.00 06-Sep-20:  Log Start Time 
 MDCL.ppm             36000.00:  Mud Chlorides 
 MDES.     Inversion Oil/Synthetic:  Mud Desc 
 DFD .sg                  1.44:  Mud Density 
 MDMN.sg                  1.44:  Dens Mud Min 
 MDMX.sg                  1.57:  Dens Mud Max 
 MOIL.                      70:  Run Mud Oil % 
 MOWR.                   70:30:  Run Mud OWR 
 MSND.                       0:  Run Mud Sand % 
 MSOL.                      21:  Run Mud Solids% 
 DFV .spqt               68.00:  Mud Viscosity 
 MWOD.in                  6.75:  MWD Tool OD 
 MWSI.                     Yes:  Serv Intrp, MWD 
 OTIM.hr                174.84:  Time Operating 
 PCON.           Look Like New:  Pad Condition 
 PMAX.psia            10616.93:  Press Op, Max 
 PV  .cP                 50.00:  Mud PV 
 RUN .                     700:  Run Number 
 ROPA.m/hr               14.24:  ROP Avg 
 ROPN.m/hr               10.00:  ROP Min 
 ROPX.m/hr               32.00:  ROP Max 
 RPMA.rpm               120.90:  RPM Surface Avg 
 RPMN.rpm               120.00:  RPM Surface Min 
 RPMX.rpm               140.00:  RPM Surface Max 
 RRUN.                    0700:  Rig Run Number 
 RTIM.hr                  3.20:  Time Reaming 
 SAZI.deg               109.99:  Azm, Start 
 SDEP.m                5231.01:  Start Depth 
 SIDD.                      No:  Serv Intrp, DD 
 SINC.deg                73.72:  Inc, Start 
 SPPA.psig             3051.00:  SPP Avg 
 SPPN.psig             2950.00:  SPP Min 
 SPPX.psig             3250.00:  SPP Max 
 STIM.      08.00.00 05-Sep-20:  Start Time 
 SVCS.                 DD, MWD:  Services 
 SVER.                    9.20:  Sperry Version 
 TDAT.m                 559.00:  Tot Depth Attmp 
 TDDF.                      No:  Trip for DD 
 TDLG.m                 559.00:  Tot Depth Loggd 
 TFF .                      No:  Trip for Fail 
 TQAA.f-kp               26.49:  Torque Abs Avg 
 TQAN.f-kp               25.00:  Torque Abs Min 
 TQAX.f-kp               27.00:  Torque Abs Max 
 TRRT.°/30m               1.50:  Turn Rotating 
 MRT .                    HCIM:  Maximum Recorded Temperature 
 TTMX.degC               90.20:  Max Tool Temp 
 VS01.                90542671:  Virtual Str1 SN 
 VS02.                90545185:  Virtual Str2 SN 
 VS03.                90602015:  Virtual Str3 SN 
 VS04.                90515230:  Virtual Str4 SN 
 WBMN.klb                 5.00:  WOB Min 
 WOBA.klb                14.79:  WOB Avg 
 WOBX.klb                20.00:  WOB Max 
 YP  .lhf2               29.00:  Yield Point 
~Curve Information Block
#MNEM.UNIT                 API CODE     Curve Description
#---------               -----------    ---------------------------
 TIME.HHMMSS            00 000 000 000:  GT Time & Date
 GTDEPTH.m              00 000 000 000:  GT Depth
 GTPQH.psia             00 000 000 000:  GT HR Quartz Pressure
 GTTQ.degC              00 000 000 000:  GT Quartz Temperature
 GTTN.NONE              00 000 000 000:  GT Test Number
 GTET.sec               00 000 000 000:  GT Elapsed Test Time
 GTTVD.m                00 000 000 000:  GT True Vertical Depth
#Other Information
#
#WARRANTY: Halliburton will use its best efforts to furnish customers with 
#accurate information and interpretations that are part of, and incident to, the services 
#provided.  However, Halliburton cannot and does not warrant the accuracy 
#or correctness of such information and interpretations.  Under no circumstances should any 
#such information or interpretation be relied upon as the sole basis for any drilling, 
#completion, production, or financial decision or any procedure involving any risk to the 
#safety of any drilling venture, drilling rig or its crew or any other third party.  The 
#Customer has full responsibility for all drilling, completion and production operation.  
#Halliburton makes no representations or warranties, either expressed or 
#implied, including, but not limited to, the implied warranties of merchantability or fitness 
#for a particular purpose, with respect to the services rendered.  In no event will 
#Halliburton be liable for failure to obtain any particular results or for 
#any damages, including, but not limited to, indirect, special or consequential damages, 
#resulting from the use of any information or interpretation provided by Halliburton.
#
~A           TIME           GTDEPTH  GTPQH  GTTQ  GTTN   GTET   GTTVD  
# ...
   19:36:15.198.09-Sep-2020 5260.01 6248.25 74.29 23.00  67.83 2544.55
   19:36:15.398.09-Sep-2020 5260.01 6236.22 74.29 23.00  68.03 2544.55
   19:36:15.598.09-Sep-2020 5260.01 6236.22 74.29 23.00  68.23 2544.55
   19:36:15.798.09-Sep-2020 5260.01 6239.54 74.29 23.00  68.43 2544.55
   19:36:15.998.09-Sep-2020 5260.01 6240.27 74.29 23.00  68.63 2544.55
   19:36:16.198.09-Sep-2020 5260.01 6240.06 74.29 23.00  68.83 2544.55
   19:36:16.398.09-Sep-2020 5260.01 6241.61 74.29 23.00  69.03 2544.55
   19:36:16.598.09-Sep-2020 5260.01 6241.61 74.29 23.00  69.23 2544.55
   19:36:16.799.09-Sep-2020 5260.01 6237.15 74.29 23.00  69.43 2544.55
   19:36:16.999.09-Sep-2020 5260.01 6243.26 74.29 23.00  69.63 2544.55
   19:36:17.199.09-Sep-2020 5260.01 6242.59 74.29 23.00  69.83 2544.55
   19:36:17.399.09-Sep-2020 5260.01 6242.93 74.29 23.00  70.03 2544.55
   19:36:17.599.09-Sep-2020 5260.01 6242.93 74.29 23.00  70.23 2544.55
   19:36:17.799.09-Sep-2020 5260.01 6248.89 74.29 23.00  70.43 2544.55
   19:36:17.999.09-Sep-2020 5260.01 6242.11 74.29 23.00  70.63 2544.55
   19:36:18.199.09-Sep-2020 5260.01 6244.99 74.29 23.00  70.83 2544.55
   19:36:18.399.09-Sep-2020 5260.01 6243.98 74.29 23.00  71.03 2544.55
   19:36:18.599.09-Sep-2020 5260.01 6243.98 74.29 23.00  71.23 2544.55
   19:36:18.799.09-Sep-2020 5260.01 6243.88 74.29 23.00  71.43 2544.55
   19:36:19.000.09-Sep-2020 5260.01 6244.82 74.29 23.00  71.63 2544.55
   19:36:19.200.09-Sep-2020 5260.01 6244.51 74.29 23.00  71.83 2544.55
   19:36:19.400.09-Sep-2020 5260.01 6244.89 74.29 23.00  72.03 2544.55
   19:36:19.600.09-Sep-2020 5260.01 6244.89 74.29 23.00  72.23 2544.55
   19:36:19.800.09-Sep-2020 5260.01 6244.23 74.29 23.00  72.43 2544.55
   19:36:20.000.09-Sep-2020 5260.01 6244.23 74.29 23.00  72.63 2544.55
   19:36:20.200.09-Sep-2020 5260.01 6244.38 74.29 23.00  72.83 2544.55
   19:36:20.400.09-Sep-2020 5260.01 6244.72 74.29 23.00  73.03 2544.55
   19:36:20.600.09-Sep-2020 5260.01 6244.72 74.29 23.00  73.23 2544.55
   19:36:20.800.09-Sep-2020 5260.01 6245.26 74.29 23.00  73.43 2544.55
   19:36:21.000.09-Sep-2020 5260.01 6245.30 74.29 23.00  73.63 2544.55
   19:36:21.201.09-Sep-2020 5260.01 6245.30 74.29 23.00  73.83 2544.55
   19:36:21.401.09-Sep-2020 5260.01 6256.20 74.29 23.00  74.03 2544.55
   19:36:21.601.09-Sep-2020 5260.01 6240.91 74.29 23.00  74.23 2544.55
   19:36:21.801.09-Sep-2020 5260.01 6246.55 74.29 23.00  74.43 2544.55
   19:36:22.001.09-Sep-2020 5260.01 6245.81 74.29 23.00  74.63 2544.55
   19:36:22.201.09-Sep-2020 5260.01 6245.92 74.29 23.00  74.83 2544.55
   19:36:22.401.09-Sep-2020 5260.01 6246.23 74.29 23.00  75.03 2544.55
   19:36:22.601.09-Sep-2020 5260.01 6246.23 74.29 23.00  75.23 2544.55
   19:36:22.801.09-Sep-2020 5260.01 6246.07 74.29 23.00  75.43 2544.55
   19:36:23.001.09-Sep-2020 5260.01 6246.04 74.29 23.00  75.63 2544.55
   19:36:23.201.09-Sep-2020 5260.01 6245.62 74.29 23.00  75.83 2544.55
   19:36:23.402.09-Sep-2020 5260.01 6245.47 74.29 23.00  76.04 2544.55
   19:36:23.602.09-Sep-2020 5260.01 6245.47 74.29 23.00  76.24 2544.55
   19:36:23.802.09-Sep-2020 5260.01 6245.91 74.29 23.00  76.44 2544.55
   19:36:24.002.09-Sep-2020 5260.01 6246.30 74.29 23.00  76.64 2544.55
   19:36:24.202.09-Sep-2020 5260.01 6245.93 74.29 23.00  76.84 2544.55
   19:36:24.402.09-Sep-2020 5260.01 6245.95 74.29 23.00  77.04 2544.55
   19:36:24.602.09-Sep-2020 5260.01 6245.95 74.29 23.00  77.24 2544.55
   19:36:24.802.09-Sep-2020 5260.01 6257.24 74.29 23.00  77.44 2544.55
   19:36:25.002.09-Sep-2020 5260.01 6242.06 74.29 23.00  77.64 2544.55
   19:36:25.202.09-Sep-2020 5260.01 6247.66 74.29 23.00  77.84 2544.55
   19:36:25.403.09-Sep-2020 5260.01 6246.98 74.29 23.00  78.04 2544.55
   19:36:25.603.09-Sep-2020 5260.01 6246.98 74.29 23.00  78.24 2544.55
   19:36:25.803.09-Sep-2020 5260.01 6247.79 74.29 23.00  78.44 2544.55
   19:36:26.003.09-Sep-2020 5260.01 6257.58 74.29 23.00  78.64 2544.55
   19:36:26.203.09-Sep-2020 5260.01 6245.38 74.29 23.00  78.84 2544.55
   19:36:26.403.09-Sep-2020 5260.01 6249.80 74.29 23.00  79.04 2544.55
   19:36:26.603.09-Sep-2020 5260.01 6249.80 74.29 23.00  79.24 2544.55
   19:36:26.803.09-Sep-2020 5260.01 6248.94 74.29 23.00  79.44 2544.55
   19:36:27.003.09-Sep-2020 5260.01 6259.36 74.29 23.00  79.64 2544.55
   19:36:27.203.09-Sep-2020 5260.01 6245.72 74.29 23.00  79.84 2544.55
   19:36:27.403.09-Sep-2020 5260.01 6250.77 74.29 23.00  80.04 2544.55
   19:36:27.604.09-Sep-2020 5260.01 6250.77 74.29 23.00  80.24 2544.55
   19:36:27.804.09-Sep-2020 5260.01 6250.00 74.29 23.00  80.44 2544.55
   19:36:28.004.09-Sep-2020 5260.01 6250.43 74.29 23.00  80.64 2544.55
   19:36:28.204.09-Sep-2020 5260.01 6259.53 74.29 23.00  80.84 2544.55
   19:36:28.404.09-Sep-2020 5260.01 6247.52 74.29 23.00  81.04 2544.55
   19:36:28.604.09-Sep-2020 5260.01 6247.52 74.29 23.00  81.24 2544.55
   19:36:28.804.09-Sep-2020 5260.01 6251.72 74.29 23.00  81.44 2544.55
   19:36:29.004.09-Sep-2020 5260.01 6251.40 74.29 23.00  81.64 2544.55
   19:36:29.204.09-Sep-2020 5260.01 6251.87 74.29 23.00  81.84 2544.55
   19:36:29.404.09-Sep-2020 5260.01 6251.72 74.29 23.00  82.04 2544.55
   19:36:29.604.09-Sep-2020 5260.01 6251.51 74.29 23.00  82.24 2544.55
   19:36:29.805.09-Sep-2020 5260.01 6262.27 74.29 23.00  82.44 2544.55
   19:36:30.005.09-Sep-2020 5260.01 6247.43 74.29 23.00  82.64 2544.55
   19:36:30.205.09-Sep-2020 5260.01 6253.33 74.29 23.00  82.84 2544.55
   19:36:30.405.09-Sep-2020 5260.01 6252.43 74.29 23.00  83.04 2544.55
   19:36:30.605.09-Sep-2020 5260.01 6252.43 74.29 23.00  83.24 2544.55
   19:36:30.805.09-Sep-2020 5260.01 6253.27 74.29 23.00  83.44 2544.55
   19:36:31.005.09-Sep-2020 5260.01 6253.73 74.29 23.00  83.64 2544.55
   19:36:31.205.09-Sep-2020 5260.01 6252.42 74.29 23.00  83.84 2544.55
   19:36:31.405.09-Sep-2020 5260.01 6252.46 74.29 23.00  84.04 2544.55
   19:36:31.605.09-Sep-2020 5260.01 6252.46 74.29 23.00  84.24 2544.55
   19:36:31.805.09-Sep-2020 5260.01 6252.75 74.29 23.00  84.44 2544.55
   19:36:32.006.09-Sep-2020 5260.01 6252.70 74.29 23.00  84.64 2544.55
   19:36:32.206.09-Sep-2020 5260.01 6253.06 74.29 23.00  84.84 2544.55
   19:36:32.406.09-Sep-2020 5260.01 6253.19 74.29 23.00  85.04 2544.55
   19:36:32.606.09-Sep-2020 5260.01 6253.33 74.29 23.00  85.24 2544.55
   19:36:32.806.09-Sep-2020 5260.01 6253.43 74.29 23.00  85.44 2544.55
   19:36:33.006.09-Sep-2020 5260.01 6253.56 74.29 23.00  85.64 2544.55
   19:36:33.206.09-Sep-2020 5260.01 6253.69 74.29 23.00  85.84 2544.55
   19:36:33.406.09-Sep-2020 5260.01 6256.35 74.29 23.00  86.04 2544.55
   19:36:33.606.09-Sep-2020 5260.01 6256.35 74.29 23.00  86.24 2544.55
   19:36:33.806.09-Sep-2020 5260.01 6252.63 74.29 23.00  86.44 2544.55
   19:36:34.006.09-Sep-2020 5260.01 6255.38 74.29 23.00  86.64 2544.55
   19:36:34.207.09-Sep-2020 5260.01 6254.26 74.29 23.00  86.84 2544.55
   19:36:34.407.09-Sep-2020 5260.01 6255.19 74.29 23.00  87.04 2544.55
   19:36:34.607.09-Sep-2020 5260.01 6255.19 74.29 23.00  87.24 2544.55
   19:36:34.807.09-Sep-2020 5260.01 6254.37 74.29 23.00  87.44 2544.55
   19:36:35.007.09-Sep-2020 5260.01 6253.45 74.29 23.00  87.64 2544.55
   19:36:35.207.09-Sep-2020 5260.01 6253.77 74.29 23.00  87.84 2544.55
   19:36:35.407.09-Sep-2020 5260.01 6254.02 74.29 23.00  88.04 2544.55
   19:36:35.607.09-Sep-2020 5260.01 6254.02 74.29 23.00  88.24 2544.55
   19:36:35.807.09-Sep-2020 5260.01 6254.24 74.29 23.00  88.44 2544.55
   19:36:36.007.09-Sep-2020 5260.01 6254.08 74.29 23.00  88.64 2544.55
   19:36:36.207.09-Sep-2020 5260.01 6254.11 74.29 23.00  88.84 2544.55
   19:36:36.408.09-Sep-2020 5260.01 6254.21 74.29 23.00  89.04 2544.55
   19:36:36.608.09-Sep-2020 5260.01 6254.55 74.29 23.00  89.24 2544.55
   19:36:36.808.09-Sep-2020 5260.01 6257.20 74.29 23.00  89.44 2544.55
   19:36:37.008.09-Sep-2020 5260.01 6259.30 74.29 23.00  89.64 2544.55
   19:36:37.208.09-Sep-2020 5260.01 6253.34 74.29 23.00  89.84 2544.55
   19:36:37.408.09-Sep-2020 5260.01 6256.04 74.29 23.00  90.04 2544.55
   19:36:37.608.09-Sep-2020 5260.01 6256.04 74.29 23.00  90.24 2544.55
