~Version Information
 VERS.                  2.0:   CWLS log ASCII Standard -VERSION 2.0
 WRAP.                   NO:   One line per depth step
~Well Information Block
#MNEM.UNIT     VALUE/NAME     DESCRIPTION
#---------     -----------    ---------------------------
 STRT.S             12:49:18 09-Sep-20: START TIME 12:49:18 09-Sep-20
 STOP.S             12:55:59 09-Sep-20: STOP TIME  12:55:59 09-Sep-20
 STEP.S                   0.00: STEP TIME
 NULL.                 -999.25: NULL VALUE
 MDS .        Operator Entered:  MAG DATA SOURCE
 PDAT.          Mean Sea Level:  PERMANENT DATUM
 DCON.         Sperry Drilling:  DIRECTNL CONTR
 RIG .              West Azeri:  RIG NAME
 WELL.           C40 (Slot 20):  WELL NAME
 SRVC.     Turan Drilling Engineering:  CONTRACTOR
 FLD .                     ACG:  FIELD NAME
 CTRY.              Azerbaijan:  COUNTRY NAME
 PROV.                    Baku:  PROVINCE
 STAT.                    Baku:  STATE NAME
 REGN.                   EESSA:  REGION
 BASE.              Azerbaijan:  LOGGING EQUIPMENT BASE LOCATION
 COMP.     BP Exploration (Caspian Sea) Ltd:  COMPANY
 WTYP.                Deviated:  WELL TYPE
 SON .        AZ-XX-0906344804:  JOB NUMBER
 FTOP.          Formation Tops:  FORM TOPS DESC
 ILTD.               Lithology:  INTERP LTH DESC
 SVYD.                  Survey:  SURVEY DESC
 DMOD.             Drill Model:  DRILL MOD DESC
 HPTY.       Minimum Curvature:  HOLE POS TYPE
 NREF.                    Grid:  NORTH REFERENCE
 SPUD.               01-Jan-20:  SPUD DATE
 DATE.      00.59.44 15-Sep-20:  END TIME
 STIM.      12.00.00 12-Jun-20:  START TIME
 DMF .             Drill Floor:  DRILL MEAS FROM
 DFST.                        :  DIST FSL TEXT
 DFWT.                        :  DIST FWL TEXT
 API .                        :  API NUMBER
 CNTY.                        :  COUNTY
 UWI .                        :  UNIQUE WELL IDENTIFIER
 LOC .                        :  LOCATION
 LMF .             Drill Floor:  LOG MEASURED FROM
 VSNS.m                   2.88:  VERT SEC N/S
 VSEW.m                  -3.84:  VERT SEC E/W
 AGAP.m                  43.42:  AIR GAP
 APD .m                  43.42:  DEPTH ABOVE PD
 WDMS.m                 118.27:  WD ELEV
 EGL .m                   0.00:  GROUND ELEVATION
 EPD .m                   0.00:  ELEVATION
 AZTC.deg                 6.23:  AZM TOTAL CORR
 GRDC.deg                 0.20:  GRID CORRECTION
 MDEC.deg                 6.43:  MAGNETIC DECL
 MDIP.deg                59.49:  MAGNETIC DIP
 MFLD.nT              50277.00:  MAGNETIC FIELD
 GVFD.g                   1.00:  GRAVITY FIELD
 VSDR.deg               173.20:  VERT SEC DIRECT
 TDD .m                5790.01:  TOTAL DEPTH (DRILLER)
 SDEP.m                5231.01:  START DEPTH
 DFSL.m                   0.00:  DISTANCE FSL
 DFWL.m                   0.00:  DISTANCE FWL
 UTMY.m             4435808.83:  UTM Y
 UTMX.m              526266.40:  UTM X
 WHEW.m                  -3.84:  WELL HEAD E/W
 WHNS.m                   2.88:  WELL HEAD N/S
 LONG.deg                51.31:  LONGITUDE
 LATI.deg                40.06:  LATITUDE
 TVDS.m                  43.42:  TVDSS CORRECTN
 DEP .m                 430.08:  DEPTH
 EKB .m                  43.42:  KB ELEVATION
 EDF .m                  43.42:  DF ELEVATION
 TDL .m                 559.00:  TOTAL DEPTH (LOGGER)
 MAGU.                 1849381:  MAGUTM CHECKSUM
 VSC .                       0:  VS TO CLOSURE
~Parameter Information Block
#MNEM.UNIT       Value        Description
#---------     -----------    ---------------------------
 AV  .mps                 4.87:  Ann Velocity 
 AVMX.mps                 7.08:  Max Ann Veloc 
 AZIF.deg               108.87:  Azm, Final 
 BHAT.                  Rotary:  BHA Type 
 BROT.°/30m               0.35:  Build Rotating 
 BS  .in                  8.50:  Bit Size 
 BSZ .in                  8.50:  Bit Size 
 BTPL.psig              360.00:  Bit Press Loss 
 CABU.                     Yes:  Customer Abuse 
 COMM.                     ¤C}:  Run Comments 1 
 TCS .hr                106.24:  Time Ciculation Ended 
 CV  .mps                 1.77:  Crit Velocity 
 CVMX.mps                 2.03:  Max Crit Veloc 
 DD1 .         Aykhan Agagulov:  Direct Drillr 1 
 DD2 .            Nonso Okofor:  Direct Drillr 2 
 DDSV.               Geo-Pilot:  DD Service 
 DEFF.%                  98.00:  % Det Eff 
 DLRX.°/30m               0.50:  Dogleg Rot Max 
 DLSO.°/30m               0.40:  Dogleg Oriented 
 DLSX.°/30m               0.94:  Dogleg Str Max 
 DRET.      20.30.00 08-Sep-20:  Drill End Time 
 DRST.      22.15.00 06-Sep-20:  Drill Start Tim 
 DTIM.hr                 31.31:  Time Drilling 
 EDEP.m                5790.01:  End Depth 
 ENG1.           Amrah Tahirov:  Engineer 1 
 ENG2.         Dair Mahammadov:  Engineer 2 
 ENG3.           Emil Huseynov:  Engineer 3 
 ETIM.      04.01.04 12-Sep-20:  End Time 
 FLOI.gpm               450.00:  Flow In 
 FLON.gpm               450.00:  Flow In Min 
 FLOS.cptm                2.00:  Fluid Loss 
 FLOX.gpm               450.00:  Flow In Max 
 FTRO.       Formation Presure:  FTWD Run Obj 
 HFLO.                      No:  High Flow 
 HPRE.                      No:  High Pressure 
 HTEM.                      No:  High Temp 
 HYDO.m                   1.80:  Hydro Offset 
 IFIN.deg                72.03:  Inc, Final 
 IMAX.deg                73.72:  Inc Max 
 IMIN.deg                70.94:  Inc Min 
 IMND.m                5508.52:  Inc Min Depth 
 IMXD.m                5253.60:  Inc Max Depth 
 JARR.                      No:  Jarring 
 LETM.      20.30.00 08-Sep-20:  Log End Time 
 LOST.hr                     0:  Lost Rig Time 
 LSTM.      22.15.00 06-Sep-20:  Log Start Time 
 MDCL.ppm             36000.00:  Mud Chlorides 
 MDES.     Inversion Oil/Synthetic:  Mud Desc 
 DFD .sg                  1.44:  Mud Density 
 MDMN.sg                  1.44:  Dens Mud Min 
 MDMX.sg                  1.57:  Dens Mud Max 
 MOIL.                      70:  Run Mud Oil % 
 MOWR.                   70:30:  Run Mud OWR 
 MSND.                       0:  Run Mud Sand % 
 MSOL.                      21:  Run Mud Solids% 
 DFV .spqt               68.00:  Mud Viscosity 
 MWOD.in                  6.75:  MWD Tool OD 
 MWSI.                     Yes:  Serv Intrp, MWD 
 OTIM.hr                174.84:  Time Operating 
 PCON.           Look Like New:  Pad Condition 
 PMAX.psia            10616.93:  Press Op, Max 
 PV  .cP                 50.00:  Mud PV 
 RUN .                     700:  Run Number 
 ROPA.m/hr               14.24:  ROP Avg 
 ROPN.m/hr               10.00:  ROP Min 
 ROPX.m/hr               32.00:  ROP Max 
 RPMA.rpm               120.90:  RPM Surface Avg 
 RPMN.rpm               120.00:  RPM Surface Min 
 RPMX.rpm               140.00:  RPM Surface Max 
 RRUN.                    0700:  Rig Run Number 
 RTIM.hr                  3.20:  Time Reaming 
 SAZI.deg               109.99:  Azm, Start 
 SDEP.m                5231.01:  Start Depth 
 SIDD.                      No:  Serv Intrp, DD 
 SINC.deg                73.72:  Inc, Start 
 SPPA.psig             3051.00:  SPP Avg 
 SPPN.psig             2950.00:  SPP Min 
 SPPX.psig             3250.00:  SPP Max 
 STIM.      08.00.00 05-Sep-20:  Start Time 
 SVCS.                 DD, MWD:  Services 
 SVER.                    9.20:  Sperry Version 
 TDAT.m                 559.00:  Tot Depth Attmp 
 TDDF.                      No:  Trip for DD 
 TDLG.m                 559.00:  Tot Depth Loggd 
 TFF .                      No:  Trip for Fail 
 TQAA.f-kp               26.49:  Torque Abs Avg 
 TQAN.f-kp               25.00:  Torque Abs Min 
 TQAX.f-kp               27.00:  Torque Abs Max 
 TRRT.°/30m               1.50:  Turn Rotating 
 MRT .                    HCIM:  Maximum Recorded Temperature 
 TTMX.degC               90.20:  Max Tool Temp 
 VS01.                90542671:  Virtual Str1 SN 
 VS02.                90545185:  Virtual Str2 SN 
 VS03.                90602015:  Virtual Str3 SN 
 VS04.                90515230:  Virtual Str4 SN 
 WBMN.klb                 5.00:  WOB Min 
 WOBA.klb                14.79:  WOB Avg 
 WOBX.klb                20.00:  WOB Max 
 YP  .lhf2               29.00:  Yield Point 
~Curve Information Block
#MNEM.UNIT                 API CODE     Curve Description
#---------               -----------    ---------------------------
 TIME.HHMMSS            00 000 000 000:  GT Time & Date
 GTDEPTH.m              00 000 000 000:  GT Depth
 GTPQH.psia             00 000 000 000:  GT HR Quartz Pressure
 GTTQ.degC              00 000 000 000:  GT Quartz Temperature
 GTTN.NONE              00 000 000 000:  GT Test Number
 GTET.sec               00 000 000 000:  GT Elapsed Test Time
 GTTVD.m                00 000 000 000:  GT True Vertical Depth
#Other Information
#
#WARRANTY: Halliburton will use its best efforts to furnish customers with 
#accurate information and interpretations that are part of, and incident to, the services 
#provided.  However, Halliburton cannot and does not warrant the accuracy 
#or correctness of such information and interpretations.  Under no circumstances should any 
#such information or interpretation be relied upon as the sole basis for any drilling, 
#completion, production, or financial decision or any procedure involving any risk to the 
#safety of any drilling venture, drilling rig or its crew or any other third party.  The 
#Customer has full responsibility for all drilling, completion and production operation.  
#Halliburton makes no representations or warranties, either expressed or 
#implied, including, but not limited to, the implied warranties of merchantability or fitness 
#for a particular purpose, with respect to the services rendered.  In no event will 
#Halliburton be liable for failure to obtain any particular results or for 
#any damages, including, but not limited to, indirect, special or consequential damages, 
#resulting from the use of any information or interpretation provided by Halliburton.
#
~A           TIME           GTDEPTH  GTPQH  GTTQ  GTTN   GTET   GTTVD  
   12:49:18.000.09-Sep-2020 5424.51 6266.77 75.56 14.00   0.00 2594.79
   12:49:18.200.09-Sep-2020 5424.51 6275.35 75.56 14.00   0.20 2594.79
   12:49:18.400.09-Sep-2020 5424.51 6264.65 75.56 14.00   0.40 2594.79
   12:49:18.600.09-Sep-2020 5424.51 6267.85 75.56 14.00   0.60 2594.79
   12:49:18.800.09-Sep-2020 5424.51 6268.74 75.56 14.00   0.80 2594.79
   12:49:19.000.09-Sep-2020 5424.51 6269.01 75.56 14.00   1.00 2594.79
   12:49:19.200.09-Sep-2020 5424.51 6269.01 75.56 14.00   1.20 2594.79
   12:49:19.400.09-Sep-2020 5424.51 6268.52 75.56 14.00   1.40 2594.79
   12:49:19.600.09-Sep-2020 5424.51 6269.32 75.56 14.00   1.60 2594.79
   12:49:19.800.09-Sep-2020 5424.51 6275.65 75.56 14.00   1.80 2594.79
   12:49:20.000.09-Sep-2020 5424.51 6275.65 75.56 14.00   2.00 2594.79
   12:49:20.200.09-Sep-2020 5424.51 6270.03 75.56 14.00   2.20 2594.79
   12:49:20.400.09-Sep-2020 5424.51 6270.70 75.56 14.00   2.40 2594.79
   12:49:20.600.09-Sep-2020 5424.51 6277.86 75.56 14.00   2.60 2594.79
   12:49:20.800.09-Sep-2020 5424.51 6271.78 75.56 14.00   2.80 2594.79
   12:49:21.000.09-Sep-2020 5424.51 6273.99 75.56 14.00   3.00 2594.79
   12:49:21.200.09-Sep-2020 5424.51 6273.99 75.56 14.00   3.20 2594.79
   12:49:21.400.09-Sep-2020 5424.51 6278.02 75.56 14.00   3.40 2594.79
   12:49:21.600.09-Sep-2020 5424.51 6271.43 75.56 14.00   3.60 2594.79
   12:49:21.800.09-Sep-2020 5424.51 6273.21 75.56 14.00   3.80 2594.79
   12:49:22.000.09-Sep-2020 5424.51 6270.47 75.56 14.00   4.00 2594.79
   12:49:22.200.09-Sep-2020 5424.51 6271.68 75.56 14.00   4.20 2594.79
   12:49:22.400.09-Sep-2020 5424.51 6271.06 75.56 14.00   4.40 2594.79
   12:49:22.600.09-Sep-2020 5424.51 6270.41 75.56 14.00   4.60 2594.79
   12:49:22.800.09-Sep-2020 5424.51 6269.68 75.56 14.00   4.80 2594.79
   12:49:23.000.09-Sep-2020 5424.51 6269.45 75.56 14.00   5.00 2594.79
   12:49:23.200.09-Sep-2020 5424.51 6269.45 75.56 14.00   5.20 2594.79
   12:49:23.400.09-Sep-2020 5424.51 6269.97 75.56 14.00   5.40 2594.79
   12:49:23.600.09-Sep-2020 5424.51 6270.83 75.56 14.00   5.60 2594.79
   12:49:23.800.09-Sep-2020 5424.51 6271.45 75.56 14.00   5.80 2594.79
   12:49:24.000.09-Sep-2020 5424.51 6272.73 75.56 14.00   6.00 2594.79
   12:49:24.200.09-Sep-2020 5424.51 6272.73 75.56 14.00   6.20 2594.79
   12:49:24.400.09-Sep-2020 5424.51 6274.28 75.56 14.00   6.40 2594.79
   12:49:24.600.09-Sep-2020 5424.51 6275.17 75.56 14.00   6.60 2594.79
   12:49:24.800.09-Sep-2020 5424.51 6276.31 75.56 14.00   6.80 2594.79
   12:49:25.000.09-Sep-2020 5424.51 6287.10 75.56 14.00   7.00 2594.79
   12:49:25.200.09-Sep-2020 5424.51 6287.10 75.56 14.00   7.20 2594.79
   12:49:25.400.09-Sep-2020 5424.51 6279.12 75.56 14.00   7.40 2594.79
   12:49:25.600.09-Sep-2020 5424.51 6281.80 75.56 14.00   7.60 2594.79
   12:49:25.800.09-Sep-2020 5424.51 6281.14 75.56 14.00   7.80 2594.79
   12:49:26.000.09-Sep-2020 5424.51 6281.85 75.56 14.00   8.00 2594.79
   12:49:26.200.09-Sep-2020 5424.51 6280.82 75.56 14.00   8.20 2594.79
   12:49:26.400.09-Sep-2020 5424.51 6282.19 75.56 14.00   8.40 2594.79
   12:49:26.600.09-Sep-2020 5424.51 6282.31 75.56 14.00   8.60 2594.79
   12:49:26.800.09-Sep-2020 5424.51 6282.89 75.56 14.00   8.80 2594.79
   12:49:27.000.09-Sep-2020 5424.51 6282.37 75.56 14.00   9.00 2594.79
   12:49:27.200.09-Sep-2020 5424.51 6282.37 75.56 14.00   9.20 2594.79
   12:49:27.400.09-Sep-2020 5424.51 6282.23 75.56 14.00   9.40 2594.79
   12:49:27.600.09-Sep-2020 5424.51 6282.23 75.56 14.00   9.60 2594.79
   12:49:27.800.09-Sep-2020 5424.51 6282.56 75.56 14.00   9.80 2594.79
   12:49:28.000.09-Sep-2020 5424.51 6283.05 75.56 14.00  10.00 2594.79
   12:49:28.200.09-Sep-2020 5424.51 6283.05 75.56 14.00  10.20 2594.79
   12:49:28.400.09-Sep-2020 5424.51 6283.26 75.56 14.00  10.40 2594.79
   12:49:28.600.09-Sep-2020 5424.51 6292.40 75.56 14.00  10.60 2594.79
   12:49:28.800.09-Sep-2020 5424.51 6278.78 75.56 14.00  10.80 2594.79
   12:49:29.000.09-Sep-2020 5424.51 6282.79 75.56 14.00  11.00 2594.79
   12:49:29.200.09-Sep-2020 5424.51 6282.79 75.56 14.00  11.20 2594.79
   12:49:29.400.09-Sep-2020 5424.51 6284.64 75.56 14.00  11.40 2594.79
   12:49:29.600.09-Sep-2020 5424.51 6286.15 75.56 14.00  11.60 2594.79
   12:49:29.800.09-Sep-2020 5424.51 6288.85 75.56 14.00  11.80 2594.79
   12:49:30.000.09-Sep-2020 5424.51 6287.65 75.56 14.00  12.00 2594.79
   12:49:30.200.09-Sep-2020 5424.51 6285.39 75.56 14.00  12.20 2594.79
   12:49:30.400.09-Sep-2020 5424.51 6289.05 75.56 14.00  12.40 2594.79
   12:49:30.600.09-Sep-2020 5424.51 6286.59 75.56 14.00  12.60 2594.79
   12:49:30.800.09-Sep-2020 5424.51 6288.50 75.56 14.00  12.80 2594.79
   12:49:31.000.09-Sep-2020 5424.51 6287.61 75.56 14.00  13.00 2594.79
   12:49:31.200.09-Sep-2020 5424.51 6287.61 75.56 14.00  13.20 2594.79
   12:49:31.400.09-Sep-2020 5424.51 6288.45 75.56 14.00  13.40 2594.79
   12:49:31.600.09-Sep-2020 5424.51 6291.24 75.56 14.00  13.60 2594.79
   12:49:31.800.09-Sep-2020 5424.51 6291.24 75.56 14.00  13.80 2594.79
   12:49:32.000.09-Sep-2020 5424.51 6290.65 75.56 14.00  14.00 2594.79
   12:49:32.200.09-Sep-2020 5424.51 6290.65 75.56 14.00  14.20 2594.79
   12:49:32.400.09-Sep-2020 5424.51 6296.41 75.56 14.00  14.40 2594.79
   12:49:32.600.09-Sep-2020 5424.51 6290.70 75.56 14.00  14.60 2594.79
   12:49:32.800.09-Sep-2020 5424.51 6293.50 75.56 14.00  14.80 2594.79
   12:49:33.000.09-Sep-2020 5424.51 6291.49 75.56 14.00  15.00 2594.79
   12:49:33.200.09-Sep-2020 5424.51 6291.49 75.56 14.00  15.20 2594.79
   12:49:33.400.09-Sep-2020 5424.51 6289.66 75.56 14.00  15.40 2594.79
   12:49:33.600.09-Sep-2020 5424.51 6293.09 75.56 14.00  15.60 2594.79
   12:49:33.800.09-Sep-2020 5424.51 6294.03 75.56 14.00  15.80 2594.79
   12:49:34.000.09-Sep-2020 5424.51 6294.63 75.56 14.00  16.00 2594.79
   12:49:34.200.09-Sep-2020 5424.51 6294.63 75.56 14.00  16.20 2594.79
   12:49:34.400.09-Sep-2020 5424.51 6303.09 75.55 14.00  16.40 2594.79
   12:49:34.600.09-Sep-2020 5424.51 6292.04 75.56 14.00  16.60 2594.79
   12:49:34.800.09-Sep-2020 5424.51 6295.79 75.55 14.00  16.80 2594.79
   12:49:35.000.09-Sep-2020 5424.51 6297.10 75.55 14.00  17.00 2594.79
   12:49:35.200.09-Sep-2020 5424.51 6297.10 75.55 14.00  17.20 2594.79
   12:49:35.400.09-Sep-2020 5424.51 6297.59 75.55 14.00  17.40 2594.79
   12:49:35.600.09-Sep-2020 5424.51 6296.63 75.55 14.00  17.60 2594.79
   12:49:35.800.09-Sep-2020 5424.51 6297.79 75.55 14.00  17.80 2594.79
   12:49:36.000.09-Sep-2020 5424.51 6298.35 75.55 14.00  18.00 2594.79
   12:49:36.200.09-Sep-2020 5424.51 6298.35 75.55 14.00  18.20 2594.79
   12:49:36.400.09-Sep-2020 5424.51 6299.62 75.55 14.00  18.40 2594.79
   12:49:36.600.09-Sep-2020 5424.51 6300.06 75.55 14.00  18.60 2594.79
   12:49:36.800.09-Sep-2020 5424.51 6300.48 75.55 14.00  18.80 2594.79
   12:49:37.000.09-Sep-2020 5424.51 6300.89 75.55 14.00  19.00 2594.79
   12:49:37.200.09-Sep-2020 5424.51 6300.89 75.55 14.00  19.20 2594.79
   12:49:37.400.09-Sep-2020 5424.51 6301.72 75.55 14.00  19.40 2594.79
   12:49:37.600.09-Sep-2020 5424.51 6302.00 75.55 14.00  19.60 2594.79
   12:49:37.800.09-Sep-2020 5424.51 6302.05 75.55 14.00  19.80 2594.79
   12:49:38.000.09-Sep-2020 5424.51 6305.99 75.55 14.00  20.00 2594.79
   12:49:38.200.09-Sep-2020 5424.51 6304.44 75.55 14.00  20.20 2594.79
   12:49:38.400.09-Sep-2020 5424.51 6302.21 75.55 14.00  20.40 2594.79
   12:49:38.600.09-Sep-2020 5424.51 6305.40 75.55 14.00  20.60 2594.79
   12:49:38.800.09-Sep-2020 5424.51 6302.72 75.55 14.00  20.80 2594.79
   12:49:39.000.09-Sep-2020 5424.51 6304.06 75.55 14.00  21.00 2594.79
   12:49:39.200.09-Sep-2020 5424.51 6304.06 75.55 14.00  21.20 2594.79
   12:49:39.400.09-Sep-2020 5424.51 6303.66 75.55 14.00  21.40 2594.79
   12:49:39.600.09-Sep-2020 5424.51 6303.93 75.55 14.00  21.60 2594.79
   12:49:39.800.09-Sep-2020 5424.51 6304.77 75.55 14.00  21.80 2594.79
   12:49:40.000.09-Sep-2020 5424.51 6305.31 75.55 14.00  22.00 2594.79
   12:49:40.200.09-Sep-2020 5424.51 6305.31 75.55 14.00  22.20 2594.79
   12:49:40.400.09-Sep-2020 5424.51 6305.09 75.55 14.00  22.40 2594.79
