~Version Information
 VERS.                  2.0:   CWLS log ASCII Standard -VERSION 2.0
 WRAP.                   NO:   One line per depth step
~Well Information Block
#MNEM.UNIT     VALUE/NAME     DESCRIPTION
#---------     -----------    ---------------------------
 STRT.S             11:14:18 09-Sep-20: START TIME 11:14:18 09-Sep-20
 STOP.S             11:21:20 09-Sep-20: STOP TIME  11:21:20 09-Sep-20
 STEP.S                   0.00: STEP TIME
 NULL.                 -999.25: NULL VALUE
 MDS .        Operator Entered:  MAG DATA SOURCE
 PDAT.          Mean Sea Level:  PERMANENT DATUM
 DCON.         Sperry Drilling:  DIRECTNL CONTR
 RIG .              West Azeri:  RIG NAME
 WELL.           C40 (Slot 20):  WELL NAME
 SRVC.     Turan Drilling Engineering:  CONTRACTOR
 FLD .                     ACG:  FIELD NAME
 CTRY.              Azerbaijan:  COUNTRY NAME
 PROV.                    Baku:  PROVINCE
 STAT.                    Baku:  STATE NAME
 REGN.                   EESSA:  REGION
 BASE.              Azerbaijan:  LOGGING EQUIPMENT BASE LOCATION
 COMP.     BP Exploration (Caspian Sea) Ltd:  COMPANY
 WTYP.                Deviated:  WELL TYPE
 SON .        AZ-XX-0906344804:  JOB NUMBER
 FTOP.          Formation Tops:  FORM TOPS DESC
 ILTD.               Lithology:  INTERP LTH DESC
 SVYD.                  Survey:  SURVEY DESC
 DMOD.             Drill Model:  DRILL MOD DESC
 HPTY.       Minimum Curvature:  HOLE POS TYPE
 NREF.                    Grid:  NORTH REFERENCE
 SPUD.               01-Jan-20:  SPUD DATE
 DATE.      00.59.44 15-Sep-20:  END TIME
 STIM.      12.00.00 12-Jun-20:  START TIME
 DMF .             Drill Floor:  DRILL MEAS FROM
 DFST.                        :  DIST FSL TEXT
 DFWT.                        :  DIST FWL TEXT
 API .                        :  API NUMBER
 CNTY.                        :  COUNTY
 UWI .                        :  UNIQUE WELL IDENTIFIER
 LOC .                        :  LOCATION
 LMF .             Drill Floor:  LOG MEASURED FROM
 VSNS.m                   2.88:  VERT SEC N/S
 VSEW.m                  -3.84:  VERT SEC E/W
 AGAP.m                  43.42:  AIR GAP
 APD .m                  43.42:  DEPTH ABOVE PD
 WDMS.m                 118.27:  WD ELEV
 EGL .m                   0.00:  GROUND ELEVATION
 EPD .m                   0.00:  ELEVATION
 AZTC.deg                 6.23:  AZM TOTAL CORR
 GRDC.deg                 0.20:  GRID CORRECTION
 MDEC.deg                 6.43:  MAGNETIC DECL
 MDIP.deg                59.49:  MAGNETIC DIP
 MFLD.nT              50277.00:  MAGNETIC FIELD
 GVFD.g                   1.00:  GRAVITY FIELD
 VSDR.deg               173.20:  VERT SEC DIRECT
 TDD .m                5790.01:  TOTAL DEPTH (DRILLER)
 SDEP.m                5231.01:  START DEPTH
 DFSL.m                   0.00:  DISTANCE FSL
 DFWL.m                   0.00:  DISTANCE FWL
 UTMY.m             4435808.83:  UTM Y
 UTMX.m              526266.40:  UTM X
 WHEW.m                  -3.84:  WELL HEAD E/W
 WHNS.m                   2.88:  WELL HEAD N/S
 LONG.deg                51.31:  LONGITUDE
 LATI.deg                40.06:  LATITUDE
 TVDS.m                  43.42:  TVDSS CORRECTN
 DEP .m                 430.08:  DEPTH
 EKB .m                  43.42:  KB ELEVATION
 EDF .m                  43.42:  DF ELEVATION
 TDL .m                 559.00:  TOTAL DEPTH (LOGGER)
 MAGU.                 1849381:  MAGUTM CHECKSUM
 VSC .                       0:  VS TO CLOSURE
~Parameter Information Block
#MNEM.UNIT       Value        Description
#---------     -----------    ---------------------------
 AV  .mps                 4.87:  Ann Velocity 
 AVMX.mps                 7.08:  Max Ann Veloc 
 AZIF.deg               108.87:  Azm, Final 
 BHAT.                  Rotary:  BHA Type 
 BROT.°/30m               0.35:  Build Rotating 
 BS  .in                  8.50:  Bit Size 
 BSZ .in                  8.50:  Bit Size 
 BTPL.psig              360.00:  Bit Press Loss 
 CABU.                     Yes:  Customer Abuse 
 TCS .hr                106.24:  Time Ciculation Ended 
 CV  .mps                 1.77:  Crit Velocity 
 CVMX.mps                 2.03:  Max Crit Veloc 
 DD1 .         Aykhan Agagulov:  Direct Drillr 1 
 DD2 .            Nonso Okofor:  Direct Drillr 2 
 DDSV.               Geo-Pilot:  DD Service 
 DEFF.%                  98.00:  % Det Eff 
 DLRX.°/30m               0.50:  Dogleg Rot Max 
 DLSO.°/30m               0.40:  Dogleg Oriented 
 DLSX.°/30m               0.94:  Dogleg Str Max 
 DRET.      20.30.00 08-Sep-20:  Drill End Time 
 DRST.      22.15.00 06-Sep-20:  Drill Start Tim 
 DTIM.hr                 31.31:  Time Drilling 
 EDEP.m                5790.01:  End Depth 
 ENG1.           Amrah Tahirov:  Engineer 1 
 ENG2.         Dair Mahammadov:  Engineer 2 
 ENG3.           Emil Huseynov:  Engineer 3 
 ETIM.      04.01.04 12-Sep-20:  End Time 
 FLOI.gpm               450.00:  Flow In 
 FLON.gpm               450.00:  Flow In Min 
 FLOS.cptm                2.00:  Fluid Loss 
 FLOX.gpm               450.00:  Flow In Max 
 FTRO.       Formation Presure:  FTWD Run Obj 
 HFLO.                      No:  High Flow 
 HPRE.                      No:  High Pressure 
 HTEM.                      No:  High Temp 
 HYDO.m                   1.80:  Hydro Offset 
 IFIN.deg                72.03:  Inc, Final 
 IMAX.deg                73.72:  Inc Max 
 IMIN.deg                70.94:  Inc Min 
 IMND.m                5508.52:  Inc Min Depth 
 IMXD.m                5253.60:  Inc Max Depth 
 JARR.                      No:  Jarring 
 LETM.      20.30.00 08-Sep-20:  Log End Time 
 LOST.hr                     0:  Lost Rig Time 
 LSTM.      22.15.00 06-Sep-20:  Log Start Time 
 MDCL.ppm             36000.00:  Mud Chlorides 
 MDES.     Inversion Oil/Synthetic:  Mud Desc 
 DFD .sg                  1.44:  Mud Density 
 MDMN.sg                  1.44:  Dens Mud Min 
 MDMX.sg                  1.57:  Dens Mud Max 
 MOIL.                      70:  Run Mud Oil % 
 MOWR.                   70:30:  Run Mud OWR 
 MSND.                       0:  Run Mud Sand % 
 MSOL.                      21:  Run Mud Solids% 
 DFV .spqt               68.00:  Mud Viscosity 
 MWOD.in                  6.75:  MWD Tool OD 
 MWSI.                     Yes:  Serv Intrp, MWD 
 OTIM.hr                174.84:  Time Operating 
 PCON.           Look Like New:  Pad Condition 
 PMAX.psia            10616.93:  Press Op, Max 
 PV  .cP                 50.00:  Mud PV 
 RUN .                     700:  Run Number 
 ROPA.m/hr               14.24:  ROP Avg 
 ROPN.m/hr               10.00:  ROP Min 
 ROPX.m/hr               32.00:  ROP Max 
 RPMA.rpm               120.90:  RPM Surface Avg 
 RPMN.rpm               120.00:  RPM Surface Min 
 RPMX.rpm               140.00:  RPM Surface Max 
 RRUN.                    0700:  Rig Run Number 
 RTIM.hr                  3.20:  Time Reaming 
 SAZI.deg               109.99:  Azm, Start 
 SDEP.m                5231.01:  Start Depth 
 SIDD.                      No:  Serv Intrp, DD 
 SINC.deg                73.72:  Inc, Start 
 SPPA.psig             3051.00:  SPP Avg 
 SPPN.psig             2950.00:  SPP Min 
 SPPX.psig             3250.00:  SPP Max 
 STIM.      08.00.00 05-Sep-20:  Start Time 
 SVCS.                 DD, MWD:  Services 
 SVER.                    9.20:  Sperry Version 
 TDAT.m                 559.00:  Tot Depth Attmp 
 TDDF.                      No:  Trip for DD 
 TDLG.m                 559.00:  Tot Depth Loggd 
 TFF .                      No:  Trip for Fail 
 TQAA.f-kp               26.49:  Torque Abs Avg 
 TQAN.f-kp               25.00:  Torque Abs Min 
 TQAX.f-kp               27.00:  Torque Abs Max 
 TRRT.°/30m               1.50:  Turn Rotating 
 MRT .                    HCIM:  Maximum Recorded Temperature 
 TTMX.degC               90.20:  Max Tool Temp 
 VS01.                90542671:  Virtual Str1 SN 
 VS02.                90545185:  Virtual Str2 SN 
 VS03.                90602015:  Virtual Str3 SN 
 VS04.                90515230:  Virtual Str4 SN 
 WBMN.klb                 5.00:  WOB Min 
 WOBA.klb                14.79:  WOB Avg 
 WOBX.klb                20.00:  WOB Max 
 YP  .lhf2               29.00:  Yield Point 
~Curve Information Block
#MNEM.UNIT                 API CODE     Curve Description
#---------               -----------    ---------------------------
 TIME.HHMMSS            00 000 000 000:  GT Time & Date
 GTDEPTH.m              00 000 000 000:  GT Depth
 GTPQH.psia             00 000 000 000:  GT HR Quartz Pressure
 GTTQ.degC              00 000 000 000:  GT Quartz Temperature
 GTTN.NONE              00 000 000 000:  GT Test Number
 GTET.sec               00 000 000 000:  GT Elapsed Test Time
 GTTVD.m                00 000 000 000:  GT True Vertical Depth
#Other Information
#
#WARRANTY: Halliburton will use its best efforts to furnish customers with 
#accurate information and interpretations that are part of, and incident to, the services 
#provided.  However, Halliburton cannot and does not warrant the accuracy 
#or correctness of such information and interpretations.  Under no circumstances should any 
#such information or interpretation be relied upon as the sole basis for any drilling, 
#completion, production, or financial decision or any procedure involving any risk to the 
#safety of any drilling venture, drilling rig or its crew or any other third party.  The 
#Customer has full responsibility for all drilling, completion and production operation.  
#Halliburton makes no representations or warranties, either expressed or 
#implied, including, but not limited to, the implied warranties of merchantability or fitness 
#for a particular purpose, with respect to the services rendered.  In no event will 
#Halliburton be liable for failure to obtain any particular results or for 
#any damages, including, but not limited to, indirect, special or consequential damages, 
#resulting from the use of any information or interpretation provided by Halliburton.
#
~A           TIME           GTDEPTH  GTPQH  GTTQ  GTTN   GTET   GTTVD  
# ...
   11:14:41.117.09-Sep-2020 5442.01 6314.08 76.22 11.00  22.61 2600.30
   11:14:41.317.09-Sep-2020 5442.01 6318.42 76.22 11.00  22.81 2600.30
   11:14:41.517.09-Sep-2020 5442.01 6320.91 76.22 11.00  23.01 2600.30
   11:14:41.717.09-Sep-2020 5442.01 6319.84 76.22 11.00  23.21 2600.30
   11:14:41.917.09-Sep-2020 5442.01 6321.35 76.22 11.00  23.41 2600.30
   11:14:42.117.09-Sep-2020 5442.01 6329.94 76.22 11.00  23.61 2600.30
   11:14:42.317.09-Sep-2020 5442.01 6316.76 76.22 11.00  23.81 2600.30
   11:14:42.517.09-Sep-2020 5442.01 6320.68 76.22 11.00  24.01 2600.30
   11:14:42.717.09-Sep-2020 5442.01 6322.85 76.22 11.00  24.21 2600.30
   11:14:42.917.09-Sep-2020 5442.01 6322.31 76.22 11.00  24.41 2600.30
   11:14:43.117.09-Sep-2020 5442.01 6323.10 76.22 11.00  24.61 2600.30
   11:14:43.317.09-Sep-2020 5442.01 6325.31 76.22 11.00  24.81 2600.30
   11:14:43.517.09-Sep-2020 5442.01 6324.95 76.22 11.00  25.01 2600.30
   11:14:43.717.09-Sep-2020 5442.01 6324.95 76.22 11.00  25.21 2600.30
   11:14:43.917.09-Sep-2020 5442.01 6326.03 76.22 11.00  25.41 2600.30
   11:14:44.117.09-Sep-2020 5442.01 6324.62 76.22 11.00  25.61 2600.30
   11:14:44.318.09-Sep-2020 5442.01 6324.51 76.22 11.00  25.81 2600.30
   11:14:44.518.09-Sep-2020 5442.01 6334.60 76.22 11.00  26.01 2600.30
   11:14:44.718.09-Sep-2020 5442.01 6334.60 76.22 11.00  26.21 2600.30
   11:14:44.918.09-Sep-2020 5442.01 6325.03 76.22 11.00  26.41 2600.30
   11:14:45.118.09-Sep-2020 5442.01 6327.56 76.22 11.00  26.61 2600.30
   11:14:45.318.09-Sep-2020 5442.01 6327.08 76.22 11.00  26.81 2600.30
   11:14:45.518.09-Sep-2020 5442.01 6328.09 76.22 11.00  27.01 2600.30
   11:14:45.718.09-Sep-2020 5442.01 6327.18 76.22 11.00  27.21 2600.30
   11:14:45.918.09-Sep-2020 5442.01 6327.83 76.22 11.00  27.41 2600.30
   11:14:46.118.09-Sep-2020 5442.01 6333.52 76.22 11.00  27.61 2600.30
   11:14:46.318.09-Sep-2020 5442.01 6328.66 76.21 11.00  27.81 2600.30
   11:14:46.518.09-Sep-2020 5442.01 6328.90 76.21 11.00  28.01 2600.30
   11:14:46.718.09-Sep-2020 5442.01 6329.92 76.21 11.00  28.21 2600.30
   11:14:46.918.09-Sep-2020 5442.01 6329.82 76.21 11.00  28.41 2600.30
   11:14:47.118.09-Sep-2020 5442.01 6330.19 76.21 11.00  28.61 2600.30
   11:14:47.318.09-Sep-2020 5442.01 6330.13 76.21 11.00  28.81 2600.30
   11:14:47.518.09-Sep-2020 5442.01 6330.58 76.21 11.00  29.01 2600.30
   11:14:47.718.09-Sep-2020 5442.01 6330.58 76.21 11.00  29.21 2600.30
   11:14:47.919.09-Sep-2020 5442.01 6330.51 76.21 11.00  29.41 2600.30
   11:14:48.119.09-Sep-2020 5442.01 6330.56 76.21 11.00  29.61 2600.30
   11:14:48.319.09-Sep-2020 5442.01 6330.86 76.21 11.00  29.81 2600.30
   11:14:48.519.09-Sep-2020 5442.01 6331.66 76.21 11.00  30.01 2600.30
   11:14:48.719.09-Sep-2020 5442.01 6331.66 76.21 11.00  30.21 2600.30
   11:14:48.919.09-Sep-2020 5442.01 6332.92 76.21 11.00  30.41 2600.30
   11:14:49.119.09-Sep-2020 5442.01 6333.08 76.21 11.00  30.61 2600.30
   11:14:49.319.09-Sep-2020 5442.01 6333.54 76.21 11.00  30.81 2600.30
   11:14:49.519.09-Sep-2020 5442.01 6333.79 76.21 11.00  31.01 2600.30
   11:14:49.719.09-Sep-2020 5442.01 6333.79 76.21 11.00  31.21 2600.30
   11:14:49.919.09-Sep-2020 5442.01 6329.95 76.21 11.00  31.41 2600.30
   11:14:50.119.09-Sep-2020 5442.01 6334.10 76.21 11.00  31.61 2600.30
   11:14:50.319.09-Sep-2020 5442.01 6336.73 76.21 11.00  31.81 2600.30
   11:14:50.519.09-Sep-2020 5442.01 6335.43 76.21 11.00  32.01 2600.30
   11:14:50.719.09-Sep-2020 5442.01 6336.48 76.21 11.00  32.21 2600.30
   11:14:50.919.09-Sep-2020 5442.01 6335.63 76.21 11.00  32.41 2600.30
   11:14:51.119.09-Sep-2020 5442.01 6336.65 76.21 11.00  32.61 2600.30
   11:14:51.319.09-Sep-2020 5442.01 6335.96 76.21 11.00  32.81 2600.30
   11:14:51.520.09-Sep-2020 5442.01 6335.69 76.21 11.00  33.01 2600.30
   11:14:51.720.09-Sep-2020 5442.01 6335.69 76.21 11.00  33.21 2600.30
   11:14:51.920.09-Sep-2020 5442.01 6336.28 76.21 11.00  33.41 2600.30
   11:14:52.120.09-Sep-2020 5442.01 6337.28 76.21 11.00  33.61 2600.30
   11:14:52.320.09-Sep-2020 5442.01 6337.77 76.21 11.00  33.81 2600.30
   11:14:52.520.09-Sep-2020 5442.01 6337.73 76.21 11.00  34.01 2600.30
   11:14:52.720.09-Sep-2020 5442.01 6337.73 76.21 11.00  34.21 2600.30
   11:14:52.920.09-Sep-2020 5442.01 6337.83 76.21 11.00  34.41 2600.30
   11:14:53.120.09-Sep-2020 5442.01 6348.39 76.21 11.00  34.61 2600.30
   11:14:53.320.09-Sep-2020 5442.01 6334.68 76.21 11.00  34.81 2600.30
   11:14:53.520.09-Sep-2020 5442.01 6339.11 76.21 11.00  35.01 2600.30
   11:14:53.720.09-Sep-2020 5442.01 6339.11 76.21 11.00  35.21 2600.30
   11:14:53.920.09-Sep-2020 5442.01 6339.52 76.21 11.00  35.41 2600.30
   11:14:54.120.09-Sep-2020 5442.01 6340.52 76.21 11.00  35.61 2600.30
   11:14:54.320.09-Sep-2020 5442.01 6349.79 76.21 11.00  35.81 2600.30
   11:14:54.520.09-Sep-2020 5442.01 6336.76 76.21 11.00  36.01 2600.30
   11:14:54.720.09-Sep-2020 5442.01 6336.76 76.21 11.00  36.21 2600.30
   11:14:54.920.09-Sep-2020 5442.01 6342.59 76.21 11.00  36.41 2600.30
   11:14:55.121.09-Sep-2020 5442.01 6341.90 76.21 11.00  36.61 2600.30
   11:14:55.321.09-Sep-2020 5442.01 6342.57 76.21 11.00  36.81 2600.30
   11:14:55.521.09-Sep-2020 5442.01 6341.60 76.21 11.00  37.01 2600.30
   11:14:55.721.09-Sep-2020 5442.01 6341.60 76.21 11.00  37.21 2600.30
   11:14:55.921.09-Sep-2020 5442.01 6338.71 76.21 11.00  37.41 2600.30
   11:14:56.121.09-Sep-2020 5442.01 6343.09 76.21 11.00  37.61 2600.30
   11:14:56.321.09-Sep-2020 5442.01 6345.53 76.21 11.00  37.81 2600.30
   11:14:56.521.09-Sep-2020 5442.01 6343.66 76.21 11.00  38.01 2600.30
   11:14:56.721.09-Sep-2020 5442.01 6343.66 76.21 11.00  38.21 2600.30
   11:14:56.921.09-Sep-2020 5442.01 6345.70 76.21 11.00  38.41 2600.30
   11:14:57.121.09-Sep-2020 5442.01 6364.54 76.21 11.00  38.61 2600.30
   11:14:57.321.09-Sep-2020 5442.01 6433.83 76.21 11.00  38.81 2600.30
   11:14:57.521.09-Sep-2020 5442.01 6442.94 76.21 11.00  39.01 2600.30
   11:14:57.721.09-Sep-2020 5442.01 6453.04 76.21 11.00  39.21 2600.30
   11:14:57.921.09-Sep-2020 5442.01 6465.08 76.21 11.00  39.41 2600.30
   11:14:58.121.09-Sep-2020 5442.01 6465.05 76.21 11.00  39.61 2600.30
   11:14:58.321.09-Sep-2020 5442.01 6456.26 76.21 11.00  39.81 2600.30
   11:14:58.521.09-Sep-2020 5442.01 6430.99 76.21 11.00  40.01 2600.30
   11:14:58.722.09-Sep-2020 5442.01 6391.04 76.21 11.00  40.21 2600.30
   11:14:58.922.09-Sep-2020 5442.01 6350.37 76.21 11.00  40.41 2600.30
   11:14:59.122.09-Sep-2020 5442.01 6316.21 76.21 11.00  40.61 2600.30
   11:14:59.322.09-Sep-2020 5442.01 6288.57 76.21 11.00  40.81 2600.30
   11:14:59.522.09-Sep-2020 5442.01 6265.65 76.21 11.00  41.01 2600.30
   11:14:59.722.09-Sep-2020 5442.01 6265.65 76.21 11.00  41.21 2600.30
   11:14:59.922.09-Sep-2020 5442.01 6228.34 76.21 11.00  41.41 2600.30
   11:15:00.122.09-Sep-2020 5442.01 6212.60 76.21 11.00  41.61 2600.30
   11:15:00.322.09-Sep-2020 5442.01 6198.61 76.21 11.00  41.81 2600.30
   11:15:00.522.09-Sep-2020 5442.01 6186.50 76.21 11.00  42.01 2600.30
   11:15:00.722.09-Sep-2020 5442.01 6186.50 76.21 11.00  42.21 2600.30
   11:15:00.922.09-Sep-2020 5442.01 6166.56 76.21 11.00  42.41 2600.30
   11:15:01.122.09-Sep-2020 5442.01 6158.26 76.21 11.00  42.61 2600.30
   11:15:01.322.09-Sep-2020 5442.01 6150.30 76.21 11.00  42.81 2600.30
   11:15:01.522.09-Sep-2020 5442.01 6144.48 76.21 11.00  43.01 2600.30
   11:15:01.722.09-Sep-2020 5442.01 6136.76 76.21 11.00  43.21 2600.30
   11:15:01.922.09-Sep-2020 5442.01 6132.56 76.20 11.00  43.41 2600.30
   11:15:02.122.09-Sep-2020 5442.01 6128.62 76.20 11.00  43.61 2600.30
   11:15:02.323.09-Sep-2020 5442.01 6122.91 76.20 11.00  43.81 2600.30
   11:15:02.523.09-Sep-2020 5442.01 6017.33 76.20 11.00  44.01 2600.30
   11:15:02.723.09-Sep-2020 5442.01 5200.69 76.20 11.00  44.21 2600.30
   11:15:02.923.09-Sep-2020 5442.01 4396.44 76.20 11.00  44.41 2600.30
   11:15:03.123.09-Sep-2020 5442.01 3938.19 76.20 11.00  44.61 2600.30
   11:15:03.323.09-Sep-2020 5442.01 3552.57 76.20 11.00  44.81 2600.30
   11:15:03.523.09-Sep-2020 5442.01 3559.94 76.20 11.00  45.01 2600.30
