~Version Information
 VERS.                  2.0:   CWLS log ASCII Standard -VERSION 2.0
 WRAP.                   NO:   One line per depth step
~Well Information Block
#MNEM.UNIT     VALUE/NAME     DESCRIPTION
#---------     -----------    ---------------------------
 STRT.S             19:35:07 09-Sep-20: START TIME 19:35:07 09-Sep-20
 STOP.S             19:43:27 09-Sep-20: STOP TIME  19:43:27 09-Sep-20
 STEP.S                   0.00: STEP TIME
 NULL.                 -999.25: NULL VALUE
 MDS .        Operator Entered:  MAG DATA SOURCE
 PDAT.          Mean Sea Level:  PERMANENT DATUM
 DCON.         Sperry Drilling:  DIRECTNL CONTR
 RIG .              West Azeri:  RIG NAME
 WELL.           C40 (Slot 20):  WELL NAME
 SRVC.     Turan Drilling Engineering:  CONTRACTOR
 FLD .                     ACG:  FIELD NAME
 CTRY.              Azerbaijan:  COUNTRY NAME
 PROV.                    Baku:  PROVINCE
 STAT.                    Baku:  STATE NAME
 REGN.                   EESSA:  REGION
 BASE.              Azerbaijan:  LOGGING EQUIPMENT BASE LOCATION
 COMP.     BP Exploration (Caspian Sea) Ltd:  COMPANY
 WTYP.                Deviated:  WELL TYPE
 SON .        AZ-XX-0906344804:  JOB NUMBER
 FTOP.          Formation Tops:  FORM TOPS DESC
 ILTD.               Lithology:  INTERP LTH DESC
 SVYD.                  Survey:  SURVEY DESC
 DMOD.             Drill Model:  DRILL MOD DESC
 HPTY.       Minimum Curvature:  HOLE POS TYPE
 NREF.                    Grid:  NORTH REFERENCE
 SPUD.               01-Jan-20:  SPUD DATE
 DATE.      00.59.44 15-Sep-20:  END TIME
 STIM.      12.00.00 12-Jun-20:  START TIME
 DMF .             Drill Floor:  DRILL MEAS FROM
 DFST.                        :  DIST FSL TEXT
 DFWT.                        :  DIST FWL TEXT
 API .                        :  API NUMBER
 CNTY.                        :  COUNTY
 UWI .                        :  UNIQUE WELL IDENTIFIER
 LOC .                        :  LOCATION
 LMF .             Drill Floor:  LOG MEASURED FROM
 VSNS.m                   2.88:  VERT SEC N/S
 VSEW.m                  -3.84:  VERT SEC E/W
 AGAP.m                  43.42:  AIR GAP
 APD .m                  43.42:  DEPTH ABOVE PD
 WDMS.m                 118.27:  WD ELEV
 EGL .m                   0.00:  GROUND ELEVATION
 EPD .m                   0.00:  ELEVATION
 AZTC.deg                 6.23:  AZM TOTAL CORR
 GRDC.deg                 0.20:  GRID CORRECTION
 MDEC.deg                 6.43:  MAGNETIC DECL
 MDIP.deg                59.49:  MAGNETIC DIP
 MFLD.nT              50277.00:  MAGNETIC FIELD
 GVFD.g                   1.00:  GRAVITY FIELD
 VSDR.deg               173.20:  VERT SEC DIRECT
 TDD .m                5790.01:  TOTAL DEPTH (DRILLER)
 SDEP.m                5231.01:  START DEPTH
 DFSL.m                   0.00:  DISTANCE FSL
 DFWL.m                   0.00:  DISTANCE FWL
 UTMY.m             4435808.83:  UTM Y
 UTMX.m              526266.40:  UTM X
 WHEW.m                  -3.84:  WELL HEAD E/W
 WHNS.m                   2.88:  WELL HEAD N/S
 LONG.deg                51.31:  LONGITUDE
 LATI.deg                40.06:  LATITUDE
 TVDS.m                  43.42:  TVDSS CORRECTN
 DEP .m                 430.08:  DEPTH
 EKB .m                  43.42:  KB ELEVATION
 EDF .m                  43.42:  DF ELEVATION
 TDL .m                 559.00:  TOTAL DEPTH (LOGGER)
 MAGU.                 1849381:  MAGUTM CHECKSUM
 VSC .                       0:  VS TO CLOSURE
~Parameter Information Block
#MNEM.UNIT       Value        Description
#---------     -----------    ---------------------------
 AV  .mps                 4.87:  Ann Velocity 
 AVMX.mps                 7.08:  Max Ann Veloc 
 AZIF.deg               108.87:  Azm, Final 
 BHAT.                  Rotary:  BHA Type 
 BROT.°/30m               0.35:  Build Rotating 
 BS  .in                  8.50:  Bit Size 
 BSZ .in                  8.50:  Bit Size 
 BTPL.psig              360.00:  Bit Press Loss 
 CABU.                     Yes:  Customer Abuse 
 COMM.                     ¼«|:  Run Comments 1 
 TCS .hr                106.24:  Time Ciculation Ended 
 CV  .mps                 1.77:  Crit Velocity 
 CVMX.mps                 2.03:  Max Crit Veloc 
 DD1 .         Aykhan Agagulov:  Direct Drillr 1 
 DD2 .            Nonso Okofor:  Direct Drillr 2 
 DDSV.               Geo-Pilot:  DD Service 
 DEFF.%                  98.00:  % Det Eff 
 DLRX.°/30m               0.50:  Dogleg Rot Max 
 DLSO.°/30m               0.40:  Dogleg Oriented 
 DLSX.°/30m               0.94:  Dogleg Str Max 
 DRET.      20.30.00 08-Sep-20:  Drill End Time 
 DRST.      22.15.00 06-Sep-20:  Drill Start Tim 
 DTIM.hr                 31.31:  Time Drilling 
 EDEP.m                5790.01:  End Depth 
 ENG1.           Amrah Tahirov:  Engineer 1 
 ENG2.         Dair Mahammadov:  Engineer 2 
 ENG3.           Emil Huseynov:  Engineer 3 
 ETIM.      04.01.04 12-Sep-20:  End Time 
 FLOI.gpm               450.00:  Flow In 
 FLON.gpm               450.00:  Flow In Min 
 FLOS.cptm                2.00:  Fluid Loss 
 FLOX.gpm               450.00:  Flow In Max 
 FTRO.       Formation Presure:  FTWD Run Obj 
 HFLO.                      No:  High Flow 
 HPRE.                      No:  High Pressure 
 HTEM.                      No:  High Temp 
 HYDO.m                   1.80:  Hydro Offset 
 IFIN.deg                72.03:  Inc, Final 
 IMAX.deg                73.72:  Inc Max 
 IMIN.deg                70.94:  Inc Min 
 IMND.m                5508.52:  Inc Min Depth 
 IMXD.m                5253.60:  Inc Max Depth 
 JARR.                      No:  Jarring 
 LETM.      20.30.00 08-Sep-20:  Log End Time 
 LOST.hr                     0:  Lost Rig Time 
 LSTM.      22.15.00 06-Sep-20:  Log Start Time 
 MDCL.ppm             36000.00:  Mud Chlorides 
 MDES.     Inversion Oil/Synthetic:  Mud Desc 
 DFD .sg                  1.44:  Mud Density 
 MDMN.sg                  1.44:  Dens Mud Min 
 MDMX.sg                  1.57:  Dens Mud Max 
 MOIL.                      70:  Run Mud Oil % 
 MOWR.                   70:30:  Run Mud OWR 
 MSND.                       0:  Run Mud Sand % 
 MSOL.                      21:  Run Mud Solids% 
 DFV .spqt               68.00:  Mud Viscosity 
 MWOD.in                  6.75:  MWD Tool OD 
 MWSI.                     Yes:  Serv Intrp, MWD 
 OTIM.hr                174.84:  Time Operating 
 PCON.           Look Like New:  Pad Condition 
 PMAX.psia            10616.93:  Press Op, Max 
 PV  .cP                 50.00:  Mud PV 
 RUN .                     700:  Run Number 
 ROPA.m/hr               14.24:  ROP Avg 
 ROPN.m/hr               10.00:  ROP Min 
 ROPX.m/hr               32.00:  ROP Max 
 RPMA.rpm               120.90:  RPM Surface Avg 
 RPMN.rpm               120.00:  RPM Surface Min 
 RPMX.rpm               140.00:  RPM Surface Max 
 RRUN.                    0700:  Rig Run Number 
 RTIM.hr                  3.20:  Time Reaming 
 SAZI.deg               109.99:  Azm, Start 
 SDEP.m                5231.01:  Start Depth 
 SIDD.                      No:  Serv Intrp, DD 
 SINC.deg                73.72:  Inc, Start 
 SPPA.psig             3051.00:  SPP Avg 
 SPPN.psig             2950.00:  SPP Min 
 SPPX.psig             3250.00:  SPP Max 
 STIM.      08.00.00 05-Sep-20:  Start Time 
 SVCS.                 DD, MWD:  Services 
 SVER.                    9.20:  Sperry Version 
 TDAT.m                 559.00:  Tot Depth Attmp 
 TDDF.                      No:  Trip for DD 
 TDLG.m                 559.00:  Tot Depth Loggd 
 TFF .                      No:  Trip for Fail 
 TQAA.f-kp               26.49:  Torque Abs Avg 
 TQAN.f-kp               25.00:  Torque Abs Min 
 TQAX.f-kp               27.00:  Torque Abs Max 
 TRRT.°/30m               1.50:  Turn Rotating 
 MRT .                    HCIM:  Maximum Recorded Temperature 
 TTMX.degC               90.20:  Max Tool Temp 
 VS01.                90542671:  Virtual Str1 SN 
 VS02.                90545185:  Virtual Str2 SN 
 VS03.                90602015:  Virtual Str3 SN 
 VS04.                90515230:  Virtual Str4 SN 
 WBMN.klb                 5.00:  WOB Min 
 WOBA.klb                14.79:  WOB Avg 
 WOBX.klb                20.00:  WOB Max 
 YP  .lhf2               29.00:  Yield Point 
~Curve Information Block
#MNEM.UNIT                 API CODE     Curve Description
#---------               -----------    ---------------------------
 TIME.HHMMSS            00 000 000 000:  GT Time & Date
 GTDEPTH.m              00 000 000 000:  GT Depth
 GTPQH.psia             00 000 000 000:  GT HR Quartz Pressure
 GTTQ.degC              00 000 000 000:  GT Quartz Temperature
 GTTN.NONE              00 000 000 000:  GT Test Number
 GTET.sec               00 000 000 000:  GT Elapsed Test Time
 GTTVD.m                00 000 000 000:  GT True Vertical Depth
#Other Information
#
#WARRANTY: Halliburton will use its best efforts to furnish customers with 
#accurate information and interpretations that are part of, and incident to, the services 
#provided.  However, Halliburton cannot and does not warrant the accuracy 
#or correctness of such information and interpretations.  Under no circumstances should any 
#such information or interpretation be relied upon as the sole basis for any drilling, 
#completion, production, or financial decision or any procedure involving any risk to the 
#safety of any drilling venture, drilling rig or its crew or any other third party.  The 
#Customer has full responsibility for all drilling, completion and production operation.  
#Halliburton makes no representations or warranties, either expressed or 
#implied, including, but not limited to, the implied warranties of merchantability or fitness 
#for a particular purpose, with respect to the services rendered.  In no event will 
#Halliburton be liable for failure to obtain any particular results or for 
#any damages, including, but not limited to, indirect, special or consequential damages, 
#resulting from the use of any information or interpretation provided by Halliburton.
#
~A           TIME           GTDEPTH  GTPQH  GTTQ  GTTN   GTET   GTTVD  
# ...
   19:39:16.081.09-Sep-2020 5260.01 6286.11 74.28 23.00 248.71 2544.55
   19:39:16.281.09-Sep-2020 5260.01 6286.80 74.28 23.00 248.91 2544.55
   19:39:16.481.09-Sep-2020 5260.01 6286.59 74.28 23.00 249.11 2544.55
   19:39:16.681.09-Sep-2020 5260.01 6286.59 74.28 23.00 249.31 2544.55
   19:39:16.882.09-Sep-2020 5260.01 6286.20 74.28 23.00 249.52 2544.55
   19:39:17.082.09-Sep-2020 5260.01 6286.19 74.28 23.00 249.72 2544.55
   19:39:17.282.09-Sep-2020 5260.01 6285.25 74.28 23.00 249.92 2544.55
   19:39:17.482.09-Sep-2020 5260.01 6285.81 74.28 23.00 250.12 2544.55
   19:39:17.682.09-Sep-2020 5260.01 6285.81 74.28 23.00 250.32 2544.55
   19:39:17.882.09-Sep-2020 5260.01 6285.90 74.28 23.00 250.52 2544.55
   19:39:18.082.09-Sep-2020 5260.01 6286.10 74.28 23.00 250.72 2544.55
   19:39:18.282.09-Sep-2020 5260.01 6285.52 74.28 23.00 250.92 2544.55
   19:39:18.482.09-Sep-2020 5260.01 6285.49 74.28 23.00 251.12 2544.55
   19:39:18.682.09-Sep-2020 5260.01 6285.49 74.28 23.00 251.32 2544.55
   19:39:18.882.09-Sep-2020 5260.01 6295.86 74.28 23.00 251.52 2544.55
   19:39:19.083.09-Sep-2020 5260.01 6281.27 74.28 23.00 251.72 2544.55
   19:39:19.283.09-Sep-2020 5260.01 6287.07 74.28 23.00 251.92 2544.55
   19:39:19.483.09-Sep-2020 5260.01 6285.50 74.28 23.00 252.12 2544.55
   19:39:19.683.09-Sep-2020 5260.01 6285.50 74.28 23.00 252.32 2544.55
   19:39:19.883.09-Sep-2020 5260.01 6285.83 74.28 23.00 252.52 2544.55
   19:39:20.083.09-Sep-2020 5260.01 6296.32 74.28 23.00 252.72 2544.55
   19:39:20.283.09-Sep-2020 5260.01 6284.21 74.28 23.00 252.92 2544.55
   19:39:20.483.09-Sep-2020 5260.01 6287.35 74.28 23.00 253.12 2544.55
   19:39:20.683.09-Sep-2020 5260.01 6287.35 74.28 23.00 253.32 2544.55
   19:39:20.883.09-Sep-2020 5260.01 6286.49 74.28 23.00 253.52 2544.55
   19:39:21.083.09-Sep-2020 5260.01 6286.18 74.28 23.00 253.72 2544.55
   19:39:21.284.09-Sep-2020 5260.01 6300.61 74.28 23.00 253.92 2544.55
   19:39:21.484.09-Sep-2020 5260.01 6280.75 74.28 23.00 254.12 2544.55
   19:39:21.684.09-Sep-2020 5260.01 6286.36 74.28 23.00 254.32 2544.55
   19:39:21.884.09-Sep-2020 5260.01 6285.74 74.28 23.00 254.52 2544.55
   19:39:22.084.09-Sep-2020 5260.01 6286.22 74.28 23.00 254.72 2544.55
   19:39:22.284.09-Sep-2020 5260.01 6297.52 74.28 23.00 254.92 2544.55
   19:39:22.484.09-Sep-2020 5260.01 6284.65 74.28 23.00 255.12 2544.55
   19:39:22.684.09-Sep-2020 5260.01 6284.65 74.28 23.00 255.32 2544.55
   19:39:22.884.09-Sep-2020 5260.01 6286.13 74.28 23.00 255.52 2544.55
   19:39:23.084.09-Sep-2020 5260.01 6286.80 74.28 23.00 255.72 2544.55
   19:39:23.284.09-Sep-2020 5260.01 6299.12 74.28 23.00 255.92 2544.55
   19:39:23.485.09-Sep-2020 5260.01 6284.59 74.28 23.00 256.12 2544.55
   19:39:23.685.09-Sep-2020 5260.01 6284.59 74.28 23.00 256.32 2544.55
   19:39:23.885.09-Sep-2020 5260.01 6287.87 74.28 23.00 256.52 2544.55
   19:39:24.085.09-Sep-2020 5260.01 6287.03 74.28 23.00 256.72 2544.55
   19:39:24.285.09-Sep-2020 5260.01 6288.31 74.28 23.00 256.92 2544.55
   19:39:24.485.09-Sep-2020 5260.01 6290.02 74.28 23.00 257.12 2544.55
   19:39:24.685.09-Sep-2020 5260.01 6290.02 74.28 23.00 257.32 2544.55
   19:39:24.885.09-Sep-2020 5260.01 6288.15 74.28 23.00 257.52 2544.55
   19:39:25.085.09-Sep-2020 5260.01 6287.82 74.28 23.00 257.72 2544.55
   19:39:25.285.09-Sep-2020 5260.01 6287.75 74.28 23.00 257.92 2544.55
   19:39:25.486.09-Sep-2020 5260.01 6287.55 74.28 23.00 258.12 2544.55
   19:39:25.686.09-Sep-2020 5260.01 6287.29 74.28 23.00 258.32 2544.55
   19:39:25.886.09-Sep-2020 5260.01 6287.32 74.28 23.00 258.52 2544.55
   19:39:26.086.09-Sep-2020 5260.01 6287.31 74.28 23.00 258.72 2544.55
   19:39:26.286.09-Sep-2020 5260.01 6287.51 74.28 23.00 258.92 2544.55
   19:39:26.486.09-Sep-2020 5260.01 6287.36 74.28 23.00 259.12 2544.55
   19:39:26.686.09-Sep-2020 5260.01 6287.36 74.28 23.00 259.32 2544.55
   19:39:26.886.09-Sep-2020 5260.01 6287.45 74.28 23.00 259.52 2544.55
   19:39:27.086.09-Sep-2020 5260.01 6295.64 74.28 23.00 259.72 2544.55
   19:39:27.286.09-Sep-2020 5260.01 6286.01 74.28 23.00 259.92 2544.55
   19:39:27.486.09-Sep-2020 5260.01 6289.21 74.28 23.00 260.12 2544.55
   19:39:27.687.09-Sep-2020 5260.01 6289.21 74.28 23.00 260.32 2544.55
   19:39:27.887.09-Sep-2020 5260.01 6288.48 74.28 23.00 260.52 2544.55
   19:39:28.087.09-Sep-2020 5260.01 6287.98 74.28 23.00 260.72 2544.55
   19:39:28.287.09-Sep-2020 5260.01 6290.39 74.28 23.00 260.92 2544.55
   19:39:28.487.09-Sep-2020 5260.01 6287.96 74.28 23.00 261.12 2544.55
   19:39:28.687.09-Sep-2020 5260.01 6287.96 74.28 23.00 261.32 2544.55
   19:39:28.887.09-Sep-2020 5260.01 6286.76 74.28 23.00 261.52 2544.55
   19:39:29.087.09-Sep-2020 5260.01 6287.24 74.28 23.00 261.72 2544.55
   19:39:29.287.09-Sep-2020 5260.01 6287.02 74.28 23.00 261.92 2544.55
   19:39:29.487.09-Sep-2020 5260.01 6287.20 74.28 23.00 262.12 2544.55
   19:39:29.687.09-Sep-2020 5260.01 6287.31 74.28 23.00 262.32 2544.55
   19:39:29.888.09-Sep-2020 5260.01 6286.69 74.28 23.00 262.52 2544.55
   19:39:30.088.09-Sep-2020 5260.01 6286.58 74.28 23.00 262.72 2544.55
   19:39:30.288.09-Sep-2020 5260.01 6286.45 74.28 23.00 262.92 2544.55
   19:39:30.488.09-Sep-2020 5260.01 6294.05 74.28 23.00 263.12 2544.55
   19:39:30.688.09-Sep-2020 5260.01 6284.98 74.28 23.00 263.32 2544.55
   19:39:30.888.09-Sep-2020 5260.01 6288.47 74.28 23.00 263.52 2544.55
   19:39:31.088.09-Sep-2020 5260.01 6286.45 74.28 23.00 263.72 2544.55
   19:39:31.288.09-Sep-2020 5260.01 6286.94 74.28 23.00 263.92 2544.55
   19:39:31.488.09-Sep-2020 5260.01 6291.81 74.28 23.00 264.12 2544.55
   19:39:31.688.09-Sep-2020 5260.01 6291.81 74.28 23.00 264.32 2544.55
   19:39:31.888.09-Sep-2020 5260.01 6286.41 74.28 23.00 264.52 2544.55
   19:39:32.089.09-Sep-2020 5260.01 6287.70 74.28 23.00 264.72 2544.55
   19:39:32.289.09-Sep-2020 5260.01 6285.61 74.28 23.00 264.92 2544.55
   19:39:32.489.09-Sep-2020 5260.01 6287.20 74.28 23.00 265.12 2544.55
   19:39:32.689.09-Sep-2020 5260.01 6287.20 74.28 23.00 265.32 2544.55
   19:39:32.889.09-Sep-2020 5260.01 6299.64 74.28 23.00 265.52 2544.55
   19:39:33.089.09-Sep-2020 5260.01 6280.86 74.28 23.00 265.72 2544.55
   19:39:33.289.09-Sep-2020 5260.01 6286.16 74.28 23.00 265.92 2544.55
   19:39:33.489.09-Sep-2020 5260.01 6285.80 74.28 23.00 266.12 2544.55
   19:39:33.689.09-Sep-2020 5260.01 6285.80 74.28 23.00 266.32 2544.55
   19:39:33.889.09-Sep-2020 5260.01 6297.28 74.28 23.00 266.52 2544.55
   19:39:34.089.09-Sep-2020 5260.01 6284.33 74.28 23.00 266.72 2544.55
   19:39:34.290.09-Sep-2020 5260.01 6287.21 74.28 23.00 266.92 2544.55
   19:39:34.490.09-Sep-2020 5260.01 6285.75 74.28 23.00 267.12 2544.55
   19:39:34.690.09-Sep-2020 5260.01 6285.75 74.28 23.00 267.32 2544.55
   19:39:34.890.09-Sep-2020 5260.01 6281.83 74.28 23.00 267.52 2544.55
   19:39:35.090.09-Sep-2020 5260.01 6290.78 74.28 23.00 267.72 2544.55
   19:39:35.290.09-Sep-2020 5260.01 6287.21 74.28 23.00 267.92 2544.55
   19:39:35.490.09-Sep-2020 5260.01 6287.10 74.28 23.00 268.12 2544.55
   19:39:35.690.09-Sep-2020 5260.01 6287.10 74.28 23.00 268.32 2544.55
   19:39:35.890.09-Sep-2020 5260.01 6289.94 74.28 23.00 268.52 2544.55
   19:39:36.090.09-Sep-2020 5260.01 6287.74 74.28 23.00 268.72 2544.55
   19:39:36.290.09-Sep-2020 5260.01 6287.67 74.28 23.00 268.92 2544.55
   19:39:36.491.09-Sep-2020 5260.01 6287.41 74.28 23.00 269.12 2544.55
   19:39:36.691.09-Sep-2020 5260.01 6287.41 74.28 23.00 269.32 2544.55
   19:39:36.891.09-Sep-2020 5260.01 6287.26 74.28 23.00 269.52 2544.55
   19:39:37.091.09-Sep-2020 5260.01 6287.14 74.28 23.00 269.72 2544.55
   19:39:37.291.09-Sep-2020 5260.01 6287.30 74.28 23.00 269.92 2544.55
   19:39:37.491.09-Sep-2020 5260.01 6287.39 74.28 23.00 270.12 2544.55
   19:39:37.691.09-Sep-2020 5260.01 6287.39 74.28 23.00 270.32 2544.55
   19:39:37.891.09-Sep-2020 5260.01 6287.67 74.28 23.00 270.52 2544.55
   19:39:38.091.09-Sep-2020 5260.01 6287.60 74.28 23.00 270.72 2544.55
   19:39:38.291.09-Sep-2020 5260.01 6287.50 74.28 23.00 270.92 2544.55
   19:39:38.492.09-Sep-2020 5260.01 6295.48 74.28 23.00 271.12 2544.55
