~Version Information
 VERS.                  2.0:   CWLS log ASCII Standard -VERSION 2.0
 WRAP.                   NO:   One line per depth step
~Well Information Block
#MNEM.UNIT     VALUE/NAME     DESCRIPTION
#---------     -----------    ---------------------------
 STRT.S             18:19:19 09-Sep-20: START TIME 18:19:19 09-Sep-20
 STOP.S             18:27:34 09-Sep-20: STOP TIME  18:27:34 09-Sep-20
 STEP.S                   0.00: STEP TIME
 NULL.                 -999.25: NULL VALUE
 MDS .        Operator Entered:  MAG DATA SOURCE
 PDAT.          Mean Sea Level:  PERMANENT DATUM
 DCON.         Sperry Drilling:  DIRECTNL CONTR
 RIG .              West Azeri:  RIG NAME
 WELL.           C40 (Slot 20):  WELL NAME
 SRVC.     Turan Drilling Engineering:  CONTRACTOR
 FLD .                     ACG:  FIELD NAME
 CTRY.              Azerbaijan:  COUNTRY NAME
 PROV.                    Baku:  PROVINCE
 STAT.                    Baku:  STATE NAME
 REGN.                   EESSA:  REGION
 BASE.              Azerbaijan:  LOGGING EQUIPMENT BASE LOCATION
 COMP.     BP Exploration (Caspian Sea) Ltd:  COMPANY
 WTYP.                Deviated:  WELL TYPE
 SON .        AZ-XX-0906344804:  JOB NUMBER
 FTOP.          Formation Tops:  FORM TOPS DESC
 ILTD.               Lithology:  INTERP LTH DESC
 SVYD.                  Survey:  SURVEY DESC
 DMOD.             Drill Model:  DRILL MOD DESC
 HPTY.       Minimum Curvature:  HOLE POS TYPE
 NREF.                    Grid:  NORTH REFERENCE
 SPUD.               01-Jan-20:  SPUD DATE
 DATE.      00.59.44 15-Sep-20:  END TIME
 STIM.      12.00.00 12-Jun-20:  START TIME
 DMF .             Drill Floor:  DRILL MEAS FROM
 DFST.                        :  DIST FSL TEXT
 DFWT.                        :  DIST FWL TEXT
 API .                        :  API NUMBER
 CNTY.                        :  COUNTY
 UWI .                        :  UNIQUE WELL IDENTIFIER
 LOC .                        :  LOCATION
 LMF .             Drill Floor:  LOG MEASURED FROM
 VSNS.m                   2.88:  VERT SEC N/S
 VSEW.m                  -3.84:  VERT SEC E/W
 AGAP.m                  43.42:  AIR GAP
 APD .m                  43.42:  DEPTH ABOVE PD
 WDMS.m                 118.27:  WD ELEV
 EGL .m                   0.00:  GROUND ELEVATION
 EPD .m                   0.00:  ELEVATION
 AZTC.deg                 6.23:  AZM TOTAL CORR
 GRDC.deg                 0.20:  GRID CORRECTION
 MDEC.deg                 6.43:  MAGNETIC DECL
 MDIP.deg                59.49:  MAGNETIC DIP
 MFLD.nT              50277.00:  MAGNETIC FIELD
 GVFD.g                   1.00:  GRAVITY FIELD
 VSDR.deg               173.20:  VERT SEC DIRECT
 TDD .m                5790.01:  TOTAL DEPTH (DRILLER)
 SDEP.m                5231.01:  START DEPTH
 DFSL.m                   0.00:  DISTANCE FSL
 DFWL.m                   0.00:  DISTANCE FWL
 UTMY.m             4435808.83:  UTM Y
 UTMX.m              526266.40:  UTM X
 WHEW.m                  -3.84:  WELL HEAD E/W
 WHNS.m                   2.88:  WELL HEAD N/S
 LONG.deg                51.31:  LONGITUDE
 LATI.deg                40.06:  LATITUDE
 TVDS.m                  43.42:  TVDSS CORRECTN
 DEP .m                 430.08:  DEPTH
 EKB .m                  43.42:  KB ELEVATION
 EDF .m                  43.42:  DF ELEVATION
 TDL .m                 559.00:  TOTAL DEPTH (LOGGER)
 MAGU.                 1849381:  MAGUTM CHECKSUM
 VSC .                       0:  VS TO CLOSURE
~Parameter Information Block
#MNEM.UNIT       Value        Description
#---------     -----------    ---------------------------
 AV  .mps                 4.87:  Ann Velocity 
 AVMX.mps                 7.08:  Max Ann Veloc 
 AZIF.deg               108.87:  Azm, Final 
 BHAT.                  Rotary:  BHA Type 
 BROT.°/30m               0.35:  Build Rotating 
 BS  .in                  8.50:  Bit Size 
 BSZ .in                  8.50:  Bit Size 
 BTPL.psig              360.00:  Bit Press Loss 
 CABU.                     Yes:  Customer Abuse 
 TCS .hr                106.24:  Time Ciculation Ended 
 CV  .mps                 1.77:  Crit Velocity 
 CVMX.mps                 2.03:  Max Crit Veloc 
 DD1 .         Aykhan Agagulov:  Direct Drillr 1 
 DD2 .            Nonso Okofor:  Direct Drillr 2 
 DDSV.               Geo-Pilot:  DD Service 
 DEFF.%                  98.00:  % Det Eff 
 DLRX.°/30m               0.50:  Dogleg Rot Max 
 DLSO.°/30m               0.40:  Dogleg Oriented 
 DLSX.°/30m               0.94:  Dogleg Str Max 
 DRET.      20.30.00 08-Sep-20:  Drill End Time 
 DRST.      22.15.00 06-Sep-20:  Drill Start Tim 
 DTIM.hr                 31.31:  Time Drilling 
 EDEP.m                5790.01:  End Depth 
 ENG1.           Amrah Tahirov:  Engineer 1 
 ENG2.         Dair Mahammadov:  Engineer 2 
 ENG3.           Emil Huseynov:  Engineer 3 
 ETIM.      04.01.04 12-Sep-20:  End Time 
 FLOI.gpm               450.00:  Flow In 
 FLON.gpm               450.00:  Flow In Min 
 FLOS.cptm                2.00:  Fluid Loss 
 FLOX.gpm               450.00:  Flow In Max 
 FTRO.       Formation Presure:  FTWD Run Obj 
 HFLO.                      No:  High Flow 
 HPRE.                      No:  High Pressure 
 HTEM.                      No:  High Temp 
 HYDO.m                   1.80:  Hydro Offset 
 IFIN.deg                72.03:  Inc, Final 
 IMAX.deg                73.72:  Inc Max 
 IMIN.deg                70.94:  Inc Min 
 IMND.m                5508.52:  Inc Min Depth 
 IMXD.m                5253.60:  Inc Max Depth 
 JARR.                      No:  Jarring 
 LETM.      20.30.00 08-Sep-20:  Log End Time 
 LOST.hr                     0:  Lost Rig Time 
 LSTM.      22.15.00 06-Sep-20:  Log Start Time 
 MDCL.ppm             36000.00:  Mud Chlorides 
 MDES.     Inversion Oil/Synthetic:  Mud Desc 
 DFD .sg                  1.44:  Mud Density 
 MDMN.sg                  1.44:  Dens Mud Min 
 MDMX.sg                  1.57:  Dens Mud Max 
 MOIL.                      70:  Run Mud Oil % 
 MOWR.                   70:30:  Run Mud OWR 
 MSND.                       0:  Run Mud Sand % 
 MSOL.                      21:  Run Mud Solids% 
 DFV .spqt               68.00:  Mud Viscosity 
 MWOD.in                  6.75:  MWD Tool OD 
 MWSI.                     Yes:  Serv Intrp, MWD 
 OTIM.hr                174.84:  Time Operating 
 PCON.           Look Like New:  Pad Condition 
 PMAX.psia            10616.93:  Press Op, Max 
 PV  .cP                 50.00:  Mud PV 
 RUN .                     700:  Run Number 
 ROPA.m/hr               14.24:  ROP Avg 
 ROPN.m/hr               10.00:  ROP Min 
 ROPX.m/hr               32.00:  ROP Max 
 RPMA.rpm               120.90:  RPM Surface Avg 
 RPMN.rpm               120.00:  RPM Surface Min 
 RPMX.rpm               140.00:  RPM Surface Max 
 RRUN.                    0700:  Rig Run Number 
 RTIM.hr                  3.20:  Time Reaming 
 SAZI.deg               109.99:  Azm, Start 
 SDEP.m                5231.01:  Start Depth 
 SIDD.                      No:  Serv Intrp, DD 
 SINC.deg                73.72:  Inc, Start 
 SPPA.psig             3051.00:  SPP Avg 
 SPPN.psig             2950.00:  SPP Min 
 SPPX.psig             3250.00:  SPP Max 
 STIM.      08.00.00 05-Sep-20:  Start Time 
 SVCS.                 DD, MWD:  Services 
 SVER.                    9.20:  Sperry Version 
 TDAT.m                 559.00:  Tot Depth Attmp 
 TDDF.                      No:  Trip for DD 
 TDLG.m                 559.00:  Tot Depth Loggd 
 TFF .                      No:  Trip for Fail 
 TQAA.f-kp               26.49:  Torque Abs Avg 
 TQAN.f-kp               25.00:  Torque Abs Min 
 TQAX.f-kp               27.00:  Torque Abs Max 
 TRRT.°/30m               1.50:  Turn Rotating 
 MRT .                    HCIM:  Maximum Recorded Temperature 
 TTMX.degC               90.20:  Max Tool Temp 
 VS01.                90542671:  Virtual Str1 SN 
 VS02.                90545185:  Virtual Str2 SN 
 VS03.                90602015:  Virtual Str3 SN 
 VS04.                90515230:  Virtual Str4 SN 
 WBMN.klb                 5.00:  WOB Min 
 WOBA.klb                14.79:  WOB Avg 
 WOBX.klb                20.00:  WOB Max 
 YP  .lhf2               29.00:  Yield Point 
~Curve Information Block
#MNEM.UNIT                 API CODE     Curve Description
#---------               -----------    ---------------------------
 TIME.HHMMSS            00 000 000 000:  GT Time & Date
 GTDEPTH.m              00 000 000 000:  GT Depth
 GTPQH.psia             00 000 000 000:  GT HR Quartz Pressure
 GTTQ.degC              00 000 000 000:  GT Quartz Temperature
 GTTN.NONE              00 000 000 000:  GT Test Number
 GTET.sec               00 000 000 000:  GT Elapsed Test Time
 GTTVD.m                00 000 000 000:  GT True Vertical Depth
#Other Information
#
#WARRANTY: Halliburton will use its best efforts to furnish customers with 
#accurate information and interpretations that are part of, and incident to, the services 
#provided.  However, Halliburton cannot and does not warrant the accuracy 
#or correctness of such information and interpretations.  Under no circumstances should any 
#such information or interpretation be relied upon as the sole basis for any drilling, 
#completion, production, or financial decision or any procedure involving any risk to the 
#safety of any drilling venture, drilling rig or its crew or any other third party.  The 
#Customer has full responsibility for all drilling, completion and production operation.  
#Halliburton makes no representations or warranties, either expressed or 
#implied, including, but not limited to, the implied warranties of merchantability or fitness 
#for a particular purpose, with respect to the services rendered.  In no event will 
#Halliburton be liable for failure to obtain any particular results or for 
#any damages, including, but not limited to, indirect, special or consequential damages, 
#resulting from the use of any information or interpretation provided by Halliburton.
#
~A           TIME           GTDEPTH  GTPQH  GTTQ  GTTN   GTET   GTTVD  
# ...
   18:23:28.347.09-Sep-2020 5281.01 4060.91 74.57 21.00 248.41 2550.59
   18:23:28.547.09-Sep-2020 5281.01 4061.24 74.57 21.00 248.60 2550.59
   18:23:28.747.09-Sep-2020 5281.01 4061.65 74.57 21.00 248.80 2550.59
   18:23:28.947.09-Sep-2020 5281.01 4061.65 74.57 21.00 249.00 2550.59
   18:23:29.147.09-Sep-2020 5281.01 4061.75 74.57 21.00 249.20 2550.59
   18:23:29.346.09-Sep-2020 5281.01 4060.12 74.57 21.00 249.40 2550.59
   18:23:29.546.09-Sep-2020 5281.01 4060.52 74.57 21.00 249.60 2550.59
   18:23:29.746.09-Sep-2020 5281.01 4060.99 74.57 21.00 249.80 2550.59
   18:23:29.946.09-Sep-2020 5281.01 4060.99 74.57 21.00 250.00 2550.59
   18:23:30.146.09-Sep-2020 5281.01 4061.67 74.57 21.00 250.20 2550.59
   18:23:30.346.09-Sep-2020 5281.01 4062.09 74.57 21.00 250.40 2550.59
   18:23:30.545.09-Sep-2020 5281.01 4061.92 74.57 21.00 250.60 2550.59
   18:23:30.745.09-Sep-2020 5281.01 4061.88 74.57 21.00 250.80 2550.59
   18:23:30.945.09-Sep-2020 5281.01 4061.88 74.57 21.00 251.00 2550.59
   18:23:31.145.09-Sep-2020 5281.01 4061.85 74.57 21.00 251.20 2550.59
   18:23:31.345.09-Sep-2020 5281.01 4061.94 74.57 21.00 251.40 2550.59
   18:23:31.545.09-Sep-2020 5281.01 4061.89 74.57 21.00 251.60 2550.59
   18:23:31.745.09-Sep-2020 5281.01 4061.83 74.57 21.00 251.80 2550.59
   18:23:31.944.09-Sep-2020 5281.01 4061.83 74.57 21.00 252.00 2550.59
   18:23:32.144.09-Sep-2020 5281.01 4061.76 74.56 21.00 252.20 2550.59
   18:23:32.344.09-Sep-2020 5281.01 4061.71 74.57 21.00 252.40 2550.59
   18:23:32.544.09-Sep-2020 5281.01 4061.66 74.56 21.00 252.60 2550.59
   18:23:32.744.09-Sep-2020 5281.01 4061.61 74.56 21.00 252.80 2550.59
   18:23:32.944.09-Sep-2020 5281.01 4061.61 74.56 21.00 253.00 2550.59
   18:23:33.143.09-Sep-2020 5281.01 4060.10 74.56 21.00 253.20 2550.59
   18:23:33.343.09-Sep-2020 5281.01 4059.78 74.56 21.00 253.40 2550.59
   18:23:33.543.09-Sep-2020 5281.01 4060.74 74.56 21.00 253.60 2550.59
   18:23:33.743.09-Sep-2020 5281.01 4060.97 74.56 21.00 253.80 2550.59
   18:23:33.943.09-Sep-2020 5281.01 4060.97 74.56 21.00 254.00 2550.59
   18:23:34.143.09-Sep-2020 5281.01 4061.29 74.56 21.00 254.20 2550.59
   18:23:34.343.09-Sep-2020 5281.01 4061.46 74.56 21.00 254.40 2550.59
   18:23:34.542.09-Sep-2020 5281.01 4061.51 74.56 21.00 254.60 2550.59
   18:23:34.742.09-Sep-2020 5281.01 4061.59 74.56 21.00 254.80 2550.59
   18:23:34.942.09-Sep-2020 5281.01 4061.59 74.56 21.00 255.00 2550.59
   18:23:35.142.09-Sep-2020 5281.01 4061.46 74.56 21.00 255.20 2550.59
   18:23:35.342.09-Sep-2020 5281.01 4061.47 74.56 21.00 255.40 2550.59
   18:23:35.542.09-Sep-2020 5281.01 4061.48 74.56 21.00 255.60 2550.59
   18:23:35.741.09-Sep-2020 5281.01 4061.51 74.56 21.00 255.80 2550.59
   18:23:35.941.09-Sep-2020 5281.01 4061.51 74.56 21.00 256.00 2550.59
   18:23:36.141.09-Sep-2020 5281.01 4061.51 74.56 21.00 256.20 2550.59
   18:23:36.341.09-Sep-2020 5281.01 4061.06 74.56 21.00 256.40 2550.59
   18:23:36.541.09-Sep-2020 5281.01 4059.75 74.56 21.00 256.60 2550.59
   18:23:36.741.09-Sep-2020 5281.01 4060.20 74.56 21.00 256.80 2550.59
   18:23:36.940.09-Sep-2020 5281.01 4060.20 74.56 21.00 257.00 2550.59
   18:23:37.140.09-Sep-2020 5281.01 4061.13 74.56 21.00 257.20 2550.59
   18:23:37.340.09-Sep-2020 5281.01 4061.67 74.56 21.00 257.40 2550.59
   18:23:37.540.09-Sep-2020 5281.01 4060.15 74.56 21.00 257.60 2550.59
   18:23:37.740.09-Sep-2020 5281.01 4060.84 74.56 21.00 257.80 2550.59
   18:23:37.940.09-Sep-2020 5281.01 4060.84 74.56 21.00 258.00 2550.59
   18:23:38.140.09-Sep-2020 5281.01 4061.59 74.56 21.00 258.20 2550.59
   18:23:38.339.09-Sep-2020 5281.01 4061.76 74.56 21.00 258.40 2550.59
   18:23:38.539.09-Sep-2020 5281.01 4062.27 74.56 21.00 258.60 2550.59
   18:23:38.739.09-Sep-2020 5281.01 4062.20 74.56 21.00 258.80 2550.59
   18:23:38.939.09-Sep-2020 5281.01 4062.20 74.56 21.00 259.00 2550.59
   18:23:39.139.09-Sep-2020 5281.01 4060.88 74.56 21.00 259.20 2550.59
   18:23:39.339.09-Sep-2020 5281.01 4061.87 74.56 21.00 259.40 2550.59
   18:23:39.538.09-Sep-2020 5281.01 4062.20 74.56 21.00 259.60 2550.59
   18:23:39.738.09-Sep-2020 5281.01 4062.63 74.56 21.00 259.80 2550.59
   18:23:39.938.09-Sep-2020 5281.01 4062.63 74.56 21.00 260.00 2550.59
   18:23:40.138.09-Sep-2020 5281.01 4062.68 74.56 21.00 260.20 2550.59
   18:23:40.338.09-Sep-2020 5281.01 4061.24 74.56 21.00 260.40 2550.59
   18:23:40.538.09-Sep-2020 5281.01 4061.74 74.56 21.00 260.60 2550.59
   18:23:40.737.09-Sep-2020 5281.01 4061.93 74.56 21.00 260.80 2550.59
   18:23:40.937.09-Sep-2020 5281.01 4061.93 74.56 21.00 261.00 2550.59
   18:23:41.137.09-Sep-2020 5281.01 4062.64 74.56 21.00 261.20 2550.59
   18:23:41.337.09-Sep-2020 5281.01 4063.09 74.56 21.00 261.39 2550.59
   18:23:41.537.09-Sep-2020 5281.01 4062.95 74.56 21.00 261.59 2550.59
   18:23:41.737.09-Sep-2020 5281.01 4061.42 74.56 21.00 261.79 2550.59
   18:23:41.937.09-Sep-2020 5281.01 4061.42 74.56 21.00 261.99 2550.59
   18:23:42.136.09-Sep-2020 5281.01 4062.46 74.56 21.00 262.19 2550.59
   18:23:42.336.09-Sep-2020 5281.01 4062.80 74.56 21.00 262.39 2550.59
   18:23:42.536.09-Sep-2020 5281.01 4062.98 74.56 21.00 262.59 2550.59
   18:23:42.736.09-Sep-2020 5281.01 4063.36 74.56 21.00 262.79 2550.59
   18:23:42.936.09-Sep-2020 5281.01 4063.36 74.56 21.00 262.99 2550.59
   18:23:43.136.09-Sep-2020 5281.01 4063.10 74.56 21.00 263.19 2550.59
   18:23:43.335.09-Sep-2020 5281.01 4063.09 74.56 21.00 263.39 2550.59
   18:23:43.535.09-Sep-2020 5281.01 4063.07 74.56 21.00 263.59 2550.59
   18:23:43.735.09-Sep-2020 5281.01 4063.12 74.56 21.00 263.79 2550.59
   18:23:43.935.09-Sep-2020 5281.01 4063.12 74.56 21.00 263.99 2550.59
   18:23:44.135.09-Sep-2020 5281.01 4062.98 74.56 21.00 264.19 2550.59
   18:23:44.335.09-Sep-2020 5281.01 4062.94 74.56 21.00 264.39 2550.59
   18:23:44.535.09-Sep-2020 5281.01 4062.89 74.56 21.00 264.59 2550.59
   18:23:44.734.09-Sep-2020 5281.01 4062.87 74.56 21.00 264.79 2550.59
   18:23:44.934.09-Sep-2020 5281.01 4062.87 74.56 21.00 264.99 2550.59
   18:23:45.134.09-Sep-2020 5281.01 4062.77 74.56 21.00 265.19 2550.59
   18:23:45.334.09-Sep-2020 5281.01 4062.70 74.56 21.00 265.39 2550.59
   18:23:45.534.09-Sep-2020 5281.01 4061.29 74.56 21.00 265.59 2550.59
   18:23:45.734.09-Sep-2020 5281.01 4060.94 74.56 21.00 265.79 2550.59
   18:23:45.933.09-Sep-2020 5281.01 4060.94 74.56 21.00 265.99 2550.59
   18:23:46.133.09-Sep-2020 5281.01 4062.18 74.56 21.00 266.19 2550.59
   18:23:46.333.09-Sep-2020 5281.01 4062.50 74.56 21.00 266.39 2550.59
   18:23:46.533.09-Sep-2020 5281.01 4062.49 74.56 21.00 266.59 2550.59
   18:23:46.733.09-Sep-2020 5281.01 4062.65 74.56 21.00 266.79 2550.59
   18:23:46.933.09-Sep-2020 5281.01 4062.65 74.56 21.00 266.99 2550.59
   18:23:47.132.09-Sep-2020 5281.01 4062.75 74.56 21.00 267.19 2550.59
   18:23:47.332.09-Sep-2020 5281.01 4062.67 74.56 21.00 267.39 2550.59
   18:23:47.532.09-Sep-2020 5281.01 4062.60 74.56 21.00 267.59 2550.59
   18:23:47.732.09-Sep-2020 5281.01 4062.60 74.56 21.00 267.79 2550.59
   18:23:47.932.09-Sep-2020 5281.01 4062.60 74.56 21.00 267.99 2550.59
   18:23:48.132.09-Sep-2020 5281.01 4062.69 74.56 21.00 268.19 2550.59
   18:23:48.332.09-Sep-2020 5281.01 4062.69 74.56 21.00 268.39 2550.59
   18:23:48.531.09-Sep-2020 5281.01 4062.66 74.56 21.00 268.59 2550.59
   18:23:48.731.09-Sep-2020 5281.01 4062.27 74.56 21.00 268.79 2550.59
   18:23:48.931.09-Sep-2020 5281.01 4062.27 74.56 21.00 268.99 2550.59
   18:23:49.131.09-Sep-2020 5281.01 4061.31 74.56 21.00 269.19 2550.59
   18:23:49.331.09-Sep-2020 5281.01 4061.98 74.56 21.00 269.39 2550.59
   18:23:49.531.09-Sep-2020 5281.01 4062.23 74.56 21.00 269.59 2550.59
   18:23:49.730.09-Sep-2020 5281.01 4062.71 74.56 21.00 269.79 2550.59
   18:23:49.930.09-Sep-2020 5281.01 4062.71 74.56 21.00 269.99 2550.59
   18:23:50.130.09-Sep-2020 5281.01 4061.99 74.56 21.00 270.19 2550.59
   18:23:50.330.09-Sep-2020 5281.01 4062.05 74.56 21.00 270.39 2550.59
   18:23:50.530.09-Sep-2020 5281.01 4062.59 74.56 21.00 270.59 2550.59
   18:23:50.730.09-Sep-2020 5281.01 4062.72 74.56 21.00 270.79 2550.59
