~Version Information
 VERS.                  2.0:   CWLS log ASCII Standard -VERSION 2.0
 WRAP.                   NO:   One line per depth step
~Well Information Block
#MNEM.UNIT     VALUE/NAME     DESCRIPTION
#---------     -----------    ---------------------------
 STRT.S             18:19:19 09-Sep-20: START TIME 18:19:19 09-Sep-20
 STOP.S             18:27:34 09-Sep-20: STOP TIME  18:27:34 09-Sep-20
 STEP.S                   0.00: STEP TIME
 NULL.                 -999.25: NULL VALUE
 MDS .        Operator Entered:  MAG DATA SOURCE
 PDAT.          Mean Sea Level:  PERMANENT DATUM
 DCON.         Sperry Drilling:  DIRECTNL CONTR
 RIG .              West Azeri:  RIG NAME
 WELL.           C40 (Slot 20):  WELL NAME
 SRVC.     Turan Drilling Engineering:  CONTRACTOR
 FLD .                     ACG:  FIELD NAME
 CTRY.              Azerbaijan:  COUNTRY NAME
 PROV.                    Baku:  PROVINCE
 STAT.                    Baku:  STATE NAME
 REGN.                   EESSA:  REGION
 BASE.              Azerbaijan:  LOGGING EQUIPMENT BASE LOCATION
 COMP.     BP Exploration (Caspian Sea) Ltd:  COMPANY
 WTYP.                Deviated:  WELL TYPE
 SON .        AZ-XX-0906344804:  JOB NUMBER
 FTOP.          Formation Tops:  FORM TOPS DESC
 ILTD.               Lithology:  INTERP LTH DESC
 SVYD.                  Survey:  SURVEY DESC
 DMOD.             Drill Model:  DRILL MOD DESC
 HPTY.       Minimum Curvature:  HOLE POS TYPE
 NREF.                    Grid:  NORTH REFERENCE
 SPUD.               01-Jan-20:  SPUD DATE
 DATE.      00.59.44 15-Sep-20:  END TIME
 STIM.      12.00.00 12-Jun-20:  START TIME
 DMF .             Drill Floor:  DRILL MEAS FROM
 DFST.                        :  DIST FSL TEXT
 DFWT.                        :  DIST FWL TEXT
 API .                        :  API NUMBER
 CNTY.                        :  COUNTY
 UWI .                        :  UNIQUE WELL IDENTIFIER
 LOC .                        :  LOCATION
 LMF .             Drill Floor:  LOG MEASURED FROM
 VSNS.m                   2.88:  VERT SEC N/S
 VSEW.m                  -3.84:  VERT SEC E/W
 AGAP.m                  43.42:  AIR GAP
 APD .m                  43.42:  DEPTH ABOVE PD
 WDMS.m                 118.27:  WD ELEV
 EGL .m                   0.00:  GROUND ELEVATION
 EPD .m                   0.00:  ELEVATION
 AZTC.deg                 6.23:  AZM TOTAL CORR
 GRDC.deg                 0.20:  GRID CORRECTION
 MDEC.deg                 6.43:  MAGNETIC DECL
 MDIP.deg                59.49:  MAGNETIC DIP
 MFLD.nT              50277.00:  MAGNETIC FIELD
 GVFD.g                   1.00:  GRAVITY FIELD
 VSDR.deg               173.20:  VERT SEC DIRECT
 TDD .m                5790.01:  TOTAL DEPTH (DRILLER)
 SDEP.m                5231.01:  START DEPTH
 DFSL.m                   0.00:  DISTANCE FSL
 DFWL.m                   0.00:  DISTANCE FWL
 UTMY.m             4435808.83:  UTM Y
 UTMX.m              526266.40:  UTM X
 WHEW.m                  -3.84:  WELL HEAD E/W
 WHNS.m                   2.88:  WELL HEAD N/S
 LONG.deg                51.31:  LONGITUDE
 LATI.deg                40.06:  LATITUDE
 TVDS.m                  43.42:  TVDSS CORRECTN
 DEP .m                 430.08:  DEPTH
 EKB .m                  43.42:  KB ELEVATION
 EDF .m                  43.42:  DF ELEVATION
 TDL .m                 559.00:  TOTAL DEPTH (LOGGER)
 MAGU.                 1849381:  MAGUTM CHECKSUM
 VSC .                       0:  VS TO CLOSURE
~Parameter Information Block
#MNEM.UNIT       Value        Description
#---------     -----------    ---------------------------
 AV  .mps                 4.87:  Ann Velocity 
 AVMX.mps                 7.08:  Max Ann Veloc 
 AZIF.deg               108.87:  Azm, Final 
 BHAT.                  Rotary:  BHA Type 
 BROT.°/30m               0.35:  Build Rotating 
 BS  .in                  8.50:  Bit Size 
 BSZ .in                  8.50:  Bit Size 
 BTPL.psig              360.00:  Bit Press Loss 
 CABU.                     Yes:  Customer Abuse 
 TCS .hr                106.24:  Time Ciculation Ended 
 CV  .mps                 1.77:  Crit Velocity 
 CVMX.mps                 2.03:  Max Crit Veloc 
 DD1 .         Aykhan Agagulov:  Direct Drillr 1 
 DD2 .            Nonso Okofor:  Direct Drillr 2 
 DDSV.               Geo-Pilot:  DD Service 
 DEFF.%                  98.00:  % Det Eff 
 DLRX.°/30m               0.50:  Dogleg Rot Max 
 DLSO.°/30m               0.40:  Dogleg Oriented 
 DLSX.°/30m               0.94:  Dogleg Str Max 
 DRET.      20.30.00 08-Sep-20:  Drill End Time 
 DRST.      22.15.00 06-Sep-20:  Drill Start Tim 
 DTIM.hr                 31.31:  Time Drilling 
 EDEP.m                5790.01:  End Depth 
 ENG1.           Amrah Tahirov:  Engineer 1 
 ENG2.         Dair Mahammadov:  Engineer 2 
 ENG3.           Emil Huseynov:  Engineer 3 
 ETIM.      04.01.04 12-Sep-20:  End Time 
 FLOI.gpm               450.00:  Flow In 
 FLON.gpm               450.00:  Flow In Min 
 FLOS.cptm                2.00:  Fluid Loss 
 FLOX.gpm               450.00:  Flow In Max 
 FTRO.       Formation Presure:  FTWD Run Obj 
 HFLO.                      No:  High Flow 
 HPRE.                      No:  High Pressure 
 HTEM.                      No:  High Temp 
 HYDO.m                   1.80:  Hydro Offset 
 IFIN.deg                72.03:  Inc, Final 
 IMAX.deg                73.72:  Inc Max 
 IMIN.deg                70.94:  Inc Min 
 IMND.m                5508.52:  Inc Min Depth 
 IMXD.m                5253.60:  Inc Max Depth 
 JARR.                      No:  Jarring 
 LETM.      20.30.00 08-Sep-20:  Log End Time 
 LOST.hr                     0:  Lost Rig Time 
 LSTM.      22.15.00 06-Sep-20:  Log Start Time 
 MDCL.ppm             36000.00:  Mud Chlorides 
 MDES.     Inversion Oil/Synthetic:  Mud Desc 
 DFD .sg                  1.44:  Mud Density 
 MDMN.sg                  1.44:  Dens Mud Min 
 MDMX.sg                  1.57:  Dens Mud Max 
 MOIL.                      70:  Run Mud Oil % 
 MOWR.                   70:30:  Run Mud OWR 
 MSND.                       0:  Run Mud Sand % 
 MSOL.                      21:  Run Mud Solids% 
 DFV .spqt               68.00:  Mud Viscosity 
 MWOD.in                  6.75:  MWD Tool OD 
 MWSI.                     Yes:  Serv Intrp, MWD 
 OTIM.hr                174.84:  Time Operating 
 PCON.           Look Like New:  Pad Condition 
 PMAX.psia            10616.93:  Press Op, Max 
 PV  .cP                 50.00:  Mud PV 
 RUN .                     700:  Run Number 
 ROPA.m/hr               14.24:  ROP Avg 
 ROPN.m/hr               10.00:  ROP Min 
 ROPX.m/hr               32.00:  ROP Max 
 RPMA.rpm               120.90:  RPM Surface Avg 
 RPMN.rpm               120.00:  RPM Surface Min 
 RPMX.rpm               140.00:  RPM Surface Max 
 RRUN.                    0700:  Rig Run Number 
 RTIM.hr                  3.20:  Time Reaming 
 SAZI.deg               109.99:  Azm, Start 
 SDEP.m                5231.01:  Start Depth 
 SIDD.                      No:  Serv Intrp, DD 
 SINC.deg                73.72:  Inc, Start 
 SPPA.psig             3051.00:  SPP Avg 
 SPPN.psig             2950.00:  SPP Min 
 SPPX.psig             3250.00:  SPP Max 
 STIM.      08.00.00 05-Sep-20:  Start Time 
 SVCS.                 DD, MWD:  Services 
 SVER.                    9.20:  Sperry Version 
 TDAT.m                 559.00:  Tot Depth Attmp 
 TDDF.                      No:  Trip for DD 
 TDLG.m                 559.00:  Tot Depth Loggd 
 TFF .                      No:  Trip for Fail 
 TQAA.f-kp               26.49:  Torque Abs Avg 
 TQAN.f-kp               25.00:  Torque Abs Min 
 TQAX.f-kp               27.00:  Torque Abs Max 
 TRRT.°/30m               1.50:  Turn Rotating 
 MRT .                    HCIM:  Maximum Recorded Temperature 
 TTMX.degC               90.20:  Max Tool Temp 
 VS01.                90542671:  Virtual Str1 SN 
 VS02.                90545185:  Virtual Str2 SN 
 VS03.                90602015:  Virtual Str3 SN 
 VS04.                90515230:  Virtual Str4 SN 
 WBMN.klb                 5.00:  WOB Min 
 WOBA.klb                14.79:  WOB Avg 
 WOBX.klb                20.00:  WOB Max 
 YP  .lhf2               29.00:  Yield Point 
~Curve Information Block
#MNEM.UNIT                 API CODE     Curve Description
#---------               -----------    ---------------------------
 TIME.HHMMSS            00 000 000 000:  GT Time & Date
 GTDEPTH.m              00 000 000 000:  GT Depth
 GTPQH.psia             00 000 000 000:  GT HR Quartz Pressure
 GTTQ.degC              00 000 000 000:  GT Quartz Temperature
 GTTN.NONE              00 000 000 000:  GT Test Number
 GTET.sec               00 000 000 000:  GT Elapsed Test Time
 GTTVD.m                00 000 000 000:  GT True Vertical Depth
#Other Information
#
#WARRANTY: Halliburton will use its best efforts to furnish customers with 
#accurate information and interpretations that are part of, and incident to, the services 
#provided.  However, Halliburton cannot and does not warrant the accuracy 
#or correctness of such information and interpretations.  Under no circumstances should any 
#such information or interpretation be relied upon as the sole basis for any drilling, 
#completion, production, or financial decision or any procedure involving any risk to the 
#safety of any drilling venture, drilling rig or its crew or any other third party.  The 
#Customer has full responsibility for all drilling, completion and production operation.  
#Halliburton makes no representations or warranties, either expressed or 
#implied, including, but not limited to, the implied warranties of merchantability or fitness 
#for a particular purpose, with respect to the services rendered.  In no event will 
#Halliburton be liable for failure to obtain any particular results or for 
#any damages, including, but not limited to, indirect, special or consequential damages, 
#resulting from the use of any information or interpretation provided by Halliburton.
#
~A           TIME           GTDEPTH  GTPQH  GTTQ  GTTN   GTET   GTTVD  
# ...
   18:25:43.841.09-Sep-2020 5281.01 4061.11 74.55 21.00 383.90 2550.59
   18:25:44.041.09-Sep-2020 5281.01 4062.11 74.55 21.00 384.10 2550.59
   18:25:44.241.09-Sep-2020 5281.01 4062.58 74.55 21.00 384.30 2550.59
   18:25:44.440.09-Sep-2020 5281.01 4062.54 74.55 21.00 384.50 2550.59
   18:25:44.640.09-Sep-2020 5281.01 4062.62 74.55 21.00 384.70 2550.59
   18:25:44.840.09-Sep-2020 5281.01 4062.62 74.55 21.00 384.90 2550.59
   18:25:45.040.09-Sep-2020 5281.01 4061.17 74.55 21.00 385.10 2550.59
   18:25:45.240.09-Sep-2020 5281.01 4062.03 74.55 21.00 385.30 2550.59
   18:25:45.440.09-Sep-2020 5281.01 4062.39 74.55 21.00 385.50 2550.59
   18:25:45.640.09-Sep-2020 5281.01 4062.83 74.55 21.00 385.70 2550.59
   18:25:45.839.09-Sep-2020 5281.01 4062.83 74.55 21.00 385.90 2550.59
   18:25:46.039.09-Sep-2020 5281.01 4062.84 74.55 21.00 386.10 2550.59
   18:25:46.239.09-Sep-2020 5281.01 4062.81 74.55 21.00 386.30 2550.59
   18:25:46.439.09-Sep-2020 5281.01 4062.92 74.55 21.00 386.50 2550.59
   18:25:46.639.09-Sep-2020 5281.01 4062.89 74.55 21.00 386.70 2550.59
   18:25:46.839.09-Sep-2020 5281.01 4062.89 74.55 21.00 386.90 2550.59
   18:25:47.038.09-Sep-2020 5281.01 4062.91 74.55 21.00 387.10 2550.59
   18:25:47.238.09-Sep-2020 5281.01 4062.90 74.55 21.00 387.30 2550.59
   18:25:47.438.09-Sep-2020 5281.01 4062.89 74.55 21.00 387.50 2550.59
   18:25:47.638.09-Sep-2020 5281.01 4062.87 74.55 21.00 387.70 2550.59
   18:25:47.838.09-Sep-2020 5281.01 4062.87 74.55 21.00 387.90 2550.59
   18:25:48.038.09-Sep-2020 5281.01 4062.78 74.55 21.00 388.10 2550.59
   18:25:48.237.09-Sep-2020 5281.01 4062.76 74.55 21.00 388.30 2550.59
   18:25:48.437.09-Sep-2020 5281.01 4061.79 74.55 21.00 388.50 2550.59
   18:25:48.637.09-Sep-2020 5281.01 4061.44 74.55 21.00 388.70 2550.59
   18:25:48.837.09-Sep-2020 5281.01 4061.44 74.55 21.00 388.89 2550.59
   18:25:49.037.09-Sep-2020 5281.01 4061.88 74.55 21.00 389.09 2550.59
   18:25:49.237.09-Sep-2020 5281.01 4062.04 74.55 21.00 389.29 2550.59
   18:25:49.437.09-Sep-2020 5281.01 4062.49 74.55 21.00 389.49 2550.59
   18:25:49.636.09-Sep-2020 5281.01 4062.50 74.55 21.00 389.69 2550.59
   18:25:49.836.09-Sep-2020 5281.01 4062.50 74.55 21.00 389.89 2550.59
   18:25:50.036.09-Sep-2020 5281.01 4062.75 74.55 21.00 390.09 2550.59
   18:25:50.236.09-Sep-2020 5281.01 4062.80 74.55 21.00 390.29 2550.59
   18:25:50.436.09-Sep-2020 5281.01 4062.79 74.55 21.00 390.49 2550.59
   18:25:50.636.09-Sep-2020 5281.01 4062.84 74.55 21.00 390.69 2550.59
   18:25:50.835.09-Sep-2020 5281.01 4062.84 74.55 21.00 390.89 2550.59
   18:25:51.035.09-Sep-2020 5281.01 4062.79 74.55 21.00 391.09 2550.59
   18:25:51.235.09-Sep-2020 5281.01 4062.84 74.55 21.00 391.29 2550.59
   18:25:51.435.09-Sep-2020 5281.01 4062.83 74.55 21.00 391.49 2550.59
   18:25:51.635.09-Sep-2020 5281.01 4062.82 74.55 21.00 391.69 2550.59
   18:25:51.835.09-Sep-2020 5281.01 4062.82 74.55 21.00 391.89 2550.59
   18:25:52.034.09-Sep-2020 5281.01 4061.84 74.55 21.00 392.09 2550.59
   18:25:52.234.09-Sep-2020 5281.01 4061.55 74.55 21.00 392.29 2550.59
   18:25:52.434.09-Sep-2020 5281.01 4062.12 74.55 21.00 392.49 2550.59
   18:25:52.634.09-Sep-2020 5281.01 4062.27 74.55 21.00 392.69 2550.59
   18:25:52.834.09-Sep-2020 5281.01 4062.27 74.55 21.00 392.89 2550.59
   18:25:53.034.09-Sep-2020 5281.01 4061.48 74.55 21.00 393.09 2550.59
   18:25:53.234.09-Sep-2020 5281.01 4061.33 74.55 21.00 393.29 2550.59
   18:25:53.433.09-Sep-2020 5281.01 4062.20 74.55 21.00 393.49 2550.59
   18:25:53.633.09-Sep-2020 5281.01 4062.48 74.55 21.00 393.69 2550.59
   18:25:53.833.09-Sep-2020 5281.01 4062.48 74.55 21.00 393.89 2550.59
   18:25:54.033.09-Sep-2020 5281.01 4063.16 74.55 21.00 394.09 2550.59
   18:25:54.233.09-Sep-2020 5281.01 4062.36 74.55 21.00 394.29 2550.59
   18:25:54.433.09-Sep-2020 5281.01 4062.08 74.55 21.00 394.49 2550.59
   18:25:54.632.09-Sep-2020 5281.01 4062.21 74.55 21.00 394.69 2550.59
   18:25:54.832.09-Sep-2020 5281.01 4062.21 74.55 21.00 394.89 2550.59
   18:25:55.032.09-Sep-2020 5281.01 4063.10 74.55 21.00 395.09 2550.59
   18:25:55.232.09-Sep-2020 5281.01 4063.53 74.54 21.00 395.29 2550.59
   18:25:55.432.09-Sep-2020 5281.01 4063.52 74.54 21.00 395.49 2550.59
   18:25:55.632.09-Sep-2020 5281.01 4063.63 74.54 21.00 395.69 2550.59
   18:25:55.832.09-Sep-2020 5281.01 4063.63 74.54 21.00 395.89 2550.59
   18:25:56.031.09-Sep-2020 5281.01 4062.74 74.54 21.00 396.09 2550.59
   18:25:56.231.09-Sep-2020 5281.01 4062.69 74.54 21.00 396.29 2550.59
   18:25:56.431.09-Sep-2020 5281.01 4063.27 74.54 21.00 396.49 2550.59
   18:25:56.631.09-Sep-2020 5281.01 4063.35 74.54 21.00 396.69 2550.59
   18:25:56.831.09-Sep-2020 5281.01 4063.35 74.54 21.00 396.89 2550.59
   18:25:57.031.09-Sep-2020 5281.01 4062.89 74.54 21.00 397.09 2550.59
   18:25:57.230.09-Sep-2020 5281.01 4062.74 74.54 21.00 397.29 2550.59
   18:25:57.430.09-Sep-2020 5281.01 4062.84 74.54 21.00 397.49 2550.59
   18:25:57.630.09-Sep-2020 5281.01 4063.51 74.54 21.00 397.69 2550.59
   18:25:57.830.09-Sep-2020 5281.01 4063.51 74.54 21.00 397.89 2550.59
   18:25:58.030.09-Sep-2020 5281.01 4064.24 74.54 21.00 398.09 2550.59
   18:25:58.230.09-Sep-2020 5281.01 4064.18 74.54 21.00 398.29 2550.59
   18:25:58.429.09-Sep-2020 5281.01 4064.20 74.54 21.00 398.49 2550.59
   18:25:58.629.09-Sep-2020 5281.01 4064.20 74.54 21.00 398.69 2550.59
   18:25:58.829.09-Sep-2020 5281.01 4064.20 74.54 21.00 398.89 2550.59
   18:25:59.029.09-Sep-2020 5281.01 4064.22 74.54 21.00 399.09 2550.59
   18:25:59.229.09-Sep-2020 5281.01 4064.23 74.54 21.00 399.29 2550.59
   18:25:59.429.09-Sep-2020 5281.01 4064.19 74.54 21.00 399.49 2550.59
   18:25:59.629.09-Sep-2020 5281.01 4064.11 74.54 21.00 399.69 2550.59
   18:25:59.828.09-Sep-2020 5281.01 4064.11 74.54 21.00 399.89 2550.59
   18:26:00.028.09-Sep-2020 5281.01 4064.10 74.54 21.00 400.09 2550.59
   18:26:00.228.09-Sep-2020 5281.01 4064.06 74.54 21.00 400.29 2550.59
   18:26:00.428.09-Sep-2020 5281.01 4064.03 74.54 21.00 400.49 2550.59
   18:26:00.628.09-Sep-2020 5281.01 4064.00 74.54 21.00 400.69 2550.59
   18:26:00.828.09-Sep-2020 5281.01 4064.00 74.54 21.00 400.89 2550.59
   18:26:01.027.09-Sep-2020 5281.01 4062.84 74.54 21.00 401.09 2550.59
   18:26:01.227.09-Sep-2020 5281.01 4062.61 74.54 21.00 401.29 2550.59
   18:26:01.427.09-Sep-2020 5281.01 4063.14 74.54 21.00 401.49 2550.59
   18:26:01.627.09-Sep-2020 5281.01 4063.29 74.54 21.00 401.68 2550.59
   18:26:01.827.09-Sep-2020 5281.01 4063.29 74.54 21.00 401.88 2550.59
   18:26:02.027.09-Sep-2020 5281.01 4063.76 74.54 21.00 402.08 2550.59
   18:26:02.227.09-Sep-2020 5281.01 4063.80 74.54 21.00 402.28 2550.59
   18:26:02.426.09-Sep-2020 5281.01 4063.90 74.54 21.00 402.48 2550.59
   18:26:02.626.09-Sep-2020 5281.01 4063.91 74.54 21.00 402.68 2550.59
   18:26:02.826.09-Sep-2020 5281.01 4063.91 74.54 21.00 402.88 2550.59
   18:26:03.026.09-Sep-2020 5281.01 4063.87 74.54 21.00 403.08 2550.59
   18:26:03.226.09-Sep-2020 5281.01 4063.89 74.54 21.00 403.28 2550.59
   18:26:03.426.09-Sep-2020 5281.01 4063.89 74.54 21.00 403.48 2550.59
   18:26:03.625.09-Sep-2020 5281.01 4063.90 74.54 21.00 403.68 2550.59
   18:26:03.825.09-Sep-2020 5281.01 4063.90 74.54 21.00 403.88 2550.59
   18:26:04.025.09-Sep-2020 5281.01 4063.87 74.54 21.00 404.08 2550.59
   18:26:04.225.09-Sep-2020 5281.01 4062.47 74.54 21.00 404.28 2550.59
   18:26:04.425.09-Sep-2020 5281.01 4062.01 74.54 21.00 404.48 2550.59
   18:26:04.625.09-Sep-2020 5281.01 4062.75 74.54 21.00 404.68 2550.59
   18:26:04.824.09-Sep-2020 5281.01 4062.75 74.54 21.00 404.88 2550.59
   18:26:05.024.09-Sep-2020 5281.01 4063.53 74.54 21.00 405.08 2550.59
   18:26:05.224.09-Sep-2020 5281.01 4063.82 74.54 21.00 405.28 2550.59
   18:26:05.424.09-Sep-2020 5281.01 4062.28 74.54 21.00 405.48 2550.59
   18:26:05.624.09-Sep-2020 5281.01 4062.50 74.54 21.00 405.68 2550.59
   18:26:05.824.09-Sep-2020 5281.01 4062.50 74.54 21.00 405.88 2550.59
   18:26:06.024.09-Sep-2020 5281.01 4063.53 74.54 21.00 406.08 2550.59
   18:26:06.223.09-Sep-2020 5281.01 4064.05 74.54 21.00 406.28 2550.59
