~Version Information
 VERS.                  2.0:   CWLS log ASCII Standard -VERSION 2.0
 WRAP.                   NO:   One line per depth step
~Well Information Block
#MNEM.UNIT     VALUE/NAME     DESCRIPTION
#---------     -----------    ---------------------------
 STRT.S             05:36:14 09-Sep-20: START TIME 05:36:14 09-Sep-20
 STOP.S             05:43:10 09-Sep-20: STOP TIME  05:43:10 09-Sep-20
 STEP.S                   0.00: STEP TIME
 NULL.                 -999.25: NULL VALUE
 MDS .        Operator Entered:  MAG DATA SOURCE
 PDAT.          Mean Sea Level:  PERMANENT DATUM
 DCON.         Sperry Drilling:  DIRECTNL CONTR
 RIG .              West Azeri:  RIG NAME
 WELL.           C40 (Slot 20):  WELL NAME
 SRVC.     Turan Drilling Engineering:  CONTRACTOR
 FLD .                     ACG:  FIELD NAME
 CTRY.              Azerbaijan:  COUNTRY NAME
 PROV.                    Baku:  PROVINCE
 STAT.                    Baku:  STATE NAME
 REGN.                   EESSA:  REGION
 BASE.              Azerbaijan:  LOGGING EQUIPMENT BASE LOCATION
 COMP.     BP Exploration (Caspian Sea) Ltd:  COMPANY
 WTYP.                Deviated:  WELL TYPE
 SON .        AZ-XX-0906344804:  JOB NUMBER
 FTOP.          Formation Tops:  FORM TOPS DESC
 ILTD.               Lithology:  INTERP LTH DESC
 SVYD.                  Survey:  SURVEY DESC
 DMOD.             Drill Model:  DRILL MOD DESC
 HPTY.       Minimum Curvature:  HOLE POS TYPE
 NREF.                    Grid:  NORTH REFERENCE
 SPUD.               01-Jan-20:  SPUD DATE
 DATE.      00.59.44 15-Sep-20:  END TIME
 STIM.      12.00.00 12-Jun-20:  START TIME
 DMF .             Drill Floor:  DRILL MEAS FROM
 DFST.                        :  DIST FSL TEXT
 DFWT.                        :  DIST FWL TEXT
 API .                        :  API NUMBER
 CNTY.                        :  COUNTY
 UWI .                        :  UNIQUE WELL IDENTIFIER
 LOC .                        :  LOCATION
 LMF .             Drill Floor:  LOG MEASURED FROM
 VSNS.m                   2.88:  VERT SEC N/S
 VSEW.m                  -3.84:  VERT SEC E/W
 AGAP.m                  43.42:  AIR GAP
 APD .m                  43.42:  DEPTH ABOVE PD
 WDMS.m                 118.27:  WD ELEV
 EGL .m                   0.00:  GROUND ELEVATION
 EPD .m                   0.00:  ELEVATION
 AZTC.deg                 6.23:  AZM TOTAL CORR
 GRDC.deg                 0.20:  GRID CORRECTION
 MDEC.deg                 6.43:  MAGNETIC DECL
 MDIP.deg                59.49:  MAGNETIC DIP
 MFLD.nT              50277.00:  MAGNETIC FIELD
 GVFD.g                   1.00:  GRAVITY FIELD
 VSDR.deg               173.20:  VERT SEC DIRECT
 TDD .m                5790.01:  TOTAL DEPTH (DRILLER)
 SDEP.m                5231.01:  START DEPTH
 DFSL.m                   0.00:  DISTANCE FSL
 DFWL.m                   0.00:  DISTANCE FWL
 UTMY.m             4435808.83:  UTM Y
 UTMX.m              526266.40:  UTM X
 WHEW.m                  -3.84:  WELL HEAD E/W
 WHNS.m                   2.88:  WELL HEAD N/S
 LONG.deg                51.31:  LONGITUDE
 LATI.deg                40.06:  LATITUDE
 TVDS.m                  43.42:  TVDSS CORRECTN
 DEP .m                 430.08:  DEPTH
 EKB .m                  43.42:  KB ELEVATION
 EDF .m                  43.42:  DF ELEVATION
 TDL .m                 559.00:  TOTAL DEPTH (LOGGER)
 MAGU.                 1849381:  MAGUTM CHECKSUM
 VSC .                       0:  VS TO CLOSURE
~Parameter Information Block
#MNEM.UNIT       Value        Description
#---------     -----------    ---------------------------
 AV  .mps                 4.87:  Ann Velocity 
 AVMX.mps                 7.08:  Max Ann Veloc 
 AZIF.deg               108.87:  Azm, Final 
 BHAT.                  Rotary:  BHA Type 
 BROT.°/30m               0.35:  Build Rotating 
 BS  .in                  8.50:  Bit Size 
 BSZ .in                  8.50:  Bit Size 
 BTPL.psig              360.00:  Bit Press Loss 
 CABU.                     Yes:  Customer Abuse 
 COMM.                     ”£|:  Run Comments 1 
 TCS .hr                106.24:  Time Ciculation Ended 
 CV  .mps                 1.77:  Crit Velocity 
 CVMX.mps                 2.03:  Max Crit Veloc 
 DD1 .         Aykhan Agagulov:  Direct Drillr 1 
 DD2 .            Nonso Okofor:  Direct Drillr 2 
 DDSV.               Geo-Pilot:  DD Service 
 DEFF.%                  98.00:  % Det Eff 
 DLRX.°/30m               0.50:  Dogleg Rot Max 
 DLSO.°/30m               0.40:  Dogleg Oriented 
 DLSX.°/30m               0.94:  Dogleg Str Max 
 DRET.      20.30.00 08-Sep-20:  Drill End Time 
 DRST.      22.15.00 06-Sep-20:  Drill Start Tim 
 DTIM.hr                 31.31:  Time Drilling 
 EDEP.m                5790.01:  End Depth 
 ENG1.           Amrah Tahirov:  Engineer 1 
 ENG2.         Dair Mahammadov:  Engineer 2 
 ENG3.           Emil Huseynov:  Engineer 3 
 ETIM.      04.01.04 12-Sep-20:  End Time 
 FLOI.gpm               450.00:  Flow In 
 FLON.gpm               450.00:  Flow In Min 
 FLOS.cptm                2.00:  Fluid Loss 
 FLOX.gpm               450.00:  Flow In Max 
 FTRO.       Formation Presure:  FTWD Run Obj 
 HFLO.                      No:  High Flow 
 HPRE.                      No:  High Pressure 
 HTEM.                      No:  High Temp 
 HYDO.m                   1.80:  Hydro Offset 
 IFIN.deg                72.03:  Inc, Final 
 IMAX.deg                73.72:  Inc Max 
 IMIN.deg                70.94:  Inc Min 
 IMND.m                5508.52:  Inc Min Depth 
 IMXD.m                5253.60:  Inc Max Depth 
 JARR.                      No:  Jarring 
 LETM.      20.30.00 08-Sep-20:  Log End Time 
 LOST.hr                     0:  Lost Rig Time 
 LSTM.      22.15.00 06-Sep-20:  Log Start Time 
 MDCL.ppm             36000.00:  Mud Chlorides 
 MDES.     Inversion Oil/Synthetic:  Mud Desc 
 DFD .sg                  1.44:  Mud Density 
 MDMN.sg                  1.44:  Dens Mud Min 
 MDMX.sg                  1.57:  Dens Mud Max 
 MOIL.                      70:  Run Mud Oil % 
 MOWR.                   70:30:  Run Mud OWR 
 MSND.                       0:  Run Mud Sand % 
 MSOL.                      21:  Run Mud Solids% 
 DFV .spqt               68.00:  Mud Viscosity 
 MWOD.in                  6.75:  MWD Tool OD 
 MWSI.                     Yes:  Serv Intrp, MWD 
 OTIM.hr                174.84:  Time Operating 
 PCON.           Look Like New:  Pad Condition 
 PMAX.psia            10616.93:  Press Op, Max 
 PV  .cP                 50.00:  Mud PV 
 RUN .                     700:  Run Number 
 ROPA.m/hr               14.24:  ROP Avg 
 ROPN.m/hr               10.00:  ROP Min 
 ROPX.m/hr               32.00:  ROP Max 
 RPMA.rpm               120.90:  RPM Surface Avg 
 RPMN.rpm               120.00:  RPM Surface Min 
 RPMX.rpm               140.00:  RPM Surface Max 
 RRUN.                    0700:  Rig Run Number 
 RTIM.hr                  3.20:  Time Reaming 
 SAZI.deg               109.99:  Azm, Start 
 SDEP.m                5231.01:  Start Depth 
 SIDD.                      No:  Serv Intrp, DD 
 SINC.deg                73.72:  Inc, Start 
 SPPA.psig             3051.00:  SPP Avg 
 SPPN.psig             2950.00:  SPP Min 
 SPPX.psig             3250.00:  SPP Max 
 STIM.      08.00.00 05-Sep-20:  Start Time 
 SVCS.                 DD, MWD:  Services 
 SVER.                    9.20:  Sperry Version 
 TDAT.m                 559.00:  Tot Depth Attmp 
 TDDF.                      No:  Trip for DD 
 TDLG.m                 559.00:  Tot Depth Loggd 
 TFF .                      No:  Trip for Fail 
 TQAA.f-kp               26.49:  Torque Abs Avg 
 TQAN.f-kp               25.00:  Torque Abs Min 
 TQAX.f-kp               27.00:  Torque Abs Max 
 TRRT.°/30m               1.50:  Turn Rotating 
 MRT .                    HCIM:  Maximum Recorded Temperature 
 TTMX.degC               90.20:  Max Tool Temp 
 VS01.                90542671:  Virtual Str1 SN 
 VS02.                90545185:  Virtual Str2 SN 
 VS03.                90602015:  Virtual Str3 SN 
 VS04.                90515230:  Virtual Str4 SN 
 WBMN.klb                 5.00:  WOB Min 
 WOBA.klb                14.79:  WOB Avg 
 WOBX.klb                20.00:  WOB Max 
 YP  .lhf2               29.00:  Yield Point 
~Curve Information Block
#MNEM.UNIT                 API CODE     Curve Description
#---------               -----------    ---------------------------
 TIME.HHMMSS            00 000 000 000:  GT Time & Date
 GTDEPTH.m              00 000 000 000:  GT Depth
 GTPQH.psia             00 000 000 000:  GT HR Quartz Pressure
 GTTQ.degC              00 000 000 000:  GT Quartz Temperature
 GTTN.NONE              00 000 000 000:  GT Test Number
 GTET.sec               00 000 000 000:  GT Elapsed Test Time
 GTTVD.m                00 000 000 000:  GT True Vertical Depth
#Other Information
#
#WARRANTY: Halliburton will use its best efforts to furnish customers with 
#accurate information and interpretations that are part of, and incident to, the services 
#provided.  However, Halliburton cannot and does not warrant the accuracy 
#or correctness of such information and interpretations.  Under no circumstances should any 
#such information or interpretation be relied upon as the sole basis for any drilling, 
#completion, production, or financial decision or any procedure involving any risk to the 
#safety of any drilling venture, drilling rig or its crew or any other third party.  The 
#Customer has full responsibility for all drilling, completion and production operation.  
#Halliburton makes no representations or warranties, either expressed or 
#implied, including, but not limited to, the implied warranties of merchantability or fitness 
#for a particular purpose, with respect to the services rendered.  In no event will 
#Halliburton be liable for failure to obtain any particular results or for 
#any damages, including, but not limited to, indirect, special or consequential damages, 
#resulting from the use of any information or interpretation provided by Halliburton.
#
~A           TIME           GTDEPTH  GTPQH  GTTQ  GTTN  GTET   GTTVD  
# ...
   05:41:59.068.09-Sep-2020 5634.01 3689.62 79.90 1.00 344.99 2660.75
   05:41:59.268.09-Sep-2020 5634.01 3689.62 79.90 1.00 345.19 2660.75
   05:41:59.468.09-Sep-2020 5634.01 3689.52 79.90 1.00 345.39 2660.75
   05:41:59.668.09-Sep-2020 5634.01 3689.68 79.90 1.00 345.59 2660.75
   05:41:59.868.09-Sep-2020 5634.01 3689.62 79.90 1.00 345.79 2660.75
   05:42:00.068.09-Sep-2020 5634.01 3689.57 79.90 1.00 345.99 2660.75
   05:42:00.268.09-Sep-2020 5634.01 3689.57 79.90 1.00 346.19 2660.75
   05:42:00.468.09-Sep-2020 5634.01 3689.63 79.90 1.00 346.39 2660.75
   05:42:00.668.09-Sep-2020 5634.01 3689.64 79.90 1.00 346.59 2660.75
   05:42:00.868.09-Sep-2020 5634.01 3689.55 79.90 1.00 346.79 2660.75
   05:42:01.068.09-Sep-2020 5634.01 3689.59 79.90 1.00 346.99 2660.75
   05:42:01.268.09-Sep-2020 5634.01 3689.59 79.90 1.00 347.19 2660.75
   05:42:01.468.09-Sep-2020 5634.01 3689.65 79.90 1.00 347.39 2660.75
   05:42:01.668.09-Sep-2020 5634.01 3689.57 79.90 1.00 347.59 2660.75
   05:42:01.868.09-Sep-2020 5634.01 3689.77 79.90 1.00 347.79 2660.75
   05:42:02.068.09-Sep-2020 5634.01 3689.42 79.90 1.00 347.99 2660.75
   05:42:02.268.09-Sep-2020 5634.01 3689.42 79.90 1.00 348.19 2660.75
   05:42:02.468.09-Sep-2020 5634.01 3689.58 79.90 1.00 348.39 2660.75
   05:42:02.668.09-Sep-2020 5634.01 3689.62 79.90 1.00 348.59 2660.75
   05:42:02.868.09-Sep-2020 5634.01 3689.60 79.90 1.00 348.79 2660.75
   05:42:03.068.09-Sep-2020 5634.01 3689.67 79.90 1.00 348.99 2660.75
   05:42:03.268.09-Sep-2020 5634.01 3689.67 79.90 1.00 349.19 2660.75
   05:42:03.468.09-Sep-2020 5634.01 3689.62 79.90 1.00 349.39 2660.75
   05:42:03.668.09-Sep-2020 5634.01 3689.59 79.90 1.00 349.59 2660.75
   05:42:03.868.09-Sep-2020 5634.01 3689.64 79.90 1.00 349.79 2660.75
   05:42:04.068.09-Sep-2020 5634.01 3689.57 79.90 1.00 349.99 2660.75
   05:42:04.268.09-Sep-2020 5634.01 3689.57 79.90 1.00 350.19 2660.75
   05:42:04.468.09-Sep-2020 5634.01 3689.60 79.90 1.00 350.39 2660.75
   05:42:04.668.09-Sep-2020 5634.01 3689.60 79.90 1.00 350.59 2660.75
   05:42:04.868.09-Sep-2020 5634.01 3689.60 79.90 1.00 350.79 2660.75
   05:42:05.068.09-Sep-2020 5634.01 3689.60 79.90 1.00 350.99 2660.75
   05:42:05.268.09-Sep-2020 5634.01 3689.60 79.90 1.00 351.19 2660.75
   05:42:05.468.09-Sep-2020 5634.01 3689.60 79.90 1.00 351.39 2660.75
   05:42:05.668.09-Sep-2020 5634.01 3689.60 79.90 1.00 351.59 2660.75
   05:42:05.868.09-Sep-2020 5634.01 3689.59 79.90 1.00 351.79 2660.75
   05:42:06.068.09-Sep-2020 5634.01 3689.60 79.90 1.00 351.99 2660.75
   05:42:06.268.09-Sep-2020 5634.01 3689.60 79.90 1.00 352.19 2660.75
   05:42:06.468.09-Sep-2020 5634.01 3689.61 79.90 1.00 352.39 2660.75
   05:42:06.668.09-Sep-2020 5634.01 3689.45 79.90 1.00 352.59 2660.75
   05:42:06.868.09-Sep-2020 5634.01 3689.70 79.90 1.00 352.79 2660.75
   05:42:07.068.09-Sep-2020 5634.01 3689.66 79.90 1.00 352.99 2660.75
   05:42:07.268.09-Sep-2020 5634.01 3689.66 79.90 1.00 353.19 2660.75
   05:42:07.468.09-Sep-2020 5634.01 3689.61 79.90 1.00 353.39 2660.75
   05:42:07.668.09-Sep-2020 5634.01 3689.58 79.90 1.00 353.59 2660.75
   05:42:07.868.09-Sep-2020 5634.01 3689.59 79.90 1.00 353.79 2660.75
   05:42:08.068.09-Sep-2020 5634.01 3689.61 79.90 1.00 353.98 2660.75
   05:42:08.268.09-Sep-2020 5634.01 3689.61 79.90 1.00 354.18 2660.75
   05:42:08.468.09-Sep-2020 5634.01 3689.58 79.90 1.00 354.38 2660.75
   05:42:08.668.09-Sep-2020 5634.01 3689.60 79.90 1.00 354.58 2660.75
   05:42:08.868.09-Sep-2020 5634.01 3689.58 79.90 1.00 354.78 2660.75
   05:42:09.068.09-Sep-2020 5634.01 3689.59 79.90 1.00 354.98 2660.75
   05:42:09.268.09-Sep-2020 5634.01 3689.59 79.90 1.00 355.18 2660.75
   05:42:09.468.09-Sep-2020 5634.01 3689.60 79.90 1.00 355.38 2660.75
   05:42:09.668.09-Sep-2020 5634.01 3689.60 79.90 1.00 355.58 2660.75
   05:42:09.868.09-Sep-2020 5634.01 3689.60 79.90 1.00 355.78 2660.75
   05:42:10.068.09-Sep-2020 5634.01 3689.78 79.90 1.00 355.98 2660.75
   05:42:10.268.09-Sep-2020 5634.01 3689.78 79.90 1.00 356.18 2660.75
   05:42:10.468.09-Sep-2020 5634.01 3689.62 79.90 1.00 356.38 2660.75
   05:42:10.668.09-Sep-2020 5634.01 3689.58 79.90 1.00 356.58 2660.75
   05:42:10.868.09-Sep-2020 5634.01 3689.62 79.90 1.00 356.78 2660.75
   05:42:11.068.09-Sep-2020 5634.01 3689.59 79.90 1.00 356.98 2660.75
   05:42:11.268.09-Sep-2020 5634.01 3689.59 79.90 1.00 357.18 2660.75
   05:42:11.468.09-Sep-2020 5634.01 3689.51 79.90 1.00 357.38 2660.75
   05:42:11.668.09-Sep-2020 5634.01 3689.61 79.90 1.00 357.58 2660.75
   05:42:11.868.09-Sep-2020 5634.01 3689.59 79.90 1.00 357.78 2660.75
   05:42:12.068.09-Sep-2020 5634.01 3689.63 79.90 1.00 357.98 2660.75
   05:42:12.268.09-Sep-2020 5634.01 3689.63 79.90 1.00 358.18 2660.75
   05:42:12.468.09-Sep-2020 5634.01 3689.71 79.90 1.00 358.38 2660.75
   05:42:12.668.09-Sep-2020 5634.01 3689.61 79.90 1.00 358.58 2660.75
   05:42:12.868.09-Sep-2020 5634.01 3689.57 79.90 1.00 358.78 2660.75
   05:42:13.068.09-Sep-2020 5634.01 3689.56 79.90 1.00 358.98 2660.75
   05:42:13.268.09-Sep-2020 5634.01 3689.56 79.90 1.00 359.18 2660.75
   05:42:13.468.09-Sep-2020 5634.01 3689.45 79.90 1.00 359.38 2660.75
   05:42:13.668.09-Sep-2020 5634.01 3689.71 79.90 1.00 359.58 2660.75
   05:42:13.868.09-Sep-2020 5634.01 3689.65 79.90 1.00 359.78 2660.75
   05:42:14.068.09-Sep-2020 5634.01 3689.55 79.90 1.00 359.98 2660.75
   05:42:14.268.09-Sep-2020 5634.01 3689.63 79.90 1.00 360.18 2660.75
   05:42:14.468.09-Sep-2020 5634.01 3689.58 79.90 1.00 360.38 2660.75
   05:42:14.668.09-Sep-2020 5634.01 3689.11 79.90 1.00 360.58 2660.75
   05:42:14.868.09-Sep-2020 5634.01 3689.79 79.90 1.00 360.78 2660.75
   05:42:15.068.09-Sep-2020 5634.01 3717.92 79.90 1.00 360.98 2660.75
   05:42:15.268.09-Sep-2020 5634.01 3717.92 79.90 1.00 361.18 2660.75
   05:42:15.468.09-Sep-2020 5634.01 6536.62 79.90 1.00 361.38 2660.75
   05:42:15.668.09-Sep-2020 5634.01 6536.18 79.90 1.00 361.58 2660.75
   05:42:15.868.09-Sep-2020 5634.01 6534.93 79.90 1.00 361.78 2660.75
   05:42:16.068.09-Sep-2020 5634.01 6536.98 79.90 1.00 361.98 2660.75
   05:42:16.268.09-Sep-2020 5634.01 6536.98 79.90 1.00 362.18 2660.75
   05:42:16.468.09-Sep-2020 5634.01 6536.76 79.90 1.00 362.38 2660.75
   05:42:16.668.09-Sep-2020 5634.01 6537.07 79.90 1.00 362.58 2660.75
   05:42:16.868.09-Sep-2020 5634.01 6537.62 79.90 1.00 362.78 2660.75
   05:42:17.068.09-Sep-2020 5634.01 6539.24 79.91 1.00 362.98 2660.75
   05:42:17.268.09-Sep-2020 5634.01 6539.68 79.91 1.00 363.18 2660.75
   05:42:17.468.09-Sep-2020 5634.01 6540.09 79.91 1.00 363.38 2660.75
   05:42:17.668.09-Sep-2020 5634.01 6540.00 79.91 1.00 363.58 2660.75
   05:42:17.868.09-Sep-2020 5634.01 6540.35 79.91 1.00 363.78 2660.75
   05:42:18.068.09-Sep-2020 5634.01 6541.18 79.92 1.00 363.98 2660.75
   05:42:18.268.09-Sep-2020 5634.01 6541.18 79.92 1.00 364.18 2660.75
   05:42:18.468.09-Sep-2020 5634.01 6551.55 79.92 1.00 364.38 2660.75
   05:42:18.668.09-Sep-2020 5634.01 6539.01 79.92 1.00 364.58 2660.75
   05:42:18.868.09-Sep-2020 5634.01 6545.79 79.93 1.00 364.78 2660.75
   05:42:19.068.09-Sep-2020 5634.01 6543.15 79.93 1.00 364.98 2660.75
   05:42:19.268.09-Sep-2020 5634.01 6543.15 79.93 1.00 365.18 2660.75
   05:42:19.467.09-Sep-2020 5634.01 6543.94 79.93 1.00 365.38 2660.75
   05:42:19.667.09-Sep-2020 5634.01 6542.43 79.94 1.00 365.58 2660.75
   05:42:19.867.09-Sep-2020 5634.01 6543.68 79.94 1.00 365.78 2660.75
   05:42:20.067.09-Sep-2020 5634.01 6542.92 79.94 1.00 365.98 2660.75
   05:42:20.267.09-Sep-2020 5634.01 6542.92 79.94 1.00 366.18 2660.75
   05:42:20.467.09-Sep-2020 5634.01 6543.14 79.95 1.00 366.38 2660.75
   05:42:20.667.09-Sep-2020 5634.01 6542.35 79.95 1.00 366.58 2660.75
   05:42:20.867.09-Sep-2020 5634.01 6542.27 79.95 1.00 366.78 2660.75
   05:42:21.067.09-Sep-2020 5634.01 6542.06 79.95 1.00 366.98 2660.75
   05:42:21.267.09-Sep-2020 5634.01 6542.06 79.95 1.00 367.18 2660.75
   05:42:21.467.09-Sep-2020 5634.01 6543.36 79.96 1.00 367.38 2660.75
   05:42:21.667.09-Sep-2020 5634.01 6546.43 79.96 1.00 367.58 2660.75
   05:42:21.867.09-Sep-2020 5634.01 6546.37 79.96 1.00 367.78 2660.75
