~Version Information
 VERS.                  2.0:   CWLS log ASCII Standard -VERSION 2.0
 WRAP.                   NO:   One line per depth step
~Well Information Block
#MNEM.UNIT     VALUE/NAME     DESCRIPTION
#---------     -----------    ---------------------------
 STRT.S             20:00:32 09-Sep-20: START TIME 20:00:32 09-Sep-20
 STOP.S             20:08:52 09-Sep-20: STOP TIME  20:08:52 09-Sep-20
 STEP.S                   0.00: STEP TIME
 NULL.                 -999.25: NULL VALUE
 MDS .        Operator Entered:  MAG DATA SOURCE
 PDAT.          Mean Sea Level:  PERMANENT DATUM
 DCON.         Sperry Drilling:  DIRECTNL CONTR
 RIG .              West Azeri:  RIG NAME
 WELL.           C40 (Slot 20):  WELL NAME
 SRVC.     Turan Drilling Engineering:  CONTRACTOR
 FLD .                     ACG:  FIELD NAME
 CTRY.              Azerbaijan:  COUNTRY NAME
 PROV.                    Baku:  PROVINCE
 STAT.                    Baku:  STATE NAME
 REGN.                   EESSA:  REGION
 BASE.              Azerbaijan:  LOGGING EQUIPMENT BASE LOCATION
 COMP.     BP Exploration (Caspian Sea) Ltd:  COMPANY
 WTYP.                Deviated:  WELL TYPE
 SON .        AZ-XX-0906344804:  JOB NUMBER
 FTOP.          Formation Tops:  FORM TOPS DESC
 ILTD.               Lithology:  INTERP LTH DESC
 SVYD.                  Survey:  SURVEY DESC
 DMOD.             Drill Model:  DRILL MOD DESC
 HPTY.       Minimum Curvature:  HOLE POS TYPE
 NREF.                    Grid:  NORTH REFERENCE
 SPUD.               01-Jan-20:  SPUD DATE
 DATE.      00.59.44 15-Sep-20:  END TIME
 STIM.      12.00.00 12-Jun-20:  START TIME
 DMF .             Drill Floor:  DRILL MEAS FROM
 DFST.                        :  DIST FSL TEXT
 DFWT.                        :  DIST FWL TEXT
 API .                        :  API NUMBER
 CNTY.                        :  COUNTY
 UWI .                        :  UNIQUE WELL IDENTIFIER
 LOC .                        :  LOCATION
 LMF .             Drill Floor:  LOG MEASURED FROM
 VSNS.m                   2.88:  VERT SEC N/S
 VSEW.m                  -3.84:  VERT SEC E/W
 AGAP.m                  43.42:  AIR GAP
 APD .m                  43.42:  DEPTH ABOVE PD
 WDMS.m                 118.27:  WD ELEV
 EGL .m                   0.00:  GROUND ELEVATION
 EPD .m                   0.00:  ELEVATION
 AZTC.deg                 6.23:  AZM TOTAL CORR
 GRDC.deg                 0.20:  GRID CORRECTION
 MDEC.deg                 6.43:  MAGNETIC DECL
 MDIP.deg                59.49:  MAGNETIC DIP
 MFLD.nT              50277.00:  MAGNETIC FIELD
 GVFD.g                   1.00:  GRAVITY FIELD
 VSDR.deg               173.20:  VERT SEC DIRECT
 TDD .m                5790.01:  TOTAL DEPTH (DRILLER)
 SDEP.m                5231.01:  START DEPTH
 DFSL.m                   0.00:  DISTANCE FSL
 DFWL.m                   0.00:  DISTANCE FWL
 UTMY.m             4435808.83:  UTM Y
 UTMX.m              526266.40:  UTM X
 WHEW.m                  -3.84:  WELL HEAD E/W
 WHNS.m                   2.88:  WELL HEAD N/S
 LONG.deg                51.31:  LONGITUDE
 LATI.deg                40.06:  LATITUDE
 TVDS.m                  43.42:  TVDSS CORRECTN
 DEP .m                 430.08:  DEPTH
 EKB .m                  43.42:  KB ELEVATION
 EDF .m                  43.42:  DF ELEVATION
 TDL .m                 559.00:  TOTAL DEPTH (LOGGER)
 MAGU.                 1849381:  MAGUTM CHECKSUM
 VSC .                       0:  VS TO CLOSURE
~Parameter Information Block
#MNEM.UNIT       Value        Description
#---------     -----------    ---------------------------
 AV  .mps                 4.87:  Ann Velocity 
 AVMX.mps                 7.08:  Max Ann Veloc 
 AZIF.deg               108.87:  Azm, Final 
 BHAT.                  Rotary:  BHA Type 
 BROT.°/30m               0.35:  Build Rotating 
 BS  .in                  8.50:  Bit Size 
 BSZ .in                  8.50:  Bit Size 
 BTPL.psig              360.00:  Bit Press Loss 
 CABU.                     Yes:  Customer Abuse 
 TCS .hr                106.24:  Time Ciculation Ended 
 CV  .mps                 1.77:  Crit Velocity 
 CVMX.mps                 2.03:  Max Crit Veloc 
 DD1 .         Aykhan Agagulov:  Direct Drillr 1 
 DD2 .            Nonso Okofor:  Direct Drillr 2 
 DDSV.               Geo-Pilot:  DD Service 
 DEFF.%                  98.00:  % Det Eff 
 DLRX.°/30m               0.50:  Dogleg Rot Max 
 DLSO.°/30m               0.40:  Dogleg Oriented 
 DLSX.°/30m               0.94:  Dogleg Str Max 
 DRET.      20.30.00 08-Sep-20:  Drill End Time 
 DRST.      22.15.00 06-Sep-20:  Drill Start Tim 
 DTIM.hr                 31.31:  Time Drilling 
 EDEP.m                5790.01:  End Depth 
 ENG1.           Amrah Tahirov:  Engineer 1 
 ENG2.         Dair Mahammadov:  Engineer 2 
 ENG3.           Emil Huseynov:  Engineer 3 
 ETIM.      04.01.04 12-Sep-20:  End Time 
 FLOI.gpm               450.00:  Flow In 
 FLON.gpm               450.00:  Flow In Min 
 FLOS.cptm                2.00:  Fluid Loss 
 FLOX.gpm               450.00:  Flow In Max 
 FTRO.       Formation Presure:  FTWD Run Obj 
 HFLO.                      No:  High Flow 
 HPRE.                      No:  High Pressure 
 HTEM.                      No:  High Temp 
 HYDO.m                   1.80:  Hydro Offset 
 IFIN.deg                72.03:  Inc, Final 
 IMAX.deg                73.72:  Inc Max 
 IMIN.deg                70.94:  Inc Min 
 IMND.m                5508.52:  Inc Min Depth 
 IMXD.m                5253.60:  Inc Max Depth 
 JARR.                      No:  Jarring 
 LETM.      20.30.00 08-Sep-20:  Log End Time 
 LOST.hr                     0:  Lost Rig Time 
 LSTM.      22.15.00 06-Sep-20:  Log Start Time 
 MDCL.ppm             36000.00:  Mud Chlorides 
 MDES.     Inversion Oil/Synthetic:  Mud Desc 
 DFD .sg                  1.44:  Mud Density 
 MDMN.sg                  1.44:  Dens Mud Min 
 MDMX.sg                  1.57:  Dens Mud Max 
 MOIL.                      70:  Run Mud Oil % 
 MOWR.                   70:30:  Run Mud OWR 
 MSND.                       0:  Run Mud Sand % 
 MSOL.                      21:  Run Mud Solids% 
 DFV .spqt               68.00:  Mud Viscosity 
 MWOD.in                  6.75:  MWD Tool OD 
 MWSI.                     Yes:  Serv Intrp, MWD 
 OTIM.hr                174.84:  Time Operating 
 PCON.           Look Like New:  Pad Condition 
 PMAX.psia            10616.93:  Press Op, Max 
 PV  .cP                 50.00:  Mud PV 
 RUN .                     700:  Run Number 
 ROPA.m/hr               14.24:  ROP Avg 
 ROPN.m/hr               10.00:  ROP Min 
 ROPX.m/hr               32.00:  ROP Max 
 RPMA.rpm               120.90:  RPM Surface Avg 
 RPMN.rpm               120.00:  RPM Surface Min 
 RPMX.rpm               140.00:  RPM Surface Max 
 RRUN.                    0700:  Rig Run Number 
 RTIM.hr                  3.20:  Time Reaming 
 SAZI.deg               109.99:  Azm, Start 
 SDEP.m                5231.01:  Start Depth 
 SIDD.                      No:  Serv Intrp, DD 
 SINC.deg                73.72:  Inc, Start 
 SPPA.psig             3051.00:  SPP Avg 
 SPPN.psig             2950.00:  SPP Min 
 SPPX.psig             3250.00:  SPP Max 
 STIM.      08.00.00 05-Sep-20:  Start Time 
 SVCS.                 DD, MWD:  Services 
 SVER.                    9.20:  Sperry Version 
 TDAT.m                 559.00:  Tot Depth Attmp 
 TDDF.                      No:  Trip for DD 
 TDLG.m                 559.00:  Tot Depth Loggd 
 TFF .                      No:  Trip for Fail 
 TQAA.f-kp               26.49:  Torque Abs Avg 
 TQAN.f-kp               25.00:  Torque Abs Min 
 TQAX.f-kp               27.00:  Torque Abs Max 
 TRRT.°/30m               1.50:  Turn Rotating 
 MRT .                    HCIM:  Maximum Recorded Temperature 
 TTMX.degC               90.20:  Max Tool Temp 
 VS01.                90542671:  Virtual Str1 SN 
 VS02.                90545185:  Virtual Str2 SN 
 VS03.                90602015:  Virtual Str3 SN 
 VS04.                90515230:  Virtual Str4 SN 
 WBMN.klb                 5.00:  WOB Min 
 WOBA.klb                14.79:  WOB Avg 
 WOBX.klb                20.00:  WOB Max 
 YP  .lhf2               29.00:  Yield Point 
~Curve Information Block
#MNEM.UNIT                 API CODE     Curve Description
#---------               -----------    ---------------------------
 TIME.HHMMSS            00 000 000 000:  GT Time & Date
 GTDEPTH.m              00 000 000 000:  GT Depth
 GTPQH.psia             00 000 000 000:  GT HR Quartz Pressure
 GTTQ.degC              00 000 000 000:  GT Quartz Temperature
 GTTN.NONE              00 000 000 000:  GT Test Number
 GTET.sec               00 000 000 000:  GT Elapsed Test Time
 GTTVD.m                00 000 000 000:  GT True Vertical Depth
#Other Information
#
#WARRANTY: Halliburton will use its best efforts to furnish customers with 
#accurate information and interpretations that are part of, and incident to, the services 
#provided.  However, Halliburton cannot and does not warrant the accuracy 
#or correctness of such information and interpretations.  Under no circumstances should any 
#such information or interpretation be relied upon as the sole basis for any drilling, 
#completion, production, or financial decision or any procedure involving any risk to the 
#safety of any drilling venture, drilling rig or its crew or any other third party.  The 
#Customer has full responsibility for all drilling, completion and production operation.  
#Halliburton makes no representations or warranties, either expressed or 
#implied, including, but not limited to, the implied warranties of merchantability or fitness 
#for a particular purpose, with respect to the services rendered.  In no event will 
#Halliburton be liable for failure to obtain any particular results or for 
#any damages, including, but not limited to, indirect, special or consequential damages, 
#resulting from the use of any information or interpretation provided by Halliburton.
#
~A           TIME           GTDEPTH  GTPQH  GTTQ  GTTN   GTET   GTTVD  
# ...
   20:06:11.226.09-Sep-2020 5259.51 4138.67 74.10 24.00 339.16 2544.41
   20:06:11.426.09-Sep-2020 5259.51 4138.67 74.10 24.00 339.36 2544.41
   20:06:11.626.09-Sep-2020 5259.51 4138.83 74.10 24.00 339.56 2544.41
   20:06:11.826.09-Sep-2020 5259.51 4138.83 74.10 24.00 339.76 2544.41
   20:06:12.026.09-Sep-2020 5259.51 4138.80 74.11 24.00 339.96 2544.41
   20:06:12.226.09-Sep-2020 5259.51 4139.00 74.11 24.00 340.16 2544.41
   20:06:12.426.09-Sep-2020 5259.51 4139.00 74.11 24.00 340.36 2544.41
   20:06:12.626.09-Sep-2020 5259.51 4138.96 74.11 24.00 340.56 2544.41
   20:06:12.826.09-Sep-2020 5259.51 4138.90 74.11 24.00 340.76 2544.41
   20:06:13.026.09-Sep-2020 5259.51 4138.82 74.11 24.00 340.96 2544.41
   20:06:13.227.09-Sep-2020 5259.51 4139.00 74.11 24.00 341.16 2544.41
   20:06:13.427.09-Sep-2020 5259.51 4139.00 74.11 24.00 341.36 2544.41
   20:06:13.627.09-Sep-2020 5259.51 4139.09 74.11 24.00 341.56 2544.41
   20:06:13.827.09-Sep-2020 5259.51 4139.06 74.11 24.00 341.76 2544.41
   20:06:14.027.09-Sep-2020 5259.51 4138.98 74.11 24.00 341.96 2544.41
   20:06:14.227.09-Sep-2020 5259.51 4139.13 74.11 24.00 342.16 2544.41
   20:06:14.427.09-Sep-2020 5259.51 4139.13 74.11 24.00 342.36 2544.41
   20:06:14.627.09-Sep-2020 5259.51 4139.06 74.11 24.00 342.56 2544.41
   20:06:14.827.09-Sep-2020 5259.51 4139.05 74.11 24.00 342.76 2544.41
   20:06:15.027.09-Sep-2020 5259.51 4139.15 74.11 24.00 342.96 2544.41
   20:06:15.227.09-Sep-2020 5259.51 4139.09 74.11 24.00 343.16 2544.41
   20:06:15.428.09-Sep-2020 5259.51 4139.12 74.11 24.00 343.36 2544.41
   20:06:15.628.09-Sep-2020 5259.51 4139.11 74.11 24.00 343.56 2544.41
   20:06:15.828.09-Sep-2020 5259.51 4139.14 74.11 24.00 343.76 2544.41
   20:06:16.028.09-Sep-2020 5259.51 4139.17 74.11 24.00 343.96 2544.41
   20:06:16.228.09-Sep-2020 5259.51 4139.21 74.11 24.00 344.16 2544.41
   20:06:16.428.09-Sep-2020 5259.51 4139.23 74.11 24.00 344.36 2544.41
   20:06:16.628.09-Sep-2020 5259.51 4139.19 74.11 24.00 344.56 2544.41
   20:06:16.828.09-Sep-2020 5259.51 4139.23 74.11 24.00 344.76 2544.41
   20:06:17.028.09-Sep-2020 5259.51 4138.87 74.11 24.00 344.96 2544.41
   20:06:17.228.09-Sep-2020 5259.51 4139.49 74.11 24.00 345.16 2544.41
   20:06:17.428.09-Sep-2020 5259.51 4139.49 74.11 24.00 345.36 2544.41
   20:06:17.629.09-Sep-2020 5259.51 4139.41 74.11 24.00 345.56 2544.41
   20:06:17.829.09-Sep-2020 5259.51 4139.55 74.11 24.00 345.76 2544.41
   20:06:18.029.09-Sep-2020 5259.51 4139.39 74.11 24.00 345.96 2544.41
   20:06:18.229.09-Sep-2020 5259.51 4139.42 74.11 24.00 346.16 2544.41
   20:06:18.429.09-Sep-2020 5259.51 4139.42 74.11 24.00 346.36 2544.41
   20:06:18.629.09-Sep-2020 5259.51 4139.32 74.11 24.00 346.56 2544.41
   20:06:18.829.09-Sep-2020 5259.51 4139.24 74.11 24.00 346.76 2544.41
   20:06:19.029.09-Sep-2020 5259.51 4139.33 74.11 24.00 346.96 2544.41
   20:06:19.229.09-Sep-2020 5259.51 4139.36 74.11 24.00 347.16 2544.41
   20:06:19.429.09-Sep-2020 5259.51 4139.36 74.11 24.00 347.36 2544.41
   20:06:19.629.09-Sep-2020 5259.51 4139.38 74.11 24.00 347.56 2544.41
   20:06:19.830.09-Sep-2020 5259.51 4139.33 74.11 24.00 347.76 2544.41
   20:06:20.030.09-Sep-2020 5259.51 4139.34 74.11 24.00 347.96 2544.41
   20:06:20.230.09-Sep-2020 5259.51 4139.34 74.11 24.00 348.16 2544.41
   20:06:20.430.09-Sep-2020 5259.51 4138.98 74.11 24.00 348.36 2544.41
   20:06:20.630.09-Sep-2020 5259.51 4139.58 74.11 24.00 348.56 2544.41
   20:06:20.830.09-Sep-2020 5259.51 4139.69 74.11 24.00 348.76 2544.41
   20:06:21.030.09-Sep-2020 5259.51 4139.50 74.11 24.00 348.96 2544.41
   20:06:21.230.09-Sep-2020 5259.51 4139.59 74.11 24.00 349.16 2544.41
   20:06:21.430.09-Sep-2020 5259.51 4139.59 74.11 24.00 349.36 2544.41
   20:06:21.630.09-Sep-2020 5259.51 4139.20 74.11 24.00 349.56 2544.41
   20:06:21.830.09-Sep-2020 5259.51 4139.56 74.11 24.00 349.76 2544.41
   20:06:22.031.09-Sep-2020 5259.51 4139.49 74.11 24.00 349.96 2544.41
   20:06:22.231.09-Sep-2020 5259.51 4139.33 74.11 24.00 350.16 2544.41
   20:06:22.431.09-Sep-2020 5259.51 4139.33 74.11 24.00 350.36 2544.41
   20:06:22.631.09-Sep-2020 5259.51 4138.41 74.11 24.00 350.56 2544.41
   20:06:22.831.09-Sep-2020 5259.51 4140.07 74.11 24.00 350.76 2544.41
   20:06:23.031.09-Sep-2020 5259.51 4139.67 74.11 24.00 350.96 2544.41
   20:06:23.231.09-Sep-2020 5259.51 4139.51 74.11 24.00 351.16 2544.41
   20:06:23.431.09-Sep-2020 5259.51 4139.51 74.11 24.00 351.36 2544.41
   20:06:23.631.09-Sep-2020 5259.51 4140.12 74.11 24.00 351.56 2544.41
   20:06:23.831.09-Sep-2020 5259.51 4139.59 74.11 24.00 351.76 2544.41
   20:06:24.032.09-Sep-2020 5259.51 4139.47 74.11 24.00 351.96 2544.41
   20:06:24.232.09-Sep-2020 5259.51 4138.53 74.11 24.00 352.16 2544.41
   20:06:24.432.09-Sep-2020 5259.51 4138.53 74.11 24.00 352.36 2544.41
   20:06:24.632.09-Sep-2020 5259.51 4139.70 74.11 24.00 352.56 2544.41
   20:06:24.832.09-Sep-2020 5259.51 4139.54 74.11 24.00 352.76 2544.41
   20:06:25.032.09-Sep-2020 5259.51 4139.49 74.11 24.00 352.96 2544.41
   20:06:25.232.09-Sep-2020 5259.51 4139.68 74.11 24.00 353.16 2544.41
   20:06:25.432.09-Sep-2020 5259.51 4139.68 74.11 24.00 353.36 2544.41
   20:06:25.632.09-Sep-2020 5259.51 4139.55 74.11 24.00 353.56 2544.41
   20:06:25.832.09-Sep-2020 5259.51 4139.55 74.11 24.00 353.76 2544.41
   20:06:26.032.09-Sep-2020 5259.51 4139.54 74.11 24.00 353.96 2544.41
   20:06:26.233.09-Sep-2020 5259.51 4139.59 74.11 24.00 354.16 2544.41
   20:06:26.433.09-Sep-2020 5259.51 4139.59 74.11 24.00 354.36 2544.41
   20:06:26.633.09-Sep-2020 5259.51 4139.60 74.11 24.00 354.56 2544.41
   20:06:26.833.09-Sep-2020 5259.51 4139.54 74.11 24.00 354.76 2544.41
   20:06:27.033.09-Sep-2020 5259.51 4139.55 74.11 24.00 354.96 2544.41
   20:06:27.233.09-Sep-2020 5259.51 4139.59 74.11 24.00 355.16 2544.41
   20:06:27.433.09-Sep-2020 5259.51 4139.59 74.11 24.00 355.36 2544.41
   20:06:27.633.09-Sep-2020 5259.51 4139.63 74.11 24.00 355.56 2544.41
   20:06:27.833.09-Sep-2020 5259.51 4138.71 74.11 24.00 355.76 2544.41
   20:06:28.033.09-Sep-2020 5259.51 4140.26 74.11 24.00 355.96 2544.41
   20:06:28.233.09-Sep-2020 5259.51 4139.99 74.11 24.00 356.16 2544.41
   20:06:28.434.09-Sep-2020 5259.51 4139.99 74.11 24.00 356.36 2544.41
   20:06:28.634.09-Sep-2020 5259.51 4139.74 74.11 24.00 356.56 2544.41
   20:06:28.834.09-Sep-2020 5259.51 4139.90 74.11 24.00 356.76 2544.41
   20:06:29.034.09-Sep-2020 5259.51 4139.72 74.11 24.00 356.96 2544.41
   20:06:29.234.09-Sep-2020 5259.51 4139.69 74.11 24.00 357.16 2544.41
   20:06:29.434.09-Sep-2020 5259.51 4139.69 74.11 24.00 357.36 2544.41
   20:06:29.634.09-Sep-2020 5259.51 4139.67 74.11 24.00 357.56 2544.41
   20:06:29.834.09-Sep-2020 5259.51 4139.68 74.11 24.00 357.76 2544.41
   20:06:30.034.09-Sep-2020 5259.51 4139.64 74.11 24.00 357.96 2544.41
   20:06:30.234.09-Sep-2020 5259.51 4139.60 74.11 24.00 358.17 2544.41
   20:06:30.434.09-Sep-2020 5259.51 4139.60 74.11 24.00 358.37 2544.41
   20:06:30.635.09-Sep-2020 5259.51 4139.66 74.11 24.00 358.57 2544.41
   20:06:30.835.09-Sep-2020 5259.51 4139.68 74.11 24.00 358.77 2544.41
   20:06:31.035.09-Sep-2020 5259.51 4139.69 74.11 24.00 358.97 2544.41
   20:06:31.235.09-Sep-2020 5259.51 4138.74 74.11 24.00 359.17 2544.41
   20:06:31.435.09-Sep-2020 5259.51 4138.74 74.11 24.00 359.37 2544.41
   20:06:31.635.09-Sep-2020 5259.51 4139.91 74.11 24.00 359.57 2544.41
   20:06:31.835.09-Sep-2020 5259.51 4139.79 74.11 24.00 359.77 2544.41
   20:06:32.035.09-Sep-2020 5259.51 4139.73 74.11 24.00 359.97 2544.41
   20:06:32.235.09-Sep-2020 5259.51 4139.89 74.11 24.00 360.17 2544.41
   20:06:32.435.09-Sep-2020 5259.51 4139.89 74.11 24.00 360.37 2544.41
   20:06:32.635.09-Sep-2020 5259.51 4140.05 74.11 24.00 360.57 2544.41
   20:06:32.836.09-Sep-2020 5259.51 4139.71 74.11 24.00 360.77 2544.41
   20:06:33.036.09-Sep-2020 5259.51 4139.62 74.11 24.00 360.97 2544.41
   20:06:33.236.09-Sep-2020 5259.51 4139.58 74.11 24.00 361.17 2544.41
   20:06:33.436.09-Sep-2020 5259.51 4139.75 74.11 24.00 361.37 2544.41
   20:06:33.636.09-Sep-2020 5259.51 4139.28 74.11 24.00 361.57 2544.41
