~Version Information
 VERS.                  2.0:   CWLS log ASCII Standard -VERSION 2.0
 WRAP.                   NO:   One line per depth step
~Well Information Block
#MNEM.UNIT     VALUE/NAME     DESCRIPTION
#---------     -----------    ---------------------------
 STRT.S             14:18:02 09-Sep-20: START TIME 14:18:02 09-Sep-20
 STOP.S             14:26:13 09-Sep-20: STOP TIME  14:26:13 09-Sep-20
 STEP.S                   0.00: STEP TIME
 NULL.                 -999.25: NULL VALUE
 MDS .        Operator Entered:  MAG DATA SOURCE
 PDAT.          Mean Sea Level:  PERMANENT DATUM
 DCON.         Sperry Drilling:  DIRECTNL CONTR
 RIG .              West Azeri:  RIG NAME
 WELL.           C40 (Slot 20):  WELL NAME
 SRVC.     Turan Drilling Engineering:  CONTRACTOR
 FLD .                     ACG:  FIELD NAME
 CTRY.              Azerbaijan:  COUNTRY NAME
 PROV.                    Baku:  PROVINCE
 STAT.                    Baku:  STATE NAME
 REGN.                   EESSA:  REGION
 BASE.              Azerbaijan:  LOGGING EQUIPMENT BASE LOCATION
 COMP.     BP Exploration (Caspian Sea) Ltd:  COMPANY
 WTYP.                Deviated:  WELL TYPE
 SON .        AZ-XX-0906344804:  JOB NUMBER
 FTOP.          Formation Tops:  FORM TOPS DESC
 ILTD.               Lithology:  INTERP LTH DESC
 SVYD.                  Survey:  SURVEY DESC
 DMOD.             Drill Model:  DRILL MOD DESC
 HPTY.       Minimum Curvature:  HOLE POS TYPE
 NREF.                    Grid:  NORTH REFERENCE
 SPUD.               01-Jan-20:  SPUD DATE
 DATE.      00.59.44 15-Sep-20:  END TIME
 STIM.      12.00.00 12-Jun-20:  START TIME
 DMF .             Drill Floor:  DRILL MEAS FROM
 DFST.                        :  DIST FSL TEXT
 DFWT.                        :  DIST FWL TEXT
 API .                        :  API NUMBER
 CNTY.                        :  COUNTY
 UWI .                        :  UNIQUE WELL IDENTIFIER
 LOC .                        :  LOCATION
 LMF .             Drill Floor:  LOG MEASURED FROM
 VSNS.m                   2.88:  VERT SEC N/S
 VSEW.m                  -3.84:  VERT SEC E/W
 AGAP.m                  43.42:  AIR GAP
 APD .m                  43.42:  DEPTH ABOVE PD
 WDMS.m                 118.27:  WD ELEV
 EGL .m                   0.00:  GROUND ELEVATION
 EPD .m                   0.00:  ELEVATION
 AZTC.deg                 6.23:  AZM TOTAL CORR
 GRDC.deg                 0.20:  GRID CORRECTION
 MDEC.deg                 6.43:  MAGNETIC DECL
 MDIP.deg                59.49:  MAGNETIC DIP
 MFLD.nT              50277.00:  MAGNETIC FIELD
 GVFD.g                   1.00:  GRAVITY FIELD
 VSDR.deg               173.20:  VERT SEC DIRECT
 TDD .m                5790.01:  TOTAL DEPTH (DRILLER)
 SDEP.m                5231.01:  START DEPTH
 DFSL.m                   0.00:  DISTANCE FSL
 DFWL.m                   0.00:  DISTANCE FWL
 UTMY.m             4435808.83:  UTM Y
 UTMX.m              526266.40:  UTM X
 WHEW.m                  -3.84:  WELL HEAD E/W
 WHNS.m                   2.88:  WELL HEAD N/S
 LONG.deg                51.31:  LONGITUDE
 LATI.deg                40.06:  LATITUDE
 TVDS.m                  43.42:  TVDSS CORRECTN
 DEP .m                 430.08:  DEPTH
 EKB .m                  43.42:  KB ELEVATION
 EDF .m                  43.42:  DF ELEVATION
 TDL .m                 559.00:  TOTAL DEPTH (LOGGER)
 MAGU.                 1849381:  MAGUTM CHECKSUM
 VSC .                       0:  VS TO CLOSURE
~Parameter Information Block
#MNEM.UNIT       Value        Description
#---------     -----------    ---------------------------
 AV  .mps                 4.87:  Ann Velocity 
 AVMX.mps                 7.08:  Max Ann Veloc 
 AZIF.deg               108.87:  Azm, Final 
 BHAT.                  Rotary:  BHA Type 
 BROT.°/30m               0.35:  Build Rotating 
 BS  .in                  8.50:  Bit Size 
 BSZ .in                  8.50:  Bit Size 
 BTPL.psig              360.00:  Bit Press Loss 
 CABU.                     Yes:  Customer Abuse 
 TCS .hr                106.24:  Time Ciculation Ended 
 CV  .mps                 1.77:  Crit Velocity 
 CVMX.mps                 2.03:  Max Crit Veloc 
 DD1 .         Aykhan Agagulov:  Direct Drillr 1 
 DD2 .            Nonso Okofor:  Direct Drillr 2 
 DDSV.               Geo-Pilot:  DD Service 
 DEFF.%                  98.00:  % Det Eff 
 DLRX.°/30m               0.50:  Dogleg Rot Max 
 DLSO.°/30m               0.40:  Dogleg Oriented 
 DLSX.°/30m               0.94:  Dogleg Str Max 
 DRET.      20.30.00 08-Sep-20:  Drill End Time 
 DRST.      22.15.00 06-Sep-20:  Drill Start Tim 
 DTIM.hr                 31.31:  Time Drilling 
 EDEP.m                5790.01:  End Depth 
 ENG1.           Amrah Tahirov:  Engineer 1 
 ENG2.         Dair Mahammadov:  Engineer 2 
 ENG3.           Emil Huseynov:  Engineer 3 
 ETIM.      04.01.04 12-Sep-20:  End Time 
 FLOI.gpm               450.00:  Flow In 
 FLON.gpm               450.00:  Flow In Min 
 FLOS.cptm                2.00:  Fluid Loss 
 FLOX.gpm               450.00:  Flow In Max 
 FTRO.       Formation Presure:  FTWD Run Obj 
 HFLO.                      No:  High Flow 
 HPRE.                      No:  High Pressure 
 HTEM.                      No:  High Temp 
 HYDO.m                   1.80:  Hydro Offset 
 IFIN.deg                72.03:  Inc, Final 
 IMAX.deg                73.72:  Inc Max 
 IMIN.deg                70.94:  Inc Min 
 IMND.m                5508.52:  Inc Min Depth 
 IMXD.m                5253.60:  Inc Max Depth 
 JARR.                      No:  Jarring 
 LETM.      20.30.00 08-Sep-20:  Log End Time 
 LOST.hr                     0:  Lost Rig Time 
 LSTM.      22.15.00 06-Sep-20:  Log Start Time 
 MDCL.ppm             36000.00:  Mud Chlorides 
 MDES.     Inversion Oil/Synthetic:  Mud Desc 
 DFD .sg                  1.44:  Mud Density 
 MDMN.sg                  1.44:  Dens Mud Min 
 MDMX.sg                  1.57:  Dens Mud Max 
 MOIL.                      70:  Run Mud Oil % 
 MOWR.                   70:30:  Run Mud OWR 
 MSND.                       0:  Run Mud Sand % 
 MSOL.                      21:  Run Mud Solids% 
 DFV .spqt               68.00:  Mud Viscosity 
 MWOD.in                  6.75:  MWD Tool OD 
 MWSI.                     Yes:  Serv Intrp, MWD 
 OTIM.hr                174.84:  Time Operating 
 PCON.           Look Like New:  Pad Condition 
 PMAX.psia            10616.93:  Press Op, Max 
 PV  .cP                 50.00:  Mud PV 
 RUN .                     700:  Run Number 
 ROPA.m/hr               14.24:  ROP Avg 
 ROPN.m/hr               10.00:  ROP Min 
 ROPX.m/hr               32.00:  ROP Max 
 RPMA.rpm               120.90:  RPM Surface Avg 
 RPMN.rpm               120.00:  RPM Surface Min 
 RPMX.rpm               140.00:  RPM Surface Max 
 RRUN.                    0700:  Rig Run Number 
 RTIM.hr                  3.20:  Time Reaming 
 SAZI.deg               109.99:  Azm, Start 
 SDEP.m                5231.01:  Start Depth 
 SIDD.                      No:  Serv Intrp, DD 
 SINC.deg                73.72:  Inc, Start 
 SPPA.psig             3051.00:  SPP Avg 
 SPPN.psig             2950.00:  SPP Min 
 SPPX.psig             3250.00:  SPP Max 
 STIM.      08.00.00 05-Sep-20:  Start Time 
 SVCS.                 DD, MWD:  Services 
 SVER.                    9.20:  Sperry Version 
 TDAT.m                 559.00:  Tot Depth Attmp 
 TDDF.                      No:  Trip for DD 
 TDLG.m                 559.00:  Tot Depth Loggd 
 TFF .                      No:  Trip for Fail 
 TQAA.f-kp               26.49:  Torque Abs Avg 
 TQAN.f-kp               25.00:  Torque Abs Min 
 TQAX.f-kp               27.00:  Torque Abs Max 
 TRRT.°/30m               1.50:  Turn Rotating 
 MRT .                    HCIM:  Maximum Recorded Temperature 
 TTMX.degC               90.20:  Max Tool Temp 
 VS01.                90542671:  Virtual Str1 SN 
 VS02.                90545185:  Virtual Str2 SN 
 VS03.                90602015:  Virtual Str3 SN 
 VS04.                90515230:  Virtual Str4 SN 
 WBMN.klb                 5.00:  WOB Min 
 WOBA.klb                14.79:  WOB Avg 
 WOBX.klb                20.00:  WOB Max 
 YP  .lhf2               29.00:  Yield Point 
~Curve Information Block
#MNEM.UNIT                 API CODE     Curve Description
#---------               -----------    ---------------------------
 TIME.HHMMSS            00 000 000 000:  GT Time & Date
 GTDEPTH.m              00 000 000 000:  GT Depth
 GTPQH.psia             00 000 000 000:  GT HR Quartz Pressure
 GTTQ.degC              00 000 000 000:  GT Quartz Temperature
 GTTN.NONE              00 000 000 000:  GT Test Number
 GTET.sec               00 000 000 000:  GT Elapsed Test Time
 GTTVD.m                00 000 000 000:  GT True Vertical Depth
#Other Information
#
#WARRANTY: Halliburton will use its best efforts to furnish customers with 
#accurate information and interpretations that are part of, and incident to, the services 
#provided.  However, Halliburton cannot and does not warrant the accuracy 
#or correctness of such information and interpretations.  Under no circumstances should any 
#such information or interpretation be relied upon as the sole basis for any drilling, 
#completion, production, or financial decision or any procedure involving any risk to the 
#safety of any drilling venture, drilling rig or its crew or any other third party.  The 
#Customer has full responsibility for all drilling, completion and production operation.  
#Halliburton makes no representations or warranties, either expressed or 
#implied, including, but not limited to, the implied warranties of merchantability or fitness 
#for a particular purpose, with respect to the services rendered.  In no event will 
#Halliburton be liable for failure to obtain any particular results or for 
#any damages, including, but not limited to, indirect, special or consequential damages, 
#resulting from the use of any information or interpretation provided by Halliburton.
#
~A           TIME           GTDEPTH  GTPQH  GTTQ  GTTN   GTET   GTTVD  
# ...
   14:25:34.497.09-Sep-2020 5408.01  673.41 75.21 16.00 452.28 2589.60
   14:25:34.697.09-Sep-2020 5408.01  673.48 75.21 16.00 452.48 2589.60
   14:25:34.897.09-Sep-2020 5408.01  673.55 75.21 16.00 452.68 2589.60
   14:25:35.097.09-Sep-2020 5408.01  673.71 75.21 16.00 452.88 2589.60
   14:25:35.297.09-Sep-2020 5408.01  673.83 75.21 16.00 453.08 2589.60
   14:25:35.498.09-Sep-2020 5408.01  673.93 75.21 16.00 453.28 2589.60
   14:25:35.698.09-Sep-2020 5408.01  673.93 75.21 16.00 453.48 2589.60
   14:25:35.898.09-Sep-2020 5408.01  673.37 75.21 16.00 453.68 2589.60
   14:25:36.098.09-Sep-2020 5408.01  674.11 75.21 16.00 453.88 2589.60
   14:25:36.298.09-Sep-2020 5408.01  674.33 75.21 16.00 454.08 2589.60
   14:25:36.498.09-Sep-2020 5408.01  674.53 75.21 16.00 454.28 2589.60
   14:25:36.698.09-Sep-2020 5408.01  674.53 75.21 16.00 454.48 2589.60
   14:25:36.898.09-Sep-2020 5408.01  674.60 75.21 16.00 454.68 2589.60
   14:25:37.099.09-Sep-2020 5408.01  674.62 75.21 16.00 454.88 2589.60
   14:25:37.299.09-Sep-2020 5408.01  674.71 75.21 16.00 455.08 2589.60
   14:25:37.499.09-Sep-2020 5408.01  674.80 75.21 16.00 455.28 2589.60
   14:25:37.699.09-Sep-2020 5408.01  674.80 75.21 16.00 455.48 2589.60
   14:25:37.899.09-Sep-2020 5408.01  674.90 75.21 16.00 455.68 2589.60
   14:25:38.099.09-Sep-2020 5408.01  684.87 75.21 16.00 455.88 2589.60
   14:25:38.299.09-Sep-2020 5408.01  909.49 75.21 16.00 456.08 2589.60
   14:25:38.499.09-Sep-2020 5408.01 1401.85 75.21 16.00 456.28 2589.60
   14:25:38.700.09-Sep-2020 5408.01 1898.14 75.21 16.00 456.48 2589.60
   14:25:38.900.09-Sep-2020 5408.01 2300.14 75.21 16.00 456.68 2589.60
   14:25:39.100.09-Sep-2020 5408.01 2664.13 75.21 16.00 456.88 2589.60
   14:25:39.300.09-Sep-2020 5408.01 3011.58 75.21 16.00 457.08 2589.60
   14:25:39.500.09-Sep-2020 5408.01 3969.64 75.21 16.00 457.28 2589.60
   14:25:39.700.09-Sep-2020 5408.01 3969.64 75.21 16.00 457.48 2589.60
   14:25:39.900.09-Sep-2020 5408.01 6389.62 75.21 16.00 457.68 2589.60
   14:25:40.100.09-Sep-2020 5408.01 6388.99 75.22 16.00 457.88 2589.60
   14:25:40.301.09-Sep-2020 5408.01 6393.47 75.22 16.00 458.08 2589.60
   14:25:40.501.09-Sep-2020 5408.01 6387.56 75.22 16.00 458.28 2589.60
   14:25:40.701.09-Sep-2020 5408.01 6387.56 75.22 16.00 458.48 2589.60
   14:25:40.901.09-Sep-2020 5408.01 6390.43 75.23 16.00 458.68 2589.60
   14:25:41.101.09-Sep-2020 5408.01 6393.35 75.23 16.00 458.88 2589.60
   14:25:41.301.09-Sep-2020 5408.01 6393.46 75.23 16.00 459.08 2589.60
   14:25:41.501.09-Sep-2020 5408.01 6396.89 75.24 16.00 459.28 2589.60
   14:25:41.701.09-Sep-2020 5408.01 6396.89 75.24 16.00 459.48 2589.60
   14:25:41.902.09-Sep-2020 5408.01 6393.94 75.25 16.00 459.68 2589.60
   14:25:42.102.09-Sep-2020 5408.01 6398.94 75.25 16.00 459.88 2589.60
   14:25:42.302.09-Sep-2020 5408.01 6396.13 75.26 16.00 460.08 2589.60
   14:25:42.502.09-Sep-2020 5408.01 6400.10 75.26 16.00 460.28 2589.60
   14:25:42.702.09-Sep-2020 5408.01 6400.10 75.26 16.00 460.48 2589.60
   14:25:42.902.09-Sep-2020 5408.01 6396.26 75.27 16.00 460.68 2589.60
   14:25:43.102.09-Sep-2020 5408.01 6400.00 75.28 16.00 460.88 2589.60
   14:25:43.302.09-Sep-2020 5408.01 6399.92 75.28 16.00 461.08 2589.60
   14:25:43.502.09-Sep-2020 5408.01 6401.22 75.29 16.00 461.28 2589.60
   14:25:43.703.09-Sep-2020 5408.01 6401.22 75.29 16.00 461.48 2589.60
   14:25:43.903.09-Sep-2020 5408.01 6409.11 75.30 16.00 461.68 2589.60
   14:25:44.103.09-Sep-2020 5408.01 6399.92 75.30 16.00 461.88 2589.60
   14:25:44.303.09-Sep-2020 5408.01 6400.70 75.31 16.00 462.08 2589.60
   14:25:44.503.09-Sep-2020 5408.01 6403.87 75.31 16.00 462.28 2589.60
   14:25:44.703.09-Sep-2020 5408.01 6403.87 75.31 16.00 462.48 2589.60
   14:25:44.903.09-Sep-2020 5408.01 6405.41 75.32 16.00 462.68 2589.60
   14:25:45.103.09-Sep-2020 5408.01 6401.56 75.32 16.00 462.88 2589.60
   14:25:45.304.09-Sep-2020 5408.01 6402.96 75.33 16.00 463.08 2589.60
   14:25:45.504.09-Sep-2020 5408.01 6402.45 75.33 16.00 463.28 2589.60
   14:25:45.704.09-Sep-2020 5408.01 6402.45 75.33 16.00 463.48 2589.60
   14:25:45.904.09-Sep-2020 5408.01 6402.68 75.34 16.00 463.68 2589.60
   14:25:46.104.09-Sep-2020 5408.01 6402.04 75.34 16.00 463.88 2589.60
   14:25:46.304.09-Sep-2020 5408.01 6401.87 75.35 16.00 464.08 2589.60
   14:25:46.504.09-Sep-2020 5408.01 6401.80 75.35 16.00 464.28 2589.60
   14:25:46.704.09-Sep-2020 5408.01 6402.22 75.35 16.00 464.48 2589.60
   14:25:46.905.09-Sep-2020 5408.01 6402.22 75.36 16.00 464.68 2589.60
   14:25:47.105.09-Sep-2020 5408.01 6402.40 75.36 16.00 464.88 2589.60
   14:25:47.305.09-Sep-2020 5408.01 6402.31 75.36 16.00 465.08 2589.60
   14:25:47.505.09-Sep-2020 5408.01 6402.34 75.36 16.00 465.28 2589.60
   14:25:47.705.09-Sep-2020 5408.01 6402.34 75.36 16.00 465.48 2589.60
   14:25:47.905.09-Sep-2020 5408.01 6401.15 75.37 16.00 465.68 2589.60
   14:25:48.105.09-Sep-2020 5408.01 6404.98 75.37 16.00 465.88 2589.60
   14:25:48.305.09-Sep-2020 5408.01 6401.74 75.37 16.00 466.08 2589.60
   14:25:48.506.09-Sep-2020 5408.01 6404.14 75.37 16.00 466.28 2589.60
   14:25:48.706.09-Sep-2020 5408.01 6404.14 75.37 16.00 466.49 2589.60
   14:25:48.906.09-Sep-2020 5408.01 6403.09 75.38 16.00 466.69 2589.60
   14:25:49.106.09-Sep-2020 5408.01 6402.52 75.38 16.00 466.89 2589.60
   14:25:49.306.09-Sep-2020 5408.01 6401.54 75.38 16.00 467.09 2589.60
   14:25:49.506.09-Sep-2020 5408.01 6401.07 75.38 16.00 467.29 2589.60
   14:25:49.706.09-Sep-2020 5408.01 6401.07 75.38 16.00 467.49 2589.60
   14:25:49.906.09-Sep-2020 5408.01 6400.99 75.38 16.00 467.69 2589.60
   14:25:50.107.09-Sep-2020 5408.01 6401.14 75.38 16.00 467.89 2589.60
   14:25:50.307.09-Sep-2020 5408.01 6401.10 75.39 16.00 468.09 2589.60
   14:25:50.507.09-Sep-2020 5408.01 6400.49 75.39 16.00 468.29 2589.60
   14:25:50.707.09-Sep-2020 5408.01 6400.19 75.39 16.00 468.49 2589.60
   14:25:50.907.09-Sep-2020 5408.01 6400.20 75.39 16.00 468.69 2589.60
   14:25:51.107.09-Sep-2020 5408.01 6407.01 75.39 16.00 468.89 2589.60
   14:25:51.307.09-Sep-2020 5408.01 6399.68 75.39 16.00 469.09 2589.60
   14:25:51.507.09-Sep-2020 5408.01 6403.88 75.39 16.00 469.29 2589.60
   14:25:51.707.09-Sep-2020 5408.01 6403.88 75.39 16.00 469.49 2589.60
   14:25:51.908.09-Sep-2020 5408.01 6402.47 75.39 16.00 469.69 2589.60
   14:25:52.108.09-Sep-2020 5408.01 6404.27 75.39 16.00 469.89 2589.60
   14:25:52.308.09-Sep-2020 5408.01 6406.24 75.39 16.00 470.09 2589.60
   14:25:52.508.09-Sep-2020 5408.01 6399.74 75.39 16.00 470.29 2589.60
   14:25:52.708.09-Sep-2020 5408.01 6399.74 75.39 16.00 470.49 2589.60
   14:25:52.908.09-Sep-2020 5408.01 6400.43 75.39 16.00 470.69 2589.60
   14:25:53.108.09-Sep-2020 5408.01 6403.94 75.39 16.00 470.89 2589.60
   14:25:53.308.09-Sep-2020 5408.01 6401.73 75.39 16.00 471.09 2589.60
   14:25:53.509.09-Sep-2020 5408.01 6402.30 75.39 16.00 471.29 2589.60
   14:25:53.709.09-Sep-2020 5408.01 6402.30 75.39 16.00 471.49 2589.60
   14:25:53.909.09-Sep-2020 5408.01 6399.24 75.39 16.00 471.69 2589.60
   14:25:54.109.09-Sep-2020 5408.01 6401.92 75.39 16.00 471.89 2589.60
   14:25:54.309.09-Sep-2020 5408.01 6400.97 75.39 16.00 472.09 2589.60
   14:25:54.509.09-Sep-2020 5408.01 6403.21 75.39 16.00 472.29 2589.60
   14:25:54.709.09-Sep-2020 5408.01 6403.20 75.39 16.00 472.49 2589.60
   14:25:54.909.09-Sep-2020 5408.01 6401.49 75.39 16.00 472.69 2589.60
   14:25:55.110.09-Sep-2020 5408.01 6410.56 75.39 16.00 472.89 2589.60
   14:25:55.310.09-Sep-2020 5408.01 6400.32 75.39 16.00 473.09 2589.60
   14:25:55.510.09-Sep-2020 5408.01 6401.23 75.39 16.00 473.29 2589.60
   14:25:55.710.09-Sep-2020 5408.01 6401.23 75.39 16.00 473.49 2589.60
   14:25:55.910.09-Sep-2020 5408.01 6402.44 75.39 16.00 473.69 2589.60
   14:25:56.110.09-Sep-2020 5408.01 6405.69 75.39 16.00 473.89 2589.60
   14:25:56.310.09-Sep-2020 5408.01 6404.24 75.39 16.00 474.09 2589.60
   14:25:56.510.09-Sep-2020 5408.01 6407.80 75.39 16.00 474.29 2589.60
   14:25:56.711.09-Sep-2020 5408.01 6407.80 75.39 16.00 474.49 2589.60
   14:25:56.911.09-Sep-2020 5408.01 6405.92 75.39 16.00 474.69 2589.60
