~Version Information
 VERS.                  2.0:   CWLS log ASCII Standard -VERSION 2.0
 WRAP.                   NO:   One line per depth step
~Well Information Block
#MNEM.UNIT     VALUE/NAME     DESCRIPTION
#---------     -----------    ---------------------------
 STRT.S             18:49:58 09-Sep-20: START TIME 18:49:58 09-Sep-20
 STOP.S             18:58:03 09-Sep-20: STOP TIME  18:58:03 09-Sep-20
 STEP.S                   0.00: STEP TIME
 NULL.                 -999.25: NULL VALUE
 MDS .        Operator Entered:  MAG DATA SOURCE
 PDAT.          Mean Sea Level:  PERMANENT DATUM
 DCON.         Sperry Drilling:  DIRECTNL CONTR
 RIG .              West Azeri:  RIG NAME
 WELL.           C40 (Slot 20):  WELL NAME
 SRVC.     Turan Drilling Engineering:  CONTRACTOR
 FLD .                     ACG:  FIELD NAME
 CTRY.              Azerbaijan:  COUNTRY NAME
 PROV.                    Baku:  PROVINCE
 STAT.                    Baku:  STATE NAME
 REGN.                   EESSA:  REGION
 BASE.              Azerbaijan:  LOGGING EQUIPMENT BASE LOCATION
 COMP.     BP Exploration (Caspian Sea) Ltd:  COMPANY
 WTYP.                Deviated:  WELL TYPE
 SON .        AZ-XX-0906344804:  JOB NUMBER
 FTOP.          Formation Tops:  FORM TOPS DESC
 ILTD.               Lithology:  INTERP LTH DESC
 SVYD.                  Survey:  SURVEY DESC
 DMOD.             Drill Model:  DRILL MOD DESC
 HPTY.       Minimum Curvature:  HOLE POS TYPE
 NREF.                    Grid:  NORTH REFERENCE
 SPUD.               01-Jan-20:  SPUD DATE
 DATE.      00.59.44 15-Sep-20:  END TIME
 STIM.      12.00.00 12-Jun-20:  START TIME
 DMF .             Drill Floor:  DRILL MEAS FROM
 DFST.                        :  DIST FSL TEXT
 DFWT.                        :  DIST FWL TEXT
 API .                        :  API NUMBER
 CNTY.                        :  COUNTY
 UWI .                        :  UNIQUE WELL IDENTIFIER
 LOC .                        :  LOCATION
 LMF .             Drill Floor:  LOG MEASURED FROM
 VSNS.m                   2.88:  VERT SEC N/S
 VSEW.m                  -3.84:  VERT SEC E/W
 AGAP.m                  43.42:  AIR GAP
 APD .m                  43.42:  DEPTH ABOVE PD
 WDMS.m                 118.27:  WD ELEV
 EGL .m                   0.00:  GROUND ELEVATION
 EPD .m                   0.00:  ELEVATION
 AZTC.deg                 6.23:  AZM TOTAL CORR
 GRDC.deg                 0.20:  GRID CORRECTION
 MDEC.deg                 6.43:  MAGNETIC DECL
 MDIP.deg                59.49:  MAGNETIC DIP
 MFLD.nT              50277.00:  MAGNETIC FIELD
 GVFD.g                   1.00:  GRAVITY FIELD
 VSDR.deg               173.20:  VERT SEC DIRECT
 TDD .m                5790.01:  TOTAL DEPTH (DRILLER)
 SDEP.m                5231.01:  START DEPTH
 DFSL.m                   0.00:  DISTANCE FSL
 DFWL.m                   0.00:  DISTANCE FWL
 UTMY.m             4435808.83:  UTM Y
 UTMX.m              526266.40:  UTM X
 WHEW.m                  -3.84:  WELL HEAD E/W
 WHNS.m                   2.88:  WELL HEAD N/S
 LONG.deg                51.31:  LONGITUDE
 LATI.deg                40.06:  LATITUDE
 TVDS.m                  43.42:  TVDSS CORRECTN
 DEP .m                 430.08:  DEPTH
 EKB .m                  43.42:  KB ELEVATION
 EDF .m                  43.42:  DF ELEVATION
 TDL .m                 559.00:  TOTAL DEPTH (LOGGER)
 MAGU.                 1849381:  MAGUTM CHECKSUM
 VSC .                       0:  VS TO CLOSURE
~Parameter Information Block
#MNEM.UNIT       Value        Description
#---------     -----------    ---------------------------
 AV  .mps                 4.87:  Ann Velocity 
 AVMX.mps                 7.08:  Max Ann Veloc 
 AZIF.deg               108.87:  Azm, Final 
 BHAT.                  Rotary:  BHA Type 
 BROT.°/30m               0.35:  Build Rotating 
 BS  .in                  8.50:  Bit Size 
 BSZ .in                  8.50:  Bit Size 
 BTPL.psig              360.00:  Bit Press Loss 
 CABU.                     Yes:  Customer Abuse 
 COMM.                     „T:  Run Comments 1 
 TCS .hr                106.24:  Time Ciculation Ended 
 CV  .mps                 1.77:  Crit Velocity 
 CVMX.mps                 2.03:  Max Crit Veloc 
 DD1 .         Aykhan Agagulov:  Direct Drillr 1 
 DD2 .            Nonso Okofor:  Direct Drillr 2 
 DDSV.               Geo-Pilot:  DD Service 
 DEFF.%                  98.00:  % Det Eff 
 DLRX.°/30m               0.50:  Dogleg Rot Max 
 DLSO.°/30m               0.40:  Dogleg Oriented 
 DLSX.°/30m               0.94:  Dogleg Str Max 
 DRET.      20.30.00 08-Sep-20:  Drill End Time 
 DRST.      22.15.00 06-Sep-20:  Drill Start Tim 
 DTIM.hr                 31.31:  Time Drilling 
 EDEP.m                5790.01:  End Depth 
 ENG1.           Amrah Tahirov:  Engineer 1 
 ENG2.         Dair Mahammadov:  Engineer 2 
 ENG3.           Emil Huseynov:  Engineer 3 
 ETIM.      04.01.04 12-Sep-20:  End Time 
 FLOI.gpm               450.00:  Flow In 
 FLON.gpm               450.00:  Flow In Min 
 FLOS.cptm                2.00:  Fluid Loss 
 FLOX.gpm               450.00:  Flow In Max 
 FTRO.       Formation Presure:  FTWD Run Obj 
 HFLO.                      No:  High Flow 
 HPRE.                      No:  High Pressure 
 HTEM.                      No:  High Temp 
 HYDO.m                   1.80:  Hydro Offset 
 IFIN.deg                72.03:  Inc, Final 
 IMAX.deg                73.72:  Inc Max 
 IMIN.deg                70.94:  Inc Min 
 IMND.m                5508.52:  Inc Min Depth 
 IMXD.m                5253.60:  Inc Max Depth 
 JARR.                      No:  Jarring 
 LETM.      20.30.00 08-Sep-20:  Log End Time 
 LOST.hr                     0:  Lost Rig Time 
 LSTM.      22.15.00 06-Sep-20:  Log Start Time 
 MDCL.ppm             36000.00:  Mud Chlorides 
 MDES.     Inversion Oil/Synthetic:  Mud Desc 
 DFD .sg                  1.44:  Mud Density 
 MDMN.sg                  1.44:  Dens Mud Min 
 MDMX.sg                  1.57:  Dens Mud Max 
 MOIL.                      70:  Run Mud Oil % 
 MOWR.                   70:30:  Run Mud OWR 
 MSND.                       0:  Run Mud Sand % 
 MSOL.                      21:  Run Mud Solids% 
 DFV .spqt               68.00:  Mud Viscosity 
 MWOD.in                  6.75:  MWD Tool OD 
 MWSI.                     Yes:  Serv Intrp, MWD 
 OTIM.hr                174.84:  Time Operating 
 PCON.           Look Like New:  Pad Condition 
 PMAX.psia            10616.93:  Press Op, Max 
 PV  .cP                 50.00:  Mud PV 
 RUN .                     700:  Run Number 
 ROPA.m/hr               14.24:  ROP Avg 
 ROPN.m/hr               10.00:  ROP Min 
 ROPX.m/hr               32.00:  ROP Max 
 RPMA.rpm               120.90:  RPM Surface Avg 
 RPMN.rpm               120.00:  RPM Surface Min 
 RPMX.rpm               140.00:  RPM Surface Max 
 RRUN.                    0700:  Rig Run Number 
 RTIM.hr                  3.20:  Time Reaming 
 SAZI.deg               109.99:  Azm, Start 
 SDEP.m                5231.01:  Start Depth 
 SIDD.                      No:  Serv Intrp, DD 
 SINC.deg                73.72:  Inc, Start 
 SPPA.psig             3051.00:  SPP Avg 
 SPPN.psig             2950.00:  SPP Min 
 SPPX.psig             3250.00:  SPP Max 
 STIM.      08.00.00 05-Sep-20:  Start Time 
 SVCS.                 DD, MWD:  Services 
 SVER.                    9.20:  Sperry Version 
 TDAT.m                 559.00:  Tot Depth Attmp 
 TDDF.                      No:  Trip for DD 
 TDLG.m                 559.00:  Tot Depth Loggd 
 TFF .                      No:  Trip for Fail 
 TQAA.f-kp               26.49:  Torque Abs Avg 
 TQAN.f-kp               25.00:  Torque Abs Min 
 TQAX.f-kp               27.00:  Torque Abs Max 
 TRRT.°/30m               1.50:  Turn Rotating 
 MRT .                    HCIM:  Maximum Recorded Temperature 
 TTMX.degC               90.20:  Max Tool Temp 
 VS01.                90542671:  Virtual Str1 SN 
 VS02.                90545185:  Virtual Str2 SN 
 VS03.                90602015:  Virtual Str3 SN 
 VS04.                90515230:  Virtual Str4 SN 
 WBMN.klb                 5.00:  WOB Min 
 WOBA.klb                14.79:  WOB Avg 
 WOBX.klb                20.00:  WOB Max 
 YP  .lhf2               29.00:  Yield Point 
~Curve Information Block
#MNEM.UNIT                 API CODE     Curve Description
#---------               -----------    ---------------------------
 TIME.HHMMSS            00 000 000 000:  GT Time & Date
 GTDEPTH.m              00 000 000 000:  GT Depth
 GTPQH.psia             00 000 000 000:  GT HR Quartz Pressure
 GTTQ.degC              00 000 000 000:  GT Quartz Temperature
 GTTN.NONE              00 000 000 000:  GT Test Number
 GTET.sec               00 000 000 000:  GT Elapsed Test Time
 GTTVD.m                00 000 000 000:  GT True Vertical Depth
#Other Information
#
#WARRANTY: Halliburton will use its best efforts to furnish customers with 
#accurate information and interpretations that are part of, and incident to, the services 
#provided.  However, Halliburton cannot and does not warrant the accuracy 
#or correctness of such information and interpretations.  Under no circumstances should any 
#such information or interpretation be relied upon as the sole basis for any drilling, 
#completion, production, or financial decision or any procedure involving any risk to the 
#safety of any drilling venture, drilling rig or its crew or any other third party.  The 
#Customer has full responsibility for all drilling, completion and production operation.  
#Halliburton makes no representations or warranties, either expressed or 
#implied, including, but not limited to, the implied warranties of merchantability or fitness 
#for a particular purpose, with respect to the services rendered.  In no event will 
#Halliburton be liable for failure to obtain any particular results or for 
#any damages, including, but not limited to, indirect, special or consequential damages, 
#resulting from the use of any information or interpretation provided by Halliburton.
#
~A           TIME           GTDEPTH  GTPQH  GTTQ  GTTN   GTET   GTTVD  
# ...
   18:52:13.994.09-Sep-2020 5280.51  841.22 74.29 22.00 135.49 2550.44
   18:52:14.193.09-Sep-2020 5280.51  841.57 74.29 22.00 135.69 2550.44
   18:52:14.393.09-Sep-2020 5280.51  841.90 74.29 22.00 135.89 2550.44
   18:52:14.593.09-Sep-2020 5280.51  841.90 74.29 22.00 136.09 2550.44
   18:52:14.793.09-Sep-2020 5280.51  842.67 74.29 22.00 136.29 2550.44
   18:52:14.993.09-Sep-2020 5280.51  843.06 74.29 22.00 136.49 2550.44
   18:52:15.193.09-Sep-2020 5280.51  843.46 74.29 22.00 136.69 2550.44
   18:52:15.392.09-Sep-2020 5280.51  843.68 74.29 22.00 136.89 2550.44
   18:52:15.592.09-Sep-2020 5280.51  843.68 74.29 22.00 137.09 2550.44
   18:52:15.792.09-Sep-2020 5280.51  844.50 74.29 22.00 137.29 2550.44
   18:52:15.992.09-Sep-2020 5280.51  844.85 74.29 22.00 137.49 2550.44
   18:52:16.192.09-Sep-2020 5280.51  845.19 74.29 22.00 137.69 2550.44
   18:52:16.392.09-Sep-2020 5280.51  845.71 74.29 22.00 137.89 2550.44
   18:52:16.591.09-Sep-2020 5280.51  845.91 74.29 22.00 138.09 2550.44
   18:52:16.791.09-Sep-2020 5280.51  846.32 74.29 22.00 138.29 2550.44
   18:52:16.991.09-Sep-2020 5280.51  846.68 74.29 22.00 138.49 2550.44
   18:52:17.191.09-Sep-2020 5280.51  847.05 74.29 22.00 138.69 2550.44
   18:52:17.391.09-Sep-2020 5280.51  847.39 74.29 22.00 138.89 2550.44
   18:52:17.591.09-Sep-2020 5280.51  847.39 74.29 22.00 139.09 2550.44
   18:52:17.791.09-Sep-2020 5280.51  848.07 74.29 22.00 139.29 2550.44
   18:52:17.990.09-Sep-2020 5280.51  848.44 74.29 22.00 139.49 2550.44
   18:52:18.190.09-Sep-2020 5280.51  848.83 74.29 22.00 139.69 2550.44
   18:52:18.390.09-Sep-2020 5280.51  849.20 74.29 22.00 139.89 2550.44
   18:52:18.590.09-Sep-2020 5280.51  849.20 74.29 22.00 140.09 2550.44
   18:52:18.790.09-Sep-2020 5280.51  849.17 74.29 22.00 140.29 2550.44
   18:52:18.990.09-Sep-2020 5280.51  850.00 74.29 22.00 140.49 2550.44
   18:52:19.189.09-Sep-2020 5280.51  850.46 74.29 22.00 140.69 2550.44
   18:52:19.389.09-Sep-2020 5280.51  850.79 74.29 22.00 140.89 2550.44
   18:52:19.589.09-Sep-2020 5280.51  850.79 74.29 22.00 141.09 2550.44
   18:52:19.789.09-Sep-2020 5280.51  851.39 74.29 22.00 141.29 2550.44
   18:52:19.989.09-Sep-2020 5280.51  851.21 74.29 22.00 141.49 2550.44
   18:52:20.189.09-Sep-2020 5280.51  852.11 74.29 22.00 141.69 2550.44
   18:52:20.388.09-Sep-2020 5280.51  852.52 74.29 22.00 141.89 2550.44
   18:52:20.588.09-Sep-2020 5280.51  852.80 74.29 22.00 142.09 2550.44
   18:52:20.788.09-Sep-2020 5280.51  853.31 74.29 22.00 142.29 2550.44
   18:52:20.988.09-Sep-2020 5280.51  852.68 74.29 22.00 142.49 2550.44
   18:52:21.188.09-Sep-2020 5280.51  853.99 74.29 22.00 142.69 2550.44
   18:52:21.388.09-Sep-2020 5280.51  854.18 74.29 22.00 142.89 2550.44
   18:52:21.588.09-Sep-2020 5280.51  854.18 74.29 22.00 143.09 2550.44
   18:52:21.787.09-Sep-2020 5280.51  854.76 74.29 22.00 143.29 2550.44
   18:52:21.987.09-Sep-2020 5280.51  855.32 74.29 22.00 143.49 2550.44
   18:52:22.187.09-Sep-2020 5280.51  854.87 74.29 22.00 143.69 2550.44
   18:52:22.387.09-Sep-2020 5280.51  855.75 74.29 22.00 143.89 2550.44
   18:52:22.587.09-Sep-2020 5280.51  855.75 74.29 22.00 144.09 2550.44
   18:52:22.787.09-Sep-2020 5280.51  856.48 74.29 22.00 144.29 2550.44
   18:52:22.986.09-Sep-2020 5280.51  856.95 74.29 22.00 144.49 2550.44
   18:52:23.186.09-Sep-2020 5280.51  857.23 74.29 22.00 144.69 2550.44
   18:52:23.386.09-Sep-2020 5280.51  857.44 74.29 22.00 144.89 2550.44
   18:52:23.586.09-Sep-2020 5280.51  857.44 74.29 22.00 145.09 2550.44
   18:52:23.786.09-Sep-2020 5280.51  858.21 74.29 22.00 145.29 2550.44
   18:52:23.986.09-Sep-2020 5280.51  858.54 74.29 22.00 145.49 2550.44
   18:52:24.186.09-Sep-2020 5280.51  858.86 74.29 22.00 145.69 2550.44
   18:52:24.385.09-Sep-2020 5280.51  859.37 74.29 22.00 145.89 2550.44
   18:52:24.585.09-Sep-2020 5280.51  859.37 74.29 22.00 146.09 2550.44
   18:52:24.785.09-Sep-2020 5280.51  859.92 74.29 22.00 146.29 2550.44
   18:52:24.985.09-Sep-2020 5280.51  860.28 74.29 22.00 146.49 2550.44
   18:52:25.185.09-Sep-2020 5280.51  860.65 74.29 22.00 146.68 2550.44
   18:52:25.385.09-Sep-2020 5280.51  860.92 74.29 22.00 146.88 2550.44
   18:52:25.584.09-Sep-2020 5280.51  860.92 74.29 22.00 147.08 2550.44
   18:52:25.784.09-Sep-2020 5280.51  861.61 74.29 22.00 147.28 2550.44
   18:52:25.984.09-Sep-2020 5280.51  861.98 74.29 22.00 147.48 2550.44
   18:52:26.184.09-Sep-2020 5280.51  862.32 74.29 22.00 147.68 2550.44
   18:52:26.384.09-Sep-2020 5280.51  862.66 74.29 22.00 147.88 2550.44
   18:52:26.584.09-Sep-2020 5280.51  862.66 74.29 22.00 148.08 2550.44
   18:52:26.783.09-Sep-2020 5280.51  863.34 74.29 22.00 148.28 2550.44
   18:52:26.983.09-Sep-2020 5280.51  863.66 74.29 22.00 148.48 2550.44
   18:52:27.183.09-Sep-2020 5280.51  863.35 74.29 22.00 148.68 2550.44
   18:52:27.383.09-Sep-2020 5280.51  864.24 74.29 22.00 148.88 2550.44
   18:52:27.583.09-Sep-2020 5280.51  864.24 74.29 22.00 149.08 2550.44
   18:52:27.783.09-Sep-2020 5280.51  864.92 74.29 22.00 149.28 2550.44
   18:52:27.983.09-Sep-2020 5280.51  865.37 74.29 22.00 149.48 2550.44
   18:52:28.182.09-Sep-2020 5280.51  865.66 74.29 22.00 149.68 2550.44
   18:52:28.382.09-Sep-2020 5280.51  865.99 74.29 22.00 149.88 2550.44
   18:52:28.582.09-Sep-2020 5280.51  865.99 74.29 22.00 150.08 2550.44
   18:52:28.782.09-Sep-2020 5280.51  866.58 74.29 22.00 150.28 2550.44
   18:52:28.982.09-Sep-2020 5280.51  866.89 74.29 22.00 150.48 2550.44
   18:52:29.182.09-Sep-2020 5280.51  867.27 74.29 22.00 150.68 2550.44
   18:52:29.381.09-Sep-2020 5280.51  867.64 74.29 22.00 150.88 2550.44
   18:52:29.581.09-Sep-2020 5280.51  867.64 74.29 22.00 151.08 2550.44
   18:52:29.781.09-Sep-2020 5280.51  868.24 74.29 22.00 151.28 2550.44
   18:52:29.981.09-Sep-2020 5280.51  868.54 74.29 22.00 151.48 2550.44
   18:52:30.181.09-Sep-2020 5280.51  868.88 74.29 22.00 151.68 2550.44
   18:52:30.381.09-Sep-2020 5280.51  868.20 74.29 22.00 151.88 2550.44
   18:52:30.580.09-Sep-2020 5280.51  868.20 74.29 22.00 152.08 2550.44
   18:52:30.780.09-Sep-2020 5280.51  869.83 74.29 22.00 152.28 2550.44
   18:52:30.980.09-Sep-2020 5280.51  870.13 74.29 22.00 152.48 2550.44
   18:52:31.180.09-Sep-2020 5280.51  870.36 74.29 22.00 152.68 2550.44
   18:52:31.380.09-Sep-2020 5280.51  870.93 74.29 22.00 152.88 2550.44
   18:52:31.580.09-Sep-2020 5280.51  870.93 74.29 22.00 153.08 2550.44
   18:52:31.780.09-Sep-2020 5280.51  871.38 74.29 22.00 153.28 2550.44
   18:52:31.979.09-Sep-2020 5280.51  871.72 74.29 22.00 153.48 2550.44
   18:52:32.179.09-Sep-2020 5280.51  871.95 74.29 22.00 153.68 2550.44
   18:52:32.379.09-Sep-2020 5280.51  871.77 74.29 22.00 153.88 2550.44
   18:52:32.579.09-Sep-2020 5280.51  871.77 74.29 22.00 154.08 2550.44
   18:52:32.779.09-Sep-2020 5280.51  873.01 74.29 22.00 154.28 2550.44
   18:52:32.979.09-Sep-2020 5280.51  873.27 74.29 22.00 154.48 2550.44
   18:52:33.178.09-Sep-2020 5280.51  873.76 74.29 22.00 154.68 2550.44
   18:52:33.378.09-Sep-2020 5280.51  873.92 74.29 22.00 154.88 2550.44
   18:52:33.578.09-Sep-2020 5280.51  873.92 74.29 22.00 155.08 2550.44
   18:52:33.778.09-Sep-2020 5280.51  873.76 74.29 22.00 155.28 2550.44
   18:52:33.978.09-Sep-2020 5280.51  874.95 74.29 22.00 155.48 2550.44
   18:52:34.178.09-Sep-2020 5280.51  875.13 74.29 22.00 155.68 2550.44
   18:52:34.378.09-Sep-2020 5280.51  875.50 74.29 22.00 155.88 2550.44
   18:52:34.577.09-Sep-2020 5280.51  875.50 74.29 22.00 156.08 2550.44
   18:52:34.777.09-Sep-2020 5280.51  876.23 74.29 22.00 156.28 2550.44
   18:52:34.977.09-Sep-2020 5280.51  875.40 74.29 22.00 156.48 2550.44
   18:52:35.177.09-Sep-2020 5280.51  877.08 74.29 22.00 156.68 2550.44
   18:52:35.377.09-Sep-2020 5280.51  877.05 74.29 22.00 156.88 2550.44
   18:52:35.577.09-Sep-2020 5280.51  877.05 74.29 22.00 157.08 2550.44
   18:52:35.776.09-Sep-2020 5280.51  877.62 74.29 22.00 157.28 2550.44
   18:52:35.976.09-Sep-2020 5280.51  878.20 74.29 22.00 157.48 2550.44
   18:52:36.176.09-Sep-2020 5280.51  878.40 74.29 22.00 157.68 2550.44
   18:52:36.376.09-Sep-2020 5280.51  878.70 74.29 22.00 157.88 2550.44
