~Version Information
 VERS.                  2.0:   CWLS log ASCII Standard -VERSION 2.0
 WRAP.                   NO:   One line per depth step
~Well Information Block
#MNEM.UNIT     VALUE/NAME     DESCRIPTION
#---------     -----------    ---------------------------
 STRT.S             12:49:18 09-Sep-20: START TIME 12:49:18 09-Sep-20
 STOP.S             12:55:59 09-Sep-20: STOP TIME  12:55:59 09-Sep-20
 STEP.S                   0.00: STEP TIME
 NULL.                 -999.25: NULL VALUE
 MDS .        Operator Entered:  MAG DATA SOURCE
 PDAT.          Mean Sea Level:  PERMANENT DATUM
 DCON.         Sperry Drilling:  DIRECTNL CONTR
 RIG .              West Azeri:  RIG NAME
 WELL.           C40 (Slot 20):  WELL NAME
 SRVC.     Turan Drilling Engineering:  CONTRACTOR
 FLD .                     ACG:  FIELD NAME
 CTRY.              Azerbaijan:  COUNTRY NAME
 PROV.                    Baku:  PROVINCE
 STAT.                    Baku:  STATE NAME
 REGN.                   EESSA:  REGION
 BASE.              Azerbaijan:  LOGGING EQUIPMENT BASE LOCATION
 COMP.     BP Exploration (Caspian Sea) Ltd:  COMPANY
 WTYP.                Deviated:  WELL TYPE
 SON .        AZ-XX-0906344804:  JOB NUMBER
 FTOP.          Formation Tops:  FORM TOPS DESC
 ILTD.               Lithology:  INTERP LTH DESC
 SVYD.                  Survey:  SURVEY DESC
 DMOD.             Drill Model:  DRILL MOD DESC
 HPTY.       Minimum Curvature:  HOLE POS TYPE
 NREF.                    Grid:  NORTH REFERENCE
 SPUD.               01-Jan-20:  SPUD DATE
 DATE.      00.59.44 15-Sep-20:  END TIME
 STIM.      12.00.00 12-Jun-20:  START TIME
 DMF .             Drill Floor:  DRILL MEAS FROM
 DFST.                        :  DIST FSL TEXT
 DFWT.                        :  DIST FWL TEXT
 API .                        :  API NUMBER
 CNTY.                        :  COUNTY
 UWI .                        :  UNIQUE WELL IDENTIFIER
 LOC .                        :  LOCATION
 LMF .             Drill Floor:  LOG MEASURED FROM
 VSNS.m                   2.88:  VERT SEC N/S
 VSEW.m                  -3.84:  VERT SEC E/W
 AGAP.m                  43.42:  AIR GAP
 APD .m                  43.42:  DEPTH ABOVE PD
 WDMS.m                 118.27:  WD ELEV
 EGL .m                   0.00:  GROUND ELEVATION
 EPD .m                   0.00:  ELEVATION
 AZTC.deg                 6.23:  AZM TOTAL CORR
 GRDC.deg                 0.20:  GRID CORRECTION
 MDEC.deg                 6.43:  MAGNETIC DECL
 MDIP.deg                59.49:  MAGNETIC DIP
 MFLD.nT              50277.00:  MAGNETIC FIELD
 GVFD.g                   1.00:  GRAVITY FIELD
 VSDR.deg               173.20:  VERT SEC DIRECT
 TDD .m                5790.01:  TOTAL DEPTH (DRILLER)
 SDEP.m                5231.01:  START DEPTH
 DFSL.m                   0.00:  DISTANCE FSL
 DFWL.m                   0.00:  DISTANCE FWL
 UTMY.m             4435808.83:  UTM Y
 UTMX.m              526266.40:  UTM X
 WHEW.m                  -3.84:  WELL HEAD E/W
 WHNS.m                   2.88:  WELL HEAD N/S
 LONG.deg                51.31:  LONGITUDE
 LATI.deg                40.06:  LATITUDE
 TVDS.m                  43.42:  TVDSS CORRECTN
 DEP .m                 430.08:  DEPTH
 EKB .m                  43.42:  KB ELEVATION
 EDF .m                  43.42:  DF ELEVATION
 TDL .m                 559.00:  TOTAL DEPTH (LOGGER)
 MAGU.                 1849381:  MAGUTM CHECKSUM
 VSC .                       0:  VS TO CLOSURE
~Parameter Information Block
#MNEM.UNIT       Value        Description
#---------     -----------    ---------------------------
 AV  .mps                 4.87:  Ann Velocity 
 AVMX.mps                 7.08:  Max Ann Veloc 
 AZIF.deg               108.87:  Azm, Final 
 BHAT.                  Rotary:  BHA Type 
 BROT.°/30m               0.35:  Build Rotating 
 BS  .in                  8.50:  Bit Size 
 BSZ .in                  8.50:  Bit Size 
 BTPL.psig              360.00:  Bit Press Loss 
 CABU.                     Yes:  Customer Abuse 
 COMM.                     ¤C}:  Run Comments 1 
 TCS .hr                106.24:  Time Ciculation Ended 
 CV  .mps                 1.77:  Crit Velocity 
 CVMX.mps                 2.03:  Max Crit Veloc 
 DD1 .         Aykhan Agagulov:  Direct Drillr 1 
 DD2 .            Nonso Okofor:  Direct Drillr 2 
 DDSV.               Geo-Pilot:  DD Service 
 DEFF.%                  98.00:  % Det Eff 
 DLRX.°/30m               0.50:  Dogleg Rot Max 
 DLSO.°/30m               0.40:  Dogleg Oriented 
 DLSX.°/30m               0.94:  Dogleg Str Max 
 DRET.      20.30.00 08-Sep-20:  Drill End Time 
 DRST.      22.15.00 06-Sep-20:  Drill Start Tim 
 DTIM.hr                 31.31:  Time Drilling 
 EDEP.m                5790.01:  End Depth 
 ENG1.           Amrah Tahirov:  Engineer 1 
 ENG2.         Dair Mahammadov:  Engineer 2 
 ENG3.           Emil Huseynov:  Engineer 3 
 ETIM.      04.01.04 12-Sep-20:  End Time 
 FLOI.gpm               450.00:  Flow In 
 FLON.gpm               450.00:  Flow In Min 
 FLOS.cptm                2.00:  Fluid Loss 
 FLOX.gpm               450.00:  Flow In Max 
 FTRO.       Formation Presure:  FTWD Run Obj 
 HFLO.                      No:  High Flow 
 HPRE.                      No:  High Pressure 
 HTEM.                      No:  High Temp 
 HYDO.m                   1.80:  Hydro Offset 
 IFIN.deg                72.03:  Inc, Final 
 IMAX.deg                73.72:  Inc Max 
 IMIN.deg                70.94:  Inc Min 
 IMND.m                5508.52:  Inc Min Depth 
 IMXD.m                5253.60:  Inc Max Depth 
 JARR.                      No:  Jarring 
 LETM.      20.30.00 08-Sep-20:  Log End Time 
 LOST.hr                     0:  Lost Rig Time 
 LSTM.      22.15.00 06-Sep-20:  Log Start Time 
 MDCL.ppm             36000.00:  Mud Chlorides 
 MDES.     Inversion Oil/Synthetic:  Mud Desc 
 DFD .sg                  1.44:  Mud Density 
 MDMN.sg                  1.44:  Dens Mud Min 
 MDMX.sg                  1.57:  Dens Mud Max 
 MOIL.                      70:  Run Mud Oil % 
 MOWR.                   70:30:  Run Mud OWR 
 MSND.                       0:  Run Mud Sand % 
 MSOL.                      21:  Run Mud Solids% 
 DFV .spqt               68.00:  Mud Viscosity 
 MWOD.in                  6.75:  MWD Tool OD 
 MWSI.                     Yes:  Serv Intrp, MWD 
 OTIM.hr                174.84:  Time Operating 
 PCON.           Look Like New:  Pad Condition 
 PMAX.psia            10616.93:  Press Op, Max 
 PV  .cP                 50.00:  Mud PV 
 RUN .                     700:  Run Number 
 ROPA.m/hr               14.24:  ROP Avg 
 ROPN.m/hr               10.00:  ROP Min 
 ROPX.m/hr               32.00:  ROP Max 
 RPMA.rpm               120.90:  RPM Surface Avg 
 RPMN.rpm               120.00:  RPM Surface Min 
 RPMX.rpm               140.00:  RPM Surface Max 
 RRUN.                    0700:  Rig Run Number 
 RTIM.hr                  3.20:  Time Reaming 
 SAZI.deg               109.99:  Azm, Start 
 SDEP.m                5231.01:  Start Depth 
 SIDD.                      No:  Serv Intrp, DD 
 SINC.deg                73.72:  Inc, Start 
 SPPA.psig             3051.00:  SPP Avg 
 SPPN.psig             2950.00:  SPP Min 
 SPPX.psig             3250.00:  SPP Max 
 STIM.      08.00.00 05-Sep-20:  Start Time 
 SVCS.                 DD, MWD:  Services 
 SVER.                    9.20:  Sperry Version 
 TDAT.m                 559.00:  Tot Depth Attmp 
 TDDF.                      No:  Trip for DD 
 TDLG.m                 559.00:  Tot Depth Loggd 
 TFF .                      No:  Trip for Fail 
 TQAA.f-kp               26.49:  Torque Abs Avg 
 TQAN.f-kp               25.00:  Torque Abs Min 
 TQAX.f-kp               27.00:  Torque Abs Max 
 TRRT.°/30m               1.50:  Turn Rotating 
 MRT .                    HCIM:  Maximum Recorded Temperature 
 TTMX.degC               90.20:  Max Tool Temp 
 VS01.                90542671:  Virtual Str1 SN 
 VS02.                90545185:  Virtual Str2 SN 
 VS03.                90602015:  Virtual Str3 SN 
 VS04.                90515230:  Virtual Str4 SN 
 WBMN.klb                 5.00:  WOB Min 
 WOBA.klb                14.79:  WOB Avg 
 WOBX.klb                20.00:  WOB Max 
 YP  .lhf2               29.00:  Yield Point 
~Curve Information Block
#MNEM.UNIT                 API CODE     Curve Description
#---------               -----------    ---------------------------
 TIME.HHMMSS            00 000 000 000:  GT Time & Date
 GTDEPTH.m              00 000 000 000:  GT Depth
 GTPQH.psia             00 000 000 000:  GT HR Quartz Pressure
 GTTQ.degC              00 000 000 000:  GT Quartz Temperature
 GTTN.NONE              00 000 000 000:  GT Test Number
 GTET.sec               00 000 000 000:  GT Elapsed Test Time
 GTTVD.m                00 000 000 000:  GT True Vertical Depth
#Other Information
#
#WARRANTY: Halliburton will use its best efforts to furnish customers with 
#accurate information and interpretations that are part of, and incident to, the services 
#provided.  However, Halliburton cannot and does not warrant the accuracy 
#or correctness of such information and interpretations.  Under no circumstances should any 
#such information or interpretation be relied upon as the sole basis for any drilling, 
#completion, production, or financial decision or any procedure involving any risk to the 
#safety of any drilling venture, drilling rig or its crew or any other third party.  The 
#Customer has full responsibility for all drilling, completion and production operation.  
#Halliburton makes no representations or warranties, either expressed or 
#implied, including, but not limited to, the implied warranties of merchantability or fitness 
#for a particular purpose, with respect to the services rendered.  In no event will 
#Halliburton be liable for failure to obtain any particular results or for 
#any damages, including, but not limited to, indirect, special or consequential damages, 
#resulting from the use of any information or interpretation provided by Halliburton.
#
~A           TIME           GTDEPTH  GTPQH  GTTQ  GTTN   GTET   GTTVD  
# ...
   12:51:11.000.09-Sep-2020 5424.51 1790.83 75.45 14.00 113.00 2594.79
   12:51:11.200.09-Sep-2020 5424.51 1790.83 75.45 14.00 113.20 2594.79
   12:51:11.400.09-Sep-2020 5424.51 1797.11 75.45 14.00 113.40 2594.79
   12:51:11.600.09-Sep-2020 5424.51 1798.85 75.45 14.00 113.60 2594.79
   12:51:11.800.09-Sep-2020 5424.51 1800.99 75.45 14.00 113.80 2594.79
   12:51:12.000.09-Sep-2020 5424.51 1804.13 75.45 14.00 114.00 2594.79
   12:51:12.200.09-Sep-2020 5424.51 1804.13 75.45 14.00 114.20 2594.79
   12:51:12.400.09-Sep-2020 5424.51 1809.65 75.45 14.00 114.40 2594.79
   12:51:12.600.09-Sep-2020 5424.51 1813.42 75.45 14.00 114.60 2594.79
   12:51:12.800.09-Sep-2020 5424.51 1816.64 75.45 14.00 114.80 2594.79
   12:51:13.000.09-Sep-2020 5424.51 1819.83 75.45 14.00 115.00 2594.79
   12:51:13.200.09-Sep-2020 5424.51 1819.83 75.45 14.00 115.20 2594.79
   12:51:13.400.09-Sep-2020 5424.51 1826.11 75.45 14.00 115.40 2594.79
   12:51:13.600.09-Sep-2020 5424.51 1829.27 75.45 14.00 115.60 2594.79
   12:51:13.800.09-Sep-2020 5424.51 1832.42 75.45 14.00 115.80 2594.79
   12:51:14.000.09-Sep-2020 5424.51 1835.57 75.45 14.00 116.00 2594.79
   12:51:14.200.09-Sep-2020 5424.51 1835.57 75.45 14.00 116.20 2594.79
   12:51:14.400.09-Sep-2020 5424.51 1841.81 75.45 14.00 116.40 2594.79
   12:51:14.600.09-Sep-2020 5424.51 1844.85 75.45 14.00 116.60 2594.79
   12:51:14.800.09-Sep-2020 5424.51 1847.88 75.45 14.00 116.80 2594.79
   12:51:15.000.09-Sep-2020 5424.51 1850.94 75.45 14.00 117.00 2594.79
   12:51:15.200.09-Sep-2020 5424.51 1850.94 75.45 14.00 117.20 2594.79
   12:51:15.400.09-Sep-2020 5424.51 1857.06 75.45 14.00 117.40 2594.79
   12:51:15.600.09-Sep-2020 5424.51 1858.98 75.45 14.00 117.60 2594.79
   12:51:15.800.09-Sep-2020 5424.51 1862.03 75.45 14.00 117.80 2594.79
   12:51:16.000.09-Sep-2020 5424.51 1864.22 75.45 14.00 118.00 2594.79
   12:51:16.200.09-Sep-2020 5424.51 1864.22 75.45 14.00 118.20 2594.79
   12:51:16.400.09-Sep-2020 5424.51 1870.39 75.45 14.00 118.40 2594.79
   12:51:16.600.09-Sep-2020 5424.51 1873.70 75.45 14.00 118.60 2594.79
   12:51:16.800.09-Sep-2020 5424.51 1875.81 75.45 14.00 118.80 2594.79
   12:51:17.000.09-Sep-2020 5424.51 1879.62 75.45 14.00 119.00 2594.79
   12:51:17.200.09-Sep-2020 5424.51 1879.62 75.45 14.00 119.20 2594.79
   12:51:17.400.09-Sep-2020 5424.51 1885.96 75.45 14.00 119.40 2594.79
   12:51:17.600.09-Sep-2020 5424.51 1889.32 75.45 14.00 119.60 2594.79
   12:51:17.800.09-Sep-2020 5424.51 1892.24 75.45 14.00 119.80 2594.79
   12:51:18.000.09-Sep-2020 5424.51 1895.34 75.45 14.00 120.00 2594.79
   12:51:18.200.09-Sep-2020 5424.51 1895.34 75.45 14.00 120.20 2594.79
   12:51:18.400.09-Sep-2020 5424.51 1901.70 75.45 14.00 120.40 2594.79
   12:51:18.600.09-Sep-2020 5424.51 1904.62 75.45 14.00 120.60 2594.79
   12:51:18.800.09-Sep-2020 5424.51 1907.71 75.45 14.00 120.80 2594.79
   12:51:19.000.09-Sep-2020 5424.51 1909.66 75.45 14.00 121.00 2594.79
   12:51:19.200.09-Sep-2020 5424.51 1909.66 75.45 14.00 121.20 2594.79
   12:51:19.400.09-Sep-2020 5424.51 1915.93 75.45 14.00 121.40 2594.79
   12:51:19.600.09-Sep-2020 5424.51 1919.14 75.45 14.00 121.60 2594.79
   12:51:19.800.09-Sep-2020 5424.51 1922.31 75.45 14.00 121.80 2594.79
   12:51:20.000.09-Sep-2020 5424.51 1925.58 75.45 14.00 122.00 2594.79
   12:51:20.200.09-Sep-2020 5424.51 1925.58 75.45 14.00 122.20 2594.79
   12:51:20.400.09-Sep-2020 5424.51 1931.25 75.45 14.00 122.40 2594.79
   12:51:20.600.09-Sep-2020 5424.51 1933.90 75.45 14.00 122.60 2594.79
   12:51:20.800.09-Sep-2020 5424.51 1937.71 75.45 14.00 122.80 2594.79
   12:51:21.000.09-Sep-2020 5424.51 1940.88 75.45 14.00 123.00 2594.79
   12:51:21.200.09-Sep-2020 5424.51 1940.88 75.45 14.00 123.20 2594.79
   12:51:21.400.09-Sep-2020 5424.51 1947.19 75.45 14.00 123.40 2594.79
   12:51:21.600.09-Sep-2020 5424.51 1950.03 75.45 14.00 123.60 2594.79
   12:51:21.800.09-Sep-2020 5424.51 1953.10 75.45 14.00 123.80 2594.79
   12:51:22.000.09-Sep-2020 5424.51 1956.10 75.45 14.00 124.00 2594.79
   12:51:22.200.09-Sep-2020 5424.51 1956.10 75.45 14.00 124.20 2594.79
   12:51:22.400.09-Sep-2020 5424.51 1961.99 75.45 14.00 124.40 2594.79
   12:51:22.600.09-Sep-2020 5424.51 1964.90 75.45 14.00 124.60 2594.79
   12:51:22.800.09-Sep-2020 5424.51 1967.83 75.45 14.00 124.80 2594.79
   12:51:23.000.09-Sep-2020 5424.51 1968.15 75.45 14.00 125.00 2594.79
   12:51:23.200.09-Sep-2020 5424.51 1968.15 75.45 14.00 125.20 2594.79
   12:51:23.400.09-Sep-2020 5424.51 1973.29 75.45 14.00 125.40 2594.79
   12:51:23.600.09-Sep-2020 5424.51 1976.18 75.45 14.00 125.60 2594.79
   12:51:23.800.09-Sep-2020 5424.51 1979.07 75.45 14.00 125.80 2594.79
   12:51:24.000.09-Sep-2020 5424.51 1981.94 75.45 14.00 126.00 2594.79
   12:51:24.200.09-Sep-2020 5424.51 1981.94 75.45 14.00 126.20 2594.79
   12:51:24.400.09-Sep-2020 5424.51 1987.38 75.45 14.00 126.40 2594.79
   12:51:24.600.09-Sep-2020 5424.51 1990.46 75.45 14.00 126.60 2594.79
   12:51:24.800.09-Sep-2020 5424.51 1993.36 75.45 14.00 126.80 2594.79
   12:51:25.000.09-Sep-2020 5424.51 1996.47 75.45 14.00 127.00 2594.79
   12:51:25.200.09-Sep-2020 5424.51 1996.47 75.45 14.00 127.20 2594.79
   12:51:25.400.09-Sep-2020 5424.51 2002.14 75.46 14.00 127.40 2594.79
   12:51:25.600.09-Sep-2020 5424.51 2005.01 75.46 14.00 127.60 2594.79
   12:51:25.800.09-Sep-2020 5424.51 2007.87 75.46 14.00 127.80 2594.79
   12:51:26.000.09-Sep-2020 5424.51 2010.69 75.46 14.00 128.00 2594.79
   12:51:26.200.09-Sep-2020 5424.51 2010.69 75.46 14.00 128.20 2594.79
   12:51:26.400.09-Sep-2020 5424.51 2016.47 75.46 14.00 128.40 2594.79
   12:51:26.600.09-Sep-2020 5424.51 2019.31 75.46 14.00 128.60 2594.79
   12:51:26.800.09-Sep-2020 5424.51 2022.09 75.46 14.00 128.80 2594.79
   12:51:27.000.09-Sep-2020 5424.51 2024.86 75.46 14.00 129.00 2594.79
   12:51:27.200.09-Sep-2020 5424.51 2024.86 75.46 14.00 129.20 2594.79
   12:51:27.400.09-Sep-2020 5424.51 2030.16 75.46 14.00 129.40 2594.79
   12:51:27.600.09-Sep-2020 5424.51 2032.17 75.46 14.00 129.60 2594.79
   12:51:27.800.09-Sep-2020 5424.51 2034.99 75.46 14.00 129.80 2594.79
   12:51:28.000.09-Sep-2020 5424.51 2037.85 75.46 14.00 130.00 2594.79
   12:51:28.200.09-Sep-2020 5424.51 2037.85 75.46 14.00 130.20 2594.79
   12:51:28.400.09-Sep-2020 5424.51 2043.63 75.46 14.00 130.40 2594.79
   12:51:28.600.09-Sep-2020 5424.51 2045.14 75.46 14.00 130.60 2594.79
   12:51:28.800.09-Sep-2020 5424.51 2049.21 75.46 14.00 130.80 2594.79
   12:51:29.000.09-Sep-2020 5424.51 2051.95 75.46 14.00 131.00 2594.79
   12:51:29.200.09-Sep-2020 5424.51 2051.95 75.46 14.00 131.20 2594.79
   12:51:29.400.09-Sep-2020 5424.51 2057.58 75.46 14.00 131.40 2594.79
   12:51:29.600.09-Sep-2020 5424.51 2059.59 75.46 14.00 131.60 2594.79
   12:51:29.800.09-Sep-2020 5424.51 2063.48 75.46 14.00 131.80 2594.79
   12:51:30.000.09-Sep-2020 5424.51 2066.24 75.46 14.00 132.00 2594.79
   12:51:30.200.09-Sep-2020 5424.51 2069.26 75.46 14.00 132.20 2594.79
   12:51:30.400.09-Sep-2020 5424.51 2072.04 75.46 14.00 132.40 2594.79
   12:51:30.600.09-Sep-2020 5424.51 2073.91 75.46 14.00 132.60 2594.79
   12:51:30.800.09-Sep-2020 5424.51 2074.86 75.46 14.00 132.80 2594.79
   12:51:31.000.09-Sep-2020 5424.51 2077.23 75.46 14.00 133.00 2594.79
   12:51:31.200.09-Sep-2020 5424.51 2077.23 75.46 14.00 133.20 2594.79
   12:51:31.400.09-Sep-2020 5424.51 2083.80 75.46 14.00 133.40 2594.79
   12:51:31.600.09-Sep-2020 5424.51 2086.69 75.46 14.00 133.60 2594.79
   12:51:31.800.09-Sep-2020 5424.51 2089.77 75.46 14.00 133.80 2594.79
   12:51:32.000.09-Sep-2020 5424.51 2092.38 75.46 14.00 134.00 2594.79
   12:51:32.200.09-Sep-2020 5424.51 2092.38 75.46 14.00 134.20 2594.79
   12:51:32.400.09-Sep-2020 5424.51 2098.22 75.46 14.00 134.40 2594.79
   12:51:32.600.09-Sep-2020 5424.51 2100.91 75.46 14.00 134.60 2594.79
   12:51:32.800.09-Sep-2020 5424.51 2103.81 75.46 14.00 134.80 2594.79
   12:51:33.000.09-Sep-2020 5424.51 2106.61 75.46 14.00 135.00 2594.79
   12:51:33.200.09-Sep-2020 5424.51 2106.61 75.46 14.00 135.20 2594.79
   12:51:33.400.09-Sep-2020 5424.51 2112.32 75.46 14.00 135.40 2594.79
