~Version Information
 VERS.                  2.0:   CWLS log ASCII Standard -VERSION 2.0
 WRAP.                   NO:   One line per depth step
~Well Information Block
#MNEM.UNIT     VALUE/NAME     DESCRIPTION
#---------     -----------    ---------------------------
 STRT.S             08:13:58 09-Sep-20: START TIME 08:13:58 09-Sep-20
 STOP.S             08:20:59 09-Sep-20: STOP TIME  08:20:59 09-Sep-20
 STEP.S                   0.00: STEP TIME
 NULL.                 -999.25: NULL VALUE
 MDS .        Operator Entered:  MAG DATA SOURCE
 PDAT.          Mean Sea Level:  PERMANENT DATUM
 DCON.         Sperry Drilling:  DIRECTNL CONTR
 RIG .              West Azeri:  RIG NAME
 WELL.           C40 (Slot 20):  WELL NAME
 SRVC.     Turan Drilling Engineering:  CONTRACTOR
 FLD .                     ACG:  FIELD NAME
 CTRY.              Azerbaijan:  COUNTRY NAME
 PROV.                    Baku:  PROVINCE
 STAT.                    Baku:  STATE NAME
 REGN.                   EESSA:  REGION
 BASE.              Azerbaijan:  LOGGING EQUIPMENT BASE LOCATION
 COMP.     BP Exploration (Caspian Sea) Ltd:  COMPANY
 WTYP.                Deviated:  WELL TYPE
 SON .        AZ-XX-0906344804:  JOB NUMBER
 FTOP.          Formation Tops:  FORM TOPS DESC
 ILTD.               Lithology:  INTERP LTH DESC
 SVYD.                  Survey:  SURVEY DESC
 DMOD.             Drill Model:  DRILL MOD DESC
 HPTY.       Minimum Curvature:  HOLE POS TYPE
 NREF.                    Grid:  NORTH REFERENCE
 SPUD.               01-Jan-20:  SPUD DATE
 DATE.      00.59.44 15-Sep-20:  END TIME
 STIM.      12.00.00 12-Jun-20:  START TIME
 DMF .             Drill Floor:  DRILL MEAS FROM
 DFST.                        :  DIST FSL TEXT
 DFWT.                        :  DIST FWL TEXT
 API .                        :  API NUMBER
 CNTY.                        :  COUNTY
 UWI .                        :  UNIQUE WELL IDENTIFIER
 LOC .                        :  LOCATION
 LMF .             Drill Floor:  LOG MEASURED FROM
 VSNS.m                   2.88:  VERT SEC N/S
 VSEW.m                  -3.84:  VERT SEC E/W
 AGAP.m                  43.42:  AIR GAP
 APD .m                  43.42:  DEPTH ABOVE PD
 WDMS.m                 118.27:  WD ELEV
 EGL .m                   0.00:  GROUND ELEVATION
 EPD .m                   0.00:  ELEVATION
 AZTC.deg                 6.23:  AZM TOTAL CORR
 GRDC.deg                 0.20:  GRID CORRECTION
 MDEC.deg                 6.43:  MAGNETIC DECL
 MDIP.deg                59.49:  MAGNETIC DIP
 MFLD.nT              50277.00:  MAGNETIC FIELD
 GVFD.g                   1.00:  GRAVITY FIELD
 VSDR.deg               173.20:  VERT SEC DIRECT
 TDD .m                5790.01:  TOTAL DEPTH (DRILLER)
 SDEP.m                5231.01:  START DEPTH
 DFSL.m                   0.00:  DISTANCE FSL
 DFWL.m                   0.00:  DISTANCE FWL
 UTMY.m             4435808.83:  UTM Y
 UTMX.m              526266.40:  UTM X
 WHEW.m                  -3.84:  WELL HEAD E/W
 WHNS.m                   2.88:  WELL HEAD N/S
 LONG.deg                51.31:  LONGITUDE
 LATI.deg                40.06:  LATITUDE
 TVDS.m                  43.42:  TVDSS CORRECTN
 DEP .m                 430.08:  DEPTH
 EKB .m                  43.42:  KB ELEVATION
 EDF .m                  43.42:  DF ELEVATION
 TDL .m                 559.00:  TOTAL DEPTH (LOGGER)
 MAGU.                 1849381:  MAGUTM CHECKSUM
 VSC .                       0:  VS TO CLOSURE
~Parameter Information Block
#MNEM.UNIT       Value        Description
#---------     -----------    ---------------------------
 AV  .mps                 4.87:  Ann Velocity 
 AVMX.mps                 7.08:  Max Ann Veloc 
 AZIF.deg               108.87:  Azm, Final 
 BHAT.                  Rotary:  BHA Type 
 BROT.°/30m               0.35:  Build Rotating 
 BS  .in                  8.50:  Bit Size 
 BSZ .in                  8.50:  Bit Size 
 BTPL.psig              360.00:  Bit Press Loss 
 CABU.                     Yes:  Customer Abuse 
 COMM.                     t›a:  Run Comments 1 
 TCS .hr                106.24:  Time Ciculation Ended 
 CV  .mps                 1.77:  Crit Velocity 
 CVMX.mps                 2.03:  Max Crit Veloc 
 DD1 .         Aykhan Agagulov:  Direct Drillr 1 
 DD2 .            Nonso Okofor:  Direct Drillr 2 
 DDSV.               Geo-Pilot:  DD Service 
 DEFF.%                  98.00:  % Det Eff 
 DLRX.°/30m               0.50:  Dogleg Rot Max 
 DLSO.°/30m               0.40:  Dogleg Oriented 
 DLSX.°/30m               0.94:  Dogleg Str Max 
 DRET.      20.30.00 08-Sep-20:  Drill End Time 
 DRST.      22.15.00 06-Sep-20:  Drill Start Tim 
 DTIM.hr                 31.31:  Time Drilling 
 EDEP.m                5790.01:  End Depth 
 ENG1.           Amrah Tahirov:  Engineer 1 
 ENG2.         Dair Mahammadov:  Engineer 2 
 ENG3.           Emil Huseynov:  Engineer 3 
 ETIM.      04.01.04 12-Sep-20:  End Time 
 FLOI.gpm               450.00:  Flow In 
 FLON.gpm               450.00:  Flow In Min 
 FLOS.cptm                2.00:  Fluid Loss 
 FLOX.gpm               450.00:  Flow In Max 
 FTRO.       Formation Presure:  FTWD Run Obj 
 HFLO.                      No:  High Flow 
 HPRE.                      No:  High Pressure 
 HTEM.                      No:  High Temp 
 HYDO.m                   1.80:  Hydro Offset 
 IFIN.deg                72.03:  Inc, Final 
 IMAX.deg                73.72:  Inc Max 
 IMIN.deg                70.94:  Inc Min 
 IMND.m                5508.52:  Inc Min Depth 
 IMXD.m                5253.60:  Inc Max Depth 
 JARR.                      No:  Jarring 
 LETM.      20.30.00 08-Sep-20:  Log End Time 
 LOST.hr                     0:  Lost Rig Time 
 LSTM.      22.15.00 06-Sep-20:  Log Start Time 
 MDCL.ppm             36000.00:  Mud Chlorides 
 MDES.     Inversion Oil/Synthetic:  Mud Desc 
 DFD .sg                  1.44:  Mud Density 
 MDMN.sg                  1.44:  Dens Mud Min 
 MDMX.sg                  1.57:  Dens Mud Max 
 MOIL.                      70:  Run Mud Oil % 
 MOWR.                   70:30:  Run Mud OWR 
 MSND.                       0:  Run Mud Sand % 
 MSOL.                      21:  Run Mud Solids% 
 DFV .spqt               68.00:  Mud Viscosity 
 MWOD.in                  6.75:  MWD Tool OD 
 MWSI.                     Yes:  Serv Intrp, MWD 
 OTIM.hr                174.84:  Time Operating 
 PCON.           Look Like New:  Pad Condition 
 PMAX.psia            10616.93:  Press Op, Max 
 PV  .cP                 50.00:  Mud PV 
 RUN .                     700:  Run Number 
 ROPA.m/hr               14.24:  ROP Avg 
 ROPN.m/hr               10.00:  ROP Min 
 ROPX.m/hr               32.00:  ROP Max 
 RPMA.rpm               120.90:  RPM Surface Avg 
 RPMN.rpm               120.00:  RPM Surface Min 
 RPMX.rpm               140.00:  RPM Surface Max 
 RRUN.                    0700:  Rig Run Number 
 RTIM.hr                  3.20:  Time Reaming 
 SAZI.deg               109.99:  Azm, Start 
 SDEP.m                5231.01:  Start Depth 
 SIDD.                      No:  Serv Intrp, DD 
 SINC.deg                73.72:  Inc, Start 
 SPPA.psig             3051.00:  SPP Avg 
 SPPN.psig             2950.00:  SPP Min 
 SPPX.psig             3250.00:  SPP Max 
 STIM.      08.00.00 05-Sep-20:  Start Time 
 SVCS.                 DD, MWD:  Services 
 SVER.                    9.20:  Sperry Version 
 TDAT.m                 559.00:  Tot Depth Attmp 
 TDDF.                      No:  Trip for DD 
 TDLG.m                 559.00:  Tot Depth Loggd 
 TFF .                      No:  Trip for Fail 
 TQAA.f-kp               26.49:  Torque Abs Avg 
 TQAN.f-kp               25.00:  Torque Abs Min 
 TQAX.f-kp               27.00:  Torque Abs Max 
 TRRT.°/30m               1.50:  Turn Rotating 
 MRT .                    HCIM:  Maximum Recorded Temperature 
 TTMX.degC               90.20:  Max Tool Temp 
 VS01.                90542671:  Virtual Str1 SN 
 VS02.                90545185:  Virtual Str2 SN 
 VS03.                90602015:  Virtual Str3 SN 
 VS04.                90515230:  Virtual Str4 SN 
 WBMN.klb                 5.00:  WOB Min 
 WOBA.klb                14.79:  WOB Avg 
 WOBX.klb                20.00:  WOB Max 
 YP  .lhf2               29.00:  Yield Point 
~Curve Information Block
#MNEM.UNIT                 API CODE     Curve Description
#---------               -----------    ---------------------------
 TIME.HHMMSS            00 000 000 000:  GT Time & Date
 GTDEPTH.m              00 000 000 000:  GT Depth
 GTPQH.psia             00 000 000 000:  GT HR Quartz Pressure
 GTTQ.degC              00 000 000 000:  GT Quartz Temperature
 GTTN.NONE              00 000 000 000:  GT Test Number
 GTET.sec               00 000 000 000:  GT Elapsed Test Time
 GTTVD.m                00 000 000 000:  GT True Vertical Depth
#Other Information
#
#WARRANTY: Halliburton will use its best efforts to furnish customers with 
#accurate information and interpretations that are part of, and incident to, the services 
#provided.  However, Halliburton cannot and does not warrant the accuracy 
#or correctness of such information and interpretations.  Under no circumstances should any 
#such information or interpretation be relied upon as the sole basis for any drilling, 
#completion, production, or financial decision or any procedure involving any risk to the 
#safety of any drilling venture, drilling rig or its crew or any other third party.  The 
#Customer has full responsibility for all drilling, completion and production operation.  
#Halliburton makes no representations or warranties, either expressed or 
#implied, including, but not limited to, the implied warranties of merchantability or fitness 
#for a particular purpose, with respect to the services rendered.  In no event will 
#Halliburton be liable for failure to obtain any particular results or for 
#any damages, including, but not limited to, indirect, special or consequential damages, 
#resulting from the use of any information or interpretation provided by Halliburton.
#
~A           TIME           GTDEPTH  GTPQH  GTTQ  GTTN  GTET   GTTVD  
# ...
   08:20:06.460.09-Sep-2020 5533.01 6473.57 78.01 5.00 368.15 2629.43
   08:20:06.660.09-Sep-2020 5533.01 6482.23 78.01 5.00 368.35 2629.43
   08:20:06.860.09-Sep-2020 5533.01 6470.47 78.01 5.00 368.55 2629.43
   08:20:07.060.09-Sep-2020 5533.01 6475.08 78.01 5.00 368.75 2629.43
   08:20:07.260.09-Sep-2020 5533.01 6477.01 78.02 5.00 368.95 2629.43
   08:20:07.460.09-Sep-2020 5533.01 6475.07 78.02 5.00 369.15 2629.43
   08:20:07.661.09-Sep-2020 5533.01 6475.07 78.02 5.00 369.35 2629.43
   08:20:07.861.09-Sep-2020 5533.01 6479.87 78.02 5.00 369.55 2629.43
   08:20:08.061.09-Sep-2020 5533.01 6474.78 78.02 5.00 369.75 2629.43
   08:20:08.261.09-Sep-2020 5533.01 6476.66 78.03 5.00 369.95 2629.43
   08:20:08.461.09-Sep-2020 5533.01 6477.88 78.03 5.00 370.15 2629.43
   08:20:08.661.09-Sep-2020 5533.01 6477.88 78.03 5.00 370.35 2629.43
   08:20:08.861.09-Sep-2020 5533.01 6484.55 78.03 5.00 370.55 2629.43
   08:20:09.061.09-Sep-2020 5533.01 6472.02 78.04 5.00 370.75 2629.43
   08:20:09.261.09-Sep-2020 5533.01 6476.96 78.04 5.00 370.95 2629.43
   08:20:09.461.09-Sep-2020 5533.01 6477.32 78.04 5.00 371.15 2629.43
   08:20:09.661.09-Sep-2020 5533.01 6477.32 78.04 5.00 371.35 2629.43
   08:20:09.861.09-Sep-2020 5533.01 6477.42 78.04 5.00 371.55 2629.43
   08:20:10.062.09-Sep-2020 5533.01 6475.36 78.04 5.00 371.75 2629.43
   08:20:10.262.09-Sep-2020 5533.01 6477.47 78.05 5.00 371.95 2629.43
   08:20:10.462.09-Sep-2020 5533.01 6481.73 78.05 5.00 372.15 2629.43
   08:20:10.662.09-Sep-2020 5533.01 6474.81 78.05 5.00 372.35 2629.43
   08:20:10.862.09-Sep-2020 5533.01 6478.46 78.05 5.00 372.55 2629.43
   08:20:11.062.09-Sep-2020 5533.01 6479.05 78.05 5.00 372.75 2629.43
   08:20:11.262.09-Sep-2020 5533.01 6476.86 78.05 5.00 372.95 2629.43
   08:20:11.462.09-Sep-2020 5533.01 6483.55 78.05 5.00 373.15 2629.43
   08:20:11.662.09-Sep-2020 5533.01 6483.55 78.05 5.00 373.35 2629.43
   08:20:11.862.09-Sep-2020 5533.01 6476.60 78.06 5.00 373.55 2629.43
   08:20:12.062.09-Sep-2020 5533.01 6480.16 78.06 5.00 373.75 2629.43
   08:20:12.262.09-Sep-2020 5533.01 6478.85 78.06 5.00 373.95 2629.43
   08:20:12.462.09-Sep-2020 5533.01 6477.52 78.06 5.00 374.15 2629.43
   08:20:12.663.09-Sep-2020 5533.01 6477.52 78.06 5.00 374.35 2629.43
   08:20:12.863.09-Sep-2020 5533.01 6478.13 78.06 5.00 374.55 2629.43
   08:20:13.063.09-Sep-2020 5533.01 6478.42 78.06 5.00 374.75 2629.43
   08:20:13.263.09-Sep-2020 5533.01 6477.69 78.06 5.00 374.95 2629.43
   08:20:13.463.09-Sep-2020 5533.01 6478.09 78.06 5.00 375.15 2629.43
   08:20:13.663.09-Sep-2020 5533.01 6478.09 78.06 5.00 375.35 2629.43
   08:20:13.863.09-Sep-2020 5533.01 6477.65 78.06 5.00 375.55 2629.43
   08:20:14.063.09-Sep-2020 5533.01 6477.54 78.06 5.00 375.75 2629.43
   08:20:14.263.09-Sep-2020 5533.01 6477.74 78.06 5.00 375.95 2629.43
   08:20:14.463.09-Sep-2020 5533.01 6477.70 78.06 5.00 376.15 2629.43
   08:20:14.663.09-Sep-2020 5533.01 6478.01 78.06 5.00 376.35 2629.43
   08:20:14.863.09-Sep-2020 5533.01 6478.31 78.07 5.00 376.55 2629.43
   08:20:15.063.09-Sep-2020 5533.01 6478.28 78.07 5.00 376.75 2629.43
   08:20:15.264.09-Sep-2020 5533.01 6486.77 78.07 5.00 376.95 2629.43
   08:20:15.464.09-Sep-2020 5533.01 6474.68 78.07 5.00 377.15 2629.43
   08:20:15.664.09-Sep-2020 5533.01 6474.68 78.07 5.00 377.35 2629.43
   08:20:15.864.09-Sep-2020 5533.01 6480.64 78.07 5.00 377.55 2629.43
   08:20:16.064.09-Sep-2020 5533.01 6479.05 78.07 5.00 377.75 2629.43
   08:20:16.264.09-Sep-2020 5533.01 6479.60 78.07 5.00 377.95 2629.43
   08:20:16.464.09-Sep-2020 5533.01 6477.58 78.07 5.00 378.15 2629.43
   08:20:16.664.09-Sep-2020 5533.01 6477.58 78.07 5.00 378.35 2629.43
   08:20:16.864.09-Sep-2020 5533.01 6477.53 78.07 5.00 378.55 2629.43
   08:20:17.064.09-Sep-2020 5533.01 6477.30 78.07 5.00 378.75 2629.43
   08:20:17.264.09-Sep-2020 5533.01 6476.87 78.07 5.00 378.95 2629.43
   08:20:17.464.09-Sep-2020 5533.01 6476.66 78.07 5.00 379.15 2629.43
   08:20:17.665.09-Sep-2020 5533.01 6476.66 78.07 5.00 379.35 2629.43
   08:20:17.865.09-Sep-2020 5533.01 6476.78 78.07 5.00 379.55 2629.43
   08:20:18.065.09-Sep-2020 5533.01 6477.02 78.07 5.00 379.75 2629.43
   08:20:18.265.09-Sep-2020 5533.01 6476.35 78.07 5.00 379.95 2629.43
   08:20:18.465.09-Sep-2020 5533.01 6475.99 78.07 5.00 380.15 2629.43
   08:20:18.665.09-Sep-2020 5533.01 6487.43 78.07 5.00 380.35 2629.43
   08:20:18.865.09-Sep-2020 5533.01 6470.51 78.07 5.00 380.55 2629.43
   08:20:19.065.09-Sep-2020 5533.01 6475.63 78.07 5.00 380.75 2629.43
   08:20:19.265.09-Sep-2020 5533.01 6479.03 78.07 5.00 380.95 2629.43
   08:20:19.465.09-Sep-2020 5533.01 6477.29 78.06 5.00 381.15 2629.43
   08:20:19.665.09-Sep-2020 5533.01 6477.09 78.06 5.00 381.35 2629.43
   08:20:19.865.09-Sep-2020 5533.01 6483.61 78.06 5.00 381.55 2629.43
   08:20:20.065.09-Sep-2020 5533.01 6473.19 78.06 5.00 381.75 2629.43
   08:20:20.266.09-Sep-2020 5533.01 6476.66 78.06 5.00 381.95 2629.43
   08:20:20.466.09-Sep-2020 5533.01 6478.98 78.06 5.00 382.15 2629.43
   08:20:20.666.09-Sep-2020 5533.01 6478.98 78.06 5.00 382.35 2629.43
   08:20:20.866.09-Sep-2020 5533.01 6483.66 78.06 5.00 382.55 2629.43
   08:20:21.066.09-Sep-2020 5533.01 6474.32 78.06 5.00 382.75 2629.43
   08:20:21.266.09-Sep-2020 5533.01 6479.49 78.06 5.00 382.95 2629.43
   08:20:21.466.09-Sep-2020 5533.01 6478.11 78.06 5.00 383.15 2629.43
   08:20:21.666.09-Sep-2020 5533.01 6478.11 78.06 5.00 383.35 2629.43
   08:20:21.866.09-Sep-2020 5533.01 6477.68 78.06 5.00 383.55 2629.43
   08:20:22.066.09-Sep-2020 5533.01 6482.67 78.06 5.00 383.75 2629.43
   08:20:22.266.09-Sep-2020 5533.01 6476.52 78.06 5.00 383.95 2629.43
   08:20:22.466.09-Sep-2020 5533.01 6478.56 78.06 5.00 384.15 2629.43
   08:20:22.666.09-Sep-2020 5533.01 6479.48 78.06 5.00 384.35 2629.43
   08:20:22.867.09-Sep-2020 5533.01 6477.21 78.06 5.00 384.55 2629.43
   08:20:23.067.09-Sep-2020 5533.01 6486.69 78.06 5.00 384.75 2629.43
   08:20:23.267.09-Sep-2020 5533.01 6474.09 78.06 5.00 384.95 2629.43
   08:20:23.467.09-Sep-2020 5533.01 6479.46 78.06 5.00 385.15 2629.43
   08:20:23.667.09-Sep-2020 5533.01 6479.46 78.06 5.00 385.35 2629.43
   08:20:23.867.09-Sep-2020 5533.01 6478.63 78.06 5.00 385.55 2629.43
   08:20:24.067.09-Sep-2020 5533.01 6479.38 78.06 5.00 385.75 2629.43
   08:20:24.267.09-Sep-2020 5533.01 6477.51 78.06 5.00 385.95 2629.43
   08:20:24.467.09-Sep-2020 5533.01 6479.27 78.06 5.00 386.15 2629.43
   08:20:24.667.09-Sep-2020 5533.01 6479.27 78.06 5.00 386.35 2629.43
   08:20:24.867.09-Sep-2020 5533.01 6478.34 78.06 5.00 386.55 2629.43
   08:20:25.067.09-Sep-2020 5533.01 6478.48 78.06 5.00 386.75 2629.43
   08:20:25.268.09-Sep-2020 5533.01 6478.77 78.06 5.00 386.95 2629.43
   08:20:25.468.09-Sep-2020 5533.01 6478.70 78.06 5.00 387.15 2629.43
   08:20:25.668.09-Sep-2020 5533.01 6478.70 78.06 5.00 387.35 2629.43
   08:20:25.868.09-Sep-2020 5533.01 6478.07 78.06 5.00 387.55 2629.43
   08:20:26.068.09-Sep-2020 5533.01 6477.91 78.06 5.00 387.75 2629.43
   08:20:26.268.09-Sep-2020 5533.01 6477.91 78.06 5.00 387.95 2629.43
   08:20:26.468.09-Sep-2020 5533.01 6478.04 78.06 5.00 388.15 2629.43
   08:20:26.668.09-Sep-2020 5533.01 6483.64 78.06 5.00 388.35 2629.43
   08:20:26.868.09-Sep-2020 5533.01 6479.52 78.05 5.00 388.55 2629.43
   08:20:27.068.09-Sep-2020 5533.01 6476.44 78.05 5.00 388.75 2629.43
   08:20:27.268.09-Sep-2020 5533.01 6481.37 78.05 5.00 388.95 2629.43
   08:20:27.468.09-Sep-2020 5533.01 6479.65 78.05 5.00 389.15 2629.43
   08:20:27.668.09-Sep-2020 5533.01 6479.65 78.05 5.00 389.35 2629.43
   08:20:27.869.09-Sep-2020 5533.01 6478.05 78.05 5.00 389.55 2629.43
   08:20:28.069.09-Sep-2020 5533.01 6478.47 78.05 5.00 389.75 2629.43
   08:20:28.269.09-Sep-2020 5533.01 6478.70 78.05 5.00 389.95 2629.43
   08:20:28.469.09-Sep-2020 5533.01 6477.44 78.05 5.00 390.15 2629.43
   08:20:28.669.09-Sep-2020 5533.01 6477.44 78.05 5.00 390.35 2629.43
   08:20:28.869.09-Sep-2020 5533.01 6477.74 78.05 5.00 390.55 2629.43
   08:20:29.069.09-Sep-2020 5533.01 6477.22 78.05 5.00 390.75 2629.43
   08:20:29.269.09-Sep-2020 5533.01 6476.39 78.05 5.00 390.95 2629.43
