~Version Information
 VERS.                  2.0:   CWLS log ASCII Standard -VERSION 2.0
 WRAP.                   NO:   One line per depth step
~Well Information Block
#MNEM.UNIT     VALUE/NAME     DESCRIPTION
#---------     -----------    ---------------------------
 STRT.S             11:14:18 09-Sep-20: START TIME 11:14:18 09-Sep-20
 STOP.S             11:21:20 09-Sep-20: STOP TIME  11:21:20 09-Sep-20
 STEP.S                   0.00: STEP TIME
 NULL.                 -999.25: NULL VALUE
 MDS .        Operator Entered:  MAG DATA SOURCE
 PDAT.          Mean Sea Level:  PERMANENT DATUM
 DCON.         Sperry Drilling:  DIRECTNL CONTR
 RIG .              West Azeri:  RIG NAME
 WELL.           C40 (Slot 20):  WELL NAME
 SRVC.     Turan Drilling Engineering:  CONTRACTOR
 FLD .                     ACG:  FIELD NAME
 CTRY.              Azerbaijan:  COUNTRY NAME
 PROV.                    Baku:  PROVINCE
 STAT.                    Baku:  STATE NAME
 REGN.                   EESSA:  REGION
 BASE.              Azerbaijan:  LOGGING EQUIPMENT BASE LOCATION
 COMP.     BP Exploration (Caspian Sea) Ltd:  COMPANY
 WTYP.                Deviated:  WELL TYPE
 SON .        AZ-XX-0906344804:  JOB NUMBER
 FTOP.          Formation Tops:  FORM TOPS DESC
 ILTD.               Lithology:  INTERP LTH DESC
 SVYD.                  Survey:  SURVEY DESC
 DMOD.             Drill Model:  DRILL MOD DESC
 HPTY.       Minimum Curvature:  HOLE POS TYPE
 NREF.                    Grid:  NORTH REFERENCE
 SPUD.               01-Jan-20:  SPUD DATE
 DATE.      00.59.44 15-Sep-20:  END TIME
 STIM.      12.00.00 12-Jun-20:  START TIME
 DMF .             Drill Floor:  DRILL MEAS FROM
 DFST.                        :  DIST FSL TEXT
 DFWT.                        :  DIST FWL TEXT
 API .                        :  API NUMBER
 CNTY.                        :  COUNTY
 UWI .                        :  UNIQUE WELL IDENTIFIER
 LOC .                        :  LOCATION
 LMF .             Drill Floor:  LOG MEASURED FROM
 VSNS.m                   2.88:  VERT SEC N/S
 VSEW.m                  -3.84:  VERT SEC E/W
 AGAP.m                  43.42:  AIR GAP
 APD .m                  43.42:  DEPTH ABOVE PD
 WDMS.m                 118.27:  WD ELEV
 EGL .m                   0.00:  GROUND ELEVATION
 EPD .m                   0.00:  ELEVATION
 AZTC.deg                 6.23:  AZM TOTAL CORR
 GRDC.deg                 0.20:  GRID CORRECTION
 MDEC.deg                 6.43:  MAGNETIC DECL
 MDIP.deg                59.49:  MAGNETIC DIP
 MFLD.nT              50277.00:  MAGNETIC FIELD
 GVFD.g                   1.00:  GRAVITY FIELD
 VSDR.deg               173.20:  VERT SEC DIRECT
 TDD .m                5790.01:  TOTAL DEPTH (DRILLER)
 SDEP.m                5231.01:  START DEPTH
 DFSL.m                   0.00:  DISTANCE FSL
 DFWL.m                   0.00:  DISTANCE FWL
 UTMY.m             4435808.83:  UTM Y
 UTMX.m              526266.40:  UTM X
 WHEW.m                  -3.84:  WELL HEAD E/W
 WHNS.m                   2.88:  WELL HEAD N/S
 LONG.deg                51.31:  LONGITUDE
 LATI.deg                40.06:  LATITUDE
 TVDS.m                  43.42:  TVDSS CORRECTN
 DEP .m                 430.08:  DEPTH
 EKB .m                  43.42:  KB ELEVATION
 EDF .m                  43.42:  DF ELEVATION
 TDL .m                 559.00:  TOTAL DEPTH (LOGGER)
 MAGU.                 1849381:  MAGUTM CHECKSUM
 VSC .                       0:  VS TO CLOSURE
~Parameter Information Block
#MNEM.UNIT       Value        Description
#---------     -----------    ---------------------------
 AV  .mps                 4.87:  Ann Velocity 
 AVMX.mps                 7.08:  Max Ann Veloc 
 AZIF.deg               108.87:  Azm, Final 
 BHAT.                  Rotary:  BHA Type 
 BROT.°/30m               0.35:  Build Rotating 
 BS  .in                  8.50:  Bit Size 
 BSZ .in                  8.50:  Bit Size 
 BTPL.psig              360.00:  Bit Press Loss 
 CABU.                     Yes:  Customer Abuse 
 TCS .hr                106.24:  Time Ciculation Ended 
 CV  .mps                 1.77:  Crit Velocity 
 CVMX.mps                 2.03:  Max Crit Veloc 
 DD1 .         Aykhan Agagulov:  Direct Drillr 1 
 DD2 .            Nonso Okofor:  Direct Drillr 2 
 DDSV.               Geo-Pilot:  DD Service 
 DEFF.%                  98.00:  % Det Eff 
 DLRX.°/30m               0.50:  Dogleg Rot Max 
 DLSO.°/30m               0.40:  Dogleg Oriented 
 DLSX.°/30m               0.94:  Dogleg Str Max 
 DRET.      20.30.00 08-Sep-20:  Drill End Time 
 DRST.      22.15.00 06-Sep-20:  Drill Start Tim 
 DTIM.hr                 31.31:  Time Drilling 
 EDEP.m                5790.01:  End Depth 
 ENG1.           Amrah Tahirov:  Engineer 1 
 ENG2.         Dair Mahammadov:  Engineer 2 
 ENG3.           Emil Huseynov:  Engineer 3 
 ETIM.      04.01.04 12-Sep-20:  End Time 
 FLOI.gpm               450.00:  Flow In 
 FLON.gpm               450.00:  Flow In Min 
 FLOS.cptm                2.00:  Fluid Loss 
 FLOX.gpm               450.00:  Flow In Max 
 FTRO.       Formation Presure:  FTWD Run Obj 
 HFLO.                      No:  High Flow 
 HPRE.                      No:  High Pressure 
 HTEM.                      No:  High Temp 
 HYDO.m                   1.80:  Hydro Offset 
 IFIN.deg                72.03:  Inc, Final 
 IMAX.deg                73.72:  Inc Max 
 IMIN.deg                70.94:  Inc Min 
 IMND.m                5508.52:  Inc Min Depth 
 IMXD.m                5253.60:  Inc Max Depth 
 JARR.                      No:  Jarring 
 LETM.      20.30.00 08-Sep-20:  Log End Time 
 LOST.hr                     0:  Lost Rig Time 
 LSTM.      22.15.00 06-Sep-20:  Log Start Time 
 MDCL.ppm             36000.00:  Mud Chlorides 
 MDES.     Inversion Oil/Synthetic:  Mud Desc 
 DFD .sg                  1.44:  Mud Density 
 MDMN.sg                  1.44:  Dens Mud Min 
 MDMX.sg                  1.57:  Dens Mud Max 
 MOIL.                      70:  Run Mud Oil % 
 MOWR.                   70:30:  Run Mud OWR 
 MSND.                       0:  Run Mud Sand % 
 MSOL.                      21:  Run Mud Solids% 
 DFV .spqt               68.00:  Mud Viscosity 
 MWOD.in                  6.75:  MWD Tool OD 
 MWSI.                     Yes:  Serv Intrp, MWD 
 OTIM.hr                174.84:  Time Operating 
 PCON.           Look Like New:  Pad Condition 
 PMAX.psia            10616.93:  Press Op, Max 
 PV  .cP                 50.00:  Mud PV 
 RUN .                     700:  Run Number 
 ROPA.m/hr               14.24:  ROP Avg 
 ROPN.m/hr               10.00:  ROP Min 
 ROPX.m/hr               32.00:  ROP Max 
 RPMA.rpm               120.90:  RPM Surface Avg 
 RPMN.rpm               120.00:  RPM Surface Min 
 RPMX.rpm               140.00:  RPM Surface Max 
 RRUN.                    0700:  Rig Run Number 
 RTIM.hr                  3.20:  Time Reaming 
 SAZI.deg               109.99:  Azm, Start 
 SDEP.m                5231.01:  Start Depth 
 SIDD.                      No:  Serv Intrp, DD 
 SINC.deg                73.72:  Inc, Start 
 SPPA.psig             3051.00:  SPP Avg 
 SPPN.psig             2950.00:  SPP Min 
 SPPX.psig             3250.00:  SPP Max 
 STIM.      08.00.00 05-Sep-20:  Start Time 
 SVCS.                 DD, MWD:  Services 
 SVER.                    9.20:  Sperry Version 
 TDAT.m                 559.00:  Tot Depth Attmp 
 TDDF.                      No:  Trip for DD 
 TDLG.m                 559.00:  Tot Depth Loggd 
 TFF .                      No:  Trip for Fail 
 TQAA.f-kp               26.49:  Torque Abs Avg 
 TQAN.f-kp               25.00:  Torque Abs Min 
 TQAX.f-kp               27.00:  Torque Abs Max 
 TRRT.°/30m               1.50:  Turn Rotating 
 MRT .                    HCIM:  Maximum Recorded Temperature 
 TTMX.degC               90.20:  Max Tool Temp 
 VS01.                90542671:  Virtual Str1 SN 
 VS02.                90545185:  Virtual Str2 SN 
 VS03.                90602015:  Virtual Str3 SN 
 VS04.                90515230:  Virtual Str4 SN 
 WBMN.klb                 5.00:  WOB Min 
 WOBA.klb                14.79:  WOB Avg 
 WOBX.klb                20.00:  WOB Max 
 YP  .lhf2               29.00:  Yield Point 
~Curve Information Block
#MNEM.UNIT                 API CODE     Curve Description
#---------               -----------    ---------------------------
 TIME.HHMMSS            00 000 000 000:  GT Time & Date
 GTDEPTH.m              00 000 000 000:  GT Depth
 GTPQH.psia             00 000 000 000:  GT HR Quartz Pressure
 GTTQ.degC              00 000 000 000:  GT Quartz Temperature
 GTTN.NONE              00 000 000 000:  GT Test Number
 GTET.sec               00 000 000 000:  GT Elapsed Test Time
 GTTVD.m                00 000 000 000:  GT True Vertical Depth
#Other Information
#
#WARRANTY: Halliburton will use its best efforts to furnish customers with 
#accurate information and interpretations that are part of, and incident to, the services 
#provided.  However, Halliburton cannot and does not warrant the accuracy 
#or correctness of such information and interpretations.  Under no circumstances should any 
#such information or interpretation be relied upon as the sole basis for any drilling, 
#completion, production, or financial decision or any procedure involving any risk to the 
#safety of any drilling venture, drilling rig or its crew or any other third party.  The 
#Customer has full responsibility for all drilling, completion and production operation.  
#Halliburton makes no representations or warranties, either expressed or 
#implied, including, but not limited to, the implied warranties of merchantability or fitness 
#for a particular purpose, with respect to the services rendered.  In no event will 
#Halliburton be liable for failure to obtain any particular results or for 
#any damages, including, but not limited to, indirect, special or consequential damages, 
#resulting from the use of any information or interpretation provided by Halliburton.
#
~A           TIME           GTDEPTH  GTPQH  GTTQ  GTTN   GTET   GTTVD  
# ...
   11:16:34.148.09-Sep-2020 5442.01 3582.16 76.12 11.00 135.64 2600.30
   11:16:34.348.09-Sep-2020 5442.01 3582.13 76.12 11.00 135.84 2600.30
   11:16:34.548.09-Sep-2020 5442.01 3582.17 76.12 11.00 136.04 2600.30
   11:16:34.748.09-Sep-2020 5442.01 3582.17 76.12 11.00 136.24 2600.30
   11:16:34.948.09-Sep-2020 5442.01 3582.15 76.12 11.00 136.44 2600.30
   11:16:35.148.09-Sep-2020 5442.01 3582.14 76.12 11.00 136.64 2600.30
   11:16:35.348.09-Sep-2020 5442.01 3582.16 76.12 11.00 136.84 2600.30
   11:16:35.548.09-Sep-2020 5442.01 3582.13 76.12 11.00 137.04 2600.30
   11:16:35.748.09-Sep-2020 5442.01 3582.13 76.12 11.00 137.24 2600.30
   11:16:35.948.09-Sep-2020 5442.01 3582.07 76.12 11.00 137.44 2600.30
   11:16:36.148.09-Sep-2020 5442.01 3582.21 76.12 11.00 137.64 2600.30
   11:16:36.348.09-Sep-2020 5442.01 3582.15 76.12 11.00 137.84 2600.30
   11:16:36.549.09-Sep-2020 5442.01 3582.14 76.12 11.00 138.04 2600.30
   11:16:36.749.09-Sep-2020 5442.01 3582.14 76.12 11.00 138.24 2600.30
   11:16:36.949.09-Sep-2020 5442.01 3582.14 76.12 11.00 138.44 2600.30
   11:16:37.149.09-Sep-2020 5442.01 3582.15 76.12 11.00 138.64 2600.30
   11:16:37.349.09-Sep-2020 5442.01 3582.14 76.12 11.00 138.84 2600.30
   11:16:37.549.09-Sep-2020 5442.01 3582.22 76.12 11.00 139.04 2600.30
   11:16:37.749.09-Sep-2020 5442.01 3582.06 76.12 11.00 139.24 2600.30
   11:16:37.949.09-Sep-2020 5442.01 3582.15 76.12 11.00 139.44 2600.30
   11:16:38.149.09-Sep-2020 5442.01 3582.14 76.12 11.00 139.64 2600.30
   11:16:38.349.09-Sep-2020 5442.01 3582.15 76.12 11.00 139.84 2600.30
   11:16:38.549.09-Sep-2020 5442.01 3582.13 76.12 11.00 140.04 2600.30
   11:16:38.749.09-Sep-2020 5442.01 3582.14 76.12 11.00 140.24 2600.30
   11:16:38.949.09-Sep-2020 5442.01 3582.23 76.12 11.00 140.44 2600.30
   11:16:39.149.09-Sep-2020 5442.01 3582.07 76.12 11.00 140.64 2600.30
   11:16:39.349.09-Sep-2020 5442.01 3582.14 76.12 11.00 140.84 2600.30
   11:16:39.549.09-Sep-2020 5442.01 3582.14 76.12 11.00 141.04 2600.30
   11:16:39.749.09-Sep-2020 5442.01 3582.14 76.12 11.00 141.24 2600.30
   11:16:39.949.09-Sep-2020 5442.01 3582.14 76.12 11.00 141.44 2600.30
   11:16:40.150.09-Sep-2020 5442.01 3582.14 76.12 11.00 141.64 2600.30
   11:16:40.350.09-Sep-2020 5442.01 3582.15 76.12 11.00 141.84 2600.30
   11:16:40.550.09-Sep-2020 5442.01 3582.14 76.12 11.00 142.04 2600.30
   11:16:40.750.09-Sep-2020 5442.01 3582.14 76.12 11.00 142.24 2600.30
   11:16:40.950.09-Sep-2020 5442.01 3582.15 76.12 11.00 142.44 2600.30
   11:16:41.150.09-Sep-2020 5442.01 3582.14 76.12 11.00 142.64 2600.30
   11:16:41.350.09-Sep-2020 5442.01 3582.15 76.12 11.00 142.84 2600.30
   11:16:41.550.09-Sep-2020 5442.01 3582.14 76.12 11.00 143.04 2600.30
   11:16:41.750.09-Sep-2020 5442.01 3582.15 76.12 11.00 143.24 2600.30
   11:16:41.950.09-Sep-2020 5442.01 3582.15 76.12 11.00 143.44 2600.30
   11:16:42.150.09-Sep-2020 5442.01 3582.14 76.12 11.00 143.64 2600.30
   11:16:42.350.09-Sep-2020 5442.01 3582.14 76.12 11.00 143.84 2600.30
   11:16:42.550.09-Sep-2020 5442.01 3582.07 76.12 11.00 144.04 2600.30
   11:16:42.750.09-Sep-2020 5442.01 3582.21 76.12 11.00 144.24 2600.30
   11:16:42.950.09-Sep-2020 5442.01 3582.16 76.12 11.00 144.44 2600.30
   11:16:43.150.09-Sep-2020 5442.01 3582.14 76.12 11.00 144.64 2600.30
   11:16:43.350.09-Sep-2020 5442.01 3582.14 76.12 11.00 144.84 2600.30
   11:16:43.550.09-Sep-2020 5442.01 3582.15 76.12 11.00 145.04 2600.30
   11:16:43.751.09-Sep-2020 5442.01 3582.15 76.12 11.00 145.24 2600.30
   11:16:43.951.09-Sep-2020 5442.01 3582.15 76.12 11.00 145.44 2600.30
   11:16:44.151.09-Sep-2020 5442.01 3582.14 76.12 11.00 145.64 2600.30
   11:16:44.351.09-Sep-2020 5442.01 3582.14 76.12 11.00 145.84 2600.30
   11:16:44.551.09-Sep-2020 5442.01 3582.14 76.12 11.00 146.04 2600.30
   11:16:44.751.09-Sep-2020 5442.01 3582.14 76.12 11.00 146.24 2600.30
   11:16:44.951.09-Sep-2020 5442.01 3582.14 76.12 11.00 146.44 2600.30
   11:16:45.151.09-Sep-2020 5442.01 3582.14 76.12 11.00 146.64 2600.30
   11:16:45.351.09-Sep-2020 5442.01 3582.15 76.12 11.00 146.84 2600.30
   11:16:45.551.09-Sep-2020 5442.01 3582.14 76.12 11.00 147.04 2600.30
   11:16:45.751.09-Sep-2020 5442.01 3582.15 76.12 11.00 147.24 2600.30
   11:16:45.951.09-Sep-2020 5442.01 3582.11 76.12 11.00 147.44 2600.30
   11:16:46.151.09-Sep-2020 5442.01 3582.19 76.12 11.00 147.64 2600.30
   11:16:46.351.09-Sep-2020 5442.01 3582.14 76.12 11.00 147.84 2600.30
   11:16:46.551.09-Sep-2020 5442.01 3582.14 76.12 11.00 148.04 2600.30
   11:16:46.751.09-Sep-2020 5442.01 3582.13 76.12 11.00 148.24 2600.30
   11:16:46.951.09-Sep-2020 5442.01 3582.15 76.12 11.00 148.44 2600.30
   11:16:47.151.09-Sep-2020 5442.01 3582.22 76.12 11.00 148.64 2600.30
   11:16:47.352.09-Sep-2020 5442.01 3582.08 76.12 11.00 148.84 2600.30
   11:16:47.552.09-Sep-2020 5442.01 3582.14 76.12 11.00 149.04 2600.30
   11:16:47.752.09-Sep-2020 5442.01 3582.14 76.12 11.00 149.24 2600.30
   11:16:47.952.09-Sep-2020 5442.01 3582.15 76.12 11.00 149.44 2600.30
   11:16:48.152.09-Sep-2020 5442.01 3582.14 76.12 11.00 149.64 2600.30
   11:16:48.352.09-Sep-2020 5442.01 3582.14 76.12 11.00 149.84 2600.30
   11:16:48.552.09-Sep-2020 5442.01 3582.14 76.12 11.00 150.04 2600.30
   11:16:48.752.09-Sep-2020 5442.01 3582.14 76.12 11.00 150.24 2600.30
   11:16:48.952.09-Sep-2020 5442.01 3582.12 76.12 11.00 150.44 2600.30
   11:16:49.152.09-Sep-2020 5442.01 3579.53 76.12 11.00 150.64 2600.30
   11:16:49.352.09-Sep-2020 5442.01 3559.27 76.12 11.00 150.84 2600.30
   11:16:49.552.09-Sep-2020 5442.01 3547.08 76.12 11.00 151.04 2600.30
   11:16:49.752.09-Sep-2020 5442.01 3547.08 76.12 11.00 151.24 2600.30
   11:16:49.952.09-Sep-2020 5442.01 3527.86 76.12 11.00 151.44 2600.30
   11:16:50.152.09-Sep-2020 5442.01 3523.79 76.12 11.00 151.64 2600.30
   11:16:50.352.09-Sep-2020 5442.01 3525.79 76.12 11.00 151.84 2600.30
   11:16:50.552.09-Sep-2020 5442.01 3519.29 76.12 11.00 152.04 2600.30
   11:16:50.752.09-Sep-2020 5442.01 3515.75 76.12 11.00 152.24 2600.30
   11:16:50.952.09-Sep-2020 5442.01 3511.29 76.12 11.00 152.44 2600.30
   11:16:51.153.09-Sep-2020 5442.01 3508.16 76.12 11.00 152.64 2600.30
   11:16:51.353.09-Sep-2020 5442.01 3505.62 76.12 11.00 152.84 2600.30
   11:16:51.553.09-Sep-2020 5442.01 3504.44 76.12 11.00 153.04 2600.30
   11:16:51.753.09-Sep-2020 5442.01 3504.44 76.12 11.00 153.24 2600.30
   11:16:51.953.09-Sep-2020 5442.01 3506.29 76.12 11.00 153.44 2600.30
   11:16:52.153.09-Sep-2020 5442.01 3499.03 76.12 11.00 153.64 2600.30
   11:16:52.353.09-Sep-2020 5442.01 3487.00 76.12 11.00 153.84 2600.30
   11:16:52.553.09-Sep-2020 5442.01 3481.08 76.12 11.00 154.04 2600.30
   11:16:52.753.09-Sep-2020 5442.01 3481.08 76.12 11.00 154.24 2600.30
   11:16:52.953.09-Sep-2020 5442.01 3470.97 76.12 11.00 154.44 2600.30
   11:16:53.153.09-Sep-2020 5442.01 3468.13 76.12 11.00 154.64 2600.30
   11:16:53.353.09-Sep-2020 5442.01 3464.10 76.12 11.00 154.84 2600.30
   11:16:53.553.09-Sep-2020 5442.01 3458.55 76.12 11.00 155.04 2600.30
   11:16:53.753.09-Sep-2020 5442.01 3458.55 76.12 11.00 155.24 2600.30
   11:16:53.953.09-Sep-2020 5442.01 3455.98 76.12 11.00 155.44 2600.30
   11:16:54.153.09-Sep-2020 5442.01 3453.54 76.12 11.00 155.64 2600.30
   11:16:54.353.09-Sep-2020 5442.01 3458.78 76.12 11.00 155.84 2600.30
   11:16:54.553.09-Sep-2020 5442.01 3449.19 76.12 11.00 156.04 2600.30
   11:16:54.754.09-Sep-2020 5442.01 3449.19 76.12 11.00 156.24 2600.30
   11:16:54.954.09-Sep-2020 5442.01 3442.94 76.12 11.00 156.44 2600.30
   11:16:55.154.09-Sep-2020 5442.01 3446.72 76.12 11.00 156.64 2600.30
   11:16:55.354.09-Sep-2020 5442.01 3455.05 76.12 11.00 156.84 2600.30
   11:16:55.554.09-Sep-2020 5442.01 3451.32 76.12 11.00 157.04 2600.30
   11:16:55.754.09-Sep-2020 5442.01 3451.32 76.12 11.00 157.24 2600.30
   11:16:55.954.09-Sep-2020 5442.01 3442.63 76.12 11.00 157.44 2600.30
   11:16:56.154.09-Sep-2020 5442.01 3437.12 76.12 11.00 157.64 2600.30
   11:16:56.354.09-Sep-2020 5442.01 3437.96 76.12 11.00 157.84 2600.30
   11:16:56.554.09-Sep-2020 5442.01 3434.94 76.12 11.00 158.04 2600.30
