~Version Information
 VERS.                  2.0:   CWLS log ASCII Standard -VERSION 2.0
 WRAP.                   NO:   One line per depth step
~Well Information Block
#MNEM.UNIT     VALUE/NAME     DESCRIPTION
#---------     -----------    ---------------------------
 STRT.S             06:25:59 09-Sep-20: START TIME 06:25:59 09-Sep-20
 STOP.S             06:32:43 09-Sep-20: STOP TIME  06:32:43 09-Sep-20
 STEP.S                   0.00: STEP TIME
 NULL.                 -999.25: NULL VALUE
 MDS .        Operator Entered:  MAG DATA SOURCE
 PDAT.          Mean Sea Level:  PERMANENT DATUM
 DCON.         Sperry Drilling:  DIRECTNL CONTR
 RIG .              West Azeri:  RIG NAME
 WELL.           C40 (Slot 20):  WELL NAME
 SRVC.     Turan Drilling Engineering:  CONTRACTOR
 FLD .                     ACG:  FIELD NAME
 CTRY.              Azerbaijan:  COUNTRY NAME
 PROV.                    Baku:  PROVINCE
 STAT.                    Baku:  STATE NAME
 REGN.                   EESSA:  REGION
 BASE.              Azerbaijan:  LOGGING EQUIPMENT BASE LOCATION
 COMP.     BP Exploration (Caspian Sea) Ltd:  COMPANY
 WTYP.                Deviated:  WELL TYPE
 SON .        AZ-XX-0906344804:  JOB NUMBER
 FTOP.          Formation Tops:  FORM TOPS DESC
 ILTD.               Lithology:  INTERP LTH DESC
 SVYD.                  Survey:  SURVEY DESC
 DMOD.             Drill Model:  DRILL MOD DESC
 HPTY.       Minimum Curvature:  HOLE POS TYPE
 NREF.                    Grid:  NORTH REFERENCE
 SPUD.               01-Jan-20:  SPUD DATE
 DATE.      00.59.44 15-Sep-20:  END TIME
 STIM.      12.00.00 12-Jun-20:  START TIME
 DMF .             Drill Floor:  DRILL MEAS FROM
 DFST.                        :  DIST FSL TEXT
 DFWT.                        :  DIST FWL TEXT
 API .                        :  API NUMBER
 CNTY.                        :  COUNTY
 UWI .                        :  UNIQUE WELL IDENTIFIER
 LOC .                        :  LOCATION
 LMF .             Drill Floor:  LOG MEASURED FROM
 VSNS.m                   2.88:  VERT SEC N/S
 VSEW.m                  -3.84:  VERT SEC E/W
 AGAP.m                  43.42:  AIR GAP
 APD .m                  43.42:  DEPTH ABOVE PD
 WDMS.m                 118.27:  WD ELEV
 EGL .m                   0.00:  GROUND ELEVATION
 EPD .m                   0.00:  ELEVATION
 AZTC.deg                 6.23:  AZM TOTAL CORR
 GRDC.deg                 0.20:  GRID CORRECTION
 MDEC.deg                 6.43:  MAGNETIC DECL
 MDIP.deg                59.49:  MAGNETIC DIP
 MFLD.nT              50277.00:  MAGNETIC FIELD
 GVFD.g                   1.00:  GRAVITY FIELD
 VSDR.deg               173.20:  VERT SEC DIRECT
 TDD .m                5790.01:  TOTAL DEPTH (DRILLER)
 SDEP.m                5231.01:  START DEPTH
 DFSL.m                   0.00:  DISTANCE FSL
 DFWL.m                   0.00:  DISTANCE FWL
 UTMY.m             4435808.83:  UTM Y
 UTMX.m              526266.40:  UTM X
 WHEW.m                  -3.84:  WELL HEAD E/W
 WHNS.m                   2.88:  WELL HEAD N/S
 LONG.deg                51.31:  LONGITUDE
 LATI.deg                40.06:  LATITUDE
 TVDS.m                  43.42:  TVDSS CORRECTN
 DEP .m                 430.08:  DEPTH
 EKB .m                  43.42:  KB ELEVATION
 EDF .m                  43.42:  DF ELEVATION
 TDL .m                 559.00:  TOTAL DEPTH (LOGGER)
 MAGU.                 1849381:  MAGUTM CHECKSUM
 VSC .                       0:  VS TO CLOSURE
~Parameter Information Block
#MNEM.UNIT       Value        Description
#---------     -----------    ---------------------------
 AV  .mps                 4.87:  Ann Velocity 
 AVMX.mps                 7.08:  Max Ann Veloc 
 AZIF.deg               108.87:  Azm, Final 
 BHAT.                  Rotary:  BHA Type 
 BROT.°/30m               0.35:  Build Rotating 
 BS  .in                  8.50:  Bit Size 
 BSZ .in                  8.50:  Bit Size 
 BTPL.psig              360.00:  Bit Press Loss 
 CABU.                     Yes:  Customer Abuse 
 COMM.                     ìOW:  Run Comments 1 
 TCS .hr                106.24:  Time Ciculation Ended 
 CV  .mps                 1.77:  Crit Velocity 
 CVMX.mps                 2.03:  Max Crit Veloc 
 DD1 .         Aykhan Agagulov:  Direct Drillr 1 
 DD2 .            Nonso Okofor:  Direct Drillr 2 
 DDSV.               Geo-Pilot:  DD Service 
 DEFF.%                  98.00:  % Det Eff 
 DLRX.°/30m               0.50:  Dogleg Rot Max 
 DLSO.°/30m               0.40:  Dogleg Oriented 
 DLSX.°/30m               0.94:  Dogleg Str Max 
 DRET.      20.30.00 08-Sep-20:  Drill End Time 
 DRST.      22.15.00 06-Sep-20:  Drill Start Tim 
 DTIM.hr                 31.31:  Time Drilling 
 EDEP.m                5790.01:  End Depth 
 ENG1.           Amrah Tahirov:  Engineer 1 
 ENG2.         Dair Mahammadov:  Engineer 2 
 ENG3.           Emil Huseynov:  Engineer 3 
 ETIM.      04.01.04 12-Sep-20:  End Time 
 FLOI.gpm               450.00:  Flow In 
 FLON.gpm               450.00:  Flow In Min 
 FLOS.cptm                2.00:  Fluid Loss 
 FLOX.gpm               450.00:  Flow In Max 
 FTRO.       Formation Presure:  FTWD Run Obj 
 HFLO.                      No:  High Flow 
 HPRE.                      No:  High Pressure 
 HTEM.                      No:  High Temp 
 HYDO.m                   1.80:  Hydro Offset 
 IFIN.deg                72.03:  Inc, Final 
 IMAX.deg                73.72:  Inc Max 
 IMIN.deg                70.94:  Inc Min 
 IMND.m                5508.52:  Inc Min Depth 
 IMXD.m                5253.60:  Inc Max Depth 
 JARR.                      No:  Jarring 
 LETM.      20.30.00 08-Sep-20:  Log End Time 
 LOST.hr                     0:  Lost Rig Time 
 LSTM.      22.15.00 06-Sep-20:  Log Start Time 
 MDCL.ppm             36000.00:  Mud Chlorides 
 MDES.     Inversion Oil/Synthetic:  Mud Desc 
 DFD .sg                  1.44:  Mud Density 
 MDMN.sg                  1.44:  Dens Mud Min 
 MDMX.sg                  1.57:  Dens Mud Max 
 MOIL.                      70:  Run Mud Oil % 
 MOWR.                   70:30:  Run Mud OWR 
 MSND.                       0:  Run Mud Sand % 
 MSOL.                      21:  Run Mud Solids% 
 DFV .spqt               68.00:  Mud Viscosity 
 MWOD.in                  6.75:  MWD Tool OD 
 MWSI.                     Yes:  Serv Intrp, MWD 
 OTIM.hr                174.84:  Time Operating 
 PCON.           Look Like New:  Pad Condition 
 PMAX.psia            10616.93:  Press Op, Max 
 PV  .cP                 50.00:  Mud PV 
 RUN .                     700:  Run Number 
 ROPA.m/hr               14.24:  ROP Avg 
 ROPN.m/hr               10.00:  ROP Min 
 ROPX.m/hr               32.00:  ROP Max 
 RPMA.rpm               120.90:  RPM Surface Avg 
 RPMN.rpm               120.00:  RPM Surface Min 
 RPMX.rpm               140.00:  RPM Surface Max 
 RRUN.                    0700:  Rig Run Number 
 RTIM.hr                  3.20:  Time Reaming 
 SAZI.deg               109.99:  Azm, Start 
 SDEP.m                5231.01:  Start Depth 
 SIDD.                      No:  Serv Intrp, DD 
 SINC.deg                73.72:  Inc, Start 
 SPPA.psig             3051.00:  SPP Avg 
 SPPN.psig             2950.00:  SPP Min 
 SPPX.psig             3250.00:  SPP Max 
 STIM.      08.00.00 05-Sep-20:  Start Time 
 SVCS.                 DD, MWD:  Services 
 SVER.                    9.20:  Sperry Version 
 TDAT.m                 559.00:  Tot Depth Attmp 
 TDDF.                      No:  Trip for DD 
 TDLG.m                 559.00:  Tot Depth Loggd 
 TFF .                      No:  Trip for Fail 
 TQAA.f-kp               26.49:  Torque Abs Avg 
 TQAN.f-kp               25.00:  Torque Abs Min 
 TQAX.f-kp               27.00:  Torque Abs Max 
 TRRT.°/30m               1.50:  Turn Rotating 
 MRT .                    HCIM:  Maximum Recorded Temperature 
 TTMX.degC               90.20:  Max Tool Temp 
 VS01.                90542671:  Virtual Str1 SN 
 VS02.                90545185:  Virtual Str2 SN 
 VS03.                90602015:  Virtual Str3 SN 
 VS04.                90515230:  Virtual Str4 SN 
 WBMN.klb                 5.00:  WOB Min 
 WOBA.klb                14.79:  WOB Avg 
 WOBX.klb                20.00:  WOB Max 
 YP  .lhf2               29.00:  Yield Point 
~Curve Information Block
#MNEM.UNIT                 API CODE     Curve Description
#---------               -----------    ---------------------------
 TIME.HHMMSS            00 000 000 000:  GT Time & Date
 GTDEPTH.m              00 000 000 000:  GT Depth
 GTPQH.psia             00 000 000 000:  GT HR Quartz Pressure
 GTTQ.degC              00 000 000 000:  GT Quartz Temperature
 GTTN.NONE              00 000 000 000:  GT Test Number
 GTET.sec               00 000 000 000:  GT Elapsed Test Time
 GTTVD.m                00 000 000 000:  GT True Vertical Depth
#Other Information
#
#WARRANTY: Halliburton will use its best efforts to furnish customers with 
#accurate information and interpretations that are part of, and incident to, the services 
#provided.  However, Halliburton cannot and does not warrant the accuracy 
#or correctness of such information and interpretations.  Under no circumstances should any 
#such information or interpretation be relied upon as the sole basis for any drilling, 
#completion, production, or financial decision or any procedure involving any risk to the 
#safety of any drilling venture, drilling rig or its crew or any other third party.  The 
#Customer has full responsibility for all drilling, completion and production operation.  
#Halliburton makes no representations or warranties, either expressed or 
#implied, including, but not limited to, the implied warranties of merchantability or fitness 
#for a particular purpose, with respect to the services rendered.  In no event will 
#Halliburton be liable for failure to obtain any particular results or for 
#any damages, including, but not limited to, indirect, special or consequential damages, 
#resulting from the use of any information or interpretation provided by Halliburton.
#
~A           TIME           GTDEPTH  GTPQH  GTTQ  GTTN  GTET   GTTVD  
# ...
   06:29:03.000.09-Sep-2020 5602.01 1234.24 79.45 2.00 184.00 2651.01
   06:29:03.200.09-Sep-2020 5602.01 1234.24 79.45 2.00 184.20 2651.01
   06:29:03.400.09-Sep-2020 5602.01 1241.76 79.45 2.00 184.40 2651.01
   06:29:03.600.09-Sep-2020 5602.01 1245.70 79.45 2.00 184.60 2651.01
   06:29:03.800.09-Sep-2020 5602.01 1249.28 79.45 2.00 184.80 2651.01
   06:29:04.000.09-Sep-2020 5602.01 1252.88 79.45 2.00 185.00 2651.01
   06:29:04.200.09-Sep-2020 5602.01 1252.88 79.45 2.00 185.20 2651.01
   06:29:04.400.09-Sep-2020 5602.01 1259.84 79.45 2.00 185.40 2651.01
   06:29:04.600.09-Sep-2020 5602.01 1263.43 79.45 2.00 185.60 2651.01
   06:29:04.800.09-Sep-2020 5602.01 1265.95 79.45 2.00 185.80 2651.01
   06:29:05.000.09-Sep-2020 5602.01 1269.28 79.45 2.00 186.00 2651.01
   06:29:05.200.09-Sep-2020 5602.01 1269.28 79.45 2.00 186.20 2651.01
   06:29:05.400.09-Sep-2020 5602.01 1276.54 79.45 2.00 186.40 2651.01
   06:29:05.600.09-Sep-2020 5602.01 1280.11 79.45 2.00 186.60 2651.01
   06:29:05.800.09-Sep-2020 5602.01 1283.55 79.45 2.00 186.80 2651.01
   06:29:06.000.09-Sep-2020 5602.01 1287.03 79.45 2.00 187.00 2651.01
   06:29:06.200.09-Sep-2020 5602.01 1290.50 79.45 2.00 187.20 2651.01
   06:29:06.400.09-Sep-2020 5602.01 1293.85 79.45 2.00 187.40 2651.01
   06:29:06.600.09-Sep-2020 5602.01 1297.14 79.45 2.00 187.60 2651.01
   06:29:06.800.09-Sep-2020 5602.01 1300.41 79.45 2.00 187.80 2651.01
   06:29:07.000.09-Sep-2020 5602.01 1303.67 79.45 2.00 188.00 2651.01
   06:29:07.200.09-Sep-2020 5602.01 1303.67 79.45 2.00 188.20 2651.01
   06:29:07.400.09-Sep-2020 5602.01 1309.91 79.45 2.00 188.40 2651.01
   06:29:07.600.09-Sep-2020 5602.01 1313.05 79.45 2.00 188.60 2651.01
   06:29:07.800.09-Sep-2020 5602.01 1315.62 79.45 2.00 188.80 2651.01
   06:29:08.000.09-Sep-2020 5602.01 1319.28 79.45 2.00 189.00 2651.01
   06:29:08.200.09-Sep-2020 5602.01 1319.28 79.45 2.00 189.20 2651.01
   06:29:08.400.09-Sep-2020 5602.01 1326.24 79.45 2.00 189.40 2651.01
   06:29:08.600.09-Sep-2020 5602.01 1329.45 79.45 2.00 189.60 2651.01
   06:29:08.800.09-Sep-2020 5602.01 1332.99 79.45 2.00 189.80 2651.01
   06:29:09.000.09-Sep-2020 5602.01 1335.93 79.45 2.00 190.00 2651.01
   06:29:09.200.09-Sep-2020 5602.01 1335.93 79.45 2.00 190.20 2651.01
   06:29:09.400.09-Sep-2020 5602.01 1341.28 79.45 2.00 190.40 2651.01
   06:29:09.600.09-Sep-2020 5602.01 1344.39 79.45 2.00 190.60 2651.01
   06:29:09.800.09-Sep-2020 5602.01 1347.55 79.45 2.00 190.80 2651.01
   06:29:10.000.09-Sep-2020 5602.01 1350.73 79.45 2.00 191.00 2651.01
   06:29:10.200.09-Sep-2020 5602.01 1353.92 79.45 2.00 191.20 2651.01
   06:29:10.400.09-Sep-2020 5602.01 1357.11 79.45 2.00 191.40 2651.01
   06:29:10.600.09-Sep-2020 5602.01 1360.28 79.45 2.00 191.60 2651.01
   06:29:10.800.09-Sep-2020 5602.01 1363.37 79.46 2.00 191.80 2651.01
   06:29:11.000.09-Sep-2020 5602.01 1366.44 79.46 2.00 192.00 2651.01
   06:29:11.200.09-Sep-2020 5602.01 1366.44 79.46 2.00 192.20 2651.01
   06:29:11.400.09-Sep-2020 5602.01 1372.50 79.46 2.00 192.40 2651.01
   06:29:11.600.09-Sep-2020 5602.01 1375.82 79.46 2.00 192.60 2651.01
   06:29:11.800.09-Sep-2020 5602.01 1379.03 79.46 2.00 192.80 2651.01
   06:29:12.000.09-Sep-2020 5602.01 1382.11 79.46 2.00 193.00 2651.01
   06:29:12.200.09-Sep-2020 5602.01 1382.11 79.46 2.00 193.20 2651.01
   06:29:12.400.09-Sep-2020 5602.01 1386.44 79.46 2.00 193.40 2651.01
   06:29:12.600.09-Sep-2020 5602.01 1390.22 79.46 2.00 193.60 2651.01
   06:29:12.800.09-Sep-2020 5602.01 1393.39 79.46 2.00 193.80 2651.01
   06:29:13.000.09-Sep-2020 5602.01 1396.45 79.46 2.00 194.00 2651.01
   06:29:13.200.09-Sep-2020 5602.01 1396.45 79.46 2.00 194.20 2651.01
   06:29:13.400.09-Sep-2020 5602.01 1402.75 79.46 2.00 194.40 2651.01
   06:29:13.600.09-Sep-2020 5602.01 1405.82 79.46 2.00 194.60 2651.01
   06:29:13.800.09-Sep-2020 5602.01 1408.37 79.46 2.00 194.80 2651.01
   06:29:14.000.09-Sep-2020 5602.01 1412.17 79.46 2.00 195.00 2651.01
   06:29:14.200.09-Sep-2020 5602.01 1415.28 79.46 2.00 195.20 2651.01
   06:29:14.400.09-Sep-2020 5602.01 1418.35 79.46 2.00 195.40 2651.01
   06:29:14.600.09-Sep-2020 5602.01 1421.58 79.46 2.00 195.60 2651.01
   06:29:14.800.09-Sep-2020 5602.01 1423.77 79.46 2.00 195.80 2651.01
   06:29:15.000.09-Sep-2020 5602.01 1427.07 79.46 2.00 196.00 2651.01
   06:29:15.200.09-Sep-2020 5602.01 1427.07 79.46 2.00 196.20 2651.01
   06:29:15.400.09-Sep-2020 5602.01 1433.22 79.46 2.00 196.40 2651.01
   06:29:15.600.09-Sep-2020 5602.01 1436.07 79.46 2.00 196.60 2651.01
   06:29:15.800.09-Sep-2020 5602.01 1439.30 79.46 2.00 196.80 2651.01
   06:29:16.000.09-Sep-2020 5602.01 1441.76 79.46 2.00 197.00 2651.01
   06:29:16.200.09-Sep-2020 5602.01 1441.76 79.46 2.00 197.20 2651.01
   06:29:16.400.09-Sep-2020 5602.01 1448.42 79.46 2.00 197.40 2651.01
   06:29:16.600.09-Sep-2020 5602.01 1451.53 79.46 2.00 197.60 2651.01
   06:29:16.800.09-Sep-2020 5602.01 1454.77 79.46 2.00 197.80 2651.01
   06:29:17.000.09-Sep-2020 5602.01 1457.76 79.46 2.00 198.00 2651.01
   06:29:17.200.09-Sep-2020 5602.01 1457.76 79.46 2.00 198.20 2651.01
   06:29:17.400.09-Sep-2020 5602.01 1462.20 79.46 2.00 198.40 2651.01
   06:29:17.600.09-Sep-2020 5602.01 1464.95 79.46 2.00 198.60 2651.01
   06:29:17.800.09-Sep-2020 5602.01 1467.80 79.46 2.00 198.80 2651.01
   06:29:18.000.09-Sep-2020 5602.01 1470.75 79.46 2.00 199.00 2651.01
   06:29:18.200.09-Sep-2020 5602.01 1473.64 79.46 2.00 199.20 2651.01
   06:29:18.400.09-Sep-2020 5602.01 1476.51 79.46 2.00 199.40 2651.01
   06:29:18.600.09-Sep-2020 5602.01 1479.35 79.46 2.00 199.60 2651.01
   06:29:18.800.09-Sep-2020 5602.01 1482.16 79.46 2.00 199.80 2651.01
   06:29:19.000.09-Sep-2020 5602.01 1485.02 79.46 2.00 200.00 2651.01
   06:29:19.200.09-Sep-2020 5602.01 1485.02 79.46 2.00 200.20 2651.01
   06:29:19.400.09-Sep-2020 5602.01 1490.67 79.46 2.00 200.40 2651.01
   06:29:19.600.09-Sep-2020 5602.01 1492.95 79.46 2.00 200.60 2651.01
   06:29:19.800.09-Sep-2020 5602.01 1496.12 79.46 2.00 200.80 2651.01
   06:29:20.000.09-Sep-2020 5602.01 1499.14 79.46 2.00 201.00 2651.01
   06:29:20.200.09-Sep-2020 5602.01 1499.14 79.46 2.00 201.20 2651.01
   06:29:20.400.09-Sep-2020 5602.01 1504.93 79.46 2.00 201.40 2651.01
   06:29:20.600.09-Sep-2020 5602.01 1507.48 79.46 2.00 201.60 2651.01
   06:29:20.800.09-Sep-2020 5602.01 1509.61 79.46 2.00 201.80 2651.01
   06:29:21.000.09-Sep-2020 5602.01 1511.76 79.46 2.00 202.00 2651.01
   06:29:21.200.09-Sep-2020 5602.01 1511.76 79.46 2.00 202.20 2651.01
   06:29:21.400.09-Sep-2020 5602.01 1517.19 79.46 2.00 202.40 2651.01
   06:29:21.600.09-Sep-2020 5602.01 1519.90 79.46 2.00 202.60 2651.01
   06:29:21.800.09-Sep-2020 5602.01 1522.59 79.46 2.00 202.80 2651.01
   06:29:22.000.09-Sep-2020 5602.01 1525.30 79.46 2.00 203.00 2651.01
   06:29:22.200.09-Sep-2020 5602.01 1525.30 79.46 2.00 203.20 2651.01
   06:29:22.400.09-Sep-2020 5602.01 1530.70 79.46 2.00 203.40 2651.01
   06:29:22.600.09-Sep-2020 5602.01 1533.39 79.46 2.00 203.60 2651.01
   06:29:22.800.09-Sep-2020 5602.01 1535.97 79.46 2.00 203.80 2651.01
   06:29:23.000.09-Sep-2020 5602.01 1537.98 79.46 2.00 204.00 2651.01
   06:29:23.200.09-Sep-2020 5602.01 1537.98 79.46 2.00 204.20 2651.01
   06:29:23.400.09-Sep-2020 5602.01 1544.11 79.46 2.00 204.40 2651.01
   06:29:23.600.09-Sep-2020 5602.01 1546.76 79.46 2.00 204.60 2651.01
   06:29:23.800.09-Sep-2020 5602.01 1549.64 79.46 2.00 204.80 2651.01
   06:29:24.000.09-Sep-2020 5602.01 1551.40 79.46 2.00 205.00 2651.01
   06:29:24.200.09-Sep-2020 5602.01 1551.40 79.46 2.00 205.20 2651.01
   06:29:24.400.09-Sep-2020 5602.01 1557.13 79.46 2.00 205.40 2651.01
   06:29:24.600.09-Sep-2020 5602.01 1559.82 79.46 2.00 205.60 2651.01
   06:29:24.800.09-Sep-2020 5602.01 1562.35 79.46 2.00 205.80 2651.01
   06:29:25.000.09-Sep-2020 5602.01 1565.20 79.46 2.00 206.00 2651.01
   06:29:25.200.09-Sep-2020 5602.01 1565.20 79.46 2.00 206.20 2651.01
   06:29:25.400.09-Sep-2020 5602.01 1570.33 79.46 2.00 206.40 2651.01
   06:29:25.600.09-Sep-2020 5602.01 1572.47 79.46 2.00 206.60 2651.01
   06:29:25.800.09-Sep-2020 5602.01 1575.08 79.46 2.00 206.80 2651.01
