~Version Information
 VERS.                  2.0:   CWLS log ASCII Standard -VERSION 2.0
 WRAP.                   NO:   One line per depth step
~Well Information Block
#MNEM.UNIT     VALUE/NAME     DESCRIPTION
#---------     -----------    ---------------------------
 STRT.S             17:25:53 09-Sep-20: START TIME 17:25:53 09-Sep-20
 STOP.S             17:34:04 09-Sep-20: STOP TIME  17:34:04 09-Sep-20
 STEP.S                   0.00: STEP TIME
 NULL.                 -999.25: NULL VALUE
 MDS .        Operator Entered:  MAG DATA SOURCE
 PDAT.          Mean Sea Level:  PERMANENT DATUM
 DCON.         Sperry Drilling:  DIRECTNL CONTR
 RIG .              West Azeri:  RIG NAME
 WELL.           C40 (Slot 20):  WELL NAME
 SRVC.     Turan Drilling Engineering:  CONTRACTOR
 FLD .                     ACG:  FIELD NAME
 CTRY.              Azerbaijan:  COUNTRY NAME
 PROV.                    Baku:  PROVINCE
 STAT.                    Baku:  STATE NAME
 REGN.                   EESSA:  REGION
 BASE.              Azerbaijan:  LOGGING EQUIPMENT BASE LOCATION
 COMP.     BP Exploration (Caspian Sea) Ltd:  COMPANY
 WTYP.                Deviated:  WELL TYPE
 SON .        AZ-XX-0906344804:  JOB NUMBER
 FTOP.          Formation Tops:  FORM TOPS DESC
 ILTD.               Lithology:  INTERP LTH DESC
 SVYD.                  Survey:  SURVEY DESC
 DMOD.             Drill Model:  DRILL MOD DESC
 HPTY.       Minimum Curvature:  HOLE POS TYPE
 NREF.                    Grid:  NORTH REFERENCE
 SPUD.               01-Jan-20:  SPUD DATE
 DATE.      00.59.44 15-Sep-20:  END TIME
 STIM.      12.00.00 12-Jun-20:  START TIME
 DMF .             Drill Floor:  DRILL MEAS FROM
 DFST.                        :  DIST FSL TEXT
 DFWT.                        :  DIST FWL TEXT
 API .                        :  API NUMBER
 CNTY.                        :  COUNTY
 UWI .                        :  UNIQUE WELL IDENTIFIER
 LOC .                        :  LOCATION
 LMF .             Drill Floor:  LOG MEASURED FROM
 VSNS.m                   2.88:  VERT SEC N/S
 VSEW.m                  -3.84:  VERT SEC E/W
 AGAP.m                  43.42:  AIR GAP
 APD .m                  43.42:  DEPTH ABOVE PD
 WDMS.m                 118.27:  WD ELEV
 EGL .m                   0.00:  GROUND ELEVATION
 EPD .m                   0.00:  ELEVATION
 AZTC.deg                 6.23:  AZM TOTAL CORR
 GRDC.deg                 0.20:  GRID CORRECTION
 MDEC.deg                 6.43:  MAGNETIC DECL
 MDIP.deg                59.49:  MAGNETIC DIP
 MFLD.nT              50277.00:  MAGNETIC FIELD
 GVFD.g                   1.00:  GRAVITY FIELD
 VSDR.deg               173.20:  VERT SEC DIRECT
 TDD .m                5790.01:  TOTAL DEPTH (DRILLER)
 SDEP.m                5231.01:  START DEPTH
 DFSL.m                   0.00:  DISTANCE FSL
 DFWL.m                   0.00:  DISTANCE FWL
 UTMY.m             4435808.83:  UTM Y
 UTMX.m              526266.40:  UTM X
 WHEW.m                  -3.84:  WELL HEAD E/W
 WHNS.m                   2.88:  WELL HEAD N/S
 LONG.deg                51.31:  LONGITUDE
 LATI.deg                40.06:  LATITUDE
 TVDS.m                  43.42:  TVDSS CORRECTN
 DEP .m                 430.08:  DEPTH
 EKB .m                  43.42:  KB ELEVATION
 EDF .m                  43.42:  DF ELEVATION
 TDL .m                 559.00:  TOTAL DEPTH (LOGGER)
 MAGU.                 1849381:  MAGUTM CHECKSUM
 VSC .                       0:  VS TO CLOSURE
~Parameter Information Block
#MNEM.UNIT       Value        Description
#---------     -----------    ---------------------------
 AV  .mps                 4.87:  Ann Velocity 
 AVMX.mps                 7.08:  Max Ann Veloc 
 AZIF.deg               108.87:  Azm, Final 
 BHAT.                  Rotary:  BHA Type 
 BROT.°/30m               0.35:  Build Rotating 
 BS  .in                  8.50:  Bit Size 
 BSZ .in                  8.50:  Bit Size 
 BTPL.psig              360.00:  Bit Press Loss 
 CABU.                     Yes:  Customer Abuse 
 COMM.                     ô¸n:  Run Comments 1 
 TCS .hr                106.24:  Time Ciculation Ended 
 CV  .mps                 1.77:  Crit Velocity 
 CVMX.mps                 2.03:  Max Crit Veloc 
 DD1 .         Aykhan Agagulov:  Direct Drillr 1 
 DD2 .            Nonso Okofor:  Direct Drillr 2 
 DDSV.               Geo-Pilot:  DD Service 
 DEFF.%                  98.00:  % Det Eff 
 DLRX.°/30m               0.50:  Dogleg Rot Max 
 DLSO.°/30m               0.40:  Dogleg Oriented 
 DLSX.°/30m               0.94:  Dogleg Str Max 
 DRET.      20.30.00 08-Sep-20:  Drill End Time 
 DRST.      22.15.00 06-Sep-20:  Drill Start Tim 
 DTIM.hr                 31.31:  Time Drilling 
 EDEP.m                5790.01:  End Depth 
 ENG1.           Amrah Tahirov:  Engineer 1 
 ENG2.         Dair Mahammadov:  Engineer 2 
 ENG3.           Emil Huseynov:  Engineer 3 
 ETIM.      04.01.04 12-Sep-20:  End Time 
 FLOI.gpm               450.00:  Flow In 
 FLON.gpm               450.00:  Flow In Min 
 FLOS.cptm                2.00:  Fluid Loss 
 FLOX.gpm               450.00:  Flow In Max 
 FTRO.       Formation Presure:  FTWD Run Obj 
 HFLO.                      No:  High Flow 
 HPRE.                      No:  High Pressure 
 HTEM.                      No:  High Temp 
 HYDO.m                   1.80:  Hydro Offset 
 IFIN.deg                72.03:  Inc, Final 
 IMAX.deg                73.72:  Inc Max 
 IMIN.deg                70.94:  Inc Min 
 IMND.m                5508.52:  Inc Min Depth 
 IMXD.m                5253.60:  Inc Max Depth 
 JARR.                      No:  Jarring 
 LETM.      20.30.00 08-Sep-20:  Log End Time 
 LOST.hr                     0:  Lost Rig Time 
 LSTM.      22.15.00 06-Sep-20:  Log Start Time 
 MDCL.ppm             36000.00:  Mud Chlorides 
 MDES.     Inversion Oil/Synthetic:  Mud Desc 
 DFD .sg                  1.44:  Mud Density 
 MDMN.sg                  1.44:  Dens Mud Min 
 MDMX.sg                  1.57:  Dens Mud Max 
 MOIL.                      70:  Run Mud Oil % 
 MOWR.                   70:30:  Run Mud OWR 
 MSND.                       0:  Run Mud Sand % 
 MSOL.                      21:  Run Mud Solids% 
 DFV .spqt               68.00:  Mud Viscosity 
 MWOD.in                  6.75:  MWD Tool OD 
 MWSI.                     Yes:  Serv Intrp, MWD 
 OTIM.hr                174.84:  Time Operating 
 PCON.           Look Like New:  Pad Condition 
 PMAX.psia            10616.93:  Press Op, Max 
 PV  .cP                 50.00:  Mud PV 
 RUN .                     700:  Run Number 
 ROPA.m/hr               14.24:  ROP Avg 
 ROPN.m/hr               10.00:  ROP Min 
 ROPX.m/hr               32.00:  ROP Max 
 RPMA.rpm               120.90:  RPM Surface Avg 
 RPMN.rpm               120.00:  RPM Surface Min 
 RPMX.rpm               140.00:  RPM Surface Max 
 RRUN.                    0700:  Rig Run Number 
 RTIM.hr                  3.20:  Time Reaming 
 SAZI.deg               109.99:  Azm, Start 
 SDEP.m                5231.01:  Start Depth 
 SIDD.                      No:  Serv Intrp, DD 
 SINC.deg                73.72:  Inc, Start 
 SPPA.psig             3051.00:  SPP Avg 
 SPPN.psig             2950.00:  SPP Min 
 SPPX.psig             3250.00:  SPP Max 
 STIM.      08.00.00 05-Sep-20:  Start Time 
 SVCS.                 DD, MWD:  Services 
 SVER.                    9.20:  Sperry Version 
 TDAT.m                 559.00:  Tot Depth Attmp 
 TDDF.                      No:  Trip for DD 
 TDLG.m                 559.00:  Tot Depth Loggd 
 TFF .                      No:  Trip for Fail 
 TQAA.f-kp               26.49:  Torque Abs Avg 
 TQAN.f-kp               25.00:  Torque Abs Min 
 TQAX.f-kp               27.00:  Torque Abs Max 
 TRRT.°/30m               1.50:  Turn Rotating 
 MRT .                    HCIM:  Maximum Recorded Temperature 
 TTMX.degC               90.20:  Max Tool Temp 
 VS01.                90542671:  Virtual Str1 SN 
 VS02.                90545185:  Virtual Str2 SN 
 VS03.                90602015:  Virtual Str3 SN 
 VS04.                90515230:  Virtual Str4 SN 
 WBMN.klb                 5.00:  WOB Min 
 WOBA.klb                14.79:  WOB Avg 
 WOBX.klb                20.00:  WOB Max 
 YP  .lhf2               29.00:  Yield Point 
~Curve Information Block
#MNEM.UNIT                 API CODE     Curve Description
#---------               -----------    ---------------------------
 TIME.HHMMSS            00 000 000 000:  GT Time & Date
 GTDEPTH.m              00 000 000 000:  GT Depth
 GTPQH.psia             00 000 000 000:  GT HR Quartz Pressure
 GTTQ.degC              00 000 000 000:  GT Quartz Temperature
 GTTN.NONE              00 000 000 000:  GT Test Number
 GTET.sec               00 000 000 000:  GT Elapsed Test Time
 GTTVD.m                00 000 000 000:  GT True Vertical Depth
#Other Information
#
#WARRANTY: Halliburton will use its best efforts to furnish customers with 
#accurate information and interpretations that are part of, and incident to, the services 
#provided.  However, Halliburton cannot and does not warrant the accuracy 
#or correctness of such information and interpretations.  Under no circumstances should any 
#such information or interpretation be relied upon as the sole basis for any drilling, 
#completion, production, or financial decision or any procedure involving any risk to the 
#safety of any drilling venture, drilling rig or its crew or any other third party.  The 
#Customer has full responsibility for all drilling, completion and production operation.  
#Halliburton makes no representations or warranties, either expressed or 
#implied, including, but not limited to, the implied warranties of merchantability or fitness 
#for a particular purpose, with respect to the services rendered.  In no event will 
#Halliburton be liable for failure to obtain any particular results or for 
#any damages, including, but not limited to, indirect, special or consequential damages, 
#resulting from the use of any information or interpretation provided by Halliburton.
#
~A           TIME           GTDEPTH  GTPQH  GTTQ  GTTN   GTET   GTTVD  
# ...
   17:33:25.325.09-Sep-2020 5302.51 6323.71 74.57 20.00 452.22 2556.93
   17:33:25.525.09-Sep-2020 5302.51 6323.71 74.57 20.00 452.42 2556.93
   17:33:25.726.09-Sep-2020 5302.51 6324.49 74.57 20.00 452.62 2556.93
   17:33:25.926.09-Sep-2020 5302.51 6324.80 74.58 20.00 452.82 2556.93
   17:33:26.126.09-Sep-2020 5302.51 6325.31 74.58 20.00 453.02 2556.93
   17:33:26.326.09-Sep-2020 5302.51 6327.17 74.59 20.00 453.22 2556.93
   17:33:26.526.09-Sep-2020 5302.51 6327.17 74.59 20.00 453.42 2556.93
   17:33:26.726.09-Sep-2020 5302.51 6328.15 74.60 20.00 453.62 2556.93
   17:33:26.926.09-Sep-2020 5302.51 6327.96 74.60 20.00 453.82 2556.93
   17:33:27.126.09-Sep-2020 5302.51 6328.34 74.61 20.00 454.02 2556.93
   17:33:27.326.09-Sep-2020 5302.51 6328.86 74.61 20.00 454.22 2556.93
   17:33:27.526.09-Sep-2020 5302.51 6328.86 74.61 20.00 454.42 2556.93
   17:33:27.727.09-Sep-2020 5302.51 6328.20 74.63 20.00 454.62 2556.93
   17:33:27.927.09-Sep-2020 5302.51 6328.04 74.63 20.00 454.82 2556.93
   17:33:28.127.09-Sep-2020 5302.51 6329.68 74.63 20.00 455.02 2556.93
   17:33:28.327.09-Sep-2020 5302.51 6329.80 74.64 20.00 455.22 2556.93
   17:33:28.527.09-Sep-2020 5302.51 6329.80 74.64 20.00 455.42 2556.93
   17:33:28.727.09-Sep-2020 5302.51 6340.65 74.65 20.00 455.62 2556.93
   17:33:28.927.09-Sep-2020 5302.51 6329.90 74.65 20.00 455.82 2556.93
   17:33:29.127.09-Sep-2020 5302.51 6330.45 74.66 20.00 456.02 2556.93
   17:33:29.327.09-Sep-2020 5302.51 6329.68 74.66 20.00 456.22 2556.93
   17:33:29.527.09-Sep-2020 5302.51 6330.59 74.67 20.00 456.42 2556.93
   17:33:29.727.09-Sep-2020 5302.51 6336.56 74.67 20.00 456.62 2556.93
   17:33:29.928.09-Sep-2020 5302.51 6335.49 74.67 20.00 456.82 2556.93
   17:33:30.128.09-Sep-2020 5302.51 6330.69 74.68 20.00 457.02 2556.93
   17:33:30.328.09-Sep-2020 5302.51 6331.86 74.68 20.00 457.22 2556.93
   17:33:30.528.09-Sep-2020 5302.51 6331.86 74.68 20.00 457.42 2556.93
   17:33:30.728.09-Sep-2020 5302.51 6332.48 74.69 20.00 457.62 2556.93
   17:33:30.928.09-Sep-2020 5302.51 6332.88 74.69 20.00 457.82 2556.93
   17:33:31.128.09-Sep-2020 5302.51 6332.77 74.69 20.00 458.02 2556.93
   17:33:31.328.09-Sep-2020 5302.51 6341.76 74.70 20.00 458.22 2556.93
   17:33:31.528.09-Sep-2020 5302.51 6341.76 74.70 20.00 458.42 2556.93
   17:33:31.728.09-Sep-2020 5302.51 6330.75 74.70 20.00 458.62 2556.93
   17:33:31.929.09-Sep-2020 5302.51 6332.31 74.71 20.00 458.82 2556.93
   17:33:32.129.09-Sep-2020 5302.51 6332.12 74.71 20.00 459.02 2556.93
   17:33:32.329.09-Sep-2020 5302.51 6333.77 74.71 20.00 459.22 2556.93
   17:33:32.529.09-Sep-2020 5302.51 6334.59 74.71 20.00 459.42 2556.93
   17:33:32.729.09-Sep-2020 5302.51 6337.24 74.71 20.00 459.62 2556.93
   17:33:32.929.09-Sep-2020 5302.51 6335.13 74.72 20.00 459.82 2556.93
   17:33:33.129.09-Sep-2020 5302.51 6331.60 74.72 20.00 460.02 2556.93
   17:33:33.329.09-Sep-2020 5302.51 6333.78 74.72 20.00 460.22 2556.93
   17:33:33.529.09-Sep-2020 5302.51 6332.88 74.72 20.00 460.42 2556.93
   17:33:33.729.09-Sep-2020 5302.51 6333.89 74.72 20.00 460.62 2556.93
   17:33:33.929.09-Sep-2020 5302.51 6334.76 74.72 20.00 460.82 2556.93
   17:33:34.130.09-Sep-2020 5302.51 6333.98 74.72 20.00 461.02 2556.93
   17:33:34.330.09-Sep-2020 5302.51 6332.74 74.72 20.00 461.22 2556.93
   17:33:34.530.09-Sep-2020 5302.51 6332.74 74.72 20.00 461.42 2556.93
   17:33:34.730.09-Sep-2020 5302.51 6332.76 74.73 20.00 461.62 2556.93
   17:33:34.930.09-Sep-2020 5302.51 6332.91 74.73 20.00 461.82 2556.93
   17:33:35.130.09-Sep-2020 5302.51 6332.71 74.73 20.00 462.02 2556.93
   17:33:35.330.09-Sep-2020 5302.51 6332.91 74.73 20.00 462.22 2556.93
   17:33:35.530.09-Sep-2020 5302.51 6332.91 74.73 20.00 462.42 2556.93
   17:33:35.730.09-Sep-2020 5302.51 6332.82 74.73 20.00 462.62 2556.93
   17:33:35.930.09-Sep-2020 5302.51 6332.97 74.73 20.00 462.82 2556.93
   17:33:36.131.09-Sep-2020 5302.51 6332.96 74.73 20.00 463.02 2556.93
   17:33:36.331.09-Sep-2020 5302.51 6332.76 74.73 20.00 463.22 2556.93
   17:33:36.531.09-Sep-2020 5302.51 6332.76 74.73 20.00 463.42 2556.93
   17:33:36.731.09-Sep-2020 5302.51 6331.22 74.73 20.00 463.62 2556.93
   17:33:36.931.09-Sep-2020 5302.51 6332.37 74.73 20.00 463.82 2556.93
   17:33:37.131.09-Sep-2020 5302.51 6332.63 74.73 20.00 464.02 2556.93
   17:33:37.331.09-Sep-2020 5302.51 6332.78 74.73 20.00 464.22 2556.93
   17:33:37.531.09-Sep-2020 5302.51 6334.07 74.73 20.00 464.42 2556.93
   17:33:37.731.09-Sep-2020 5302.51 6334.00 74.73 20.00 464.62 2556.93
   17:33:37.931.09-Sep-2020 5302.51 6331.93 74.73 20.00 464.82 2556.93
   17:33:38.132.09-Sep-2020 5302.51 6332.01 74.73 20.00 465.02 2556.93
   17:33:38.332.09-Sep-2020 5302.51 6331.99 74.73 20.00 465.22 2556.93
   17:33:38.532.09-Sep-2020 5302.51 6331.99 74.73 20.00 465.42 2556.93
   17:33:38.732.09-Sep-2020 5302.51 6331.36 74.73 20.00 465.62 2556.93
   17:33:38.932.09-Sep-2020 5302.51 6331.07 74.73 20.00 465.82 2556.93
   17:33:39.132.09-Sep-2020 5302.51 6331.06 74.73 20.00 466.02 2556.93
   17:33:39.332.09-Sep-2020 5302.51 6331.15 74.73 20.00 466.22 2556.93
   17:33:39.532.09-Sep-2020 5302.51 6331.15 74.73 20.00 466.42 2556.93
   17:33:39.732.09-Sep-2020 5302.51 6330.85 74.73 20.00 466.62 2556.93
   17:33:39.932.09-Sep-2020 5302.51 6338.85 74.73 20.00 466.82 2556.93
   17:33:40.132.09-Sep-2020 5302.51 6329.18 74.73 20.00 467.02 2556.93
   17:33:40.333.09-Sep-2020 5302.51 6330.36 74.73 20.00 467.22 2556.93
   17:33:40.533.09-Sep-2020 5302.51 6330.61 74.73 20.00 467.42 2556.93
   17:33:40.733.09-Sep-2020 5302.51 6330.99 74.73 20.00 467.62 2556.93
   17:33:40.933.09-Sep-2020 5302.51 6332.75 74.73 20.00 467.82 2556.93
   17:33:41.133.09-Sep-2020 5302.51 6338.51 74.73 20.00 468.02 2556.93
   17:33:41.333.09-Sep-2020 5302.51 6331.11 74.73 20.00 468.22 2556.93
   17:33:41.533.09-Sep-2020 5302.51 6331.11 74.73 20.00 468.42 2556.93
   17:33:41.733.09-Sep-2020 5302.51 6330.56 74.73 20.00 468.62 2556.93
   17:33:41.933.09-Sep-2020 5302.51 6332.42 74.73 20.00 468.82 2556.93
   17:33:42.133.09-Sep-2020 5302.51 6333.32 74.73 20.00 469.02 2556.93
   17:33:42.334.09-Sep-2020 5302.51 6333.21 74.73 20.00 469.22 2556.93
   17:33:42.534.09-Sep-2020 5302.51 6333.21 74.73 20.00 469.42 2556.93
   17:33:42.734.09-Sep-2020 5302.51 6333.90 74.72 20.00 469.63 2556.93
   17:33:42.934.09-Sep-2020 5302.51 6330.74 74.72 20.00 469.83 2556.93
   17:33:43.134.09-Sep-2020 5302.51 6332.66 74.72 20.00 470.03 2556.93
   17:33:43.334.09-Sep-2020 5302.51 6331.59 74.72 20.00 470.23 2556.93
   17:33:43.534.09-Sep-2020 5302.51 6331.59 74.72 20.00 470.43 2556.93
   17:33:43.734.09-Sep-2020 5302.51 6336.16 74.72 20.00 470.63 2556.93
   17:33:43.934.09-Sep-2020 5302.51 6332.01 74.72 20.00 470.83 2556.93
   17:33:44.134.09-Sep-2020 5302.51 6332.52 74.72 20.00 471.03 2556.93
   17:33:44.334.09-Sep-2020 5302.51 6331.67 74.72 20.00 471.23 2556.93
   17:33:44.535.09-Sep-2020 5302.51 6333.09 74.72 20.00 471.43 2556.93
   17:33:44.735.09-Sep-2020 5302.51 6333.84 74.72 20.00 471.63 2556.93
   17:33:44.935.09-Sep-2020 5302.51 6333.39 74.72 20.00 471.83 2556.93
   17:33:45.135.09-Sep-2020 5302.51 6341.07 74.72 20.00 472.03 2556.93
   17:33:45.335.09-Sep-2020 5302.51 6330.42 74.72 20.00 472.23 2556.93
   17:33:45.535.09-Sep-2020 5302.51 6330.42 74.72 20.00 472.43 2556.93
   17:33:45.735.09-Sep-2020 5302.51 6331.87 74.69 20.00 472.63 2556.93
   17:33:45.935.09-Sep-2020 5302.51 6331.90 74.72 20.00 472.83 2556.93
   17:33:46.135.09-Sep-2020 5302.51 6334.04 74.72 20.00 473.03 2556.93
   17:33:46.335.09-Sep-2020 5302.51 6334.17 74.72 20.00 473.23 2556.93
   17:33:46.536.09-Sep-2020 5302.51 6334.17 74.72 20.00 473.43 2556.93
   17:33:46.736.09-Sep-2020 5302.51 6331.25 74.72 20.00 473.63 2556.93
   17:33:46.936.09-Sep-2020 5302.51 6331.04 74.71 20.00 473.83 2556.93
   17:33:47.136.09-Sep-2020 5302.51 6332.11 74.71 20.00 474.03 2556.93
   17:33:47.336.09-Sep-2020 5302.51 6331.70 74.71 20.00 474.23 2556.93
   17:33:47.536.09-Sep-2020 5302.51 6331.70 74.71 20.00 474.43 2556.93
   17:33:47.736.09-Sep-2020 5302.51 6331.46 74.71 20.00 474.63 2556.93
