~Version Information
 VERS.                  2.0:   CWLS log ASCII Standard -VERSION 2.0
 WRAP.                   NO:   One line per depth step
~Well Information Block
#MNEM.UNIT     VALUE/NAME     DESCRIPTION
#---------     -----------    ---------------------------
 STRT.S             05:36:14 09-Sep-20: START TIME 05:36:14 09-Sep-20
 STOP.S             05:43:10 09-Sep-20: STOP TIME  05:43:10 09-Sep-20
 STEP.S                   0.00: STEP TIME
 NULL.                 -999.25: NULL VALUE
 MDS .        Operator Entered:  MAG DATA SOURCE
 PDAT.          Mean Sea Level:  PERMANENT DATUM
 DCON.         Sperry Drilling:  DIRECTNL CONTR
 RIG .              West Azeri:  RIG NAME
 WELL.           C40 (Slot 20):  WELL NAME
 SRVC.     Turan Drilling Engineering:  CONTRACTOR
 FLD .                     ACG:  FIELD NAME
 CTRY.              Azerbaijan:  COUNTRY NAME
 PROV.                    Baku:  PROVINCE
 STAT.                    Baku:  STATE NAME
 REGN.                   EESSA:  REGION
 BASE.              Azerbaijan:  LOGGING EQUIPMENT BASE LOCATION
 COMP.     BP Exploration (Caspian Sea) Ltd:  COMPANY
 WTYP.                Deviated:  WELL TYPE
 SON .        AZ-XX-0906344804:  JOB NUMBER
 FTOP.          Formation Tops:  FORM TOPS DESC
 ILTD.               Lithology:  INTERP LTH DESC
 SVYD.                  Survey:  SURVEY DESC
 DMOD.             Drill Model:  DRILL MOD DESC
 HPTY.       Minimum Curvature:  HOLE POS TYPE
 NREF.                    Grid:  NORTH REFERENCE
 SPUD.               01-Jan-20:  SPUD DATE
 DATE.      00.59.44 15-Sep-20:  END TIME
 STIM.      12.00.00 12-Jun-20:  START TIME
 DMF .             Drill Floor:  DRILL MEAS FROM
 DFST.                        :  DIST FSL TEXT
 DFWT.                        :  DIST FWL TEXT
 API .                        :  API NUMBER
 CNTY.                        :  COUNTY
 UWI .                        :  UNIQUE WELL IDENTIFIER
 LOC .                        :  LOCATION
 LMF .             Drill Floor:  LOG MEASURED FROM
 VSNS.m                   2.88:  VERT SEC N/S
 VSEW.m                  -3.84:  VERT SEC E/W
 AGAP.m                  43.42:  AIR GAP
 APD .m                  43.42:  DEPTH ABOVE PD
 WDMS.m                 118.27:  WD ELEV
 EGL .m                   0.00:  GROUND ELEVATION
 EPD .m                   0.00:  ELEVATION
 AZTC.deg                 6.23:  AZM TOTAL CORR
 GRDC.deg                 0.20:  GRID CORRECTION
 MDEC.deg                 6.43:  MAGNETIC DECL
 MDIP.deg                59.49:  MAGNETIC DIP
 MFLD.nT              50277.00:  MAGNETIC FIELD
 GVFD.g                   1.00:  GRAVITY FIELD
 VSDR.deg               173.20:  VERT SEC DIRECT
 TDD .m                5790.01:  TOTAL DEPTH (DRILLER)
 SDEP.m                5231.01:  START DEPTH
 DFSL.m                   0.00:  DISTANCE FSL
 DFWL.m                   0.00:  DISTANCE FWL
 UTMY.m             4435808.83:  UTM Y
 UTMX.m              526266.40:  UTM X
 WHEW.m                  -3.84:  WELL HEAD E/W
 WHNS.m                   2.88:  WELL HEAD N/S
 LONG.deg                51.31:  LONGITUDE
 LATI.deg                40.06:  LATITUDE
 TVDS.m                  43.42:  TVDSS CORRECTN
 DEP .m                 430.08:  DEPTH
 EKB .m                  43.42:  KB ELEVATION
 EDF .m                  43.42:  DF ELEVATION
 TDL .m                 559.00:  TOTAL DEPTH (LOGGER)
 MAGU.                 1849381:  MAGUTM CHECKSUM
 VSC .                       0:  VS TO CLOSURE
~Parameter Information Block
#MNEM.UNIT       Value        Description
#---------     -----------    ---------------------------
 AV  .mps                 4.87:  Ann Velocity 
 AVMX.mps                 7.08:  Max Ann Veloc 
 AZIF.deg               108.87:  Azm, Final 
 BHAT.                  Rotary:  BHA Type 
 BROT.°/30m               0.35:  Build Rotating 
 BS  .in                  8.50:  Bit Size 
 BSZ .in                  8.50:  Bit Size 
 BTPL.psig              360.00:  Bit Press Loss 
 CABU.                     Yes:  Customer Abuse 
 COMM.                     ”£|:  Run Comments 1 
 TCS .hr                106.24:  Time Ciculation Ended 
 CV  .mps                 1.77:  Crit Velocity 
 CVMX.mps                 2.03:  Max Crit Veloc 
 DD1 .         Aykhan Agagulov:  Direct Drillr 1 
 DD2 .            Nonso Okofor:  Direct Drillr 2 
 DDSV.               Geo-Pilot:  DD Service 
 DEFF.%                  98.00:  % Det Eff 
 DLRX.°/30m               0.50:  Dogleg Rot Max 
 DLSO.°/30m               0.40:  Dogleg Oriented 
 DLSX.°/30m               0.94:  Dogleg Str Max 
 DRET.      20.30.00 08-Sep-20:  Drill End Time 
 DRST.      22.15.00 06-Sep-20:  Drill Start Tim 
 DTIM.hr                 31.31:  Time Drilling 
 EDEP.m                5790.01:  End Depth 
 ENG1.           Amrah Tahirov:  Engineer 1 
 ENG2.         Dair Mahammadov:  Engineer 2 
 ENG3.           Emil Huseynov:  Engineer 3 
 ETIM.      04.01.04 12-Sep-20:  End Time 
 FLOI.gpm               450.00:  Flow In 
 FLON.gpm               450.00:  Flow In Min 
 FLOS.cptm                2.00:  Fluid Loss 
 FLOX.gpm               450.00:  Flow In Max 
 FTRO.       Formation Presure:  FTWD Run Obj 
 HFLO.                      No:  High Flow 
 HPRE.                      No:  High Pressure 
 HTEM.                      No:  High Temp 
 HYDO.m                   1.80:  Hydro Offset 
 IFIN.deg                72.03:  Inc, Final 
 IMAX.deg                73.72:  Inc Max 
 IMIN.deg                70.94:  Inc Min 
 IMND.m                5508.52:  Inc Min Depth 
 IMXD.m                5253.60:  Inc Max Depth 
 JARR.                      No:  Jarring 
 LETM.      20.30.00 08-Sep-20:  Log End Time 
 LOST.hr                     0:  Lost Rig Time 
 LSTM.      22.15.00 06-Sep-20:  Log Start Time 
 MDCL.ppm             36000.00:  Mud Chlorides 
 MDES.     Inversion Oil/Synthetic:  Mud Desc 
 DFD .sg                  1.44:  Mud Density 
 MDMN.sg                  1.44:  Dens Mud Min 
 MDMX.sg                  1.57:  Dens Mud Max 
 MOIL.                      70:  Run Mud Oil % 
 MOWR.                   70:30:  Run Mud OWR 
 MSND.                       0:  Run Mud Sand % 
 MSOL.                      21:  Run Mud Solids% 
 DFV .spqt               68.00:  Mud Viscosity 
 MWOD.in                  6.75:  MWD Tool OD 
 MWSI.                     Yes:  Serv Intrp, MWD 
 OTIM.hr                174.84:  Time Operating 
 PCON.           Look Like New:  Pad Condition 
 PMAX.psia            10616.93:  Press Op, Max 
 PV  .cP                 50.00:  Mud PV 
 RUN .                     700:  Run Number 
 ROPA.m/hr               14.24:  ROP Avg 
 ROPN.m/hr               10.00:  ROP Min 
 ROPX.m/hr               32.00:  ROP Max 
 RPMA.rpm               120.90:  RPM Surface Avg 
 RPMN.rpm               120.00:  RPM Surface Min 
 RPMX.rpm               140.00:  RPM Surface Max 
 RRUN.                    0700:  Rig Run Number 
 RTIM.hr                  3.20:  Time Reaming 
 SAZI.deg               109.99:  Azm, Start 
 SDEP.m                5231.01:  Start Depth 
 SIDD.                      No:  Serv Intrp, DD 
 SINC.deg                73.72:  Inc, Start 
 SPPA.psig             3051.00:  SPP Avg 
 SPPN.psig             2950.00:  SPP Min 
 SPPX.psig             3250.00:  SPP Max 
 STIM.      08.00.00 05-Sep-20:  Start Time 
 SVCS.                 DD, MWD:  Services 
 SVER.                    9.20:  Sperry Version 
 TDAT.m                 559.00:  Tot Depth Attmp 
 TDDF.                      No:  Trip for DD 
 TDLG.m                 559.00:  Tot Depth Loggd 
 TFF .                      No:  Trip for Fail 
 TQAA.f-kp               26.49:  Torque Abs Avg 
 TQAN.f-kp               25.00:  Torque Abs Min 
 TQAX.f-kp               27.00:  Torque Abs Max 
 TRRT.°/30m               1.50:  Turn Rotating 
 MRT .                    HCIM:  Maximum Recorded Temperature 
 TTMX.degC               90.20:  Max Tool Temp 
 VS01.                90542671:  Virtual Str1 SN 
 VS02.                90545185:  Virtual Str2 SN 
 VS03.                90602015:  Virtual Str3 SN 
 VS04.                90515230:  Virtual Str4 SN 
 WBMN.klb                 5.00:  WOB Min 
 WOBA.klb                14.79:  WOB Avg 
 WOBX.klb                20.00:  WOB Max 
 YP  .lhf2               29.00:  Yield Point 
~Curve Information Block
#MNEM.UNIT                 API CODE     Curve Description
#---------               -----------    ---------------------------
 TIME.HHMMSS            00 000 000 000:  GT Time & Date
 GTDEPTH.m              00 000 000 000:  GT Depth
 GTPQH.psia             00 000 000 000:  GT HR Quartz Pressure
 GTTQ.degC              00 000 000 000:  GT Quartz Temperature
 GTTN.NONE              00 000 000 000:  GT Test Number
 GTET.sec               00 000 000 000:  GT Elapsed Test Time
 GTTVD.m                00 000 000 000:  GT True Vertical Depth
#Other Information
#
#WARRANTY: Halliburton will use its best efforts to furnish customers with 
#accurate information and interpretations that are part of, and incident to, the services 
#provided.  However, Halliburton cannot and does not warrant the accuracy 
#or correctness of such information and interpretations.  Under no circumstances should any 
#such information or interpretation be relied upon as the sole basis for any drilling, 
#completion, production, or financial decision or any procedure involving any risk to the 
#safety of any drilling venture, drilling rig or its crew or any other third party.  The 
#Customer has full responsibility for all drilling, completion and production operation.  
#Halliburton makes no representations or warranties, either expressed or 
#implied, including, but not limited to, the implied warranties of merchantability or fitness 
#for a particular purpose, with respect to the services rendered.  In no event will 
#Halliburton be liable for failure to obtain any particular results or for 
#any damages, including, but not limited to, indirect, special or consequential damages, 
#resulting from the use of any information or interpretation provided by Halliburton.
#
~A           TIME           GTDEPTH  GTPQH  GTTQ  GTTN  GTET   GTTVD  
# ...
   05:40:50.071.09-Sep-2020 5634.01 3689.50 79.92 1.00 275.99 2660.75
   05:40:50.271.09-Sep-2020 5634.01 3689.63 79.92 1.00 276.19 2660.75
   05:40:50.471.09-Sep-2020 5634.01 3689.27 79.92 1.00 276.39 2660.75
   05:40:50.671.09-Sep-2020 5634.01 3689.51 79.92 1.00 276.59 2660.75
   05:40:50.871.09-Sep-2020 5634.01 3689.46 79.92 1.00 276.79 2660.75
   05:40:51.071.09-Sep-2020 5634.01 3689.51 79.92 1.00 276.99 2660.75
   05:40:51.271.09-Sep-2020 5634.01 3689.51 79.92 1.00 277.19 2660.75
   05:40:51.471.09-Sep-2020 5634.01 3689.31 79.92 1.00 277.39 2660.75
   05:40:51.671.09-Sep-2020 5634.01 3689.67 79.92 1.00 277.59 2660.75
   05:40:51.871.09-Sep-2020 5634.01 3689.54 79.92 1.00 277.79 2660.75
   05:40:52.071.09-Sep-2020 5634.01 3689.46 79.92 1.00 277.99 2660.75
   05:40:52.271.09-Sep-2020 5634.01 3689.52 79.92 1.00 278.19 2660.75
   05:40:52.471.09-Sep-2020 5634.01 3689.50 79.92 1.00 278.39 2660.75
   05:40:52.671.09-Sep-2020 5634.01 3689.52 79.92 1.00 278.59 2660.75
   05:40:52.871.09-Sep-2020 5634.01 3689.53 79.92 1.00 278.79 2660.75
   05:40:53.071.09-Sep-2020 5634.01 3689.53 79.92 1.00 278.99 2660.75
   05:40:53.271.09-Sep-2020 5634.01 3689.53 79.92 1.00 279.19 2660.75
   05:40:53.471.09-Sep-2020 5634.01 3689.52 79.92 1.00 279.39 2660.75
   05:40:53.671.09-Sep-2020 5634.01 3689.53 79.92 1.00 279.59 2660.75
   05:40:53.871.09-Sep-2020 5634.01 3689.49 79.92 1.00 279.79 2660.75
   05:40:54.071.09-Sep-2020 5634.01 3689.52 79.92 1.00 279.99 2660.75
   05:40:54.271.09-Sep-2020 5634.01 3689.52 79.92 1.00 280.19 2660.75
   05:40:54.471.09-Sep-2020 5634.01 3689.53 79.92 1.00 280.39 2660.75
   05:40:54.671.09-Sep-2020 5634.01 3689.53 79.92 1.00 280.59 2660.75
   05:40:54.871.09-Sep-2020 5634.01 3689.53 79.92 1.00 280.79 2660.75
   05:40:55.071.09-Sep-2020 5634.01 3689.54 79.92 1.00 280.99 2660.75
   05:40:55.271.09-Sep-2020 5634.01 3689.54 79.92 1.00 281.19 2660.75
   05:40:55.471.09-Sep-2020 5634.01 3689.53 79.92 1.00 281.39 2660.75
   05:40:55.671.09-Sep-2020 5634.01 3689.54 79.92 1.00 281.59 2660.75
   05:40:55.871.09-Sep-2020 5634.01 3689.54 79.92 1.00 281.79 2660.75
   05:40:56.071.09-Sep-2020 5634.01 3689.55 79.92 1.00 281.99 2660.75
   05:40:56.271.09-Sep-2020 5634.01 3689.55 79.92 1.00 282.19 2660.75
   05:40:56.471.09-Sep-2020 5634.01 3689.37 79.92 1.00 282.39 2660.75
   05:40:56.671.09-Sep-2020 5634.01 3689.69 79.92 1.00 282.59 2660.75
   05:40:56.871.09-Sep-2020 5634.01 3689.60 79.92 1.00 282.79 2660.75
   05:40:57.071.09-Sep-2020 5634.01 3689.50 79.92 1.00 282.99 2660.75
   05:40:57.271.09-Sep-2020 5634.01 3689.50 79.92 1.00 283.19 2660.75
   05:40:57.471.09-Sep-2020 5634.01 3689.54 79.92 1.00 283.39 2660.75
   05:40:57.671.09-Sep-2020 5634.01 3689.56 79.92 1.00 283.59 2660.75
   05:40:57.871.09-Sep-2020 5634.01 3689.56 79.92 1.00 283.79 2660.75
   05:40:58.071.09-Sep-2020 5634.01 3689.56 79.92 1.00 283.99 2660.75
   05:40:58.271.09-Sep-2020 5634.01 3689.56 79.92 1.00 284.19 2660.75
   05:40:58.471.09-Sep-2020 5634.01 3689.54 79.92 1.00 284.39 2660.75
   05:40:58.671.09-Sep-2020 5634.01 3689.55 79.92 1.00 284.59 2660.75
   05:40:58.871.09-Sep-2020 5634.01 3689.54 79.92 1.00 284.79 2660.75
   05:40:59.071.09-Sep-2020 5634.01 3689.56 79.92 1.00 284.99 2660.75
   05:40:59.271.09-Sep-2020 5634.01 3689.56 79.92 1.00 285.19 2660.75
   05:40:59.471.09-Sep-2020 5634.01 3689.56 79.92 1.00 285.39 2660.75
   05:40:59.671.09-Sep-2020 5634.01 3689.57 79.92 1.00 285.59 2660.75
   05:40:59.871.09-Sep-2020 5634.01 3689.72 79.92 1.00 285.79 2660.75
   05:41:00.071.09-Sep-2020 5634.01 3689.37 79.92 1.00 285.99 2660.75
   05:41:00.271.09-Sep-2020 5634.01 3689.37 79.92 1.00 286.19 2660.75
   05:41:00.471.09-Sep-2020 5634.01 3689.55 79.92 1.00 286.39 2660.75
   05:41:00.671.09-Sep-2020 5634.01 3689.58 79.92 1.00 286.59 2660.75
   05:41:00.871.09-Sep-2020 5634.01 3689.56 79.92 1.00 286.79 2660.75
   05:41:01.071.09-Sep-2020 5634.01 3689.56 79.92 1.00 286.99 2660.75
   05:41:01.271.09-Sep-2020 5634.01 3689.56 79.92 1.00 287.19 2660.75
   05:41:01.471.09-Sep-2020 5634.01 3689.57 79.92 1.00 287.39 2660.75
   05:41:01.671.09-Sep-2020 5634.01 3689.57 79.92 1.00 287.59 2660.75
   05:41:01.871.09-Sep-2020 5634.01 3689.58 79.92 1.00 287.79 2660.75
   05:41:02.071.09-Sep-2020 5634.01 3689.51 79.92 1.00 287.99 2660.75
   05:41:02.271.09-Sep-2020 5634.01 3689.51 79.92 1.00 288.19 2660.75
   05:41:02.471.09-Sep-2020 5634.01 3689.59 79.92 1.00 288.39 2660.75
   05:41:02.671.09-Sep-2020 5634.01 3689.56 79.92 1.00 288.59 2660.75
   05:41:02.871.09-Sep-2020 5634.01 3689.54 79.92 1.00 288.79 2660.75
   05:41:03.071.09-Sep-2020 5634.01 3689.60 79.92 1.00 288.99 2660.75
   05:41:03.271.09-Sep-2020 5634.01 3689.60 79.92 1.00 289.19 2660.75
   05:41:03.471.09-Sep-2020 5634.01 3689.72 79.92 1.00 289.39 2660.75
   05:41:03.671.09-Sep-2020 5634.01 3689.61 79.92 1.00 289.59 2660.75
   05:41:03.871.09-Sep-2020 5634.01 3689.53 79.92 1.00 289.79 2660.75
   05:41:04.071.09-Sep-2020 5634.01 3689.59 79.92 1.00 289.99 2660.75
   05:41:04.271.09-Sep-2020 5634.01 3689.59 79.92 1.00 290.19 2660.75
   05:41:04.471.09-Sep-2020 5634.01 3689.55 79.92 1.00 290.39 2660.75
   05:41:04.671.09-Sep-2020 5634.01 3689.62 79.92 1.00 290.59 2660.75
   05:41:04.871.09-Sep-2020 5634.01 3689.60 79.92 1.00 290.79 2660.75
   05:41:05.071.09-Sep-2020 5634.01 3689.56 79.92 1.00 290.99 2660.75
   05:41:05.271.09-Sep-2020 5634.01 3689.56 79.92 1.00 291.19 2660.75
   05:41:05.471.09-Sep-2020 5634.01 3689.59 79.92 1.00 291.39 2660.75
   05:41:05.671.09-Sep-2020 5634.01 3689.58 79.92 1.00 291.59 2660.75
   05:41:05.871.09-Sep-2020 5634.01 3689.59 79.92 1.00 291.79 2660.75
   05:41:06.071.09-Sep-2020 5634.01 3689.59 79.92 1.00 291.99 2660.75
   05:41:06.271.09-Sep-2020 5634.01 3689.59 79.92 1.00 292.19 2660.75
   05:41:06.471.09-Sep-2020 5634.01 3689.59 79.92 1.00 292.39 2660.75
   05:41:06.671.09-Sep-2020 5634.01 3689.58 79.92 1.00 292.59 2660.75
   05:41:06.871.09-Sep-2020 5634.01 3689.60 79.92 1.00 292.79 2660.75
   05:41:07.071.09-Sep-2020 5634.01 3689.59 79.92 1.00 292.99 2660.75
   05:41:07.271.09-Sep-2020 5634.01 3689.59 79.92 1.00 293.19 2660.75
   05:41:07.471.09-Sep-2020 5634.01 3689.58 79.92 1.00 293.39 2660.75
   05:41:07.671.09-Sep-2020 5634.01 3689.58 79.92 1.00 293.59 2660.75
   05:41:07.871.09-Sep-2020 5634.01 3689.60 79.92 1.00 293.79 2660.75
   05:41:08.071.09-Sep-2020 5634.01 3689.58 79.92 1.00 293.99 2660.75
   05:41:08.271.09-Sep-2020 5634.01 3689.58 79.92 1.00 294.19 2660.75
   05:41:08.471.09-Sep-2020 5634.01 3689.40 79.92 1.00 294.39 2660.75
   05:41:08.670.09-Sep-2020 5634.01 3689.61 79.92 1.00 294.59 2660.75
   05:41:08.870.09-Sep-2020 5634.01 3689.57 79.92 1.00 294.79 2660.75
   05:41:09.070.09-Sep-2020 5634.01 3689.61 79.92 1.00 294.99 2660.75
   05:41:09.270.09-Sep-2020 5634.01 3689.61 79.92 1.00 295.19 2660.75
   05:41:09.470.09-Sep-2020 5634.01 3689.58 79.92 1.00 295.39 2660.75
   05:41:09.670.09-Sep-2020 5634.01 3689.60 79.92 1.00 295.59 2660.75
   05:41:09.870.09-Sep-2020 5634.01 3689.58 79.92 1.00 295.79 2660.75
   05:41:10.070.09-Sep-2020 5634.01 3689.59 79.92 1.00 295.99 2660.75
   05:41:10.270.09-Sep-2020 5634.01 3689.59 79.92 1.00 296.19 2660.75
   05:41:10.470.09-Sep-2020 5634.01 3689.59 79.91 1.00 296.39 2660.75
   05:41:10.670.09-Sep-2020 5634.01 3689.58 79.91 1.00 296.59 2660.75
   05:41:10.870.09-Sep-2020 5634.01 3689.59 79.91 1.00 296.79 2660.75
   05:41:11.070.09-Sep-2020 5634.01 3689.59 79.91 1.00 296.99 2660.75
   05:41:11.270.09-Sep-2020 5634.01 3689.59 79.91 1.00 297.19 2660.75
   05:41:11.470.09-Sep-2020 5634.01 3689.42 79.91 1.00 297.39 2660.75
   05:41:11.670.09-Sep-2020 5634.01 3689.72 79.91 1.00 297.59 2660.75
   05:41:11.870.09-Sep-2020 5634.01 3689.63 79.91 1.00 297.79 2660.75
   05:41:12.070.09-Sep-2020 5634.01 3689.55 79.91 1.00 297.99 2660.75
   05:41:12.270.09-Sep-2020 5634.01 3689.55 79.91 1.00 298.19 2660.75
   05:41:12.470.09-Sep-2020 5634.01 3689.57 79.91 1.00 298.39 2660.75
   05:41:12.670.09-Sep-2020 5634.01 3689.56 79.91 1.00 298.59 2660.75
   05:41:12.870.09-Sep-2020 5634.01 3689.63 79.91 1.00 298.79 2660.75
