~Version Information
 VERS.                  2.0:   CWLS log ASCII Standard -VERSION 2.0
 WRAP.                   NO:   One line per depth step
~Well Information Block
#MNEM.UNIT     VALUE/NAME     DESCRIPTION
#---------     -----------    ---------------------------
 STRT.S             10:55:02 09-Sep-20: START TIME 10:55:02 09-Sep-20
 STOP.S             11:02:04 09-Sep-20: STOP TIME  11:02:04 09-Sep-20
 STEP.S                   0.00: STEP TIME
 NULL.                 -999.25: NULL VALUE
 MDS .        Operator Entered:  MAG DATA SOURCE
 PDAT.          Mean Sea Level:  PERMANENT DATUM
 DCON.         Sperry Drilling:  DIRECTNL CONTR
 RIG .              West Azeri:  RIG NAME
 WELL.           C40 (Slot 20):  WELL NAME
 SRVC.     Turan Drilling Engineering:  CONTRACTOR
 FLD .                     ACG:  FIELD NAME
 CTRY.              Azerbaijan:  COUNTRY NAME
 PROV.                    Baku:  PROVINCE
 STAT.                    Baku:  STATE NAME
 REGN.                   EESSA:  REGION
 BASE.              Azerbaijan:  LOGGING EQUIPMENT BASE LOCATION
 COMP.     BP Exploration (Caspian Sea) Ltd:  COMPANY
 WTYP.                Deviated:  WELL TYPE
 SON .        AZ-XX-0906344804:  JOB NUMBER
 FTOP.          Formation Tops:  FORM TOPS DESC
 ILTD.               Lithology:  INTERP LTH DESC
 SVYD.                  Survey:  SURVEY DESC
 DMOD.             Drill Model:  DRILL MOD DESC
 HPTY.       Minimum Curvature:  HOLE POS TYPE
 NREF.                    Grid:  NORTH REFERENCE
 SPUD.               01-Jan-20:  SPUD DATE
 DATE.      00.59.44 15-Sep-20:  END TIME
 STIM.      12.00.00 12-Jun-20:  START TIME
 DMF .             Drill Floor:  DRILL MEAS FROM
 DFST.                        :  DIST FSL TEXT
 DFWT.                        :  DIST FWL TEXT
 API .                        :  API NUMBER
 CNTY.                        :  COUNTY
 UWI .                        :  UNIQUE WELL IDENTIFIER
 LOC .                        :  LOCATION
 LMF .             Drill Floor:  LOG MEASURED FROM
 VSNS.m                   2.88:  VERT SEC N/S
 VSEW.m                  -3.84:  VERT SEC E/W
 AGAP.m                  43.42:  AIR GAP
 APD .m                  43.42:  DEPTH ABOVE PD
 WDMS.m                 118.27:  WD ELEV
 EGL .m                   0.00:  GROUND ELEVATION
 EPD .m                   0.00:  ELEVATION
 AZTC.deg                 6.23:  AZM TOTAL CORR
 GRDC.deg                 0.20:  GRID CORRECTION
 MDEC.deg                 6.43:  MAGNETIC DECL
 MDIP.deg                59.49:  MAGNETIC DIP
 MFLD.nT              50277.00:  MAGNETIC FIELD
 GVFD.g                   1.00:  GRAVITY FIELD
 VSDR.deg               173.20:  VERT SEC DIRECT
 TDD .m                5790.01:  TOTAL DEPTH (DRILLER)
 SDEP.m                5231.01:  START DEPTH
 DFSL.m                   0.00:  DISTANCE FSL
 DFWL.m                   0.00:  DISTANCE FWL
 UTMY.m             4435808.83:  UTM Y
 UTMX.m              526266.40:  UTM X
 WHEW.m                  -3.84:  WELL HEAD E/W
 WHNS.m                   2.88:  WELL HEAD N/S
 LONG.deg                51.31:  LONGITUDE
 LATI.deg                40.06:  LATITUDE
 TVDS.m                  43.42:  TVDSS CORRECTN
 DEP .m                 430.08:  DEPTH
 EKB .m                  43.42:  KB ELEVATION
 EDF .m                  43.42:  DF ELEVATION
 TDL .m                 559.00:  TOTAL DEPTH (LOGGER)
 MAGU.                 1849381:  MAGUTM CHECKSUM
 VSC .                       0:  VS TO CLOSURE
~Parameter Information Block
#MNEM.UNIT       Value        Description
#---------     -----------    ---------------------------
 AV  .mps                 4.87:  Ann Velocity 
 AVMX.mps                 7.08:  Max Ann Veloc 
 AZIF.deg               108.87:  Azm, Final 
 BHAT.                  Rotary:  BHA Type 
 BROT.°/30m               0.35:  Build Rotating 
 BS  .in                  8.50:  Bit Size 
 BSZ .in                  8.50:  Bit Size 
 BTPL.psig              360.00:  Bit Press Loss 
 CABU.                     Yes:  Customer Abuse 
 COMM.                     ¬Î:  Run Comments 1 
 TCS .hr                106.24:  Time Ciculation Ended 
 CV  .mps                 1.77:  Crit Velocity 
 CVMX.mps                 2.03:  Max Crit Veloc 
 DD1 .         Aykhan Agagulov:  Direct Drillr 1 
 DD2 .            Nonso Okofor:  Direct Drillr 2 
 DDSV.               Geo-Pilot:  DD Service 
 DEFF.%                  98.00:  % Det Eff 
 DLRX.°/30m               0.50:  Dogleg Rot Max 
 DLSO.°/30m               0.40:  Dogleg Oriented 
 DLSX.°/30m               0.94:  Dogleg Str Max 
 DRET.      20.30.00 08-Sep-20:  Drill End Time 
 DRST.      22.15.00 06-Sep-20:  Drill Start Tim 
 DTIM.hr                 31.31:  Time Drilling 
 EDEP.m                5790.01:  End Depth 
 ENG1.           Amrah Tahirov:  Engineer 1 
 ENG2.         Dair Mahammadov:  Engineer 2 
 ENG3.           Emil Huseynov:  Engineer 3 
 ETIM.      04.01.04 12-Sep-20:  End Time 
 FLOI.gpm               450.00:  Flow In 
 FLON.gpm               450.00:  Flow In Min 
 FLOS.cptm                2.00:  Fluid Loss 
 FLOX.gpm               450.00:  Flow In Max 
 FTRO.       Formation Presure:  FTWD Run Obj 
 HFLO.                      No:  High Flow 
 HPRE.                      No:  High Pressure 
 HTEM.                      No:  High Temp 
 HYDO.m                   1.80:  Hydro Offset 
 IFIN.deg                72.03:  Inc, Final 
 IMAX.deg                73.72:  Inc Max 
 IMIN.deg                70.94:  Inc Min 
 IMND.m                5508.52:  Inc Min Depth 
 IMXD.m                5253.60:  Inc Max Depth 
 JARR.                      No:  Jarring 
 LETM.      20.30.00 08-Sep-20:  Log End Time 
 LOST.hr                     0:  Lost Rig Time 
 LSTM.      22.15.00 06-Sep-20:  Log Start Time 
 MDCL.ppm             36000.00:  Mud Chlorides 
 MDES.     Inversion Oil/Synthetic:  Mud Desc 
 DFD .sg                  1.44:  Mud Density 
 MDMN.sg                  1.44:  Dens Mud Min 
 MDMX.sg                  1.57:  Dens Mud Max 
 MOIL.                      70:  Run Mud Oil % 
 MOWR.                   70:30:  Run Mud OWR 
 MSND.                       0:  Run Mud Sand % 
 MSOL.                      21:  Run Mud Solids% 
 DFV .spqt               68.00:  Mud Viscosity 
 MWOD.in                  6.75:  MWD Tool OD 
 MWSI.                     Yes:  Serv Intrp, MWD 
 OTIM.hr                174.84:  Time Operating 
 PCON.           Look Like New:  Pad Condition 
 PMAX.psia            10616.93:  Press Op, Max 
 PV  .cP                 50.00:  Mud PV 
 RUN .                     700:  Run Number 
 ROPA.m/hr               14.24:  ROP Avg 
 ROPN.m/hr               10.00:  ROP Min 
 ROPX.m/hr               32.00:  ROP Max 
 RPMA.rpm               120.90:  RPM Surface Avg 
 RPMN.rpm               120.00:  RPM Surface Min 
 RPMX.rpm               140.00:  RPM Surface Max 
 RRUN.                    0700:  Rig Run Number 
 RTIM.hr                  3.20:  Time Reaming 
 SAZI.deg               109.99:  Azm, Start 
 SDEP.m                5231.01:  Start Depth 
 SIDD.                      No:  Serv Intrp, DD 
 SINC.deg                73.72:  Inc, Start 
 SPPA.psig             3051.00:  SPP Avg 
 SPPN.psig             2950.00:  SPP Min 
 SPPX.psig             3250.00:  SPP Max 
 STIM.      08.00.00 05-Sep-20:  Start Time 
 SVCS.                 DD, MWD:  Services 
 SVER.                    9.20:  Sperry Version 
 TDAT.m                 559.00:  Tot Depth Attmp 
 TDDF.                      No:  Trip for DD 
 TDLG.m                 559.00:  Tot Depth Loggd 
 TFF .                      No:  Trip for Fail 
 TQAA.f-kp               26.49:  Torque Abs Avg 
 TQAN.f-kp               25.00:  Torque Abs Min 
 TQAX.f-kp               27.00:  Torque Abs Max 
 TRRT.°/30m               1.50:  Turn Rotating 
 MRT .                    HCIM:  Maximum Recorded Temperature 
 TTMX.degC               90.20:  Max Tool Temp 
 VS01.                90542671:  Virtual Str1 SN 
 VS02.                90545185:  Virtual Str2 SN 
 VS03.                90602015:  Virtual Str3 SN 
 VS04.                90515230:  Virtual Str4 SN 
 WBMN.klb                 5.00:  WOB Min 
 WOBA.klb                14.79:  WOB Avg 
 WOBX.klb                20.00:  WOB Max 
 YP  .lhf2               29.00:  Yield Point 
~Curve Information Block
#MNEM.UNIT                 API CODE     Curve Description
#---------               -----------    ---------------------------
 TIME.HHMMSS            00 000 000 000:  GT Time & Date
 GTDEPTH.m              00 000 000 000:  GT Depth
 GTPQH.psia             00 000 000 000:  GT HR Quartz Pressure
 GTTQ.degC              00 000 000 000:  GT Quartz Temperature
 GTTN.NONE              00 000 000 000:  GT Test Number
 GTET.sec               00 000 000 000:  GT Elapsed Test Time
 GTTVD.m                00 000 000 000:  GT True Vertical Depth
#Other Information
#
#WARRANTY: Halliburton will use its best efforts to furnish customers with 
#accurate information and interpretations that are part of, and incident to, the services 
#provided.  However, Halliburton cannot and does not warrant the accuracy 
#or correctness of such information and interpretations.  Under no circumstances should any 
#such information or interpretation be relied upon as the sole basis for any drilling, 
#completion, production, or financial decision or any procedure involving any risk to the 
#safety of any drilling venture, drilling rig or its crew or any other third party.  The 
#Customer has full responsibility for all drilling, completion and production operation.  
#Halliburton makes no representations or warranties, either expressed or 
#implied, including, but not limited to, the implied warranties of merchantability or fitness 
#for a particular purpose, with respect to the services rendered.  In no event will 
#Halliburton be liable for failure to obtain any particular results or for 
#any damages, including, but not limited to, indirect, special or consequential damages, 
#resulting from the use of any information or interpretation provided by Halliburton.
#
~A           TIME           GTDEPTH  GTPQH  GTTQ  GTTN   GTET   GTTVD  
# ...
   11:00:18.679.09-Sep-2020 5456.01 3588.94 76.39 10.00 316.49 2604.72
   11:00:18.879.09-Sep-2020 5456.01 3588.91 76.39 10.00 316.69 2604.72
   11:00:19.079.09-Sep-2020 5456.01 3588.87 76.39 10.00 316.89 2604.72
   11:00:19.279.09-Sep-2020 5456.01 3588.98 76.39 10.00 317.09 2604.72
   11:00:19.479.09-Sep-2020 5456.01 3588.98 76.39 10.00 317.29 2604.72
   11:00:19.679.09-Sep-2020 5456.01 3588.91 76.39 10.00 317.49 2604.72
   11:00:19.879.09-Sep-2020 5456.01 3588.93 76.39 10.00 317.69 2604.72
   11:00:20.079.09-Sep-2020 5456.01 3588.89 76.39 10.00 317.89 2604.72
   11:00:20.279.09-Sep-2020 5456.01 3588.93 76.39 10.00 318.09 2604.72
   11:00:20.479.09-Sep-2020 5456.01 3588.93 76.39 10.00 318.29 2604.72
   11:00:20.679.09-Sep-2020 5456.01 3588.92 76.39 10.00 318.49 2604.72
   11:00:20.879.09-Sep-2020 5456.01 3588.92 76.39 10.00 318.69 2604.72
   11:00:21.079.09-Sep-2020 5456.01 3588.90 76.39 10.00 318.89 2604.72
   11:00:21.279.09-Sep-2020 5456.01 3588.91 76.39 10.00 319.09 2604.72
   11:00:21.479.09-Sep-2020 5456.01 3588.91 76.39 10.00 319.29 2604.72
   11:00:21.679.09-Sep-2020 5456.01 3588.93 76.39 10.00 319.49 2604.72
   11:00:21.879.09-Sep-2020 5456.01 3588.93 76.39 10.00 319.69 2604.72
   11:00:22.079.09-Sep-2020 5456.01 3588.75 76.39 10.00 319.89 2604.72
   11:00:22.280.09-Sep-2020 5456.01 3589.12 76.39 10.00 320.09 2604.72
   11:00:22.480.09-Sep-2020 5456.01 3589.12 76.39 10.00 320.29 2604.72
   11:00:22.680.09-Sep-2020 5456.01 3588.93 76.39 10.00 320.49 2604.72
   11:00:22.880.09-Sep-2020 5456.01 3588.85 76.39 10.00 320.69 2604.72
   11:00:23.080.09-Sep-2020 5456.01 3588.97 76.39 10.00 320.89 2604.72
   11:00:23.280.09-Sep-2020 5456.01 3588.90 76.39 10.00 321.09 2604.72
   11:00:23.480.09-Sep-2020 5456.01 3588.90 76.39 10.00 321.29 2604.72
   11:00:23.680.09-Sep-2020 5456.01 3588.92 76.39 10.00 321.49 2604.72
   11:00:23.880.09-Sep-2020 5456.01 3588.91 76.39 10.00 321.69 2604.72
   11:00:24.080.09-Sep-2020 5456.01 3588.93 76.39 10.00 321.89 2604.72
   11:00:24.280.09-Sep-2020 5456.01 3588.91 76.39 10.00 322.09 2604.72
   11:00:24.480.09-Sep-2020 5456.01 3588.91 76.39 10.00 322.29 2604.72
   11:00:24.680.09-Sep-2020 5456.01 3588.92 76.39 10.00 322.49 2604.72
   11:00:24.880.09-Sep-2020 5456.01 3588.92 76.39 10.00 322.69 2604.72
   11:00:25.080.09-Sep-2020 5456.01 3588.94 76.39 10.00 322.89 2604.72
   11:00:25.280.09-Sep-2020 5456.01 3588.81 76.39 10.00 323.09 2604.72
   11:00:25.480.09-Sep-2020 5456.01 3588.81 76.39 10.00 323.29 2604.72
   11:00:25.680.09-Sep-2020 5456.01 3588.95 76.39 10.00 323.49 2604.72
   11:00:25.881.09-Sep-2020 5456.01 3588.91 76.39 10.00 323.69 2604.72
   11:00:26.081.09-Sep-2020 5456.01 3588.96 76.39 10.00 323.89 2604.72
   11:00:26.281.09-Sep-2020 5456.01 3588.97 76.39 10.00 324.09 2604.72
   11:00:26.481.09-Sep-2020 5456.01 3588.97 76.39 10.00 324.29 2604.72
   11:00:26.681.09-Sep-2020 5456.01 3589.33 76.39 10.00 324.49 2604.72
   11:00:26.881.09-Sep-2020 5456.01 3588.94 76.39 10.00 324.69 2604.72
   11:00:27.081.09-Sep-2020 5456.01 3588.92 76.39 10.00 324.89 2604.72
   11:00:27.281.09-Sep-2020 5456.01 3588.48 76.39 10.00 325.09 2604.72
   11:00:27.481.09-Sep-2020 5456.01 3588.48 76.39 10.00 325.29 2604.72
   11:00:27.681.09-Sep-2020 5456.01 3588.92 76.39 10.00 325.49 2604.72
   11:00:27.881.09-Sep-2020 5456.01 3588.93 76.39 10.00 325.69 2604.72
   11:00:28.081.09-Sep-2020 5456.01 3588.89 76.39 10.00 325.89 2604.72
   11:00:28.281.09-Sep-2020 5456.01 3589.05 76.39 10.00 326.09 2604.72
   11:00:28.481.09-Sep-2020 5456.01 3589.05 76.39 10.00 326.29 2604.72
   11:00:28.681.09-Sep-2020 5456.01 3588.89 76.39 10.00 326.49 2604.72
   11:00:28.881.09-Sep-2020 5456.01 3588.91 76.39 10.00 326.69 2604.72
   11:00:29.081.09-Sep-2020 5456.01 3589.01 76.39 10.00 326.89 2604.72
   11:00:29.281.09-Sep-2020 5456.01 3588.86 76.39 10.00 327.09 2604.72
   11:00:29.482.09-Sep-2020 5456.01 3588.86 76.39 10.00 327.29 2604.72
   11:00:29.682.09-Sep-2020 5456.01 3589.13 76.39 10.00 327.49 2604.72
   11:00:29.882.09-Sep-2020 5456.01 3588.94 76.39 10.00 327.69 2604.72
   11:00:30.082.09-Sep-2020 5456.01 3588.92 76.39 10.00 327.89 2604.72
   11:00:30.282.09-Sep-2020 5456.01 3588.86 76.39 10.00 328.09 2604.72
   11:00:30.482.09-Sep-2020 5456.01 3588.86 76.39 10.00 328.29 2604.72
   11:00:30.682.09-Sep-2020 5456.01 3588.90 76.39 10.00 328.49 2604.72
   11:00:30.882.09-Sep-2020 5456.01 3588.92 76.39 10.00 328.69 2604.72
   11:00:31.082.09-Sep-2020 5456.01 3588.93 76.39 10.00 328.89 2604.72
   11:00:31.282.09-Sep-2020 5456.01 3588.90 76.39 10.00 329.09 2604.72
   11:00:31.482.09-Sep-2020 5456.01 3588.90 76.39 10.00 329.29 2604.72
   11:00:31.682.09-Sep-2020 5456.01 3588.93 76.39 10.00 329.49 2604.72
   11:00:31.882.09-Sep-2020 5456.01 3588.92 76.39 10.00 329.69 2604.72
   11:00:32.082.09-Sep-2020 5456.01 3588.91 76.39 10.00 329.89 2604.72
   11:00:32.282.09-Sep-2020 5456.01 3588.91 76.39 10.00 330.09 2604.72
   11:00:32.482.09-Sep-2020 5456.01 3588.91 76.39 10.00 330.29 2604.72
   11:00:32.682.09-Sep-2020 5456.01 3588.92 76.39 10.00 330.49 2604.72
   11:00:32.882.09-Sep-2020 5456.01 3588.93 76.39 10.00 330.69 2604.72
   11:00:33.083.09-Sep-2020 5456.01 3588.93 76.39 10.00 330.89 2604.72
   11:00:33.283.09-Sep-2020 5456.01 3589.01 76.39 10.00 331.09 2604.72
   11:00:33.483.09-Sep-2020 5456.01 3589.01 76.39 10.00 331.29 2604.72
   11:00:33.683.09-Sep-2020 5456.01 3588.92 76.39 10.00 331.49 2604.72
   11:00:33.883.09-Sep-2020 5456.01 3588.90 76.39 10.00 331.69 2604.72
   11:00:34.083.09-Sep-2020 5456.01 3589.02 76.39 10.00 331.89 2604.72
   11:00:34.283.09-Sep-2020 5456.01 3588.83 76.39 10.00 332.09 2604.72
   11:00:34.483.09-Sep-2020 5456.01 3588.83 76.39 10.00 332.29 2604.72
   11:00:34.683.09-Sep-2020 5456.01 3588.91 76.39 10.00 332.49 2604.72
   11:00:34.883.09-Sep-2020 5456.01 3588.93 76.39 10.00 332.69 2604.72
   11:00:35.083.09-Sep-2020 5456.01 3588.92 76.39 10.00 332.89 2604.72
   11:00:35.283.09-Sep-2020 5456.01 3588.92 76.39 10.00 333.09 2604.72
   11:00:35.483.09-Sep-2020 5456.01 3588.92 76.39 10.00 333.29 2604.72
   11:00:35.683.09-Sep-2020 5456.01 3588.90 76.39 10.00 333.49 2604.72
   11:00:35.883.09-Sep-2020 5456.01 3588.90 76.39 10.00 333.69 2604.72
   11:00:36.083.09-Sep-2020 5456.01 3588.93 76.39 10.00 333.89 2604.72
   11:00:36.283.09-Sep-2020 5456.01 3588.94 76.39 10.00 334.09 2604.72
   11:00:36.483.09-Sep-2020 5456.01 3588.52 76.39 10.00 334.29 2604.72
   11:00:36.684.09-Sep-2020 5456.01 3589.30 76.39 10.00 334.49 2604.72
   11:00:36.884.09-Sep-2020 5456.01 3588.93 76.39 10.00 334.69 2604.72
   11:00:37.084.09-Sep-2020 5456.01 3588.93 76.39 10.00 334.89 2604.72
   11:00:37.284.09-Sep-2020 5456.01 3588.90 76.39 10.00 335.09 2604.72
   11:00:37.484.09-Sep-2020 5456.01 3588.90 76.39 10.00 335.29 2604.72
   11:00:37.684.09-Sep-2020 5456.01 3588.66 76.39 10.00 335.49 2604.72
   11:00:37.884.09-Sep-2020 5456.01 3589.20 76.39 10.00 335.69 2604.72
   11:00:38.084.09-Sep-2020 5456.01 3588.93 76.39 10.00 335.89 2604.72
   11:00:38.284.09-Sep-2020 5456.01 3588.91 76.39 10.00 336.09 2604.72
   11:00:38.484.09-Sep-2020 5456.01 3588.91 76.39 10.00 336.29 2604.72
   11:00:38.684.09-Sep-2020 5456.01 3589.21 76.39 10.00 336.49 2604.72
   11:00:38.884.09-Sep-2020 5456.01 3588.92 76.39 10.00 336.69 2604.72
   11:00:39.084.09-Sep-2020 5456.01 3588.94 76.39 10.00 336.89 2604.72
   11:00:39.284.09-Sep-2020 5456.01 3588.80 76.39 10.00 337.09 2604.72
   11:00:39.484.09-Sep-2020 5456.01 3588.80 76.39 10.00 337.29 2604.72
   11:00:39.684.09-Sep-2020 5456.01 3588.96 76.39 10.00 337.49 2604.72
   11:00:39.884.09-Sep-2020 5456.01 3588.92 76.39 10.00 337.69 2604.72
   11:00:40.084.09-Sep-2020 5456.01 3588.95 76.39 10.00 337.89 2604.72
   11:00:40.285.09-Sep-2020 5456.01 3589.00 76.39 10.00 338.09 2604.72
   11:00:40.485.09-Sep-2020 5456.01 3589.00 76.39 10.00 338.29 2604.72
   11:00:40.685.09-Sep-2020 5456.01 3589.03 76.39 10.00 338.49 2604.72
   11:00:40.885.09-Sep-2020 5456.01 3588.86 76.39 10.00 338.69 2604.72
   11:00:41.085.09-Sep-2020 5456.01 3588.93 76.39 10.00 338.89 2604.72
