~Version Information
 VERS.                  2.0:   CWLS log ASCII Standard -VERSION 2.0
 WRAP.                   NO:   One line per depth step
~Well Information Block
#MNEM.UNIT     VALUE/NAME     DESCRIPTION
#---------     -----------    ---------------------------
 STRT.S             21:21:48 09-Sep-20: START TIME 21:21:48 09-Sep-20
 STOP.S             21:29:57 09-Sep-20: STOP TIME  21:29:57 09-Sep-20
 STEP.S                   0.00: STEP TIME
 NULL.                 -999.25: NULL VALUE
 MDS .        Operator Entered:  MAG DATA SOURCE
 PDAT.          Mean Sea Level:  PERMANENT DATUM
 DCON.         Sperry Drilling:  DIRECTNL CONTR
 RIG .              West Azeri:  RIG NAME
 WELL.           C40 (Slot 20):  WELL NAME
 SRVC.     Turan Drilling Engineering:  CONTRACTOR
 FLD .                     ACG:  FIELD NAME
 CTRY.              Azerbaijan:  COUNTRY NAME
 PROV.                    Baku:  PROVINCE
 STAT.                    Baku:  STATE NAME
 REGN.                   EESSA:  REGION
 BASE.              Azerbaijan:  LOGGING EQUIPMENT BASE LOCATION
 COMP.     BP Exploration (Caspian Sea) Ltd:  COMPANY
 WTYP.                Deviated:  WELL TYPE
 SON .        AZ-XX-0906344804:  JOB NUMBER
 FTOP.          Formation Tops:  FORM TOPS DESC
 ILTD.               Lithology:  INTERP LTH DESC
 SVYD.                  Survey:  SURVEY DESC
 DMOD.             Drill Model:  DRILL MOD DESC
 HPTY.       Minimum Curvature:  HOLE POS TYPE
 NREF.                    Grid:  NORTH REFERENCE
 SPUD.               01-Jan-20:  SPUD DATE
 DATE.      00.59.44 15-Sep-20:  END TIME
 STIM.      12.00.00 12-Jun-20:  START TIME
 DMF .             Drill Floor:  DRILL MEAS FROM
 DFST.                        :  DIST FSL TEXT
 DFWT.                        :  DIST FWL TEXT
 API .                        :  API NUMBER
 CNTY.                        :  COUNTY
 UWI .                        :  UNIQUE WELL IDENTIFIER
 LOC .                        :  LOCATION
 LMF .             Drill Floor:  LOG MEASURED FROM
 VSNS.m                   2.88:  VERT SEC N/S
 VSEW.m                  -3.84:  VERT SEC E/W
 AGAP.m                  43.42:  AIR GAP
 APD .m                  43.42:  DEPTH ABOVE PD
 WDMS.m                 118.27:  WD ELEV
 EGL .m                   0.00:  GROUND ELEVATION
 EPD .m                   0.00:  ELEVATION
 AZTC.deg                 6.23:  AZM TOTAL CORR
 GRDC.deg                 0.20:  GRID CORRECTION
 MDEC.deg                 6.43:  MAGNETIC DECL
 MDIP.deg                59.49:  MAGNETIC DIP
 MFLD.nT              50277.00:  MAGNETIC FIELD
 GVFD.g                   1.00:  GRAVITY FIELD
 VSDR.deg               173.20:  VERT SEC DIRECT
 TDD .m                5790.01:  TOTAL DEPTH (DRILLER)
 SDEP.m                5231.01:  START DEPTH
 DFSL.m                   0.00:  DISTANCE FSL
 DFWL.m                   0.00:  DISTANCE FWL
 UTMY.m             4435808.83:  UTM Y
 UTMX.m              526266.40:  UTM X
 WHEW.m                  -3.84:  WELL HEAD E/W
 WHNS.m                   2.88:  WELL HEAD N/S
 LONG.deg                51.31:  LONGITUDE
 LATI.deg                40.06:  LATITUDE
 TVDS.m                  43.42:  TVDSS CORRECTN
 DEP .m                 430.08:  DEPTH
 EKB .m                  43.42:  KB ELEVATION
 EDF .m                  43.42:  DF ELEVATION
 TDL .m                 559.00:  TOTAL DEPTH (LOGGER)
 MAGU.                 1849381:  MAGUTM CHECKSUM
 VSC .                       0:  VS TO CLOSURE
~Parameter Information Block
#MNEM.UNIT       Value        Description
#---------     -----------    ---------------------------
 AV  .mps                 4.87:  Ann Velocity 
 AVMX.mps                 7.08:  Max Ann Veloc 
 AZIF.deg               108.87:  Azm, Final 
 BHAT.                  Rotary:  BHA Type 
 BROT.°/30m               0.35:  Build Rotating 
 BS  .in                  8.50:  Bit Size 
 BSZ .in                  8.50:  Bit Size 
 BTPL.psig              360.00:  Bit Press Loss 
 CABU.                     Yes:  Customer Abuse 
 COMM.                     ¼¥|:  Run Comments 1 
 TCS .hr                106.24:  Time Ciculation Ended 
 CV  .mps                 1.77:  Crit Velocity 
 CVMX.mps                 2.03:  Max Crit Veloc 
 DD1 .         Aykhan Agagulov:  Direct Drillr 1 
 DD2 .            Nonso Okofor:  Direct Drillr 2 
 DDSV.               Geo-Pilot:  DD Service 
 DEFF.%                  98.00:  % Det Eff 
 DLRX.°/30m               0.50:  Dogleg Rot Max 
 DLSO.°/30m               0.40:  Dogleg Oriented 
 DLSX.°/30m               0.94:  Dogleg Str Max 
 DRET.      20.30.00 08-Sep-20:  Drill End Time 
 DRST.      22.15.00 06-Sep-20:  Drill Start Tim 
 DTIM.hr                 31.31:  Time Drilling 
 EDEP.m                5790.01:  End Depth 
 ENG1.           Amrah Tahirov:  Engineer 1 
 ENG2.         Dair Mahammadov:  Engineer 2 
 ENG3.           Emil Huseynov:  Engineer 3 
 ETIM.      04.01.04 12-Sep-20:  End Time 
 FLOI.gpm               450.00:  Flow In 
 FLON.gpm               450.00:  Flow In Min 
 FLOS.cptm                2.00:  Fluid Loss 
 FLOX.gpm               450.00:  Flow In Max 
 FTRO.       Formation Presure:  FTWD Run Obj 
 HFLO.                      No:  High Flow 
 HPRE.                      No:  High Pressure 
 HTEM.                      No:  High Temp 
 HYDO.m                   1.80:  Hydro Offset 
 IFIN.deg                72.03:  Inc, Final 
 IMAX.deg                73.72:  Inc Max 
 IMIN.deg                70.94:  Inc Min 
 IMND.m                5508.52:  Inc Min Depth 
 IMXD.m                5253.60:  Inc Max Depth 
 JARR.                      No:  Jarring 
 LETM.      20.30.00 08-Sep-20:  Log End Time 
 LOST.hr                     0:  Lost Rig Time 
 LSTM.      22.15.00 06-Sep-20:  Log Start Time 
 MDCL.ppm             36000.00:  Mud Chlorides 
 MDES.     Inversion Oil/Synthetic:  Mud Desc 
 DFD .sg                  1.44:  Mud Density 
 MDMN.sg                  1.44:  Dens Mud Min 
 MDMX.sg                  1.57:  Dens Mud Max 
 MOIL.                      70:  Run Mud Oil % 
 MOWR.                   70:30:  Run Mud OWR 
 MSND.                       0:  Run Mud Sand % 
 MSOL.                      21:  Run Mud Solids% 
 DFV .spqt               68.00:  Mud Viscosity 
 MWOD.in                  6.75:  MWD Tool OD 
 MWSI.                     Yes:  Serv Intrp, MWD 
 OTIM.hr                174.84:  Time Operating 
 PCON.           Look Like New:  Pad Condition 
 PMAX.psia            10616.93:  Press Op, Max 
 PV  .cP                 50.00:  Mud PV 
 RUN .                     700:  Run Number 
 ROPA.m/hr               14.24:  ROP Avg 
 ROPN.m/hr               10.00:  ROP Min 
 ROPX.m/hr               32.00:  ROP Max 
 RPMA.rpm               120.90:  RPM Surface Avg 
 RPMN.rpm               120.00:  RPM Surface Min 
 RPMX.rpm               140.00:  RPM Surface Max 
 RRUN.                    0700:  Rig Run Number 
 RTIM.hr                  3.20:  Time Reaming 
 SAZI.deg               109.99:  Azm, Start 
 SDEP.m                5231.01:  Start Depth 
 SIDD.                      No:  Serv Intrp, DD 
 SINC.deg                73.72:  Inc, Start 
 SPPA.psig             3051.00:  SPP Avg 
 SPPN.psig             2950.00:  SPP Min 
 SPPX.psig             3250.00:  SPP Max 
 STIM.      08.00.00 05-Sep-20:  Start Time 
 SVCS.                 DD, MWD:  Services 
 SVER.                    9.20:  Sperry Version 
 TDAT.m                 559.00:  Tot Depth Attmp 
 TDDF.                      No:  Trip for DD 
 TDLG.m                 559.00:  Tot Depth Loggd 
 TFF .                      No:  Trip for Fail 
 TQAA.f-kp               26.49:  Torque Abs Avg 
 TQAN.f-kp               25.00:  Torque Abs Min 
 TQAX.f-kp               27.00:  Torque Abs Max 
 TRRT.°/30m               1.50:  Turn Rotating 
 MRT .                    HCIM:  Maximum Recorded Temperature 
 TTMX.degC               90.20:  Max Tool Temp 
 VS01.                90542671:  Virtual Str1 SN 
 VS02.                90545185:  Virtual Str2 SN 
 VS03.                90602015:  Virtual Str3 SN 
 VS04.                90515230:  Virtual Str4 SN 
 WBMN.klb                 5.00:  WOB Min 
 WOBA.klb                14.79:  WOB Avg 
 WOBX.klb                20.00:  WOB Max 
 YP  .lhf2               29.00:  Yield Point 
~Curve Information Block
#MNEM.UNIT                 API CODE     Curve Description
#---------               -----------    ---------------------------
 TIME.HHMMSS            00 000 000 000:  GT Time & Date
 GTDEPTH.m              00 000 000 000:  GT Depth
 GTPQH.psia             00 000 000 000:  GT HR Quartz Pressure
 GTTQ.degC              00 000 000 000:  GT Quartz Temperature
 GTTN.NONE              00 000 000 000:  GT Test Number
 GTET.sec               00 000 000 000:  GT Elapsed Test Time
 GTTVD.m                00 000 000 000:  GT True Vertical Depth
#Other Information
#
#WARRANTY: Halliburton will use its best efforts to furnish customers with 
#accurate information and interpretations that are part of, and incident to, the services 
#provided.  However, Halliburton cannot and does not warrant the accuracy 
#or correctness of such information and interpretations.  Under no circumstances should any 
#such information or interpretation be relied upon as the sole basis for any drilling, 
#completion, production, or financial decision or any procedure involving any risk to the 
#safety of any drilling venture, drilling rig or its crew or any other third party.  The 
#Customer has full responsibility for all drilling, completion and production operation.  
#Halliburton makes no representations or warranties, either expressed or 
#implied, including, but not limited to, the implied warranties of merchantability or fitness 
#for a particular purpose, with respect to the services rendered.  In no event will 
#Halliburton be liable for failure to obtain any particular results or for 
#any damages, including, but not limited to, indirect, special or consequential damages, 
#resulting from the use of any information or interpretation provided by Halliburton.
#
~A           TIME           GTDEPTH  GTPQH  GTTQ  GTTN   GTET   GTTVD  
# ...
   21:28:12.694.09-Sep-2020 5252.22  281.59 73.45 26.00 384.38 2542.36
   21:28:12.894.09-Sep-2020 5252.22  281.71 73.45 26.00 384.58 2542.36
   21:28:13.094.09-Sep-2020 5252.22  281.89 73.45 26.00 384.78 2542.36
   21:28:13.294.09-Sep-2020 5252.22  281.99 73.45 26.00 384.98 2542.36
   21:28:13.494.09-Sep-2020 5252.22  282.09 73.45 26.00 385.18 2542.36
   21:28:13.694.09-Sep-2020 5252.22  282.09 73.45 26.00 385.38 2542.36
   21:28:13.894.09-Sep-2020 5252.22  282.29 73.45 26.00 385.58 2542.36
   21:28:14.095.09-Sep-2020 5252.22  282.40 73.45 26.00 385.78 2542.36
   21:28:14.295.09-Sep-2020 5252.22  282.51 73.45 26.00 385.98 2542.36
   21:28:14.495.09-Sep-2020 5252.22  282.63 73.45 26.00 386.18 2542.36
   21:28:14.695.09-Sep-2020 5252.22  282.72 73.45 26.00 386.38 2542.36
   21:28:14.895.09-Sep-2020 5252.22  282.80 73.45 26.00 386.58 2542.36
   21:28:15.095.09-Sep-2020 5252.22  282.89 73.45 26.00 386.78 2542.36
   21:28:15.295.09-Sep-2020 5252.22  283.00 73.45 26.00 386.98 2542.36
   21:28:15.495.09-Sep-2020 5252.22  283.12 73.45 26.00 387.18 2542.36
   21:28:15.695.09-Sep-2020 5252.22  282.84 73.45 26.00 387.38 2542.36
   21:28:15.895.09-Sep-2020 5252.22  283.41 73.45 26.00 387.58 2542.36
   21:28:16.095.09-Sep-2020 5252.22  283.46 73.45 26.00 387.78 2542.36
   21:28:16.296.09-Sep-2020 5252.22  283.53 73.45 26.00 387.98 2542.36
   21:28:16.496.09-Sep-2020 5252.22  283.64 73.45 26.00 388.18 2542.36
   21:28:16.696.09-Sep-2020 5252.22  283.64 73.45 26.00 388.38 2542.36
   21:28:16.896.09-Sep-2020 5252.22  283.86 73.45 26.00 388.58 2542.36
   21:28:17.096.09-Sep-2020 5252.22  283.95 73.45 26.00 388.78 2542.36
   21:28:17.296.09-Sep-2020 5252.22  284.05 73.45 26.00 388.98 2542.36
   21:28:17.496.09-Sep-2020 5252.22  284.13 73.45 26.00 389.18 2542.36
   21:28:17.696.09-Sep-2020 5252.22  284.13 73.45 26.00 389.38 2542.36
   21:28:17.896.09-Sep-2020 5252.22  284.35 73.45 26.00 389.58 2542.36
   21:28:18.096.09-Sep-2020 5252.22  284.41 73.45 26.00 389.78 2542.36
   21:28:18.296.09-Sep-2020 5252.22  284.51 73.45 26.00 389.98 2542.36
   21:28:18.497.09-Sep-2020 5252.22  284.59 73.45 26.00 390.18 2542.36
   21:28:18.697.09-Sep-2020 5252.22  284.70 73.45 26.00 390.38 2542.36
   21:28:18.897.09-Sep-2020 5252.22  284.33 73.45 26.00 390.58 2542.36
   21:28:19.097.09-Sep-2020 5252.22  285.04 73.45 26.00 390.78 2542.36
   21:28:19.297.09-Sep-2020 5252.22  284.95 73.45 26.00 390.98 2542.36
   21:28:19.497.09-Sep-2020 5252.22  285.02 73.45 26.00 391.18 2542.36
   21:28:19.697.09-Sep-2020 5252.22  285.10 73.45 26.00 391.38 2542.36
   21:28:19.897.09-Sep-2020 5252.22  285.33 73.45 26.00 391.58 2542.36
   21:28:20.097.09-Sep-2020 5252.22  284.97 73.45 26.00 391.78 2542.36
   21:28:20.297.09-Sep-2020 5252.22  285.51 73.45 26.00 391.98 2542.36
   21:28:20.498.09-Sep-2020 5252.22  285.56 73.45 26.00 392.18 2542.36
   21:28:20.698.09-Sep-2020 5252.22  285.56 73.45 26.00 392.38 2542.36
   21:28:20.898.09-Sep-2020 5252.22  285.30 73.45 26.00 392.58 2542.36
   21:28:21.098.09-Sep-2020 5252.22  286.16 73.45 26.00 392.78 2542.36
   21:28:21.298.09-Sep-2020 5252.22  286.08 73.45 26.00 392.98 2542.36
   21:28:21.498.09-Sep-2020 5252.22  286.17 73.45 26.00 393.18 2542.36
   21:28:21.698.09-Sep-2020 5252.22  286.17 73.45 26.00 393.38 2542.36
   21:28:21.898.09-Sep-2020 5252.22  286.46 73.45 26.00 393.58 2542.36
   21:28:22.098.09-Sep-2020 5252.22  286.24 73.45 26.00 393.78 2542.36
   21:28:22.298.09-Sep-2020 5252.22  286.57 73.45 26.00 393.98 2542.36
   21:28:22.498.09-Sep-2020 5252.22  286.74 73.45 26.00 394.18 2542.36
   21:28:22.699.09-Sep-2020 5252.22  286.80 73.45 26.00 394.38 2542.36
   21:28:22.899.09-Sep-2020 5252.22  286.75 73.45 26.00 394.58 2542.36
   21:28:23.099.09-Sep-2020 5252.22  287.00 73.45 26.00 394.78 2542.36
   21:28:23.299.09-Sep-2020 5252.22  287.23 73.45 26.00 394.98 2542.36
   21:28:23.499.09-Sep-2020 5252.22  287.27 73.45 26.00 395.18 2542.36
   21:28:23.699.09-Sep-2020 5252.22  287.48 73.45 26.00 395.38 2542.36
   21:28:23.899.09-Sep-2020 5252.22  287.47 73.45 26.00 395.58 2542.36
   21:28:24.099.09-Sep-2020 5252.22  287.62 73.45 26.00 395.78 2542.36
   21:28:24.299.09-Sep-2020 5252.22  287.69 73.45 26.00 395.98 2542.36
   21:28:24.499.09-Sep-2020 5252.22  287.81 73.45 26.00 396.18 2542.36
   21:28:24.699.09-Sep-2020 5252.22  287.81 73.45 26.00 396.38 2542.36
   21:28:24.900.09-Sep-2020 5252.22  287.99 73.45 26.00 396.58 2542.36
   21:28:25.100.09-Sep-2020 5252.22  288.10 73.45 26.00 396.78 2542.36
   21:28:25.300.09-Sep-2020 5252.22  288.20 73.45 26.00 396.98 2542.36
   21:28:25.500.09-Sep-2020 5252.22  288.28 73.45 26.00 397.18 2542.36
   21:28:25.700.09-Sep-2020 5252.22  288.28 73.45 26.00 397.38 2542.36
   21:28:25.900.09-Sep-2020 5252.22  288.44 73.45 26.00 397.58 2542.36
   21:28:26.100.09-Sep-2020 5252.22  288.53 73.45 26.00 397.78 2542.36
   21:28:26.300.09-Sep-2020 5252.22  288.63 73.45 26.00 397.98 2542.36
   21:28:26.500.09-Sep-2020 5252.22  288.46 73.45 26.00 398.18 2542.36
   21:28:26.700.09-Sep-2020 5252.22  288.79 73.45 26.00 398.38 2542.36
   21:28:26.900.09-Sep-2020 5252.22  288.95 73.45 26.00 398.58 2542.36
   21:28:27.101.09-Sep-2020 5252.22  289.01 73.45 26.00 398.78 2542.36
   21:28:27.301.09-Sep-2020 5252.22  289.20 73.45 26.00 398.98 2542.36
   21:28:27.501.09-Sep-2020 5252.22  289.19 73.45 26.00 399.18 2542.36
   21:28:27.701.09-Sep-2020 5252.22  289.33 73.45 26.00 399.38 2542.36
   21:28:27.901.09-Sep-2020 5252.22  289.40 73.45 26.00 399.58 2542.36
   21:28:28.101.09-Sep-2020 5252.22  289.50 73.45 26.00 399.78 2542.36
   21:28:28.301.09-Sep-2020 5252.22  289.57 73.45 26.00 399.98 2542.36
   21:28:28.501.09-Sep-2020 5252.22  289.68 73.45 26.00 400.18 2542.36
   21:28:28.701.09-Sep-2020 5252.22  289.77 73.45 26.00 400.38 2542.36
   21:28:28.901.09-Sep-2020 5252.22  289.83 73.45 26.00 400.58 2542.36
   21:28:29.101.09-Sep-2020 5252.22  289.91 73.45 26.00 400.78 2542.36
   21:28:29.302.09-Sep-2020 5252.22  289.99 73.45 26.00 400.98 2542.36
   21:28:29.502.09-Sep-2020 5252.22  290.09 73.45 26.00 401.18 2542.36
   21:28:29.702.09-Sep-2020 5252.22  289.80 73.45 26.00 401.38 2542.36
   21:28:29.902.09-Sep-2020 5252.22  290.35 73.45 26.00 401.59 2542.36
   21:28:30.102.09-Sep-2020 5252.22  290.34 73.45 26.00 401.79 2542.36
   21:28:30.302.09-Sep-2020 5252.22  290.42 73.45 26.00 401.99 2542.36
   21:28:30.502.09-Sep-2020 5252.22  290.49 73.45 26.00 402.19 2542.36
   21:28:30.702.09-Sep-2020 5252.22  290.67 73.45 26.00 402.39 2542.36
   21:28:30.902.09-Sep-2020 5252.22  290.46 73.45 26.00 402.59 2542.36
   21:28:31.102.09-Sep-2020 5252.22  290.73 73.45 26.00 402.79 2542.36
   21:28:31.302.09-Sep-2020 5252.22  290.90 73.45 26.00 402.99 2542.36
   21:28:31.503.09-Sep-2020 5252.22  290.97 73.45 26.00 403.19 2542.36
   21:28:31.703.09-Sep-2020 5252.22  290.69 73.45 26.00 403.39 2542.36
   21:28:31.903.09-Sep-2020 5252.22  291.59 73.45 26.00 403.59 2542.36
   21:28:32.103.09-Sep-2020 5252.22  291.56 73.45 26.00 403.79 2542.36
   21:28:32.303.09-Sep-2020 5252.22  291.71 73.45 26.00 403.99 2542.36
   21:28:32.503.09-Sep-2020 5252.22  291.85 73.45 26.00 404.19 2542.36
   21:28:32.703.09-Sep-2020 5252.22  292.05 73.45 26.00 404.39 2542.36
   21:28:32.903.09-Sep-2020 5252.22  291.72 73.45 26.00 404.59 2542.36
   21:28:33.103.09-Sep-2020 5252.22  292.29 73.45 26.00 404.79 2542.36
   21:28:33.303.09-Sep-2020 5252.22  292.34 73.45 26.00 404.99 2542.36
   21:28:33.503.09-Sep-2020 5252.22  292.40 73.45 26.00 405.19 2542.36
   21:28:33.704.09-Sep-2020 5252.22  292.40 73.45 26.00 405.39 2542.36
   21:28:33.904.09-Sep-2020 5252.22  292.69 73.45 26.00 405.59 2542.36
   21:28:34.104.09-Sep-2020 5252.22  292.74 73.45 26.00 405.79 2542.36
   21:28:34.304.09-Sep-2020 5252.22  292.61 73.45 26.00 405.99 2542.36
   21:28:34.504.09-Sep-2020 5252.22  292.78 73.45 26.00 406.19 2542.36
   21:28:34.704.09-Sep-2020 5252.22  293.02 73.45 26.00 406.39 2542.36
   21:28:34.904.09-Sep-2020 5252.22  293.12 73.45 26.00 406.59 2542.36
   21:28:35.104.09-Sep-2020 5252.22  293.20 73.45 26.00 406.79 2542.36
