~Version Information
 VERS.                  2.0:   CWLS log ASCII Standard -VERSION 2.0
 WRAP.                   NO:   One line per depth step
~Well Information Block
#MNEM.UNIT     VALUE/NAME     DESCRIPTION
#---------     -----------    ---------------------------
 STRT.S             05:36:14 09-Sep-20: START TIME 05:36:14 09-Sep-20
 STOP.S             05:43:10 09-Sep-20: STOP TIME  05:43:10 09-Sep-20
 STEP.S                   0.00: STEP TIME
 NULL.                 -999.25: NULL VALUE
 MDS .        Operator Entered:  MAG DATA SOURCE
 PDAT.          Mean Sea Level:  PERMANENT DATUM
 DCON.         Sperry Drilling:  DIRECTNL CONTR
 RIG .              West Azeri:  RIG NAME
 WELL.           C40 (Slot 20):  WELL NAME
 SRVC.     Turan Drilling Engineering:  CONTRACTOR
 FLD .                     ACG:  FIELD NAME
 CTRY.              Azerbaijan:  COUNTRY NAME
 PROV.                    Baku:  PROVINCE
 STAT.                    Baku:  STATE NAME
 REGN.                   EESSA:  REGION
 BASE.              Azerbaijan:  LOGGING EQUIPMENT BASE LOCATION
 COMP.     BP Exploration (Caspian Sea) Ltd:  COMPANY
 WTYP.                Deviated:  WELL TYPE
 SON .        AZ-XX-0906344804:  JOB NUMBER
 FTOP.          Formation Tops:  FORM TOPS DESC
 ILTD.               Lithology:  INTERP LTH DESC
 SVYD.                  Survey:  SURVEY DESC
 DMOD.             Drill Model:  DRILL MOD DESC
 HPTY.       Minimum Curvature:  HOLE POS TYPE
 NREF.                    Grid:  NORTH REFERENCE
 SPUD.               01-Jan-20:  SPUD DATE
 DATE.      00.59.44 15-Sep-20:  END TIME
 STIM.      12.00.00 12-Jun-20:  START TIME
 DMF .             Drill Floor:  DRILL MEAS FROM
 DFST.                        :  DIST FSL TEXT
 DFWT.                        :  DIST FWL TEXT
 API .                        :  API NUMBER
 CNTY.                        :  COUNTY
 UWI .                        :  UNIQUE WELL IDENTIFIER
 LOC .                        :  LOCATION
 LMF .             Drill Floor:  LOG MEASURED FROM
 VSNS.m                   2.88:  VERT SEC N/S
 VSEW.m                  -3.84:  VERT SEC E/W
 AGAP.m                  43.42:  AIR GAP
 APD .m                  43.42:  DEPTH ABOVE PD
 WDMS.m                 118.27:  WD ELEV
 EGL .m                   0.00:  GROUND ELEVATION
 EPD .m                   0.00:  ELEVATION
 AZTC.deg                 6.23:  AZM TOTAL CORR
 GRDC.deg                 0.20:  GRID CORRECTION
 MDEC.deg                 6.43:  MAGNETIC DECL
 MDIP.deg                59.49:  MAGNETIC DIP
 MFLD.nT              50277.00:  MAGNETIC FIELD
 GVFD.g                   1.00:  GRAVITY FIELD
 VSDR.deg               173.20:  VERT SEC DIRECT
 TDD .m                5790.01:  TOTAL DEPTH (DRILLER)
 SDEP.m                5231.01:  START DEPTH
 DFSL.m                   0.00:  DISTANCE FSL
 DFWL.m                   0.00:  DISTANCE FWL
 UTMY.m             4435808.83:  UTM Y
 UTMX.m              526266.40:  UTM X
 WHEW.m                  -3.84:  WELL HEAD E/W
 WHNS.m                   2.88:  WELL HEAD N/S
 LONG.deg                51.31:  LONGITUDE
 LATI.deg                40.06:  LATITUDE
 TVDS.m                  43.42:  TVDSS CORRECTN
 DEP .m                 430.08:  DEPTH
 EKB .m                  43.42:  KB ELEVATION
 EDF .m                  43.42:  DF ELEVATION
 TDL .m                 559.00:  TOTAL DEPTH (LOGGER)
 MAGU.                 1849381:  MAGUTM CHECKSUM
 VSC .                       0:  VS TO CLOSURE
~Parameter Information Block
#MNEM.UNIT       Value        Description
#---------     -----------    ---------------------------
 AV  .mps                 4.87:  Ann Velocity 
 AVMX.mps                 7.08:  Max Ann Veloc 
 AZIF.deg               108.87:  Azm, Final 
 BHAT.                  Rotary:  BHA Type 
 BROT.°/30m               0.35:  Build Rotating 
 BS  .in                  8.50:  Bit Size 
 BSZ .in                  8.50:  Bit Size 
 BTPL.psig              360.00:  Bit Press Loss 
 CABU.                     Yes:  Customer Abuse 
 COMM.                     ”£|:  Run Comments 1 
 TCS .hr                106.24:  Time Ciculation Ended 
 CV  .mps                 1.77:  Crit Velocity 
 CVMX.mps                 2.03:  Max Crit Veloc 
 DD1 .         Aykhan Agagulov:  Direct Drillr 1 
 DD2 .            Nonso Okofor:  Direct Drillr 2 
 DDSV.               Geo-Pilot:  DD Service 
 DEFF.%                  98.00:  % Det Eff 
 DLRX.°/30m               0.50:  Dogleg Rot Max 
 DLSO.°/30m               0.40:  Dogleg Oriented 
 DLSX.°/30m               0.94:  Dogleg Str Max 
 DRET.      20.30.00 08-Sep-20:  Drill End Time 
 DRST.      22.15.00 06-Sep-20:  Drill Start Tim 
 DTIM.hr                 31.31:  Time Drilling 
 EDEP.m                5790.01:  End Depth 
 ENG1.           Amrah Tahirov:  Engineer 1 
 ENG2.         Dair Mahammadov:  Engineer 2 
 ENG3.           Emil Huseynov:  Engineer 3 
 ETIM.      04.01.04 12-Sep-20:  End Time 
 FLOI.gpm               450.00:  Flow In 
 FLON.gpm               450.00:  Flow In Min 
 FLOS.cptm                2.00:  Fluid Loss 
 FLOX.gpm               450.00:  Flow In Max 
 FTRO.       Formation Presure:  FTWD Run Obj 
 HFLO.                      No:  High Flow 
 HPRE.                      No:  High Pressure 
 HTEM.                      No:  High Temp 
 HYDO.m                   1.80:  Hydro Offset 
 IFIN.deg                72.03:  Inc, Final 
 IMAX.deg                73.72:  Inc Max 
 IMIN.deg                70.94:  Inc Min 
 IMND.m                5508.52:  Inc Min Depth 
 IMXD.m                5253.60:  Inc Max Depth 
 JARR.                      No:  Jarring 
 LETM.      20.30.00 08-Sep-20:  Log End Time 
 LOST.hr                     0:  Lost Rig Time 
 LSTM.      22.15.00 06-Sep-20:  Log Start Time 
 MDCL.ppm             36000.00:  Mud Chlorides 
 MDES.     Inversion Oil/Synthetic:  Mud Desc 
 DFD .sg                  1.44:  Mud Density 
 MDMN.sg                  1.44:  Dens Mud Min 
 MDMX.sg                  1.57:  Dens Mud Max 
 MOIL.                      70:  Run Mud Oil % 
 MOWR.                   70:30:  Run Mud OWR 
 MSND.                       0:  Run Mud Sand % 
 MSOL.                      21:  Run Mud Solids% 
 DFV .spqt               68.00:  Mud Viscosity 
 MWOD.in                  6.75:  MWD Tool OD 
 MWSI.                     Yes:  Serv Intrp, MWD 
 OTIM.hr                174.84:  Time Operating 
 PCON.           Look Like New:  Pad Condition 
 PMAX.psia            10616.93:  Press Op, Max 
 PV  .cP                 50.00:  Mud PV 
 RUN .                     700:  Run Number 
 ROPA.m/hr               14.24:  ROP Avg 
 ROPN.m/hr               10.00:  ROP Min 
 ROPX.m/hr               32.00:  ROP Max 
 RPMA.rpm               120.90:  RPM Surface Avg 
 RPMN.rpm               120.00:  RPM Surface Min 
 RPMX.rpm               140.00:  RPM Surface Max 
 RRUN.                    0700:  Rig Run Number 
 RTIM.hr                  3.20:  Time Reaming 
 SAZI.deg               109.99:  Azm, Start 
 SDEP.m                5231.01:  Start Depth 
 SIDD.                      No:  Serv Intrp, DD 
 SINC.deg                73.72:  Inc, Start 
 SPPA.psig             3051.00:  SPP Avg 
 SPPN.psig             2950.00:  SPP Min 
 SPPX.psig             3250.00:  SPP Max 
 STIM.      08.00.00 05-Sep-20:  Start Time 
 SVCS.                 DD, MWD:  Services 
 SVER.                    9.20:  Sperry Version 
 TDAT.m                 559.00:  Tot Depth Attmp 
 TDDF.                      No:  Trip for DD 
 TDLG.m                 559.00:  Tot Depth Loggd 
 TFF .                      No:  Trip for Fail 
 TQAA.f-kp               26.49:  Torque Abs Avg 
 TQAN.f-kp               25.00:  Torque Abs Min 
 TQAX.f-kp               27.00:  Torque Abs Max 
 TRRT.°/30m               1.50:  Turn Rotating 
 MRT .                    HCIM:  Maximum Recorded Temperature 
 TTMX.degC               90.20:  Max Tool Temp 
 VS01.                90542671:  Virtual Str1 SN 
 VS02.                90545185:  Virtual Str2 SN 
 VS03.                90602015:  Virtual Str3 SN 
 VS04.                90515230:  Virtual Str4 SN 
 WBMN.klb                 5.00:  WOB Min 
 WOBA.klb                14.79:  WOB Avg 
 WOBX.klb                20.00:  WOB Max 
 YP  .lhf2               29.00:  Yield Point 
~Curve Information Block
#MNEM.UNIT                 API CODE     Curve Description
#---------               -----------    ---------------------------
 TIME.HHMMSS            00 000 000 000:  GT Time & Date
 GTDEPTH.m              00 000 000 000:  GT Depth
 GTPQH.psia             00 000 000 000:  GT HR Quartz Pressure
 GTTQ.degC              00 000 000 000:  GT Quartz Temperature
 GTTN.NONE              00 000 000 000:  GT Test Number
 GTET.sec               00 000 000 000:  GT Elapsed Test Time
 GTTVD.m                00 000 000 000:  GT True Vertical Depth
#Other Information
#
#WARRANTY: Halliburton will use its best efforts to furnish customers with 
#accurate information and interpretations that are part of, and incident to, the services 
#provided.  However, Halliburton cannot and does not warrant the accuracy 
#or correctness of such information and interpretations.  Under no circumstances should any 
#such information or interpretation be relied upon as the sole basis for any drilling, 
#completion, production, or financial decision or any procedure involving any risk to the 
#safety of any drilling venture, drilling rig or its crew or any other third party.  The 
#Customer has full responsibility for all drilling, completion and production operation.  
#Halliburton makes no representations or warranties, either expressed or 
#implied, including, but not limited to, the implied warranties of merchantability or fitness 
#for a particular purpose, with respect to the services rendered.  In no event will 
#Halliburton be liable for failure to obtain any particular results or for 
#any damages, including, but not limited to, indirect, special or consequential damages, 
#resulting from the use of any information or interpretation provided by Halliburton.
#
~A           TIME           GTDEPTH  GTPQH  GTTQ  GTTN  GTET   GTTVD  
   05:36:14.083.09-Sep-2020 5634.01 -999.25 80.08 1.00   0.00 2660.75
   05:36:14.283.09-Sep-2020 5634.01 6402.63 80.08 1.00   0.20 2660.75
   05:36:14.483.09-Sep-2020 5634.01 6402.42 80.08 1.00   0.40 2660.75
   05:36:14.683.09-Sep-2020 5634.01 6403.98 80.08 1.00   0.60 2660.75
   05:36:14.883.09-Sep-2020 5634.01 6402.60 80.08 1.00   0.80 2660.75
   05:36:15.083.09-Sep-2020 5634.01 6407.91 80.08 1.00   1.00 2660.75
   05:36:15.283.09-Sep-2020 5634.01 6407.91 80.08 1.00   1.20 2660.75
   05:36:15.483.09-Sep-2020 5634.01 6405.93 80.08 1.00   1.40 2660.75
   05:36:15.683.09-Sep-2020 5634.01 6404.77 80.08 1.00   1.60 2660.75
   05:36:15.883.09-Sep-2020 5634.01 6405.17 80.08 1.00   1.80 2660.75
   05:36:16.083.09-Sep-2020 5634.01 6405.28 80.08 1.00   2.00 2660.75
   05:36:16.283.09-Sep-2020 5634.01 6405.28 80.08 1.00   2.20 2660.75
   05:36:16.483.09-Sep-2020 5634.01 6407.99 80.08 1.00   2.40 2660.75
   05:36:16.683.09-Sep-2020 5634.01 6413.21 80.08 1.00   2.60 2660.75
   05:36:16.883.09-Sep-2020 5634.01 6406.77 80.08 1.00   2.80 2660.75
   05:36:17.083.09-Sep-2020 5634.01 6408.69 80.08 1.00   3.00 2660.75
   05:36:17.283.09-Sep-2020 5634.01 6408.69 80.08 1.00   3.20 2660.75
   05:36:17.483.09-Sep-2020 5634.01 6406.01 80.08 1.00   3.40 2660.75
   05:36:17.683.09-Sep-2020 5634.01 6416.49 80.08 1.00   3.60 2660.75
   05:36:17.883.09-Sep-2020 5634.01 6405.03 80.08 1.00   3.80 2660.75
   05:36:18.083.09-Sep-2020 5634.01 6410.81 80.08 1.00   4.00 2660.75
   05:36:18.283.09-Sep-2020 5634.01 6410.81 80.08 1.00   4.20 2660.75
   05:36:18.483.09-Sep-2020 5634.01 6405.35 80.08 1.00   4.40 2660.75
   05:36:18.683.09-Sep-2020 5634.01 6415.12 80.08 1.00   4.60 2660.75
   05:36:18.883.09-Sep-2020 5634.01 6402.48 80.08 1.00   4.80 2660.75
   05:36:19.083.09-Sep-2020 5634.01 6409.08 80.08 1.00   5.00 2660.75
   05:36:19.283.09-Sep-2020 5634.01 6409.08 80.08 1.00   5.20 2660.75
   05:36:19.483.09-Sep-2020 5634.01 6404.90 80.08 1.00   5.40 2660.75
   05:36:19.683.09-Sep-2020 5634.01 6415.41 80.08 1.00   5.60 2660.75
   05:36:19.883.09-Sep-2020 5634.01 6403.21 80.08 1.00   5.80 2660.75
   05:36:20.083.09-Sep-2020 5634.01 6411.44 80.08 1.00   6.00 2660.75
   05:36:20.283.09-Sep-2020 5634.01 6411.44 80.08 1.00   6.20 2660.75
   05:36:20.483.09-Sep-2020 5634.01 6409.28 80.08 1.00   6.40 2660.75
   05:36:20.683.09-Sep-2020 5634.01 6412.23 80.08 1.00   6.60 2660.75
   05:36:20.883.09-Sep-2020 5634.01 6416.60 80.08 1.00   6.80 2660.75
   05:36:21.083.09-Sep-2020 5634.01 6413.49 80.08 1.00   7.00 2660.75
   05:36:21.283.09-Sep-2020 5634.01 6413.49 80.08 1.00   7.20 2660.75
   05:36:21.483.09-Sep-2020 5634.01 6417.34 80.07 1.00   7.40 2660.75
   05:36:21.683.09-Sep-2020 5634.01 6417.34 80.07 1.00   7.60 2660.75
   05:36:21.883.09-Sep-2020 5634.01 6419.00 80.07 1.00   7.80 2660.75
   05:36:22.083.09-Sep-2020 5634.01 6419.39 80.07 1.00   8.00 2660.75
   05:36:22.283.09-Sep-2020 5634.01 6424.87 80.07 1.00   8.20 2660.75
   05:36:22.483.09-Sep-2020 5634.01 6419.43 80.07 1.00   8.40 2660.75
   05:36:22.683.09-Sep-2020 5634.01 6421.59 80.07 1.00   8.60 2660.75
   05:36:22.883.09-Sep-2020 5634.01 6420.97 80.07 1.00   8.80 2660.75
   05:36:23.083.09-Sep-2020 5634.01 6419.19 80.07 1.00   9.00 2660.75
   05:36:23.283.09-Sep-2020 5634.01 6419.19 80.07 1.00   9.20 2660.75
   05:36:23.483.09-Sep-2020 5634.01 6420.19 80.07 1.00   9.40 2660.75
   05:36:23.683.09-Sep-2020 5634.01 6420.09 80.07 1.00   9.60 2660.75
   05:36:23.883.09-Sep-2020 5634.01 6419.56 80.07 1.00   9.80 2660.75
   05:36:24.083.09-Sep-2020 5634.01 6419.71 80.07 1.00  10.00 2660.75
   05:36:24.283.09-Sep-2020 5634.01 6419.71 80.07 1.00  10.20 2660.75
   05:36:24.483.09-Sep-2020 5634.01 6420.59 80.07 1.00  10.40 2660.75
   05:36:24.683.09-Sep-2020 5634.01 6420.85 80.07 1.00  10.60 2660.75
   05:36:24.883.09-Sep-2020 5634.01 6420.88 80.07 1.00  10.80 2660.75
   05:36:25.083.09-Sep-2020 5634.01 6421.19 80.07 1.00  11.00 2660.75
   05:36:25.283.09-Sep-2020 5634.01 6421.19 80.07 1.00  11.20 2660.75
   05:36:25.482.09-Sep-2020 5634.01 6422.26 80.07 1.00  11.40 2660.75
   05:36:25.682.09-Sep-2020 5634.01 6422.73 80.07 1.00  11.60 2660.75
   05:36:25.882.09-Sep-2020 5634.01 6430.66 80.07 1.00  11.80 2660.75
   05:36:26.082.09-Sep-2020 5634.01 6419.41 80.07 1.00  12.00 2660.75
   05:36:26.282.09-Sep-2020 5634.01 6419.41 80.07 1.00  12.20 2660.75
   05:36:26.482.09-Sep-2020 5634.01 6422.87 80.07 1.00  12.40 2660.75
   05:36:26.682.09-Sep-2020 5634.01 6423.40 80.07 1.00  12.60 2660.75
   05:36:26.882.09-Sep-2020 5634.01 6425.27 80.07 1.00  12.80 2660.75
   05:36:27.082.09-Sep-2020 5634.01 6424.60 80.07 1.00  13.00 2660.75
   05:36:27.282.09-Sep-2020 5634.01 6424.60 80.07 1.00  13.20 2660.75
   05:36:27.482.09-Sep-2020 5634.01 6424.93 80.07 1.00  13.40 2660.75
   05:36:27.682.09-Sep-2020 5634.01 6424.53 80.07 1.00  13.60 2660.75
   05:36:27.882.09-Sep-2020 5634.01 6424.87 80.07 1.00  13.80 2660.75
   05:36:28.082.09-Sep-2020 5634.01 6425.32 80.07 1.00  14.00 2660.75
   05:36:28.282.09-Sep-2020 5634.01 6425.32 80.07 1.00  14.20 2660.75
   05:36:28.482.09-Sep-2020 5634.01 6426.03 80.07 1.00  14.40 2660.75
   05:36:28.682.09-Sep-2020 5634.01 6426.16 80.07 1.00  14.60 2660.75
   05:36:28.882.09-Sep-2020 5634.01 6426.16 80.07 1.00  14.80 2660.75
   05:36:29.082.09-Sep-2020 5634.01 6426.59 80.07 1.00  15.00 2660.75
   05:36:29.282.09-Sep-2020 5634.01 6426.59 80.07 1.00  15.20 2660.75
   05:36:29.482.09-Sep-2020 5634.01 6435.06 80.07 1.00  15.40 2660.75
   05:36:29.682.09-Sep-2020 5634.01 6423.99 80.07 1.00  15.60 2660.75
   05:36:29.882.09-Sep-2020 5634.01 6429.87 80.07 1.00  15.80 2660.75
   05:36:30.082.09-Sep-2020 5634.01 6427.92 80.07 1.00  16.00 2660.75
   05:36:30.282.09-Sep-2020 5634.01 6427.92 80.07 1.00  16.20 2660.75
   05:36:30.482.09-Sep-2020 5634.01 6429.14 80.07 1.00  16.40 2660.75
   05:36:30.682.09-Sep-2020 5634.01 6430.74 80.07 1.00  16.60 2660.75
   05:36:30.882.09-Sep-2020 5634.01 6432.43 80.07 1.00  16.80 2660.75
   05:36:31.082.09-Sep-2020 5634.01 6430.92 80.07 1.00  17.00 2660.75
   05:36:31.282.09-Sep-2020 5634.01 6430.92 80.07 1.00  17.20 2660.75
   05:36:31.482.09-Sep-2020 5634.01 6431.23 80.07 1.00  17.40 2660.75
   05:36:31.682.09-Sep-2020 5634.01 6429.79 80.07 1.00  17.60 2660.75
   05:36:31.882.09-Sep-2020 5634.01 6430.17 80.07 1.00  17.80 2660.75
   05:36:32.082.09-Sep-2020 5634.01 6436.93 80.07 1.00  18.00 2660.75
   05:36:32.282.09-Sep-2020 5634.01 6436.93 80.07 1.00  18.20 2660.75
   05:36:32.482.09-Sep-2020 5634.01 6434.19 80.07 1.00  18.40 2660.75
   05:36:32.682.09-Sep-2020 5634.01 6433.77 80.07 1.00  18.60 2660.75
   05:36:32.882.09-Sep-2020 5634.01 6431.89 80.07 1.00  18.80 2660.75
   05:36:33.082.09-Sep-2020 5634.01 6434.31 80.07 1.00  19.00 2660.75
   05:36:33.282.09-Sep-2020 5634.01 6434.31 80.07 1.00  19.20 2660.75
   05:36:33.482.09-Sep-2020 5634.01 6433.67 80.07 1.00  19.40 2660.75
   05:36:33.682.09-Sep-2020 5634.01 6436.38 80.07 1.00  19.60 2660.75
   05:36:33.882.09-Sep-2020 5634.01 6435.83 80.07 1.00  19.80 2660.75
   05:36:34.082.09-Sep-2020 5634.01 6443.12 80.06 1.00  20.00 2660.75
   05:36:34.282.09-Sep-2020 5634.01 6434.00 80.06 1.00  20.20 2660.75
   05:36:34.482.09-Sep-2020 5634.01 6439.72 80.06 1.00  20.40 2660.75
   05:36:34.682.09-Sep-2020 5634.01 6438.07 80.06 1.00  20.60 2660.75
   05:36:34.882.09-Sep-2020 5634.01 6436.56 80.06 1.00  20.80 2660.75
   05:36:35.082.09-Sep-2020 5634.01 6438.58 80.06 1.00  21.00 2660.75
   05:36:35.282.09-Sep-2020 5634.01 6438.58 80.06 1.00  21.20 2660.75
   05:36:35.482.09-Sep-2020 5634.01 6435.77 80.06 1.00  21.40 2660.75
   05:36:35.682.09-Sep-2020 5634.01 6441.51 80.06 1.00  21.60 2660.75
   05:36:35.882.09-Sep-2020 5634.01 6439.68 80.06 1.00  21.80 2660.75
   05:36:36.082.09-Sep-2020 5634.01 6439.25 80.06 1.00  22.00 2660.75
   05:36:36.282.09-Sep-2020 5634.01 6439.25 80.06 1.00  22.20 2660.75
   05:36:36.482.09-Sep-2020 5634.01 6440.39 80.06 1.00  22.40 2660.75
   05:36:36.682.09-Sep-2020 5634.01 6441.50 80.06 1.00  22.60 2660.75
   05:36:36.882.09-Sep-2020 5634.01 6440.88 80.06 1.00  22.80 2660.75
