~Version Information
 VERS.                  2.0:   CWLS log ASCII Standard -VERSION 2.0
 WRAP.                   NO:   One line per depth step
~Well Information Block
#MNEM.UNIT     VALUE/NAME     DESCRIPTION
#---------     -----------    ---------------------------
 STRT.S             18:19:19 09-Sep-20: START TIME 18:19:19 09-Sep-20
 STOP.S             18:27:34 09-Sep-20: STOP TIME  18:27:34 09-Sep-20
 STEP.S                   0.00: STEP TIME
 NULL.                 -999.25: NULL VALUE
 MDS .        Operator Entered:  MAG DATA SOURCE
 PDAT.          Mean Sea Level:  PERMANENT DATUM
 DCON.         Sperry Drilling:  DIRECTNL CONTR
 RIG .              West Azeri:  RIG NAME
 WELL.           C40 (Slot 20):  WELL NAME
 SRVC.     Turan Drilling Engineering:  CONTRACTOR
 FLD .                     ACG:  FIELD NAME
 CTRY.              Azerbaijan:  COUNTRY NAME
 PROV.                    Baku:  PROVINCE
 STAT.                    Baku:  STATE NAME
 REGN.                   EESSA:  REGION
 BASE.              Azerbaijan:  LOGGING EQUIPMENT BASE LOCATION
 COMP.     BP Exploration (Caspian Sea) Ltd:  COMPANY
 WTYP.                Deviated:  WELL TYPE
 SON .        AZ-XX-0906344804:  JOB NUMBER
 FTOP.          Formation Tops:  FORM TOPS DESC
 ILTD.               Lithology:  INTERP LTH DESC
 SVYD.                  Survey:  SURVEY DESC
 DMOD.             Drill Model:  DRILL MOD DESC
 HPTY.       Minimum Curvature:  HOLE POS TYPE
 NREF.                    Grid:  NORTH REFERENCE
 SPUD.               01-Jan-20:  SPUD DATE
 DATE.      00.59.44 15-Sep-20:  END TIME
 STIM.      12.00.00 12-Jun-20:  START TIME
 DMF .             Drill Floor:  DRILL MEAS FROM
 DFST.                        :  DIST FSL TEXT
 DFWT.                        :  DIST FWL TEXT
 API .                        :  API NUMBER
 CNTY.                        :  COUNTY
 UWI .                        :  UNIQUE WELL IDENTIFIER
 LOC .                        :  LOCATION
 LMF .             Drill Floor:  LOG MEASURED FROM
 VSNS.m                   2.88:  VERT SEC N/S
 VSEW.m                  -3.84:  VERT SEC E/W
 AGAP.m                  43.42:  AIR GAP
 APD .m                  43.42:  DEPTH ABOVE PD
 WDMS.m                 118.27:  WD ELEV
 EGL .m                   0.00:  GROUND ELEVATION
 EPD .m                   0.00:  ELEVATION
 AZTC.deg                 6.23:  AZM TOTAL CORR
 GRDC.deg                 0.20:  GRID CORRECTION
 MDEC.deg                 6.43:  MAGNETIC DECL
 MDIP.deg                59.49:  MAGNETIC DIP
 MFLD.nT              50277.00:  MAGNETIC FIELD
 GVFD.g                   1.00:  GRAVITY FIELD
 VSDR.deg               173.20:  VERT SEC DIRECT
 TDD .m                5790.01:  TOTAL DEPTH (DRILLER)
 SDEP.m                5231.01:  START DEPTH
 DFSL.m                   0.00:  DISTANCE FSL
 DFWL.m                   0.00:  DISTANCE FWL
 UTMY.m             4435808.83:  UTM Y
 UTMX.m              526266.40:  UTM X
 WHEW.m                  -3.84:  WELL HEAD E/W
 WHNS.m                   2.88:  WELL HEAD N/S
 LONG.deg                51.31:  LONGITUDE
 LATI.deg                40.06:  LATITUDE
 TVDS.m                  43.42:  TVDSS CORRECTN
 DEP .m                 430.08:  DEPTH
 EKB .m                  43.42:  KB ELEVATION
 EDF .m                  43.42:  DF ELEVATION
 TDL .m                 559.00:  TOTAL DEPTH (LOGGER)
 MAGU.                 1849381:  MAGUTM CHECKSUM
 VSC .                       0:  VS TO CLOSURE
~Parameter Information Block
#MNEM.UNIT       Value        Description
#---------     -----------    ---------------------------
 AV  .mps                 4.87:  Ann Velocity 
 AVMX.mps                 7.08:  Max Ann Veloc 
 AZIF.deg               108.87:  Azm, Final 
 BHAT.                  Rotary:  BHA Type 
 BROT.°/30m               0.35:  Build Rotating 
 BS  .in                  8.50:  Bit Size 
 BSZ .in                  8.50:  Bit Size 
 BTPL.psig              360.00:  Bit Press Loss 
 CABU.                     Yes:  Customer Abuse 
 TCS .hr                106.24:  Time Ciculation Ended 
 CV  .mps                 1.77:  Crit Velocity 
 CVMX.mps                 2.03:  Max Crit Veloc 
 DD1 .         Aykhan Agagulov:  Direct Drillr 1 
 DD2 .            Nonso Okofor:  Direct Drillr 2 
 DDSV.               Geo-Pilot:  DD Service 
 DEFF.%                  98.00:  % Det Eff 
 DLRX.°/30m               0.50:  Dogleg Rot Max 
 DLSO.°/30m               0.40:  Dogleg Oriented 
 DLSX.°/30m               0.94:  Dogleg Str Max 
 DRET.      20.30.00 08-Sep-20:  Drill End Time 
 DRST.      22.15.00 06-Sep-20:  Drill Start Tim 
 DTIM.hr                 31.31:  Time Drilling 
 EDEP.m                5790.01:  End Depth 
 ENG1.           Amrah Tahirov:  Engineer 1 
 ENG2.         Dair Mahammadov:  Engineer 2 
 ENG3.           Emil Huseynov:  Engineer 3 
 ETIM.      04.01.04 12-Sep-20:  End Time 
 FLOI.gpm               450.00:  Flow In 
 FLON.gpm               450.00:  Flow In Min 
 FLOS.cptm                2.00:  Fluid Loss 
 FLOX.gpm               450.00:  Flow In Max 
 FTRO.       Formation Presure:  FTWD Run Obj 
 HFLO.                      No:  High Flow 
 HPRE.                      No:  High Pressure 
 HTEM.                      No:  High Temp 
 HYDO.m                   1.80:  Hydro Offset 
 IFIN.deg                72.03:  Inc, Final 
 IMAX.deg                73.72:  Inc Max 
 IMIN.deg                70.94:  Inc Min 
 IMND.m                5508.52:  Inc Min Depth 
 IMXD.m                5253.60:  Inc Max Depth 
 JARR.                      No:  Jarring 
 LETM.      20.30.00 08-Sep-20:  Log End Time 
 LOST.hr                     0:  Lost Rig Time 
 LSTM.      22.15.00 06-Sep-20:  Log Start Time 
 MDCL.ppm             36000.00:  Mud Chlorides 
 MDES.     Inversion Oil/Synthetic:  Mud Desc 
 DFD .sg                  1.44:  Mud Density 
 MDMN.sg                  1.44:  Dens Mud Min 
 MDMX.sg                  1.57:  Dens Mud Max 
 MOIL.                      70:  Run Mud Oil % 
 MOWR.                   70:30:  Run Mud OWR 
 MSND.                       0:  Run Mud Sand % 
 MSOL.                      21:  Run Mud Solids% 
 DFV .spqt               68.00:  Mud Viscosity 
 MWOD.in                  6.75:  MWD Tool OD 
 MWSI.                     Yes:  Serv Intrp, MWD 
 OTIM.hr                174.84:  Time Operating 
 PCON.           Look Like New:  Pad Condition 
 PMAX.psia            10616.93:  Press Op, Max 
 PV  .cP                 50.00:  Mud PV 
 RUN .                     700:  Run Number 
 ROPA.m/hr               14.24:  ROP Avg 
 ROPN.m/hr               10.00:  ROP Min 
 ROPX.m/hr               32.00:  ROP Max 
 RPMA.rpm               120.90:  RPM Surface Avg 
 RPMN.rpm               120.00:  RPM Surface Min 
 RPMX.rpm               140.00:  RPM Surface Max 
 RRUN.                    0700:  Rig Run Number 
 RTIM.hr                  3.20:  Time Reaming 
 SAZI.deg               109.99:  Azm, Start 
 SDEP.m                5231.01:  Start Depth 
 SIDD.                      No:  Serv Intrp, DD 
 SINC.deg                73.72:  Inc, Start 
 SPPA.psig             3051.00:  SPP Avg 
 SPPN.psig             2950.00:  SPP Min 
 SPPX.psig             3250.00:  SPP Max 
 STIM.      08.00.00 05-Sep-20:  Start Time 
 SVCS.                 DD, MWD:  Services 
 SVER.                    9.20:  Sperry Version 
 TDAT.m                 559.00:  Tot Depth Attmp 
 TDDF.                      No:  Trip for DD 
 TDLG.m                 559.00:  Tot Depth Loggd 
 TFF .                      No:  Trip for Fail 
 TQAA.f-kp               26.49:  Torque Abs Avg 
 TQAN.f-kp               25.00:  Torque Abs Min 
 TQAX.f-kp               27.00:  Torque Abs Max 
 TRRT.°/30m               1.50:  Turn Rotating 
 MRT .                    HCIM:  Maximum Recorded Temperature 
 TTMX.degC               90.20:  Max Tool Temp 
 VS01.                90542671:  Virtual Str1 SN 
 VS02.                90545185:  Virtual Str2 SN 
 VS03.                90602015:  Virtual Str3 SN 
 VS04.                90515230:  Virtual Str4 SN 
 WBMN.klb                 5.00:  WOB Min 
 WOBA.klb                14.79:  WOB Avg 
 WOBX.klb                20.00:  WOB Max 
 YP  .lhf2               29.00:  Yield Point 
~Curve Information Block
#MNEM.UNIT                 API CODE     Curve Description
#---------               -----------    ---------------------------
 TIME.HHMMSS            00 000 000 000:  GT Time & Date
 GTDEPTH.m              00 000 000 000:  GT Depth
 GTPQH.psia             00 000 000 000:  GT HR Quartz Pressure
 GTTQ.degC              00 000 000 000:  GT Quartz Temperature
 GTTN.NONE              00 000 000 000:  GT Test Number
 GTET.sec               00 000 000 000:  GT Elapsed Test Time
 GTTVD.m                00 000 000 000:  GT True Vertical Depth
#Other Information
#
#WARRANTY: Halliburton will use its best efforts to furnish customers with 
#accurate information and interpretations that are part of, and incident to, the services 
#provided.  However, Halliburton cannot and does not warrant the accuracy 
#or correctness of such information and interpretations.  Under no circumstances should any 
#such information or interpretation be relied upon as the sole basis for any drilling, 
#completion, production, or financial decision or any procedure involving any risk to the 
#safety of any drilling venture, drilling rig or its crew or any other third party.  The 
#Customer has full responsibility for all drilling, completion and production operation.  
#Halliburton makes no representations or warranties, either expressed or 
#implied, including, but not limited to, the implied warranties of merchantability or fitness 
#for a particular purpose, with respect to the services rendered.  In no event will 
#Halliburton be liable for failure to obtain any particular results or for 
#any damages, including, but not limited to, indirect, special or consequential damages, 
#resulting from the use of any information or interpretation provided by Halliburton.
#
~A           TIME           GTDEPTH  GTPQH  GTTQ  GTTN   GTET   GTTVD  
# ...
   18:21:58.018.09-Sep-2020 5281.01 4062.78 74.58 21.00 158.08 2550.59
   18:21:58.218.09-Sep-2020 5281.01 4062.80 74.58 21.00 158.28 2550.59
   18:21:58.418.09-Sep-2020 5281.01 4062.84 74.58 21.00 158.48 2550.59
   18:21:58.618.09-Sep-2020 5281.01 4062.88 74.58 21.00 158.68 2550.59
   18:21:58.817.09-Sep-2020 5281.01 4062.87 74.58 21.00 158.88 2550.59
   18:21:59.017.09-Sep-2020 5281.01 4062.87 74.58 21.00 159.08 2550.59
   18:21:59.217.09-Sep-2020 5281.01 4061.63 74.58 21.00 159.28 2550.59
   18:21:59.417.09-Sep-2020 5281.01 4062.05 74.58 21.00 159.47 2550.59
   18:21:59.617.09-Sep-2020 5281.01 4062.36 74.58 21.00 159.67 2550.59
   18:21:59.817.09-Sep-2020 5281.01 4062.56 74.58 21.00 159.87 2550.59
   18:22:00.017.09-Sep-2020 5281.01 4062.56 74.58 21.00 160.07 2550.59
   18:22:00.216.09-Sep-2020 5281.01 4061.45 74.58 21.00 160.27 2550.59
   18:22:00.416.09-Sep-2020 5281.01 4061.61 74.58 21.00 160.47 2550.59
   18:22:00.616.09-Sep-2020 5281.01 4062.39 74.58 21.00 160.67 2550.59
   18:22:00.816.09-Sep-2020 5281.01 4062.54 74.58 21.00 160.87 2550.59
   18:22:01.016.09-Sep-2020 5281.01 4062.54 74.58 21.00 161.07 2550.59
   18:22:01.216.09-Sep-2020 5281.01 4062.93 74.58 21.00 161.27 2550.59
   18:22:01.415.09-Sep-2020 5281.01 4062.46 74.58 21.00 161.47 2550.59
   18:22:01.615.09-Sep-2020 5281.01 4061.92 74.58 21.00 161.67 2550.59
   18:22:01.815.09-Sep-2020 5281.01 4062.34 74.58 21.00 161.87 2550.59
   18:22:02.015.09-Sep-2020 5281.01 4062.34 74.58 21.00 162.07 2550.59
   18:22:02.215.09-Sep-2020 5281.01 4063.11 74.58 21.00 162.27 2550.59
   18:22:02.415.09-Sep-2020 5281.01 4063.40 74.58 21.00 162.47 2550.59
   18:22:02.614.09-Sep-2020 5281.01 4063.35 74.58 21.00 162.67 2550.59
   18:22:02.814.09-Sep-2020 5281.01 4063.48 74.58 21.00 162.87 2550.59
   18:22:03.014.09-Sep-2020 5281.01 4063.48 74.58 21.00 163.07 2550.59
   18:22:03.214.09-Sep-2020 5281.01 4062.48 74.58 21.00 163.27 2550.59
   18:22:03.414.09-Sep-2020 5281.01 4063.18 74.58 21.00 163.47 2550.59
   18:22:03.614.09-Sep-2020 5281.01 4063.52 74.58 21.00 163.67 2550.59
   18:22:03.814.09-Sep-2020 5281.01 4063.71 74.58 21.00 163.87 2550.59
   18:22:04.013.09-Sep-2020 5281.01 4063.71 74.58 21.00 164.07 2550.59
   18:22:04.213.09-Sep-2020 5281.01 4063.91 74.58 21.00 164.27 2550.59
   18:22:04.413.09-Sep-2020 5281.01 4063.92 74.58 21.00 164.47 2550.59
   18:22:04.613.09-Sep-2020 5281.01 4062.60 74.58 21.00 164.67 2550.59
   18:22:04.813.09-Sep-2020 5281.01 4062.98 74.58 21.00 164.87 2550.59
   18:22:05.013.09-Sep-2020 5281.01 4062.98 74.58 21.00 165.07 2550.59
   18:22:05.212.09-Sep-2020 5281.01 4064.14 74.58 21.00 165.27 2550.59
   18:22:05.412.09-Sep-2020 5281.01 4064.46 74.58 21.00 165.47 2550.59
   18:22:05.612.09-Sep-2020 5281.01 4064.28 74.58 21.00 165.67 2550.59
   18:22:05.812.09-Sep-2020 5281.01 4064.36 74.58 21.00 165.87 2550.59
   18:22:06.012.09-Sep-2020 5281.01 4064.36 74.58 21.00 166.07 2550.59
   18:22:06.212.09-Sep-2020 5281.01 4064.39 74.58 21.00 166.27 2550.59
   18:22:06.411.09-Sep-2020 5281.01 4064.30 74.58 21.00 166.47 2550.59
   18:22:06.611.09-Sep-2020 5281.01 4064.23 74.58 21.00 166.67 2550.59
   18:22:06.811.09-Sep-2020 5281.01 4064.18 74.58 21.00 166.87 2550.59
   18:22:07.011.09-Sep-2020 5281.01 4064.18 74.58 21.00 167.07 2550.59
   18:22:07.211.09-Sep-2020 5281.01 4064.10 74.58 21.00 167.27 2550.59
   18:22:07.411.09-Sep-2020 5281.01 4064.10 74.58 21.00 167.47 2550.59
   18:22:07.611.09-Sep-2020 5281.01 4064.10 74.58 21.00 167.67 2550.59
   18:22:07.810.09-Sep-2020 5281.01 4064.09 74.58 21.00 167.87 2550.59
   18:22:08.010.09-Sep-2020 5281.01 4064.09 74.58 21.00 168.07 2550.59
   18:22:08.210.09-Sep-2020 5281.01 4063.33 74.58 21.00 168.27 2550.59
   18:22:08.410.09-Sep-2020 5281.01 4062.58 74.58 21.00 168.47 2550.59
   18:22:08.610.09-Sep-2020 5281.01 4063.10 74.58 21.00 168.67 2550.59
   18:22:08.810.09-Sep-2020 5281.01 4063.51 74.58 21.00 168.87 2550.59
   18:22:09.009.09-Sep-2020 5281.01 4063.51 74.58 21.00 169.07 2550.59
   18:22:09.209.09-Sep-2020 5281.01 4063.92 74.58 21.00 169.27 2550.59
   18:22:09.409.09-Sep-2020 5281.01 4063.82 74.58 21.00 169.47 2550.59
   18:22:09.609.09-Sep-2020 5281.01 4063.97 74.58 21.00 169.67 2550.59
   18:22:09.809.09-Sep-2020 5281.01 4063.98 74.58 21.00 169.87 2550.59
   18:22:10.009.09-Sep-2020 5281.01 4063.98 74.58 21.00 170.07 2550.59
   18:22:10.209.09-Sep-2020 5281.01 4063.88 74.58 21.00 170.27 2550.59
   18:22:10.408.09-Sep-2020 5281.01 4063.87 74.58 21.00 170.47 2550.59
   18:22:10.608.09-Sep-2020 5281.01 4063.84 74.58 21.00 170.67 2550.59
   18:22:10.808.09-Sep-2020 5281.01 4063.86 74.58 21.00 170.87 2550.59
   18:22:11.008.09-Sep-2020 5281.01 4063.86 74.58 21.00 171.07 2550.59
   18:22:11.208.09-Sep-2020 5281.01 4063.82 74.58 21.00 171.27 2550.59
   18:22:11.408.09-Sep-2020 5281.01 4063.70 74.58 21.00 171.47 2550.59
   18:22:11.607.09-Sep-2020 5281.01 4062.10 74.58 21.00 171.67 2550.59
   18:22:11.807.09-Sep-2020 5281.01 4063.09 74.58 21.00 171.87 2550.59
   18:22:12.007.09-Sep-2020 5281.01 4063.09 74.58 21.00 172.07 2550.59
   18:22:12.207.09-Sep-2020 5281.01 4063.43 74.58 21.00 172.26 2550.59
   18:22:12.407.09-Sep-2020 5281.01 4063.50 74.58 21.00 172.46 2550.59
   18:22:12.607.09-Sep-2020 5281.01 4063.95 74.58 21.00 172.66 2550.59
   18:22:12.806.09-Sep-2020 5281.01 4062.31 74.57 21.00 172.86 2550.59
   18:22:13.006.09-Sep-2020 5281.01 4062.31 74.57 21.00 173.06 2550.59
   18:22:13.206.09-Sep-2020 5281.01 4063.52 74.57 21.00 173.26 2550.59
   18:22:13.406.09-Sep-2020 5281.01 4063.77 74.57 21.00 173.46 2550.59
   18:22:13.606.09-Sep-2020 5281.01 4063.99 74.57 21.00 173.66 2550.59
   18:22:13.806.09-Sep-2020 5281.01 4064.28 74.57 21.00 173.86 2550.59
   18:22:14.006.09-Sep-2020 5281.01 4064.28 74.57 21.00 174.06 2550.59
   18:22:14.205.09-Sep-2020 5281.01 4062.96 74.57 21.00 174.26 2550.59
   18:22:14.405.09-Sep-2020 5281.01 4063.52 74.57 21.00 174.46 2550.59
   18:22:14.605.09-Sep-2020 5281.01 4064.00 74.57 21.00 174.66 2550.59
   18:22:14.805.09-Sep-2020 5281.01 4064.25 74.57 21.00 174.86 2550.59
   18:22:15.005.09-Sep-2020 5281.01 4064.25 74.57 21.00 175.06 2550.59
   18:22:15.205.09-Sep-2020 5281.01 3484.35 74.57 21.00 175.26 2550.59
   18:22:15.404.09-Sep-2020 5281.01 3028.48 74.57 21.00 175.46 2550.59
   18:22:15.604.09-Sep-2020 5281.01 2669.70 74.57 21.00 175.66 2550.59
   18:22:15.804.09-Sep-2020 5281.01 2385.45 74.57 21.00 175.86 2550.59
   18:22:16.004.09-Sep-2020 5281.01 2385.45 74.57 21.00 176.06 2550.59
   18:22:16.204.09-Sep-2020 5281.01 1996.21 74.57 21.00 176.26 2550.59
   18:22:16.404.09-Sep-2020 5281.01 1839.81 74.57 21.00 176.46 2550.59
   18:22:16.603.09-Sep-2020 5281.01 1708.70 74.57 21.00 176.66 2550.59
   18:22:16.803.09-Sep-2020 5281.01 1588.97 74.57 21.00 176.86 2550.59
   18:22:17.003.09-Sep-2020 5281.01 1588.97 74.57 21.00 177.06 2550.59
   18:22:17.203.09-Sep-2020 5281.01 1369.47 74.57 21.00 177.26 2550.59
   18:22:17.403.09-Sep-2020 5281.01 1313.74 74.57 21.00 177.46 2550.59
   18:22:17.603.09-Sep-2020 5281.01 1274.71 74.56 21.00 177.66 2550.59
   18:22:17.803.09-Sep-2020 5281.01 1233.30 74.56 21.00 177.86 2550.59
   18:22:18.002.09-Sep-2020 5281.01 1233.30 74.56 21.00 178.06 2550.59
   18:22:18.202.09-Sep-2020 5281.01 1140.50 74.56 21.00 178.26 2550.59
   18:22:18.402.09-Sep-2020 5281.01 1084.90 74.56 21.00 178.46 2550.59
   18:22:18.602.09-Sep-2020 5281.01 1054.60 74.55 21.00 178.66 2550.59
   18:22:18.802.09-Sep-2020 5281.01 1012.86 74.55 21.00 178.86 2550.59
   18:22:19.002.09-Sep-2020 5281.01 1012.86 74.55 21.00 179.06 2550.59
   18:22:19.201.09-Sep-2020 5281.01  938.03 74.55 21.00 179.26 2550.59
   18:22:19.401.09-Sep-2020 5281.01  918.05 74.54 21.00 179.46 2550.59
   18:22:19.601.09-Sep-2020 5281.01  860.92 74.54 21.00 179.66 2550.59
   18:22:19.801.09-Sep-2020 5281.01  843.75 74.54 21.00 179.86 2550.59
   18:22:20.001.09-Sep-2020 5281.01  843.75 74.54 21.00 180.06 2550.59
   18:22:20.201.09-Sep-2020 5281.01  913.90 74.53 21.00 180.26 2550.59
   18:22:20.401.09-Sep-2020 5281.01  914.12 74.53 21.00 180.46 2550.59
