~Version Information
 VERS.                  2.0:   CWLS log ASCII Standard -VERSION 2.0
 WRAP.                   NO:   One line per depth step
~Well Information Block
#MNEM.UNIT     VALUE/NAME     DESCRIPTION
#---------     -----------    ---------------------------
 STRT.S             17:25:53 09-Sep-20: START TIME 17:25:53 09-Sep-20
 STOP.S             17:34:04 09-Sep-20: STOP TIME  17:34:04 09-Sep-20
 STEP.S                   0.00: STEP TIME
 NULL.                 -999.25: NULL VALUE
 MDS .        Operator Entered:  MAG DATA SOURCE
 PDAT.          Mean Sea Level:  PERMANENT DATUM
 DCON.         Sperry Drilling:  DIRECTNL CONTR
 RIG .              West Azeri:  RIG NAME
 WELL.           C40 (Slot 20):  WELL NAME
 SRVC.     Turan Drilling Engineering:  CONTRACTOR
 FLD .                     ACG:  FIELD NAME
 CTRY.              Azerbaijan:  COUNTRY NAME
 PROV.                    Baku:  PROVINCE
 STAT.                    Baku:  STATE NAME
 REGN.                   EESSA:  REGION
 BASE.              Azerbaijan:  LOGGING EQUIPMENT BASE LOCATION
 COMP.     BP Exploration (Caspian Sea) Ltd:  COMPANY
 WTYP.                Deviated:  WELL TYPE
 SON .        AZ-XX-0906344804:  JOB NUMBER
 FTOP.          Formation Tops:  FORM TOPS DESC
 ILTD.               Lithology:  INTERP LTH DESC
 SVYD.                  Survey:  SURVEY DESC
 DMOD.             Drill Model:  DRILL MOD DESC
 HPTY.       Minimum Curvature:  HOLE POS TYPE
 NREF.                    Grid:  NORTH REFERENCE
 SPUD.               01-Jan-20:  SPUD DATE
 DATE.      00.59.44 15-Sep-20:  END TIME
 STIM.      12.00.00 12-Jun-20:  START TIME
 DMF .             Drill Floor:  DRILL MEAS FROM
 DFST.                        :  DIST FSL TEXT
 DFWT.                        :  DIST FWL TEXT
 API .                        :  API NUMBER
 CNTY.                        :  COUNTY
 UWI .                        :  UNIQUE WELL IDENTIFIER
 LOC .                        :  LOCATION
 LMF .             Drill Floor:  LOG MEASURED FROM
 VSNS.m                   2.88:  VERT SEC N/S
 VSEW.m                  -3.84:  VERT SEC E/W
 AGAP.m                  43.42:  AIR GAP
 APD .m                  43.42:  DEPTH ABOVE PD
 WDMS.m                 118.27:  WD ELEV
 EGL .m                   0.00:  GROUND ELEVATION
 EPD .m                   0.00:  ELEVATION
 AZTC.deg                 6.23:  AZM TOTAL CORR
 GRDC.deg                 0.20:  GRID CORRECTION
 MDEC.deg                 6.43:  MAGNETIC DECL
 MDIP.deg                59.49:  MAGNETIC DIP
 MFLD.nT              50277.00:  MAGNETIC FIELD
 GVFD.g                   1.00:  GRAVITY FIELD
 VSDR.deg               173.20:  VERT SEC DIRECT
 TDD .m                5790.01:  TOTAL DEPTH (DRILLER)
 SDEP.m                5231.01:  START DEPTH
 DFSL.m                   0.00:  DISTANCE FSL
 DFWL.m                   0.00:  DISTANCE FWL
 UTMY.m             4435808.83:  UTM Y
 UTMX.m              526266.40:  UTM X
 WHEW.m                  -3.84:  WELL HEAD E/W
 WHNS.m                   2.88:  WELL HEAD N/S
 LONG.deg                51.31:  LONGITUDE
 LATI.deg                40.06:  LATITUDE
 TVDS.m                  43.42:  TVDSS CORRECTN
 DEP .m                 430.08:  DEPTH
 EKB .m                  43.42:  KB ELEVATION
 EDF .m                  43.42:  DF ELEVATION
 TDL .m                 559.00:  TOTAL DEPTH (LOGGER)
 MAGU.                 1849381:  MAGUTM CHECKSUM
 VSC .                       0:  VS TO CLOSURE
~Parameter Information Block
#MNEM.UNIT       Value        Description
#---------     -----------    ---------------------------
 AV  .mps                 4.87:  Ann Velocity 
 AVMX.mps                 7.08:  Max Ann Veloc 
 AZIF.deg               108.87:  Azm, Final 
 BHAT.                  Rotary:  BHA Type 
 BROT.°/30m               0.35:  Build Rotating 
 BS  .in                  8.50:  Bit Size 
 BSZ .in                  8.50:  Bit Size 
 BTPL.psig              360.00:  Bit Press Loss 
 CABU.                     Yes:  Customer Abuse 
 COMM.                     ô¸n:  Run Comments 1 
 TCS .hr                106.24:  Time Ciculation Ended 
 CV  .mps                 1.77:  Crit Velocity 
 CVMX.mps                 2.03:  Max Crit Veloc 
 DD1 .         Aykhan Agagulov:  Direct Drillr 1 
 DD2 .            Nonso Okofor:  Direct Drillr 2 
 DDSV.               Geo-Pilot:  DD Service 
 DEFF.%                  98.00:  % Det Eff 
 DLRX.°/30m               0.50:  Dogleg Rot Max 
 DLSO.°/30m               0.40:  Dogleg Oriented 
 DLSX.°/30m               0.94:  Dogleg Str Max 
 DRET.      20.30.00 08-Sep-20:  Drill End Time 
 DRST.      22.15.00 06-Sep-20:  Drill Start Tim 
 DTIM.hr                 31.31:  Time Drilling 
 EDEP.m                5790.01:  End Depth 
 ENG1.           Amrah Tahirov:  Engineer 1 
 ENG2.         Dair Mahammadov:  Engineer 2 
 ENG3.           Emil Huseynov:  Engineer 3 
 ETIM.      04.01.04 12-Sep-20:  End Time 
 FLOI.gpm               450.00:  Flow In 
 FLON.gpm               450.00:  Flow In Min 
 FLOS.cptm                2.00:  Fluid Loss 
 FLOX.gpm               450.00:  Flow In Max 
 FTRO.       Formation Presure:  FTWD Run Obj 
 HFLO.                      No:  High Flow 
 HPRE.                      No:  High Pressure 
 HTEM.                      No:  High Temp 
 HYDO.m                   1.80:  Hydro Offset 
 IFIN.deg                72.03:  Inc, Final 
 IMAX.deg                73.72:  Inc Max 
 IMIN.deg                70.94:  Inc Min 
 IMND.m                5508.52:  Inc Min Depth 
 IMXD.m                5253.60:  Inc Max Depth 
 JARR.                      No:  Jarring 
 LETM.      20.30.00 08-Sep-20:  Log End Time 
 LOST.hr                     0:  Lost Rig Time 
 LSTM.      22.15.00 06-Sep-20:  Log Start Time 
 MDCL.ppm             36000.00:  Mud Chlorides 
 MDES.     Inversion Oil/Synthetic:  Mud Desc 
 DFD .sg                  1.44:  Mud Density 
 MDMN.sg                  1.44:  Dens Mud Min 
 MDMX.sg                  1.57:  Dens Mud Max 
 MOIL.                      70:  Run Mud Oil % 
 MOWR.                   70:30:  Run Mud OWR 
 MSND.                       0:  Run Mud Sand % 
 MSOL.                      21:  Run Mud Solids% 
 DFV .spqt               68.00:  Mud Viscosity 
 MWOD.in                  6.75:  MWD Tool OD 
 MWSI.                     Yes:  Serv Intrp, MWD 
 OTIM.hr                174.84:  Time Operating 
 PCON.           Look Like New:  Pad Condition 
 PMAX.psia            10616.93:  Press Op, Max 
 PV  .cP                 50.00:  Mud PV 
 RUN .                     700:  Run Number 
 ROPA.m/hr               14.24:  ROP Avg 
 ROPN.m/hr               10.00:  ROP Min 
 ROPX.m/hr               32.00:  ROP Max 
 RPMA.rpm               120.90:  RPM Surface Avg 
 RPMN.rpm               120.00:  RPM Surface Min 
 RPMX.rpm               140.00:  RPM Surface Max 
 RRUN.                    0700:  Rig Run Number 
 RTIM.hr                  3.20:  Time Reaming 
 SAZI.deg               109.99:  Azm, Start 
 SDEP.m                5231.01:  Start Depth 
 SIDD.                      No:  Serv Intrp, DD 
 SINC.deg                73.72:  Inc, Start 
 SPPA.psig             3051.00:  SPP Avg 
 SPPN.psig             2950.00:  SPP Min 
 SPPX.psig             3250.00:  SPP Max 
 STIM.      08.00.00 05-Sep-20:  Start Time 
 SVCS.                 DD, MWD:  Services 
 SVER.                    9.20:  Sperry Version 
 TDAT.m                 559.00:  Tot Depth Attmp 
 TDDF.                      No:  Trip for DD 
 TDLG.m                 559.00:  Tot Depth Loggd 
 TFF .                      No:  Trip for Fail 
 TQAA.f-kp               26.49:  Torque Abs Avg 
 TQAN.f-kp               25.00:  Torque Abs Min 
 TQAX.f-kp               27.00:  Torque Abs Max 
 TRRT.°/30m               1.50:  Turn Rotating 
 MRT .                    HCIM:  Maximum Recorded Temperature 
 TTMX.degC               90.20:  Max Tool Temp 
 VS01.                90542671:  Virtual Str1 SN 
 VS02.                90545185:  Virtual Str2 SN 
 VS03.                90602015:  Virtual Str3 SN 
 VS04.                90515230:  Virtual Str4 SN 
 WBMN.klb                 5.00:  WOB Min 
 WOBA.klb                14.79:  WOB Avg 
 WOBX.klb                20.00:  WOB Max 
 YP  .lhf2               29.00:  Yield Point 
~Curve Information Block
#MNEM.UNIT                 API CODE     Curve Description
#---------               -----------    ---------------------------
 TIME.HHMMSS            00 000 000 000:  GT Time & Date
 GTDEPTH.m              00 000 000 000:  GT Depth
 GTPQH.psia             00 000 000 000:  GT HR Quartz Pressure
 GTTQ.degC              00 000 000 000:  GT Quartz Temperature
 GTTN.NONE              00 000 000 000:  GT Test Number
 GTET.sec               00 000 000 000:  GT Elapsed Test Time
 GTTVD.m                00 000 000 000:  GT True Vertical Depth
#Other Information
#
#WARRANTY: Halliburton will use its best efforts to furnish customers with 
#accurate information and interpretations that are part of, and incident to, the services 
#provided.  However, Halliburton cannot and does not warrant the accuracy 
#or correctness of such information and interpretations.  Under no circumstances should any 
#such information or interpretation be relied upon as the sole basis for any drilling, 
#completion, production, or financial decision or any procedure involving any risk to the 
#safety of any drilling venture, drilling rig or its crew or any other third party.  The 
#Customer has full responsibility for all drilling, completion and production operation.  
#Halliburton makes no representations or warranties, either expressed or 
#implied, including, but not limited to, the implied warranties of merchantability or fitness 
#for a particular purpose, with respect to the services rendered.  In no event will 
#Halliburton be liable for failure to obtain any particular results or for 
#any damages, including, but not limited to, indirect, special or consequential damages, 
#resulting from the use of any information or interpretation provided by Halliburton.
#
~A           TIME           GTDEPTH  GTPQH  GTTQ  GTTN   GTET   GTTVD  
   17:25:53.109.09-Sep-2020 5302.51 6194.27 74.66 20.00   0.00 2556.93
   17:25:53.309.09-Sep-2020 5302.51 6194.27 74.66 20.00   0.20 2556.93
   17:25:53.509.09-Sep-2020 5302.51 6193.42 74.66 20.00   0.40 2556.93
   17:25:53.709.09-Sep-2020 5302.51 6194.95 74.66 20.00   0.60 2556.93
   17:25:53.909.09-Sep-2020 5302.51 6196.32 74.66 20.00   0.80 2556.93
   17:25:54.109.09-Sep-2020 5302.51 6205.48 74.66 20.00   1.00 2556.93
   17:25:54.309.09-Sep-2020 5302.51 6205.48 74.66 20.00   1.20 2556.93
   17:25:54.509.09-Sep-2020 5302.51 6198.10 74.66 20.00   1.40 2556.93
   17:25:54.709.09-Sep-2020 5302.51 6199.50 74.66 20.00   1.60 2556.93
   17:25:54.910.09-Sep-2020 5302.51 6208.57 74.66 20.00   1.80 2556.93
   17:25:55.110.09-Sep-2020 5302.51 6198.21 74.66 20.00   2.00 2556.93
   17:25:55.310.09-Sep-2020 5302.51 6198.21 74.66 20.00   2.20 2556.93
   17:25:55.510.09-Sep-2020 5302.51 6201.43 74.66 20.00   2.40 2556.93
   17:25:55.710.09-Sep-2020 5302.51 6210.10 74.66 20.00   2.60 2556.93
   17:25:55.910.09-Sep-2020 5302.51 6199.57 74.66 20.00   2.80 2556.93
   17:25:56.110.09-Sep-2020 5302.51 6200.96 74.66 20.00   3.00 2556.93
   17:25:56.310.09-Sep-2020 5302.51 6200.96 74.66 20.00   3.20 2556.93
   17:25:56.510.09-Sep-2020 5302.51 6210.35 74.66 20.00   3.40 2556.93
   17:25:56.710.09-Sep-2020 5302.51 6199.76 74.66 20.00   3.60 2556.93
   17:25:56.910.09-Sep-2020 5302.51 6200.64 74.66 20.00   3.80 2556.93
   17:25:57.111.09-Sep-2020 5302.51 6201.30 74.66 20.00   4.00 2556.93
   17:25:57.311.09-Sep-2020 5302.51 6201.30 74.66 20.00   4.20 2556.93
   17:25:57.511.09-Sep-2020 5302.51 6199.21 74.66 20.00   4.40 2556.93
   17:25:57.711.09-Sep-2020 5302.51 6200.69 74.66 20.00   4.60 2556.93
   17:25:57.911.09-Sep-2020 5302.51 6201.36 74.66 20.00   4.80 2556.93
   17:25:58.111.09-Sep-2020 5302.51 6206.45 74.66 20.00   5.00 2556.93
   17:25:58.311.09-Sep-2020 5302.51 6206.45 74.66 20.00   5.20 2556.93
   17:25:58.511.09-Sep-2020 5302.51 6201.64 74.66 20.00   5.40 2556.93
   17:25:58.711.09-Sep-2020 5302.51 6203.03 74.66 20.00   5.60 2556.93
   17:25:58.911.09-Sep-2020 5302.51 6203.13 74.66 20.00   5.80 2556.93
   17:25:59.112.09-Sep-2020 5302.51 6204.70 74.66 20.00   6.00 2556.93
   17:25:59.312.09-Sep-2020 5302.51 6204.70 74.66 20.00   6.20 2556.93
   17:25:59.512.09-Sep-2020 5302.51 6205.56 74.66 20.00   6.40 2556.93
   17:25:59.712.09-Sep-2020 5302.51 6205.75 74.66 20.00   6.60 2556.93
   17:25:59.912.09-Sep-2020 5302.51 6206.79 74.66 20.00   6.80 2556.93
   17:26:00.112.09-Sep-2020 5302.51 6207.72 74.66 20.00   7.00 2556.93
   17:26:00.312.09-Sep-2020 5302.51 6207.72 74.66 20.00   7.20 2556.93
   17:26:00.512.09-Sep-2020 5302.51 6209.16 74.66 20.00   7.40 2556.93
   17:26:00.712.09-Sep-2020 5302.51 6209.78 74.66 20.00   7.60 2556.93
   17:26:00.912.09-Sep-2020 5302.51 6210.27 74.66 20.00   7.80 2556.93
   17:26:01.112.09-Sep-2020 5302.51 6210.82 74.66 20.00   8.00 2556.93
   17:26:01.313.09-Sep-2020 5302.51 6210.82 74.66 20.00   8.20 2556.93
   17:26:01.513.09-Sep-2020 5302.51 6211.65 74.66 20.00   8.40 2556.93
   17:26:01.713.09-Sep-2020 5302.51 6211.92 74.66 20.00   8.60 2556.93
   17:26:01.913.09-Sep-2020 5302.51 6218.81 74.66 20.00   8.80 2556.93
   17:26:02.113.09-Sep-2020 5302.51 6212.33 74.66 20.00   9.00 2556.93
   17:26:02.313.09-Sep-2020 5302.51 6212.33 74.66 20.00   9.20 2556.93
   17:26:02.513.09-Sep-2020 5302.51 6212.37 74.66 20.00   9.40 2556.93
   17:26:02.713.09-Sep-2020 5302.51 6212.30 74.66 20.00   9.60 2556.93
   17:26:02.913.09-Sep-2020 5302.51 6213.31 74.66 20.00   9.80 2556.93
   17:26:03.113.09-Sep-2020 5302.51 6213.91 74.66 20.00  10.00 2556.93
   17:26:03.314.09-Sep-2020 5302.51 6213.69 74.66 20.00  10.20 2556.93
   17:26:03.514.09-Sep-2020 5302.51 6213.93 74.66 20.00  10.40 2556.93
   17:26:03.714.09-Sep-2020 5302.51 6214.54 74.66 20.00  10.61 2556.93
   17:26:03.914.09-Sep-2020 5302.51 6215.11 74.66 20.00  10.81 2556.93
   17:26:04.114.09-Sep-2020 5302.51 6215.38 74.66 20.00  11.01 2556.93
   17:26:04.314.09-Sep-2020 5302.51 6215.38 74.66 20.00  11.21 2556.93
   17:26:04.514.09-Sep-2020 5302.51 6216.02 74.66 20.00  11.41 2556.93
   17:26:04.714.09-Sep-2020 5302.51 6216.46 74.66 20.00  11.61 2556.93
   17:26:04.914.09-Sep-2020 5302.51 6216.81 74.66 20.00  11.81 2556.93
   17:26:05.114.09-Sep-2020 5302.51 6217.01 74.66 20.00  12.01 2556.93
   17:26:05.315.09-Sep-2020 5302.51 6217.01 74.66 20.00  12.21 2556.93
   17:26:05.515.09-Sep-2020 5302.51 6224.61 74.66 20.00  12.41 2556.93
   17:26:05.715.09-Sep-2020 5302.51 6217.65 74.66 20.00  12.61 2556.93
   17:26:05.915.09-Sep-2020 5302.51 6218.25 74.66 20.00  12.81 2556.93
   17:26:06.115.09-Sep-2020 5302.51 6217.99 74.66 20.00  13.01 2556.93
   17:26:06.315.09-Sep-2020 5302.51 6218.44 74.66 20.00  13.21 2556.93
   17:26:06.515.09-Sep-2020 5302.51 6219.38 74.66 20.00  13.41 2556.93
   17:26:06.715.09-Sep-2020 5302.51 6229.36 74.66 20.00  13.61 2556.93
   17:26:06.915.09-Sep-2020 5302.51 6217.54 74.66 20.00  13.81 2556.93
   17:26:07.115.09-Sep-2020 5302.51 6218.92 74.66 20.00  14.01 2556.93
   17:26:07.315.09-Sep-2020 5302.51 6218.92 74.66 20.00  14.21 2556.93
   17:26:07.516.09-Sep-2020 5302.51 6220.33 74.66 20.00  14.41 2556.93
   17:26:07.716.09-Sep-2020 5302.51 6221.47 74.66 20.00  14.61 2556.93
   17:26:07.916.09-Sep-2020 5302.51 6227.44 74.66 20.00  14.81 2556.93
   17:26:08.116.09-Sep-2020 5302.51 6223.20 74.66 20.00  15.01 2556.93
   17:26:08.316.09-Sep-2020 5302.51 6223.20 74.66 20.00  15.21 2556.93
   17:26:08.516.09-Sep-2020 5302.51 6222.68 74.66 20.00  15.41 2556.93
   17:26:08.716.09-Sep-2020 5302.51 6222.76 74.66 20.00  15.61 2556.93
   17:26:08.916.09-Sep-2020 5302.51 6223.66 74.66 20.00  15.81 2556.93
   17:26:09.116.09-Sep-2020 5302.51 6229.35 74.66 20.00  16.01 2556.93
   17:26:09.316.09-Sep-2020 5302.51 6229.35 74.66 20.00  16.21 2556.93
   17:26:09.517.09-Sep-2020 5302.51 6229.35 74.66 20.00  16.41 2556.93
   17:26:09.717.09-Sep-2020 5302.51 6225.77 74.66 20.00  16.61 2556.93
   17:26:09.917.09-Sep-2020 5302.51 6226.23 74.66 20.00  16.81 2556.93
   17:26:10.117.09-Sep-2020 5302.51 6232.12 74.66 20.00  17.01 2556.93
   17:26:10.317.09-Sep-2020 5302.51 6232.12 74.66 20.00  17.21 2556.93
   17:26:10.517.09-Sep-2020 5302.51 6228.27 74.65 20.00  17.41 2556.93
   17:26:10.717.09-Sep-2020 5302.51 6227.48 74.66 20.00  17.61 2556.93
   17:26:10.917.09-Sep-2020 5302.51 6228.71 74.65 20.00  17.81 2556.93
   17:26:11.117.09-Sep-2020 5302.51 6229.44 74.65 20.00  18.01 2556.93
   17:26:11.317.09-Sep-2020 5302.51 6229.44 74.65 20.00  18.21 2556.93
   17:26:11.517.09-Sep-2020 5302.51 6229.90 74.65 20.00  18.41 2556.93
   17:26:11.718.09-Sep-2020 5302.51 6231.36 74.65 20.00  18.61 2556.93
   17:26:11.918.09-Sep-2020 5302.51 6230.26 74.65 20.00  18.81 2556.93
   17:26:12.118.09-Sep-2020 5302.51 6230.95 74.65 20.00  19.01 2556.93
   17:26:12.318.09-Sep-2020 5302.51 6230.95 74.65 20.00  19.21 2556.93
   17:26:12.518.09-Sep-2020 5302.51 6231.67 74.65 20.00  19.41 2556.93
   17:26:12.718.09-Sep-2020 5302.51 6231.90 74.65 20.00  19.61 2556.93
   17:26:12.918.09-Sep-2020 5302.51 6232.59 74.65 20.00  19.81 2556.93
   17:26:13.118.09-Sep-2020 5302.51 6233.10 74.65 20.00  20.01 2556.93
   17:26:13.318.09-Sep-2020 5302.51 6233.10 74.65 20.00  20.21 2556.93
   17:26:13.518.09-Sep-2020 5302.51 6233.86 74.65 20.00  20.41 2556.93
   17:26:13.719.09-Sep-2020 5302.51 6234.49 74.65 20.00  20.61 2556.93
   17:26:13.919.09-Sep-2020 5302.51 6234.96 74.65 20.00  20.81 2556.93
   17:26:14.119.09-Sep-2020 5302.51 6235.34 74.65 20.00  21.01 2556.93
   17:26:14.319.09-Sep-2020 5302.51 6235.34 74.65 20.00  21.21 2556.93
   17:26:14.519.09-Sep-2020 5302.51 6236.08 74.65 20.00  21.41 2556.93
   17:26:14.719.09-Sep-2020 5302.51 6236.45 74.65 20.00  21.61 2556.93
   17:26:14.919.09-Sep-2020 5302.51 6246.75 74.65 20.00  21.81 2556.93
   17:26:15.119.09-Sep-2020 5302.51 6235.19 74.65 20.00  22.01 2556.93
   17:26:15.319.09-Sep-2020 5302.51 6235.19 74.65 20.00  22.21 2556.93
   17:26:15.519.09-Sep-2020 5302.51 6237.45 74.65 20.00  22.41 2556.93
