~Version Information
 VERS.                  2.0:   CWLS log ASCII Standard -VERSION 2.0
 WRAP.                   NO:   One line per depth step
~Well Information Block
#MNEM.UNIT     VALUE/NAME     DESCRIPTION
#---------     -----------    ---------------------------
 STRT.S             18:19:19 09-Sep-20: START TIME 18:19:19 09-Sep-20
 STOP.S             18:27:34 09-Sep-20: STOP TIME  18:27:34 09-Sep-20
 STEP.S                   0.00: STEP TIME
 NULL.                 -999.25: NULL VALUE
 MDS .        Operator Entered:  MAG DATA SOURCE
 PDAT.          Mean Sea Level:  PERMANENT DATUM
 DCON.         Sperry Drilling:  DIRECTNL CONTR
 RIG .              West Azeri:  RIG NAME
 WELL.           C40 (Slot 20):  WELL NAME
 SRVC.     Turan Drilling Engineering:  CONTRACTOR
 FLD .                     ACG:  FIELD NAME
 CTRY.              Azerbaijan:  COUNTRY NAME
 PROV.                    Baku:  PROVINCE
 STAT.                    Baku:  STATE NAME
 REGN.                   EESSA:  REGION
 BASE.              Azerbaijan:  LOGGING EQUIPMENT BASE LOCATION
 COMP.     BP Exploration (Caspian Sea) Ltd:  COMPANY
 WTYP.                Deviated:  WELL TYPE
 SON .        AZ-XX-0906344804:  JOB NUMBER
 FTOP.          Formation Tops:  FORM TOPS DESC
 ILTD.               Lithology:  INTERP LTH DESC
 SVYD.                  Survey:  SURVEY DESC
 DMOD.             Drill Model:  DRILL MOD DESC
 HPTY.       Minimum Curvature:  HOLE POS TYPE
 NREF.                    Grid:  NORTH REFERENCE
 SPUD.               01-Jan-20:  SPUD DATE
 DATE.      00.59.44 15-Sep-20:  END TIME
 STIM.      12.00.00 12-Jun-20:  START TIME
 DMF .             Drill Floor:  DRILL MEAS FROM
 DFST.                        :  DIST FSL TEXT
 DFWT.                        :  DIST FWL TEXT
 API .                        :  API NUMBER
 CNTY.                        :  COUNTY
 UWI .                        :  UNIQUE WELL IDENTIFIER
 LOC .                        :  LOCATION
 LMF .             Drill Floor:  LOG MEASURED FROM
 VSNS.m                   2.88:  VERT SEC N/S
 VSEW.m                  -3.84:  VERT SEC E/W
 AGAP.m                  43.42:  AIR GAP
 APD .m                  43.42:  DEPTH ABOVE PD
 WDMS.m                 118.27:  WD ELEV
 EGL .m                   0.00:  GROUND ELEVATION
 EPD .m                   0.00:  ELEVATION
 AZTC.deg                 6.23:  AZM TOTAL CORR
 GRDC.deg                 0.20:  GRID CORRECTION
 MDEC.deg                 6.43:  MAGNETIC DECL
 MDIP.deg                59.49:  MAGNETIC DIP
 MFLD.nT              50277.00:  MAGNETIC FIELD
 GVFD.g                   1.00:  GRAVITY FIELD
 VSDR.deg               173.20:  VERT SEC DIRECT
 TDD .m                5790.01:  TOTAL DEPTH (DRILLER)
 SDEP.m                5231.01:  START DEPTH
 DFSL.m                   0.00:  DISTANCE FSL
 DFWL.m                   0.00:  DISTANCE FWL
 UTMY.m             4435808.83:  UTM Y
 UTMX.m              526266.40:  UTM X
 WHEW.m                  -3.84:  WELL HEAD E/W
 WHNS.m                   2.88:  WELL HEAD N/S
 LONG.deg                51.31:  LONGITUDE
 LATI.deg                40.06:  LATITUDE
 TVDS.m                  43.42:  TVDSS CORRECTN
 DEP .m                 430.08:  DEPTH
 EKB .m                  43.42:  KB ELEVATION
 EDF .m                  43.42:  DF ELEVATION
 TDL .m                 559.00:  TOTAL DEPTH (LOGGER)
 MAGU.                 1849381:  MAGUTM CHECKSUM
 VSC .                       0:  VS TO CLOSURE
~Parameter Information Block
#MNEM.UNIT       Value        Description
#---------     -----------    ---------------------------
 AV  .mps                 4.87:  Ann Velocity 
 AVMX.mps                 7.08:  Max Ann Veloc 
 AZIF.deg               108.87:  Azm, Final 
 BHAT.                  Rotary:  BHA Type 
 BROT.°/30m               0.35:  Build Rotating 
 BS  .in                  8.50:  Bit Size 
 BSZ .in                  8.50:  Bit Size 
 BTPL.psig              360.00:  Bit Press Loss 
 CABU.                     Yes:  Customer Abuse 
 TCS .hr                106.24:  Time Ciculation Ended 
 CV  .mps                 1.77:  Crit Velocity 
 CVMX.mps                 2.03:  Max Crit Veloc 
 DD1 .         Aykhan Agagulov:  Direct Drillr 1 
 DD2 .            Nonso Okofor:  Direct Drillr 2 
 DDSV.               Geo-Pilot:  DD Service 
 DEFF.%                  98.00:  % Det Eff 
 DLRX.°/30m               0.50:  Dogleg Rot Max 
 DLSO.°/30m               0.40:  Dogleg Oriented 
 DLSX.°/30m               0.94:  Dogleg Str Max 
 DRET.      20.30.00 08-Sep-20:  Drill End Time 
 DRST.      22.15.00 06-Sep-20:  Drill Start Tim 
 DTIM.hr                 31.31:  Time Drilling 
 EDEP.m                5790.01:  End Depth 
 ENG1.           Amrah Tahirov:  Engineer 1 
 ENG2.         Dair Mahammadov:  Engineer 2 
 ENG3.           Emil Huseynov:  Engineer 3 
 ETIM.      04.01.04 12-Sep-20:  End Time 
 FLOI.gpm               450.00:  Flow In 
 FLON.gpm               450.00:  Flow In Min 
 FLOS.cptm                2.00:  Fluid Loss 
 FLOX.gpm               450.00:  Flow In Max 
 FTRO.       Formation Presure:  FTWD Run Obj 
 HFLO.                      No:  High Flow 
 HPRE.                      No:  High Pressure 
 HTEM.                      No:  High Temp 
 HYDO.m                   1.80:  Hydro Offset 
 IFIN.deg                72.03:  Inc, Final 
 IMAX.deg                73.72:  Inc Max 
 IMIN.deg                70.94:  Inc Min 
 IMND.m                5508.52:  Inc Min Depth 
 IMXD.m                5253.60:  Inc Max Depth 
 JARR.                      No:  Jarring 
 LETM.      20.30.00 08-Sep-20:  Log End Time 
 LOST.hr                     0:  Lost Rig Time 
 LSTM.      22.15.00 06-Sep-20:  Log Start Time 
 MDCL.ppm             36000.00:  Mud Chlorides 
 MDES.     Inversion Oil/Synthetic:  Mud Desc 
 DFD .sg                  1.44:  Mud Density 
 MDMN.sg                  1.44:  Dens Mud Min 
 MDMX.sg                  1.57:  Dens Mud Max 
 MOIL.                      70:  Run Mud Oil % 
 MOWR.                   70:30:  Run Mud OWR 
 MSND.                       0:  Run Mud Sand % 
 MSOL.                      21:  Run Mud Solids% 
 DFV .spqt               68.00:  Mud Viscosity 
 MWOD.in                  6.75:  MWD Tool OD 
 MWSI.                     Yes:  Serv Intrp, MWD 
 OTIM.hr                174.84:  Time Operating 
 PCON.           Look Like New:  Pad Condition 
 PMAX.psia            10616.93:  Press Op, Max 
 PV  .cP                 50.00:  Mud PV 
 RUN .                     700:  Run Number 
 ROPA.m/hr               14.24:  ROP Avg 
 ROPN.m/hr               10.00:  ROP Min 
 ROPX.m/hr               32.00:  ROP Max 
 RPMA.rpm               120.90:  RPM Surface Avg 
 RPMN.rpm               120.00:  RPM Surface Min 
 RPMX.rpm               140.00:  RPM Surface Max 
 RRUN.                    0700:  Rig Run Number 
 RTIM.hr                  3.20:  Time Reaming 
 SAZI.deg               109.99:  Azm, Start 
 SDEP.m                5231.01:  Start Depth 
 SIDD.                      No:  Serv Intrp, DD 
 SINC.deg                73.72:  Inc, Start 
 SPPA.psig             3051.00:  SPP Avg 
 SPPN.psig             2950.00:  SPP Min 
 SPPX.psig             3250.00:  SPP Max 
 STIM.      08.00.00 05-Sep-20:  Start Time 
 SVCS.                 DD, MWD:  Services 
 SVER.                    9.20:  Sperry Version 
 TDAT.m                 559.00:  Tot Depth Attmp 
 TDDF.                      No:  Trip for DD 
 TDLG.m                 559.00:  Tot Depth Loggd 
 TFF .                      No:  Trip for Fail 
 TQAA.f-kp               26.49:  Torque Abs Avg 
 TQAN.f-kp               25.00:  Torque Abs Min 
 TQAX.f-kp               27.00:  Torque Abs Max 
 TRRT.°/30m               1.50:  Turn Rotating 
 MRT .                    HCIM:  Maximum Recorded Temperature 
 TTMX.degC               90.20:  Max Tool Temp 
 VS01.                90542671:  Virtual Str1 SN 
 VS02.                90545185:  Virtual Str2 SN 
 VS03.                90602015:  Virtual Str3 SN 
 VS04.                90515230:  Virtual Str4 SN 
 WBMN.klb                 5.00:  WOB Min 
 WOBA.klb                14.79:  WOB Avg 
 WOBX.klb                20.00:  WOB Max 
 YP  .lhf2               29.00:  Yield Point 
~Curve Information Block
#MNEM.UNIT                 API CODE     Curve Description
#---------               -----------    ---------------------------
 TIME.HHMMSS            00 000 000 000:  GT Time & Date
 GTDEPTH.m              00 000 000 000:  GT Depth
 GTPQH.psia             00 000 000 000:  GT HR Quartz Pressure
 GTTQ.degC              00 000 000 000:  GT Quartz Temperature
 GTTN.NONE              00 000 000 000:  GT Test Number
 GTET.sec               00 000 000 000:  GT Elapsed Test Time
 GTTVD.m                00 000 000 000:  GT True Vertical Depth
#Other Information
#
#WARRANTY: Halliburton will use its best efforts to furnish customers with 
#accurate information and interpretations that are part of, and incident to, the services 
#provided.  However, Halliburton cannot and does not warrant the accuracy 
#or correctness of such information and interpretations.  Under no circumstances should any 
#such information or interpretation be relied upon as the sole basis for any drilling, 
#completion, production, or financial decision or any procedure involving any risk to the 
#safety of any drilling venture, drilling rig or its crew or any other third party.  The 
#Customer has full responsibility for all drilling, completion and production operation.  
#Halliburton makes no representations or warranties, either expressed or 
#implied, including, but not limited to, the implied warranties of merchantability or fitness 
#for a particular purpose, with respect to the services rendered.  In no event will 
#Halliburton be liable for failure to obtain any particular results or for 
#any damages, including, but not limited to, indirect, special or consequential damages, 
#resulting from the use of any information or interpretation provided by Halliburton.
#
~A           TIME           GTDEPTH  GTPQH  GTTQ  GTTN   GTET   GTTVD  
# ...
   18:20:50.271.09-Sep-2020 5281.01 4058.03 74.59 21.00  90.33 2550.59
   18:20:50.471.09-Sep-2020 5281.01 4058.81 74.59 21.00  90.53 2550.59
   18:20:50.671.09-Sep-2020 5281.01 4058.95 74.59 21.00  90.73 2550.59
   18:20:50.871.09-Sep-2020 5281.01 4059.10 74.59 21.00  90.93 2550.59
   18:20:51.071.09-Sep-2020 5281.01 4059.10 74.59 21.00  91.13 2550.59
   18:20:51.270.09-Sep-2020 5281.01 4059.02 74.59 21.00  91.33 2550.59
   18:20:51.470.09-Sep-2020 5281.01 4058.95 74.59 21.00  91.53 2550.59
   18:20:51.670.09-Sep-2020 5281.01 4058.90 74.59 21.00  91.73 2550.59
   18:20:51.870.09-Sep-2020 5281.01 4058.75 74.59 21.00  91.93 2550.59
   18:20:52.070.09-Sep-2020 5281.01 4058.75 74.59 21.00  92.13 2550.59
   18:20:52.270.09-Sep-2020 5281.01 4058.61 74.59 21.00  92.33 2550.59
   18:20:52.469.09-Sep-2020 5281.01 4058.52 74.59 21.00  92.53 2550.59
   18:20:52.669.09-Sep-2020 5281.01 4058.50 74.59 21.00  92.73 2550.59
   18:20:52.869.09-Sep-2020 5281.01 4058.44 74.59 21.00  92.93 2550.59
   18:20:53.069.09-Sep-2020 5281.01 4058.44 74.59 21.00  93.13 2550.59
   18:20:53.269.09-Sep-2020 5281.01 4058.30 74.59 21.00  93.33 2550.59
   18:20:53.469.09-Sep-2020 5281.01 4058.26 74.59 21.00  93.53 2550.59
   18:20:53.669.09-Sep-2020 5281.01 4058.18 74.59 21.00  93.73 2550.59
   18:20:53.868.09-Sep-2020 5281.01 4057.30 74.59 21.00  93.93 2550.59
   18:20:54.068.09-Sep-2020 5281.01 4057.30 74.59 21.00  94.13 2550.59
   18:20:54.268.09-Sep-2020 5281.01 4058.15 74.59 21.00  94.33 2550.59
   18:20:54.468.09-Sep-2020 5281.01 4058.20 74.59 21.00  94.53 2550.59
   18:20:54.668.09-Sep-2020 5281.01 4058.49 74.59 21.00  94.73 2550.59
   18:20:54.868.09-Sep-2020 5281.01 4058.31 74.59 21.00  94.93 2550.59
   18:20:55.067.09-Sep-2020 5281.01 4058.31 74.59 21.00  95.13 2550.59
   18:20:55.267.09-Sep-2020 5281.01 4058.28 74.59 21.00  95.33 2550.59
   18:20:55.467.09-Sep-2020 5281.01 4058.28 74.59 21.00  95.53 2550.59
   18:20:55.667.09-Sep-2020 5281.01 4058.25 74.59 21.00  95.72 2550.59
   18:20:55.867.09-Sep-2020 5281.01 4058.27 74.59 21.00  95.92 2550.59
   18:20:56.067.09-Sep-2020 5281.01 4058.27 74.59 21.00  96.12 2550.59
   18:20:56.267.09-Sep-2020 5281.01 4058.21 74.59 21.00  96.32 2550.59
   18:20:56.466.09-Sep-2020 5281.01 4058.14 74.59 21.00  96.52 2550.59
   18:20:56.666.09-Sep-2020 5281.01 4058.11 74.59 21.00  96.72 2550.59
   18:20:56.866.09-Sep-2020 5281.01 4058.08 74.59 21.00  96.92 2550.59
   18:20:57.066.09-Sep-2020 5281.01 4058.08 74.59 21.00  97.12 2550.59
   18:20:57.266.09-Sep-2020 5281.01 4057.75 74.59 21.00  97.32 2550.59
   18:20:57.466.09-Sep-2020 5281.01 4057.60 74.59 21.00  97.52 2550.59
   18:20:57.665.09-Sep-2020 5281.01 4057.90 74.59 21.00  97.72 2550.59
   18:20:57.865.09-Sep-2020 5281.01 4058.00 74.59 21.00  97.92 2550.59
   18:20:58.065.09-Sep-2020 5281.01 4058.00 74.59 21.00  98.12 2550.59
   18:20:58.265.09-Sep-2020 5281.01 4056.77 74.59 21.00  98.32 2550.59
   18:20:58.465.09-Sep-2020 5281.01 4058.23 74.59 21.00  98.52 2550.59
   18:20:58.665.09-Sep-2020 5281.01 4057.96 74.59 21.00  98.72 2550.59
   18:20:58.864.09-Sep-2020 5281.01 4058.31 74.59 21.00  98.92 2550.59
   18:20:59.064.09-Sep-2020 5281.01 4058.31 74.59 21.00  99.12 2550.59
   18:20:59.264.09-Sep-2020 5281.01 4058.63 74.59 21.00  99.32 2550.59
   18:20:59.464.09-Sep-2020 5281.01 4058.51 74.59 21.00  99.52 2550.59
   18:20:59.664.09-Sep-2020 5281.01 4057.63 74.59 21.00  99.72 2550.59
   18:20:59.864.09-Sep-2020 5281.01 4057.95 74.59 21.00  99.92 2550.59
   18:21:00.064.09-Sep-2020 5281.01 4057.95 74.59 21.00 100.12 2550.59
   18:21:00.263.09-Sep-2020 5281.01 4058.72 74.59 21.00 100.32 2550.59
   18:21:00.463.09-Sep-2020 5281.01 4059.07 74.59 21.00 100.52 2550.59
   18:21:00.663.09-Sep-2020 5281.01 4058.90 74.59 21.00 100.72 2550.59
   18:21:00.863.09-Sep-2020 5281.01 4058.99 74.59 21.00 100.92 2550.59
   18:21:01.063.09-Sep-2020 5281.01 4058.99 74.59 21.00 101.12 2550.59
   18:21:01.263.09-Sep-2020 5281.01 4058.38 74.59 21.00 101.32 2550.59
   18:21:01.462.09-Sep-2020 5281.01 4058.98 74.59 21.00 101.52 2550.59
   18:21:01.662.09-Sep-2020 5281.01 4059.11 74.59 21.00 101.72 2550.59
   18:21:01.862.09-Sep-2020 5281.01 4059.43 74.59 21.00 101.92 2550.59
   18:21:02.062.09-Sep-2020 5281.01 4059.43 74.59 21.00 102.12 2550.59
   18:21:02.262.09-Sep-2020 5281.01 4059.32 74.59 21.00 102.32 2550.59
   18:21:02.462.09-Sep-2020 5281.01 4058.47 74.59 21.00 102.52 2550.59
   18:21:02.662.09-Sep-2020 5281.01 4058.84 74.59 21.00 102.72 2550.59
   18:21:02.861.09-Sep-2020 5281.01 4058.86 74.59 21.00 102.92 2550.59
   18:21:03.061.09-Sep-2020 5281.01 4058.86 74.59 21.00 103.12 2550.59
   18:21:03.261.09-Sep-2020 5281.01 4059.51 74.59 21.00 103.32 2550.59
   18:21:03.461.09-Sep-2020 5281.01 4059.82 74.59 21.00 103.52 2550.59
   18:21:03.661.09-Sep-2020 5281.01 4059.59 74.59 21.00 103.72 2550.59
   18:21:03.861.09-Sep-2020 5281.01 4059.58 74.59 21.00 103.92 2550.59
   18:21:04.060.09-Sep-2020 5281.01 4059.58 74.59 21.00 104.12 2550.59
   18:21:04.260.09-Sep-2020 5281.01 4059.55 74.59 21.00 104.32 2550.59
   18:21:04.460.09-Sep-2020 5281.01 4059.55 74.59 21.00 104.52 2550.59
   18:21:04.660.09-Sep-2020 5281.01 4059.51 74.59 21.00 104.72 2550.59
   18:21:04.860.09-Sep-2020 5281.01 4059.48 74.59 21.00 104.92 2550.59
   18:21:05.060.09-Sep-2020 5281.01 4059.48 74.59 21.00 105.12 2550.59
   18:21:05.259.09-Sep-2020 5281.01 4059.42 74.59 21.00 105.32 2550.59
   18:21:05.459.09-Sep-2020 5281.01 4059.38 74.59 21.00 105.52 2550.59
   18:21:05.659.09-Sep-2020 5281.01 4059.38 74.59 21.00 105.72 2550.59
   18:21:05.859.09-Sep-2020 5281.01 4059.34 74.59 21.00 105.92 2550.59
   18:21:06.059.09-Sep-2020 5281.01 4059.34 74.59 21.00 106.12 2550.59
   18:21:06.259.09-Sep-2020 5281.01 4057.83 74.59 21.00 106.32 2550.59
   18:21:06.459.09-Sep-2020 5281.01 4059.23 74.59 21.00 106.52 2550.59
   18:21:06.658.09-Sep-2020 5281.01 4058.95 74.59 21.00 106.72 2550.59
   18:21:06.858.09-Sep-2020 5281.01 4059.23 74.59 21.00 106.92 2550.59
   18:21:07.058.09-Sep-2020 5281.01 4059.23 74.59 21.00 107.12 2550.59
   18:21:07.258.09-Sep-2020 5281.01 4059.48 74.59 21.00 107.32 2550.59
   18:21:07.458.09-Sep-2020 5281.01 4059.33 74.59 21.00 107.52 2550.59
   18:21:07.658.09-Sep-2020 5281.01 4059.38 74.59 21.00 107.72 2550.59
   18:21:07.857.09-Sep-2020 5281.01 4059.45 74.59 21.00 107.92 2550.59
   18:21:08.057.09-Sep-2020 5281.01 4059.45 74.59 21.00 108.12 2550.59
   18:21:08.257.09-Sep-2020 5281.01 4059.36 74.59 21.00 108.32 2550.59
   18:21:08.457.09-Sep-2020 5281.01 4059.32 74.59 21.00 108.51 2550.59
   18:21:08.657.09-Sep-2020 5281.01 4059.35 74.59 21.00 108.71 2550.59
   18:21:08.857.09-Sep-2020 5281.01 4059.38 74.59 21.00 108.91 2550.59
   18:21:09.056.09-Sep-2020 5281.01 4059.38 74.59 21.00 109.11 2550.59
   18:21:09.256.09-Sep-2020 5281.01 4059.44 74.59 21.00 109.31 2550.59
   18:21:09.456.09-Sep-2020 5281.01 4059.34 74.59 21.00 109.51 2550.59
   18:21:09.656.09-Sep-2020 5281.01 4058.33 74.59 21.00 109.71 2550.59
   18:21:09.856.09-Sep-2020 5281.01 4058.80 74.59 21.00 109.91 2550.59
   18:21:10.056.09-Sep-2020 5281.01 4058.80 74.59 21.00 110.11 2550.59
   18:21:10.256.09-Sep-2020 5281.01 4059.31 74.59 21.00 110.31 2550.59
   18:21:10.455.09-Sep-2020 5281.01 4059.52 74.59 21.00 110.51 2550.59
   18:21:10.655.09-Sep-2020 5281.01 4059.68 74.59 21.00 110.71 2550.59
   18:21:10.855.09-Sep-2020 5281.01 4058.57 74.59 21.00 110.91 2550.59
   18:21:11.055.09-Sep-2020 5281.01 4058.57 74.59 21.00 111.11 2550.59
   18:21:11.255.09-Sep-2020 5281.01 4059.64 74.59 21.00 111.31 2550.59
   18:21:11.455.09-Sep-2020 5281.01 4059.77 74.59 21.00 111.51 2550.59
   18:21:11.654.09-Sep-2020 5281.01 4060.17 74.59 21.00 111.71 2550.59
   18:21:11.854.09-Sep-2020 5281.01 4059.99 74.59 21.00 111.91 2550.59
   18:21:12.054.09-Sep-2020 5281.01 4059.99 74.59 21.00 112.11 2550.59
   18:21:12.254.09-Sep-2020 5281.01 4059.55 74.59 21.00 112.31 2550.59
   18:21:12.454.09-Sep-2020 5281.01 4059.69 74.59 21.00 112.51 2550.59
   18:21:12.654.09-Sep-2020 5281.01 4060.08 74.59 21.00 112.71 2550.59
