~Version Information
 VERS.                  2.0:   CWLS log ASCII Standard -VERSION 2.0
 WRAP.                   NO:   One line per depth step
~Well Information Block
#MNEM.UNIT     VALUE/NAME     DESCRIPTION
#---------     -----------    ---------------------------
 STRT.S             11:14:18 09-Sep-20: START TIME 11:14:18 09-Sep-20
 STOP.S             11:21:20 09-Sep-20: STOP TIME  11:21:20 09-Sep-20
 STEP.S                   0.00: STEP TIME
 NULL.                 -999.25: NULL VALUE
 MDS .        Operator Entered:  MAG DATA SOURCE
 PDAT.          Mean Sea Level:  PERMANENT DATUM
 DCON.         Sperry Drilling:  DIRECTNL CONTR
 RIG .              West Azeri:  RIG NAME
 WELL.           C40 (Slot 20):  WELL NAME
 SRVC.     Turan Drilling Engineering:  CONTRACTOR
 FLD .                     ACG:  FIELD NAME
 CTRY.              Azerbaijan:  COUNTRY NAME
 PROV.                    Baku:  PROVINCE
 STAT.                    Baku:  STATE NAME
 REGN.                   EESSA:  REGION
 BASE.              Azerbaijan:  LOGGING EQUIPMENT BASE LOCATION
 COMP.     BP Exploration (Caspian Sea) Ltd:  COMPANY
 WTYP.                Deviated:  WELL TYPE
 SON .        AZ-XX-0906344804:  JOB NUMBER
 FTOP.          Formation Tops:  FORM TOPS DESC
 ILTD.               Lithology:  INTERP LTH DESC
 SVYD.                  Survey:  SURVEY DESC
 DMOD.             Drill Model:  DRILL MOD DESC
 HPTY.       Minimum Curvature:  HOLE POS TYPE
 NREF.                    Grid:  NORTH REFERENCE
 SPUD.               01-Jan-20:  SPUD DATE
 DATE.      00.59.44 15-Sep-20:  END TIME
 STIM.      12.00.00 12-Jun-20:  START TIME
 DMF .             Drill Floor:  DRILL MEAS FROM
 DFST.                        :  DIST FSL TEXT
 DFWT.                        :  DIST FWL TEXT
 API .                        :  API NUMBER
 CNTY.                        :  COUNTY
 UWI .                        :  UNIQUE WELL IDENTIFIER
 LOC .                        :  LOCATION
 LMF .             Drill Floor:  LOG MEASURED FROM
 VSNS.m                   2.88:  VERT SEC N/S
 VSEW.m                  -3.84:  VERT SEC E/W
 AGAP.m                  43.42:  AIR GAP
 APD .m                  43.42:  DEPTH ABOVE PD
 WDMS.m                 118.27:  WD ELEV
 EGL .m                   0.00:  GROUND ELEVATION
 EPD .m                   0.00:  ELEVATION
 AZTC.deg                 6.23:  AZM TOTAL CORR
 GRDC.deg                 0.20:  GRID CORRECTION
 MDEC.deg                 6.43:  MAGNETIC DECL
 MDIP.deg                59.49:  MAGNETIC DIP
 MFLD.nT              50277.00:  MAGNETIC FIELD
 GVFD.g                   1.00:  GRAVITY FIELD
 VSDR.deg               173.20:  VERT SEC DIRECT
 TDD .m                5790.01:  TOTAL DEPTH (DRILLER)
 SDEP.m                5231.01:  START DEPTH
 DFSL.m                   0.00:  DISTANCE FSL
 DFWL.m                   0.00:  DISTANCE FWL
 UTMY.m             4435808.83:  UTM Y
 UTMX.m              526266.40:  UTM X
 WHEW.m                  -3.84:  WELL HEAD E/W
 WHNS.m                   2.88:  WELL HEAD N/S
 LONG.deg                51.31:  LONGITUDE
 LATI.deg                40.06:  LATITUDE
 TVDS.m                  43.42:  TVDSS CORRECTN
 DEP .m                 430.08:  DEPTH
 EKB .m                  43.42:  KB ELEVATION
 EDF .m                  43.42:  DF ELEVATION
 TDL .m                 559.00:  TOTAL DEPTH (LOGGER)
 MAGU.                 1849381:  MAGUTM CHECKSUM
 VSC .                       0:  VS TO CLOSURE
~Parameter Information Block
#MNEM.UNIT       Value        Description
#---------     -----------    ---------------------------
 AV  .mps                 4.87:  Ann Velocity 
 AVMX.mps                 7.08:  Max Ann Veloc 
 AZIF.deg               108.87:  Azm, Final 
 BHAT.                  Rotary:  BHA Type 
 BROT.°/30m               0.35:  Build Rotating 
 BS  .in                  8.50:  Bit Size 
 BSZ .in                  8.50:  Bit Size 
 BTPL.psig              360.00:  Bit Press Loss 
 CABU.                     Yes:  Customer Abuse 
 TCS .hr                106.24:  Time Ciculation Ended 
 CV  .mps                 1.77:  Crit Velocity 
 CVMX.mps                 2.03:  Max Crit Veloc 
 DD1 .         Aykhan Agagulov:  Direct Drillr 1 
 DD2 .            Nonso Okofor:  Direct Drillr 2 
 DDSV.               Geo-Pilot:  DD Service 
 DEFF.%                  98.00:  % Det Eff 
 DLRX.°/30m               0.50:  Dogleg Rot Max 
 DLSO.°/30m               0.40:  Dogleg Oriented 
 DLSX.°/30m               0.94:  Dogleg Str Max 
 DRET.      20.30.00 08-Sep-20:  Drill End Time 
 DRST.      22.15.00 06-Sep-20:  Drill Start Tim 
 DTIM.hr                 31.31:  Time Drilling 
 EDEP.m                5790.01:  End Depth 
 ENG1.           Amrah Tahirov:  Engineer 1 
 ENG2.         Dair Mahammadov:  Engineer 2 
 ENG3.           Emil Huseynov:  Engineer 3 
 ETIM.      04.01.04 12-Sep-20:  End Time 
 FLOI.gpm               450.00:  Flow In 
 FLON.gpm               450.00:  Flow In Min 
 FLOS.cptm                2.00:  Fluid Loss 
 FLOX.gpm               450.00:  Flow In Max 
 FTRO.       Formation Presure:  FTWD Run Obj 
 HFLO.                      No:  High Flow 
 HPRE.                      No:  High Pressure 
 HTEM.                      No:  High Temp 
 HYDO.m                   1.80:  Hydro Offset 
 IFIN.deg                72.03:  Inc, Final 
 IMAX.deg                73.72:  Inc Max 
 IMIN.deg                70.94:  Inc Min 
 IMND.m                5508.52:  Inc Min Depth 
 IMXD.m                5253.60:  Inc Max Depth 
 JARR.                      No:  Jarring 
 LETM.      20.30.00 08-Sep-20:  Log End Time 
 LOST.hr                     0:  Lost Rig Time 
 LSTM.      22.15.00 06-Sep-20:  Log Start Time 
 MDCL.ppm             36000.00:  Mud Chlorides 
 MDES.     Inversion Oil/Synthetic:  Mud Desc 
 DFD .sg                  1.44:  Mud Density 
 MDMN.sg                  1.44:  Dens Mud Min 
 MDMX.sg                  1.57:  Dens Mud Max 
 MOIL.                      70:  Run Mud Oil % 
 MOWR.                   70:30:  Run Mud OWR 
 MSND.                       0:  Run Mud Sand % 
 MSOL.                      21:  Run Mud Solids% 
 DFV .spqt               68.00:  Mud Viscosity 
 MWOD.in                  6.75:  MWD Tool OD 
 MWSI.                     Yes:  Serv Intrp, MWD 
 OTIM.hr                174.84:  Time Operating 
 PCON.           Look Like New:  Pad Condition 
 PMAX.psia            10616.93:  Press Op, Max 
 PV  .cP                 50.00:  Mud PV 
 RUN .                     700:  Run Number 
 ROPA.m/hr               14.24:  ROP Avg 
 ROPN.m/hr               10.00:  ROP Min 
 ROPX.m/hr               32.00:  ROP Max 
 RPMA.rpm               120.90:  RPM Surface Avg 
 RPMN.rpm               120.00:  RPM Surface Min 
 RPMX.rpm               140.00:  RPM Surface Max 
 RRUN.                    0700:  Rig Run Number 
 RTIM.hr                  3.20:  Time Reaming 
 SAZI.deg               109.99:  Azm, Start 
 SDEP.m                5231.01:  Start Depth 
 SIDD.                      No:  Serv Intrp, DD 
 SINC.deg                73.72:  Inc, Start 
 SPPA.psig             3051.00:  SPP Avg 
 SPPN.psig             2950.00:  SPP Min 
 SPPX.psig             3250.00:  SPP Max 
 STIM.      08.00.00 05-Sep-20:  Start Time 
 SVCS.                 DD, MWD:  Services 
 SVER.                    9.20:  Sperry Version 
 TDAT.m                 559.00:  Tot Depth Attmp 
 TDDF.                      No:  Trip for DD 
 TDLG.m                 559.00:  Tot Depth Loggd 
 TFF .                      No:  Trip for Fail 
 TQAA.f-kp               26.49:  Torque Abs Avg 
 TQAN.f-kp               25.00:  Torque Abs Min 
 TQAX.f-kp               27.00:  Torque Abs Max 
 TRRT.°/30m               1.50:  Turn Rotating 
 MRT .                    HCIM:  Maximum Recorded Temperature 
 TTMX.degC               90.20:  Max Tool Temp 
 VS01.                90542671:  Virtual Str1 SN 
 VS02.                90545185:  Virtual Str2 SN 
 VS03.                90602015:  Virtual Str3 SN 
 VS04.                90515230:  Virtual Str4 SN 
 WBMN.klb                 5.00:  WOB Min 
 WOBA.klb                14.79:  WOB Avg 
 WOBX.klb                20.00:  WOB Max 
 YP  .lhf2               29.00:  Yield Point 
~Curve Information Block
#MNEM.UNIT                 API CODE     Curve Description
#---------               -----------    ---------------------------
 TIME.HHMMSS            00 000 000 000:  GT Time & Date
 GTDEPTH.m              00 000 000 000:  GT Depth
 GTPQH.psia             00 000 000 000:  GT HR Quartz Pressure
 GTTQ.degC              00 000 000 000:  GT Quartz Temperature
 GTTN.NONE              00 000 000 000:  GT Test Number
 GTET.sec               00 000 000 000:  GT Elapsed Test Time
 GTTVD.m                00 000 000 000:  GT True Vertical Depth
#Other Information
#
#WARRANTY: Halliburton will use its best efforts to furnish customers with 
#accurate information and interpretations that are part of, and incident to, the services 
#provided.  However, Halliburton cannot and does not warrant the accuracy 
#or correctness of such information and interpretations.  Under no circumstances should any 
#such information or interpretation be relied upon as the sole basis for any drilling, 
#completion, production, or financial decision or any procedure involving any risk to the 
#safety of any drilling venture, drilling rig or its crew or any other third party.  The 
#Customer has full responsibility for all drilling, completion and production operation.  
#Halliburton makes no representations or warranties, either expressed or 
#implied, including, but not limited to, the implied warranties of merchantability or fitness 
#for a particular purpose, with respect to the services rendered.  In no event will 
#Halliburton be liable for failure to obtain any particular results or for 
#any damages, including, but not limited to, indirect, special or consequential damages, 
#resulting from the use of any information or interpretation provided by Halliburton.
#
~A           TIME           GTDEPTH  GTPQH  GTTQ  GTTN   GTET   GTTVD  
# ...
   11:15:03.723.09-Sep-2020 5442.01 3559.94 76.20 11.00  45.21 2600.30
   11:15:03.923.09-Sep-2020 5442.01 3562.29 76.20 11.00  45.41 2600.30
   11:15:04.123.09-Sep-2020 5442.01 3561.78 76.20 11.00  45.61 2600.30
   11:15:04.323.09-Sep-2020 5442.01 3562.02 76.20 11.00  45.81 2600.30
   11:15:04.523.09-Sep-2020 5442.01 3561.59 76.19 11.00  46.01 2600.30
   11:15:04.723.09-Sep-2020 5442.01 3561.59 76.19 11.00  46.21 2600.30
   11:15:04.923.09-Sep-2020 5442.01 3561.22 76.19 11.00  46.41 2600.30
   11:15:05.123.09-Sep-2020 5442.01 3560.55 76.19 11.00  46.61 2600.30
   11:15:05.323.09-Sep-2020 5442.01 3561.06 76.19 11.00  46.81 2600.30
   11:15:05.523.09-Sep-2020 5442.01 3560.59 76.18 11.00  47.01 2600.30
   11:15:05.723.09-Sep-2020 5442.01 3559.51 76.18 11.00  47.21 2600.30
   11:15:05.923.09-Sep-2020 5442.01 3560.79 76.18 11.00  47.41 2600.30
   11:15:06.124.09-Sep-2020 5442.01 3559.55 76.18 11.00  47.61 2600.30
   11:15:06.324.09-Sep-2020 5442.01 3560.78 76.17 11.00  47.81 2600.30
   11:15:06.524.09-Sep-2020 5442.01 3560.14 76.17 11.00  48.01 2600.30
   11:15:06.724.09-Sep-2020 5442.01 3559.41 76.17 11.00  48.21 2600.30
   11:15:06.924.09-Sep-2020 5442.01 3559.35 76.17 11.00  48.41 2600.30
   11:15:07.124.09-Sep-2020 5442.01 3559.12 76.16 11.00  48.61 2600.30
   11:15:07.324.09-Sep-2020 5442.01 3558.70 76.16 11.00  48.81 2600.30
   11:15:07.524.09-Sep-2020 5442.01 3558.62 76.16 11.00  49.01 2600.30
   11:15:07.724.09-Sep-2020 5442.01 3558.62 76.16 11.00  49.21 2600.30
   11:15:07.924.09-Sep-2020 5442.01 3559.01 76.15 11.00  49.41 2600.30
   11:15:08.124.09-Sep-2020 5442.01 3558.70 76.15 11.00  49.61 2600.30
   11:15:08.324.09-Sep-2020 5442.01 3557.98 76.15 11.00  49.81 2600.30
   11:15:08.524.09-Sep-2020 5442.01 3557.76 76.15 11.00  50.01 2600.30
   11:15:08.724.09-Sep-2020 5442.01 3557.76 76.15 11.00  50.21 2600.30
   11:15:08.924.09-Sep-2020 5442.01 3557.88 76.14 11.00  50.41 2600.30
   11:15:09.124.09-Sep-2020 5442.01 3557.81 76.14 11.00  50.61 2600.30
   11:15:09.324.09-Sep-2020 5442.01 3556.78 76.14 11.00  50.81 2600.30
   11:15:09.524.09-Sep-2020 5442.01 3556.99 76.14 11.00  51.01 2600.30
   11:15:09.725.09-Sep-2020 5442.01 3556.99 76.14 11.00  51.21 2600.30
   11:15:09.925.09-Sep-2020 5442.01 3556.67 76.13 11.00  51.41 2600.30
   11:15:10.125.09-Sep-2020 5442.01 3555.00 76.13 11.00  51.61 2600.30
   11:15:10.325.09-Sep-2020 5442.01 3555.25 76.13 11.00  51.81 2600.30
   11:15:10.525.09-Sep-2020 5442.01 3555.63 76.13 11.00  52.01 2600.30
   11:15:10.725.09-Sep-2020 5442.01 3554.49 76.13 11.00  52.21 2600.30
   11:15:10.925.09-Sep-2020 5442.01 3554.65 76.13 11.00  52.41 2600.30
   11:15:11.125.09-Sep-2020 5442.01 3554.68 76.13 11.00  52.61 2600.30
   11:15:11.325.09-Sep-2020 5442.01 3555.54 76.12 11.00  52.81 2600.30
   11:15:11.525.09-Sep-2020 5442.01 3554.12 76.12 11.00  53.01 2600.30
   11:15:11.725.09-Sep-2020 5442.01 3554.12 76.12 11.00  53.21 2600.30
   11:15:11.925.09-Sep-2020 5442.01 3554.01 76.12 11.00  53.41 2600.30
   11:15:12.125.09-Sep-2020 5442.01 3553.70 76.12 11.00  53.61 2600.30
   11:15:12.325.09-Sep-2020 5442.01 3562.96 76.12 11.00  53.81 2600.30
   11:15:12.525.09-Sep-2020 5442.01 3581.41 76.12 11.00  54.01 2600.30
   11:15:12.725.09-Sep-2020 5442.01 3581.41 76.12 11.00  54.21 2600.30
   11:15:12.925.09-Sep-2020 5442.01 3581.41 76.12 11.00  54.42 2600.30
   11:15:13.125.09-Sep-2020 5442.01 3581.41 76.12 11.00  54.62 2600.30
   11:15:13.326.09-Sep-2020 5442.01 3581.41 76.12 11.00  54.82 2600.30
   11:15:13.526.09-Sep-2020 5442.01 3581.42 76.12 11.00  55.02 2600.30
   11:15:13.726.09-Sep-2020 5442.01 3581.42 76.12 11.00  55.22 2600.30
   11:15:13.926.09-Sep-2020 5442.01 3581.44 76.11 11.00  55.42 2600.30
   11:15:14.126.09-Sep-2020 5442.01 3581.44 76.11 11.00  55.62 2600.30
   11:15:14.326.09-Sep-2020 5442.01 3581.45 76.11 11.00  55.82 2600.30
   11:15:14.526.09-Sep-2020 5442.01 3581.45 76.11 11.00  56.02 2600.30
   11:15:14.726.09-Sep-2020 5442.01 3581.45 76.11 11.00  56.22 2600.30
   11:15:14.926.09-Sep-2020 5442.01 3581.47 76.11 11.00  56.42 2600.30
   11:15:15.126.09-Sep-2020 5442.01 3581.48 76.11 11.00  56.62 2600.30
   11:15:15.326.09-Sep-2020 5442.01 3581.48 76.11 11.00  56.82 2600.30
   11:15:15.526.09-Sep-2020 5442.01 3581.49 76.11 11.00  57.02 2600.30
   11:15:15.726.09-Sep-2020 5442.01 3581.49 76.11 11.00  57.22 2600.30
   11:15:15.926.09-Sep-2020 5442.01 3581.50 76.11 11.00  57.42 2600.30
   11:15:16.126.09-Sep-2020 5442.01 3581.50 76.11 11.00  57.62 2600.30
   11:15:16.326.09-Sep-2020 5442.01 3581.51 76.11 11.00  57.82 2600.30
   11:15:16.526.09-Sep-2020 5442.01 3581.45 76.11 11.00  58.02 2600.30
   11:15:16.726.09-Sep-2020 5442.01 3581.51 76.11 11.00  58.22 2600.30
   11:15:16.927.09-Sep-2020 5442.01 3581.52 76.11 11.00  58.42 2600.30
   11:15:17.127.09-Sep-2020 5442.01 3581.53 76.11 11.00  58.62 2600.30
   11:15:17.327.09-Sep-2020 5442.01 3581.54 76.11 11.00  58.82 2600.30
   11:15:17.527.09-Sep-2020 5442.01 3581.53 76.11 11.00  59.02 2600.30
   11:15:17.727.09-Sep-2020 5442.01 3581.54 76.11 11.00  59.22 2600.30
   11:15:17.927.09-Sep-2020 5442.01 3581.57 76.11 11.00  59.42 2600.30
   11:15:18.127.09-Sep-2020 5442.01 3581.51 76.11 11.00  59.62 2600.30
   11:15:18.327.09-Sep-2020 5442.01 3581.55 76.11 11.00  59.82 2600.30
   11:15:18.527.09-Sep-2020 5442.01 3581.54 76.11 11.00  60.02 2600.30
   11:15:18.727.09-Sep-2020 5442.01 3581.58 76.11 11.00  60.22 2600.30
   11:15:18.927.09-Sep-2020 5442.01 3581.56 76.11 11.00  60.42 2600.30
   11:15:19.127.09-Sep-2020 5442.01 3581.56 76.11 11.00  60.62 2600.30
   11:15:19.327.09-Sep-2020 5442.01 3581.58 76.11 11.00  60.82 2600.30
   11:15:19.527.09-Sep-2020 5442.01 3581.58 76.11 11.00  61.02 2600.30
   11:15:19.727.09-Sep-2020 5442.01 3581.58 76.11 11.00  61.22 2600.30
   11:15:19.927.09-Sep-2020 5442.01 3581.60 76.11 11.00  61.42 2600.30
   11:15:20.127.09-Sep-2020 5442.01 3581.59 76.11 11.00  61.62 2600.30
   11:15:20.327.09-Sep-2020 5442.01 3581.61 76.11 11.00  61.82 2600.30
   11:15:20.528.09-Sep-2020 5442.01 3581.65 76.11 11.00  62.02 2600.30
   11:15:20.728.09-Sep-2020 5442.01 3581.65 76.11 11.00  62.22 2600.30
   11:15:20.928.09-Sep-2020 5442.01 3581.61 76.11 11.00  62.42 2600.30
   11:15:21.128.09-Sep-2020 5442.01 3581.62 76.11 11.00  62.62 2600.30
   11:15:21.328.09-Sep-2020 5442.01 3581.65 76.11 11.00  62.82 2600.30
   11:15:21.528.09-Sep-2020 5442.01 3581.62 76.11 11.00  63.02 2600.30
   11:15:21.728.09-Sep-2020 5442.01 3581.59 76.11 11.00  63.22 2600.30
   11:15:21.928.09-Sep-2020 5442.01 3581.67 76.11 11.00  63.42 2600.30
   11:15:22.128.09-Sep-2020 5442.01 3581.67 76.11 11.00  63.62 2600.30
   11:15:22.328.09-Sep-2020 5442.01 3581.66 76.11 11.00  63.82 2600.30
   11:15:22.528.09-Sep-2020 5442.01 3581.67 76.11 11.00  64.02 2600.30
   11:15:22.728.09-Sep-2020 5442.01 3581.66 76.11 11.00  64.22 2600.30
   11:15:22.928.09-Sep-2020 5442.01 3581.67 76.11 11.00  64.42 2600.30
   11:15:23.128.09-Sep-2020 5442.01 3581.64 76.11 11.00  64.62 2600.30
   11:15:23.328.09-Sep-2020 5442.01 3581.72 76.11 11.00  64.82 2600.30
   11:15:23.528.09-Sep-2020 5442.01 3581.69 76.11 11.00  65.02 2600.30
   11:15:23.728.09-Sep-2020 5442.01 3581.69 76.11 11.00  65.22 2600.30
   11:15:23.928.09-Sep-2020 5442.01 3581.71 76.11 11.00  65.42 2600.30
   11:15:24.129.09-Sep-2020 5442.01 3581.69 76.11 11.00  65.62 2600.30
   11:15:24.329.09-Sep-2020 5442.01 3581.71 76.11 11.00  65.82 2600.30
   11:15:24.529.09-Sep-2020 5442.01 3581.71 76.11 11.00  66.02 2600.30
   11:15:24.729.09-Sep-2020 5442.01 3581.71 76.11 11.00  66.22 2600.30
   11:15:24.929.09-Sep-2020 5442.01 3581.72 76.11 11.00  66.42 2600.30
   11:15:25.129.09-Sep-2020 5442.01 3581.72 76.11 11.00  66.62 2600.30
   11:15:25.329.09-Sep-2020 5442.01 3581.74 76.11 11.00  66.82 2600.30
   11:15:25.529.09-Sep-2020 5442.01 3581.74 76.11 11.00  67.02 2600.30
   11:15:25.729.09-Sep-2020 5442.01 3581.74 76.11 11.00  67.22 2600.30
   11:15:25.929.09-Sep-2020 5442.01 3581.74 76.11 11.00  67.42 2600.30
   11:15:26.129.09-Sep-2020 5442.01 3581.75 76.11 11.00  67.62 2600.30
