~Version Information
 VERS.                  2.0:   CWLS log ASCII Standard -VERSION 2.0
 WRAP.                   NO:   One line per depth step
~Well Information Block
#MNEM.UNIT     VALUE/NAME     DESCRIPTION
#---------     -----------    ---------------------------
 STRT.S             21:21:48 09-Sep-20: START TIME 21:21:48 09-Sep-20
 STOP.S             21:29:57 09-Sep-20: STOP TIME  21:29:57 09-Sep-20
 STEP.S                   0.00: STEP TIME
 NULL.                 -999.25: NULL VALUE
 MDS .        Operator Entered:  MAG DATA SOURCE
 PDAT.          Mean Sea Level:  PERMANENT DATUM
 DCON.         Sperry Drilling:  DIRECTNL CONTR
 RIG .              West Azeri:  RIG NAME
 WELL.           C40 (Slot 20):  WELL NAME
 SRVC.     Turan Drilling Engineering:  CONTRACTOR
 FLD .                     ACG:  FIELD NAME
 CTRY.              Azerbaijan:  COUNTRY NAME
 PROV.                    Baku:  PROVINCE
 STAT.                    Baku:  STATE NAME
 REGN.                   EESSA:  REGION
 BASE.              Azerbaijan:  LOGGING EQUIPMENT BASE LOCATION
 COMP.     BP Exploration (Caspian Sea) Ltd:  COMPANY
 WTYP.                Deviated:  WELL TYPE
 SON .        AZ-XX-0906344804:  JOB NUMBER
 FTOP.          Formation Tops:  FORM TOPS DESC
 ILTD.               Lithology:  INTERP LTH DESC
 SVYD.                  Survey:  SURVEY DESC
 DMOD.             Drill Model:  DRILL MOD DESC
 HPTY.       Minimum Curvature:  HOLE POS TYPE
 NREF.                    Grid:  NORTH REFERENCE
 SPUD.               01-Jan-20:  SPUD DATE
 DATE.      00.59.44 15-Sep-20:  END TIME
 STIM.      12.00.00 12-Jun-20:  START TIME
 DMF .             Drill Floor:  DRILL MEAS FROM
 DFST.                        :  DIST FSL TEXT
 DFWT.                        :  DIST FWL TEXT
 API .                        :  API NUMBER
 CNTY.                        :  COUNTY
 UWI .                        :  UNIQUE WELL IDENTIFIER
 LOC .                        :  LOCATION
 LMF .             Drill Floor:  LOG MEASURED FROM
 VSNS.m                   2.88:  VERT SEC N/S
 VSEW.m                  -3.84:  VERT SEC E/W
 AGAP.m                  43.42:  AIR GAP
 APD .m                  43.42:  DEPTH ABOVE PD
 WDMS.m                 118.27:  WD ELEV
 EGL .m                   0.00:  GROUND ELEVATION
 EPD .m                   0.00:  ELEVATION
 AZTC.deg                 6.23:  AZM TOTAL CORR
 GRDC.deg                 0.20:  GRID CORRECTION
 MDEC.deg                 6.43:  MAGNETIC DECL
 MDIP.deg                59.49:  MAGNETIC DIP
 MFLD.nT              50277.00:  MAGNETIC FIELD
 GVFD.g                   1.00:  GRAVITY FIELD
 VSDR.deg               173.20:  VERT SEC DIRECT
 TDD .m                5790.01:  TOTAL DEPTH (DRILLER)
 SDEP.m                5231.01:  START DEPTH
 DFSL.m                   0.00:  DISTANCE FSL
 DFWL.m                   0.00:  DISTANCE FWL
 UTMY.m             4435808.83:  UTM Y
 UTMX.m              526266.40:  UTM X
 WHEW.m                  -3.84:  WELL HEAD E/W
 WHNS.m                   2.88:  WELL HEAD N/S
 LONG.deg                51.31:  LONGITUDE
 LATI.deg                40.06:  LATITUDE
 TVDS.m                  43.42:  TVDSS CORRECTN
 DEP .m                 430.08:  DEPTH
 EKB .m                  43.42:  KB ELEVATION
 EDF .m                  43.42:  DF ELEVATION
 TDL .m                 559.00:  TOTAL DEPTH (LOGGER)
 MAGU.                 1849381:  MAGUTM CHECKSUM
 VSC .                       0:  VS TO CLOSURE
~Parameter Information Block
#MNEM.UNIT       Value        Description
#---------     -----------    ---------------------------
 AV  .mps                 4.87:  Ann Velocity 
 AVMX.mps                 7.08:  Max Ann Veloc 
 AZIF.deg               108.87:  Azm, Final 
 BHAT.                  Rotary:  BHA Type 
 BROT.°/30m               0.35:  Build Rotating 
 BS  .in                  8.50:  Bit Size 
 BSZ .in                  8.50:  Bit Size 
 BTPL.psig              360.00:  Bit Press Loss 
 CABU.                     Yes:  Customer Abuse 
 COMM.                     ¼¥|:  Run Comments 1 
 TCS .hr                106.24:  Time Ciculation Ended 
 CV  .mps                 1.77:  Crit Velocity 
 CVMX.mps                 2.03:  Max Crit Veloc 
 DD1 .         Aykhan Agagulov:  Direct Drillr 1 
 DD2 .            Nonso Okofor:  Direct Drillr 2 
 DDSV.               Geo-Pilot:  DD Service 
 DEFF.%                  98.00:  % Det Eff 
 DLRX.°/30m               0.50:  Dogleg Rot Max 
 DLSO.°/30m               0.40:  Dogleg Oriented 
 DLSX.°/30m               0.94:  Dogleg Str Max 
 DRET.      20.30.00 08-Sep-20:  Drill End Time 
 DRST.      22.15.00 06-Sep-20:  Drill Start Tim 
 DTIM.hr                 31.31:  Time Drilling 
 EDEP.m                5790.01:  End Depth 
 ENG1.           Amrah Tahirov:  Engineer 1 
 ENG2.         Dair Mahammadov:  Engineer 2 
 ENG3.           Emil Huseynov:  Engineer 3 
 ETIM.      04.01.04 12-Sep-20:  End Time 
 FLOI.gpm               450.00:  Flow In 
 FLON.gpm               450.00:  Flow In Min 
 FLOS.cptm                2.00:  Fluid Loss 
 FLOX.gpm               450.00:  Flow In Max 
 FTRO.       Formation Presure:  FTWD Run Obj 
 HFLO.                      No:  High Flow 
 HPRE.                      No:  High Pressure 
 HTEM.                      No:  High Temp 
 HYDO.m                   1.80:  Hydro Offset 
 IFIN.deg                72.03:  Inc, Final 
 IMAX.deg                73.72:  Inc Max 
 IMIN.deg                70.94:  Inc Min 
 IMND.m                5508.52:  Inc Min Depth 
 IMXD.m                5253.60:  Inc Max Depth 
 JARR.                      No:  Jarring 
 LETM.      20.30.00 08-Sep-20:  Log End Time 
 LOST.hr                     0:  Lost Rig Time 
 LSTM.      22.15.00 06-Sep-20:  Log Start Time 
 MDCL.ppm             36000.00:  Mud Chlorides 
 MDES.     Inversion Oil/Synthetic:  Mud Desc 
 DFD .sg                  1.44:  Mud Density 
 MDMN.sg                  1.44:  Dens Mud Min 
 MDMX.sg                  1.57:  Dens Mud Max 
 MOIL.                      70:  Run Mud Oil % 
 MOWR.                   70:30:  Run Mud OWR 
 MSND.                       0:  Run Mud Sand % 
 MSOL.                      21:  Run Mud Solids% 
 DFV .spqt               68.00:  Mud Viscosity 
 MWOD.in                  6.75:  MWD Tool OD 
 MWSI.                     Yes:  Serv Intrp, MWD 
 OTIM.hr                174.84:  Time Operating 
 PCON.           Look Like New:  Pad Condition 
 PMAX.psia            10616.93:  Press Op, Max 
 PV  .cP                 50.00:  Mud PV 
 RUN .                     700:  Run Number 
 ROPA.m/hr               14.24:  ROP Avg 
 ROPN.m/hr               10.00:  ROP Min 
 ROPX.m/hr               32.00:  ROP Max 
 RPMA.rpm               120.90:  RPM Surface Avg 
 RPMN.rpm               120.00:  RPM Surface Min 
 RPMX.rpm               140.00:  RPM Surface Max 
 RRUN.                    0700:  Rig Run Number 
 RTIM.hr                  3.20:  Time Reaming 
 SAZI.deg               109.99:  Azm, Start 
 SDEP.m                5231.01:  Start Depth 
 SIDD.                      No:  Serv Intrp, DD 
 SINC.deg                73.72:  Inc, Start 
 SPPA.psig             3051.00:  SPP Avg 
 SPPN.psig             2950.00:  SPP Min 
 SPPX.psig             3250.00:  SPP Max 
 STIM.      08.00.00 05-Sep-20:  Start Time 
 SVCS.                 DD, MWD:  Services 
 SVER.                    9.20:  Sperry Version 
 TDAT.m                 559.00:  Tot Depth Attmp 
 TDDF.                      No:  Trip for DD 
 TDLG.m                 559.00:  Tot Depth Loggd 
 TFF .                      No:  Trip for Fail 
 TQAA.f-kp               26.49:  Torque Abs Avg 
 TQAN.f-kp               25.00:  Torque Abs Min 
 TQAX.f-kp               27.00:  Torque Abs Max 
 TRRT.°/30m               1.50:  Turn Rotating 
 MRT .                    HCIM:  Maximum Recorded Temperature 
 TTMX.degC               90.20:  Max Tool Temp 
 VS01.                90542671:  Virtual Str1 SN 
 VS02.                90545185:  Virtual Str2 SN 
 VS03.                90602015:  Virtual Str3 SN 
 VS04.                90515230:  Virtual Str4 SN 
 WBMN.klb                 5.00:  WOB Min 
 WOBA.klb                14.79:  WOB Avg 
 WOBX.klb                20.00:  WOB Max 
 YP  .lhf2               29.00:  Yield Point 
~Curve Information Block
#MNEM.UNIT                 API CODE     Curve Description
#---------               -----------    ---------------------------
 TIME.HHMMSS            00 000 000 000:  GT Time & Date
 GTDEPTH.m              00 000 000 000:  GT Depth
 GTPQH.psia             00 000 000 000:  GT HR Quartz Pressure
 GTTQ.degC              00 000 000 000:  GT Quartz Temperature
 GTTN.NONE              00 000 000 000:  GT Test Number
 GTET.sec               00 000 000 000:  GT Elapsed Test Time
 GTTVD.m                00 000 000 000:  GT True Vertical Depth
#Other Information
#
#WARRANTY: Halliburton will use its best efforts to furnish customers with 
#accurate information and interpretations that are part of, and incident to, the services 
#provided.  However, Halliburton cannot and does not warrant the accuracy 
#or correctness of such information and interpretations.  Under no circumstances should any 
#such information or interpretation be relied upon as the sole basis for any drilling, 
#completion, production, or financial decision or any procedure involving any risk to the 
#safety of any drilling venture, drilling rig or its crew or any other third party.  The 
#Customer has full responsibility for all drilling, completion and production operation.  
#Halliburton makes no representations or warranties, either expressed or 
#implied, including, but not limited to, the implied warranties of merchantability or fitness 
#for a particular purpose, with respect to the services rendered.  In no event will 
#Halliburton be liable for failure to obtain any particular results or for 
#any damages, including, but not limited to, indirect, special or consequential damages, 
#resulting from the use of any information or interpretation provided by Halliburton.
#
~A           TIME           GTDEPTH  GTPQH  GTTQ  GTTN   GTET   GTTVD  
# ...
   21:26:42.252.09-Sep-2020 5252.22  326.38 73.47 26.00 293.94 2542.36
   21:26:42.452.09-Sep-2020 5252.22  326.59 73.47 26.00 294.14 2542.36
   21:26:42.652.09-Sep-2020 5252.22  326.70 73.47 26.00 294.34 2542.36
   21:26:42.852.09-Sep-2020 5252.22  326.93 73.47 26.00 294.54 2542.36
   21:26:43.053.09-Sep-2020 5252.22  326.94 73.47 26.00 294.74 2542.36
   21:26:43.253.09-Sep-2020 5252.22  327.16 73.47 26.00 294.94 2542.36
   21:26:43.453.09-Sep-2020 5252.22  327.26 73.47 26.00 295.14 2542.36
   21:26:43.653.09-Sep-2020 5252.22  327.38 73.47 26.00 295.34 2542.36
   21:26:43.853.09-Sep-2020 5252.22  327.44 73.47 26.00 295.54 2542.36
   21:26:44.053.09-Sep-2020 5252.22  327.57 73.47 26.00 295.74 2542.36
   21:26:44.253.09-Sep-2020 5252.22  327.66 73.47 26.00 295.94 2542.36
   21:26:44.453.09-Sep-2020 5252.22  327.80 73.47 26.00 296.14 2542.36
   21:26:44.653.09-Sep-2020 5252.22  327.80 73.47 26.00 296.34 2542.36
   21:26:44.853.09-Sep-2020 5252.22  328.02 73.47 26.00 296.54 2542.36
   21:26:45.054.09-Sep-2020 5252.22  328.13 73.47 26.00 296.74 2542.36
   21:26:45.254.09-Sep-2020 5252.22  328.26 73.47 26.00 296.94 2542.36
   21:26:45.454.09-Sep-2020 5252.22  328.37 73.47 26.00 297.14 2542.36
   21:26:45.654.09-Sep-2020 5252.22  328.37 73.47 26.00 297.34 2542.36
   21:26:45.854.09-Sep-2020 5252.22  328.56 73.47 26.00 297.54 2542.36
   21:26:46.054.09-Sep-2020 5252.22  328.71 73.47 26.00 297.74 2542.36
   21:26:46.254.09-Sep-2020 5252.22  328.79 73.47 26.00 297.94 2542.36
   21:26:46.454.09-Sep-2020 5252.22  329.03 73.47 26.00 298.14 2542.36
   21:26:46.654.09-Sep-2020 5252.22  329.06 73.47 26.00 298.34 2542.36
   21:26:46.854.09-Sep-2020 5252.22  329.22 73.47 26.00 298.54 2542.36
   21:26:47.054.09-Sep-2020 5252.22  329.28 73.47 26.00 298.74 2542.36
   21:26:47.255.09-Sep-2020 5252.22  329.40 73.47 26.00 298.94 2542.36
   21:26:47.455.09-Sep-2020 5252.22  329.48 73.47 26.00 299.14 2542.36
   21:26:47.655.09-Sep-2020 5252.22  329.62 73.47 26.00 299.34 2542.36
   21:26:47.855.09-Sep-2020 5252.22  329.76 73.47 26.00 299.54 2542.36
   21:26:48.055.09-Sep-2020 5252.22  329.76 73.47 26.00 299.74 2542.36
   21:26:48.255.09-Sep-2020 5252.22  329.95 73.47 26.00 299.94 2542.36
   21:26:48.455.09-Sep-2020 5252.22  330.04 73.47 26.00 300.14 2542.36
   21:26:48.655.09-Sep-2020 5252.22  330.04 73.47 26.00 300.34 2542.36
   21:26:48.855.09-Sep-2020 5252.22  329.85 73.47 26.00 300.54 2542.36
   21:26:49.055.09-Sep-2020 5252.22  330.38 73.47 26.00 300.74 2542.36
   21:26:49.255.09-Sep-2020 5252.22  330.48 73.47 26.00 300.94 2542.36
   21:26:49.456.09-Sep-2020 5252.22  330.51 73.47 26.00 301.14 2542.36
   21:26:49.656.09-Sep-2020 5252.22  330.51 73.47 26.00 301.34 2542.36
   21:26:49.856.09-Sep-2020 5252.22  330.82 73.47 26.00 301.54 2542.36
   21:26:50.056.09-Sep-2020 5252.22  330.54 73.47 26.00 301.74 2542.36
   21:26:50.256.09-Sep-2020 5252.22  330.97 73.47 26.00 301.94 2542.36
   21:26:50.456.09-Sep-2020 5252.22  331.10 73.47 26.00 302.14 2542.36
   21:26:50.656.09-Sep-2020 5252.22  331.16 73.47 26.00 302.34 2542.36
   21:26:50.856.09-Sep-2020 5252.22  330.98 73.47 26.00 302.54 2542.36
   21:26:51.056.09-Sep-2020 5252.22  331.46 73.47 26.00 302.74 2542.36
   21:26:51.256.09-Sep-2020 5252.22  331.72 73.47 26.00 302.94 2542.36
   21:26:51.456.09-Sep-2020 5252.22  331.79 73.47 26.00 303.14 2542.36
   21:26:51.657.09-Sep-2020 5252.22  331.96 73.47 26.00 303.34 2542.36
   21:26:51.857.09-Sep-2020 5252.22  332.09 73.47 26.00 303.54 2542.36
   21:26:52.057.09-Sep-2020 5252.22  331.57 73.47 26.00 303.74 2542.36
   21:26:52.257.09-Sep-2020 5252.22  332.51 73.47 26.00 303.94 2542.36
   21:26:52.457.09-Sep-2020 5252.22  332.44 73.47 26.00 304.14 2542.36
   21:26:52.657.09-Sep-2020 5252.22  332.44 73.47 26.00 304.34 2542.36
   21:26:52.857.09-Sep-2020 5252.22  332.65 73.47 26.00 304.54 2542.36
   21:26:53.057.09-Sep-2020 5252.22  332.91 73.47 26.00 304.74 2542.36
   21:26:53.257.09-Sep-2020 5252.22  332.96 73.47 26.00 304.94 2542.36
   21:26:53.457.09-Sep-2020 5252.22  333.05 73.47 26.00 305.14 2542.36
   21:26:53.657.09-Sep-2020 5252.22  333.05 73.47 26.00 305.34 2542.36
   21:26:53.858.09-Sep-2020 5252.22  333.27 73.47 26.00 305.54 2542.36
   21:26:54.058.09-Sep-2020 5252.22  333.41 73.47 26.00 305.74 2542.36
   21:26:54.258.09-Sep-2020 5252.22  333.45 73.47 26.00 305.94 2542.36
   21:26:54.458.09-Sep-2020 5252.22  333.60 73.47 26.00 306.14 2542.36
   21:26:54.658.09-Sep-2020 5252.22  333.73 73.47 26.00 306.34 2542.36
   21:26:54.858.09-Sep-2020 5252.22  333.80 73.47 26.00 306.54 2542.36
   21:26:55.058.09-Sep-2020 5252.22  333.87 73.47 26.00 306.74 2542.36
   21:26:55.258.09-Sep-2020 5252.22  333.99 73.47 26.00 306.94 2542.36
   21:26:55.458.09-Sep-2020 5252.22  334.04 73.47 26.00 307.14 2542.36
   21:26:55.658.09-Sep-2020 5252.22  334.12 73.47 26.00 307.34 2542.36
   21:26:55.858.09-Sep-2020 5252.22  334.21 73.47 26.00 307.54 2542.36
   21:26:56.059.09-Sep-2020 5252.22  334.31 73.47 26.00 307.74 2542.36
   21:26:56.259.09-Sep-2020 5252.22  334.40 73.47 26.00 307.94 2542.36
   21:26:56.459.09-Sep-2020 5252.22  334.51 73.47 26.00 308.14 2542.36
   21:26:56.659.09-Sep-2020 5252.22  334.61 73.47 26.00 308.34 2542.36
   21:26:56.859.09-Sep-2020 5252.22  334.71 73.47 26.00 308.54 2542.36
   21:26:57.059.09-Sep-2020 5252.22  334.81 73.47 26.00 308.74 2542.36
   21:26:57.259.09-Sep-2020 5252.22  334.42 73.47 26.00 308.94 2542.36
   21:26:57.459.09-Sep-2020 5252.22  334.84 73.47 26.00 309.14 2542.36
   21:26:57.659.09-Sep-2020 5252.22  334.84 73.47 26.00 309.34 2542.36
   21:26:57.859.09-Sep-2020 5252.22  334.99 73.47 26.00 309.54 2542.36
   21:26:58.060.09-Sep-2020 5252.22  335.12 73.47 26.00 309.74 2542.36
   21:26:58.260.09-Sep-2020 5252.22  335.28 73.47 26.00 309.94 2542.36
   21:26:58.460.09-Sep-2020 5252.22  335.33 73.47 26.00 310.14 2542.36
   21:26:58.660.09-Sep-2020 5252.22  335.38 73.47 26.00 310.34 2542.36
   21:26:58.860.09-Sep-2020 5252.22  335.45 73.47 26.00 310.54 2542.36
   21:26:59.060.09-Sep-2020 5252.22  335.52 73.47 26.00 310.74 2542.36
   21:26:59.260.09-Sep-2020 5252.22  335.63 73.47 26.00 310.94 2542.36
   21:26:59.460.09-Sep-2020 5252.22  335.74 73.47 26.00 311.14 2542.36
   21:26:59.660.09-Sep-2020 5252.22  335.84 73.47 26.00 311.34 2542.36
   21:26:59.860.09-Sep-2020 5252.22  335.94 73.47 26.00 311.54 2542.36
   21:27:00.060.09-Sep-2020 5252.22  336.00 73.47 26.00 311.74 2542.36
   21:27:00.261.09-Sep-2020 5252.22  336.11 73.47 26.00 311.94 2542.36
   21:27:00.461.09-Sep-2020 5252.22  335.55 73.47 26.00 312.14 2542.36
   21:27:00.661.09-Sep-2020 5252.22  336.49 73.47 26.00 312.34 2542.36
   21:27:00.861.09-Sep-2020 5252.22  336.36 73.47 26.00 312.54 2542.36
   21:27:01.061.09-Sep-2020 5252.22  336.45 73.47 26.00 312.74 2542.36
   21:27:01.261.09-Sep-2020 5252.22  336.49 73.47 26.00 312.94 2542.36
   21:27:01.461.09-Sep-2020 5252.22  336.74 73.47 26.00 313.14 2542.36
   21:27:01.661.09-Sep-2020 5252.22  336.30 73.47 26.00 313.34 2542.36
   21:27:01.861.09-Sep-2020 5252.22  336.87 73.47 26.00 313.54 2542.36
   21:27:02.061.09-Sep-2020 5252.22  336.92 73.47 26.00 313.74 2542.36
   21:27:02.261.09-Sep-2020 5252.22  336.94 73.47 26.00 313.94 2542.36
   21:27:02.462.09-Sep-2020 5252.22  337.08 73.47 26.00 314.14 2542.36
   21:27:02.662.09-Sep-2020 5252.22  336.83 73.47 26.00 314.34 2542.36
   21:27:02.862.09-Sep-2020 5252.22  337.29 73.47 26.00 314.54 2542.36
   21:27:03.062.09-Sep-2020 5252.22  337.40 73.47 26.00 314.75 2542.36
   21:27:03.262.09-Sep-2020 5252.22  337.49 73.47 26.00 314.95 2542.36
   21:27:03.462.09-Sep-2020 5252.22  336.42 73.47 26.00 315.15 2542.36
   21:27:03.662.09-Sep-2020 5252.22  328.50 73.47 26.00 315.35 2542.36
   21:27:03.862.09-Sep-2020 5252.22  322.39 73.47 26.00 315.55 2542.36
   21:27:04.062.09-Sep-2020 5252.22  309.92 73.47 26.00 315.75 2542.36
   21:27:04.262.09-Sep-2020 5252.22  303.70 73.47 26.00 315.95 2542.36
   21:27:04.462.09-Sep-2020 5252.22  282.89 73.47 26.00 316.15 2542.36
   21:27:04.663.09-Sep-2020 5252.22  282.89 73.47 26.00 316.35 2542.36
