~Version Information
 VERS.                  2.0:   CWLS log ASCII Standard -VERSION 2.0
 WRAP.                   NO:   One line per depth step
~Well Information Block
#MNEM.UNIT     VALUE/NAME     DESCRIPTION
#---------     -----------    ---------------------------
 STRT.S             19:35:07 09-Sep-20: START TIME 19:35:07 09-Sep-20
 STOP.S             19:43:27 09-Sep-20: STOP TIME  19:43:27 09-Sep-20
 STEP.S                   0.00: STEP TIME
 NULL.                 -999.25: NULL VALUE
 MDS .        Operator Entered:  MAG DATA SOURCE
 PDAT.          Mean Sea Level:  PERMANENT DATUM
 DCON.         Sperry Drilling:  DIRECTNL CONTR
 RIG .              West Azeri:  RIG NAME
 WELL.           C40 (Slot 20):  WELL NAME
 SRVC.     Turan Drilling Engineering:  CONTRACTOR
 FLD .                     ACG:  FIELD NAME
 CTRY.              Azerbaijan:  COUNTRY NAME
 PROV.                    Baku:  PROVINCE
 STAT.                    Baku:  STATE NAME
 REGN.                   EESSA:  REGION
 BASE.              Azerbaijan:  LOGGING EQUIPMENT BASE LOCATION
 COMP.     BP Exploration (Caspian Sea) Ltd:  COMPANY
 WTYP.                Deviated:  WELL TYPE
 SON .        AZ-XX-0906344804:  JOB NUMBER
 FTOP.          Formation Tops:  FORM TOPS DESC
 ILTD.               Lithology:  INTERP LTH DESC
 SVYD.                  Survey:  SURVEY DESC
 DMOD.             Drill Model:  DRILL MOD DESC
 HPTY.       Minimum Curvature:  HOLE POS TYPE
 NREF.                    Grid:  NORTH REFERENCE
 SPUD.               01-Jan-20:  SPUD DATE
 DATE.      00.59.44 15-Sep-20:  END TIME
 STIM.      12.00.00 12-Jun-20:  START TIME
 DMF .             Drill Floor:  DRILL MEAS FROM
 DFST.                        :  DIST FSL TEXT
 DFWT.                        :  DIST FWL TEXT
 API .                        :  API NUMBER
 CNTY.                        :  COUNTY
 UWI .                        :  UNIQUE WELL IDENTIFIER
 LOC .                        :  LOCATION
 LMF .             Drill Floor:  LOG MEASURED FROM
 VSNS.m                   2.88:  VERT SEC N/S
 VSEW.m                  -3.84:  VERT SEC E/W
 AGAP.m                  43.42:  AIR GAP
 APD .m                  43.42:  DEPTH ABOVE PD
 WDMS.m                 118.27:  WD ELEV
 EGL .m                   0.00:  GROUND ELEVATION
 EPD .m                   0.00:  ELEVATION
 AZTC.deg                 6.23:  AZM TOTAL CORR
 GRDC.deg                 0.20:  GRID CORRECTION
 MDEC.deg                 6.43:  MAGNETIC DECL
 MDIP.deg                59.49:  MAGNETIC DIP
 MFLD.nT              50277.00:  MAGNETIC FIELD
 GVFD.g                   1.00:  GRAVITY FIELD
 VSDR.deg               173.20:  VERT SEC DIRECT
 TDD .m                5790.01:  TOTAL DEPTH (DRILLER)
 SDEP.m                5231.01:  START DEPTH
 DFSL.m                   0.00:  DISTANCE FSL
 DFWL.m                   0.00:  DISTANCE FWL
 UTMY.m             4435808.83:  UTM Y
 UTMX.m              526266.40:  UTM X
 WHEW.m                  -3.84:  WELL HEAD E/W
 WHNS.m                   2.88:  WELL HEAD N/S
 LONG.deg                51.31:  LONGITUDE
 LATI.deg                40.06:  LATITUDE
 TVDS.m                  43.42:  TVDSS CORRECTN
 DEP .m                 430.08:  DEPTH
 EKB .m                  43.42:  KB ELEVATION
 EDF .m                  43.42:  DF ELEVATION
 TDL .m                 559.00:  TOTAL DEPTH (LOGGER)
 MAGU.                 1849381:  MAGUTM CHECKSUM
 VSC .                       0:  VS TO CLOSURE
~Parameter Information Block
#MNEM.UNIT       Value        Description
#---------     -----------    ---------------------------
 AV  .mps                 4.87:  Ann Velocity 
 AVMX.mps                 7.08:  Max Ann Veloc 
 AZIF.deg               108.87:  Azm, Final 
 BHAT.                  Rotary:  BHA Type 
 BROT.°/30m               0.35:  Build Rotating 
 BS  .in                  8.50:  Bit Size 
 BSZ .in                  8.50:  Bit Size 
 BTPL.psig              360.00:  Bit Press Loss 
 CABU.                     Yes:  Customer Abuse 
 COMM.                     ¼«|:  Run Comments 1 
 TCS .hr                106.24:  Time Ciculation Ended 
 CV  .mps                 1.77:  Crit Velocity 
 CVMX.mps                 2.03:  Max Crit Veloc 
 DD1 .         Aykhan Agagulov:  Direct Drillr 1 
 DD2 .            Nonso Okofor:  Direct Drillr 2 
 DDSV.               Geo-Pilot:  DD Service 
 DEFF.%                  98.00:  % Det Eff 
 DLRX.°/30m               0.50:  Dogleg Rot Max 
 DLSO.°/30m               0.40:  Dogleg Oriented 
 DLSX.°/30m               0.94:  Dogleg Str Max 
 DRET.      20.30.00 08-Sep-20:  Drill End Time 
 DRST.      22.15.00 06-Sep-20:  Drill Start Tim 
 DTIM.hr                 31.31:  Time Drilling 
 EDEP.m                5790.01:  End Depth 
 ENG1.           Amrah Tahirov:  Engineer 1 
 ENG2.         Dair Mahammadov:  Engineer 2 
 ENG3.           Emil Huseynov:  Engineer 3 
 ETIM.      04.01.04 12-Sep-20:  End Time 
 FLOI.gpm               450.00:  Flow In 
 FLON.gpm               450.00:  Flow In Min 
 FLOS.cptm                2.00:  Fluid Loss 
 FLOX.gpm               450.00:  Flow In Max 
 FTRO.       Formation Presure:  FTWD Run Obj 
 HFLO.                      No:  High Flow 
 HPRE.                      No:  High Pressure 
 HTEM.                      No:  High Temp 
 HYDO.m                   1.80:  Hydro Offset 
 IFIN.deg                72.03:  Inc, Final 
 IMAX.deg                73.72:  Inc Max 
 IMIN.deg                70.94:  Inc Min 
 IMND.m                5508.52:  Inc Min Depth 
 IMXD.m                5253.60:  Inc Max Depth 
 JARR.                      No:  Jarring 
 LETM.      20.30.00 08-Sep-20:  Log End Time 
 LOST.hr                     0:  Lost Rig Time 
 LSTM.      22.15.00 06-Sep-20:  Log Start Time 
 MDCL.ppm             36000.00:  Mud Chlorides 
 MDES.     Inversion Oil/Synthetic:  Mud Desc 
 DFD .sg                  1.44:  Mud Density 
 MDMN.sg                  1.44:  Dens Mud Min 
 MDMX.sg                  1.57:  Dens Mud Max 
 MOIL.                      70:  Run Mud Oil % 
 MOWR.                   70:30:  Run Mud OWR 
 MSND.                       0:  Run Mud Sand % 
 MSOL.                      21:  Run Mud Solids% 
 DFV .spqt               68.00:  Mud Viscosity 
 MWOD.in                  6.75:  MWD Tool OD 
 MWSI.                     Yes:  Serv Intrp, MWD 
 OTIM.hr                174.84:  Time Operating 
 PCON.           Look Like New:  Pad Condition 
 PMAX.psia            10616.93:  Press Op, Max 
 PV  .cP                 50.00:  Mud PV 
 RUN .                     700:  Run Number 
 ROPA.m/hr               14.24:  ROP Avg 
 ROPN.m/hr               10.00:  ROP Min 
 ROPX.m/hr               32.00:  ROP Max 
 RPMA.rpm               120.90:  RPM Surface Avg 
 RPMN.rpm               120.00:  RPM Surface Min 
 RPMX.rpm               140.00:  RPM Surface Max 
 RRUN.                    0700:  Rig Run Number 
 RTIM.hr                  3.20:  Time Reaming 
 SAZI.deg               109.99:  Azm, Start 
 SDEP.m                5231.01:  Start Depth 
 SIDD.                      No:  Serv Intrp, DD 
 SINC.deg                73.72:  Inc, Start 
 SPPA.psig             3051.00:  SPP Avg 
 SPPN.psig             2950.00:  SPP Min 
 SPPX.psig             3250.00:  SPP Max 
 STIM.      08.00.00 05-Sep-20:  Start Time 
 SVCS.                 DD, MWD:  Services 
 SVER.                    9.20:  Sperry Version 
 TDAT.m                 559.00:  Tot Depth Attmp 
 TDDF.                      No:  Trip for DD 
 TDLG.m                 559.00:  Tot Depth Loggd 
 TFF .                      No:  Trip for Fail 
 TQAA.f-kp               26.49:  Torque Abs Avg 
 TQAN.f-kp               25.00:  Torque Abs Min 
 TQAX.f-kp               27.00:  Torque Abs Max 
 TRRT.°/30m               1.50:  Turn Rotating 
 MRT .                    HCIM:  Maximum Recorded Temperature 
 TTMX.degC               90.20:  Max Tool Temp 
 VS01.                90542671:  Virtual Str1 SN 
 VS02.                90545185:  Virtual Str2 SN 
 VS03.                90602015:  Virtual Str3 SN 
 VS04.                90515230:  Virtual Str4 SN 
 WBMN.klb                 5.00:  WOB Min 
 WOBA.klb                14.79:  WOB Avg 
 WOBX.klb                20.00:  WOB Max 
 YP  .lhf2               29.00:  Yield Point 
~Curve Information Block
#MNEM.UNIT                 API CODE     Curve Description
#---------               -----------    ---------------------------
 TIME.HHMMSS            00 000 000 000:  GT Time & Date
 GTDEPTH.m              00 000 000 000:  GT Depth
 GTPQH.psia             00 000 000 000:  GT HR Quartz Pressure
 GTTQ.degC              00 000 000 000:  GT Quartz Temperature
 GTTN.NONE              00 000 000 000:  GT Test Number
 GTET.sec               00 000 000 000:  GT Elapsed Test Time
 GTTVD.m                00 000 000 000:  GT True Vertical Depth
#Other Information
#
#WARRANTY: Halliburton will use its best efforts to furnish customers with 
#accurate information and interpretations that are part of, and incident to, the services 
#provided.  However, Halliburton cannot and does not warrant the accuracy 
#or correctness of such information and interpretations.  Under no circumstances should any 
#such information or interpretation be relied upon as the sole basis for any drilling, 
#completion, production, or financial decision or any procedure involving any risk to the 
#safety of any drilling venture, drilling rig or its crew or any other third party.  The 
#Customer has full responsibility for all drilling, completion and production operation.  
#Halliburton makes no representations or warranties, either expressed or 
#implied, including, but not limited to, the implied warranties of merchantability or fitness 
#for a particular purpose, with respect to the services rendered.  In no event will 
#Halliburton be liable for failure to obtain any particular results or for 
#any damages, including, but not limited to, indirect, special or consequential damages, 
#resulting from the use of any information or interpretation provided by Halliburton.
#
~A           TIME           GTDEPTH  GTPQH  GTTQ  GTTN   GTET   GTTVD  
# ...
   19:42:39.575.09-Sep-2020 5260.01 6290.16 74.29 23.00 452.21 2544.55
   19:42:39.775.09-Sep-2020 5260.01 6290.16 74.29 23.00 452.41 2544.55
   19:42:39.975.09-Sep-2020 5260.01 6290.46 74.29 23.00 452.61 2544.55
   19:42:40.175.09-Sep-2020 5260.01 6289.86 74.29 23.00 452.81 2544.55
   19:42:40.375.09-Sep-2020 5260.01 6288.77 74.29 23.00 453.01 2544.55
   19:42:40.575.09-Sep-2020 5260.01 6288.72 74.29 23.00 453.21 2544.55
   19:42:40.776.09-Sep-2020 5260.01 6288.72 74.29 23.00 453.41 2544.55
   19:42:40.976.09-Sep-2020 5260.01 6291.40 74.29 23.00 453.61 2544.55
   19:42:41.176.09-Sep-2020 5260.01 6289.26 74.29 23.00 453.81 2544.55
   19:42:41.376.09-Sep-2020 5260.01 6289.45 74.29 23.00 454.01 2544.55
   19:42:41.576.09-Sep-2020 5260.01 6289.04 74.29 23.00 454.21 2544.55
   19:42:41.776.09-Sep-2020 5260.01 6289.23 74.29 23.00 454.41 2544.55
   19:42:41.976.09-Sep-2020 5260.01 6298.12 74.29 23.00 454.61 2544.55
   19:42:42.176.09-Sep-2020 5260.01 6296.65 74.29 23.00 454.81 2544.55
   19:42:42.376.09-Sep-2020 5260.01 6288.71 74.29 23.00 455.01 2544.55
   19:42:42.576.09-Sep-2020 5260.01 6288.55 74.29 23.00 455.21 2544.55
   19:42:42.776.09-Sep-2020 5260.01 6288.55 74.29 23.00 455.41 2544.55
   19:42:42.977.09-Sep-2020 5260.01 6288.97 74.29 23.00 455.61 2544.55
   19:42:43.177.09-Sep-2020 5260.01 6288.69 74.29 23.00 455.81 2544.55
   19:42:43.377.09-Sep-2020 5260.01 6299.86 74.29 23.00 456.01 2544.55
   19:42:43.577.09-Sep-2020 5260.01 6283.76 74.29 23.00 456.21 2544.55
   19:42:43.777.09-Sep-2020 5260.01 6283.76 74.29 23.00 456.41 2544.55
   19:42:43.977.09-Sep-2020 5260.01 6288.69 74.29 23.00 456.61 2544.55
   19:42:44.177.09-Sep-2020 5260.01 6288.77 74.29 23.00 456.81 2544.55
   19:42:44.377.09-Sep-2020 5260.01 6289.26 74.29 23.00 457.01 2544.55
   19:42:44.577.09-Sep-2020 5260.01 6291.66 74.29 23.00 457.21 2544.55
   19:42:44.777.09-Sep-2020 5260.01 6288.82 74.29 23.00 457.41 2544.55
   19:42:44.977.09-Sep-2020 5260.01 6288.87 74.29 23.00 457.61 2544.55
   19:42:45.178.09-Sep-2020 5260.01 6288.35 74.29 23.00 457.81 2544.55
   19:42:45.378.09-Sep-2020 5260.01 6287.95 74.29 23.00 458.01 2544.55
   19:42:45.578.09-Sep-2020 5260.01 6288.14 74.29 23.00 458.21 2544.55
   19:42:45.778.09-Sep-2020 5260.01 6287.93 74.29 23.00 458.41 2544.55
   19:42:45.978.09-Sep-2020 5260.01 6288.38 74.29 23.00 458.61 2544.55
   19:42:46.178.09-Sep-2020 5260.01 6288.37 74.29 23.00 458.81 2544.55
   19:42:46.378.09-Sep-2020 5260.01 6288.03 74.29 23.00 459.01 2544.55
   19:42:46.578.09-Sep-2020 5260.01 6287.84 74.29 23.00 459.21 2544.55
   19:42:46.778.09-Sep-2020 5260.01 6287.84 74.29 23.00 459.41 2544.55
   19:42:46.978.09-Sep-2020 5260.01 6283.12 74.29 23.00 459.61 2544.55
   19:42:47.178.09-Sep-2020 5260.01 6289.49 74.29 23.00 459.81 2544.55
   19:42:47.379.09-Sep-2020 5260.01 6288.70 74.29 23.00 460.01 2544.55
   19:42:47.579.09-Sep-2020 5260.01 6288.28 74.29 23.00 460.21 2544.55
   19:42:47.779.09-Sep-2020 5260.01 6288.28 74.29 23.00 460.41 2544.55
   19:42:47.979.09-Sep-2020 5260.01 6300.46 74.29 23.00 460.61 2544.55
   19:42:48.179.09-Sep-2020 5260.01 6285.58 74.29 23.00 460.81 2544.55
   19:42:48.379.09-Sep-2020 5260.01 6290.44 74.29 23.00 461.01 2544.55
   19:42:48.579.09-Sep-2020 5260.01 6288.16 74.29 23.00 461.21 2544.55
   19:42:48.779.09-Sep-2020 5260.01 6288.16 74.29 23.00 461.41 2544.55
   19:42:48.979.09-Sep-2020 5260.01 6288.75 74.29 23.00 461.61 2544.55
   19:42:49.179.09-Sep-2020 5260.01 6300.44 74.29 23.00 461.81 2544.55
   19:42:49.379.09-Sep-2020 5260.01 6286.69 74.29 23.00 462.01 2544.55
   19:42:49.580.09-Sep-2020 5260.01 6289.51 74.29 23.00 462.21 2544.55
   19:42:49.780.09-Sep-2020 5260.01 6288.67 74.29 23.00 462.41 2544.55
   19:42:49.980.09-Sep-2020 5260.01 6291.04 74.29 23.00 462.61 2544.55
   19:42:50.180.09-Sep-2020 5260.01 6294.84 74.29 23.00 462.81 2544.55
   19:42:50.380.09-Sep-2020 5260.01 6289.99 74.29 23.00 463.01 2544.55
   19:42:50.580.09-Sep-2020 5260.01 6291.29 74.29 23.00 463.21 2544.55
   19:42:50.780.09-Sep-2020 5260.01 6291.29 74.29 23.00 463.41 2544.55
   19:42:50.980.09-Sep-2020 5260.01 6299.25 74.29 23.00 463.61 2544.55
   19:42:51.180.09-Sep-2020 5260.01 6286.42 74.29 23.00 463.81 2544.55
   19:42:51.380.09-Sep-2020 5260.01 6293.58 74.29 23.00 464.01 2544.55
   19:42:51.581.09-Sep-2020 5260.01 6289.51 74.29 23.00 464.21 2544.55
   19:42:51.781.09-Sep-2020 5260.01 6289.51 74.29 23.00 464.41 2544.55
   19:42:51.981.09-Sep-2020 5260.01 6289.29 74.29 23.00 464.61 2544.55
   19:42:52.181.09-Sep-2020 5260.01 6293.82 74.29 23.00 464.81 2544.55
   19:42:52.381.09-Sep-2020 5260.01 6289.76 74.29 23.00 465.01 2544.55
   19:42:52.581.09-Sep-2020 5260.01 6290.59 74.29 23.00 465.21 2544.55
   19:42:52.781.09-Sep-2020 5260.01 6290.59 74.29 23.00 465.41 2544.55
   19:42:52.981.09-Sep-2020 5260.01 6290.55 74.29 23.00 465.61 2544.55
   19:42:53.181.09-Sep-2020 5260.01 6289.78 74.29 23.00 465.81 2544.55
   19:42:53.381.09-Sep-2020 5260.01 6289.35 74.29 23.00 466.01 2544.55
   19:42:53.581.09-Sep-2020 5260.01 6288.93 74.29 23.00 466.21 2544.55
   19:42:53.782.09-Sep-2020 5260.01 6288.93 74.29 23.00 466.41 2544.55
   19:42:53.982.09-Sep-2020 5260.01 6288.73 74.29 23.00 466.62 2544.55
   19:42:54.182.09-Sep-2020 5260.01 6288.78 74.29 23.00 466.82 2544.55
   19:42:54.382.09-Sep-2020 5260.01 6288.46 74.29 23.00 467.02 2544.55
   19:42:54.582.09-Sep-2020 5260.01 6296.44 74.29 23.00 467.22 2544.55
   19:42:54.782.09-Sep-2020 5260.01 6296.44 74.29 23.00 467.42 2544.55
   19:42:54.982.09-Sep-2020 5260.01 6288.94 74.29 23.00 467.62 2544.55
   19:42:55.182.09-Sep-2020 5260.01 6289.48 74.29 23.00 467.82 2544.55
   19:42:55.382.09-Sep-2020 5260.01 6288.50 74.29 23.00 468.02 2544.55
   19:42:55.582.09-Sep-2020 5260.01 6289.44 74.29 23.00 468.22 2544.55
   19:42:55.782.09-Sep-2020 5260.01 6289.44 74.29 23.00 468.42 2544.55
   19:42:55.983.09-Sep-2020 5260.01 6289.23 74.29 23.00 468.62 2544.55
   19:42:56.183.09-Sep-2020 5260.01 6288.69 74.29 23.00 468.82 2544.55
   19:42:56.383.09-Sep-2020 5260.01 6288.82 74.29 23.00 469.02 2544.55
   19:42:56.583.09-Sep-2020 5260.01 6288.44 74.29 23.00 469.22 2544.55
   19:42:56.783.09-Sep-2020 5260.01 6288.44 74.29 23.00 469.42 2544.55
   19:42:56.983.09-Sep-2020 5260.01 6287.62 74.29 23.00 469.62 2544.55
   19:42:57.183.09-Sep-2020 5260.01 6287.58 74.29 23.00 469.82 2544.55
   19:42:57.383.09-Sep-2020 5260.01 6288.03 74.29 23.00 470.02 2544.55
   19:42:57.583.09-Sep-2020 5260.01 6288.38 74.29 23.00 470.22 2544.55
   19:42:57.783.09-Sep-2020 5260.01 6287.91 74.29 23.00 470.42 2544.55
   19:42:57.983.09-Sep-2020 5260.01 6295.51 74.29 23.00 470.62 2544.55
   19:42:58.184.09-Sep-2020 5260.01 6285.72 74.29 23.00 470.82 2544.55
   19:42:58.384.09-Sep-2020 5260.01 6288.18 74.29 23.00 471.02 2544.55
   19:42:58.584.09-Sep-2020 5260.01 6288.87 74.29 23.00 471.22 2544.55
   19:42:58.784.09-Sep-2020 5260.01 6288.87 74.29 23.00 471.42 2544.55
   19:42:58.984.09-Sep-2020 5260.01 6288.86 74.29 23.00 471.62 2544.55
   19:42:59.184.09-Sep-2020 5260.01 6300.38 74.29 23.00 471.82 2544.55
   19:42:59.384.09-Sep-2020 5260.01 6283.27 74.29 23.00 472.02 2544.55
   19:42:59.584.09-Sep-2020 5260.01 6289.24 74.29 23.00 472.22 2544.55
   19:42:59.784.09-Sep-2020 5260.01 6289.24 74.29 23.00 472.42 2544.55
   19:42:59.984.09-Sep-2020 5260.01 6288.20 74.29 23.00 472.62 2544.55
   19:43:00.184.09-Sep-2020 5260.01 6288.76 74.29 23.00 472.82 2544.55
   19:43:00.385.09-Sep-2020 5260.01 6302.09 74.29 23.00 473.02 2544.55
   19:43:00.585.09-Sep-2020 5260.01 6283.05 74.29 23.00 473.22 2544.55
   19:43:00.785.09-Sep-2020 5260.01 6283.05 74.29 23.00 473.42 2544.55
   19:43:00.985.09-Sep-2020 5260.01 6287.78 74.29 23.00 473.62 2544.55
   19:43:01.185.09-Sep-2020 5260.01 6288.36 74.29 23.00 473.82 2544.55
   19:43:01.385.09-Sep-2020 5260.01 6296.84 74.29 23.00 474.02 2544.55
   19:43:01.585.09-Sep-2020 5260.01 6289.85 74.29 23.00 474.22 2544.55
   19:43:01.785.09-Sep-2020 5260.01 6288.96 74.29 23.00 474.42 2544.55
   19:43:01.985.09-Sep-2020 5260.01 6289.23 74.29 23.00 474.62 2544.55
