~Version Information
 VERS.                  2.0:   CWLS log ASCII Standard -VERSION 2.0
 WRAP.                   NO:   One line per depth step
~Well Information Block
#MNEM.UNIT     VALUE/NAME     DESCRIPTION
#---------     -----------    ---------------------------
 STRT.S             10:16:33 09-Sep-20: START TIME 10:16:33 09-Sep-20
 STOP.S             10:23:34 09-Sep-20: STOP TIME  10:23:34 09-Sep-20
 STEP.S                   0.00: STEP TIME
 NULL.                 -999.25: NULL VALUE
 MDS .        Operator Entered:  MAG DATA SOURCE
 PDAT.          Mean Sea Level:  PERMANENT DATUM
 DCON.         Sperry Drilling:  DIRECTNL CONTR
 RIG .              West Azeri:  RIG NAME
 WELL.           C40 (Slot 20):  WELL NAME
 SRVC.     Turan Drilling Engineering:  CONTRACTOR
 FLD .                     ACG:  FIELD NAME
 CTRY.              Azerbaijan:  COUNTRY NAME
 PROV.                    Baku:  PROVINCE
 STAT.                    Baku:  STATE NAME
 REGN.                   EESSA:  REGION
 BASE.              Azerbaijan:  LOGGING EQUIPMENT BASE LOCATION
 COMP.     BP Exploration (Caspian Sea) Ltd:  COMPANY
 WTYP.                Deviated:  WELL TYPE
 SON .        AZ-XX-0906344804:  JOB NUMBER
 FTOP.          Formation Tops:  FORM TOPS DESC
 ILTD.               Lithology:  INTERP LTH DESC
 SVYD.                  Survey:  SURVEY DESC
 DMOD.             Drill Model:  DRILL MOD DESC
 HPTY.       Minimum Curvature:  HOLE POS TYPE
 NREF.                    Grid:  NORTH REFERENCE
 SPUD.               01-Jan-20:  SPUD DATE
 DATE.      00.59.44 15-Sep-20:  END TIME
 STIM.      12.00.00 12-Jun-20:  START TIME
 DMF .             Drill Floor:  DRILL MEAS FROM
 DFST.                        :  DIST FSL TEXT
 DFWT.                        :  DIST FWL TEXT
 API .                        :  API NUMBER
 CNTY.                        :  COUNTY
 UWI .                        :  UNIQUE WELL IDENTIFIER
 LOC .                        :  LOCATION
 LMF .             Drill Floor:  LOG MEASURED FROM
 VSNS.m                   2.88:  VERT SEC N/S
 VSEW.m                  -3.84:  VERT SEC E/W
 AGAP.m                  43.42:  AIR GAP
 APD .m                  43.42:  DEPTH ABOVE PD
 WDMS.m                 118.27:  WD ELEV
 EGL .m                   0.00:  GROUND ELEVATION
 EPD .m                   0.00:  ELEVATION
 AZTC.deg                 6.23:  AZM TOTAL CORR
 GRDC.deg                 0.20:  GRID CORRECTION
 MDEC.deg                 6.43:  MAGNETIC DECL
 MDIP.deg                59.49:  MAGNETIC DIP
 MFLD.nT              50277.00:  MAGNETIC FIELD
 GVFD.g                   1.00:  GRAVITY FIELD
 VSDR.deg               173.20:  VERT SEC DIRECT
 TDD .m                5790.01:  TOTAL DEPTH (DRILLER)
 SDEP.m                5231.01:  START DEPTH
 DFSL.m                   0.00:  DISTANCE FSL
 DFWL.m                   0.00:  DISTANCE FWL
 UTMY.m             4435808.83:  UTM Y
 UTMX.m              526266.40:  UTM X
 WHEW.m                  -3.84:  WELL HEAD E/W
 WHNS.m                   2.88:  WELL HEAD N/S
 LONG.deg                51.31:  LONGITUDE
 LATI.deg                40.06:  LATITUDE
 TVDS.m                  43.42:  TVDSS CORRECTN
 DEP .m                 430.08:  DEPTH
 EKB .m                  43.42:  KB ELEVATION
 EDF .m                  43.42:  DF ELEVATION
 TDL .m                 559.00:  TOTAL DEPTH (LOGGER)
 MAGU.                 1849381:  MAGUTM CHECKSUM
 VSC .                       0:  VS TO CLOSURE
~Parameter Information Block
#MNEM.UNIT       Value        Description
#---------     -----------    ---------------------------
 AV  .mps                 4.87:  Ann Velocity 
 AVMX.mps                 7.08:  Max Ann Veloc 
 AZIF.deg               108.87:  Azm, Final 
 BHAT.                  Rotary:  BHA Type 
 BROT.°/30m               0.35:  Build Rotating 
 BS  .in                  8.50:  Bit Size 
 BSZ .in                  8.50:  Bit Size 
 BTPL.psig              360.00:  Bit Press Loss 
 CABU.                     Yes:  Customer Abuse 
 COMM.                     \Gp:  Run Comments 1 
 TCS .hr                106.24:  Time Ciculation Ended 
 CV  .mps                 1.77:  Crit Velocity 
 CVMX.mps                 2.03:  Max Crit Veloc 
 DD1 .         Aykhan Agagulov:  Direct Drillr 1 
 DD2 .            Nonso Okofor:  Direct Drillr 2 
 DDSV.               Geo-Pilot:  DD Service 
 DEFF.%                  98.00:  % Det Eff 
 DLRX.°/30m               0.50:  Dogleg Rot Max 
 DLSO.°/30m               0.40:  Dogleg Oriented 
 DLSX.°/30m               0.94:  Dogleg Str Max 
 DRET.      20.30.00 08-Sep-20:  Drill End Time 
 DRST.      22.15.00 06-Sep-20:  Drill Start Tim 
 DTIM.hr                 31.31:  Time Drilling 
 EDEP.m                5790.01:  End Depth 
 ENG1.           Amrah Tahirov:  Engineer 1 
 ENG2.         Dair Mahammadov:  Engineer 2 
 ENG3.           Emil Huseynov:  Engineer 3 
 ETIM.      04.01.04 12-Sep-20:  End Time 
 FLOI.gpm               450.00:  Flow In 
 FLON.gpm               450.00:  Flow In Min 
 FLOS.cptm                2.00:  Fluid Loss 
 FLOX.gpm               450.00:  Flow In Max 
 FTRO.       Formation Presure:  FTWD Run Obj 
 HFLO.                      No:  High Flow 
 HPRE.                      No:  High Pressure 
 HTEM.                      No:  High Temp 
 HYDO.m                   1.80:  Hydro Offset 
 IFIN.deg                72.03:  Inc, Final 
 IMAX.deg                73.72:  Inc Max 
 IMIN.deg                70.94:  Inc Min 
 IMND.m                5508.52:  Inc Min Depth 
 IMXD.m                5253.60:  Inc Max Depth 
 JARR.                      No:  Jarring 
 LETM.      20.30.00 08-Sep-20:  Log End Time 
 LOST.hr                     0:  Lost Rig Time 
 LSTM.      22.15.00 06-Sep-20:  Log Start Time 
 MDCL.ppm             36000.00:  Mud Chlorides 
 MDES.     Inversion Oil/Synthetic:  Mud Desc 
 DFD .sg                  1.44:  Mud Density 
 MDMN.sg                  1.44:  Dens Mud Min 
 MDMX.sg                  1.57:  Dens Mud Max 
 MOIL.                      70:  Run Mud Oil % 
 MOWR.                   70:30:  Run Mud OWR 
 MSND.                       0:  Run Mud Sand % 
 MSOL.                      21:  Run Mud Solids% 
 DFV .spqt               68.00:  Mud Viscosity 
 MWOD.in                  6.75:  MWD Tool OD 
 MWSI.                     Yes:  Serv Intrp, MWD 
 OTIM.hr                174.84:  Time Operating 
 PCON.           Look Like New:  Pad Condition 
 PMAX.psia            10616.93:  Press Op, Max 
 PV  .cP                 50.00:  Mud PV 
 RUN .                     700:  Run Number 
 ROPA.m/hr               14.24:  ROP Avg 
 ROPN.m/hr               10.00:  ROP Min 
 ROPX.m/hr               32.00:  ROP Max 
 RPMA.rpm               120.90:  RPM Surface Avg 
 RPMN.rpm               120.00:  RPM Surface Min 
 RPMX.rpm               140.00:  RPM Surface Max 
 RRUN.                    0700:  Rig Run Number 
 RTIM.hr                  3.20:  Time Reaming 
 SAZI.deg               109.99:  Azm, Start 
 SDEP.m                5231.01:  Start Depth 
 SIDD.                      No:  Serv Intrp, DD 
 SINC.deg                73.72:  Inc, Start 
 SPPA.psig             3051.00:  SPP Avg 
 SPPN.psig             2950.00:  SPP Min 
 SPPX.psig             3250.00:  SPP Max 
 STIM.      08.00.00 05-Sep-20:  Start Time 
 SVCS.                 DD, MWD:  Services 
 SVER.                    9.20:  Sperry Version 
 TDAT.m                 559.00:  Tot Depth Attmp 
 TDDF.                      No:  Trip for DD 
 TDLG.m                 559.00:  Tot Depth Loggd 
 TFF .                      No:  Trip for Fail 
 TQAA.f-kp               26.49:  Torque Abs Avg 
 TQAN.f-kp               25.00:  Torque Abs Min 
 TQAX.f-kp               27.00:  Torque Abs Max 
 TRRT.°/30m               1.50:  Turn Rotating 
 MRT .                    HCIM:  Maximum Recorded Temperature 
 TTMX.degC               90.20:  Max Tool Temp 
 VS01.                90542671:  Virtual Str1 SN 
 VS02.                90545185:  Virtual Str2 SN 
 VS03.                90602015:  Virtual Str3 SN 
 VS04.                90515230:  Virtual Str4 SN 
 WBMN.klb                 5.00:  WOB Min 
 WOBA.klb                14.79:  WOB Avg 
 WOBX.klb                20.00:  WOB Max 
 YP  .lhf2               29.00:  Yield Point 
~Curve Information Block
#MNEM.UNIT                 API CODE     Curve Description
#---------               -----------    ---------------------------
 TIME.HHMMSS            00 000 000 000:  GT Time & Date
 GTDEPTH.m              00 000 000 000:  GT Depth
 GTPQH.psia             00 000 000 000:  GT HR Quartz Pressure
 GTTQ.degC              00 000 000 000:  GT Quartz Temperature
 GTTN.NONE              00 000 000 000:  GT Test Number
 GTET.sec               00 000 000 000:  GT Elapsed Test Time
 GTTVD.m                00 000 000 000:  GT True Vertical Depth
#Other Information
#
#WARRANTY: Halliburton will use its best efforts to furnish customers with 
#accurate information and interpretations that are part of, and incident to, the services 
#provided.  However, Halliburton cannot and does not warrant the accuracy 
#or correctness of such information and interpretations.  Under no circumstances should any 
#such information or interpretation be relied upon as the sole basis for any drilling, 
#completion, production, or financial decision or any procedure involving any risk to the 
#safety of any drilling venture, drilling rig or its crew or any other third party.  The 
#Customer has full responsibility for all drilling, completion and production operation.  
#Halliburton makes no representations or warranties, either expressed or 
#implied, including, but not limited to, the implied warranties of merchantability or fitness 
#for a particular purpose, with respect to the services rendered.  In no event will 
#Halliburton be liable for failure to obtain any particular results or for 
#any damages, including, but not limited to, indirect, special or consequential damages, 
#resulting from the use of any information or interpretation provided by Halliburton.
#
~A           TIME           GTDEPTH  GTPQH  GTTQ  GTTN  GTET   GTTVD  
# ...
   10:23:04.000.09-Sep-2020 5468.01 6441.71 76.59 9.00 391.00 2608.52
   10:23:04.200.09-Sep-2020 5468.01 6441.71 76.59 9.00 391.20 2608.52
   10:23:04.400.09-Sep-2020 5468.01 6441.82 76.59 9.00 391.40 2608.52
   10:23:04.600.09-Sep-2020 5468.01 6442.89 76.59 9.00 391.60 2608.52
   10:23:04.800.09-Sep-2020 5468.01 6443.20 76.59 9.00 391.80 2608.52
   10:23:05.000.09-Sep-2020 5468.01 6441.58 76.59 9.00 392.00 2608.52
   10:23:05.200.09-Sep-2020 5468.01 6441.58 76.59 9.00 392.20 2608.52
   10:23:05.400.09-Sep-2020 5468.01 6441.59 76.59 9.00 392.40 2608.52
   10:23:05.600.09-Sep-2020 5468.01 6441.58 76.59 9.00 392.60 2608.52
   10:23:05.800.09-Sep-2020 5468.01 6441.89 76.59 9.00 392.80 2608.52
   10:23:06.000.09-Sep-2020 5468.01 6441.05 76.59 9.00 393.00 2608.52
   10:23:06.200.09-Sep-2020 5468.01 6440.53 76.59 9.00 393.20 2608.52
   10:23:06.400.09-Sep-2020 5468.01 6440.47 76.59 9.00 393.40 2608.52
   10:23:06.600.09-Sep-2020 5468.01 6440.47 76.59 9.00 393.60 2608.52
   10:23:06.800.09-Sep-2020 5468.01 6440.85 76.59 9.00 393.80 2608.52
   10:23:07.000.09-Sep-2020 5468.01 6453.95 76.59 9.00 394.00 2608.52
   10:23:07.200.09-Sep-2020 5468.01 6453.95 76.59 9.00 394.20 2608.52
   10:23:07.400.09-Sep-2020 5468.01 6440.25 76.59 9.00 394.40 2608.52
   10:23:07.600.09-Sep-2020 5468.01 6443.42 76.59 9.00 394.60 2608.52
   10:23:07.800.09-Sep-2020 5468.01 6441.22 76.59 9.00 394.80 2608.52
   10:23:08.000.09-Sep-2020 5468.01 6442.38 76.59 9.00 395.00 2608.52
   10:23:08.200.09-Sep-2020 5468.01 6442.38 76.59 9.00 395.20 2608.52
   10:23:08.400.09-Sep-2020 5468.01 6439.02 76.59 9.00 395.40 2608.52
   10:23:08.600.09-Sep-2020 5468.01 6440.99 76.59 9.00 395.60 2608.52
   10:23:08.800.09-Sep-2020 5468.01 6444.25 76.59 9.00 395.80 2608.52
   10:23:09.000.09-Sep-2020 5468.01 6440.19 76.59 9.00 396.00 2608.52
   10:23:09.200.09-Sep-2020 5468.01 6440.19 76.59 9.00 396.20 2608.52
   10:23:09.400.09-Sep-2020 5468.01 6438.20 76.59 9.00 396.40 2608.52
   10:23:09.600.09-Sep-2020 5468.01 6441.04 76.59 9.00 396.60 2608.52
   10:23:09.800.09-Sep-2020 5468.01 6443.75 76.59 9.00 396.80 2608.52
   10:23:10.000.09-Sep-2020 5468.01 6443.72 76.58 9.00 397.00 2608.52
   10:23:10.200.09-Sep-2020 5468.01 6450.24 76.58 9.00 397.20 2608.52
   10:23:10.400.09-Sep-2020 5468.01 6439.78 76.58 9.00 397.40 2608.52
   10:23:10.600.09-Sep-2020 5468.01 6442.35 76.58 9.00 397.60 2608.52
   10:23:10.800.09-Sep-2020 5468.01 6446.39 76.58 9.00 397.80 2608.52
   10:23:11.000.09-Sep-2020 5468.01 6441.92 76.58 9.00 398.00 2608.52
   10:23:11.200.09-Sep-2020 5468.01 6441.92 76.58 9.00 398.20 2608.52
   10:23:11.400.09-Sep-2020 5468.01 6436.97 76.58 9.00 398.40 2608.52
   10:23:11.600.09-Sep-2020 5468.01 6442.50 76.58 9.00 398.60 2608.52
   10:23:11.800.09-Sep-2020 5468.01 6446.74 76.58 9.00 398.80 2608.52
   10:23:12.000.09-Sep-2020 5468.01 6443.89 76.58 9.00 399.00 2608.52
   10:23:12.200.09-Sep-2020 5468.01 6443.89 76.58 9.00 399.20 2608.52
   10:23:12.400.09-Sep-2020 5468.01 6443.94 76.58 9.00 399.40 2608.52
   10:23:12.600.09-Sep-2020 5468.01 6443.95 76.58 9.00 399.60 2608.52
   10:23:12.800.09-Sep-2020 5468.01 6444.50 76.58 9.00 399.80 2608.52
   10:23:13.000.09-Sep-2020 5468.01 6443.52 76.58 9.00 400.00 2608.52
   10:23:13.200.09-Sep-2020 5468.01 6443.52 76.58 9.00 400.20 2608.52
   10:23:13.400.09-Sep-2020 5468.01 6444.07 76.58 9.00 400.40 2608.52
   10:23:13.600.09-Sep-2020 5468.01 6443.97 76.58 9.00 400.60 2608.52
   10:23:13.800.09-Sep-2020 5468.01 6443.76 76.58 9.00 400.80 2608.52
   10:23:14.000.09-Sep-2020 5468.01 6443.51 76.58 9.00 401.00 2608.52
   10:23:14.200.09-Sep-2020 5468.01 6443.43 76.58 9.00 401.20 2608.52
   10:23:14.400.09-Sep-2020 5468.01 6443.56 76.58 9.00 401.40 2608.52
   10:23:14.600.09-Sep-2020 5468.01 6443.57 76.58 9.00 401.60 2608.52
   10:23:14.800.09-Sep-2020 5468.01 6444.77 76.58 9.00 401.80 2608.52
   10:23:15.000.09-Sep-2020 5468.01 6448.16 76.58 9.00 402.00 2608.52
   10:23:15.200.09-Sep-2020 5468.01 6448.16 76.58 9.00 402.20 2608.52
   10:23:15.400.09-Sep-2020 5468.01 6443.58 76.58 9.00 402.40 2608.52
   10:23:15.600.09-Sep-2020 5468.01 6447.71 76.58 9.00 402.60 2608.52
   10:23:15.800.09-Sep-2020 5468.01 6443.59 76.58 9.00 402.80 2608.52
   10:23:16.000.09-Sep-2020 5468.01 6443.98 76.58 9.00 403.00 2608.52
   10:23:16.200.09-Sep-2020 5468.01 6443.98 76.58 9.00 403.20 2608.52
   10:23:16.400.09-Sep-2020 5468.01 6443.55 76.58 9.00 403.40 2608.52
   10:23:16.600.09-Sep-2020 5468.01 6444.06 76.58 9.00 403.60 2608.52
   10:23:16.800.09-Sep-2020 5468.01 6443.86 76.58 9.00 403.80 2608.52
   10:23:17.000.09-Sep-2020 5468.01 6443.66 76.58 9.00 404.00 2608.52
   10:23:17.200.09-Sep-2020 5468.01 6443.66 76.58 9.00 404.20 2608.52
   10:23:17.400.09-Sep-2020 5468.01 6442.69 76.58 9.00 404.40 2608.52
   10:23:17.600.09-Sep-2020 5468.01 6442.46 76.58 9.00 404.60 2608.52
   10:23:17.800.09-Sep-2020 5468.01 6442.42 76.58 9.00 404.80 2608.52
   10:23:18.000.09-Sep-2020 5468.01 6442.58 76.58 9.00 405.00 2608.52
   10:23:18.200.09-Sep-2020 5468.01 6442.74 76.58 9.00 405.20 2608.52
   10:23:18.400.09-Sep-2020 5468.01 6450.45 76.58 9.00 405.40 2608.52
   10:23:18.600.09-Sep-2020 5468.01 6440.47 76.58 9.00 405.60 2608.52
   10:23:18.800.09-Sep-2020 5468.01 6441.72 76.58 9.00 405.80 2608.52
   10:23:19.000.09-Sep-2020 5468.01 6445.89 76.58 9.00 406.00 2608.52
   10:23:19.200.09-Sep-2020 5468.01 6445.89 76.58 9.00 406.20 2608.52
   10:23:19.400.09-Sep-2020 5468.01 6444.07 76.58 9.00 406.40 2608.52
   10:23:19.600.09-Sep-2020 5468.01 6447.23 76.58 9.00 406.60 2608.52
   10:23:19.800.09-Sep-2020 5468.01 6442.41 76.57 9.00 406.80 2608.52
   10:23:20.000.09-Sep-2020 5468.01 6442.83 76.57 9.00 407.00 2608.52
   10:23:20.200.09-Sep-2020 5468.01 6442.83 76.57 9.00 407.20 2608.52
   10:23:20.400.09-Sep-2020 5468.01 6441.15 76.57 9.00 407.40 2608.52
   10:23:20.600.09-Sep-2020 5468.01 6455.04 76.57 9.00 407.60 2608.52
   10:23:20.800.09-Sep-2020 5468.01 6436.26 76.57 9.00 407.80 2608.52
   10:23:21.000.09-Sep-2020 5468.01 6441.64 76.57 9.00 408.00 2608.52
   10:23:21.200.09-Sep-2020 5468.01 6441.64 76.57 9.00 408.20 2608.52
   10:23:21.400.09-Sep-2020 5468.01 6455.96 76.57 9.00 408.40 2608.52
   10:23:21.600.09-Sep-2020 5468.01 6436.45 76.57 9.00 408.60 2608.52
   10:23:21.800.09-Sep-2020 5468.01 6442.46 76.57 9.00 408.80 2608.52
   10:23:22.000.09-Sep-2020 5468.01 6445.81 76.57 9.00 409.00 2608.52
   10:23:22.200.09-Sep-2020 5468.01 6452.52 76.57 9.00 409.20 2608.52
   10:23:22.400.09-Sep-2020 5468.01 6441.75 76.57 9.00 409.40 2608.52
   10:23:22.600.09-Sep-2020 5468.01 6443.66 76.57 9.00 409.60 2608.52
   10:23:22.800.09-Sep-2020 5468.01 6445.10 76.57 9.00 409.80 2608.52
   10:23:23.000.09-Sep-2020 5468.01 6446.80 76.57 9.00 410.00 2608.52
   10:23:23.200.09-Sep-2020 5468.01 6446.80 76.57 9.00 410.20 2608.52
   10:23:23.400.09-Sep-2020 5468.01 6443.65 76.57 9.00 410.40 2608.52
   10:23:23.600.09-Sep-2020 5468.01 6445.25 76.57 9.00 410.60 2608.52
   10:23:23.800.09-Sep-2020 5468.01 6444.23 76.57 9.00 410.80 2608.52
   10:23:24.000.09-Sep-2020 5468.01 6444.15 76.57 9.00 411.00 2608.52
   10:23:24.200.09-Sep-2020 5468.01 6444.15 76.57 9.00 411.20 2608.52
   10:23:24.400.09-Sep-2020 5468.01 6443.80 76.57 9.00 411.40 2608.52
   10:23:24.600.09-Sep-2020 5468.01 6443.76 76.57 9.00 411.60 2608.52
   10:23:24.800.09-Sep-2020 5468.01 6443.67 76.57 9.00 411.80 2608.52
   10:23:25.000.09-Sep-2020 5468.01 6443.70 76.57 9.00 412.00 2608.52
   10:23:25.200.09-Sep-2020 5468.01 6443.70 76.57 9.00 412.20 2608.52
   10:23:25.400.09-Sep-2020 5468.01 6442.63 76.57 9.00 412.40 2608.52
   10:23:25.600.09-Sep-2020 5468.01 6442.65 76.57 9.00 412.60 2608.52
   10:23:25.800.09-Sep-2020 5468.01 6442.74 76.57 9.00 412.80 2608.52
   10:23:26.000.09-Sep-2020 5468.01 6450.54 76.57 9.00 413.00 2608.52
   10:23:26.200.09-Sep-2020 5468.01 6441.07 76.57 9.00 413.20 2608.52
   10:23:26.400.09-Sep-2020 5468.01 6442.57 76.57 9.00 413.40 2608.52
   10:23:26.600.09-Sep-2020 5468.01 6446.55 76.57 9.00 413.60 2608.52
   10:23:26.800.09-Sep-2020 5468.01 6442.99 76.57 9.00 413.80 2608.52
