~Version Information
 VERS.                  2.0:   CWLS log ASCII Standard -VERSION 2.0
 WRAP.                   NO:   One line per depth step
~Well Information Block
#MNEM.UNIT     VALUE/NAME     DESCRIPTION
#---------     -----------    ---------------------------
 STRT.S             18:19:19 09-Sep-20: START TIME 18:19:19 09-Sep-20
 STOP.S             18:27:34 09-Sep-20: STOP TIME  18:27:34 09-Sep-20
 STEP.S                   0.00: STEP TIME
 NULL.                 -999.25: NULL VALUE
 MDS .        Operator Entered:  MAG DATA SOURCE
 PDAT.          Mean Sea Level:  PERMANENT DATUM
 DCON.         Sperry Drilling:  DIRECTNL CONTR
 RIG .              West Azeri:  RIG NAME
 WELL.           C40 (Slot 20):  WELL NAME
 SRVC.     Turan Drilling Engineering:  CONTRACTOR
 FLD .                     ACG:  FIELD NAME
 CTRY.              Azerbaijan:  COUNTRY NAME
 PROV.                    Baku:  PROVINCE
 STAT.                    Baku:  STATE NAME
 REGN.                   EESSA:  REGION
 BASE.              Azerbaijan:  LOGGING EQUIPMENT BASE LOCATION
 COMP.     BP Exploration (Caspian Sea) Ltd:  COMPANY
 WTYP.                Deviated:  WELL TYPE
 SON .        AZ-XX-0906344804:  JOB NUMBER
 FTOP.          Formation Tops:  FORM TOPS DESC
 ILTD.               Lithology:  INTERP LTH DESC
 SVYD.                  Survey:  SURVEY DESC
 DMOD.             Drill Model:  DRILL MOD DESC
 HPTY.       Minimum Curvature:  HOLE POS TYPE
 NREF.                    Grid:  NORTH REFERENCE
 SPUD.               01-Jan-20:  SPUD DATE
 DATE.      00.59.44 15-Sep-20:  END TIME
 STIM.      12.00.00 12-Jun-20:  START TIME
 DMF .             Drill Floor:  DRILL MEAS FROM
 DFST.                        :  DIST FSL TEXT
 DFWT.                        :  DIST FWL TEXT
 API .                        :  API NUMBER
 CNTY.                        :  COUNTY
 UWI .                        :  UNIQUE WELL IDENTIFIER
 LOC .                        :  LOCATION
 LMF .             Drill Floor:  LOG MEASURED FROM
 VSNS.m                   2.88:  VERT SEC N/S
 VSEW.m                  -3.84:  VERT SEC E/W
 AGAP.m                  43.42:  AIR GAP
 APD .m                  43.42:  DEPTH ABOVE PD
 WDMS.m                 118.27:  WD ELEV
 EGL .m                   0.00:  GROUND ELEVATION
 EPD .m                   0.00:  ELEVATION
 AZTC.deg                 6.23:  AZM TOTAL CORR
 GRDC.deg                 0.20:  GRID CORRECTION
 MDEC.deg                 6.43:  MAGNETIC DECL
 MDIP.deg                59.49:  MAGNETIC DIP
 MFLD.nT              50277.00:  MAGNETIC FIELD
 GVFD.g                   1.00:  GRAVITY FIELD
 VSDR.deg               173.20:  VERT SEC DIRECT
 TDD .m                5790.01:  TOTAL DEPTH (DRILLER)
 SDEP.m                5231.01:  START DEPTH
 DFSL.m                   0.00:  DISTANCE FSL
 DFWL.m                   0.00:  DISTANCE FWL
 UTMY.m             4435808.83:  UTM Y
 UTMX.m              526266.40:  UTM X
 WHEW.m                  -3.84:  WELL HEAD E/W
 WHNS.m                   2.88:  WELL HEAD N/S
 LONG.deg                51.31:  LONGITUDE
 LATI.deg                40.06:  LATITUDE
 TVDS.m                  43.42:  TVDSS CORRECTN
 DEP .m                 430.08:  DEPTH
 EKB .m                  43.42:  KB ELEVATION
 EDF .m                  43.42:  DF ELEVATION
 TDL .m                 559.00:  TOTAL DEPTH (LOGGER)
 MAGU.                 1849381:  MAGUTM CHECKSUM
 VSC .                       0:  VS TO CLOSURE
~Parameter Information Block
#MNEM.UNIT       Value        Description
#---------     -----------    ---------------------------
 AV  .mps                 4.87:  Ann Velocity 
 AVMX.mps                 7.08:  Max Ann Veloc 
 AZIF.deg               108.87:  Azm, Final 
 BHAT.                  Rotary:  BHA Type 
 BROT.°/30m               0.35:  Build Rotating 
 BS  .in                  8.50:  Bit Size 
 BSZ .in                  8.50:  Bit Size 
 BTPL.psig              360.00:  Bit Press Loss 
 CABU.                     Yes:  Customer Abuse 
 TCS .hr                106.24:  Time Ciculation Ended 
 CV  .mps                 1.77:  Crit Velocity 
 CVMX.mps                 2.03:  Max Crit Veloc 
 DD1 .         Aykhan Agagulov:  Direct Drillr 1 
 DD2 .            Nonso Okofor:  Direct Drillr 2 
 DDSV.               Geo-Pilot:  DD Service 
 DEFF.%                  98.00:  % Det Eff 
 DLRX.°/30m               0.50:  Dogleg Rot Max 
 DLSO.°/30m               0.40:  Dogleg Oriented 
 DLSX.°/30m               0.94:  Dogleg Str Max 
 DRET.      20.30.00 08-Sep-20:  Drill End Time 
 DRST.      22.15.00 06-Sep-20:  Drill Start Tim 
 DTIM.hr                 31.31:  Time Drilling 
 EDEP.m                5790.01:  End Depth 
 ENG1.           Amrah Tahirov:  Engineer 1 
 ENG2.         Dair Mahammadov:  Engineer 2 
 ENG3.           Emil Huseynov:  Engineer 3 
 ETIM.      04.01.04 12-Sep-20:  End Time 
 FLOI.gpm               450.00:  Flow In 
 FLON.gpm               450.00:  Flow In Min 
 FLOS.cptm                2.00:  Fluid Loss 
 FLOX.gpm               450.00:  Flow In Max 
 FTRO.       Formation Presure:  FTWD Run Obj 
 HFLO.                      No:  High Flow 
 HPRE.                      No:  High Pressure 
 HTEM.                      No:  High Temp 
 HYDO.m                   1.80:  Hydro Offset 
 IFIN.deg                72.03:  Inc, Final 
 IMAX.deg                73.72:  Inc Max 
 IMIN.deg                70.94:  Inc Min 
 IMND.m                5508.52:  Inc Min Depth 
 IMXD.m                5253.60:  Inc Max Depth 
 JARR.                      No:  Jarring 
 LETM.      20.30.00 08-Sep-20:  Log End Time 
 LOST.hr                     0:  Lost Rig Time 
 LSTM.      22.15.00 06-Sep-20:  Log Start Time 
 MDCL.ppm             36000.00:  Mud Chlorides 
 MDES.     Inversion Oil/Synthetic:  Mud Desc 
 DFD .sg                  1.44:  Mud Density 
 MDMN.sg                  1.44:  Dens Mud Min 
 MDMX.sg                  1.57:  Dens Mud Max 
 MOIL.                      70:  Run Mud Oil % 
 MOWR.                   70:30:  Run Mud OWR 
 MSND.                       0:  Run Mud Sand % 
 MSOL.                      21:  Run Mud Solids% 
 DFV .spqt               68.00:  Mud Viscosity 
 MWOD.in                  6.75:  MWD Tool OD 
 MWSI.                     Yes:  Serv Intrp, MWD 
 OTIM.hr                174.84:  Time Operating 
 PCON.           Look Like New:  Pad Condition 
 PMAX.psia            10616.93:  Press Op, Max 
 PV  .cP                 50.00:  Mud PV 
 RUN .                     700:  Run Number 
 ROPA.m/hr               14.24:  ROP Avg 
 ROPN.m/hr               10.00:  ROP Min 
 ROPX.m/hr               32.00:  ROP Max 
 RPMA.rpm               120.90:  RPM Surface Avg 
 RPMN.rpm               120.00:  RPM Surface Min 
 RPMX.rpm               140.00:  RPM Surface Max 
 RRUN.                    0700:  Rig Run Number 
 RTIM.hr                  3.20:  Time Reaming 
 SAZI.deg               109.99:  Azm, Start 
 SDEP.m                5231.01:  Start Depth 
 SIDD.                      No:  Serv Intrp, DD 
 SINC.deg                73.72:  Inc, Start 
 SPPA.psig             3051.00:  SPP Avg 
 SPPN.psig             2950.00:  SPP Min 
 SPPX.psig             3250.00:  SPP Max 
 STIM.      08.00.00 05-Sep-20:  Start Time 
 SVCS.                 DD, MWD:  Services 
 SVER.                    9.20:  Sperry Version 
 TDAT.m                 559.00:  Tot Depth Attmp 
 TDDF.                      No:  Trip for DD 
 TDLG.m                 559.00:  Tot Depth Loggd 
 TFF .                      No:  Trip for Fail 
 TQAA.f-kp               26.49:  Torque Abs Avg 
 TQAN.f-kp               25.00:  Torque Abs Min 
 TQAX.f-kp               27.00:  Torque Abs Max 
 TRRT.°/30m               1.50:  Turn Rotating 
 MRT .                    HCIM:  Maximum Recorded Temperature 
 TTMX.degC               90.20:  Max Tool Temp 
 VS01.                90542671:  Virtual Str1 SN 
 VS02.                90545185:  Virtual Str2 SN 
 VS03.                90602015:  Virtual Str3 SN 
 VS04.                90515230:  Virtual Str4 SN 
 WBMN.klb                 5.00:  WOB Min 
 WOBA.klb                14.79:  WOB Avg 
 WOBX.klb                20.00:  WOB Max 
 YP  .lhf2               29.00:  Yield Point 
~Curve Information Block
#MNEM.UNIT                 API CODE     Curve Description
#---------               -----------    ---------------------------
 TIME.HHMMSS            00 000 000 000:  GT Time & Date
 GTDEPTH.m              00 000 000 000:  GT Depth
 GTPQH.psia             00 000 000 000:  GT HR Quartz Pressure
 GTTQ.degC              00 000 000 000:  GT Quartz Temperature
 GTTN.NONE              00 000 000 000:  GT Test Number
 GTET.sec               00 000 000 000:  GT Elapsed Test Time
 GTTVD.m                00 000 000 000:  GT True Vertical Depth
#Other Information
#
#WARRANTY: Halliburton will use its best efforts to furnish customers with 
#accurate information and interpretations that are part of, and incident to, the services 
#provided.  However, Halliburton cannot and does not warrant the accuracy 
#or correctness of such information and interpretations.  Under no circumstances should any 
#such information or interpretation be relied upon as the sole basis for any drilling, 
#completion, production, or financial decision or any procedure involving any risk to the 
#safety of any drilling venture, drilling rig or its crew or any other third party.  The 
#Customer has full responsibility for all drilling, completion and production operation.  
#Halliburton makes no representations or warranties, either expressed or 
#implied, including, but not limited to, the implied warranties of merchantability or fitness 
#for a particular purpose, with respect to the services rendered.  In no event will 
#Halliburton be liable for failure to obtain any particular results or for 
#any damages, including, but not limited to, indirect, special or consequential damages, 
#resulting from the use of any information or interpretation provided by Halliburton.
#
~A           TIME           GTDEPTH  GTPQH  GTTQ  GTTN   GTET   GTTVD  
# ...
   18:22:20.600.09-Sep-2020 5281.01  901.72 74.53 21.00 180.66 2550.59
   18:22:20.800.09-Sep-2020 5281.01  911.14 74.53 21.00 180.86 2550.59
   18:22:21.000.09-Sep-2020 5281.01  911.14 74.53 21.00 181.06 2550.59
   18:22:21.200.09-Sep-2020 5281.01  924.30 74.52 21.00 181.26 2550.59
   18:22:21.400.09-Sep-2020 5281.01  915.12 74.52 21.00 181.46 2550.59
   18:22:21.600.09-Sep-2020 5281.01  903.73 74.52 21.00 181.66 2550.59
   18:22:21.799.09-Sep-2020 5281.01  890.94 74.51 21.00 181.86 2550.59
   18:22:21.999.09-Sep-2020 5281.01  890.94 74.51 21.00 182.06 2550.59
   18:22:22.199.09-Sep-2020 5281.01  886.25 74.51 21.00 182.26 2550.59
   18:22:22.399.09-Sep-2020 5281.01  861.90 74.51 21.00 182.46 2550.59
   18:22:22.599.09-Sep-2020 5281.01  857.14 74.50 21.00 182.66 2550.59
   18:22:22.799.09-Sep-2020 5281.01  860.38 74.50 21.00 182.86 2550.59
   18:22:22.998.09-Sep-2020 5281.01  853.05 74.50 21.00 183.06 2550.59
   18:22:23.198.09-Sep-2020 5281.01  840.56 74.50 21.00 183.26 2550.59
   18:22:23.398.09-Sep-2020 5281.01  836.90 74.50 21.00 183.46 2550.59
   18:22:23.598.09-Sep-2020 5281.01  828.88 74.50 21.00 183.66 2550.59
   18:22:23.798.09-Sep-2020 5281.01  820.27 74.49 21.00 183.86 2550.59
   18:22:23.998.09-Sep-2020 5281.01  820.27 74.49 21.00 184.06 2550.59
   18:22:24.198.09-Sep-2020 5281.01  832.51 74.49 21.00 184.26 2550.59
   18:22:24.397.09-Sep-2020 5281.01  826.54 74.49 21.00 184.46 2550.59
   18:22:24.597.09-Sep-2020 5281.01  820.22 74.49 21.00 184.66 2550.59
   18:22:24.797.09-Sep-2020 5281.01  817.71 74.49 21.00 184.85 2550.59
   18:22:24.997.09-Sep-2020 5281.01  817.71 74.49 21.00 185.05 2550.59
   18:22:25.197.09-Sep-2020 5281.01 1111.79 74.48 21.00 185.25 2550.59
   18:22:25.397.09-Sep-2020 5281.01 1406.71 74.48 21.00 185.45 2550.59
   18:22:25.596.09-Sep-2020 5281.01 1674.27 74.48 21.00 185.65 2550.59
   18:22:25.796.09-Sep-2020 5281.01 1909.19 74.48 21.00 185.85 2550.59
   18:22:25.996.09-Sep-2020 5281.01 1909.19 74.48 21.00 186.05 2550.59
   18:22:26.196.09-Sep-2020 5281.01 2301.01 74.48 21.00 186.25 2550.59
   18:22:26.396.09-Sep-2020 5281.01 2464.29 74.48 21.00 186.45 2550.59
   18:22:26.596.09-Sep-2020 5281.01 2607.98 74.48 21.00 186.65 2550.59
   18:22:26.796.09-Sep-2020 5281.01 2738.13 74.48 21.00 186.85 2550.59
   18:22:26.995.09-Sep-2020 5281.01 2738.13 74.48 21.00 187.05 2550.59
   18:22:27.195.09-Sep-2020 5281.01 2961.35 74.48 21.00 187.25 2550.59
   18:22:27.395.09-Sep-2020 5281.01 3056.23 74.48 21.00 187.45 2550.59
   18:22:27.595.09-Sep-2020 5281.01 3141.22 74.48 21.00 187.65 2550.59
   18:22:27.795.09-Sep-2020 5281.01 3218.12 74.48 21.00 187.85 2550.59
   18:22:27.995.09-Sep-2020 5281.01 3218.12 74.48 21.00 188.05 2550.59
   18:22:28.194.09-Sep-2020 5281.01 3347.20 74.48 21.00 188.25 2550.59
   18:22:28.394.09-Sep-2020 5281.01 3403.48 74.48 21.00 188.45 2550.59
   18:22:28.594.09-Sep-2020 5281.01 3455.54 74.49 21.00 188.65 2550.59
   18:22:28.794.09-Sep-2020 5281.01 3502.61 74.49 21.00 188.85 2550.59
   18:22:28.994.09-Sep-2020 5281.01 3502.61 74.49 21.00 189.05 2550.59
   18:22:29.194.09-Sep-2020 5281.01 3584.34 74.49 21.00 189.25 2550.59
   18:22:29.393.09-Sep-2020 5281.01 3619.13 74.49 21.00 189.45 2550.59
   18:22:29.593.09-Sep-2020 5281.01 3648.18 74.49 21.00 189.65 2550.59
   18:22:29.793.09-Sep-2020 5281.01 3677.75 74.50 21.00 189.85 2550.59
   18:22:29.993.09-Sep-2020 5281.01 3677.75 74.50 21.00 190.05 2550.59
   18:22:30.193.09-Sep-2020 5281.01 3729.97 74.50 21.00 190.25 2550.59
   18:22:30.393.09-Sep-2020 5281.01 3753.56 74.50 21.00 190.45 2550.59
   18:22:30.593.09-Sep-2020 5281.01 3773.23 74.51 21.00 190.65 2550.59
   18:22:30.792.09-Sep-2020 5281.01 3793.05 74.51 21.00 190.85 2550.59
   18:22:30.992.09-Sep-2020 5281.01 3793.05 74.51 21.00 191.05 2550.59
   18:22:31.192.09-Sep-2020 5281.01 3826.01 74.51 21.00 191.25 2550.59
   18:22:31.392.09-Sep-2020 5281.01 3841.33 74.51 21.00 191.45 2550.59
   18:22:31.592.09-Sep-2020 5281.01 3854.86 74.52 21.00 191.65 2550.59
   18:22:31.792.09-Sep-2020 5281.01 3866.39 74.52 21.00 191.85 2550.59
   18:22:31.991.09-Sep-2020 5281.01 3866.39 74.52 21.00 192.05 2550.59
   18:22:32.191.09-Sep-2020 5281.01 3889.49 74.52 21.00 192.25 2550.59
   18:22:32.391.09-Sep-2020 5281.01 3899.67 74.53 21.00 192.45 2550.59
   18:22:32.591.09-Sep-2020 5281.01 3908.28 74.53 21.00 192.65 2550.59
   18:22:32.791.09-Sep-2020 5281.01 3915.97 74.53 21.00 192.85 2550.59
   18:22:32.991.09-Sep-2020 5281.01 3915.97 74.53 21.00 193.05 2550.59
   18:22:33.190.09-Sep-2020 5281.01 3929.24 74.53 21.00 193.25 2550.59
   18:22:33.390.09-Sep-2020 5281.01 3935.23 74.54 21.00 193.45 2550.59
   18:22:33.590.09-Sep-2020 5281.01 3942.82 74.54 21.00 193.65 2550.59
   18:22:33.790.09-Sep-2020 5281.01 3949.27 74.54 21.00 193.85 2550.59
   18:22:33.990.09-Sep-2020 5281.01 3949.27 74.54 21.00 194.05 2550.59
   18:22:34.190.09-Sep-2020 5281.01 3960.82 74.54 21.00 194.25 2550.59
   18:22:34.390.09-Sep-2020 5281.01 3965.81 74.55 21.00 194.45 2550.59
   18:22:34.589.09-Sep-2020 5281.01 3968.39 74.55 21.00 194.65 2550.59
   18:22:34.789.09-Sep-2020 5281.01 3973.10 74.55 21.00 194.85 2550.59
   18:22:34.989.09-Sep-2020 5281.01 3973.10 74.55 21.00 195.05 2550.59
   18:22:35.189.09-Sep-2020 5281.01 3981.20 74.55 21.00 195.25 2550.59
   18:22:35.389.09-Sep-2020 5281.01 3984.85 74.55 21.00 195.45 2550.59
   18:22:35.589.09-Sep-2020 5281.01 3988.30 74.56 21.00 195.65 2550.59
   18:22:35.788.09-Sep-2020 5281.01 3991.54 74.56 21.00 195.85 2550.59
   18:22:35.988.09-Sep-2020 5281.01 3991.54 74.56 21.00 196.05 2550.59
   18:22:36.188.09-Sep-2020 5281.01 3997.29 74.56 21.00 196.25 2550.59
   18:22:36.388.09-Sep-2020 5281.01 3997.89 74.56 21.00 196.45 2550.59
   18:22:36.588.09-Sep-2020 5281.01 3999.34 74.56 21.00 196.65 2550.59
   18:22:36.788.09-Sep-2020 5281.01 4001.42 74.56 21.00 196.85 2550.59
   18:22:36.988.09-Sep-2020 5281.01 4001.42 74.56 21.00 197.05 2550.59
   18:22:37.187.09-Sep-2020 5281.01 4006.72 74.57 21.00 197.25 2550.59
   18:22:37.387.09-Sep-2020 5281.01 4009.32 74.57 21.00 197.45 2550.59
   18:22:37.587.09-Sep-2020 5281.01 4009.36 74.57 21.00 197.64 2550.59
   18:22:37.787.09-Sep-2020 5281.01 4010.64 74.57 21.00 197.84 2550.59
   18:22:37.987.09-Sep-2020 5281.01 4010.64 74.57 21.00 198.04 2550.59
   18:22:38.187.09-Sep-2020 5281.01 4014.98 74.57 21.00 198.24 2550.59
   18:22:38.386.09-Sep-2020 5281.01 4016.88 74.57 21.00 198.44 2550.59
   18:22:38.586.09-Sep-2020 5281.01 4018.80 74.57 21.00 198.64 2550.59
   18:22:38.786.09-Sep-2020 5281.01 4020.21 74.57 21.00 198.84 2550.59
   18:22:38.986.09-Sep-2020 5281.01 4020.21 74.57 21.00 199.04 2550.59
   18:22:39.186.09-Sep-2020 5281.01 4020.60 74.57 21.00 199.24 2550.59
   18:22:39.386.09-Sep-2020 5281.01 4022.81 74.57 21.00 199.44 2550.59
   18:22:39.585.09-Sep-2020 5281.01 4024.37 74.57 21.00 199.64 2550.59
   18:22:39.785.09-Sep-2020 5281.01 4024.08 74.58 21.00 199.84 2550.59
   18:22:39.985.09-Sep-2020 5281.01 4024.08 74.58 21.00 200.04 2550.59
   18:22:40.185.09-Sep-2020 5281.01 4027.50 74.58 21.00 200.24 2550.59
   18:22:40.385.09-Sep-2020 5281.01 4028.91 74.58 21.00 200.44 2550.59
   18:22:40.585.09-Sep-2020 5281.01 4030.39 74.58 21.00 200.64 2550.59
   18:22:40.785.09-Sep-2020 5281.01 4030.75 74.58 21.00 200.84 2550.59
   18:22:40.984.09-Sep-2020 5281.01 4030.75 74.58 21.00 201.04 2550.59
   18:22:41.184.09-Sep-2020 5281.01 4031.68 74.58 21.00 201.24 2550.59
   18:22:41.384.09-Sep-2020 5281.01 4033.04 74.58 21.00 201.44 2550.59
   18:22:41.584.09-Sep-2020 5281.01 4033.95 74.58 21.00 201.64 2550.59
   18:22:41.784.09-Sep-2020 5281.01 4035.09 74.58 21.00 201.84 2550.59
   18:22:41.984.09-Sep-2020 5281.01 4035.09 74.58 21.00 202.04 2550.59
   18:22:42.183.09-Sep-2020 5281.01 4036.47 74.58 21.00 202.24 2550.59
   18:22:42.383.09-Sep-2020 5281.01 4037.12 74.58 21.00 202.44 2550.59
   18:22:42.583.09-Sep-2020 5281.01 4037.84 74.58 21.00 202.64 2550.59
   18:22:42.783.09-Sep-2020 5281.01 4038.34 74.58 21.00 202.84 2550.59
   18:22:42.983.09-Sep-2020 5281.01 4038.34 74.58 21.00 203.04 2550.59
