~Version Information
 VERS.                  2.0:   CWLS log ASCII Standard -VERSION 2.0
 WRAP.                   NO:   One line per depth step
~Well Information Block
#MNEM.UNIT     VALUE/NAME     DESCRIPTION
#---------     -----------    ---------------------------
 STRT.S             10:16:33 09-Sep-20: START TIME 10:16:33 09-Sep-20
 STOP.S             10:23:34 09-Sep-20: STOP TIME  10:23:34 09-Sep-20
 STEP.S                   0.00: STEP TIME
 NULL.                 -999.25: NULL VALUE
 MDS .        Operator Entered:  MAG DATA SOURCE
 PDAT.          Mean Sea Level:  PERMANENT DATUM
 DCON.         Sperry Drilling:  DIRECTNL CONTR
 RIG .              West Azeri:  RIG NAME
 WELL.           C40 (Slot 20):  WELL NAME
 SRVC.     Turan Drilling Engineering:  CONTRACTOR
 FLD .                     ACG:  FIELD NAME
 CTRY.              Azerbaijan:  COUNTRY NAME
 PROV.                    Baku:  PROVINCE
 STAT.                    Baku:  STATE NAME
 REGN.                   EESSA:  REGION
 BASE.              Azerbaijan:  LOGGING EQUIPMENT BASE LOCATION
 COMP.     BP Exploration (Caspian Sea) Ltd:  COMPANY
 WTYP.                Deviated:  WELL TYPE
 SON .        AZ-XX-0906344804:  JOB NUMBER
 FTOP.          Formation Tops:  FORM TOPS DESC
 ILTD.               Lithology:  INTERP LTH DESC
 SVYD.                  Survey:  SURVEY DESC
 DMOD.             Drill Model:  DRILL MOD DESC
 HPTY.       Minimum Curvature:  HOLE POS TYPE
 NREF.                    Grid:  NORTH REFERENCE
 SPUD.               01-Jan-20:  SPUD DATE
 DATE.      00.59.44 15-Sep-20:  END TIME
 STIM.      12.00.00 12-Jun-20:  START TIME
 DMF .             Drill Floor:  DRILL MEAS FROM
 DFST.                        :  DIST FSL TEXT
 DFWT.                        :  DIST FWL TEXT
 API .                        :  API NUMBER
 CNTY.                        :  COUNTY
 UWI .                        :  UNIQUE WELL IDENTIFIER
 LOC .                        :  LOCATION
 LMF .             Drill Floor:  LOG MEASURED FROM
 VSNS.m                   2.88:  VERT SEC N/S
 VSEW.m                  -3.84:  VERT SEC E/W
 AGAP.m                  43.42:  AIR GAP
 APD .m                  43.42:  DEPTH ABOVE PD
 WDMS.m                 118.27:  WD ELEV
 EGL .m                   0.00:  GROUND ELEVATION
 EPD .m                   0.00:  ELEVATION
 AZTC.deg                 6.23:  AZM TOTAL CORR
 GRDC.deg                 0.20:  GRID CORRECTION
 MDEC.deg                 6.43:  MAGNETIC DECL
 MDIP.deg                59.49:  MAGNETIC DIP
 MFLD.nT              50277.00:  MAGNETIC FIELD
 GVFD.g                   1.00:  GRAVITY FIELD
 VSDR.deg               173.20:  VERT SEC DIRECT
 TDD .m                5790.01:  TOTAL DEPTH (DRILLER)
 SDEP.m                5231.01:  START DEPTH
 DFSL.m                   0.00:  DISTANCE FSL
 DFWL.m                   0.00:  DISTANCE FWL
 UTMY.m             4435808.83:  UTM Y
 UTMX.m              526266.40:  UTM X
 WHEW.m                  -3.84:  WELL HEAD E/W
 WHNS.m                   2.88:  WELL HEAD N/S
 LONG.deg                51.31:  LONGITUDE
 LATI.deg                40.06:  LATITUDE
 TVDS.m                  43.42:  TVDSS CORRECTN
 DEP .m                 430.08:  DEPTH
 EKB .m                  43.42:  KB ELEVATION
 EDF .m                  43.42:  DF ELEVATION
 TDL .m                 559.00:  TOTAL DEPTH (LOGGER)
 MAGU.                 1849381:  MAGUTM CHECKSUM
 VSC .                       0:  VS TO CLOSURE
~Parameter Information Block
#MNEM.UNIT       Value        Description
#---------     -----------    ---------------------------
 AV  .mps                 4.87:  Ann Velocity 
 AVMX.mps                 7.08:  Max Ann Veloc 
 AZIF.deg               108.87:  Azm, Final 
 BHAT.                  Rotary:  BHA Type 
 BROT.°/30m               0.35:  Build Rotating 
 BS  .in                  8.50:  Bit Size 
 BSZ .in                  8.50:  Bit Size 
 BTPL.psig              360.00:  Bit Press Loss 
 CABU.                     Yes:  Customer Abuse 
 COMM.                     \Gp:  Run Comments 1 
 TCS .hr                106.24:  Time Ciculation Ended 
 CV  .mps                 1.77:  Crit Velocity 
 CVMX.mps                 2.03:  Max Crit Veloc 
 DD1 .         Aykhan Agagulov:  Direct Drillr 1 
 DD2 .            Nonso Okofor:  Direct Drillr 2 
 DDSV.               Geo-Pilot:  DD Service 
 DEFF.%                  98.00:  % Det Eff 
 DLRX.°/30m               0.50:  Dogleg Rot Max 
 DLSO.°/30m               0.40:  Dogleg Oriented 
 DLSX.°/30m               0.94:  Dogleg Str Max 
 DRET.      20.30.00 08-Sep-20:  Drill End Time 
 DRST.      22.15.00 06-Sep-20:  Drill Start Tim 
 DTIM.hr                 31.31:  Time Drilling 
 EDEP.m                5790.01:  End Depth 
 ENG1.           Amrah Tahirov:  Engineer 1 
 ENG2.         Dair Mahammadov:  Engineer 2 
 ENG3.           Emil Huseynov:  Engineer 3 
 ETIM.      04.01.04 12-Sep-20:  End Time 
 FLOI.gpm               450.00:  Flow In 
 FLON.gpm               450.00:  Flow In Min 
 FLOS.cptm                2.00:  Fluid Loss 
 FLOX.gpm               450.00:  Flow In Max 
 FTRO.       Formation Presure:  FTWD Run Obj 
 HFLO.                      No:  High Flow 
 HPRE.                      No:  High Pressure 
 HTEM.                      No:  High Temp 
 HYDO.m                   1.80:  Hydro Offset 
 IFIN.deg                72.03:  Inc, Final 
 IMAX.deg                73.72:  Inc Max 
 IMIN.deg                70.94:  Inc Min 
 IMND.m                5508.52:  Inc Min Depth 
 IMXD.m                5253.60:  Inc Max Depth 
 JARR.                      No:  Jarring 
 LETM.      20.30.00 08-Sep-20:  Log End Time 
 LOST.hr                     0:  Lost Rig Time 
 LSTM.      22.15.00 06-Sep-20:  Log Start Time 
 MDCL.ppm             36000.00:  Mud Chlorides 
 MDES.     Inversion Oil/Synthetic:  Mud Desc 
 DFD .sg                  1.44:  Mud Density 
 MDMN.sg                  1.44:  Dens Mud Min 
 MDMX.sg                  1.57:  Dens Mud Max 
 MOIL.                      70:  Run Mud Oil % 
 MOWR.                   70:30:  Run Mud OWR 
 MSND.                       0:  Run Mud Sand % 
 MSOL.                      21:  Run Mud Solids% 
 DFV .spqt               68.00:  Mud Viscosity 
 MWOD.in                  6.75:  MWD Tool OD 
 MWSI.                     Yes:  Serv Intrp, MWD 
 OTIM.hr                174.84:  Time Operating 
 PCON.           Look Like New:  Pad Condition 
 PMAX.psia            10616.93:  Press Op, Max 
 PV  .cP                 50.00:  Mud PV 
 RUN .                     700:  Run Number 
 ROPA.m/hr               14.24:  ROP Avg 
 ROPN.m/hr               10.00:  ROP Min 
 ROPX.m/hr               32.00:  ROP Max 
 RPMA.rpm               120.90:  RPM Surface Avg 
 RPMN.rpm               120.00:  RPM Surface Min 
 RPMX.rpm               140.00:  RPM Surface Max 
 RRUN.                    0700:  Rig Run Number 
 RTIM.hr                  3.20:  Time Reaming 
 SAZI.deg               109.99:  Azm, Start 
 SDEP.m                5231.01:  Start Depth 
 SIDD.                      No:  Serv Intrp, DD 
 SINC.deg                73.72:  Inc, Start 
 SPPA.psig             3051.00:  SPP Avg 
 SPPN.psig             2950.00:  SPP Min 
 SPPX.psig             3250.00:  SPP Max 
 STIM.      08.00.00 05-Sep-20:  Start Time 
 SVCS.                 DD, MWD:  Services 
 SVER.                    9.20:  Sperry Version 
 TDAT.m                 559.00:  Tot Depth Attmp 
 TDDF.                      No:  Trip for DD 
 TDLG.m                 559.00:  Tot Depth Loggd 
 TFF .                      No:  Trip for Fail 
 TQAA.f-kp               26.49:  Torque Abs Avg 
 TQAN.f-kp               25.00:  Torque Abs Min 
 TQAX.f-kp               27.00:  Torque Abs Max 
 TRRT.°/30m               1.50:  Turn Rotating 
 MRT .                    HCIM:  Maximum Recorded Temperature 
 TTMX.degC               90.20:  Max Tool Temp 
 VS01.                90542671:  Virtual Str1 SN 
 VS02.                90545185:  Virtual Str2 SN 
 VS03.                90602015:  Virtual Str3 SN 
 VS04.                90515230:  Virtual Str4 SN 
 WBMN.klb                 5.00:  WOB Min 
 WOBA.klb                14.79:  WOB Avg 
 WOBX.klb                20.00:  WOB Max 
 YP  .lhf2               29.00:  Yield Point 
~Curve Information Block
#MNEM.UNIT                 API CODE     Curve Description
#---------               -----------    ---------------------------
 TIME.HHMMSS            00 000 000 000:  GT Time & Date
 GTDEPTH.m              00 000 000 000:  GT Depth
 GTPQH.psia             00 000 000 000:  GT HR Quartz Pressure
 GTTQ.degC              00 000 000 000:  GT Quartz Temperature
 GTTN.NONE              00 000 000 000:  GT Test Number
 GTET.sec               00 000 000 000:  GT Elapsed Test Time
 GTTVD.m                00 000 000 000:  GT True Vertical Depth
#Other Information
#
#WARRANTY: Halliburton will use its best efforts to furnish customers with 
#accurate information and interpretations that are part of, and incident to, the services 
#provided.  However, Halliburton cannot and does not warrant the accuracy 
#or correctness of such information and interpretations.  Under no circumstances should any 
#such information or interpretation be relied upon as the sole basis for any drilling, 
#completion, production, or financial decision or any procedure involving any risk to the 
#safety of any drilling venture, drilling rig or its crew or any other third party.  The 
#Customer has full responsibility for all drilling, completion and production operation.  
#Halliburton makes no representations or warranties, either expressed or 
#implied, including, but not limited to, the implied warranties of merchantability or fitness 
#for a particular purpose, with respect to the services rendered.  In no event will 
#Halliburton be liable for failure to obtain any particular results or for 
#any damages, including, but not limited to, indirect, special or consequential damages, 
#resulting from the use of any information or interpretation provided by Halliburton.
#
~A           TIME           GTDEPTH  GTPQH  GTTQ  GTTN  GTET   GTTVD  
# ...
   10:22:18.000.09-Sep-2020 5468.01 3582.23 76.53 9.00 345.00 2608.52
   10:22:18.200.09-Sep-2020 5468.01 3582.23 76.53 9.00 345.20 2608.52
   10:22:18.400.09-Sep-2020 5468.01 3582.19 76.53 9.00 345.40 2608.52
   10:22:18.600.09-Sep-2020 5468.01 3582.26 76.53 9.00 345.60 2608.52
   10:22:18.800.09-Sep-2020 5468.01 3582.35 76.53 9.00 345.80 2608.52
   10:22:19.000.09-Sep-2020 5468.01 3582.11 76.53 9.00 346.00 2608.52
   10:22:19.200.09-Sep-2020 5468.01 3582.11 76.53 9.00 346.20 2608.52
   10:22:19.400.09-Sep-2020 5468.01 3582.22 76.52 9.00 346.40 2608.52
   10:22:19.600.09-Sep-2020 5468.01 3582.25 76.53 9.00 346.60 2608.52
   10:22:19.800.09-Sep-2020 5468.01 3582.22 76.52 9.00 346.80 2608.52
   10:22:20.000.09-Sep-2020 5468.01 3582.24 76.53 9.00 347.00 2608.52
   10:22:20.200.09-Sep-2020 5468.01 3582.24 76.53 9.00 347.20 2608.52
   10:22:20.400.09-Sep-2020 5468.01 3582.36 76.52 9.00 347.40 2608.52
   10:22:20.600.09-Sep-2020 5468.01 3582.12 76.52 9.00 347.60 2608.52
   10:22:20.800.09-Sep-2020 5468.01 3582.21 76.52 9.00 347.80 2608.52
   10:22:21.000.09-Sep-2020 5468.01 3582.25 76.52 9.00 348.00 2608.52
   10:22:21.200.09-Sep-2020 5468.01 3582.25 76.52 9.00 348.20 2608.52
   10:22:21.400.09-Sep-2020 5468.01 3582.17 76.52 9.00 348.40 2608.52
   10:22:21.600.09-Sep-2020 5468.01 3582.23 76.52 9.00 348.60 2608.52
   10:22:21.800.09-Sep-2020 5468.01 3582.03 76.52 9.00 348.80 2608.52
   10:22:22.000.09-Sep-2020 5468.01 3582.44 76.52 9.00 349.00 2608.52
   10:22:22.200.09-Sep-2020 5468.01 3582.22 76.52 9.00 349.20 2608.52
   10:22:22.400.09-Sep-2020 5468.01 3582.24 76.52 9.00 349.40 2608.52
   10:22:22.600.09-Sep-2020 5468.01 3582.20 76.52 9.00 349.60 2608.52
   10:22:22.800.09-Sep-2020 5468.01 3582.25 76.52 9.00 349.80 2608.52
   10:22:23.000.09-Sep-2020 5468.01 3582.23 76.52 9.00 350.00 2608.52
   10:22:23.200.09-Sep-2020 5468.01 3582.23 76.52 9.00 350.20 2608.52
   10:22:23.400.09-Sep-2020 5468.01 3582.44 76.52 9.00 350.40 2608.52
   10:22:23.600.09-Sep-2020 5468.01 3582.21 76.52 9.00 350.60 2608.52
   10:22:23.800.09-Sep-2020 5468.01 3582.25 76.52 9.00 350.80 2608.52
   10:22:24.000.09-Sep-2020 5468.01 3582.19 76.52 9.00 351.00 2608.52
   10:22:24.200.09-Sep-2020 5468.01 3582.19 76.52 9.00 351.20 2608.52
   10:22:24.400.09-Sep-2020 5468.01 3582.23 76.52 9.00 351.40 2608.52
   10:22:24.600.09-Sep-2020 5468.01 3582.22 76.52 9.00 351.60 2608.52
   10:22:24.800.09-Sep-2020 5468.01 3582.23 76.52 9.00 351.80 2608.52
   10:22:25.000.09-Sep-2020 5468.01 3582.22 76.52 9.00 352.00 2608.52
   10:22:25.200.09-Sep-2020 5468.01 3582.22 76.52 9.00 352.20 2608.52
   10:22:25.400.09-Sep-2020 5468.01 3582.23 76.52 9.00 352.40 2608.52
   10:22:25.600.09-Sep-2020 5468.01 3582.22 76.52 9.00 352.60 2608.52
   10:22:25.800.09-Sep-2020 5468.01 3582.22 76.52 9.00 352.80 2608.52
   10:22:26.000.09-Sep-2020 5468.01 3582.23 76.52 9.00 353.00 2608.52
   10:22:26.200.09-Sep-2020 5468.01 3582.22 76.52 9.00 353.20 2608.52
   10:22:26.400.09-Sep-2020 5468.01 3582.24 76.52 9.00 353.40 2608.52
   10:22:26.600.09-Sep-2020 5468.01 3582.22 76.52 9.00 353.60 2608.52
   10:22:26.800.09-Sep-2020 5468.01 3582.22 76.52 9.00 353.80 2608.52
   10:22:27.000.09-Sep-2020 5468.01 3582.35 76.52 9.00 354.00 2608.52
   10:22:27.200.09-Sep-2020 5468.01 3582.35 76.52 9.00 354.20 2608.52
   10:22:27.400.09-Sep-2020 5468.01 3582.22 76.52 9.00 354.40 2608.52
   10:22:27.600.09-Sep-2020 5468.01 3582.24 76.52 9.00 354.60 2608.52
   10:22:27.800.09-Sep-2020 5468.01 3582.28 76.52 9.00 354.80 2608.52
   10:22:28.000.09-Sep-2020 5468.01 3582.15 76.52 9.00 355.00 2608.52
   10:22:28.200.09-Sep-2020 5468.01 3582.15 76.52 9.00 355.20 2608.52
   10:22:28.400.09-Sep-2020 5468.01 3582.22 76.52 9.00 355.40 2608.52
   10:22:28.600.09-Sep-2020 5468.01 3582.25 76.52 9.00 355.60 2608.52
   10:22:28.800.09-Sep-2020 5468.01 3582.22 76.52 9.00 355.80 2608.52
   10:22:29.000.09-Sep-2020 5468.01 3582.21 76.52 9.00 356.00 2608.52
   10:22:29.200.09-Sep-2020 5468.01 3582.21 76.52 9.00 356.20 2608.52
   10:22:29.400.09-Sep-2020 5468.01 3582.22 76.52 9.00 356.40 2608.52
   10:22:29.600.09-Sep-2020 5468.01 3582.22 76.52 9.00 356.60 2608.52
   10:22:29.800.09-Sep-2020 5468.01 3582.22 76.52 9.00 356.80 2608.52
   10:22:30.000.09-Sep-2020 5468.01 3582.22 76.52 9.00 357.00 2608.52
   10:22:30.200.09-Sep-2020 5468.01 3582.07 76.52 9.00 357.20 2608.52
   10:22:30.400.09-Sep-2020 5468.01 3582.31 76.52 9.00 357.40 2608.52
   10:22:30.600.09-Sep-2020 5468.01 3582.29 76.52 9.00 357.60 2608.52
   10:22:30.800.09-Sep-2020 5468.01 3582.21 76.52 9.00 357.80 2608.52
   10:22:31.000.09-Sep-2020 5468.01 3582.25 76.52 9.00 358.00 2608.52
   10:22:31.200.09-Sep-2020 5468.01 3582.25 76.52 9.00 358.20 2608.52
   10:22:31.400.09-Sep-2020 5468.01 3582.00 76.52 9.00 358.40 2608.52
   10:22:31.600.09-Sep-2020 5468.01 3582.45 76.52 9.00 358.60 2608.52
   10:22:31.800.09-Sep-2020 5468.01 3582.23 76.52 9.00 358.80 2608.52
   10:22:32.000.09-Sep-2020 5468.01 3582.21 76.52 9.00 359.00 2608.52
   10:22:32.200.09-Sep-2020 5468.01 3582.21 76.52 9.00 359.20 2608.52
   10:22:32.400.09-Sep-2020 5468.01 3582.25 76.52 9.00 359.40 2608.52
   10:22:32.600.09-Sep-2020 5468.01 3582.23 76.52 9.00 359.60 2608.52
   10:22:32.800.09-Sep-2020 5468.01 3582.22 76.52 9.00 359.80 2608.52
   10:22:33.000.09-Sep-2020 5468.01 3582.35 76.52 9.00 360.00 2608.52
   10:22:33.200.09-Sep-2020 5468.01 3582.35 76.52 9.00 360.20 2608.52
   10:22:33.400.09-Sep-2020 5468.01 3582.22 76.52 9.00 360.40 2608.52
   10:22:33.600.09-Sep-2020 5468.01 3582.23 76.52 9.00 360.60 2608.52
   10:22:33.800.09-Sep-2020 5468.01 3582.22 76.52 9.00 360.80 2608.52
   10:22:34.000.09-Sep-2020 5468.01 3582.22 76.52 9.00 361.00 2608.52
   10:22:34.200.09-Sep-2020 5468.01 3582.23 76.52 9.00 361.20 2608.52
   10:22:34.400.09-Sep-2020 5468.01 3582.06 76.52 9.00 361.40 2608.52
   10:22:34.600.09-Sep-2020 5468.01 3582.33 76.52 9.00 361.60 2608.52
   10:22:34.800.09-Sep-2020 5468.01 3582.29 76.52 9.00 361.80 2608.52
   10:22:35.000.09-Sep-2020 5468.01 3582.22 76.52 9.00 362.00 2608.52
   10:22:35.200.09-Sep-2020 5468.01 3582.22 76.52 9.00 362.20 2608.52
   10:22:35.400.09-Sep-2020 5468.01 3582.23 76.52 9.00 362.40 2608.52
   10:22:35.600.09-Sep-2020 5468.01 3582.20 76.52 9.00 362.60 2608.52
   10:22:35.800.09-Sep-2020 5468.01 3582.07 76.52 9.00 362.80 2608.52
   10:22:36.000.09-Sep-2020 5468.01 3582.32 76.52 9.00 363.00 2608.52
   10:22:36.200.09-Sep-2020 5468.01 3582.32 76.52 9.00 363.20 2608.52
   10:22:36.400.09-Sep-2020 5468.01 3582.22 76.52 9.00 363.40 2608.52
   10:22:36.600.09-Sep-2020 5468.01 3582.23 76.52 9.00 363.60 2608.52
   10:22:36.800.09-Sep-2020 5468.01 3582.24 76.52 9.00 363.80 2608.52
   10:22:37.000.09-Sep-2020 5468.01 3582.18 76.52 9.00 364.00 2608.52
   10:22:37.200.09-Sep-2020 5468.01 3582.18 76.52 9.00 364.20 2608.52
   10:22:37.400.09-Sep-2020 5468.01 3582.23 76.52 9.00 364.40 2608.52
   10:22:37.600.09-Sep-2020 5468.01 3582.21 76.52 9.00 364.60 2608.52
   10:22:37.800.09-Sep-2020 5468.01 3582.23 76.52 9.00 364.80 2608.52
   10:22:38.000.09-Sep-2020 5468.01 3581.56 76.52 9.00 365.00 2608.52
   10:22:38.200.09-Sep-2020 5468.01 3582.16 76.52 9.00 365.20 2608.52
   10:22:38.400.09-Sep-2020 5468.01 3615.43 76.52 9.00 365.40 2608.52
   10:22:38.600.09-Sep-2020 5468.01 5477.77 76.52 9.00 365.60 2608.52
   10:22:38.800.09-Sep-2020 5468.01 6435.85 76.52 9.00 365.80 2608.52
   10:22:39.000.09-Sep-2020 5468.01 6434.35 76.52 9.00 366.00 2608.52
   10:22:39.200.09-Sep-2020 5468.01 6434.35 76.52 9.00 366.20 2608.52
   10:22:39.400.09-Sep-2020 5468.01 6434.43 76.52 9.00 366.40 2608.52
   10:22:39.600.09-Sep-2020 5468.01 6447.77 76.52 9.00 366.60 2608.52
   10:22:39.800.09-Sep-2020 5468.01 6429.62 76.53 9.00 366.80 2608.52
   10:22:40.000.09-Sep-2020 5468.01 6436.48 76.53 9.00 367.00 2608.52
   10:22:40.200.09-Sep-2020 5468.01 6436.48 76.53 9.00 367.20 2608.52
   10:22:40.400.09-Sep-2020 5468.01 6438.59 76.53 9.00 367.40 2608.52
   10:22:40.600.09-Sep-2020 5468.01 6439.80 76.53 9.00 367.60 2608.52
   10:22:40.800.09-Sep-2020 5468.01 6438.45 76.53 9.00 367.80 2608.52
