~Version Information
 VERS.                  2.0:   CWLS log ASCII Standard -VERSION 2.0
 WRAP.                   NO:   One line per depth step
~Well Information Block
#MNEM.UNIT     VALUE/NAME     DESCRIPTION
#---------     -----------    ---------------------------
 STRT.S             21:21:48 09-Sep-20: START TIME 21:21:48 09-Sep-20
 STOP.S             21:29:57 09-Sep-20: STOP TIME  21:29:57 09-Sep-20
 STEP.S                   0.00: STEP TIME
 NULL.                 -999.25: NULL VALUE
 MDS .        Operator Entered:  MAG DATA SOURCE
 PDAT.          Mean Sea Level:  PERMANENT DATUM
 DCON.         Sperry Drilling:  DIRECTNL CONTR
 RIG .              West Azeri:  RIG NAME
 WELL.           C40 (Slot 20):  WELL NAME
 SRVC.     Turan Drilling Engineering:  CONTRACTOR
 FLD .                     ACG:  FIELD NAME
 CTRY.              Azerbaijan:  COUNTRY NAME
 PROV.                    Baku:  PROVINCE
 STAT.                    Baku:  STATE NAME
 REGN.                   EESSA:  REGION
 BASE.              Azerbaijan:  LOGGING EQUIPMENT BASE LOCATION
 COMP.     BP Exploration (Caspian Sea) Ltd:  COMPANY
 WTYP.                Deviated:  WELL TYPE
 SON .        AZ-XX-0906344804:  JOB NUMBER
 FTOP.          Formation Tops:  FORM TOPS DESC
 ILTD.               Lithology:  INTERP LTH DESC
 SVYD.                  Survey:  SURVEY DESC
 DMOD.             Drill Model:  DRILL MOD DESC
 HPTY.       Minimum Curvature:  HOLE POS TYPE
 NREF.                    Grid:  NORTH REFERENCE
 SPUD.               01-Jan-20:  SPUD DATE
 DATE.      00.59.44 15-Sep-20:  END TIME
 STIM.      12.00.00 12-Jun-20:  START TIME
 DMF .             Drill Floor:  DRILL MEAS FROM
 DFST.                        :  DIST FSL TEXT
 DFWT.                        :  DIST FWL TEXT
 API .                        :  API NUMBER
 CNTY.                        :  COUNTY
 UWI .                        :  UNIQUE WELL IDENTIFIER
 LOC .                        :  LOCATION
 LMF .             Drill Floor:  LOG MEASURED FROM
 VSNS.m                   2.88:  VERT SEC N/S
 VSEW.m                  -3.84:  VERT SEC E/W
 AGAP.m                  43.42:  AIR GAP
 APD .m                  43.42:  DEPTH ABOVE PD
 WDMS.m                 118.27:  WD ELEV
 EGL .m                   0.00:  GROUND ELEVATION
 EPD .m                   0.00:  ELEVATION
 AZTC.deg                 6.23:  AZM TOTAL CORR
 GRDC.deg                 0.20:  GRID CORRECTION
 MDEC.deg                 6.43:  MAGNETIC DECL
 MDIP.deg                59.49:  MAGNETIC DIP
 MFLD.nT              50277.00:  MAGNETIC FIELD
 GVFD.g                   1.00:  GRAVITY FIELD
 VSDR.deg               173.20:  VERT SEC DIRECT
 TDD .m                5790.01:  TOTAL DEPTH (DRILLER)
 SDEP.m                5231.01:  START DEPTH
 DFSL.m                   0.00:  DISTANCE FSL
 DFWL.m                   0.00:  DISTANCE FWL
 UTMY.m             4435808.83:  UTM Y
 UTMX.m              526266.40:  UTM X
 WHEW.m                  -3.84:  WELL HEAD E/W
 WHNS.m                   2.88:  WELL HEAD N/S
 LONG.deg                51.31:  LONGITUDE
 LATI.deg                40.06:  LATITUDE
 TVDS.m                  43.42:  TVDSS CORRECTN
 DEP .m                 430.08:  DEPTH
 EKB .m                  43.42:  KB ELEVATION
 EDF .m                  43.42:  DF ELEVATION
 TDL .m                 559.00:  TOTAL DEPTH (LOGGER)
 MAGU.                 1849381:  MAGUTM CHECKSUM
 VSC .                       0:  VS TO CLOSURE
~Parameter Information Block
#MNEM.UNIT       Value        Description
#---------     -----------    ---------------------------
 AV  .mps                 4.87:  Ann Velocity 
 AVMX.mps                 7.08:  Max Ann Veloc 
 AZIF.deg               108.87:  Azm, Final 
 BHAT.                  Rotary:  BHA Type 
 BROT.°/30m               0.35:  Build Rotating 
 BS  .in                  8.50:  Bit Size 
 BSZ .in                  8.50:  Bit Size 
 BTPL.psig              360.00:  Bit Press Loss 
 CABU.                     Yes:  Customer Abuse 
 COMM.                     ¼¥|:  Run Comments 1 
 TCS .hr                106.24:  Time Ciculation Ended 
 CV  .mps                 1.77:  Crit Velocity 
 CVMX.mps                 2.03:  Max Crit Veloc 
 DD1 .         Aykhan Agagulov:  Direct Drillr 1 
 DD2 .            Nonso Okofor:  Direct Drillr 2 
 DDSV.               Geo-Pilot:  DD Service 
 DEFF.%                  98.00:  % Det Eff 
 DLRX.°/30m               0.50:  Dogleg Rot Max 
 DLSO.°/30m               0.40:  Dogleg Oriented 
 DLSX.°/30m               0.94:  Dogleg Str Max 
 DRET.      20.30.00 08-Sep-20:  Drill End Time 
 DRST.      22.15.00 06-Sep-20:  Drill Start Tim 
 DTIM.hr                 31.31:  Time Drilling 
 EDEP.m                5790.01:  End Depth 
 ENG1.           Amrah Tahirov:  Engineer 1 
 ENG2.         Dair Mahammadov:  Engineer 2 
 ENG3.           Emil Huseynov:  Engineer 3 
 ETIM.      04.01.04 12-Sep-20:  End Time 
 FLOI.gpm               450.00:  Flow In 
 FLON.gpm               450.00:  Flow In Min 
 FLOS.cptm                2.00:  Fluid Loss 
 FLOX.gpm               450.00:  Flow In Max 
 FTRO.       Formation Presure:  FTWD Run Obj 
 HFLO.                      No:  High Flow 
 HPRE.                      No:  High Pressure 
 HTEM.                      No:  High Temp 
 HYDO.m                   1.80:  Hydro Offset 
 IFIN.deg                72.03:  Inc, Final 
 IMAX.deg                73.72:  Inc Max 
 IMIN.deg                70.94:  Inc Min 
 IMND.m                5508.52:  Inc Min Depth 
 IMXD.m                5253.60:  Inc Max Depth 
 JARR.                      No:  Jarring 
 LETM.      20.30.00 08-Sep-20:  Log End Time 
 LOST.hr                     0:  Lost Rig Time 
 LSTM.      22.15.00 06-Sep-20:  Log Start Time 
 MDCL.ppm             36000.00:  Mud Chlorides 
 MDES.     Inversion Oil/Synthetic:  Mud Desc 
 DFD .sg                  1.44:  Mud Density 
 MDMN.sg                  1.44:  Dens Mud Min 
 MDMX.sg                  1.57:  Dens Mud Max 
 MOIL.                      70:  Run Mud Oil % 
 MOWR.                   70:30:  Run Mud OWR 
 MSND.                       0:  Run Mud Sand % 
 MSOL.                      21:  Run Mud Solids% 
 DFV .spqt               68.00:  Mud Viscosity 
 MWOD.in                  6.75:  MWD Tool OD 
 MWSI.                     Yes:  Serv Intrp, MWD 
 OTIM.hr                174.84:  Time Operating 
 PCON.           Look Like New:  Pad Condition 
 PMAX.psia            10616.93:  Press Op, Max 
 PV  .cP                 50.00:  Mud PV 
 RUN .                     700:  Run Number 
 ROPA.m/hr               14.24:  ROP Avg 
 ROPN.m/hr               10.00:  ROP Min 
 ROPX.m/hr               32.00:  ROP Max 
 RPMA.rpm               120.90:  RPM Surface Avg 
 RPMN.rpm               120.00:  RPM Surface Min 
 RPMX.rpm               140.00:  RPM Surface Max 
 RRUN.                    0700:  Rig Run Number 
 RTIM.hr                  3.20:  Time Reaming 
 SAZI.deg               109.99:  Azm, Start 
 SDEP.m                5231.01:  Start Depth 
 SIDD.                      No:  Serv Intrp, DD 
 SINC.deg                73.72:  Inc, Start 
 SPPA.psig             3051.00:  SPP Avg 
 SPPN.psig             2950.00:  SPP Min 
 SPPX.psig             3250.00:  SPP Max 
 STIM.      08.00.00 05-Sep-20:  Start Time 
 SVCS.                 DD, MWD:  Services 
 SVER.                    9.20:  Sperry Version 
 TDAT.m                 559.00:  Tot Depth Attmp 
 TDDF.                      No:  Trip for DD 
 TDLG.m                 559.00:  Tot Depth Loggd 
 TFF .                      No:  Trip for Fail 
 TQAA.f-kp               26.49:  Torque Abs Avg 
 TQAN.f-kp               25.00:  Torque Abs Min 
 TQAX.f-kp               27.00:  Torque Abs Max 
 TRRT.°/30m               1.50:  Turn Rotating 
 MRT .                    HCIM:  Maximum Recorded Temperature 
 TTMX.degC               90.20:  Max Tool Temp 
 VS01.                90542671:  Virtual Str1 SN 
 VS02.                90545185:  Virtual Str2 SN 
 VS03.                90602015:  Virtual Str3 SN 
 VS04.                90515230:  Virtual Str4 SN 
 WBMN.klb                 5.00:  WOB Min 
 WOBA.klb                14.79:  WOB Avg 
 WOBX.klb                20.00:  WOB Max 
 YP  .lhf2               29.00:  Yield Point 
~Curve Information Block
#MNEM.UNIT                 API CODE     Curve Description
#---------               -----------    ---------------------------
 TIME.HHMMSS            00 000 000 000:  GT Time & Date
 GTDEPTH.m              00 000 000 000:  GT Depth
 GTPQH.psia             00 000 000 000:  GT HR Quartz Pressure
 GTTQ.degC              00 000 000 000:  GT Quartz Temperature
 GTTN.NONE              00 000 000 000:  GT Test Number
 GTET.sec               00 000 000 000:  GT Elapsed Test Time
 GTTVD.m                00 000 000 000:  GT True Vertical Depth
#Other Information
#
#WARRANTY: Halliburton will use its best efforts to furnish customers with 
#accurate information and interpretations that are part of, and incident to, the services 
#provided.  However, Halliburton cannot and does not warrant the accuracy 
#or correctness of such information and interpretations.  Under no circumstances should any 
#such information or interpretation be relied upon as the sole basis for any drilling, 
#completion, production, or financial decision or any procedure involving any risk to the 
#safety of any drilling venture, drilling rig or its crew or any other third party.  The 
#Customer has full responsibility for all drilling, completion and production operation.  
#Halliburton makes no representations or warranties, either expressed or 
#implied, including, but not limited to, the implied warranties of merchantability or fitness 
#for a particular purpose, with respect to the services rendered.  In no event will 
#Halliburton be liable for failure to obtain any particular results or for 
#any damages, including, but not limited to, indirect, special or consequential damages, 
#resulting from the use of any information or interpretation provided by Halliburton.
#
~A           TIME           GTDEPTH  GTPQH  GTTQ  GTTN   GTET   GTTVD  
# ...
   21:24:26.590.09-Sep-2020 5252.22  411.15 73.49 26.00 158.27 2542.36
   21:24:26.790.09-Sep-2020 5252.22  411.27 73.49 26.00 158.47 2542.36
   21:24:26.990.09-Sep-2020 5252.22  411.64 73.49 26.00 158.67 2542.36
   21:24:27.190.09-Sep-2020 5252.22  411.71 73.49 26.00 158.87 2542.36
   21:24:27.390.09-Sep-2020 5252.22  411.85 73.49 26.00 159.07 2542.36
   21:24:27.590.09-Sep-2020 5252.22  412.03 73.49 26.00 159.27 2542.36
   21:24:27.790.09-Sep-2020 5252.22  412.18 73.49 26.00 159.47 2542.36
   21:24:27.990.09-Sep-2020 5252.22  412.39 73.49 26.00 159.67 2542.36
   21:24:28.190.09-Sep-2020 5252.22  412.51 73.49 26.00 159.87 2542.36
   21:24:28.391.09-Sep-2020 5252.22  412.63 73.49 26.00 160.07 2542.36
   21:24:28.591.09-Sep-2020 5252.22  412.63 73.49 26.00 160.27 2542.36
   21:24:28.791.09-Sep-2020 5252.22  412.94 73.49 26.00 160.47 2542.36
   21:24:28.991.09-Sep-2020 5252.22  413.11 73.49 26.00 160.67 2542.36
   21:24:29.191.09-Sep-2020 5252.22  413.28 73.49 26.00 160.87 2542.36
   21:24:29.391.09-Sep-2020 5252.22  413.43 73.49 26.00 161.07 2542.36
   21:24:29.591.09-Sep-2020 5252.22  413.43 73.49 26.00 161.27 2542.36
   21:24:29.791.09-Sep-2020 5252.22  413.94 73.49 26.00 161.47 2542.36
   21:24:29.991.09-Sep-2020 5252.22  413.94 73.49 26.00 161.67 2542.36
   21:24:30.191.09-Sep-2020 5252.22  414.11 73.49 26.00 161.87 2542.36
   21:24:30.391.09-Sep-2020 5252.22  414.19 73.49 26.00 162.07 2542.36
   21:24:30.592.09-Sep-2020 5252.22  414.54 73.49 26.00 162.27 2542.36
   21:24:30.792.09-Sep-2020 5252.22  414.59 73.49 26.00 162.47 2542.36
   21:24:30.992.09-Sep-2020 5252.22  414.75 73.49 26.00 162.67 2542.36
   21:24:31.192.09-Sep-2020 5252.22  414.90 73.49 26.00 162.88 2542.36
   21:24:31.392.09-Sep-2020 5252.22  415.01 73.49 26.00 163.08 2542.36
   21:24:31.592.09-Sep-2020 5252.22  415.12 73.49 26.00 163.28 2542.36
   21:24:31.792.09-Sep-2020 5252.22  415.26 73.49 26.00 163.48 2542.36
   21:24:31.992.09-Sep-2020 5252.22  415.40 73.49 26.00 163.68 2542.36
   21:24:32.192.09-Sep-2020 5252.22  415.58 73.49 26.00 163.88 2542.36
   21:24:32.392.09-Sep-2020 5252.22  415.72 73.49 26.00 164.08 2542.36
   21:24:32.592.09-Sep-2020 5252.22  415.72 73.49 26.00 164.28 2542.36
   21:24:32.793.09-Sep-2020 5252.22  415.26 73.49 26.00 164.48 2542.36
   21:24:32.993.09-Sep-2020 5252.22  416.23 73.49 26.00 164.68 2542.36
   21:24:33.193.09-Sep-2020 5252.22  416.25 73.49 26.00 164.88 2542.36
   21:24:33.393.09-Sep-2020 5252.22  416.42 73.49 26.00 165.08 2542.36
   21:24:33.593.09-Sep-2020 5252.22  416.42 73.49 26.00 165.28 2542.36
   21:24:33.793.09-Sep-2020 5252.22  416.85 73.49 26.00 165.48 2542.36
   21:24:33.993.09-Sep-2020 5252.22  416.21 73.49 26.00 165.68 2542.36
   21:24:34.193.09-Sep-2020 5252.22  417.25 73.49 26.00 165.88 2542.36
   21:24:34.393.09-Sep-2020 5252.22  417.29 73.49 26.00 166.08 2542.36
   21:24:34.593.09-Sep-2020 5252.22  417.45 73.49 26.00 166.28 2542.36
   21:24:34.793.09-Sep-2020 5252.22  417.56 73.49 26.00 166.48 2542.36
   21:24:34.994.09-Sep-2020 5252.22  417.91 73.49 26.00 166.68 2542.36
   21:24:35.194.09-Sep-2020 5252.22  417.33 73.49 26.00 166.88 2542.36
   21:24:35.394.09-Sep-2020 5252.22  418.28 73.49 26.00 167.08 2542.36
   21:24:35.594.09-Sep-2020 5252.22  418.36 73.49 26.00 167.28 2542.36
   21:24:35.794.09-Sep-2020 5252.22  418.52 73.49 26.00 167.48 2542.36
   21:24:35.994.09-Sep-2020 5252.22  418.64 73.49 26.00 167.68 2542.36
   21:24:36.194.09-Sep-2020 5252.22  418.96 73.49 26.00 167.88 2542.36
   21:24:36.394.09-Sep-2020 5252.22  418.36 73.49 26.00 168.08 2542.36
   21:24:36.594.09-Sep-2020 5252.22  418.36 73.49 26.00 168.28 2542.36
   21:24:36.794.09-Sep-2020 5252.22  419.49 73.49 26.00 168.48 2542.36
   21:24:36.994.09-Sep-2020 5252.22  419.64 73.49 26.00 168.68 2542.36
   21:24:37.195.09-Sep-2020 5252.22  419.09 73.49 26.00 168.88 2542.36
   21:24:37.395.09-Sep-2020 5252.22  420.37 73.49 26.00 169.08 2542.36
   21:24:37.595.09-Sep-2020 5252.22  420.37 73.49 26.00 169.28 2542.36
   21:24:37.795.09-Sep-2020 5252.22  420.53 73.49 26.00 169.48 2542.36
   21:24:37.995.09-Sep-2020 5252.22  420.67 73.49 26.00 169.68 2542.36
   21:24:38.195.09-Sep-2020 5252.22  421.03 73.49 26.00 169.88 2542.36
   21:24:38.395.09-Sep-2020 5252.22  421.13 73.49 26.00 170.08 2542.36
   21:24:38.595.09-Sep-2020 5252.22  421.28 73.49 26.00 170.28 2542.36
   21:24:38.795.09-Sep-2020 5252.22  421.43 73.49 26.00 170.48 2542.36
   21:24:38.995.09-Sep-2020 5252.22  421.58 73.49 26.00 170.68 2542.36
   21:24:39.196.09-Sep-2020 5252.22  421.76 73.49 26.00 170.88 2542.36
   21:24:39.396.09-Sep-2020 5252.22  421.90 73.49 26.00 171.08 2542.36
   21:24:39.596.09-Sep-2020 5252.22  422.00 73.49 26.00 171.28 2542.36
   21:24:39.796.09-Sep-2020 5252.22  422.13 73.49 26.00 171.48 2542.36
   21:24:39.996.09-Sep-2020 5252.22  422.28 73.49 26.00 171.68 2542.36
   21:24:40.196.09-Sep-2020 5252.22  422.43 73.49 26.00 171.88 2542.36
   21:24:40.396.09-Sep-2020 5252.22  422.60 73.49 26.00 172.08 2542.36
   21:24:40.596.09-Sep-2020 5252.22  422.60 73.49 26.00 172.28 2542.36
   21:24:40.796.09-Sep-2020 5252.22  422.17 73.49 26.00 172.48 2542.36
   21:24:40.996.09-Sep-2020 5252.22  423.24 73.49 26.00 172.68 2542.36
   21:24:41.196.09-Sep-2020 5252.22  423.22 73.49 26.00 172.88 2542.36
   21:24:41.397.09-Sep-2020 5252.22  423.37 73.49 26.00 173.08 2542.36
   21:24:41.597.09-Sep-2020 5252.22  423.37 73.49 26.00 173.28 2542.36
   21:24:41.797.09-Sep-2020 5252.22  423.80 73.49 26.00 173.48 2542.36
   21:24:41.997.09-Sep-2020 5252.22  423.84 73.49 26.00 173.68 2542.36
   21:24:42.197.09-Sep-2020 5252.22  423.97 73.49 26.00 173.88 2542.36
   21:24:42.397.09-Sep-2020 5252.22  424.12 73.49 26.00 174.08 2542.36
   21:24:42.597.09-Sep-2020 5252.22  424.25 73.49 26.00 174.28 2542.36
   21:24:42.797.09-Sep-2020 5252.22  424.36 73.49 26.00 174.48 2542.36
   21:24:42.997.09-Sep-2020 5252.22  424.47 73.49 26.00 174.68 2542.36
   21:24:43.197.09-Sep-2020 5252.22  424.60 73.49 26.00 174.88 2542.36
   21:24:43.397.09-Sep-2020 5252.22  424.76 73.49 26.00 175.08 2542.36
   21:24:43.598.09-Sep-2020 5252.22  424.91 73.49 26.00 175.28 2542.36
   21:24:43.798.09-Sep-2020 5252.22  425.05 73.49 26.00 175.48 2542.36
   21:24:43.998.09-Sep-2020 5252.22  424.49 73.49 26.00 175.68 2542.36
   21:24:44.198.09-Sep-2020 5252.22  425.41 73.49 26.00 175.88 2542.36
   21:24:44.398.09-Sep-2020 5252.22  425.41 73.49 26.00 176.08 2542.36
   21:24:44.598.09-Sep-2020 5252.22  425.41 73.49 26.00 176.28 2542.36
   21:24:44.798.09-Sep-2020 5252.22  425.73 73.49 26.00 176.48 2542.36
   21:24:44.998.09-Sep-2020 5252.22  426.06 73.49 26.00 176.68 2542.36
   21:24:45.198.09-Sep-2020 5252.22  425.37 73.49 26.00 176.88 2542.36
   21:24:45.398.09-Sep-2020 5252.22  425.10 73.49 26.00 177.08 2542.36
   21:24:45.598.09-Sep-2020 5252.22  425.10 73.49 26.00 177.28 2542.36
   21:24:45.799.09-Sep-2020 5252.22  408.63 73.49 26.00 177.48 2542.36
   21:24:45.999.09-Sep-2020 5252.22  402.53 73.49 26.00 177.68 2542.36
   21:24:46.199.09-Sep-2020 5252.22  376.67 73.49 26.00 177.88 2542.36
   21:24:46.399.09-Sep-2020 5252.22  316.45 73.49 26.00 178.08 2542.36
   21:24:46.599.09-Sep-2020 5252.22  307.74 73.49 26.00 178.28 2542.36
   21:24:46.799.09-Sep-2020 5252.22  298.22 73.49 26.00 178.48 2542.36
   21:24:46.999.09-Sep-2020 5252.22  284.47 73.49 26.00 178.68 2542.36
   21:24:47.199.09-Sep-2020 5252.22  271.28 73.49 26.00 178.88 2542.36
   21:24:47.399.09-Sep-2020 5252.22  256.96 73.49 26.00 179.08 2542.36
   21:24:47.599.09-Sep-2020 5252.22  251.92 73.49 26.00 179.28 2542.36
   21:24:47.799.09-Sep-2020 5252.22  250.79 73.49 26.00 179.48 2542.36
   21:24:48.000.09-Sep-2020 5252.22  248.38 73.49 26.00 179.68 2542.36
   21:24:48.200.09-Sep-2020 5252.22  244.15 73.49 26.00 179.88 2542.36
   21:24:48.400.09-Sep-2020 5252.22  236.23 73.49 26.00 180.08 2542.36
   21:24:48.600.09-Sep-2020 5252.22  232.83 73.49 26.00 180.28 2542.36
   21:24:48.800.09-Sep-2020 5252.22  228.64 73.49 26.00 180.48 2542.36
   21:24:49.000.09-Sep-2020 5252.22  225.48 73.49 26.00 180.68 2542.36
