~Version Information
 VERS.                  2.0:   CWLS log ASCII Standard -VERSION 2.0
 WRAP.                   NO:   One line per depth step
~Well Information Block
#MNEM.UNIT     VALUE/NAME     DESCRIPTION
#---------     -----------    ---------------------------
 STRT.S             05:36:14 09-Sep-20: START TIME 05:36:14 09-Sep-20
 STOP.S             05:43:10 09-Sep-20: STOP TIME  05:43:10 09-Sep-20
 STEP.S                   0.00: STEP TIME
 NULL.                 -999.25: NULL VALUE
 MDS .        Operator Entered:  MAG DATA SOURCE
 PDAT.          Mean Sea Level:  PERMANENT DATUM
 DCON.         Sperry Drilling:  DIRECTNL CONTR
 RIG .              West Azeri:  RIG NAME
 WELL.           C40 (Slot 20):  WELL NAME
 SRVC.     Turan Drilling Engineering:  CONTRACTOR
 FLD .                     ACG:  FIELD NAME
 CTRY.              Azerbaijan:  COUNTRY NAME
 PROV.                    Baku:  PROVINCE
 STAT.                    Baku:  STATE NAME
 REGN.                   EESSA:  REGION
 BASE.              Azerbaijan:  LOGGING EQUIPMENT BASE LOCATION
 COMP.     BP Exploration (Caspian Sea) Ltd:  COMPANY
 WTYP.                Deviated:  WELL TYPE
 SON .        AZ-XX-0906344804:  JOB NUMBER
 FTOP.          Formation Tops:  FORM TOPS DESC
 ILTD.               Lithology:  INTERP LTH DESC
 SVYD.                  Survey:  SURVEY DESC
 DMOD.             Drill Model:  DRILL MOD DESC
 HPTY.       Minimum Curvature:  HOLE POS TYPE
 NREF.                    Grid:  NORTH REFERENCE
 SPUD.               01-Jan-20:  SPUD DATE
 DATE.      00.59.44 15-Sep-20:  END TIME
 STIM.      12.00.00 12-Jun-20:  START TIME
 DMF .             Drill Floor:  DRILL MEAS FROM
 DFST.                        :  DIST FSL TEXT
 DFWT.                        :  DIST FWL TEXT
 API .                        :  API NUMBER
 CNTY.                        :  COUNTY
 UWI .                        :  UNIQUE WELL IDENTIFIER
 LOC .                        :  LOCATION
 LMF .             Drill Floor:  LOG MEASURED FROM
 VSNS.m                   2.88:  VERT SEC N/S
 VSEW.m                  -3.84:  VERT SEC E/W
 AGAP.m                  43.42:  AIR GAP
 APD .m                  43.42:  DEPTH ABOVE PD
 WDMS.m                 118.27:  WD ELEV
 EGL .m                   0.00:  GROUND ELEVATION
 EPD .m                   0.00:  ELEVATION
 AZTC.deg                 6.23:  AZM TOTAL CORR
 GRDC.deg                 0.20:  GRID CORRECTION
 MDEC.deg                 6.43:  MAGNETIC DECL
 MDIP.deg                59.49:  MAGNETIC DIP
 MFLD.nT              50277.00:  MAGNETIC FIELD
 GVFD.g                   1.00:  GRAVITY FIELD
 VSDR.deg               173.20:  VERT SEC DIRECT
 TDD .m                5790.01:  TOTAL DEPTH (DRILLER)
 SDEP.m                5231.01:  START DEPTH
 DFSL.m                   0.00:  DISTANCE FSL
 DFWL.m                   0.00:  DISTANCE FWL
 UTMY.m             4435808.83:  UTM Y
 UTMX.m              526266.40:  UTM X
 WHEW.m                  -3.84:  WELL HEAD E/W
 WHNS.m                   2.88:  WELL HEAD N/S
 LONG.deg                51.31:  LONGITUDE
 LATI.deg                40.06:  LATITUDE
 TVDS.m                  43.42:  TVDSS CORRECTN
 DEP .m                 430.08:  DEPTH
 EKB .m                  43.42:  KB ELEVATION
 EDF .m                  43.42:  DF ELEVATION
 TDL .m                 559.00:  TOTAL DEPTH (LOGGER)
 MAGU.                 1849381:  MAGUTM CHECKSUM
 VSC .                       0:  VS TO CLOSURE
~Parameter Information Block
#MNEM.UNIT       Value        Description
#---------     -----------    ---------------------------
 AV  .mps                 4.87:  Ann Velocity 
 AVMX.mps                 7.08:  Max Ann Veloc 
 AZIF.deg               108.87:  Azm, Final 
 BHAT.                  Rotary:  BHA Type 
 BROT.°/30m               0.35:  Build Rotating 
 BS  .in                  8.50:  Bit Size 
 BSZ .in                  8.50:  Bit Size 
 BTPL.psig              360.00:  Bit Press Loss 
 CABU.                     Yes:  Customer Abuse 
 COMM.                     ”£|:  Run Comments 1 
 TCS .hr                106.24:  Time Ciculation Ended 
 CV  .mps                 1.77:  Crit Velocity 
 CVMX.mps                 2.03:  Max Crit Veloc 
 DD1 .         Aykhan Agagulov:  Direct Drillr 1 
 DD2 .            Nonso Okofor:  Direct Drillr 2 
 DDSV.               Geo-Pilot:  DD Service 
 DEFF.%                  98.00:  % Det Eff 
 DLRX.°/30m               0.50:  Dogleg Rot Max 
 DLSO.°/30m               0.40:  Dogleg Oriented 
 DLSX.°/30m               0.94:  Dogleg Str Max 
 DRET.      20.30.00 08-Sep-20:  Drill End Time 
 DRST.      22.15.00 06-Sep-20:  Drill Start Tim 
 DTIM.hr                 31.31:  Time Drilling 
 EDEP.m                5790.01:  End Depth 
 ENG1.           Amrah Tahirov:  Engineer 1 
 ENG2.         Dair Mahammadov:  Engineer 2 
 ENG3.           Emil Huseynov:  Engineer 3 
 ETIM.      04.01.04 12-Sep-20:  End Time 
 FLOI.gpm               450.00:  Flow In 
 FLON.gpm               450.00:  Flow In Min 
 FLOS.cptm                2.00:  Fluid Loss 
 FLOX.gpm               450.00:  Flow In Max 
 FTRO.       Formation Presure:  FTWD Run Obj 
 HFLO.                      No:  High Flow 
 HPRE.                      No:  High Pressure 
 HTEM.                      No:  High Temp 
 HYDO.m                   1.80:  Hydro Offset 
 IFIN.deg                72.03:  Inc, Final 
 IMAX.deg                73.72:  Inc Max 
 IMIN.deg                70.94:  Inc Min 
 IMND.m                5508.52:  Inc Min Depth 
 IMXD.m                5253.60:  Inc Max Depth 
 JARR.                      No:  Jarring 
 LETM.      20.30.00 08-Sep-20:  Log End Time 
 LOST.hr                     0:  Lost Rig Time 
 LSTM.      22.15.00 06-Sep-20:  Log Start Time 
 MDCL.ppm             36000.00:  Mud Chlorides 
 MDES.     Inversion Oil/Synthetic:  Mud Desc 
 DFD .sg                  1.44:  Mud Density 
 MDMN.sg                  1.44:  Dens Mud Min 
 MDMX.sg                  1.57:  Dens Mud Max 
 MOIL.                      70:  Run Mud Oil % 
 MOWR.                   70:30:  Run Mud OWR 
 MSND.                       0:  Run Mud Sand % 
 MSOL.                      21:  Run Mud Solids% 
 DFV .spqt               68.00:  Mud Viscosity 
 MWOD.in                  6.75:  MWD Tool OD 
 MWSI.                     Yes:  Serv Intrp, MWD 
 OTIM.hr                174.84:  Time Operating 
 PCON.           Look Like New:  Pad Condition 
 PMAX.psia            10616.93:  Press Op, Max 
 PV  .cP                 50.00:  Mud PV 
 RUN .                     700:  Run Number 
 ROPA.m/hr               14.24:  ROP Avg 
 ROPN.m/hr               10.00:  ROP Min 
 ROPX.m/hr               32.00:  ROP Max 
 RPMA.rpm               120.90:  RPM Surface Avg 
 RPMN.rpm               120.00:  RPM Surface Min 
 RPMX.rpm               140.00:  RPM Surface Max 
 RRUN.                    0700:  Rig Run Number 
 RTIM.hr                  3.20:  Time Reaming 
 SAZI.deg               109.99:  Azm, Start 
 SDEP.m                5231.01:  Start Depth 
 SIDD.                      No:  Serv Intrp, DD 
 SINC.deg                73.72:  Inc, Start 
 SPPA.psig             3051.00:  SPP Avg 
 SPPN.psig             2950.00:  SPP Min 
 SPPX.psig             3250.00:  SPP Max 
 STIM.      08.00.00 05-Sep-20:  Start Time 
 SVCS.                 DD, MWD:  Services 
 SVER.                    9.20:  Sperry Version 
 TDAT.m                 559.00:  Tot Depth Attmp 
 TDDF.                      No:  Trip for DD 
 TDLG.m                 559.00:  Tot Depth Loggd 
 TFF .                      No:  Trip for Fail 
 TQAA.f-kp               26.49:  Torque Abs Avg 
 TQAN.f-kp               25.00:  Torque Abs Min 
 TQAX.f-kp               27.00:  Torque Abs Max 
 TRRT.°/30m               1.50:  Turn Rotating 
 MRT .                    HCIM:  Maximum Recorded Temperature 
 TTMX.degC               90.20:  Max Tool Temp 
 VS01.                90542671:  Virtual Str1 SN 
 VS02.                90545185:  Virtual Str2 SN 
 VS03.                90602015:  Virtual Str3 SN 
 VS04.                90515230:  Virtual Str4 SN 
 WBMN.klb                 5.00:  WOB Min 
 WOBA.klb                14.79:  WOB Avg 
 WOBX.klb                20.00:  WOB Max 
 YP  .lhf2               29.00:  Yield Point 
~Curve Information Block
#MNEM.UNIT                 API CODE     Curve Description
#---------               -----------    ---------------------------
 TIME.HHMMSS            00 000 000 000:  GT Time & Date
 GTDEPTH.m              00 000 000 000:  GT Depth
 GTPQH.psia             00 000 000 000:  GT HR Quartz Pressure
 GTTQ.degC              00 000 000 000:  GT Quartz Temperature
 GTTN.NONE              00 000 000 000:  GT Test Number
 GTET.sec               00 000 000 000:  GT Elapsed Test Time
 GTTVD.m                00 000 000 000:  GT True Vertical Depth
#Other Information
#
#WARRANTY: Halliburton will use its best efforts to furnish customers with 
#accurate information and interpretations that are part of, and incident to, the services 
#provided.  However, Halliburton cannot and does not warrant the accuracy 
#or correctness of such information and interpretations.  Under no circumstances should any 
#such information or interpretation be relied upon as the sole basis for any drilling, 
#completion, production, or financial decision or any procedure involving any risk to the 
#safety of any drilling venture, drilling rig or its crew or any other third party.  The 
#Customer has full responsibility for all drilling, completion and production operation.  
#Halliburton makes no representations or warranties, either expressed or 
#implied, including, but not limited to, the implied warranties of merchantability or fitness 
#for a particular purpose, with respect to the services rendered.  In no event will 
#Halliburton be liable for failure to obtain any particular results or for 
#any damages, including, but not limited to, indirect, special or consequential damages, 
#resulting from the use of any information or interpretation provided by Halliburton.
#
~A           TIME           GTDEPTH  GTPQH  GTTQ  GTTN  GTET   GTTVD  
# ...
   05:40:04.073.09-Sep-2020 5634.01 3689.28 79.93 1.00 229.99 2660.75
   05:40:04.273.09-Sep-2020 5634.01 3689.32 79.93 1.00 230.19 2660.75
   05:40:04.473.09-Sep-2020 5634.01 3689.32 79.93 1.00 230.39 2660.75
   05:40:04.673.09-Sep-2020 5634.01 3689.32 79.93 1.00 230.59 2660.75
   05:40:04.873.09-Sep-2020 5634.01 3689.31 79.93 1.00 230.79 2660.75
   05:40:05.073.09-Sep-2020 5634.01 3689.36 79.93 1.00 230.99 2660.75
   05:40:05.273.09-Sep-2020 5634.01 3689.36 79.93 1.00 231.19 2660.75
   05:40:05.473.09-Sep-2020 5634.01 3689.34 79.93 1.00 231.39 2660.75
   05:40:05.673.09-Sep-2020 5634.01 3689.32 79.93 1.00 231.59 2660.75
   05:40:05.873.09-Sep-2020 5634.01 3689.11 79.93 1.00 231.79 2660.75
   05:40:06.073.09-Sep-2020 5634.01 3689.54 79.93 1.00 231.99 2660.75
   05:40:06.273.09-Sep-2020 5634.01 3689.54 79.93 1.00 232.19 2660.75
   05:40:06.473.09-Sep-2020 5634.01 3689.28 79.93 1.00 232.39 2660.75
   05:40:06.673.09-Sep-2020 5634.01 3689.32 79.93 1.00 232.59 2660.75
   05:40:06.873.09-Sep-2020 5634.01 3689.32 79.93 1.00 232.79 2660.75
   05:40:07.073.09-Sep-2020 5634.01 3689.32 79.93 1.00 232.99 2660.75
   05:40:07.273.09-Sep-2020 5634.01 3689.32 79.93 1.00 233.19 2660.75
   05:40:07.473.09-Sep-2020 5634.01 3689.32 79.93 1.00 233.39 2660.75
   05:40:07.673.09-Sep-2020 5634.01 3689.32 79.93 1.00 233.59 2660.75
   05:40:07.873.09-Sep-2020 5634.01 3689.33 79.93 1.00 233.79 2660.75
   05:40:08.073.09-Sep-2020 5634.01 3689.32 79.93 1.00 233.99 2660.75
   05:40:08.273.09-Sep-2020 5634.01 3689.32 79.93 1.00 234.19 2660.75
   05:40:08.473.09-Sep-2020 5634.01 3689.32 79.93 1.00 234.39 2660.75
   05:40:08.673.09-Sep-2020 5634.01 3689.32 79.93 1.00 234.59 2660.75
   05:40:08.873.09-Sep-2020 5634.01 3689.32 79.93 1.00 234.79 2660.75
   05:40:09.073.09-Sep-2020 5634.01 3689.33 79.93 1.00 234.99 2660.75
   05:40:09.273.09-Sep-2020 5634.01 3689.33 79.93 1.00 235.19 2660.75
   05:40:09.473.09-Sep-2020 5634.01 3689.33 79.93 1.00 235.39 2660.75
   05:40:09.673.09-Sep-2020 5634.01 3689.33 79.93 1.00 235.59 2660.75
   05:40:09.873.09-Sep-2020 5634.01 3689.34 79.93 1.00 235.79 2660.75
   05:40:10.073.09-Sep-2020 5634.01 3689.33 79.93 1.00 235.99 2660.75
   05:40:10.273.09-Sep-2020 5634.01 3689.33 79.93 1.00 236.19 2660.75
   05:40:10.473.09-Sep-2020 5634.01 3689.29 79.93 1.00 236.39 2660.75
   05:40:10.673.09-Sep-2020 5634.01 3689.35 79.93 1.00 236.59 2660.75
   05:40:10.873.09-Sep-2020 5634.01 3689.32 79.93 1.00 236.79 2660.75
   05:40:11.073.09-Sep-2020 5634.01 3689.32 79.93 1.00 236.99 2660.75
   05:40:11.273.09-Sep-2020 5634.01 3689.32 79.93 1.00 237.19 2660.75
   05:40:11.473.09-Sep-2020 5634.01 3689.32 79.93 1.00 237.39 2660.75
   05:40:11.673.09-Sep-2020 5634.01 3689.33 79.93 1.00 237.59 2660.75
   05:40:11.873.09-Sep-2020 5634.01 3689.31 79.93 1.00 237.79 2660.75
   05:40:12.073.09-Sep-2020 5634.01 3689.32 79.93 1.00 237.99 2660.75
   05:40:12.273.09-Sep-2020 5634.01 3689.32 79.93 1.00 238.19 2660.75
   05:40:12.473.09-Sep-2020 5634.01 3689.32 79.93 1.00 238.39 2660.75
   05:40:12.673.09-Sep-2020 5634.01 3689.33 79.93 1.00 238.59 2660.75
   05:40:12.873.09-Sep-2020 5634.01 3689.32 79.93 1.00 238.79 2660.75
   05:40:13.073.09-Sep-2020 5634.01 3689.29 79.93 1.00 238.99 2660.75
   05:40:13.273.09-Sep-2020 5634.01 3689.29 79.93 1.00 239.19 2660.75
   05:40:13.473.09-Sep-2020 5634.01 3689.33 79.93 1.00 239.39 2660.75
   05:40:13.673.09-Sep-2020 5634.01 3689.34 79.93 1.00 239.59 2660.75
   05:40:13.873.09-Sep-2020 5634.01 3689.34 79.93 1.00 239.79 2660.75
   05:40:14.073.09-Sep-2020 5634.01 3689.11 79.93 1.00 239.99 2660.75
   05:40:14.273.09-Sep-2020 5634.01 3689.11 79.93 1.00 240.19 2660.75
   05:40:14.473.09-Sep-2020 5634.01 3689.36 79.93 1.00 240.39 2660.75
   05:40:14.673.09-Sep-2020 5634.01 3689.29 79.93 1.00 240.59 2660.75
   05:40:14.873.09-Sep-2020 5634.01 3689.32 79.93 1.00 240.79 2660.75
   05:40:15.073.09-Sep-2020 5634.01 3689.33 79.93 1.00 240.99 2660.75
   05:40:15.273.09-Sep-2020 5634.01 3689.51 79.93 1.00 241.19 2660.75
   05:40:15.473.09-Sep-2020 5634.01 3689.14 79.93 1.00 241.39 2660.75
   05:40:15.673.09-Sep-2020 5634.01 3689.36 79.93 1.00 241.59 2660.75
   05:40:15.873.09-Sep-2020 5634.01 3689.29 79.93 1.00 241.79 2660.75
   05:40:16.073.09-Sep-2020 5634.01 3689.36 79.93 1.00 241.99 2660.75
   05:40:16.273.09-Sep-2020 5634.01 3689.36 79.93 1.00 242.19 2660.75
   05:40:16.473.09-Sep-2020 5634.01 3689.32 79.93 1.00 242.39 2660.75
   05:40:16.673.09-Sep-2020 5634.01 3689.34 79.93 1.00 242.59 2660.75
   05:40:16.873.09-Sep-2020 5634.01 3689.34 79.93 1.00 242.79 2660.75
   05:40:17.073.09-Sep-2020 5634.01 3689.31 79.93 1.00 242.99 2660.75
   05:40:17.273.09-Sep-2020 5634.01 3689.31 79.93 1.00 243.19 2660.75
   05:40:17.473.09-Sep-2020 5634.01 3689.36 79.93 1.00 243.39 2660.75
   05:40:17.673.09-Sep-2020 5634.01 3689.51 79.93 1.00 243.59 2660.75
   05:40:17.873.09-Sep-2020 5634.01 3689.15 79.93 1.00 243.79 2660.75
   05:40:18.073.09-Sep-2020 5634.01 3689.35 79.93 1.00 243.99 2660.75
   05:40:18.273.09-Sep-2020 5634.01 3689.35 79.93 1.00 244.19 2660.75
   05:40:18.473.09-Sep-2020 5634.01 3689.36 79.93 1.00 244.39 2660.75
   05:40:18.673.09-Sep-2020 5634.01 3689.31 79.93 1.00 244.59 2660.75
   05:40:18.873.09-Sep-2020 5634.01 3689.32 79.93 1.00 244.79 2660.75
   05:40:19.073.09-Sep-2020 5634.01 3689.33 79.93 1.00 244.99 2660.75
   05:40:19.273.09-Sep-2020 5634.01 3689.33 79.93 1.00 245.19 2660.75
   05:40:19.473.09-Sep-2020 5634.01 3689.32 79.93 1.00 245.39 2660.75
   05:40:19.673.09-Sep-2020 5634.01 3689.33 79.93 1.00 245.59 2660.75
   05:40:19.873.09-Sep-2020 5634.01 3689.32 79.93 1.00 245.79 2660.75
   05:40:20.073.09-Sep-2020 5634.01 3689.32 79.93 1.00 245.99 2660.75
   05:40:20.273.09-Sep-2020 5634.01 3689.32 79.93 1.00 246.19 2660.75
   05:40:20.473.09-Sep-2020 5634.01 3689.32 79.93 1.00 246.39 2660.75
   05:40:20.673.09-Sep-2020 5634.01 3689.32 79.93 1.00 246.59 2660.75
   05:40:20.873.09-Sep-2020 5634.01 3689.32 79.93 1.00 246.79 2660.75
   05:40:21.073.09-Sep-2020 5634.01 3689.33 79.93 1.00 246.99 2660.75
   05:40:21.273.09-Sep-2020 5634.01 3689.33 79.93 1.00 247.19 2660.75
   05:40:21.472.09-Sep-2020 5634.01 3689.31 79.93 1.00 247.39 2660.75
   05:40:21.672.09-Sep-2020 5634.01 3689.36 79.93 1.00 247.59 2660.75
   05:40:21.872.09-Sep-2020 5634.01 3689.33 79.93 1.00 247.79 2660.75
   05:40:22.072.09-Sep-2020 5634.01 3689.33 79.93 1.00 247.99 2660.75
   05:40:22.272.09-Sep-2020 5634.01 3689.33 79.93 1.00 248.19 2660.75
   05:40:22.472.09-Sep-2020 5634.01 3689.31 79.93 1.00 248.39 2660.75
   05:40:22.672.09-Sep-2020 5634.01 3689.33 79.93 1.00 248.59 2660.75
   05:40:22.872.09-Sep-2020 5634.01 3689.33 79.93 1.00 248.79 2660.75
   05:40:23.072.09-Sep-2020 5634.01 3689.33 79.93 1.00 248.99 2660.75
   05:40:23.272.09-Sep-2020 5634.01 3689.33 79.93 1.00 249.19 2660.75
   05:40:23.472.09-Sep-2020 5634.01 3689.33 79.93 1.00 249.39 2660.75
   05:40:23.672.09-Sep-2020 5634.01 3689.32 79.93 1.00 249.59 2660.75
   05:40:23.872.09-Sep-2020 5634.01 3689.33 79.93 1.00 249.79 2660.75
   05:40:24.072.09-Sep-2020 5634.01 3689.33 79.93 1.00 249.99 2660.75
   05:40:24.272.09-Sep-2020 5634.01 3689.33 79.93 1.00 250.19 2660.75
   05:40:24.472.09-Sep-2020 5634.01 3689.33 79.93 1.00 250.39 2660.75
   05:40:24.672.09-Sep-2020 5634.01 3689.32 79.93 1.00 250.59 2660.75
   05:40:24.872.09-Sep-2020 5634.01 3689.37 79.93 1.00 250.79 2660.75
   05:40:25.072.09-Sep-2020 5634.01 3689.36 79.93 1.00 250.99 2660.75
   05:40:25.272.09-Sep-2020 5634.01 3689.36 79.93 1.00 251.19 2660.75
   05:40:25.472.09-Sep-2020 5634.01 3689.31 79.93 1.00 251.39 2660.75
   05:40:25.672.09-Sep-2020 5634.01 3689.35 79.93 1.00 251.59 2660.75
   05:40:25.872.09-Sep-2020 5634.01 3689.52 79.93 1.00 251.79 2660.75
   05:40:26.072.09-Sep-2020 5634.01 3689.14 79.93 1.00 251.99 2660.75
   05:40:26.272.09-Sep-2020 5634.01 3689.14 79.93 1.00 252.19 2660.75
   05:40:26.472.09-Sep-2020 5634.01 3689.32 79.93 1.00 252.39 2660.75
   05:40:26.672.09-Sep-2020 5634.01 3689.36 79.93 1.00 252.59 2660.75
   05:40:26.872.09-Sep-2020 5634.01 3689.20 79.93 1.00 252.79 2660.75
