~Version Information
 VERS.                  2.0:   CWLS log ASCII Standard -VERSION 2.0
 WRAP.                   NO:   One line per depth step
~Well Information Block
#MNEM.UNIT     VALUE/NAME     DESCRIPTION
#---------     -----------    ---------------------------
 STRT.S             09:56:49 09-Sep-20: START TIME 09:56:49 09-Sep-20
 STOP.S             10:03:50 09-Sep-20: STOP TIME  10:03:50 09-Sep-20
 STEP.S                   0.00: STEP TIME
 NULL.                 -999.25: NULL VALUE
 MDS .        Operator Entered:  MAG DATA SOURCE
 PDAT.          Mean Sea Level:  PERMANENT DATUM
 DCON.         Sperry Drilling:  DIRECTNL CONTR
 RIG .              West Azeri:  RIG NAME
 WELL.           C40 (Slot 20):  WELL NAME
 SRVC.     Turan Drilling Engineering:  CONTRACTOR
 FLD .                     ACG:  FIELD NAME
 CTRY.              Azerbaijan:  COUNTRY NAME
 PROV.                    Baku:  PROVINCE
 STAT.                    Baku:  STATE NAME
 REGN.                   EESSA:  REGION
 BASE.              Azerbaijan:  LOGGING EQUIPMENT BASE LOCATION
 COMP.     BP Exploration (Caspian Sea) Ltd:  COMPANY
 WTYP.                Deviated:  WELL TYPE
 SON .        AZ-XX-0906344804:  JOB NUMBER
 FTOP.          Formation Tops:  FORM TOPS DESC
 ILTD.               Lithology:  INTERP LTH DESC
 SVYD.                  Survey:  SURVEY DESC
 DMOD.             Drill Model:  DRILL MOD DESC
 HPTY.       Minimum Curvature:  HOLE POS TYPE
 NREF.                    Grid:  NORTH REFERENCE
 SPUD.               01-Jan-20:  SPUD DATE
 DATE.      00.59.44 15-Sep-20:  END TIME
 STIM.      12.00.00 12-Jun-20:  START TIME
 DMF .             Drill Floor:  DRILL MEAS FROM
 DFST.                        :  DIST FSL TEXT
 DFWT.                        :  DIST FWL TEXT
 API .                        :  API NUMBER
 CNTY.                        :  COUNTY
 UWI .                        :  UNIQUE WELL IDENTIFIER
 LOC .                        :  LOCATION
 LMF .             Drill Floor:  LOG MEASURED FROM
 VSNS.m                   2.88:  VERT SEC N/S
 VSEW.m                  -3.84:  VERT SEC E/W
 AGAP.m                  43.42:  AIR GAP
 APD .m                  43.42:  DEPTH ABOVE PD
 WDMS.m                 118.27:  WD ELEV
 EGL .m                   0.00:  GROUND ELEVATION
 EPD .m                   0.00:  ELEVATION
 AZTC.deg                 6.23:  AZM TOTAL CORR
 GRDC.deg                 0.20:  GRID CORRECTION
 MDEC.deg                 6.43:  MAGNETIC DECL
 MDIP.deg                59.49:  MAGNETIC DIP
 MFLD.nT              50277.00:  MAGNETIC FIELD
 GVFD.g                   1.00:  GRAVITY FIELD
 VSDR.deg               173.20:  VERT SEC DIRECT
 TDD .m                5790.01:  TOTAL DEPTH (DRILLER)
 SDEP.m                5231.01:  START DEPTH
 DFSL.m                   0.00:  DISTANCE FSL
 DFWL.m                   0.00:  DISTANCE FWL
 UTMY.m             4435808.83:  UTM Y
 UTMX.m              526266.40:  UTM X
 WHEW.m                  -3.84:  WELL HEAD E/W
 WHNS.m                   2.88:  WELL HEAD N/S
 LONG.deg                51.31:  LONGITUDE
 LATI.deg                40.06:  LATITUDE
 TVDS.m                  43.42:  TVDSS CORRECTN
 DEP .m                 430.08:  DEPTH
 EKB .m                  43.42:  KB ELEVATION
 EDF .m                  43.42:  DF ELEVATION
 TDL .m                 559.00:  TOTAL DEPTH (LOGGER)
 MAGU.                 1849381:  MAGUTM CHECKSUM
 VSC .                       0:  VS TO CLOSURE
~Parameter Information Block
#MNEM.UNIT       Value        Description
#---------     -----------    ---------------------------
 AV  .mps                 4.87:  Ann Velocity 
 AVMX.mps                 7.08:  Max Ann Veloc 
 AZIF.deg               108.87:  Azm, Final 
 BHAT.                  Rotary:  BHA Type 
 BROT.°/30m               0.35:  Build Rotating 
 BS  .in                  8.50:  Bit Size 
 BSZ .in                  8.50:  Bit Size 
 BTPL.psig              360.00:  Bit Press Loss 
 CABU.                     Yes:  Customer Abuse 
 COMM.                     ÜQ{:  Run Comments 1 
 TCS .hr                106.24:  Time Ciculation Ended 
 CV  .mps                 1.77:  Crit Velocity 
 CVMX.mps                 2.03:  Max Crit Veloc 
 DD1 .         Aykhan Agagulov:  Direct Drillr 1 
 DD2 .            Nonso Okofor:  Direct Drillr 2 
 DDSV.               Geo-Pilot:  DD Service 
 DEFF.%                  98.00:  % Det Eff 
 DLRX.°/30m               0.50:  Dogleg Rot Max 
 DLSO.°/30m               0.40:  Dogleg Oriented 
 DLSX.°/30m               0.94:  Dogleg Str Max 
 DRET.      20.30.00 08-Sep-20:  Drill End Time 
 DRST.      22.15.00 06-Sep-20:  Drill Start Tim 
 DTIM.hr                 31.31:  Time Drilling 
 EDEP.m                5790.01:  End Depth 
 ENG1.           Amrah Tahirov:  Engineer 1 
 ENG2.         Dair Mahammadov:  Engineer 2 
 ENG3.           Emil Huseynov:  Engineer 3 
 ETIM.      04.01.04 12-Sep-20:  End Time 
 FLOI.gpm               450.00:  Flow In 
 FLON.gpm               450.00:  Flow In Min 
 FLOS.cptm                2.00:  Fluid Loss 
 FLOX.gpm               450.00:  Flow In Max 
 FTRO.       Formation Presure:  FTWD Run Obj 
 HFLO.                      No:  High Flow 
 HPRE.                      No:  High Pressure 
 HTEM.                      No:  High Temp 
 HYDO.m                   1.80:  Hydro Offset 
 IFIN.deg                72.03:  Inc, Final 
 IMAX.deg                73.72:  Inc Max 
 IMIN.deg                70.94:  Inc Min 
 IMND.m                5508.52:  Inc Min Depth 
 IMXD.m                5253.60:  Inc Max Depth 
 JARR.                      No:  Jarring 
 LETM.      20.30.00 08-Sep-20:  Log End Time 
 LOST.hr                     0:  Lost Rig Time 
 LSTM.      22.15.00 06-Sep-20:  Log Start Time 
 MDCL.ppm             36000.00:  Mud Chlorides 
 MDES.     Inversion Oil/Synthetic:  Mud Desc 
 DFD .sg                  1.44:  Mud Density 
 MDMN.sg                  1.44:  Dens Mud Min 
 MDMX.sg                  1.57:  Dens Mud Max 
 MOIL.                      70:  Run Mud Oil % 
 MOWR.                   70:30:  Run Mud OWR 
 MSND.                       0:  Run Mud Sand % 
 MSOL.                      21:  Run Mud Solids% 
 DFV .spqt               68.00:  Mud Viscosity 
 MWOD.in                  6.75:  MWD Tool OD 
 MWSI.                     Yes:  Serv Intrp, MWD 
 OTIM.hr                174.84:  Time Operating 
 PCON.           Look Like New:  Pad Condition 
 PMAX.psia            10616.93:  Press Op, Max 
 PV  .cP                 50.00:  Mud PV 
 RUN .                     700:  Run Number 
 ROPA.m/hr               14.24:  ROP Avg 
 ROPN.m/hr               10.00:  ROP Min 
 ROPX.m/hr               32.00:  ROP Max 
 RPMA.rpm               120.90:  RPM Surface Avg 
 RPMN.rpm               120.00:  RPM Surface Min 
 RPMX.rpm               140.00:  RPM Surface Max 
 RRUN.                    0700:  Rig Run Number 
 RTIM.hr                  3.20:  Time Reaming 
 SAZI.deg               109.99:  Azm, Start 
 SDEP.m                5231.01:  Start Depth 
 SIDD.                      No:  Serv Intrp, DD 
 SINC.deg                73.72:  Inc, Start 
 SPPA.psig             3051.00:  SPP Avg 
 SPPN.psig             2950.00:  SPP Min 
 SPPX.psig             3250.00:  SPP Max 
 STIM.      08.00.00 05-Sep-20:  Start Time 
 SVCS.                 DD, MWD:  Services 
 SVER.                    9.20:  Sperry Version 
 TDAT.m                 559.00:  Tot Depth Attmp 
 TDDF.                      No:  Trip for DD 
 TDLG.m                 559.00:  Tot Depth Loggd 
 TFF .                      No:  Trip for Fail 
 TQAA.f-kp               26.49:  Torque Abs Avg 
 TQAN.f-kp               25.00:  Torque Abs Min 
 TQAX.f-kp               27.00:  Torque Abs Max 
 TRRT.°/30m               1.50:  Turn Rotating 
 MRT .                    HCIM:  Maximum Recorded Temperature 
 TTMX.degC               90.20:  Max Tool Temp 
 VS01.                90542671:  Virtual Str1 SN 
 VS02.                90545185:  Virtual Str2 SN 
 VS03.                90602015:  Virtual Str3 SN 
 VS04.                90515230:  Virtual Str4 SN 
 WBMN.klb                 5.00:  WOB Min 
 WOBA.klb                14.79:  WOB Avg 
 WOBX.klb                20.00:  WOB Max 
 YP  .lhf2               29.00:  Yield Point 
~Curve Information Block
#MNEM.UNIT                 API CODE     Curve Description
#---------               -----------    ---------------------------
 TIME.HHMMSS            00 000 000 000:  GT Time & Date
 GTDEPTH.m              00 000 000 000:  GT Depth
 GTPQH.psia             00 000 000 000:  GT HR Quartz Pressure
 GTTQ.degC              00 000 000 000:  GT Quartz Temperature
 GTTN.NONE              00 000 000 000:  GT Test Number
 GTET.sec               00 000 000 000:  GT Elapsed Test Time
 GTTVD.m                00 000 000 000:  GT True Vertical Depth
#Other Information
#
#WARRANTY: Halliburton will use its best efforts to furnish customers with 
#accurate information and interpretations that are part of, and incident to, the services 
#provided.  However, Halliburton cannot and does not warrant the accuracy 
#or correctness of such information and interpretations.  Under no circumstances should any 
#such information or interpretation be relied upon as the sole basis for any drilling, 
#completion, production, or financial decision or any procedure involving any risk to the 
#safety of any drilling venture, drilling rig or its crew or any other third party.  The 
#Customer has full responsibility for all drilling, completion and production operation.  
#Halliburton makes no representations or warranties, either expressed or 
#implied, including, but not limited to, the implied warranties of merchantability or fitness 
#for a particular purpose, with respect to the services rendered.  In no event will 
#Halliburton be liable for failure to obtain any particular results or for 
#any damages, including, but not limited to, indirect, special or consequential damages, 
#resulting from the use of any information or interpretation provided by Halliburton.
#
~A           TIME           GTDEPTH  GTPQH  GTTQ  GTTN  GTET   GTTVD  
# ...
   10:00:39.000.09-Sep-2020 5480.01 3592.47 77.04 8.00 230.00 2612.34
   10:00:39.200.09-Sep-2020 5480.01 3592.47 77.04 8.00 230.20 2612.34
   10:00:39.400.09-Sep-2020 5480.01 3592.50 77.04 8.00 230.40 2612.34
   10:00:39.600.09-Sep-2020 5480.01 3592.49 77.04 8.00 230.60 2612.34
   10:00:39.800.09-Sep-2020 5480.01 3592.48 77.04 8.00 230.80 2612.34
   10:00:40.000.09-Sep-2020 5480.01 3592.49 77.04 8.00 231.00 2612.34
   10:00:40.200.09-Sep-2020 5480.01 3592.49 77.04 8.00 231.20 2612.34
   10:00:40.400.09-Sep-2020 5480.01 3592.49 77.04 8.00 231.40 2612.34
   10:00:40.600.09-Sep-2020 5480.01 3592.49 77.04 8.00 231.60 2612.34
   10:00:40.800.09-Sep-2020 5480.01 3592.49 77.04 8.00 231.80 2612.34
   10:00:41.000.09-Sep-2020 5480.01 3592.48 77.04 8.00 232.00 2612.34
   10:00:41.200.09-Sep-2020 5480.01 3592.48 77.04 8.00 232.20 2612.34
   10:00:41.400.09-Sep-2020 5480.01 3592.48 77.04 8.00 232.40 2612.34
   10:00:41.600.09-Sep-2020 5480.01 3592.49 77.04 8.00 232.60 2612.34
   10:00:41.800.09-Sep-2020 5480.01 3592.49 77.04 8.00 232.80 2612.34
   10:00:42.000.09-Sep-2020 5480.01 3592.45 77.04 8.00 233.00 2612.34
   10:00:42.200.09-Sep-2020 5480.01 3592.45 77.04 8.00 233.20 2612.34
   10:00:42.400.09-Sep-2020 5480.01 3592.49 77.04 8.00 233.40 2612.34
   10:00:42.600.09-Sep-2020 5480.01 3592.49 77.04 8.00 233.60 2612.34
   10:00:42.800.09-Sep-2020 5480.01 3592.48 77.04 8.00 233.80 2612.34
   10:00:43.000.09-Sep-2020 5480.01 3592.50 77.04 8.00 234.00 2612.34
   10:00:43.200.09-Sep-2020 5480.01 3592.50 77.04 8.00 234.20 2612.34
   10:00:43.400.09-Sep-2020 5480.01 3592.41 77.04 8.00 234.40 2612.34
   10:00:43.600.09-Sep-2020 5480.01 3592.49 77.04 8.00 234.60 2612.34
   10:00:43.800.09-Sep-2020 5480.01 3592.48 77.04 8.00 234.80 2612.34
   10:00:44.000.09-Sep-2020 5480.01 3592.43 77.04 8.00 235.00 2612.34
   10:00:44.200.09-Sep-2020 5480.01 3592.43 77.04 8.00 235.20 2612.34
   10:00:44.400.09-Sep-2020 5480.01 3592.52 77.04 8.00 235.40 2612.34
   10:00:44.600.09-Sep-2020 5480.01 3592.48 77.04 8.00 235.60 2612.34
   10:00:44.800.09-Sep-2020 5480.01 3592.42 77.04 8.00 235.80 2612.34
   10:00:45.000.09-Sep-2020 5480.01 3592.55 77.04 8.00 236.00 2612.34
   10:00:45.200.09-Sep-2020 5480.01 3592.55 77.04 8.00 236.20 2612.34
   10:00:45.400.09-Sep-2020 5480.01 3592.50 77.04 8.00 236.40 2612.34
   10:00:45.600.09-Sep-2020 5480.01 3592.49 77.04 8.00 236.60 2612.34
   10:00:45.800.09-Sep-2020 5480.01 3592.49 77.04 8.00 236.80 2612.34
   10:00:46.000.09-Sep-2020 5480.01 3592.52 77.04 8.00 237.00 2612.34
   10:00:46.200.09-Sep-2020 5480.01 3592.52 77.04 8.00 237.20 2612.34
   10:00:46.400.09-Sep-2020 5480.01 3592.49 77.04 8.00 237.40 2612.34
   10:00:46.600.09-Sep-2020 5480.01 3592.49 77.04 8.00 237.60 2612.34
   10:00:46.800.09-Sep-2020 5480.01 3592.50 77.04 8.00 237.80 2612.34
   10:00:47.000.09-Sep-2020 5480.01 3592.47 77.04 8.00 238.00 2612.34
   10:00:47.200.09-Sep-2020 5480.01 3592.47 77.04 8.00 238.20 2612.34
   10:00:47.400.09-Sep-2020 5480.01 3592.48 77.04 8.00 238.40 2612.34
   10:00:47.600.09-Sep-2020 5480.01 3592.50 77.04 8.00 238.60 2612.34
   10:00:47.800.09-Sep-2020 5480.01 3592.49 77.04 8.00 238.80 2612.34
   10:00:48.000.09-Sep-2020 5480.01 3592.48 77.04 8.00 239.00 2612.34
   10:00:48.200.09-Sep-2020 5480.01 3592.48 77.04 8.00 239.20 2612.34
   10:00:48.400.09-Sep-2020 5480.01 3592.49 77.04 8.00 239.40 2612.34
   10:00:48.600.09-Sep-2020 5480.01 3592.49 77.04 8.00 239.60 2612.34
   10:00:48.800.09-Sep-2020 5480.01 3592.49 77.04 8.00 239.80 2612.34
   10:00:49.000.09-Sep-2020 5480.01 3592.48 77.04 8.00 240.00 2612.34
   10:00:49.200.09-Sep-2020 5480.01 3592.48 77.04 8.00 240.20 2612.34
   10:00:49.400.09-Sep-2020 5480.01 3592.48 77.04 8.00 240.40 2612.34
   10:00:49.600.09-Sep-2020 5480.01 3592.42 77.04 8.00 240.60 2612.34
   10:00:49.800.09-Sep-2020 5480.01 3592.54 77.04 8.00 240.80 2612.34
   10:00:50.000.09-Sep-2020 5480.01 3592.51 77.04 8.00 241.00 2612.34
   10:00:50.200.09-Sep-2020 5480.01 3592.51 77.04 8.00 241.20 2612.34
   10:00:50.400.09-Sep-2020 5480.01 3592.48 77.04 8.00 241.40 2612.34
   10:00:50.600.09-Sep-2020 5480.01 3592.49 77.04 8.00 241.60 2612.34
   10:00:50.800.09-Sep-2020 5480.01 3592.49 77.04 8.00 241.80 2612.34
   10:00:51.000.09-Sep-2020 5480.01 3592.48 77.04 8.00 242.00 2612.34
   10:00:51.200.09-Sep-2020 5480.01 3592.48 77.04 8.00 242.20 2612.34
   10:00:51.400.09-Sep-2020 5480.01 3592.47 77.04 8.00 242.40 2612.34
   10:00:51.600.09-Sep-2020 5480.01 3592.49 77.04 8.00 242.60 2612.34
   10:00:51.800.09-Sep-2020 5480.01 3592.47 77.04 8.00 242.80 2612.34
   10:00:52.000.09-Sep-2020 5480.01 3592.48 77.04 8.00 243.00 2612.34
   10:00:52.200.09-Sep-2020 5480.01 3592.48 77.04 8.00 243.20 2612.34
   10:00:52.400.09-Sep-2020 5480.01 3592.48 77.04 8.00 243.40 2612.34
   10:00:52.600.09-Sep-2020 5480.01 3592.48 77.04 8.00 243.60 2612.34
   10:00:52.800.09-Sep-2020 5480.01 3592.48 77.04 8.00 243.80 2612.34
   10:00:53.000.09-Sep-2020 5480.01 3592.55 77.04 8.00 244.00 2612.34
   10:00:53.200.09-Sep-2020 5480.01 3592.55 77.04 8.00 244.20 2612.34
   10:00:53.400.09-Sep-2020 5480.01 3592.48 77.04 8.00 244.40 2612.34
   10:00:53.600.09-Sep-2020 5480.01 3592.49 77.04 8.00 244.60 2612.34
   10:00:53.800.09-Sep-2020 5480.01 3592.48 77.04 8.00 244.80 2612.34
   10:00:54.000.09-Sep-2020 5480.01 3592.48 77.04 8.00 245.00 2612.34
   10:00:54.200.09-Sep-2020 5480.01 3592.48 77.04 8.00 245.20 2612.34
   10:00:54.400.09-Sep-2020 5480.01 3592.45 77.04 8.00 245.40 2612.34
   10:00:54.600.09-Sep-2020 5480.01 3592.48 77.04 8.00 245.60 2612.34
   10:00:54.800.09-Sep-2020 5480.01 3592.49 77.04 8.00 245.80 2612.34
   10:00:55.000.09-Sep-2020 5480.01 3592.44 77.04 8.00 246.00 2612.34
   10:00:55.200.09-Sep-2020 5480.01 3592.44 77.04 8.00 246.20 2612.34
   10:00:55.400.09-Sep-2020 5480.01 3592.48 77.04 8.00 246.40 2612.34
   10:00:55.600.09-Sep-2020 5480.01 3592.48 77.04 8.00 246.60 2612.34
   10:00:55.800.09-Sep-2020 5480.01 3592.42 77.04 8.00 246.80 2612.34
   10:00:56.000.09-Sep-2020 5480.01 3592.55 77.04 8.00 247.00 2612.34
   10:00:56.200.09-Sep-2020 5480.01 3592.55 77.04 8.00 247.20 2612.34
   10:00:56.400.09-Sep-2020 5480.01 3592.49 77.04 8.00 247.40 2612.34
   10:00:56.600.09-Sep-2020 5480.01 3592.47 77.04 8.00 247.60 2612.34
   10:00:56.800.09-Sep-2020 5480.01 3592.41 77.04 8.00 247.80 2612.34
   10:00:57.000.09-Sep-2020 5480.01 3592.53 77.04 8.00 248.00 2612.34
   10:00:57.200.09-Sep-2020 5480.01 3592.53 77.04 8.00 248.20 2612.34
   10:00:57.400.09-Sep-2020 5480.01 3592.48 77.04 8.00 248.40 2612.34
   10:00:57.600.09-Sep-2020 5480.01 3592.48 77.04 8.00 248.60 2612.34
   10:00:57.800.09-Sep-2020 5480.01 3592.49 77.04 8.00 248.80 2612.34
   10:00:58.000.09-Sep-2020 5480.01 3592.48 77.04 8.00 249.00 2612.34
   10:00:58.200.09-Sep-2020 5480.01 3592.48 77.04 8.00 249.20 2612.34
   10:00:58.400.09-Sep-2020 5480.01 3592.48 77.04 8.00 249.40 2612.34
   10:00:58.600.09-Sep-2020 5480.01 3592.48 77.04 8.00 249.60 2612.34
   10:00:58.800.09-Sep-2020 5480.01 3592.47 77.04 8.00 249.80 2612.34
   10:00:59.000.09-Sep-2020 5480.01 3592.48 77.04 8.00 250.00 2612.34
   10:00:59.200.09-Sep-2020 5480.01 3592.48 77.04 8.00 250.20 2612.34
   10:00:59.400.09-Sep-2020 5480.01 3592.47 77.04 8.00 250.40 2612.34
   10:00:59.600.09-Sep-2020 5480.01 3592.48 77.04 8.00 250.60 2612.34
   10:00:59.800.09-Sep-2020 5480.01 3592.48 77.04 8.00 250.80 2612.34
   10:01:00.000.09-Sep-2020 5480.01 3592.47 77.04 8.00 251.00 2612.34
   10:01:00.200.09-Sep-2020 5480.01 3592.47 77.04 8.00 251.20 2612.34
   10:01:00.400.09-Sep-2020 5480.01 3592.48 77.04 8.00 251.40 2612.34
   10:01:00.600.09-Sep-2020 5480.01 3592.42 77.04 8.00 251.60 2612.34
   10:01:00.800.09-Sep-2020 5480.01 3592.53 77.04 8.00 251.80 2612.34
   10:01:01.000.09-Sep-2020 5480.01 3592.47 77.04 8.00 252.00 2612.34
   10:01:01.200.09-Sep-2020 5480.01 3592.47 77.04 8.00 252.20 2612.34
   10:01:01.400.09-Sep-2020 5480.01 3592.46 77.04 8.00 252.40 2612.34
   10:01:01.600.09-Sep-2020 5480.01 3592.49 77.04 8.00 252.60 2612.34
   10:01:01.800.09-Sep-2020 5480.01 3592.47 77.04 8.00 252.80 2612.34
