~Version Information
 VERS.                  2.0:   CWLS log ASCII Standard -VERSION 2.0
 WRAP.                   NO:   One line per depth step
~Well Information Block
#MNEM.UNIT     VALUE/NAME     DESCRIPTION
#---------     -----------    ---------------------------
 STRT.S             18:49:58 09-Sep-20: START TIME 18:49:58 09-Sep-20
 STOP.S             18:58:03 09-Sep-20: STOP TIME  18:58:03 09-Sep-20
 STEP.S                   0.00: STEP TIME
 NULL.                 -999.25: NULL VALUE
 MDS .        Operator Entered:  MAG DATA SOURCE
 PDAT.          Mean Sea Level:  PERMANENT DATUM
 DCON.         Sperry Drilling:  DIRECTNL CONTR
 RIG .              West Azeri:  RIG NAME
 WELL.           C40 (Slot 20):  WELL NAME
 SRVC.     Turan Drilling Engineering:  CONTRACTOR
 FLD .                     ACG:  FIELD NAME
 CTRY.              Azerbaijan:  COUNTRY NAME
 PROV.                    Baku:  PROVINCE
 STAT.                    Baku:  STATE NAME
 REGN.                   EESSA:  REGION
 BASE.              Azerbaijan:  LOGGING EQUIPMENT BASE LOCATION
 COMP.     BP Exploration (Caspian Sea) Ltd:  COMPANY
 WTYP.                Deviated:  WELL TYPE
 SON .        AZ-XX-0906344804:  JOB NUMBER
 FTOP.          Formation Tops:  FORM TOPS DESC
 ILTD.               Lithology:  INTERP LTH DESC
 SVYD.                  Survey:  SURVEY DESC
 DMOD.             Drill Model:  DRILL MOD DESC
 HPTY.       Minimum Curvature:  HOLE POS TYPE
 NREF.                    Grid:  NORTH REFERENCE
 SPUD.               01-Jan-20:  SPUD DATE
 DATE.      00.59.44 15-Sep-20:  END TIME
 STIM.      12.00.00 12-Jun-20:  START TIME
 DMF .             Drill Floor:  DRILL MEAS FROM
 DFST.                        :  DIST FSL TEXT
 DFWT.                        :  DIST FWL TEXT
 API .                        :  API NUMBER
 CNTY.                        :  COUNTY
 UWI .                        :  UNIQUE WELL IDENTIFIER
 LOC .                        :  LOCATION
 LMF .             Drill Floor:  LOG MEASURED FROM
 VSNS.m                   2.88:  VERT SEC N/S
 VSEW.m                  -3.84:  VERT SEC E/W
 AGAP.m                  43.42:  AIR GAP
 APD .m                  43.42:  DEPTH ABOVE PD
 WDMS.m                 118.27:  WD ELEV
 EGL .m                   0.00:  GROUND ELEVATION
 EPD .m                   0.00:  ELEVATION
 AZTC.deg                 6.23:  AZM TOTAL CORR
 GRDC.deg                 0.20:  GRID CORRECTION
 MDEC.deg                 6.43:  MAGNETIC DECL
 MDIP.deg                59.49:  MAGNETIC DIP
 MFLD.nT              50277.00:  MAGNETIC FIELD
 GVFD.g                   1.00:  GRAVITY FIELD
 VSDR.deg               173.20:  VERT SEC DIRECT
 TDD .m                5790.01:  TOTAL DEPTH (DRILLER)
 SDEP.m                5231.01:  START DEPTH
 DFSL.m                   0.00:  DISTANCE FSL
 DFWL.m                   0.00:  DISTANCE FWL
 UTMY.m             4435808.83:  UTM Y
 UTMX.m              526266.40:  UTM X
 WHEW.m                  -3.84:  WELL HEAD E/W
 WHNS.m                   2.88:  WELL HEAD N/S
 LONG.deg                51.31:  LONGITUDE
 LATI.deg                40.06:  LATITUDE
 TVDS.m                  43.42:  TVDSS CORRECTN
 DEP .m                 430.08:  DEPTH
 EKB .m                  43.42:  KB ELEVATION
 EDF .m                  43.42:  DF ELEVATION
 TDL .m                 559.00:  TOTAL DEPTH (LOGGER)
 MAGU.                 1849381:  MAGUTM CHECKSUM
 VSC .                       0:  VS TO CLOSURE
~Parameter Information Block
#MNEM.UNIT       Value        Description
#---------     -----------    ---------------------------
 AV  .mps                 4.87:  Ann Velocity 
 AVMX.mps                 7.08:  Max Ann Veloc 
 AZIF.deg               108.87:  Azm, Final 
 BHAT.                  Rotary:  BHA Type 
 BROT.°/30m               0.35:  Build Rotating 
 BS  .in                  8.50:  Bit Size 
 BSZ .in                  8.50:  Bit Size 
 BTPL.psig              360.00:  Bit Press Loss 
 CABU.                     Yes:  Customer Abuse 
 COMM.                     „T:  Run Comments 1 
 TCS .hr                106.24:  Time Ciculation Ended 
 CV  .mps                 1.77:  Crit Velocity 
 CVMX.mps                 2.03:  Max Crit Veloc 
 DD1 .         Aykhan Agagulov:  Direct Drillr 1 
 DD2 .            Nonso Okofor:  Direct Drillr 2 
 DDSV.               Geo-Pilot:  DD Service 
 DEFF.%                  98.00:  % Det Eff 
 DLRX.°/30m               0.50:  Dogleg Rot Max 
 DLSO.°/30m               0.40:  Dogleg Oriented 
 DLSX.°/30m               0.94:  Dogleg Str Max 
 DRET.      20.30.00 08-Sep-20:  Drill End Time 
 DRST.      22.15.00 06-Sep-20:  Drill Start Tim 
 DTIM.hr                 31.31:  Time Drilling 
 EDEP.m                5790.01:  End Depth 
 ENG1.           Amrah Tahirov:  Engineer 1 
 ENG2.         Dair Mahammadov:  Engineer 2 
 ENG3.           Emil Huseynov:  Engineer 3 
 ETIM.      04.01.04 12-Sep-20:  End Time 
 FLOI.gpm               450.00:  Flow In 
 FLON.gpm               450.00:  Flow In Min 
 FLOS.cptm                2.00:  Fluid Loss 
 FLOX.gpm               450.00:  Flow In Max 
 FTRO.       Formation Presure:  FTWD Run Obj 
 HFLO.                      No:  High Flow 
 HPRE.                      No:  High Pressure 
 HTEM.                      No:  High Temp 
 HYDO.m                   1.80:  Hydro Offset 
 IFIN.deg                72.03:  Inc, Final 
 IMAX.deg                73.72:  Inc Max 
 IMIN.deg                70.94:  Inc Min 
 IMND.m                5508.52:  Inc Min Depth 
 IMXD.m                5253.60:  Inc Max Depth 
 JARR.                      No:  Jarring 
 LETM.      20.30.00 08-Sep-20:  Log End Time 
 LOST.hr                     0:  Lost Rig Time 
 LSTM.      22.15.00 06-Sep-20:  Log Start Time 
 MDCL.ppm             36000.00:  Mud Chlorides 
 MDES.     Inversion Oil/Synthetic:  Mud Desc 
 DFD .sg                  1.44:  Mud Density 
 MDMN.sg                  1.44:  Dens Mud Min 
 MDMX.sg                  1.57:  Dens Mud Max 
 MOIL.                      70:  Run Mud Oil % 
 MOWR.                   70:30:  Run Mud OWR 
 MSND.                       0:  Run Mud Sand % 
 MSOL.                      21:  Run Mud Solids% 
 DFV .spqt               68.00:  Mud Viscosity 
 MWOD.in                  6.75:  MWD Tool OD 
 MWSI.                     Yes:  Serv Intrp, MWD 
 OTIM.hr                174.84:  Time Operating 
 PCON.           Look Like New:  Pad Condition 
 PMAX.psia            10616.93:  Press Op, Max 
 PV  .cP                 50.00:  Mud PV 
 RUN .                     700:  Run Number 
 ROPA.m/hr               14.24:  ROP Avg 
 ROPN.m/hr               10.00:  ROP Min 
 ROPX.m/hr               32.00:  ROP Max 
 RPMA.rpm               120.90:  RPM Surface Avg 
 RPMN.rpm               120.00:  RPM Surface Min 
 RPMX.rpm               140.00:  RPM Surface Max 
 RRUN.                    0700:  Rig Run Number 
 RTIM.hr                  3.20:  Time Reaming 
 SAZI.deg               109.99:  Azm, Start 
 SDEP.m                5231.01:  Start Depth 
 SIDD.                      No:  Serv Intrp, DD 
 SINC.deg                73.72:  Inc, Start 
 SPPA.psig             3051.00:  SPP Avg 
 SPPN.psig             2950.00:  SPP Min 
 SPPX.psig             3250.00:  SPP Max 
 STIM.      08.00.00 05-Sep-20:  Start Time 
 SVCS.                 DD, MWD:  Services 
 SVER.                    9.20:  Sperry Version 
 TDAT.m                 559.00:  Tot Depth Attmp 
 TDDF.                      No:  Trip for DD 
 TDLG.m                 559.00:  Tot Depth Loggd 
 TFF .                      No:  Trip for Fail 
 TQAA.f-kp               26.49:  Torque Abs Avg 
 TQAN.f-kp               25.00:  Torque Abs Min 
 TQAX.f-kp               27.00:  Torque Abs Max 
 TRRT.°/30m               1.50:  Turn Rotating 
 MRT .                    HCIM:  Maximum Recorded Temperature 
 TTMX.degC               90.20:  Max Tool Temp 
 VS01.                90542671:  Virtual Str1 SN 
 VS02.                90545185:  Virtual Str2 SN 
 VS03.                90602015:  Virtual Str3 SN 
 VS04.                90515230:  Virtual Str4 SN 
 WBMN.klb                 5.00:  WOB Min 
 WOBA.klb                14.79:  WOB Avg 
 WOBX.klb                20.00:  WOB Max 
 YP  .lhf2               29.00:  Yield Point 
~Curve Information Block
#MNEM.UNIT                 API CODE     Curve Description
#---------               -----------    ---------------------------
 TIME.HHMMSS            00 000 000 000:  GT Time & Date
 GTDEPTH.m              00 000 000 000:  GT Depth
 GTPQH.psia             00 000 000 000:  GT HR Quartz Pressure
 GTTQ.degC              00 000 000 000:  GT Quartz Temperature
 GTTN.NONE              00 000 000 000:  GT Test Number
 GTET.sec               00 000 000 000:  GT Elapsed Test Time
 GTTVD.m                00 000 000 000:  GT True Vertical Depth
#Other Information
#
#WARRANTY: Halliburton will use its best efforts to furnish customers with 
#accurate information and interpretations that are part of, and incident to, the services 
#provided.  However, Halliburton cannot and does not warrant the accuracy 
#or correctness of such information and interpretations.  Under no circumstances should any 
#such information or interpretation be relied upon as the sole basis for any drilling, 
#completion, production, or financial decision or any procedure involving any risk to the 
#safety of any drilling venture, drilling rig or its crew or any other third party.  The 
#Customer has full responsibility for all drilling, completion and production operation.  
#Halliburton makes no representations or warranties, either expressed or 
#implied, including, but not limited to, the implied warranties of merchantability or fitness 
#for a particular purpose, with respect to the services rendered.  In no event will 
#Halliburton be liable for failure to obtain any particular results or for 
#any damages, including, but not limited to, indirect, special or consequential damages, 
#resulting from the use of any information or interpretation provided by Halliburton.
#
~A           TIME           GTDEPTH  GTPQH  GTTQ  GTTN   GTET   GTTVD  
# ...
   18:56:22.399.09-Sep-2020 5280.51  525.61 74.30 22.00 383.90 2550.44
   18:56:22.598.09-Sep-2020 5280.51  525.36 74.30 22.00 384.10 2550.44
   18:56:22.798.09-Sep-2020 5280.51  525.92 74.30 22.00 384.30 2550.44
   18:56:22.998.09-Sep-2020 5280.51  526.17 74.30 22.00 384.50 2550.44
   18:56:23.198.09-Sep-2020 5280.51  526.16 74.30 22.00 384.70 2550.44
   18:56:23.398.09-Sep-2020 5280.51  526.16 74.30 22.00 384.90 2550.44
   18:56:23.598.09-Sep-2020 5280.51  526.63 74.30 22.00 385.10 2550.44
   18:56:23.798.09-Sep-2020 5280.51  526.63 74.30 22.00 385.30 2550.44
   18:56:23.997.09-Sep-2020 5280.51  526.69 74.30 22.00 385.50 2550.44
   18:56:24.197.09-Sep-2020 5280.51  526.49 74.30 22.00 385.70 2550.44
   18:56:24.397.09-Sep-2020 5280.51  526.59 74.30 22.00 385.90 2550.44
   18:56:24.597.09-Sep-2020 5280.51  527.05 74.30 22.00 386.10 2550.44
   18:56:24.797.09-Sep-2020 5280.51  527.13 74.30 22.00 386.30 2550.44
   18:56:24.997.09-Sep-2020 5280.51  527.24 74.30 22.00 386.50 2550.44
   18:56:25.196.09-Sep-2020 5280.51  527.51 74.30 22.00 386.70 2550.44
   18:56:25.396.09-Sep-2020 5280.51  527.51 74.30 22.00 386.90 2550.44
   18:56:25.596.09-Sep-2020 5280.51  526.76 74.30 22.00 387.10 2550.44
   18:56:25.796.09-Sep-2020 5280.51  528.04 74.30 22.00 387.30 2550.44
   18:56:25.996.09-Sep-2020 5280.51  527.84 74.30 22.00 387.50 2550.44
   18:56:26.196.09-Sep-2020 5280.51  527.97 74.30 22.00 387.70 2550.44
   18:56:26.396.09-Sep-2020 5280.51  527.97 74.30 22.00 387.90 2550.44
   18:56:26.595.09-Sep-2020 5280.51  528.37 74.30 22.00 388.10 2550.44
   18:56:26.795.09-Sep-2020 5280.51  528.38 74.30 22.00 388.30 2550.44
   18:56:26.995.09-Sep-2020 5280.51  528.49 74.30 22.00 388.50 2550.44
   18:56:27.195.09-Sep-2020 5280.51  528.60 74.30 22.00 388.70 2550.44
   18:56:27.395.09-Sep-2020 5280.51  528.60 74.30 22.00 388.89 2550.44
   18:56:27.595.09-Sep-2020 5280.51  528.91 74.30 22.00 389.09 2550.44
   18:56:27.794.09-Sep-2020 5280.51  529.03 74.30 22.00 389.29 2550.44
   18:56:27.994.09-Sep-2020 5280.51  529.12 74.30 22.00 389.49 2550.44
   18:56:28.194.09-Sep-2020 5280.51  529.20 74.30 22.00 389.69 2550.44
   18:56:28.394.09-Sep-2020 5280.51  529.20 74.30 22.00 389.89 2550.44
   18:56:28.594.09-Sep-2020 5280.51  529.51 74.30 22.00 390.09 2550.44
   18:56:28.794.09-Sep-2020 5280.51  529.65 74.30 22.00 390.29 2550.44
   18:56:28.993.09-Sep-2020 5280.51  529.77 74.30 22.00 390.49 2550.44
   18:56:29.193.09-Sep-2020 5280.51  529.58 74.30 22.00 390.69 2550.44
   18:56:29.393.09-Sep-2020 5280.51  529.58 74.30 22.00 390.89 2550.44
   18:56:29.593.09-Sep-2020 5280.51  530.12 74.30 22.00 391.09 2550.44
   18:56:29.793.09-Sep-2020 5280.51  530.23 74.30 22.00 391.29 2550.44
   18:56:29.993.09-Sep-2020 5280.51  530.31 74.30 22.00 391.49 2550.44
   18:56:30.193.09-Sep-2020 5280.51  530.57 74.30 22.00 391.69 2550.44
   18:56:30.392.09-Sep-2020 5280.51  530.57 74.30 22.00 391.89 2550.44
   18:56:30.592.09-Sep-2020 5280.51  530.74 74.30 22.00 392.09 2550.44
   18:56:30.792.09-Sep-2020 5280.51  530.86 74.30 22.00 392.29 2550.44
   18:56:30.992.09-Sep-2020 5280.51  531.00 74.30 22.00 392.49 2550.44
   18:56:31.192.09-Sep-2020 5280.51  531.09 74.30 22.00 392.69 2550.44
   18:56:31.392.09-Sep-2020 5280.51  531.09 74.30 22.00 392.89 2550.44
   18:56:31.591.09-Sep-2020 5280.51  531.34 74.30 22.00 393.09 2550.44
   18:56:31.791.09-Sep-2020 5280.51  531.47 74.30 22.00 393.29 2550.44
   18:56:31.991.09-Sep-2020 5280.51  531.63 74.31 22.00 393.49 2550.44
   18:56:32.191.09-Sep-2020 5280.51  531.76 74.30 22.00 393.69 2550.44
   18:56:32.391.09-Sep-2020 5280.51  531.53 74.31 22.00 393.89 2550.44
   18:56:32.591.09-Sep-2020 5280.51  531.50 74.30 22.00 394.09 2550.44
   18:56:32.790.09-Sep-2020 5280.51  532.05 74.31 22.00 394.29 2550.44
   18:56:32.990.09-Sep-2020 5280.51  532.18 74.31 22.00 394.49 2550.44
   18:56:33.190.09-Sep-2020 5280.51  532.25 74.30 22.00 394.69 2550.44
   18:56:33.390.09-Sep-2020 5280.51  532.25 74.30 22.00 394.89 2550.44
   18:56:33.590.09-Sep-2020 5280.51  531.56 74.31 22.00 395.09 2550.44
   18:56:33.790.09-Sep-2020 5280.51  532.86 74.31 22.00 395.29 2550.44
   18:56:33.990.09-Sep-2020 5280.51  532.68 74.31 22.00 395.49 2550.44
   18:56:34.189.09-Sep-2020 5280.51  532.82 74.31 22.00 395.69 2550.44
   18:56:34.389.09-Sep-2020 5280.51  532.82 74.31 22.00 395.89 2550.44
   18:56:34.589.09-Sep-2020 5280.51  532.37 74.31 22.00 396.09 2550.44
   18:56:34.789.09-Sep-2020 5280.51  533.39 74.31 22.00 396.29 2550.44
   18:56:34.989.09-Sep-2020 5280.51  533.35 74.31 22.00 396.49 2550.44
   18:56:35.189.09-Sep-2020 5280.51  533.43 74.31 22.00 396.69 2550.44
   18:56:35.388.09-Sep-2020 5280.51  533.43 74.31 22.00 396.89 2550.44
   18:56:35.588.09-Sep-2020 5280.51  533.31 74.31 22.00 397.09 2550.44
   18:56:35.788.09-Sep-2020 5280.51  533.81 74.31 22.00 397.29 2550.44
   18:56:35.988.09-Sep-2020 5280.51  533.91 74.31 22.00 397.49 2550.44
   18:56:36.188.09-Sep-2020 5280.51  534.01 74.31 22.00 397.69 2550.44
   18:56:36.388.09-Sep-2020 5280.51  534.01 74.31 22.00 397.89 2550.44
   18:56:36.588.09-Sep-2020 5280.51  534.58 74.31 22.00 398.09 2550.44
   18:56:36.787.09-Sep-2020 5280.51  534.42 74.31 22.00 398.29 2550.44
   18:56:36.987.09-Sep-2020 5280.51  534.58 74.31 22.00 398.49 2550.44
   18:56:37.187.09-Sep-2020 5280.51  534.61 74.31 22.00 398.69 2550.44
   18:56:37.387.09-Sep-2020 5280.51  534.61 74.31 22.00 398.89 2550.44
   18:56:37.587.09-Sep-2020 5280.51  535.01 74.31 22.00 399.09 2550.44
   18:56:37.787.09-Sep-2020 5280.51  535.11 74.31 22.00 399.29 2550.44
   18:56:37.986.09-Sep-2020 5280.51  535.23 74.31 22.00 399.49 2550.44
   18:56:38.186.09-Sep-2020 5280.51  535.34 74.31 22.00 399.69 2550.44
   18:56:38.386.09-Sep-2020 5280.51  535.34 74.31 22.00 399.89 2550.44
   18:56:38.586.09-Sep-2020 5280.51  535.64 74.31 22.00 400.09 2550.44
   18:56:38.786.09-Sep-2020 5280.51  535.77 74.31 22.00 400.29 2550.44
   18:56:38.986.09-Sep-2020 5280.51  535.88 74.31 22.00 400.49 2550.44
   18:56:39.185.09-Sep-2020 5280.51  535.97 74.31 22.00 400.69 2550.44
   18:56:39.385.09-Sep-2020 5280.51  535.97 74.31 22.00 400.89 2550.44
   18:56:39.585.09-Sep-2020 5280.51  536.22 74.31 22.00 401.09 2550.44
   18:56:39.785.09-Sep-2020 5280.51  536.38 74.31 22.00 401.29 2550.44
   18:56:39.985.09-Sep-2020 5280.51  536.22 74.31 22.00 401.49 2550.44
   18:56:40.185.09-Sep-2020 5280.51  536.19 74.31 22.00 401.68 2550.44
   18:56:40.385.09-Sep-2020 5280.51  536.19 74.31 22.00 401.88 2550.44
   18:56:40.584.09-Sep-2020 5280.51  536.87 74.31 22.00 402.08 2550.44
   18:56:40.784.09-Sep-2020 5280.51  536.97 74.31 22.00 402.28 2550.44
   18:56:40.984.09-Sep-2020 5280.51  537.23 74.31 22.00 402.48 2550.44
   18:56:41.184.09-Sep-2020 5280.51  537.22 74.31 22.00 402.68 2550.44
   18:56:41.384.09-Sep-2020 5280.51  537.22 74.31 22.00 402.88 2550.44
   18:56:41.584.09-Sep-2020 5280.51  537.49 74.31 22.00 403.08 2550.44
   18:56:41.783.09-Sep-2020 5280.51  537.60 74.31 22.00 403.28 2550.44
   18:56:41.983.09-Sep-2020 5280.51  537.75 74.31 22.00 403.48 2550.44
   18:56:42.183.09-Sep-2020 5280.51  537.89 74.31 22.00 403.68 2550.44
   18:56:42.383.09-Sep-2020 5280.51  537.89 74.31 22.00 403.88 2550.44
   18:56:42.583.09-Sep-2020 5280.51  538.05 74.31 22.00 404.08 2550.44
   18:56:42.783.09-Sep-2020 5280.51  538.20 74.31 22.00 404.28 2550.44
   18:56:42.982.09-Sep-2020 5280.51  538.36 74.31 22.00 404.48 2550.44
   18:56:43.182.09-Sep-2020 5280.51  538.22 74.31 22.00 404.68 2550.44
   18:56:43.382.09-Sep-2020 5280.51  538.22 74.31 22.00 404.88 2550.44
   18:56:43.582.09-Sep-2020 5280.51  538.71 74.31 22.00 405.08 2550.44
   18:56:43.782.09-Sep-2020 5280.51  538.81 74.31 22.00 405.28 2550.44
   18:56:43.982.09-Sep-2020 5280.51  538.92 74.31 22.00 405.48 2550.44
   18:56:44.182.09-Sep-2020 5280.51  539.19 74.31 22.00 405.68 2550.44
   18:56:44.381.09-Sep-2020 5280.51  538.23 74.31 22.00 405.88 2550.44
   18:56:44.581.09-Sep-2020 5280.51  539.50 74.31 22.00 406.08 2550.44
   18:56:44.781.09-Sep-2020 5280.51  539.36 74.31 22.00 406.28 2550.44
