~Version Information
 VERS.                  2.0:   CWLS log ASCII Standard -VERSION 2.0
 WRAP.                   NO:   One line per depth step
~Well Information Block
#MNEM.UNIT     VALUE/NAME     DESCRIPTION
#---------     -----------    ---------------------------
 STRT.S             19:35:07 09-Sep-20: START TIME 19:35:07 09-Sep-20
 STOP.S             19:43:27 09-Sep-20: STOP TIME  19:43:27 09-Sep-20
 STEP.S                   0.00: STEP TIME
 NULL.                 -999.25: NULL VALUE
 MDS .        Operator Entered:  MAG DATA SOURCE
 PDAT.          Mean Sea Level:  PERMANENT DATUM
 DCON.         Sperry Drilling:  DIRECTNL CONTR
 RIG .              West Azeri:  RIG NAME
 WELL.           C40 (Slot 20):  WELL NAME
 SRVC.     Turan Drilling Engineering:  CONTRACTOR
 FLD .                     ACG:  FIELD NAME
 CTRY.              Azerbaijan:  COUNTRY NAME
 PROV.                    Baku:  PROVINCE
 STAT.                    Baku:  STATE NAME
 REGN.                   EESSA:  REGION
 BASE.              Azerbaijan:  LOGGING EQUIPMENT BASE LOCATION
 COMP.     BP Exploration (Caspian Sea) Ltd:  COMPANY
 WTYP.                Deviated:  WELL TYPE
 SON .        AZ-XX-0906344804:  JOB NUMBER
 FTOP.          Formation Tops:  FORM TOPS DESC
 ILTD.               Lithology:  INTERP LTH DESC
 SVYD.                  Survey:  SURVEY DESC
 DMOD.             Drill Model:  DRILL MOD DESC
 HPTY.       Minimum Curvature:  HOLE POS TYPE
 NREF.                    Grid:  NORTH REFERENCE
 SPUD.               01-Jan-20:  SPUD DATE
 DATE.      00.59.44 15-Sep-20:  END TIME
 STIM.      12.00.00 12-Jun-20:  START TIME
 DMF .             Drill Floor:  DRILL MEAS FROM
 DFST.                        :  DIST FSL TEXT
 DFWT.                        :  DIST FWL TEXT
 API .                        :  API NUMBER
 CNTY.                        :  COUNTY
 UWI .                        :  UNIQUE WELL IDENTIFIER
 LOC .                        :  LOCATION
 LMF .             Drill Floor:  LOG MEASURED FROM
 VSNS.m                   2.88:  VERT SEC N/S
 VSEW.m                  -3.84:  VERT SEC E/W
 AGAP.m                  43.42:  AIR GAP
 APD .m                  43.42:  DEPTH ABOVE PD
 WDMS.m                 118.27:  WD ELEV
 EGL .m                   0.00:  GROUND ELEVATION
 EPD .m                   0.00:  ELEVATION
 AZTC.deg                 6.23:  AZM TOTAL CORR
 GRDC.deg                 0.20:  GRID CORRECTION
 MDEC.deg                 6.43:  MAGNETIC DECL
 MDIP.deg                59.49:  MAGNETIC DIP
 MFLD.nT              50277.00:  MAGNETIC FIELD
 GVFD.g                   1.00:  GRAVITY FIELD
 VSDR.deg               173.20:  VERT SEC DIRECT
 TDD .m                5790.01:  TOTAL DEPTH (DRILLER)
 SDEP.m                5231.01:  START DEPTH
 DFSL.m                   0.00:  DISTANCE FSL
 DFWL.m                   0.00:  DISTANCE FWL
 UTMY.m             4435808.83:  UTM Y
 UTMX.m              526266.40:  UTM X
 WHEW.m                  -3.84:  WELL HEAD E/W
 WHNS.m                   2.88:  WELL HEAD N/S
 LONG.deg                51.31:  LONGITUDE
 LATI.deg                40.06:  LATITUDE
 TVDS.m                  43.42:  TVDSS CORRECTN
 DEP .m                 430.08:  DEPTH
 EKB .m                  43.42:  KB ELEVATION
 EDF .m                  43.42:  DF ELEVATION
 TDL .m                 559.00:  TOTAL DEPTH (LOGGER)
 MAGU.                 1849381:  MAGUTM CHECKSUM
 VSC .                       0:  VS TO CLOSURE
~Parameter Information Block
#MNEM.UNIT       Value        Description
#---------     -----------    ---------------------------
 AV  .mps                 4.87:  Ann Velocity 
 AVMX.mps                 7.08:  Max Ann Veloc 
 AZIF.deg               108.87:  Azm, Final 
 BHAT.                  Rotary:  BHA Type 
 BROT.°/30m               0.35:  Build Rotating 
 BS  .in                  8.50:  Bit Size 
 BSZ .in                  8.50:  Bit Size 
 BTPL.psig              360.00:  Bit Press Loss 
 CABU.                     Yes:  Customer Abuse 
 COMM.                     ¼«|:  Run Comments 1 
 TCS .hr                106.24:  Time Ciculation Ended 
 CV  .mps                 1.77:  Crit Velocity 
 CVMX.mps                 2.03:  Max Crit Veloc 
 DD1 .         Aykhan Agagulov:  Direct Drillr 1 
 DD2 .            Nonso Okofor:  Direct Drillr 2 
 DDSV.               Geo-Pilot:  DD Service 
 DEFF.%                  98.00:  % Det Eff 
 DLRX.°/30m               0.50:  Dogleg Rot Max 
 DLSO.°/30m               0.40:  Dogleg Oriented 
 DLSX.°/30m               0.94:  Dogleg Str Max 
 DRET.      20.30.00 08-Sep-20:  Drill End Time 
 DRST.      22.15.00 06-Sep-20:  Drill Start Tim 
 DTIM.hr                 31.31:  Time Drilling 
 EDEP.m                5790.01:  End Depth 
 ENG1.           Amrah Tahirov:  Engineer 1 
 ENG2.         Dair Mahammadov:  Engineer 2 
 ENG3.           Emil Huseynov:  Engineer 3 
 ETIM.      04.01.04 12-Sep-20:  End Time 
 FLOI.gpm               450.00:  Flow In 
 FLON.gpm               450.00:  Flow In Min 
 FLOS.cptm                2.00:  Fluid Loss 
 FLOX.gpm               450.00:  Flow In Max 
 FTRO.       Formation Presure:  FTWD Run Obj 
 HFLO.                      No:  High Flow 
 HPRE.                      No:  High Pressure 
 HTEM.                      No:  High Temp 
 HYDO.m                   1.80:  Hydro Offset 
 IFIN.deg                72.03:  Inc, Final 
 IMAX.deg                73.72:  Inc Max 
 IMIN.deg                70.94:  Inc Min 
 IMND.m                5508.52:  Inc Min Depth 
 IMXD.m                5253.60:  Inc Max Depth 
 JARR.                      No:  Jarring 
 LETM.      20.30.00 08-Sep-20:  Log End Time 
 LOST.hr                     0:  Lost Rig Time 
 LSTM.      22.15.00 06-Sep-20:  Log Start Time 
 MDCL.ppm             36000.00:  Mud Chlorides 
 MDES.     Inversion Oil/Synthetic:  Mud Desc 
 DFD .sg                  1.44:  Mud Density 
 MDMN.sg                  1.44:  Dens Mud Min 
 MDMX.sg                  1.57:  Dens Mud Max 
 MOIL.                      70:  Run Mud Oil % 
 MOWR.                   70:30:  Run Mud OWR 
 MSND.                       0:  Run Mud Sand % 
 MSOL.                      21:  Run Mud Solids% 
 DFV .spqt               68.00:  Mud Viscosity 
 MWOD.in                  6.75:  MWD Tool OD 
 MWSI.                     Yes:  Serv Intrp, MWD 
 OTIM.hr                174.84:  Time Operating 
 PCON.           Look Like New:  Pad Condition 
 PMAX.psia            10616.93:  Press Op, Max 
 PV  .cP                 50.00:  Mud PV 
 RUN .                     700:  Run Number 
 ROPA.m/hr               14.24:  ROP Avg 
 ROPN.m/hr               10.00:  ROP Min 
 ROPX.m/hr               32.00:  ROP Max 
 RPMA.rpm               120.90:  RPM Surface Avg 
 RPMN.rpm               120.00:  RPM Surface Min 
 RPMX.rpm               140.00:  RPM Surface Max 
 RRUN.                    0700:  Rig Run Number 
 RTIM.hr                  3.20:  Time Reaming 
 SAZI.deg               109.99:  Azm, Start 
 SDEP.m                5231.01:  Start Depth 
 SIDD.                      No:  Serv Intrp, DD 
 SINC.deg                73.72:  Inc, Start 
 SPPA.psig             3051.00:  SPP Avg 
 SPPN.psig             2950.00:  SPP Min 
 SPPX.psig             3250.00:  SPP Max 
 STIM.      08.00.00 05-Sep-20:  Start Time 
 SVCS.                 DD, MWD:  Services 
 SVER.                    9.20:  Sperry Version 
 TDAT.m                 559.00:  Tot Depth Attmp 
 TDDF.                      No:  Trip for DD 
 TDLG.m                 559.00:  Tot Depth Loggd 
 TFF .                      No:  Trip for Fail 
 TQAA.f-kp               26.49:  Torque Abs Avg 
 TQAN.f-kp               25.00:  Torque Abs Min 
 TQAX.f-kp               27.00:  Torque Abs Max 
 TRRT.°/30m               1.50:  Turn Rotating 
 MRT .                    HCIM:  Maximum Recorded Temperature 
 TTMX.degC               90.20:  Max Tool Temp 
 VS01.                90542671:  Virtual Str1 SN 
 VS02.                90545185:  Virtual Str2 SN 
 VS03.                90602015:  Virtual Str3 SN 
 VS04.                90515230:  Virtual Str4 SN 
 WBMN.klb                 5.00:  WOB Min 
 WOBA.klb                14.79:  WOB Avg 
 WOBX.klb                20.00:  WOB Max 
 YP  .lhf2               29.00:  Yield Point 
~Curve Information Block
#MNEM.UNIT                 API CODE     Curve Description
#---------               -----------    ---------------------------
 TIME.HHMMSS            00 000 000 000:  GT Time & Date
 GTDEPTH.m              00 000 000 000:  GT Depth
 GTPQH.psia             00 000 000 000:  GT HR Quartz Pressure
 GTTQ.degC              00 000 000 000:  GT Quartz Temperature
 GTTN.NONE              00 000 000 000:  GT Test Number
 GTET.sec               00 000 000 000:  GT Elapsed Test Time
 GTTVD.m                00 000 000 000:  GT True Vertical Depth
#Other Information
#
#WARRANTY: Halliburton will use its best efforts to furnish customers with 
#accurate information and interpretations that are part of, and incident to, the services 
#provided.  However, Halliburton cannot and does not warrant the accuracy 
#or correctness of such information and interpretations.  Under no circumstances should any 
#such information or interpretation be relied upon as the sole basis for any drilling, 
#completion, production, or financial decision or any procedure involving any risk to the 
#safety of any drilling venture, drilling rig or its crew or any other third party.  The 
#Customer has full responsibility for all drilling, completion and production operation.  
#Halliburton makes no representations or warranties, either expressed or 
#implied, including, but not limited to, the implied warranties of merchantability or fitness 
#for a particular purpose, with respect to the services rendered.  In no event will 
#Halliburton be liable for failure to obtain any particular results or for 
#any damages, including, but not limited to, indirect, special or consequential damages, 
#resulting from the use of any information or interpretation provided by Halliburton.
#
~A           TIME           GTDEPTH  GTPQH  GTTQ  GTTN   GTET   GTTVD  
# ...
   19:40:01.302.09-Sep-2020 5260.01 6299.94 74.28 23.00 293.94 2544.55
   19:40:01.502.09-Sep-2020 5260.01 6284.20 74.29 23.00 294.14 2544.55
   19:40:01.702.09-Sep-2020 5260.01 6289.60 74.29 23.00 294.34 2544.55
   19:40:01.902.09-Sep-2020 5260.01 6289.43 74.29 23.00 294.54 2544.55
   19:40:02.102.09-Sep-2020 5260.01 6288.30 74.29 23.00 294.74 2544.55
   19:40:02.302.09-Sep-2020 5260.01 6288.91 74.29 23.00 294.94 2544.55
   19:40:02.503.09-Sep-2020 5260.01 6290.14 74.28 23.00 295.14 2544.55
   19:40:02.703.09-Sep-2020 5260.01 6290.14 74.28 23.00 295.34 2544.55
   19:40:02.903.09-Sep-2020 5260.01 6288.40 74.29 23.00 295.54 2544.55
   19:40:03.103.09-Sep-2020 5260.01 6287.61 74.29 23.00 295.74 2544.55
   19:40:03.303.09-Sep-2020 5260.01 6287.12 74.29 23.00 295.94 2544.55
   19:40:03.503.09-Sep-2020 5260.01 6286.90 74.29 23.00 296.14 2544.55
   19:40:03.703.09-Sep-2020 5260.01 6286.90 74.29 23.00 296.34 2544.55
   19:40:03.903.09-Sep-2020 5260.01 6286.99 74.29 23.00 296.54 2544.55
   19:40:04.103.09-Sep-2020 5260.01 6287.05 74.29 23.00 296.74 2544.55
   19:40:04.303.09-Sep-2020 5260.01 6286.37 74.29 23.00 296.94 2544.55
   19:40:04.503.09-Sep-2020 5260.01 6286.24 74.29 23.00 297.14 2544.55
   19:40:04.704.09-Sep-2020 5260.01 6286.24 74.29 23.00 297.34 2544.55
   19:40:04.904.09-Sep-2020 5260.01 6281.26 74.29 23.00 297.54 2544.55
   19:40:05.104.09-Sep-2020 5260.01 6287.21 74.29 23.00 297.74 2544.55
   19:40:05.304.09-Sep-2020 5260.01 6287.41 74.29 23.00 297.94 2544.55
   19:40:05.504.09-Sep-2020 5260.01 6287.03 74.29 23.00 298.14 2544.55
   19:40:05.704.09-Sep-2020 5260.01 6287.03 74.29 23.00 298.34 2544.55
   19:40:05.904.09-Sep-2020 5260.01 6299.35 74.29 23.00 298.54 2544.55
   19:40:06.104.09-Sep-2020 5260.01 6282.03 74.29 23.00 298.74 2544.55
   19:40:06.304.09-Sep-2020 5260.01 6288.40 74.29 23.00 298.94 2544.55
   19:40:06.504.09-Sep-2020 5260.01 6286.86 74.29 23.00 299.14 2544.55
   19:40:06.705.09-Sep-2020 5260.01 6286.86 74.29 23.00 299.34 2544.55
   19:40:06.905.09-Sep-2020 5260.01 6287.06 74.29 23.00 299.54 2544.55
   19:40:07.105.09-Sep-2020 5260.01 6294.16 74.29 23.00 299.74 2544.55
   19:40:07.305.09-Sep-2020 5260.01 6289.52 74.29 23.00 299.94 2544.55
   19:40:07.505.09-Sep-2020 5260.01 6286.11 74.29 23.00 300.14 2544.55
   19:40:07.705.09-Sep-2020 5260.01 6286.11 74.29 23.00 300.34 2544.55
   19:40:07.905.09-Sep-2020 5260.01 6286.71 74.29 23.00 300.54 2544.55
   19:40:08.105.09-Sep-2020 5260.01 6298.77 74.29 23.00 300.74 2544.55
   19:40:08.305.09-Sep-2020 5260.01 6283.51 74.29 23.00 300.94 2544.55
   19:40:08.505.09-Sep-2020 5260.01 6289.25 74.29 23.00 301.14 2544.55
   19:40:08.705.09-Sep-2020 5260.01 6289.25 74.29 23.00 301.34 2544.55
   19:40:08.906.09-Sep-2020 5260.01 6287.29 74.29 23.00 301.54 2544.55
   19:40:09.106.09-Sep-2020 5260.01 6292.24 74.29 23.00 301.74 2544.55
   19:40:09.306.09-Sep-2020 5260.01 6293.44 74.29 23.00 301.94 2544.55
   19:40:09.506.09-Sep-2020 5260.01 6287.40 74.29 23.00 302.14 2544.55
   19:40:09.706.09-Sep-2020 5260.01 6289.25 74.29 23.00 302.34 2544.55
   19:40:09.906.09-Sep-2020 5260.01 6287.56 74.29 23.00 302.54 2544.55
   19:40:10.106.09-Sep-2020 5260.01 6288.64 74.29 23.00 302.74 2544.55
   19:40:10.306.09-Sep-2020 5260.01 6289.52 74.29 23.00 302.94 2544.55
   19:40:10.506.09-Sep-2020 5260.01 6290.05 74.29 23.00 303.14 2544.55
   19:40:10.706.09-Sep-2020 5260.01 6290.05 74.29 23.00 303.34 2544.55
   19:40:10.906.09-Sep-2020 5260.01 6288.51 74.29 23.00 303.54 2544.55
   19:40:11.107.09-Sep-2020 5260.01 6288.09 74.29 23.00 303.74 2544.55
   19:40:11.307.09-Sep-2020 5260.01 6287.98 74.29 23.00 303.94 2544.55
   19:40:11.507.09-Sep-2020 5260.01 6287.79 74.29 23.00 304.14 2544.55
   19:40:11.707.09-Sep-2020 5260.01 6287.79 74.29 23.00 304.34 2544.55
   19:40:11.907.09-Sep-2020 5260.01 6287.71 74.29 23.00 304.54 2544.55
   19:40:12.107.09-Sep-2020 5260.01 6287.81 74.29 23.00 304.74 2544.55
   19:40:12.307.09-Sep-2020 5260.01 6287.77 74.29 23.00 304.94 2544.55
   19:40:12.507.09-Sep-2020 5260.01 6287.68 74.29 23.00 305.14 2544.55
   19:40:12.707.09-Sep-2020 5260.01 6287.68 74.29 23.00 305.34 2544.55
   19:40:12.907.09-Sep-2020 5260.01 6298.71 74.29 23.00 305.54 2544.55
   19:40:13.107.09-Sep-2020 5260.01 6282.88 74.29 23.00 305.74 2544.55
   19:40:13.308.09-Sep-2020 5260.01 6288.68 74.29 23.00 305.94 2544.55
   19:40:13.508.09-Sep-2020 5260.01 6287.49 74.29 23.00 306.14 2544.55
   19:40:13.708.09-Sep-2020 5260.01 6287.49 74.29 23.00 306.34 2544.55
   19:40:13.908.09-Sep-2020 5260.01 6287.83 74.29 23.00 306.54 2544.55
   19:40:14.108.09-Sep-2020 5260.01 6290.56 74.29 23.00 306.74 2544.55
   19:40:14.308.09-Sep-2020 5260.01 6287.43 74.29 23.00 306.94 2544.55
   19:40:14.508.09-Sep-2020 5260.01 6287.56 74.29 23.00 307.14 2544.55
   19:40:14.708.09-Sep-2020 5260.01 6287.56 74.29 23.00 307.34 2544.55
   19:40:14.908.09-Sep-2020 5260.01 6286.85 74.29 23.00 307.54 2544.55
   19:40:15.108.09-Sep-2020 5260.01 6286.50 74.29 23.00 307.74 2544.55
   19:40:15.308.09-Sep-2020 5260.01 6286.73 74.29 23.00 307.94 2544.55
   19:40:15.509.09-Sep-2020 5260.01 6286.97 74.29 23.00 308.14 2544.55
   19:40:15.709.09-Sep-2020 5260.01 6286.97 74.29 23.00 308.34 2544.55
   19:40:15.909.09-Sep-2020 5260.01 6286.17 74.29 23.00 308.54 2544.55
   19:40:16.109.09-Sep-2020 5260.01 6286.05 74.29 23.00 308.74 2544.55
   19:40:16.309.09-Sep-2020 5260.01 6296.80 74.29 23.00 308.94 2544.55
   19:40:16.509.09-Sep-2020 5260.01 6281.42 74.29 23.00 309.14 2544.55
   19:40:16.709.09-Sep-2020 5260.01 6281.42 74.29 23.00 309.34 2544.55
   19:40:16.909.09-Sep-2020 5260.01 6286.34 74.29 23.00 309.54 2544.55
   19:40:17.109.09-Sep-2020 5260.01 6286.47 74.29 23.00 309.74 2544.55
   19:40:17.309.09-Sep-2020 5260.01 6286.54 74.29 23.00 309.94 2544.55
   19:40:17.509.09-Sep-2020 5260.01 6297.15 74.29 23.00 310.14 2544.55
   19:40:17.710.09-Sep-2020 5260.01 6297.15 74.29 23.00 310.34 2544.55
   19:40:17.910.09-Sep-2020 5260.01 6288.19 74.29 23.00 310.54 2544.55
   19:40:18.110.09-Sep-2020 5260.01 6285.49 74.29 23.00 310.74 2544.55
   19:40:18.310.09-Sep-2020 5260.01 6286.88 74.29 23.00 310.94 2544.55
   19:40:18.510.09-Sep-2020 5260.01 6286.51 74.29 23.00 311.14 2544.55
   19:40:18.710.09-Sep-2020 5260.01 6286.51 74.29 23.00 311.34 2544.55
   19:40:18.910.09-Sep-2020 5260.01 6289.65 74.29 23.00 311.54 2544.55
   19:40:19.110.09-Sep-2020 5260.01 6285.49 74.29 23.00 311.74 2544.55
   19:40:19.310.09-Sep-2020 5260.01 6287.09 74.29 23.00 311.94 2544.55
   19:40:19.510.09-Sep-2020 5260.01 6286.68 74.29 23.00 312.14 2544.55
   19:40:19.711.09-Sep-2020 5260.01 6286.68 74.29 23.00 312.34 2544.55
   19:40:19.911.09-Sep-2020 5260.01 6283.54 74.29 23.00 312.54 2544.55
   19:40:20.111.09-Sep-2020 5260.01 6289.60 74.29 23.00 312.74 2544.55
   19:40:20.311.09-Sep-2020 5260.01 6286.56 74.29 23.00 312.94 2544.55
   19:40:20.511.09-Sep-2020 5260.01 6287.59 74.29 23.00 313.14 2544.55
   19:40:20.711.09-Sep-2020 5260.01 6287.59 74.29 23.00 313.34 2544.55
   19:40:20.911.09-Sep-2020 5260.01 6289.65 74.29 23.00 313.54 2544.55
   19:40:21.111.09-Sep-2020 5260.01 6289.42 74.29 23.00 313.74 2544.55
   19:40:21.311.09-Sep-2020 5260.01 6287.91 74.29 23.00 313.94 2544.55
   19:40:21.511.09-Sep-2020 5260.01 6288.30 74.29 23.00 314.14 2544.55
   19:40:21.711.09-Sep-2020 5260.01 6288.46 74.29 23.00 314.34 2544.55
   19:40:21.912.09-Sep-2020 5260.01 6291.62 74.29 23.00 314.54 2544.55
   19:40:22.112.09-Sep-2020 5260.01 6288.61 74.29 23.00 314.75 2544.55
   19:40:22.312.09-Sep-2020 5260.01 6288.95 74.29 23.00 314.95 2544.55
   19:40:22.512.09-Sep-2020 5260.01 6288.35 74.29 23.00 315.15 2544.55
   19:40:22.712.09-Sep-2020 5260.01 6288.35 74.29 23.00 315.35 2544.55
   19:40:22.912.09-Sep-2020 5260.01 6287.83 74.29 23.00 315.55 2544.55
   19:40:23.112.09-Sep-2020 5260.01 6287.69 74.29 23.00 315.75 2544.55
   19:40:23.312.09-Sep-2020 5260.01 6287.58 74.29 23.00 315.95 2544.55
   19:40:23.512.09-Sep-2020 5260.01 6286.40 74.29 23.00 316.15 2544.55
   19:40:23.712.09-Sep-2020 5260.01 6286.40 74.29 23.00 316.35 2544.55
