~Version Information
 VERS.                  2.0:   CWLS log ASCII Standard -VERSION 2.0
 WRAP.                   NO:   One line per depth step
~Well Information Block
#MNEM.UNIT     VALUE/NAME     DESCRIPTION
#---------     -----------    ---------------------------
 STRT.S             14:18:02 09-Sep-20: START TIME 14:18:02 09-Sep-20
 STOP.S             14:26:13 09-Sep-20: STOP TIME  14:26:13 09-Sep-20
 STEP.S                   0.00: STEP TIME
 NULL.                 -999.25: NULL VALUE
 MDS .        Operator Entered:  MAG DATA SOURCE
 PDAT.          Mean Sea Level:  PERMANENT DATUM
 DCON.         Sperry Drilling:  DIRECTNL CONTR
 RIG .              West Azeri:  RIG NAME
 WELL.           C40 (Slot 20):  WELL NAME
 SRVC.     Turan Drilling Engineering:  CONTRACTOR
 FLD .                     ACG:  FIELD NAME
 CTRY.              Azerbaijan:  COUNTRY NAME
 PROV.                    Baku:  PROVINCE
 STAT.                    Baku:  STATE NAME
 REGN.                   EESSA:  REGION
 BASE.              Azerbaijan:  LOGGING EQUIPMENT BASE LOCATION
 COMP.     BP Exploration (Caspian Sea) Ltd:  COMPANY
 WTYP.                Deviated:  WELL TYPE
 SON .        AZ-XX-0906344804:  JOB NUMBER
 FTOP.          Formation Tops:  FORM TOPS DESC
 ILTD.               Lithology:  INTERP LTH DESC
 SVYD.                  Survey:  SURVEY DESC
 DMOD.             Drill Model:  DRILL MOD DESC
 HPTY.       Minimum Curvature:  HOLE POS TYPE
 NREF.                    Grid:  NORTH REFERENCE
 SPUD.               01-Jan-20:  SPUD DATE
 DATE.      00.59.44 15-Sep-20:  END TIME
 STIM.      12.00.00 12-Jun-20:  START TIME
 DMF .             Drill Floor:  DRILL MEAS FROM
 DFST.                        :  DIST FSL TEXT
 DFWT.                        :  DIST FWL TEXT
 API .                        :  API NUMBER
 CNTY.                        :  COUNTY
 UWI .                        :  UNIQUE WELL IDENTIFIER
 LOC .                        :  LOCATION
 LMF .             Drill Floor:  LOG MEASURED FROM
 VSNS.m                   2.88:  VERT SEC N/S
 VSEW.m                  -3.84:  VERT SEC E/W
 AGAP.m                  43.42:  AIR GAP
 APD .m                  43.42:  DEPTH ABOVE PD
 WDMS.m                 118.27:  WD ELEV
 EGL .m                   0.00:  GROUND ELEVATION
 EPD .m                   0.00:  ELEVATION
 AZTC.deg                 6.23:  AZM TOTAL CORR
 GRDC.deg                 0.20:  GRID CORRECTION
 MDEC.deg                 6.43:  MAGNETIC DECL
 MDIP.deg                59.49:  MAGNETIC DIP
 MFLD.nT              50277.00:  MAGNETIC FIELD
 GVFD.g                   1.00:  GRAVITY FIELD
 VSDR.deg               173.20:  VERT SEC DIRECT
 TDD .m                5790.01:  TOTAL DEPTH (DRILLER)
 SDEP.m                5231.01:  START DEPTH
 DFSL.m                   0.00:  DISTANCE FSL
 DFWL.m                   0.00:  DISTANCE FWL
 UTMY.m             4435808.83:  UTM Y
 UTMX.m              526266.40:  UTM X
 WHEW.m                  -3.84:  WELL HEAD E/W
 WHNS.m                   2.88:  WELL HEAD N/S
 LONG.deg                51.31:  LONGITUDE
 LATI.deg                40.06:  LATITUDE
 TVDS.m                  43.42:  TVDSS CORRECTN
 DEP .m                 430.08:  DEPTH
 EKB .m                  43.42:  KB ELEVATION
 EDF .m                  43.42:  DF ELEVATION
 TDL .m                 559.00:  TOTAL DEPTH (LOGGER)
 MAGU.                 1849381:  MAGUTM CHECKSUM
 VSC .                       0:  VS TO CLOSURE
~Parameter Information Block
#MNEM.UNIT       Value        Description
#---------     -----------    ---------------------------
 AV  .mps                 4.87:  Ann Velocity 
 AVMX.mps                 7.08:  Max Ann Veloc 
 AZIF.deg               108.87:  Azm, Final 
 BHAT.                  Rotary:  BHA Type 
 BROT.°/30m               0.35:  Build Rotating 
 BS  .in                  8.50:  Bit Size 
 BSZ .in                  8.50:  Bit Size 
 BTPL.psig              360.00:  Bit Press Loss 
 CABU.                     Yes:  Customer Abuse 
 TCS .hr                106.24:  Time Ciculation Ended 
 CV  .mps                 1.77:  Crit Velocity 
 CVMX.mps                 2.03:  Max Crit Veloc 
 DD1 .         Aykhan Agagulov:  Direct Drillr 1 
 DD2 .            Nonso Okofor:  Direct Drillr 2 
 DDSV.               Geo-Pilot:  DD Service 
 DEFF.%                  98.00:  % Det Eff 
 DLRX.°/30m               0.50:  Dogleg Rot Max 
 DLSO.°/30m               0.40:  Dogleg Oriented 
 DLSX.°/30m               0.94:  Dogleg Str Max 
 DRET.      20.30.00 08-Sep-20:  Drill End Time 
 DRST.      22.15.00 06-Sep-20:  Drill Start Tim 
 DTIM.hr                 31.31:  Time Drilling 
 EDEP.m                5790.01:  End Depth 
 ENG1.           Amrah Tahirov:  Engineer 1 
 ENG2.         Dair Mahammadov:  Engineer 2 
 ENG3.           Emil Huseynov:  Engineer 3 
 ETIM.      04.01.04 12-Sep-20:  End Time 
 FLOI.gpm               450.00:  Flow In 
 FLON.gpm               450.00:  Flow In Min 
 FLOS.cptm                2.00:  Fluid Loss 
 FLOX.gpm               450.00:  Flow In Max 
 FTRO.       Formation Presure:  FTWD Run Obj 
 HFLO.                      No:  High Flow 
 HPRE.                      No:  High Pressure 
 HTEM.                      No:  High Temp 
 HYDO.m                   1.80:  Hydro Offset 
 IFIN.deg                72.03:  Inc, Final 
 IMAX.deg                73.72:  Inc Max 
 IMIN.deg                70.94:  Inc Min 
 IMND.m                5508.52:  Inc Min Depth 
 IMXD.m                5253.60:  Inc Max Depth 
 JARR.                      No:  Jarring 
 LETM.      20.30.00 08-Sep-20:  Log End Time 
 LOST.hr                     0:  Lost Rig Time 
 LSTM.      22.15.00 06-Sep-20:  Log Start Time 
 MDCL.ppm             36000.00:  Mud Chlorides 
 MDES.     Inversion Oil/Synthetic:  Mud Desc 
 DFD .sg                  1.44:  Mud Density 
 MDMN.sg                  1.44:  Dens Mud Min 
 MDMX.sg                  1.57:  Dens Mud Max 
 MOIL.                      70:  Run Mud Oil % 
 MOWR.                   70:30:  Run Mud OWR 
 MSND.                       0:  Run Mud Sand % 
 MSOL.                      21:  Run Mud Solids% 
 DFV .spqt               68.00:  Mud Viscosity 
 MWOD.in                  6.75:  MWD Tool OD 
 MWSI.                     Yes:  Serv Intrp, MWD 
 OTIM.hr                174.84:  Time Operating 
 PCON.           Look Like New:  Pad Condition 
 PMAX.psia            10616.93:  Press Op, Max 
 PV  .cP                 50.00:  Mud PV 
 RUN .                     700:  Run Number 
 ROPA.m/hr               14.24:  ROP Avg 
 ROPN.m/hr               10.00:  ROP Min 
 ROPX.m/hr               32.00:  ROP Max 
 RPMA.rpm               120.90:  RPM Surface Avg 
 RPMN.rpm               120.00:  RPM Surface Min 
 RPMX.rpm               140.00:  RPM Surface Max 
 RRUN.                    0700:  Rig Run Number 
 RTIM.hr                  3.20:  Time Reaming 
 SAZI.deg               109.99:  Azm, Start 
 SDEP.m                5231.01:  Start Depth 
 SIDD.                      No:  Serv Intrp, DD 
 SINC.deg                73.72:  Inc, Start 
 SPPA.psig             3051.00:  SPP Avg 
 SPPN.psig             2950.00:  SPP Min 
 SPPX.psig             3250.00:  SPP Max 
 STIM.      08.00.00 05-Sep-20:  Start Time 
 SVCS.                 DD, MWD:  Services 
 SVER.                    9.20:  Sperry Version 
 TDAT.m                 559.00:  Tot Depth Attmp 
 TDDF.                      No:  Trip for DD 
 TDLG.m                 559.00:  Tot Depth Loggd 
 TFF .                      No:  Trip for Fail 
 TQAA.f-kp               26.49:  Torque Abs Avg 
 TQAN.f-kp               25.00:  Torque Abs Min 
 TQAX.f-kp               27.00:  Torque Abs Max 
 TRRT.°/30m               1.50:  Turn Rotating 
 MRT .                    HCIM:  Maximum Recorded Temperature 
 TTMX.degC               90.20:  Max Tool Temp 
 VS01.                90542671:  Virtual Str1 SN 
 VS02.                90545185:  Virtual Str2 SN 
 VS03.                90602015:  Virtual Str3 SN 
 VS04.                90515230:  Virtual Str4 SN 
 WBMN.klb                 5.00:  WOB Min 
 WOBA.klb                14.79:  WOB Avg 
 WOBX.klb                20.00:  WOB Max 
 YP  .lhf2               29.00:  Yield Point 
~Curve Information Block
#MNEM.UNIT                 API CODE     Curve Description
#---------               -----------    ---------------------------
 TIME.HHMMSS            00 000 000 000:  GT Time & Date
 GTDEPTH.m              00 000 000 000:  GT Depth
 GTPQH.psia             00 000 000 000:  GT HR Quartz Pressure
 GTTQ.degC              00 000 000 000:  GT Quartz Temperature
 GTTN.NONE              00 000 000 000:  GT Test Number
 GTET.sec               00 000 000 000:  GT Elapsed Test Time
 GTTVD.m                00 000 000 000:  GT True Vertical Depth
#Other Information
#
#WARRANTY: Halliburton will use its best efforts to furnish customers with 
#accurate information and interpretations that are part of, and incident to, the services 
#provided.  However, Halliburton cannot and does not warrant the accuracy 
#or correctness of such information and interpretations.  Under no circumstances should any 
#such information or interpretation be relied upon as the sole basis for any drilling, 
#completion, production, or financial decision or any procedure involving any risk to the 
#safety of any drilling venture, drilling rig or its crew or any other third party.  The 
#Customer has full responsibility for all drilling, completion and production operation.  
#Halliburton makes no representations or warranties, either expressed or 
#implied, including, but not limited to, the implied warranties of merchantability or fitness 
#for a particular purpose, with respect to the services rendered.  In no event will 
#Halliburton be liable for failure to obtain any particular results or for 
#any damages, including, but not limited to, indirect, special or consequential damages, 
#resulting from the use of any information or interpretation provided by Halliburton.
#
~A           TIME           GTDEPTH  GTPQH  GTTQ  GTTN   GTET   GTTVD  
# ...
   14:20:40.517.09-Sep-2020 5408.01 1261.58 75.21 16.00 158.30 2589.60
   14:20:40.717.09-Sep-2020 5408.01 1261.72 75.21 16.00 158.50 2589.60
   14:20:40.918.09-Sep-2020 5408.01 1262.49 75.21 16.00 158.70 2589.60
   14:20:41.118.09-Sep-2020 5408.01 1263.09 75.21 16.00 158.90 2589.60
   14:20:41.318.09-Sep-2020 5408.01 1263.60 75.21 16.00 159.10 2589.60
   14:20:41.518.09-Sep-2020 5408.01 1264.27 75.21 16.00 159.30 2589.60
   14:20:41.718.09-Sep-2020 5408.01 1264.44 75.21 16.00 159.50 2589.60
   14:20:41.918.09-Sep-2020 5408.01 1263.90 75.21 16.00 159.70 2589.60
   14:20:42.118.09-Sep-2020 5408.01 1265.49 75.21 16.00 159.90 2589.60
   14:20:42.318.09-Sep-2020 5408.01 1266.07 75.21 16.00 160.10 2589.60
   14:20:42.519.09-Sep-2020 5408.01 1266.07 75.21 16.00 160.30 2589.60
   14:20:42.719.09-Sep-2020 5408.01 1266.65 75.21 16.00 160.50 2589.60
   14:20:42.919.09-Sep-2020 5408.01 1266.46 75.21 16.00 160.70 2589.60
   14:20:43.119.09-Sep-2020 5408.01 1267.78 75.21 16.00 160.90 2589.60
   14:20:43.319.09-Sep-2020 5408.01 1268.25 75.21 16.00 161.10 2589.60
   14:20:43.519.09-Sep-2020 5408.01 1268.25 75.21 16.00 161.30 2589.60
   14:20:43.719.09-Sep-2020 5408.01 1268.83 75.21 16.00 161.50 2589.60
   14:20:43.919.09-Sep-2020 5408.01 1269.56 75.21 16.00 161.70 2589.60
   14:20:44.120.09-Sep-2020 5408.01 1269.73 75.21 16.00 161.90 2589.60
   14:20:44.320.09-Sep-2020 5408.01 1270.07 75.21 16.00 162.10 2589.60
   14:20:44.520.09-Sep-2020 5408.01 1270.07 75.21 16.00 162.30 2589.60
   14:20:44.720.09-Sep-2020 5408.01 1270.92 75.21 16.00 162.50 2589.60
   14:20:44.920.09-Sep-2020 5408.01 1271.29 75.21 16.00 162.70 2589.60
   14:20:45.120.09-Sep-2020 5408.01 1271.57 75.21 16.00 162.90 2589.60
   14:20:45.320.09-Sep-2020 5408.01 1271.92 75.21 16.00 163.10 2589.60
   14:20:45.520.09-Sep-2020 5408.01 1271.92 75.21 16.00 163.30 2589.60
   14:20:45.720.09-Sep-2020 5408.01 1272.71 75.21 16.00 163.50 2589.60
   14:20:45.921.09-Sep-2020 5408.01 1273.07 75.21 16.00 163.70 2589.60
   14:20:46.121.09-Sep-2020 5408.01 1273.44 75.21 16.00 163.90 2589.60
   14:20:46.321.09-Sep-2020 5408.01 1273.82 75.21 16.00 164.10 2589.60
   14:20:46.521.09-Sep-2020 5408.01 1273.26 75.21 16.00 164.30 2589.60
   14:20:46.721.09-Sep-2020 5408.01 1274.69 75.21 16.00 164.50 2589.60
   14:20:46.921.09-Sep-2020 5408.01 1275.15 75.21 16.00 164.70 2589.60
   14:20:47.121.09-Sep-2020 5408.01 1275.56 75.21 16.00 164.90 2589.60
   14:20:47.321.09-Sep-2020 5408.01 1275.72 75.21 16.00 165.10 2589.60
   14:20:47.522.09-Sep-2020 5408.01 1275.72 75.21 16.00 165.30 2589.60
   14:20:47.722.09-Sep-2020 5408.01 1276.57 75.21 16.00 165.50 2589.60
   14:20:47.922.09-Sep-2020 5408.01 1276.86 75.21 16.00 165.70 2589.60
   14:20:48.122.09-Sep-2020 5408.01 1277.17 75.21 16.00 165.90 2589.60
   14:20:48.322.09-Sep-2020 5408.01 1277.51 75.21 16.00 166.10 2589.60
   14:20:48.522.09-Sep-2020 5408.01 1277.51 75.21 16.00 166.30 2589.60
   14:20:48.722.09-Sep-2020 5408.01 1278.24 75.21 16.00 166.50 2589.60
   14:20:48.922.09-Sep-2020 5408.01 1278.62 75.21 16.00 166.70 2589.60
   14:20:49.123.09-Sep-2020 5408.01 1278.96 75.21 16.00 166.90 2589.60
   14:20:49.323.09-Sep-2020 5408.01 1279.31 75.21 16.00 167.10 2589.60
   14:20:49.523.09-Sep-2020 5408.01 1279.31 75.21 16.00 167.30 2589.60
   14:20:49.723.09-Sep-2020 5408.01 1280.00 75.21 16.00 167.50 2589.60
   14:20:49.923.09-Sep-2020 5408.01 1279.87 75.21 16.00 167.70 2589.60
   14:20:50.123.09-Sep-2020 5408.01 1280.67 75.21 16.00 167.90 2589.60
   14:20:50.323.09-Sep-2020 5408.01 1281.15 75.21 16.00 168.10 2589.60
   14:20:50.523.09-Sep-2020 5408.01 1281.55 75.21 16.00 168.30 2589.60
   14:20:50.724.09-Sep-2020 5408.01 1282.10 75.21 16.00 168.50 2589.60
   14:20:50.924.09-Sep-2020 5408.01 1281.89 75.21 16.00 168.70 2589.60
   14:20:51.124.09-Sep-2020 5408.01 1282.16 75.21 16.00 168.90 2589.60
   14:20:51.324.09-Sep-2020 5408.01 1283.20 75.21 16.00 169.10 2589.60
   14:20:51.524.09-Sep-2020 5408.01 1283.20 75.21 16.00 169.30 2589.60
   14:20:51.724.09-Sep-2020 5408.01 1283.73 75.21 16.00 169.50 2589.60
   14:20:51.924.09-Sep-2020 5408.01 1284.44 75.21 16.00 169.70 2589.60
   14:20:52.124.09-Sep-2020 5408.01 1284.50 75.21 16.00 169.90 2589.60
   14:20:52.325.09-Sep-2020 5408.01 1284.80 75.21 16.00 170.10 2589.60
   14:20:52.525.09-Sep-2020 5408.01 1284.80 75.21 16.00 170.30 2589.60
   14:20:52.725.09-Sep-2020 5408.01 1285.72 75.21 16.00 170.50 2589.60
   14:20:52.925.09-Sep-2020 5408.01 1286.10 75.21 16.00 170.70 2589.60
   14:20:53.125.09-Sep-2020 5408.01 1286.46 75.21 16.00 170.90 2589.60
   14:20:53.325.09-Sep-2020 5408.01 1286.73 75.21 16.00 171.10 2589.60
   14:20:53.525.09-Sep-2020 5408.01 1286.73 75.21 16.00 171.30 2589.60
   14:20:53.725.09-Sep-2020 5408.01 1287.19 75.21 16.00 171.50 2589.60
   14:20:53.926.09-Sep-2020 5408.01 1287.56 75.21 16.00 171.70 2589.60
   14:20:54.126.09-Sep-2020 5408.01 1288.49 75.21 16.00 171.91 2589.60
   14:20:54.326.09-Sep-2020 5408.01 1288.71 75.21 16.00 172.11 2589.60
   14:20:54.526.09-Sep-2020 5408.01 1289.02 75.21 16.00 172.31 2589.60
   14:20:54.726.09-Sep-2020 5408.01 1289.70 75.21 16.00 172.51 2589.60
   14:20:54.926.09-Sep-2020 5408.01 1289.41 75.21 16.00 172.71 2589.60
   14:20:55.126.09-Sep-2020 5408.01 1290.09 75.21 16.00 172.91 2589.60
   14:20:55.326.09-Sep-2020 5408.01 1290.65 75.21 16.00 173.11 2589.60
   14:20:55.526.09-Sep-2020 5408.01 1290.65 75.21 16.00 173.31 2589.60
   14:20:55.727.09-Sep-2020 5408.01 1291.57 75.21 16.00 173.51 2589.60
   14:20:55.927.09-Sep-2020 5408.01 1291.70 75.21 16.00 173.71 2589.60
   14:20:56.127.09-Sep-2020 5408.01 1292.10 75.21 16.00 173.91 2589.60
   14:20:56.327.09-Sep-2020 5408.01 1292.52 75.21 16.00 174.11 2589.60
   14:20:56.527.09-Sep-2020 5408.01 1292.52 75.21 16.00 174.31 2589.60
   14:20:56.727.09-Sep-2020 5408.01 1293.07 75.21 16.00 174.51 2589.60
   14:20:56.927.09-Sep-2020 5408.01 1293.43 75.21 16.00 174.71 2589.60
   14:20:57.127.09-Sep-2020 5408.01 1293.81 75.21 16.00 174.91 2589.60
   14:20:57.328.09-Sep-2020 5408.01 1294.15 75.21 16.00 175.11 2589.60
   14:20:57.528.09-Sep-2020 5408.01 1294.15 75.21 16.00 175.31 2589.60
   14:20:57.728.09-Sep-2020 5408.01 1294.79 75.21 16.00 175.51 2589.60
   14:20:57.928.09-Sep-2020 5408.01 1295.15 75.21 16.00 175.71 2589.60
   14:20:58.128.09-Sep-2020 5408.01 1295.46 75.21 16.00 175.91 2589.60
   14:20:58.328.09-Sep-2020 5408.01 1295.73 75.21 16.00 176.11 2589.60
   14:20:58.528.09-Sep-2020 5408.01 1295.73 75.21 16.00 176.31 2589.60
   14:20:58.728.09-Sep-2020 5408.01 1296.28 75.21 16.00 176.51 2589.60
   14:20:58.929.09-Sep-2020 5408.01 1296.72 75.21 16.00 176.71 2589.60
   14:20:59.129.09-Sep-2020 5408.01 1297.16 75.21 16.00 176.91 2589.60
   14:20:59.329.09-Sep-2020 5408.01 1297.71 75.21 16.00 177.11 2589.60
   14:20:59.529.09-Sep-2020 5408.01 1297.71 75.21 16.00 177.31 2589.60
   14:20:59.729.09-Sep-2020 5408.01 1298.13 75.21 16.00 177.51 2589.60
   14:20:59.929.09-Sep-2020 5408.01 1298.43 75.21 16.00 177.71 2589.60
   14:21:00.129.09-Sep-2020 5408.01 1298.77 75.21 16.00 177.91 2589.60
   14:21:00.329.09-Sep-2020 5408.01 1298.98 75.21 16.00 178.11 2589.60
   14:21:00.530.09-Sep-2020 5408.01 1298.98 75.21 16.00 178.31 2589.60
   14:21:00.730.09-Sep-2020 5408.01 1299.75 75.21 16.00 178.51 2589.60
   14:21:00.930.09-Sep-2020 5408.01 1300.11 75.21 16.00 178.71 2589.60
   14:21:01.130.09-Sep-2020 5408.01 1300.29 75.21 16.00 178.91 2589.60
   14:21:01.330.09-Sep-2020 5408.01 1300.54 75.21 16.00 179.11 2589.60
   14:21:01.530.09-Sep-2020 5408.01 1300.54 75.21 16.00 179.31 2589.60
   14:21:01.730.09-Sep-2020 5408.01 1300.92 75.21 16.00 179.51 2589.60
   14:21:01.930.09-Sep-2020 5408.01 1295.23 75.21 16.00 179.71 2589.60
   14:21:02.131.09-Sep-2020 5408.01 1098.90 75.21 16.00 179.91 2589.60
   14:21:02.331.09-Sep-2020 5408.01  782.99 75.21 16.00 180.11 2589.60
   14:21:02.531.09-Sep-2020 5408.01  782.99 75.21 16.00 180.31 2589.60
   14:21:02.731.09-Sep-2020 5408.01  634.45 75.21 16.00 180.51 2589.60
   14:21:02.931.09-Sep-2020 5408.01  612.14 75.21 16.00 180.71 2589.60
