~Version Information
 VERS.                  2.0:   CWLS log ASCII Standard -VERSION 2.0
 WRAP.                   NO:   One line per depth step
~Well Information Block
#MNEM.UNIT     VALUE/NAME     DESCRIPTION
#---------     -----------    ---------------------------
 STRT.S             17:25:53 09-Sep-20: START TIME 17:25:53 09-Sep-20
 STOP.S             17:34:04 09-Sep-20: STOP TIME  17:34:04 09-Sep-20
 STEP.S                   0.00: STEP TIME
 NULL.                 -999.25: NULL VALUE
 MDS .        Operator Entered:  MAG DATA SOURCE
 PDAT.          Mean Sea Level:  PERMANENT DATUM
 DCON.         Sperry Drilling:  DIRECTNL CONTR
 RIG .              West Azeri:  RIG NAME
 WELL.           C40 (Slot 20):  WELL NAME
 SRVC.     Turan Drilling Engineering:  CONTRACTOR
 FLD .                     ACG:  FIELD NAME
 CTRY.              Azerbaijan:  COUNTRY NAME
 PROV.                    Baku:  PROVINCE
 STAT.                    Baku:  STATE NAME
 REGN.                   EESSA:  REGION
 BASE.              Azerbaijan:  LOGGING EQUIPMENT BASE LOCATION
 COMP.     BP Exploration (Caspian Sea) Ltd:  COMPANY
 WTYP.                Deviated:  WELL TYPE
 SON .        AZ-XX-0906344804:  JOB NUMBER
 FTOP.          Formation Tops:  FORM TOPS DESC
 ILTD.               Lithology:  INTERP LTH DESC
 SVYD.                  Survey:  SURVEY DESC
 DMOD.             Drill Model:  DRILL MOD DESC
 HPTY.       Minimum Curvature:  HOLE POS TYPE
 NREF.                    Grid:  NORTH REFERENCE
 SPUD.               01-Jan-20:  SPUD DATE
 DATE.      00.59.44 15-Sep-20:  END TIME
 STIM.      12.00.00 12-Jun-20:  START TIME
 DMF .             Drill Floor:  DRILL MEAS FROM
 DFST.                        :  DIST FSL TEXT
 DFWT.                        :  DIST FWL TEXT
 API .                        :  API NUMBER
 CNTY.                        :  COUNTY
 UWI .                        :  UNIQUE WELL IDENTIFIER
 LOC .                        :  LOCATION
 LMF .             Drill Floor:  LOG MEASURED FROM
 VSNS.m                   2.88:  VERT SEC N/S
 VSEW.m                  -3.84:  VERT SEC E/W
 AGAP.m                  43.42:  AIR GAP
 APD .m                  43.42:  DEPTH ABOVE PD
 WDMS.m                 118.27:  WD ELEV
 EGL .m                   0.00:  GROUND ELEVATION
 EPD .m                   0.00:  ELEVATION
 AZTC.deg                 6.23:  AZM TOTAL CORR
 GRDC.deg                 0.20:  GRID CORRECTION
 MDEC.deg                 6.43:  MAGNETIC DECL
 MDIP.deg                59.49:  MAGNETIC DIP
 MFLD.nT              50277.00:  MAGNETIC FIELD
 GVFD.g                   1.00:  GRAVITY FIELD
 VSDR.deg               173.20:  VERT SEC DIRECT
 TDD .m                5790.01:  TOTAL DEPTH (DRILLER)
 SDEP.m                5231.01:  START DEPTH
 DFSL.m                   0.00:  DISTANCE FSL
 DFWL.m                   0.00:  DISTANCE FWL
 UTMY.m             4435808.83:  UTM Y
 UTMX.m              526266.40:  UTM X
 WHEW.m                  -3.84:  WELL HEAD E/W
 WHNS.m                   2.88:  WELL HEAD N/S
 LONG.deg                51.31:  LONGITUDE
 LATI.deg                40.06:  LATITUDE
 TVDS.m                  43.42:  TVDSS CORRECTN
 DEP .m                 430.08:  DEPTH
 EKB .m                  43.42:  KB ELEVATION
 EDF .m                  43.42:  DF ELEVATION
 TDL .m                 559.00:  TOTAL DEPTH (LOGGER)
 MAGU.                 1849381:  MAGUTM CHECKSUM
 VSC .                       0:  VS TO CLOSURE
~Parameter Information Block
#MNEM.UNIT       Value        Description
#---------     -----------    ---------------------------
 AV  .mps                 4.87:  Ann Velocity 
 AVMX.mps                 7.08:  Max Ann Veloc 
 AZIF.deg               108.87:  Azm, Final 
 BHAT.                  Rotary:  BHA Type 
 BROT.°/30m               0.35:  Build Rotating 
 BS  .in                  8.50:  Bit Size 
 BSZ .in                  8.50:  Bit Size 
 BTPL.psig              360.00:  Bit Press Loss 
 CABU.                     Yes:  Customer Abuse 
 COMM.                     ô¸n:  Run Comments 1 
 TCS .hr                106.24:  Time Ciculation Ended 
 CV  .mps                 1.77:  Crit Velocity 
 CVMX.mps                 2.03:  Max Crit Veloc 
 DD1 .         Aykhan Agagulov:  Direct Drillr 1 
 DD2 .            Nonso Okofor:  Direct Drillr 2 
 DDSV.               Geo-Pilot:  DD Service 
 DEFF.%                  98.00:  % Det Eff 
 DLRX.°/30m               0.50:  Dogleg Rot Max 
 DLSO.°/30m               0.40:  Dogleg Oriented 
 DLSX.°/30m               0.94:  Dogleg Str Max 
 DRET.      20.30.00 08-Sep-20:  Drill End Time 
 DRST.      22.15.00 06-Sep-20:  Drill Start Tim 
 DTIM.hr                 31.31:  Time Drilling 
 EDEP.m                5790.01:  End Depth 
 ENG1.           Amrah Tahirov:  Engineer 1 
 ENG2.         Dair Mahammadov:  Engineer 2 
 ENG3.           Emil Huseynov:  Engineer 3 
 ETIM.      04.01.04 12-Sep-20:  End Time 
 FLOI.gpm               450.00:  Flow In 
 FLON.gpm               450.00:  Flow In Min 
 FLOS.cptm                2.00:  Fluid Loss 
 FLOX.gpm               450.00:  Flow In Max 
 FTRO.       Formation Presure:  FTWD Run Obj 
 HFLO.                      No:  High Flow 
 HPRE.                      No:  High Pressure 
 HTEM.                      No:  High Temp 
 HYDO.m                   1.80:  Hydro Offset 
 IFIN.deg                72.03:  Inc, Final 
 IMAX.deg                73.72:  Inc Max 
 IMIN.deg                70.94:  Inc Min 
 IMND.m                5508.52:  Inc Min Depth 
 IMXD.m                5253.60:  Inc Max Depth 
 JARR.                      No:  Jarring 
 LETM.      20.30.00 08-Sep-20:  Log End Time 
 LOST.hr                     0:  Lost Rig Time 
 LSTM.      22.15.00 06-Sep-20:  Log Start Time 
 MDCL.ppm             36000.00:  Mud Chlorides 
 MDES.     Inversion Oil/Synthetic:  Mud Desc 
 DFD .sg                  1.44:  Mud Density 
 MDMN.sg                  1.44:  Dens Mud Min 
 MDMX.sg                  1.57:  Dens Mud Max 
 MOIL.                      70:  Run Mud Oil % 
 MOWR.                   70:30:  Run Mud OWR 
 MSND.                       0:  Run Mud Sand % 
 MSOL.                      21:  Run Mud Solids% 
 DFV .spqt               68.00:  Mud Viscosity 
 MWOD.in                  6.75:  MWD Tool OD 
 MWSI.                     Yes:  Serv Intrp, MWD 
 OTIM.hr                174.84:  Time Operating 
 PCON.           Look Like New:  Pad Condition 
 PMAX.psia            10616.93:  Press Op, Max 
 PV  .cP                 50.00:  Mud PV 
 RUN .                     700:  Run Number 
 ROPA.m/hr               14.24:  ROP Avg 
 ROPN.m/hr               10.00:  ROP Min 
 ROPX.m/hr               32.00:  ROP Max 
 RPMA.rpm               120.90:  RPM Surface Avg 
 RPMN.rpm               120.00:  RPM Surface Min 
 RPMX.rpm               140.00:  RPM Surface Max 
 RRUN.                    0700:  Rig Run Number 
 RTIM.hr                  3.20:  Time Reaming 
 SAZI.deg               109.99:  Azm, Start 
 SDEP.m                5231.01:  Start Depth 
 SIDD.                      No:  Serv Intrp, DD 
 SINC.deg                73.72:  Inc, Start 
 SPPA.psig             3051.00:  SPP Avg 
 SPPN.psig             2950.00:  SPP Min 
 SPPX.psig             3250.00:  SPP Max 
 STIM.      08.00.00 05-Sep-20:  Start Time 
 SVCS.                 DD, MWD:  Services 
 SVER.                    9.20:  Sperry Version 
 TDAT.m                 559.00:  Tot Depth Attmp 
 TDDF.                      No:  Trip for DD 
 TDLG.m                 559.00:  Tot Depth Loggd 
 TFF .                      No:  Trip for Fail 
 TQAA.f-kp               26.49:  Torque Abs Avg 
 TQAN.f-kp               25.00:  Torque Abs Min 
 TQAX.f-kp               27.00:  Torque Abs Max 
 TRRT.°/30m               1.50:  Turn Rotating 
 MRT .                    HCIM:  Maximum Recorded Temperature 
 TTMX.degC               90.20:  Max Tool Temp 
 VS01.                90542671:  Virtual Str1 SN 
 VS02.                90545185:  Virtual Str2 SN 
 VS03.                90602015:  Virtual Str3 SN 
 VS04.                90515230:  Virtual Str4 SN 
 WBMN.klb                 5.00:  WOB Min 
 WOBA.klb                14.79:  WOB Avg 
 WOBX.klb                20.00:  WOB Max 
 YP  .lhf2               29.00:  Yield Point 
~Curve Information Block
#MNEM.UNIT                 API CODE     Curve Description
#---------               -----------    ---------------------------
 TIME.HHMMSS            00 000 000 000:  GT Time & Date
 GTDEPTH.m              00 000 000 000:  GT Depth
 GTPQH.psia             00 000 000 000:  GT HR Quartz Pressure
 GTTQ.degC              00 000 000 000:  GT Quartz Temperature
 GTTN.NONE              00 000 000 000:  GT Test Number
 GTET.sec               00 000 000 000:  GT Elapsed Test Time
 GTTVD.m                00 000 000 000:  GT True Vertical Depth
#Other Information
#
#WARRANTY: Halliburton will use its best efforts to furnish customers with 
#accurate information and interpretations that are part of, and incident to, the services 
#provided.  However, Halliburton cannot and does not warrant the accuracy 
#or correctness of such information and interpretations.  Under no circumstances should any 
#such information or interpretation be relied upon as the sole basis for any drilling, 
#completion, production, or financial decision or any procedure involving any risk to the 
#safety of any drilling venture, drilling rig or its crew or any other third party.  The 
#Customer has full responsibility for all drilling, completion and production operation.  
#Halliburton makes no representations or warranties, either expressed or 
#implied, including, but not limited to, the implied warranties of merchantability or fitness 
#for a particular purpose, with respect to the services rendered.  In no event will 
#Halliburton be liable for failure to obtain any particular results or for 
#any damages, including, but not limited to, indirect, special or consequential damages, 
#resulting from the use of any information or interpretation provided by Halliburton.
#
~A           TIME           GTDEPTH  GTPQH  GTTQ  GTTN   GTET   GTTVD  
# ...
   17:27:23.552.09-Sep-2020 5302.51 6306.21 74.62 20.00  90.44 2556.93
   17:27:23.752.09-Sep-2020 5302.51 6306.81 74.62 20.00  90.64 2556.93
   17:27:23.952.09-Sep-2020 5302.51 6306.64 74.62 20.00  90.84 2556.93
   17:27:24.152.09-Sep-2020 5302.51 6306.41 74.62 20.00  91.04 2556.93
   17:27:24.352.09-Sep-2020 5302.51 6306.41 74.62 20.00  91.24 2556.93
   17:27:24.552.09-Sep-2020 5302.51 6304.73 74.62 20.00  91.44 2556.93
   17:27:24.753.09-Sep-2020 5302.51 6304.73 74.62 20.00  91.64 2556.93
   17:27:24.953.09-Sep-2020 5302.51 6304.87 74.62 20.00  91.84 2556.93
   17:27:25.153.09-Sep-2020 5302.51 6304.83 74.62 20.00  92.04 2556.93
   17:27:25.353.09-Sep-2020 5302.51 6304.83 74.62 20.00  92.24 2556.93
   17:27:25.553.09-Sep-2020 5302.51 6305.14 74.62 20.00  92.44 2556.93
   17:27:25.753.09-Sep-2020 5302.51 6305.15 74.62 20.00  92.64 2556.93
   17:27:25.953.09-Sep-2020 5302.51 6305.15 74.62 20.00  92.84 2556.93
   17:27:26.153.09-Sep-2020 5302.51 6305.23 74.62 20.00  93.04 2556.93
   17:27:26.353.09-Sep-2020 5302.51 6305.23 74.62 20.00  93.24 2556.93
   17:27:26.553.09-Sep-2020 5302.51 6314.70 74.62 20.00  93.44 2556.93
   17:27:26.754.09-Sep-2020 5302.51 6303.92 74.62 20.00  93.64 2556.93
   17:27:26.954.09-Sep-2020 5302.51 6304.12 74.62 20.00  93.84 2556.93
   17:27:27.154.09-Sep-2020 5302.51 6306.10 74.62 20.00  94.05 2556.93
   17:27:27.354.09-Sep-2020 5302.51 6306.42 74.62 20.00  94.25 2556.93
   17:27:27.554.09-Sep-2020 5302.51 6307.68 74.62 20.00  94.45 2556.93
   17:27:27.754.09-Sep-2020 5302.51 6306.79 74.62 20.00  94.65 2556.93
   17:27:27.954.09-Sep-2020 5302.51 6305.92 74.62 20.00  94.85 2556.93
   17:27:28.154.09-Sep-2020 5302.51 6305.57 74.62 20.00  95.05 2556.93
   17:27:28.354.09-Sep-2020 5302.51 6305.85 74.62 20.00  95.25 2556.93
   17:27:28.554.09-Sep-2020 5302.51 6306.52 74.62 20.00  95.45 2556.93
   17:27:28.754.09-Sep-2020 5302.51 6306.42 74.62 20.00  95.65 2556.93
   17:27:28.955.09-Sep-2020 5302.51 6305.88 74.62 20.00  95.85 2556.93
   17:27:29.155.09-Sep-2020 5302.51 6305.91 74.62 20.00  96.05 2556.93
   17:27:29.355.09-Sep-2020 5302.51 6305.91 74.62 20.00  96.25 2556.93
   17:27:29.555.09-Sep-2020 5302.51 6305.97 74.62 20.00  96.45 2556.93
   17:27:29.755.09-Sep-2020 5302.51 6306.31 74.62 20.00  96.65 2556.93
   17:27:29.955.09-Sep-2020 5302.51 6315.92 74.62 20.00  96.85 2556.93
   17:27:30.155.09-Sep-2020 5302.51 6305.18 74.62 20.00  97.05 2556.93
   17:27:30.355.09-Sep-2020 5302.51 6305.18 74.62 20.00  97.25 2556.93
   17:27:30.555.09-Sep-2020 5302.51 6306.86 74.62 20.00  97.45 2556.93
   17:27:30.755.09-Sep-2020 5302.51 6306.89 74.62 20.00  97.65 2556.93
   17:27:30.956.09-Sep-2020 5302.51 6308.42 74.62 20.00  97.85 2556.93
   17:27:31.156.09-Sep-2020 5302.51 6316.11 74.62 20.00  98.05 2556.93
   17:27:31.356.09-Sep-2020 5302.51 6316.11 74.62 20.00  98.25 2556.93
   17:27:31.556.09-Sep-2020 5302.51 6306.47 74.62 20.00  98.45 2556.93
   17:27:31.756.09-Sep-2020 5302.51 6306.88 74.62 20.00  98.65 2556.93
   17:27:31.956.09-Sep-2020 5302.51 6307.69 74.62 20.00  98.85 2556.93
   17:27:32.156.09-Sep-2020 5302.51 6308.72 74.62 20.00  99.05 2556.93
   17:27:32.356.09-Sep-2020 5302.51 6308.72 74.62 20.00  99.25 2556.93
   17:27:32.556.09-Sep-2020 5302.51 6311.50 74.62 20.00  99.45 2556.93
   17:27:32.756.09-Sep-2020 5302.51 6310.06 74.62 20.00  99.65 2556.93
   17:27:32.957.09-Sep-2020 5302.51 6306.69 74.62 20.00  99.85 2556.93
   17:27:33.157.09-Sep-2020 5302.51 6308.82 74.62 20.00 100.05 2556.93
   17:27:33.357.09-Sep-2020 5302.51 6308.82 74.62 20.00 100.25 2556.93
   17:27:33.557.09-Sep-2020 5302.51 6317.71 74.62 20.00 100.45 2556.93
   17:27:33.757.09-Sep-2020 5302.51 6307.64 74.62 20.00 100.65 2556.93
   17:27:33.957.09-Sep-2020 5302.51 6308.86 74.62 20.00 100.85 2556.93
   17:27:34.157.09-Sep-2020 5302.51 6308.65 74.62 20.00 101.05 2556.93
   17:27:34.357.09-Sep-2020 5302.51 6308.65 74.62 20.00 101.25 2556.93
   17:27:34.557.09-Sep-2020 5302.51 6314.69 74.62 20.00 101.45 2556.93
   17:27:34.757.09-Sep-2020 5302.51 6313.32 74.62 20.00 101.65 2556.93
   17:27:34.957.09-Sep-2020 5302.51 6309.13 74.62 20.00 101.85 2556.93
   17:27:35.158.09-Sep-2020 5302.51 6310.56 74.62 20.00 102.05 2556.93
   17:27:35.358.09-Sep-2020 5302.51 6310.56 74.62 20.00 102.25 2556.93
   17:27:35.558.09-Sep-2020 5302.51 6312.04 74.62 20.00 102.45 2556.93
   17:27:35.758.09-Sep-2020 5302.51 6311.09 74.62 20.00 102.65 2556.93
   17:27:35.958.09-Sep-2020 5302.51 6310.99 74.62 20.00 102.85 2556.93
   17:27:36.158.09-Sep-2020 5302.51 6310.85 74.62 20.00 103.05 2556.93
   17:27:36.358.09-Sep-2020 5302.51 6310.85 74.62 20.00 103.25 2556.93
   17:27:36.558.09-Sep-2020 5302.51 6311.00 74.62 20.00 103.45 2556.93
   17:27:36.758.09-Sep-2020 5302.51 6310.61 74.62 20.00 103.65 2556.93
   17:27:36.958.09-Sep-2020 5302.51 6310.49 74.62 20.00 103.85 2556.93
   17:27:37.159.09-Sep-2020 5302.51 6310.50 74.62 20.00 104.05 2556.93
   17:27:37.359.09-Sep-2020 5302.51 6310.50 74.62 20.00 104.25 2556.93
   17:27:37.559.09-Sep-2020 5302.51 6310.81 74.62 20.00 104.45 2556.93
   17:27:37.759.09-Sep-2020 5302.51 6310.91 74.62 20.00 104.65 2556.93
   17:27:37.959.09-Sep-2020 5302.51 6310.95 74.62 20.00 104.85 2556.93
   17:27:38.159.09-Sep-2020 5302.51 6310.96 74.62 20.00 105.05 2556.93
   17:27:38.359.09-Sep-2020 5302.51 6310.96 74.62 20.00 105.25 2556.93
   17:27:38.559.09-Sep-2020 5302.51 6310.11 74.62 20.00 105.45 2556.93
   17:27:38.759.09-Sep-2020 5302.51 6311.49 74.62 20.00 105.65 2556.93
   17:27:38.959.09-Sep-2020 5302.51 6311.97 74.62 20.00 105.85 2556.93
   17:27:39.159.09-Sep-2020 5302.51 6311.86 74.62 20.00 106.05 2556.93
   17:27:39.360.09-Sep-2020 5302.51 6311.86 74.62 20.00 106.25 2556.93
   17:27:39.560.09-Sep-2020 5302.51 6312.35 74.62 20.00 106.45 2556.93
   17:27:39.760.09-Sep-2020 5302.51 6311.69 74.62 20.00 106.65 2556.93
   17:27:39.960.09-Sep-2020 5302.51 6311.24 74.62 20.00 106.85 2556.93
   17:27:40.160.09-Sep-2020 5302.51 6311.03 74.62 20.00 107.05 2556.93
   17:27:40.360.09-Sep-2020 5302.51 6311.03 74.62 20.00 107.25 2556.93
   17:27:40.560.09-Sep-2020 5302.51 6310.89 74.62 20.00 107.45 2556.93
   17:27:40.760.09-Sep-2020 5302.51 6311.09 74.62 20.00 107.65 2556.93
   17:27:40.960.09-Sep-2020 5302.51 6311.42 74.62 20.00 107.85 2556.93
   17:27:41.160.09-Sep-2020 5302.51 6311.00 74.62 20.00 108.05 2556.93
   17:27:41.361.09-Sep-2020 5302.51 6311.00 74.62 20.00 108.25 2556.93
   17:27:41.561.09-Sep-2020 5302.51 6310.86 74.62 20.00 108.45 2556.93
   17:27:41.761.09-Sep-2020 5302.51 6319.05 74.62 20.00 108.65 2556.93
   17:27:41.961.09-Sep-2020 5302.51 6309.70 74.62 20.00 108.85 2556.93
   17:27:42.161.09-Sep-2020 5302.51 6311.58 74.62 20.00 109.05 2556.93
   17:27:42.361.09-Sep-2020 5302.51 6311.58 74.62 20.00 109.25 2556.93
   17:27:42.561.09-Sep-2020 5302.51 6312.13 74.62 20.00 109.45 2556.93
   17:27:42.761.09-Sep-2020 5302.51 6312.48 74.62 20.00 109.65 2556.93
   17:27:42.961.09-Sep-2020 5302.51 6317.85 74.62 20.00 109.85 2556.93
   17:27:43.161.09-Sep-2020 5302.51 6312.79 74.62 20.00 110.05 2556.93
   17:27:43.361.09-Sep-2020 5302.51 6312.79 74.62 20.00 110.25 2556.93
   17:27:43.562.09-Sep-2020 5302.51 6312.57 74.62 20.00 110.45 2556.93
   17:27:43.762.09-Sep-2020 5302.51 6313.24 74.62 20.00 110.65 2556.93
   17:27:43.962.09-Sep-2020 5302.51 6312.75 74.62 20.00 110.85 2556.93
   17:27:44.162.09-Sep-2020 5302.51 6313.10 74.62 20.00 111.05 2556.93
   17:27:44.362.09-Sep-2020 5302.51 6313.10 74.62 20.00 111.25 2556.93
   17:27:44.562.09-Sep-2020 5302.51 6313.19 74.62 20.00 111.45 2556.93
   17:27:44.762.09-Sep-2020 5302.51 6313.86 74.62 20.00 111.65 2556.93
   17:27:44.962.09-Sep-2020 5302.51 6312.93 74.62 20.00 111.85 2556.93
   17:27:45.162.09-Sep-2020 5302.51 6322.94 74.62 20.00 112.05 2556.93
   17:27:45.362.09-Sep-2020 5302.51 6322.94 74.62 20.00 112.25 2556.93
   17:27:45.563.09-Sep-2020 5302.51 6312.50 74.62 20.00 112.45 2556.93
   17:27:45.763.09-Sep-2020 5302.51 6313.69 74.62 20.00 112.65 2556.93
   17:27:45.963.09-Sep-2020 5302.51 6313.74 74.62 20.00 112.85 2556.93
