~Version Information
 VERS.                  2.0:   CWLS log ASCII Standard -VERSION 2.0
 WRAP.                   NO:   One line per depth step
~Well Information Block
#MNEM.UNIT     VALUE/NAME     DESCRIPTION
#---------     -----------    ---------------------------
 STRT.S             19:35:07 09-Sep-20: START TIME 19:35:07 09-Sep-20
 STOP.S             19:43:27 09-Sep-20: STOP TIME  19:43:27 09-Sep-20
 STEP.S                   0.00: STEP TIME
 NULL.                 -999.25: NULL VALUE
 MDS .        Operator Entered:  MAG DATA SOURCE
 PDAT.          Mean Sea Level:  PERMANENT DATUM
 DCON.         Sperry Drilling:  DIRECTNL CONTR
 RIG .              West Azeri:  RIG NAME
 WELL.           C40 (Slot 20):  WELL NAME
 SRVC.     Turan Drilling Engineering:  CONTRACTOR
 FLD .                     ACG:  FIELD NAME
 CTRY.              Azerbaijan:  COUNTRY NAME
 PROV.                    Baku:  PROVINCE
 STAT.                    Baku:  STATE NAME
 REGN.                   EESSA:  REGION
 BASE.              Azerbaijan:  LOGGING EQUIPMENT BASE LOCATION
 COMP.     BP Exploration (Caspian Sea) Ltd:  COMPANY
 WTYP.                Deviated:  WELL TYPE
 SON .        AZ-XX-0906344804:  JOB NUMBER
 FTOP.          Formation Tops:  FORM TOPS DESC
 ILTD.               Lithology:  INTERP LTH DESC
 SVYD.                  Survey:  SURVEY DESC
 DMOD.             Drill Model:  DRILL MOD DESC
 HPTY.       Minimum Curvature:  HOLE POS TYPE
 NREF.                    Grid:  NORTH REFERENCE
 SPUD.               01-Jan-20:  SPUD DATE
 DATE.      00.59.44 15-Sep-20:  END TIME
 STIM.      12.00.00 12-Jun-20:  START TIME
 DMF .             Drill Floor:  DRILL MEAS FROM
 DFST.                        :  DIST FSL TEXT
 DFWT.                        :  DIST FWL TEXT
 API .                        :  API NUMBER
 CNTY.                        :  COUNTY
 UWI .                        :  UNIQUE WELL IDENTIFIER
 LOC .                        :  LOCATION
 LMF .             Drill Floor:  LOG MEASURED FROM
 VSNS.m                   2.88:  VERT SEC N/S
 VSEW.m                  -3.84:  VERT SEC E/W
 AGAP.m                  43.42:  AIR GAP
 APD .m                  43.42:  DEPTH ABOVE PD
 WDMS.m                 118.27:  WD ELEV
 EGL .m                   0.00:  GROUND ELEVATION
 EPD .m                   0.00:  ELEVATION
 AZTC.deg                 6.23:  AZM TOTAL CORR
 GRDC.deg                 0.20:  GRID CORRECTION
 MDEC.deg                 6.43:  MAGNETIC DECL
 MDIP.deg                59.49:  MAGNETIC DIP
 MFLD.nT              50277.00:  MAGNETIC FIELD
 GVFD.g                   1.00:  GRAVITY FIELD
 VSDR.deg               173.20:  VERT SEC DIRECT
 TDD .m                5790.01:  TOTAL DEPTH (DRILLER)
 SDEP.m                5231.01:  START DEPTH
 DFSL.m                   0.00:  DISTANCE FSL
 DFWL.m                   0.00:  DISTANCE FWL
 UTMY.m             4435808.83:  UTM Y
 UTMX.m              526266.40:  UTM X
 WHEW.m                  -3.84:  WELL HEAD E/W
 WHNS.m                   2.88:  WELL HEAD N/S
 LONG.deg                51.31:  LONGITUDE
 LATI.deg                40.06:  LATITUDE
 TVDS.m                  43.42:  TVDSS CORRECTN
 DEP .m                 430.08:  DEPTH
 EKB .m                  43.42:  KB ELEVATION
 EDF .m                  43.42:  DF ELEVATION
 TDL .m                 559.00:  TOTAL DEPTH (LOGGER)
 MAGU.                 1849381:  MAGUTM CHECKSUM
 VSC .                       0:  VS TO CLOSURE
~Parameter Information Block
#MNEM.UNIT       Value        Description
#---------     -----------    ---------------------------
 AV  .mps                 4.87:  Ann Velocity 
 AVMX.mps                 7.08:  Max Ann Veloc 
 AZIF.deg               108.87:  Azm, Final 
 BHAT.                  Rotary:  BHA Type 
 BROT.°/30m               0.35:  Build Rotating 
 BS  .in                  8.50:  Bit Size 
 BSZ .in                  8.50:  Bit Size 
 BTPL.psig              360.00:  Bit Press Loss 
 CABU.                     Yes:  Customer Abuse 
 COMM.                     ¼«|:  Run Comments 1 
 TCS .hr                106.24:  Time Ciculation Ended 
 CV  .mps                 1.77:  Crit Velocity 
 CVMX.mps                 2.03:  Max Crit Veloc 
 DD1 .         Aykhan Agagulov:  Direct Drillr 1 
 DD2 .            Nonso Okofor:  Direct Drillr 2 
 DDSV.               Geo-Pilot:  DD Service 
 DEFF.%                  98.00:  % Det Eff 
 DLRX.°/30m               0.50:  Dogleg Rot Max 
 DLSO.°/30m               0.40:  Dogleg Oriented 
 DLSX.°/30m               0.94:  Dogleg Str Max 
 DRET.      20.30.00 08-Sep-20:  Drill End Time 
 DRST.      22.15.00 06-Sep-20:  Drill Start Tim 
 DTIM.hr                 31.31:  Time Drilling 
 EDEP.m                5790.01:  End Depth 
 ENG1.           Amrah Tahirov:  Engineer 1 
 ENG2.         Dair Mahammadov:  Engineer 2 
 ENG3.           Emil Huseynov:  Engineer 3 
 ETIM.      04.01.04 12-Sep-20:  End Time 
 FLOI.gpm               450.00:  Flow In 
 FLON.gpm               450.00:  Flow In Min 
 FLOS.cptm                2.00:  Fluid Loss 
 FLOX.gpm               450.00:  Flow In Max 
 FTRO.       Formation Presure:  FTWD Run Obj 
 HFLO.                      No:  High Flow 
 HPRE.                      No:  High Pressure 
 HTEM.                      No:  High Temp 
 HYDO.m                   1.80:  Hydro Offset 
 IFIN.deg                72.03:  Inc, Final 
 IMAX.deg                73.72:  Inc Max 
 IMIN.deg                70.94:  Inc Min 
 IMND.m                5508.52:  Inc Min Depth 
 IMXD.m                5253.60:  Inc Max Depth 
 JARR.                      No:  Jarring 
 LETM.      20.30.00 08-Sep-20:  Log End Time 
 LOST.hr                     0:  Lost Rig Time 
 LSTM.      22.15.00 06-Sep-20:  Log Start Time 
 MDCL.ppm             36000.00:  Mud Chlorides 
 MDES.     Inversion Oil/Synthetic:  Mud Desc 
 DFD .sg                  1.44:  Mud Density 
 MDMN.sg                  1.44:  Dens Mud Min 
 MDMX.sg                  1.57:  Dens Mud Max 
 MOIL.                      70:  Run Mud Oil % 
 MOWR.                   70:30:  Run Mud OWR 
 MSND.                       0:  Run Mud Sand % 
 MSOL.                      21:  Run Mud Solids% 
 DFV .spqt               68.00:  Mud Viscosity 
 MWOD.in                  6.75:  MWD Tool OD 
 MWSI.                     Yes:  Serv Intrp, MWD 
 OTIM.hr                174.84:  Time Operating 
 PCON.           Look Like New:  Pad Condition 
 PMAX.psia            10616.93:  Press Op, Max 
 PV  .cP                 50.00:  Mud PV 
 RUN .                     700:  Run Number 
 ROPA.m/hr               14.24:  ROP Avg 
 ROPN.m/hr               10.00:  ROP Min 
 ROPX.m/hr               32.00:  ROP Max 
 RPMA.rpm               120.90:  RPM Surface Avg 
 RPMN.rpm               120.00:  RPM Surface Min 
 RPMX.rpm               140.00:  RPM Surface Max 
 RRUN.                    0700:  Rig Run Number 
 RTIM.hr                  3.20:  Time Reaming 
 SAZI.deg               109.99:  Azm, Start 
 SDEP.m                5231.01:  Start Depth 
 SIDD.                      No:  Serv Intrp, DD 
 SINC.deg                73.72:  Inc, Start 
 SPPA.psig             3051.00:  SPP Avg 
 SPPN.psig             2950.00:  SPP Min 
 SPPX.psig             3250.00:  SPP Max 
 STIM.      08.00.00 05-Sep-20:  Start Time 
 SVCS.                 DD, MWD:  Services 
 SVER.                    9.20:  Sperry Version 
 TDAT.m                 559.00:  Tot Depth Attmp 
 TDDF.                      No:  Trip for DD 
 TDLG.m                 559.00:  Tot Depth Loggd 
 TFF .                      No:  Trip for Fail 
 TQAA.f-kp               26.49:  Torque Abs Avg 
 TQAN.f-kp               25.00:  Torque Abs Min 
 TQAX.f-kp               27.00:  Torque Abs Max 
 TRRT.°/30m               1.50:  Turn Rotating 
 MRT .                    HCIM:  Maximum Recorded Temperature 
 TTMX.degC               90.20:  Max Tool Temp 
 VS01.                90542671:  Virtual Str1 SN 
 VS02.                90545185:  Virtual Str2 SN 
 VS03.                90602015:  Virtual Str3 SN 
 VS04.                90515230:  Virtual Str4 SN 
 WBMN.klb                 5.00:  WOB Min 
 WOBA.klb                14.79:  WOB Avg 
 WOBX.klb                20.00:  WOB Max 
 YP  .lhf2               29.00:  Yield Point 
~Curve Information Block
#MNEM.UNIT                 API CODE     Curve Description
#---------               -----------    ---------------------------
 TIME.HHMMSS            00 000 000 000:  GT Time & Date
 GTDEPTH.m              00 000 000 000:  GT Depth
 GTPQH.psia             00 000 000 000:  GT HR Quartz Pressure
 GTTQ.degC              00 000 000 000:  GT Quartz Temperature
 GTTN.NONE              00 000 000 000:  GT Test Number
 GTET.sec               00 000 000 000:  GT Elapsed Test Time
 GTTVD.m                00 000 000 000:  GT True Vertical Depth
#Other Information
#
#WARRANTY: Halliburton will use its best efforts to furnish customers with 
#accurate information and interpretations that are part of, and incident to, the services 
#provided.  However, Halliburton cannot and does not warrant the accuracy 
#or correctness of such information and interpretations.  Under no circumstances should any 
#such information or interpretation be relied upon as the sole basis for any drilling, 
#completion, production, or financial decision or any procedure involving any risk to the 
#safety of any drilling venture, drilling rig or its crew or any other third party.  The 
#Customer has full responsibility for all drilling, completion and production operation.  
#Halliburton makes no representations or warranties, either expressed or 
#implied, including, but not limited to, the implied warranties of merchantability or fitness 
#for a particular purpose, with respect to the services rendered.  In no event will 
#Halliburton be liable for failure to obtain any particular results or for 
#any damages, including, but not limited to, indirect, special or consequential damages, 
#resulting from the use of any information or interpretation provided by Halliburton.
#
~A           TIME           GTDEPTH  GTPQH  GTTQ  GTTN   GTET   GTTVD  
# ...
   19:41:31.744.09-Sep-2020 5260.01 6288.52 74.29 23.00 384.38 2544.55
   19:41:31.944.09-Sep-2020 5260.01 6287.71 74.29 23.00 384.58 2544.55
   19:41:32.144.09-Sep-2020 5260.01 6287.33 74.29 23.00 384.78 2544.55
   19:41:32.344.09-Sep-2020 5260.01 6287.04 74.29 23.00 384.98 2544.55
   19:41:32.544.09-Sep-2020 5260.01 6286.77 74.29 23.00 385.18 2544.55
   19:41:32.744.09-Sep-2020 5260.01 6286.77 74.29 23.00 385.38 2544.55
   19:41:32.944.09-Sep-2020 5260.01 6286.63 74.29 23.00 385.58 2544.55
   19:41:33.144.09-Sep-2020 5260.01 6286.65 74.29 23.00 385.78 2544.55
   19:41:33.344.09-Sep-2020 5260.01 6286.65 74.29 23.00 385.98 2544.55
   19:41:33.545.09-Sep-2020 5260.01 6286.62 74.29 23.00 386.18 2544.55
   19:41:33.745.09-Sep-2020 5260.01 6286.62 74.29 23.00 386.38 2544.55
   19:41:33.945.09-Sep-2020 5260.01 6295.26 74.29 23.00 386.58 2544.55
   19:41:34.145.09-Sep-2020 5260.01 6283.92 74.29 23.00 386.78 2544.55
   19:41:34.345.09-Sep-2020 5260.01 6287.87 74.29 23.00 386.98 2544.55
   19:41:34.545.09-Sep-2020 5260.01 6286.40 74.29 23.00 387.18 2544.55
   19:41:34.745.09-Sep-2020 5260.01 6286.40 74.29 23.00 387.38 2544.55
   19:41:34.945.09-Sep-2020 5260.01 6286.61 74.29 23.00 387.58 2544.55
   19:41:35.145.09-Sep-2020 5260.01 6289.51 74.29 23.00 387.78 2544.55
   19:41:35.345.09-Sep-2020 5260.01 6286.28 74.29 23.00 387.98 2544.55
   19:41:35.545.09-Sep-2020 5260.01 6286.46 74.29 23.00 388.18 2544.55
   19:41:35.746.09-Sep-2020 5260.01 6286.46 74.29 23.00 388.38 2544.55
   19:41:35.946.09-Sep-2020 5260.01 6285.73 74.29 23.00 388.58 2544.55
   19:41:36.146.09-Sep-2020 5260.01 6285.22 74.29 23.00 388.78 2544.55
   19:41:36.346.09-Sep-2020 5260.01 6285.52 74.29 23.00 388.98 2544.55
   19:41:36.546.09-Sep-2020 5260.01 6285.60 74.29 23.00 389.18 2544.55
   19:41:36.746.09-Sep-2020 5260.01 6285.35 74.29 23.00 389.38 2544.55
   19:41:36.946.09-Sep-2020 5260.01 6284.95 74.29 23.00 389.58 2544.55
   19:41:37.146.09-Sep-2020 5260.01 6285.04 74.29 23.00 389.78 2544.55
   19:41:37.346.09-Sep-2020 5260.01 6293.71 74.29 23.00 389.98 2544.55
   19:41:37.546.09-Sep-2020 5260.01 6282.51 74.29 23.00 390.18 2544.55
   19:41:37.746.09-Sep-2020 5260.01 6282.51 74.29 23.00 390.38 2544.55
   19:41:37.947.09-Sep-2020 5260.01 6285.63 74.29 23.00 390.58 2544.55
   19:41:38.147.09-Sep-2020 5260.01 6286.22 74.29 23.00 390.78 2544.55
   19:41:38.347.09-Sep-2020 5260.01 6288.62 74.29 23.00 390.98 2544.55
   19:41:38.547.09-Sep-2020 5260.01 6292.96 74.29 23.00 391.18 2544.55
   19:41:38.747.09-Sep-2020 5260.01 6292.96 74.29 23.00 391.38 2544.55
   19:41:38.947.09-Sep-2020 5260.01 6287.55 74.29 23.00 391.58 2544.55
   19:41:39.147.09-Sep-2020 5260.01 6285.08 74.29 23.00 391.78 2544.55
   19:41:39.347.09-Sep-2020 5260.01 6286.88 74.29 23.00 391.98 2544.55
   19:41:39.547.09-Sep-2020 5260.01 6286.82 74.29 23.00 392.18 2544.55
   19:41:39.747.09-Sep-2020 5260.01 6286.82 74.29 23.00 392.38 2544.55
   19:41:39.947.09-Sep-2020 5260.01 6281.75 74.29 23.00 392.58 2544.55
   19:41:40.148.09-Sep-2020 5260.01 6286.79 74.29 23.00 392.78 2544.55
   19:41:40.348.09-Sep-2020 5260.01 6285.64 74.29 23.00 392.98 2544.55
   19:41:40.548.09-Sep-2020 5260.01 6286.93 74.29 23.00 393.18 2544.55
   19:41:40.748.09-Sep-2020 5260.01 6286.93 74.29 23.00 393.38 2544.55
   19:41:40.948.09-Sep-2020 5260.01 6287.54 74.29 23.00 393.58 2544.55
   19:41:41.148.09-Sep-2020 5260.01 6287.87 74.29 23.00 393.78 2544.55
   19:41:41.348.09-Sep-2020 5260.01 6286.07 74.29 23.00 393.98 2544.55
   19:41:41.548.09-Sep-2020 5260.01 6286.94 74.29 23.00 394.18 2544.55
   19:41:41.748.09-Sep-2020 5260.01 6298.13 74.29 23.00 394.38 2544.55
   19:41:41.948.09-Sep-2020 5260.01 6285.75 74.29 23.00 394.58 2544.55
   19:41:42.149.09-Sep-2020 5260.01 6288.27 74.29 23.00 394.78 2544.55
   19:41:42.349.09-Sep-2020 5260.01 6287.38 74.29 23.00 394.98 2544.55
   19:41:42.549.09-Sep-2020 5260.01 6286.73 74.29 23.00 395.18 2544.55
   19:41:42.749.09-Sep-2020 5260.01 6286.73 74.29 23.00 395.38 2544.55
   19:41:42.949.09-Sep-2020 5260.01 6290.51 74.29 23.00 395.58 2544.55
   19:41:43.149.09-Sep-2020 5260.01 6287.54 74.29 23.00 395.78 2544.55
   19:41:43.349.09-Sep-2020 5260.01 6287.87 74.29 23.00 395.98 2544.55
   19:41:43.549.09-Sep-2020 5260.01 6287.38 74.29 23.00 396.18 2544.55
   19:41:43.749.09-Sep-2020 5260.01 6287.38 74.29 23.00 396.38 2544.55
   19:41:43.949.09-Sep-2020 5260.01 6286.97 74.29 23.00 396.58 2544.55
   19:41:44.149.09-Sep-2020 5260.01 6287.05 74.29 23.00 396.78 2544.55
   19:41:44.350.09-Sep-2020 5260.01 6287.04 74.29 23.00 396.98 2544.55
   19:41:44.550.09-Sep-2020 5260.01 6287.02 74.29 23.00 397.18 2544.55
   19:41:44.750.09-Sep-2020 5260.01 6287.02 74.29 23.00 397.38 2544.55
   19:41:44.950.09-Sep-2020 5260.01 6286.88 74.29 23.00 397.58 2544.55
   19:41:45.150.09-Sep-2020 5260.01 6286.95 74.29 23.00 397.78 2544.55
   19:41:45.350.09-Sep-2020 5260.01 6289.97 74.29 23.00 397.98 2544.55
   19:41:45.550.09-Sep-2020 5260.01 6291.88 74.29 23.00 398.18 2544.55
   19:41:45.750.09-Sep-2020 5260.01 6285.73 74.29 23.00 398.38 2544.55
   19:41:45.950.09-Sep-2020 5260.01 6288.48 74.29 23.00 398.58 2544.55
   19:41:46.150.09-Sep-2020 5260.01 6287.02 74.29 23.00 398.78 2544.55
   19:41:46.350.09-Sep-2020 5260.01 6287.97 74.29 23.00 398.98 2544.55
   19:41:46.551.09-Sep-2020 5260.01 6287.96 74.29 23.00 399.18 2544.55
   19:41:46.751.09-Sep-2020 5260.01 6287.96 74.29 23.00 399.38 2544.55
   19:41:46.951.09-Sep-2020 5260.01 6287.41 74.29 23.00 399.58 2544.55
   19:41:47.151.09-Sep-2020 5260.01 6287.02 74.29 23.00 399.78 2544.55
   19:41:47.351.09-Sep-2020 5260.01 6286.12 74.29 23.00 399.98 2544.55
   19:41:47.551.09-Sep-2020 5260.01 6286.63 74.29 23.00 400.18 2544.55
   19:41:47.751.09-Sep-2020 5260.01 6286.63 74.29 23.00 400.38 2544.55
   19:41:47.951.09-Sep-2020 5260.01 6286.35 74.29 23.00 400.58 2544.55
   19:41:48.151.09-Sep-2020 5260.01 6286.43 74.29 23.00 400.78 2544.55
   19:41:48.351.09-Sep-2020 5260.01 6285.68 74.29 23.00 400.98 2544.55
   19:41:48.551.09-Sep-2020 5260.01 6285.63 74.29 23.00 401.18 2544.55
   19:41:48.752.09-Sep-2020 5260.01 6285.63 74.29 23.00 401.38 2544.55
   19:41:48.952.09-Sep-2020 5260.01 6290.15 74.29 23.00 401.59 2544.55
   19:41:49.152.09-Sep-2020 5260.01 6284.65 74.29 23.00 401.79 2544.55
   19:41:49.352.09-Sep-2020 5260.01 6287.69 74.29 23.00 401.99 2544.55
   19:41:49.552.09-Sep-2020 5260.01 6285.84 74.29 23.00 402.19 2544.55
   19:41:49.752.09-Sep-2020 5260.01 6286.77 74.29 23.00 402.39 2544.55
   19:41:49.952.09-Sep-2020 5260.01 6296.14 74.29 23.00 402.59 2544.55
   19:41:50.152.09-Sep-2020 5260.01 6285.21 74.29 23.00 402.79 2544.55
   19:41:50.352.09-Sep-2020 5260.01 6287.25 74.29 23.00 402.99 2544.55
   19:41:50.552.09-Sep-2020 5260.01 6287.19 74.29 23.00 403.19 2544.55
   19:41:50.752.09-Sep-2020 5260.01 6287.19 74.29 23.00 403.39 2544.55
   19:41:50.953.09-Sep-2020 5260.01 6287.12 74.29 23.00 403.59 2544.55
   19:41:51.153.09-Sep-2020 5260.01 6297.98 74.29 23.00 403.79 2544.55
   19:41:51.353.09-Sep-2020 5260.01 6284.40 74.29 23.00 403.99 2544.55
   19:41:51.553.09-Sep-2020 5260.01 6287.30 74.29 23.00 404.19 2544.55
   19:41:51.753.09-Sep-2020 5260.01 6287.30 74.29 23.00 404.39 2544.55
   19:41:51.953.09-Sep-2020 5260.01 6285.98 74.29 23.00 404.59 2544.55
   19:41:52.153.09-Sep-2020 5260.01 6287.36 74.29 23.00 404.79 2544.55
   19:41:52.353.09-Sep-2020 5260.01 6297.83 74.29 23.00 404.99 2544.55
   19:41:52.553.09-Sep-2020 5260.01 6284.67 74.29 23.00 405.19 2544.55
   19:41:52.753.09-Sep-2020 5260.01 6284.67 74.29 23.00 405.39 2544.55
   19:41:52.953.09-Sep-2020 5260.01 6285.87 74.29 23.00 405.59 2544.55
   19:41:53.154.09-Sep-2020 5260.01 6287.11 74.29 23.00 405.79 2544.55
   19:41:53.354.09-Sep-2020 5260.01 6290.22 74.29 23.00 405.99 2544.55
   19:41:53.554.09-Sep-2020 5260.01 6295.09 74.29 23.00 406.19 2544.55
   19:41:53.754.09-Sep-2020 5260.01 6295.09 74.29 23.00 406.39 2544.55
   19:41:53.954.09-Sep-2020 5260.01 6288.34 74.29 23.00 406.59 2544.55
   19:41:54.154.09-Sep-2020 5260.01 6286.25 74.29 23.00 406.79 2544.55
