~Version Information
 VERS.                  2.0:   CWLS log ASCII Standard -VERSION 2.0
 WRAP.                   NO:   One line per depth step
~Well Information Block
#MNEM.UNIT     VALUE/NAME     DESCRIPTION
#---------     -----------    ---------------------------
 STRT.S             13:30:41 09-Sep-20: START TIME 13:30:41 09-Sep-20
 STOP.S             13:37:24 09-Sep-20: STOP TIME  13:37:24 09-Sep-20
 STEP.S                   0.00: STEP TIME
 NULL.                 -999.25: NULL VALUE
 MDS .        Operator Entered:  MAG DATA SOURCE
 PDAT.          Mean Sea Level:  PERMANENT DATUM
 DCON.         Sperry Drilling:  DIRECTNL CONTR
 RIG .              West Azeri:  RIG NAME
 WELL.           C40 (Slot 20):  WELL NAME
 SRVC.     Turan Drilling Engineering:  CONTRACTOR
 FLD .                     ACG:  FIELD NAME
 CTRY.              Azerbaijan:  COUNTRY NAME
 PROV.                    Baku:  PROVINCE
 STAT.                    Baku:  STATE NAME
 REGN.                   EESSA:  REGION
 BASE.              Azerbaijan:  LOGGING EQUIPMENT BASE LOCATION
 COMP.     BP Exploration (Caspian Sea) Ltd:  COMPANY
 WTYP.                Deviated:  WELL TYPE
 SON .        AZ-XX-0906344804:  JOB NUMBER
 FTOP.          Formation Tops:  FORM TOPS DESC
 ILTD.               Lithology:  INTERP LTH DESC
 SVYD.                  Survey:  SURVEY DESC
 DMOD.             Drill Model:  DRILL MOD DESC
 HPTY.       Minimum Curvature:  HOLE POS TYPE
 NREF.                    Grid:  NORTH REFERENCE
 SPUD.               01-Jan-20:  SPUD DATE
 DATE.      00.59.44 15-Sep-20:  END TIME
 STIM.      12.00.00 12-Jun-20:  START TIME
 DMF .             Drill Floor:  DRILL MEAS FROM
 DFST.                        :  DIST FSL TEXT
 DFWT.                        :  DIST FWL TEXT
 API .                        :  API NUMBER
 CNTY.                        :  COUNTY
 UWI .                        :  UNIQUE WELL IDENTIFIER
 LOC .                        :  LOCATION
 LMF .             Drill Floor:  LOG MEASURED FROM
 VSNS.m                   2.88:  VERT SEC N/S
 VSEW.m                  -3.84:  VERT SEC E/W
 AGAP.m                  43.42:  AIR GAP
 APD .m                  43.42:  DEPTH ABOVE PD
 WDMS.m                 118.27:  WD ELEV
 EGL .m                   0.00:  GROUND ELEVATION
 EPD .m                   0.00:  ELEVATION
 AZTC.deg                 6.23:  AZM TOTAL CORR
 GRDC.deg                 0.20:  GRID CORRECTION
 MDEC.deg                 6.43:  MAGNETIC DECL
 MDIP.deg                59.49:  MAGNETIC DIP
 MFLD.nT              50277.00:  MAGNETIC FIELD
 GVFD.g                   1.00:  GRAVITY FIELD
 VSDR.deg               173.20:  VERT SEC DIRECT
 TDD .m                5790.01:  TOTAL DEPTH (DRILLER)
 SDEP.m                5231.01:  START DEPTH
 DFSL.m                   0.00:  DISTANCE FSL
 DFWL.m                   0.00:  DISTANCE FWL
 UTMY.m             4435808.83:  UTM Y
 UTMX.m              526266.40:  UTM X
 WHEW.m                  -3.84:  WELL HEAD E/W
 WHNS.m                   2.88:  WELL HEAD N/S
 LONG.deg                51.31:  LONGITUDE
 LATI.deg                40.06:  LATITUDE
 TVDS.m                  43.42:  TVDSS CORRECTN
 DEP .m                 430.08:  DEPTH
 EKB .m                  43.42:  KB ELEVATION
 EDF .m                  43.42:  DF ELEVATION
 TDL .m                 559.00:  TOTAL DEPTH (LOGGER)
 MAGU.                 1849381:  MAGUTM CHECKSUM
 VSC .                       0:  VS TO CLOSURE
~Parameter Information Block
#MNEM.UNIT       Value        Description
#---------     -----------    ---------------------------
 AV  .mps                 4.87:  Ann Velocity 
 AVMX.mps                 7.08:  Max Ann Veloc 
 AZIF.deg               108.87:  Azm, Final 
 BHAT.                  Rotary:  BHA Type 
 BROT.°/30m               0.35:  Build Rotating 
 BS  .in                  8.50:  Bit Size 
 BSZ .in                  8.50:  Bit Size 
 BTPL.psig              360.00:  Bit Press Loss 
 CABU.                     Yes:  Customer Abuse 
 COMM.                     $ñd:  Run Comments 1 
 TCS .hr                106.24:  Time Ciculation Ended 
 CV  .mps                 1.77:  Crit Velocity 
 CVMX.mps                 2.03:  Max Crit Veloc 
 DD1 .         Aykhan Agagulov:  Direct Drillr 1 
 DD2 .            Nonso Okofor:  Direct Drillr 2 
 DDSV.               Geo-Pilot:  DD Service 
 DEFF.%                  98.00:  % Det Eff 
 DLRX.°/30m               0.50:  Dogleg Rot Max 
 DLSO.°/30m               0.40:  Dogleg Oriented 
 DLSX.°/30m               0.94:  Dogleg Str Max 
 DRET.      20.30.00 08-Sep-20:  Drill End Time 
 DRST.      22.15.00 06-Sep-20:  Drill Start Tim 
 DTIM.hr                 31.31:  Time Drilling 
 EDEP.m                5790.01:  End Depth 
 ENG1.           Amrah Tahirov:  Engineer 1 
 ENG2.         Dair Mahammadov:  Engineer 2 
 ENG3.           Emil Huseynov:  Engineer 3 
 ETIM.      04.01.04 12-Sep-20:  End Time 
 FLOI.gpm               450.00:  Flow In 
 FLON.gpm               450.00:  Flow In Min 
 FLOS.cptm                2.00:  Fluid Loss 
 FLOX.gpm               450.00:  Flow In Max 
 FTRO.       Formation Presure:  FTWD Run Obj 
 HFLO.                      No:  High Flow 
 HPRE.                      No:  High Pressure 
 HTEM.                      No:  High Temp 
 HYDO.m                   1.80:  Hydro Offset 
 IFIN.deg                72.03:  Inc, Final 
 IMAX.deg                73.72:  Inc Max 
 IMIN.deg                70.94:  Inc Min 
 IMND.m                5508.52:  Inc Min Depth 
 IMXD.m                5253.60:  Inc Max Depth 
 JARR.                      No:  Jarring 
 LETM.      20.30.00 08-Sep-20:  Log End Time 
 LOST.hr                     0:  Lost Rig Time 
 LSTM.      22.15.00 06-Sep-20:  Log Start Time 
 MDCL.ppm             36000.00:  Mud Chlorides 
 MDES.     Inversion Oil/Synthetic:  Mud Desc 
 DFD .sg                  1.44:  Mud Density 
 MDMN.sg                  1.44:  Dens Mud Min 
 MDMX.sg                  1.57:  Dens Mud Max 
 MOIL.                      70:  Run Mud Oil % 
 MOWR.                   70:30:  Run Mud OWR 
 MSND.                       0:  Run Mud Sand % 
 MSOL.                      21:  Run Mud Solids% 
 DFV .spqt               68.00:  Mud Viscosity 
 MWOD.in                  6.75:  MWD Tool OD 
 MWSI.                     Yes:  Serv Intrp, MWD 
 OTIM.hr                174.84:  Time Operating 
 PCON.           Look Like New:  Pad Condition 
 PMAX.psia            10616.93:  Press Op, Max 
 PV  .cP                 50.00:  Mud PV 
 RUN .                     700:  Run Number 
 ROPA.m/hr               14.24:  ROP Avg 
 ROPN.m/hr               10.00:  ROP Min 
 ROPX.m/hr               32.00:  ROP Max 
 RPMA.rpm               120.90:  RPM Surface Avg 
 RPMN.rpm               120.00:  RPM Surface Min 
 RPMX.rpm               140.00:  RPM Surface Max 
 RRUN.                    0700:  Rig Run Number 
 RTIM.hr                  3.20:  Time Reaming 
 SAZI.deg               109.99:  Azm, Start 
 SDEP.m                5231.01:  Start Depth 
 SIDD.                      No:  Serv Intrp, DD 
 SINC.deg                73.72:  Inc, Start 
 SPPA.psig             3051.00:  SPP Avg 
 SPPN.psig             2950.00:  SPP Min 
 SPPX.psig             3250.00:  SPP Max 
 STIM.      08.00.00 05-Sep-20:  Start Time 
 SVCS.                 DD, MWD:  Services 
 SVER.                    9.20:  Sperry Version 
 TDAT.m                 559.00:  Tot Depth Attmp 
 TDDF.                      No:  Trip for DD 
 TDLG.m                 559.00:  Tot Depth Loggd 
 TFF .                      No:  Trip for Fail 
 TQAA.f-kp               26.49:  Torque Abs Avg 
 TQAN.f-kp               25.00:  Torque Abs Min 
 TQAX.f-kp               27.00:  Torque Abs Max 
 TRRT.°/30m               1.50:  Turn Rotating 
 MRT .                    HCIM:  Maximum Recorded Temperature 
 TTMX.degC               90.20:  Max Tool Temp 
 VS01.                90542671:  Virtual Str1 SN 
 VS02.                90545185:  Virtual Str2 SN 
 VS03.                90602015:  Virtual Str3 SN 
 VS04.                90515230:  Virtual Str4 SN 
 WBMN.klb                 5.00:  WOB Min 
 WOBA.klb                14.79:  WOB Avg 
 WOBX.klb                20.00:  WOB Max 
 YP  .lhf2               29.00:  Yield Point 
~Curve Information Block
#MNEM.UNIT                 API CODE     Curve Description
#---------               -----------    ---------------------------
 TIME.HHMMSS            00 000 000 000:  GT Time & Date
 GTDEPTH.m              00 000 000 000:  GT Depth
 GTPQH.psia             00 000 000 000:  GT HR Quartz Pressure
 GTTQ.degC              00 000 000 000:  GT Quartz Temperature
 GTTN.NONE              00 000 000 000:  GT Test Number
 GTET.sec               00 000 000 000:  GT Elapsed Test Time
 GTTVD.m                00 000 000 000:  GT True Vertical Depth
#Other Information
#
#WARRANTY: Halliburton will use its best efforts to furnish customers with 
#accurate information and interpretations that are part of, and incident to, the services 
#provided.  However, Halliburton cannot and does not warrant the accuracy 
#or correctness of such information and interpretations.  Under no circumstances should any 
#such information or interpretation be relied upon as the sole basis for any drilling, 
#completion, production, or financial decision or any procedure involving any risk to the 
#safety of any drilling venture, drilling rig or its crew or any other third party.  The 
#Customer has full responsibility for all drilling, completion and production operation.  
#Halliburton makes no representations or warranties, either expressed or 
#implied, including, but not limited to, the implied warranties of merchantability or fitness 
#for a particular purpose, with respect to the services rendered.  In no event will 
#Halliburton be liable for failure to obtain any particular results or for 
#any damages, including, but not limited to, indirect, special or consequential damages, 
#resulting from the use of any information or interpretation provided by Halliburton.
#
~A           TIME           GTDEPTH  GTPQH  GTTQ  GTTN   GTET   GTTVD  
# ...
   13:31:49.326.09-Sep-2020 5408.01 3550.17 75.48 15.00  67.84 2589.60
   13:31:49.526.09-Sep-2020 5408.01 3552.19 75.48 15.00  68.04 2589.60
   13:31:49.726.09-Sep-2020 5408.01 3552.19 75.48 15.00  68.24 2589.60
   13:31:49.926.09-Sep-2020 5408.01 3555.95 75.48 15.00  68.44 2589.60
   13:31:50.126.09-Sep-2020 5408.01 3557.53 75.48 15.00  68.64 2589.60
   13:31:50.327.09-Sep-2020 5408.01 3559.17 75.48 15.00  68.84 2589.60
   13:31:50.527.09-Sep-2020 5408.01 3560.80 75.48 15.00  69.04 2589.60
   13:31:50.727.09-Sep-2020 5408.01 3560.80 75.48 15.00  69.24 2589.60
   13:31:50.927.09-Sep-2020 5408.01 3563.44 75.48 15.00  69.44 2589.60
   13:31:51.127.09-Sep-2020 5408.01 3564.65 75.48 15.00  69.64 2589.60
   13:31:51.327.09-Sep-2020 5408.01 3565.72 75.48 15.00  69.84 2589.60
   13:31:51.527.09-Sep-2020 5408.01 3566.89 75.48 15.00  70.04 2589.60
   13:31:51.727.09-Sep-2020 5408.01 3566.89 75.48 15.00  70.24 2589.60
   13:31:51.927.09-Sep-2020 5408.01 3569.01 75.48 15.00  70.44 2589.60
   13:31:52.128.09-Sep-2020 5408.01 3569.96 75.48 15.00  70.64 2589.60
   13:31:52.328.09-Sep-2020 5408.01 3570.83 75.48 15.00  70.84 2589.60
   13:31:52.528.09-Sep-2020 5408.01 3570.42 75.48 15.00  71.04 2589.60
   13:31:52.728.09-Sep-2020 5408.01 3570.42 75.48 15.00  71.24 2589.60
   13:31:52.928.09-Sep-2020 5408.01 3571.52 75.48 15.00  71.44 2589.60
   13:31:53.128.09-Sep-2020 5408.01 3572.41 75.48 15.00  71.64 2589.60
   13:31:53.328.09-Sep-2020 5408.01 3573.14 75.49 15.00  71.84 2589.60
   13:31:53.528.09-Sep-2020 5408.01 3574.45 75.49 15.00  72.04 2589.60
   13:31:53.729.09-Sep-2020 5408.01 3575.21 75.49 15.00  72.24 2589.60
   13:31:53.929.09-Sep-2020 5408.01 3575.94 75.49 15.00  72.44 2589.60
   13:31:54.129.09-Sep-2020 5408.01 3576.58 75.49 15.00  72.64 2589.60
   13:31:54.329.09-Sep-2020 5408.01 3577.23 75.49 15.00  72.84 2589.60
   13:31:54.529.09-Sep-2020 5408.01 3577.83 75.49 15.00  73.04 2589.60
   13:31:54.729.09-Sep-2020 5408.01 3577.83 75.49 15.00  73.24 2589.60
   13:31:54.929.09-Sep-2020 5408.01 3578.71 75.49 15.00  73.44 2589.60
   13:31:55.129.09-Sep-2020 5408.01 3579.23 75.49 15.00  73.65 2589.60
   13:31:55.330.09-Sep-2020 5408.01 3579.78 75.49 15.00  73.85 2589.60
   13:31:55.530.09-Sep-2020 5408.01 3580.26 75.49 15.00  74.05 2589.60
   13:31:55.730.09-Sep-2020 5408.01 3580.26 75.49 15.00  74.25 2589.60
   13:31:55.930.09-Sep-2020 5408.01 3579.78 75.49 15.00  74.45 2589.60
   13:31:56.130.09-Sep-2020 5408.01 3582.38 75.49 15.00  74.65 2589.60
   13:31:56.330.09-Sep-2020 5408.01 3582.48 75.49 15.00  74.85 2589.60
   13:31:56.530.09-Sep-2020 5408.01 3582.89 75.49 15.00  75.05 2589.60
   13:31:56.730.09-Sep-2020 5408.01 3582.89 75.49 15.00  75.25 2589.60
   13:31:56.931.09-Sep-2020 5408.01 3583.89 75.49 15.00  75.45 2589.60
   13:31:57.131.09-Sep-2020 5408.01 3582.98 75.49 15.00  75.65 2589.60
   13:31:57.331.09-Sep-2020 5408.01 3584.42 75.49 15.00  75.85 2589.60
   13:31:57.531.09-Sep-2020 5408.01 3584.79 75.49 15.00  76.05 2589.60
   13:31:57.731.09-Sep-2020 5408.01 3585.01 75.49 15.00  76.25 2589.60
   13:31:57.931.09-Sep-2020 5408.01 3585.49 75.49 15.00  76.45 2589.60
   13:31:58.131.09-Sep-2020 5408.01 3585.70 75.49 15.00  76.65 2589.60
   13:31:58.331.09-Sep-2020 5408.01 3585.12 75.49 15.00  76.85 2589.60
   13:31:58.532.09-Sep-2020 5408.01 3586.61 75.49 15.00  77.05 2589.60
   13:31:58.732.09-Sep-2020 5408.01 3586.61 75.49 15.00  77.25 2589.60
   13:31:58.932.09-Sep-2020 5408.01 3587.18 75.49 15.00  77.45 2589.60
   13:31:59.132.09-Sep-2020 5408.01 3587.67 75.49 15.00  77.65 2589.60
   13:31:59.332.09-Sep-2020 5408.01 3586.27 75.49 15.00  77.85 2589.60
   13:31:59.532.09-Sep-2020 5408.01 3588.45 75.49 15.00  78.05 2589.60
   13:31:59.732.09-Sep-2020 5408.01 3588.45 75.49 15.00  78.25 2589.60
   13:31:59.932.09-Sep-2020 5408.01 3588.57 75.49 15.00  78.45 2589.60
   13:32:00.133.09-Sep-2020 5408.01 3588.69 75.49 15.00  78.65 2589.60
   13:32:00.333.09-Sep-2020 5408.01 3589.14 75.49 15.00  78.85 2589.60
   13:32:00.533.09-Sep-2020 5408.01 3588.55 75.49 15.00  79.05 2589.60
   13:32:00.733.09-Sep-2020 5408.01 3588.55 75.49 15.00  79.25 2589.60
   13:32:00.933.09-Sep-2020 5408.01 3590.32 75.49 15.00  79.45 2589.60
   13:32:01.133.09-Sep-2020 5408.01 3590.40 75.49 15.00  79.65 2589.60
   13:32:01.333.09-Sep-2020 5408.01 3590.81 75.49 15.00  79.85 2589.60
   13:32:01.533.09-Sep-2020 5408.01 3590.67 75.49 15.00  80.05 2589.60
   13:32:01.733.09-Sep-2020 5408.01 3590.89 75.49 15.00  80.25 2589.60
   13:32:01.934.09-Sep-2020 5408.01 3591.09 75.49 15.00  80.45 2589.60
   13:32:02.134.09-Sep-2020 5408.01 3591.18 75.49 15.00  80.65 2589.60
   13:32:02.334.09-Sep-2020 5408.01 3591.22 75.49 15.00  80.85 2589.60
   13:32:02.534.09-Sep-2020 5408.01 3591.30 75.49 15.00  81.05 2589.60
   13:32:02.734.09-Sep-2020 5408.01 3591.30 75.49 15.00  81.25 2589.60
   13:32:02.934.09-Sep-2020 5408.01 3591.29 75.49 15.00  81.45 2589.60
   13:32:03.134.09-Sep-2020 5408.01 3591.36 75.49 15.00  81.65 2589.60
   13:32:03.334.09-Sep-2020 5408.01 3591.39 75.49 15.00  81.85 2589.60
   13:32:03.535.09-Sep-2020 5408.01 3591.41 75.49 15.00  82.05 2589.60
   13:32:03.735.09-Sep-2020 5408.01 3591.41 75.49 15.00  82.25 2589.60
   13:32:03.935.09-Sep-2020 5408.01 3591.50 75.49 15.00  82.45 2589.60
   13:32:04.135.09-Sep-2020 5408.01 3590.46 75.49 15.00  82.65 2589.60
   13:32:04.335.09-Sep-2020 5408.01 3592.18 75.49 15.00  82.85 2589.60
   13:32:04.535.09-Sep-2020 5408.01 3592.16 75.49 15.00  83.05 2589.60
   13:32:04.735.09-Sep-2020 5408.01 3592.16 75.49 15.00  83.25 2589.60
   13:32:04.935.09-Sep-2020 5408.01 3591.92 75.49 15.00  83.45 2589.60
   13:32:05.136.09-Sep-2020 5408.01 3592.21 75.49 15.00  83.65 2589.60
   13:32:05.336.09-Sep-2020 5408.01 3591.92 75.49 15.00  83.85 2589.60
   13:32:05.536.09-Sep-2020 5408.01 3591.82 75.49 15.00  84.05 2589.60
   13:32:05.736.09-Sep-2020 5408.01 3591.80 75.49 15.00  84.25 2589.60
   13:32:05.936.09-Sep-2020 5408.01 3591.74 75.49 15.00  84.45 2589.60
   13:32:06.136.09-Sep-2020 5408.01 3591.80 75.49 15.00  84.65 2589.60
   13:32:06.336.09-Sep-2020 5408.01 3591.85 75.49 15.00  84.85 2589.60
   13:32:06.536.09-Sep-2020 5408.01 3591.79 75.49 15.00  85.05 2589.60
   13:32:06.737.09-Sep-2020 5408.01 3591.79 75.49 15.00  85.25 2589.60
   13:32:06.937.09-Sep-2020 5408.01 3591.86 75.49 15.00  85.45 2589.60
   13:32:07.137.09-Sep-2020 5408.01 3591.90 75.49 15.00  85.65 2589.60
   13:32:07.337.09-Sep-2020 5408.01 3591.89 75.49 15.00  85.85 2589.60
   13:32:07.537.09-Sep-2020 5408.01 3590.90 75.49 15.00  86.05 2589.60
   13:32:07.737.09-Sep-2020 5408.01 3590.90 75.49 15.00  86.25 2589.60
   13:32:07.937.09-Sep-2020 5408.01 3592.16 75.49 15.00  86.45 2589.60
   13:32:08.137.09-Sep-2020 5408.01 3592.14 75.49 15.00  86.65 2589.60
   13:32:08.338.09-Sep-2020 5408.01 3592.31 75.49 15.00  86.85 2589.60
   13:32:08.538.09-Sep-2020 5408.01 3591.96 75.49 15.00  87.05 2589.60
   13:32:08.738.09-Sep-2020 5408.01 3591.96 75.49 15.00  87.25 2589.60
   13:32:08.938.09-Sep-2020 5408.01 3592.28 75.49 15.00  87.45 2589.60
   13:32:09.138.09-Sep-2020 5408.01 3592.34 75.49 15.00  87.65 2589.60
   13:32:09.338.09-Sep-2020 5408.01 3592.12 75.49 15.00  87.85 2589.60
   13:32:09.538.09-Sep-2020 5408.01 3591.72 75.49 15.00  88.05 2589.60
   13:32:09.738.09-Sep-2020 5408.01 3591.72 75.49 15.00  88.25 2589.60
   13:32:09.939.09-Sep-2020 5408.01 3592.68 75.49 15.00  88.45 2589.60
   13:32:10.139.09-Sep-2020 5408.01 3592.55 75.49 15.00  88.65 2589.60
   13:32:10.339.09-Sep-2020 5408.01 3592.23 75.49 15.00  88.85 2589.60
   13:32:10.539.09-Sep-2020 5408.01 3593.11 75.49 15.00  89.05 2589.60
   13:32:10.739.09-Sep-2020 5408.01 3593.11 75.49 15.00  89.25 2589.60
   13:32:10.939.09-Sep-2020 5408.01 3593.36 75.49 15.00  89.45 2589.60
   13:32:11.139.09-Sep-2020 5408.01 3593.66 75.49 15.00  89.65 2589.60
   13:32:11.339.09-Sep-2020 5408.01 3593.37 75.49 15.00  89.85 2589.60
   13:32:11.539.09-Sep-2020 5408.01 3593.43 75.49 15.00  90.06 2589.60
   13:32:11.740.09-Sep-2020 5408.01 3593.43 75.49 15.00  90.26 2589.60
