~Version Information
 VERS.                  2.0:   CWLS log ASCII Standard -VERSION 2.0
 WRAP.                   NO:   One line per depth step
~Well Information Block
#MNEM.UNIT     VALUE/NAME     DESCRIPTION
#---------     -----------    ---------------------------
 STRT.S             14:18:02 09-Sep-20: START TIME 14:18:02 09-Sep-20
 STOP.S             14:26:13 09-Sep-20: STOP TIME  14:26:13 09-Sep-20
 STEP.S                   0.00: STEP TIME
 NULL.                 -999.25: NULL VALUE
 MDS .        Operator Entered:  MAG DATA SOURCE
 PDAT.          Mean Sea Level:  PERMANENT DATUM
 DCON.         Sperry Drilling:  DIRECTNL CONTR
 RIG .              West Azeri:  RIG NAME
 WELL.           C40 (Slot 20):  WELL NAME
 SRVC.     Turan Drilling Engineering:  CONTRACTOR
 FLD .                     ACG:  FIELD NAME
 CTRY.              Azerbaijan:  COUNTRY NAME
 PROV.                    Baku:  PROVINCE
 STAT.                    Baku:  STATE NAME
 REGN.                   EESSA:  REGION
 BASE.              Azerbaijan:  LOGGING EQUIPMENT BASE LOCATION
 COMP.     BP Exploration (Caspian Sea) Ltd:  COMPANY
 WTYP.                Deviated:  WELL TYPE
 SON .        AZ-XX-0906344804:  JOB NUMBER
 FTOP.          Formation Tops:  FORM TOPS DESC
 ILTD.               Lithology:  INTERP LTH DESC
 SVYD.                  Survey:  SURVEY DESC
 DMOD.             Drill Model:  DRILL MOD DESC
 HPTY.       Minimum Curvature:  HOLE POS TYPE
 NREF.                    Grid:  NORTH REFERENCE
 SPUD.               01-Jan-20:  SPUD DATE
 DATE.      00.59.44 15-Sep-20:  END TIME
 STIM.      12.00.00 12-Jun-20:  START TIME
 DMF .             Drill Floor:  DRILL MEAS FROM
 DFST.                        :  DIST FSL TEXT
 DFWT.                        :  DIST FWL TEXT
 API .                        :  API NUMBER
 CNTY.                        :  COUNTY
 UWI .                        :  UNIQUE WELL IDENTIFIER
 LOC .                        :  LOCATION
 LMF .             Drill Floor:  LOG MEASURED FROM
 VSNS.m                   2.88:  VERT SEC N/S
 VSEW.m                  -3.84:  VERT SEC E/W
 AGAP.m                  43.42:  AIR GAP
 APD .m                  43.42:  DEPTH ABOVE PD
 WDMS.m                 118.27:  WD ELEV
 EGL .m                   0.00:  GROUND ELEVATION
 EPD .m                   0.00:  ELEVATION
 AZTC.deg                 6.23:  AZM TOTAL CORR
 GRDC.deg                 0.20:  GRID CORRECTION
 MDEC.deg                 6.43:  MAGNETIC DECL
 MDIP.deg                59.49:  MAGNETIC DIP
 MFLD.nT              50277.00:  MAGNETIC FIELD
 GVFD.g                   1.00:  GRAVITY FIELD
 VSDR.deg               173.20:  VERT SEC DIRECT
 TDD .m                5790.01:  TOTAL DEPTH (DRILLER)
 SDEP.m                5231.01:  START DEPTH
 DFSL.m                   0.00:  DISTANCE FSL
 DFWL.m                   0.00:  DISTANCE FWL
 UTMY.m             4435808.83:  UTM Y
 UTMX.m              526266.40:  UTM X
 WHEW.m                  -3.84:  WELL HEAD E/W
 WHNS.m                   2.88:  WELL HEAD N/S
 LONG.deg                51.31:  LONGITUDE
 LATI.deg                40.06:  LATITUDE
 TVDS.m                  43.42:  TVDSS CORRECTN
 DEP .m                 430.08:  DEPTH
 EKB .m                  43.42:  KB ELEVATION
 EDF .m                  43.42:  DF ELEVATION
 TDL .m                 559.00:  TOTAL DEPTH (LOGGER)
 MAGU.                 1849381:  MAGUTM CHECKSUM
 VSC .                       0:  VS TO CLOSURE
~Parameter Information Block
#MNEM.UNIT       Value        Description
#---------     -----------    ---------------------------
 AV  .mps                 4.87:  Ann Velocity 
 AVMX.mps                 7.08:  Max Ann Veloc 
 AZIF.deg               108.87:  Azm, Final 
 BHAT.                  Rotary:  BHA Type 
 BROT.°/30m               0.35:  Build Rotating 
 BS  .in                  8.50:  Bit Size 
 BSZ .in                  8.50:  Bit Size 
 BTPL.psig              360.00:  Bit Press Loss 
 CABU.                     Yes:  Customer Abuse 
 TCS .hr                106.24:  Time Ciculation Ended 
 CV  .mps                 1.77:  Crit Velocity 
 CVMX.mps                 2.03:  Max Crit Veloc 
 DD1 .         Aykhan Agagulov:  Direct Drillr 1 
 DD2 .            Nonso Okofor:  Direct Drillr 2 
 DDSV.               Geo-Pilot:  DD Service 
 DEFF.%                  98.00:  % Det Eff 
 DLRX.°/30m               0.50:  Dogleg Rot Max 
 DLSO.°/30m               0.40:  Dogleg Oriented 
 DLSX.°/30m               0.94:  Dogleg Str Max 
 DRET.      20.30.00 08-Sep-20:  Drill End Time 
 DRST.      22.15.00 06-Sep-20:  Drill Start Tim 
 DTIM.hr                 31.31:  Time Drilling 
 EDEP.m                5790.01:  End Depth 
 ENG1.           Amrah Tahirov:  Engineer 1 
 ENG2.         Dair Mahammadov:  Engineer 2 
 ENG3.           Emil Huseynov:  Engineer 3 
 ETIM.      04.01.04 12-Sep-20:  End Time 
 FLOI.gpm               450.00:  Flow In 
 FLON.gpm               450.00:  Flow In Min 
 FLOS.cptm                2.00:  Fluid Loss 
 FLOX.gpm               450.00:  Flow In Max 
 FTRO.       Formation Presure:  FTWD Run Obj 
 HFLO.                      No:  High Flow 
 HPRE.                      No:  High Pressure 
 HTEM.                      No:  High Temp 
 HYDO.m                   1.80:  Hydro Offset 
 IFIN.deg                72.03:  Inc, Final 
 IMAX.deg                73.72:  Inc Max 
 IMIN.deg                70.94:  Inc Min 
 IMND.m                5508.52:  Inc Min Depth 
 IMXD.m                5253.60:  Inc Max Depth 
 JARR.                      No:  Jarring 
 LETM.      20.30.00 08-Sep-20:  Log End Time 
 LOST.hr                     0:  Lost Rig Time 
 LSTM.      22.15.00 06-Sep-20:  Log Start Time 
 MDCL.ppm             36000.00:  Mud Chlorides 
 MDES.     Inversion Oil/Synthetic:  Mud Desc 
 DFD .sg                  1.44:  Mud Density 
 MDMN.sg                  1.44:  Dens Mud Min 
 MDMX.sg                  1.57:  Dens Mud Max 
 MOIL.                      70:  Run Mud Oil % 
 MOWR.                   70:30:  Run Mud OWR 
 MSND.                       0:  Run Mud Sand % 
 MSOL.                      21:  Run Mud Solids% 
 DFV .spqt               68.00:  Mud Viscosity 
 MWOD.in                  6.75:  MWD Tool OD 
 MWSI.                     Yes:  Serv Intrp, MWD 
 OTIM.hr                174.84:  Time Operating 
 PCON.           Look Like New:  Pad Condition 
 PMAX.psia            10616.93:  Press Op, Max 
 PV  .cP                 50.00:  Mud PV 
 RUN .                     700:  Run Number 
 ROPA.m/hr               14.24:  ROP Avg 
 ROPN.m/hr               10.00:  ROP Min 
 ROPX.m/hr               32.00:  ROP Max 
 RPMA.rpm               120.90:  RPM Surface Avg 
 RPMN.rpm               120.00:  RPM Surface Min 
 RPMX.rpm               140.00:  RPM Surface Max 
 RRUN.                    0700:  Rig Run Number 
 RTIM.hr                  3.20:  Time Reaming 
 SAZI.deg               109.99:  Azm, Start 
 SDEP.m                5231.01:  Start Depth 
 SIDD.                      No:  Serv Intrp, DD 
 SINC.deg                73.72:  Inc, Start 
 SPPA.psig             3051.00:  SPP Avg 
 SPPN.psig             2950.00:  SPP Min 
 SPPX.psig             3250.00:  SPP Max 
 STIM.      08.00.00 05-Sep-20:  Start Time 
 SVCS.                 DD, MWD:  Services 
 SVER.                    9.20:  Sperry Version 
 TDAT.m                 559.00:  Tot Depth Attmp 
 TDDF.                      No:  Trip for DD 
 TDLG.m                 559.00:  Tot Depth Loggd 
 TFF .                      No:  Trip for Fail 
 TQAA.f-kp               26.49:  Torque Abs Avg 
 TQAN.f-kp               25.00:  Torque Abs Min 
 TQAX.f-kp               27.00:  Torque Abs Max 
 TRRT.°/30m               1.50:  Turn Rotating 
 MRT .                    HCIM:  Maximum Recorded Temperature 
 TTMX.degC               90.20:  Max Tool Temp 
 VS01.                90542671:  Virtual Str1 SN 
 VS02.                90545185:  Virtual Str2 SN 
 VS03.                90602015:  Virtual Str3 SN 
 VS04.                90515230:  Virtual Str4 SN 
 WBMN.klb                 5.00:  WOB Min 
 WOBA.klb                14.79:  WOB Avg 
 WOBX.klb                20.00:  WOB Max 
 YP  .lhf2               29.00:  Yield Point 
~Curve Information Block
#MNEM.UNIT                 API CODE     Curve Description
#---------               -----------    ---------------------------
 TIME.HHMMSS            00 000 000 000:  GT Time & Date
 GTDEPTH.m              00 000 000 000:  GT Depth
 GTPQH.psia             00 000 000 000:  GT HR Quartz Pressure
 GTTQ.degC              00 000 000 000:  GT Quartz Temperature
 GTTN.NONE              00 000 000 000:  GT Test Number
 GTET.sec               00 000 000 000:  GT Elapsed Test Time
 GTTVD.m                00 000 000 000:  GT True Vertical Depth
#Other Information
#
#WARRANTY: Halliburton will use its best efforts to furnish customers with 
#accurate information and interpretations that are part of, and incident to, the services 
#provided.  However, Halliburton cannot and does not warrant the accuracy 
#or correctness of such information and interpretations.  Under no circumstances should any 
#such information or interpretation be relied upon as the sole basis for any drilling, 
#completion, production, or financial decision or any procedure involving any risk to the 
#safety of any drilling venture, drilling rig or its crew or any other third party.  The 
#Customer has full responsibility for all drilling, completion and production operation.  
#Halliburton makes no representations or warranties, either expressed or 
#implied, including, but not limited to, the implied warranties of merchantability or fitness 
#for a particular purpose, with respect to the services rendered.  In no event will 
#Halliburton be liable for failure to obtain any particular results or for 
#any damages, including, but not limited to, indirect, special or consequential damages, 
#resulting from the use of any information or interpretation provided by Halliburton.
#
~A           TIME           GTDEPTH  GTPQH  GTTQ  GTTN   GTET   GTTVD  
# ...
   14:24:26.656.09-Sep-2020 5408.01  638.18 75.21 16.00 384.43 2589.60
   14:24:26.856.09-Sep-2020 5408.01  638.43 75.21 16.00 384.64 2589.60
   14:24:27.056.09-Sep-2020 5408.01  637.65 75.21 16.00 384.84 2589.60
   14:24:27.256.09-Sep-2020 5408.01  638.82 75.21 16.00 385.04 2589.60
   14:24:27.456.09-Sep-2020 5408.01  639.00 75.21 16.00 385.24 2589.60
   14:24:27.656.09-Sep-2020 5408.01  639.00 75.21 16.00 385.44 2589.60
   14:24:27.856.09-Sep-2020 5408.01  638.97 75.21 16.00 385.64 2589.60
   14:24:28.056.09-Sep-2020 5408.01  639.31 75.21 16.00 385.84 2589.60
   14:24:28.256.09-Sep-2020 5408.01  639.32 75.21 16.00 386.04 2589.60
   14:24:28.457.09-Sep-2020 5408.01  639.43 75.21 16.00 386.24 2589.60
   14:24:28.657.09-Sep-2020 5408.01  639.43 75.21 16.00 386.44 2589.60
   14:24:28.857.09-Sep-2020 5408.01  639.58 75.21 16.00 386.64 2589.60
   14:24:29.057.09-Sep-2020 5408.01  639.74 75.21 16.00 386.84 2589.60
   14:24:29.257.09-Sep-2020 5408.01  639.86 75.21 16.00 387.04 2589.60
   14:24:29.457.09-Sep-2020 5408.01  639.97 75.21 16.00 387.24 2589.60
   14:24:29.657.09-Sep-2020 5408.01  639.97 75.21 16.00 387.44 2589.60
   14:24:29.857.09-Sep-2020 5408.01  640.22 75.21 16.00 387.64 2589.60
   14:24:30.058.09-Sep-2020 5408.01  640.32 75.21 16.00 387.84 2589.60
   14:24:30.258.09-Sep-2020 5408.01  639.52 75.21 16.00 388.04 2589.60
   14:24:30.458.09-Sep-2020 5408.01  640.70 75.21 16.00 388.24 2589.60
   14:24:30.658.09-Sep-2020 5408.01  640.90 75.21 16.00 388.44 2589.60
   14:24:30.858.09-Sep-2020 5408.01  640.93 75.21 16.00 388.64 2589.60
   14:24:31.058.09-Sep-2020 5408.01  640.77 75.21 16.00 388.84 2589.60
   14:24:31.258.09-Sep-2020 5408.01  641.16 75.21 16.00 389.04 2589.60
   14:24:31.458.09-Sep-2020 5408.01  640.64 75.21 16.00 389.24 2589.60
   14:24:31.659.09-Sep-2020 5408.01  640.64 75.21 16.00 389.44 2589.60
   14:24:31.859.09-Sep-2020 5408.01  641.53 75.21 16.00 389.64 2589.60
   14:24:32.059.09-Sep-2020 5408.01  641.68 75.21 16.00 389.84 2589.60
   14:24:32.259.09-Sep-2020 5408.01  641.75 75.21 16.00 390.04 2589.60
   14:24:32.459.09-Sep-2020 5408.01  641.82 75.21 16.00 390.24 2589.60
   14:24:32.659.09-Sep-2020 5408.01  641.82 75.21 16.00 390.44 2589.60
   14:24:32.859.09-Sep-2020 5408.01  642.02 75.21 16.00 390.64 2589.60
   14:24:33.059.09-Sep-2020 5408.01  642.12 75.21 16.00 390.84 2589.60
   14:24:33.260.09-Sep-2020 5408.01  642.27 75.21 16.00 391.04 2589.60
   14:24:33.460.09-Sep-2020 5408.01  642.63 75.21 16.00 391.24 2589.60
   14:24:33.660.09-Sep-2020 5408.01  642.63 75.21 16.00 391.44 2589.60
   14:24:33.860.09-Sep-2020 5408.01  642.56 75.21 16.00 391.64 2589.60
   14:24:34.060.09-Sep-2020 5408.01  642.25 75.21 16.00 391.84 2589.60
   14:24:34.260.09-Sep-2020 5408.01  642.87 75.21 16.00 392.04 2589.60
   14:24:34.460.09-Sep-2020 5408.01  642.94 75.21 16.00 392.24 2589.60
   14:24:34.660.09-Sep-2020 5408.01  643.11 75.21 16.00 392.44 2589.60
   14:24:34.861.09-Sep-2020 5408.01  643.51 75.21 16.00 392.64 2589.60
   14:24:35.061.09-Sep-2020 5408.01  643.36 75.21 16.00 392.84 2589.60
   14:24:35.261.09-Sep-2020 5408.01  643.46 75.21 16.00 393.04 2589.60
   14:24:35.461.09-Sep-2020 5408.01  643.08 75.21 16.00 393.24 2589.60
   14:24:35.661.09-Sep-2020 5408.01  643.08 75.21 16.00 393.44 2589.60
   14:24:35.861.09-Sep-2020 5408.01  644.00 75.21 16.00 393.64 2589.60
   14:24:36.061.09-Sep-2020 5408.01  643.90 75.21 16.00 393.84 2589.60
   14:24:36.261.09-Sep-2020 5408.01  643.97 75.21 16.00 394.04 2589.60
   14:24:36.462.09-Sep-2020 5408.01  644.41 75.21 16.00 394.24 2589.60
   14:24:36.662.09-Sep-2020 5408.01  644.41 75.21 16.00 394.44 2589.60
   14:24:36.862.09-Sep-2020 5408.01  644.42 75.21 16.00 394.64 2589.60
   14:24:37.062.09-Sep-2020 5408.01  644.51 75.21 16.00 394.84 2589.60
   14:24:37.262.09-Sep-2020 5408.01  644.61 75.21 16.00 395.04 2589.60
   14:24:37.462.09-Sep-2020 5408.01  644.72 75.21 16.00 395.24 2589.60
   14:24:37.662.09-Sep-2020 5408.01  644.72 75.21 16.00 395.44 2589.60
   14:24:37.862.09-Sep-2020 5408.01  645.00 75.21 16.00 395.64 2589.60
   14:24:38.062.09-Sep-2020 5408.01  645.13 75.21 16.00 395.84 2589.60
   14:24:38.263.09-Sep-2020 5408.01  645.21 75.21 16.00 396.04 2589.60
   14:24:38.463.09-Sep-2020 5408.01  645.31 75.21 16.00 396.24 2589.60
   14:24:38.663.09-Sep-2020 5408.01  645.38 75.21 16.00 396.44 2589.60
   14:24:38.863.09-Sep-2020 5408.01  645.48 75.21 16.00 396.64 2589.60
   14:24:39.063.09-Sep-2020 5408.01  645.59 75.21 16.00 396.84 2589.60
   14:24:39.263.09-Sep-2020 5408.01  645.30 75.21 16.00 397.04 2589.60
   14:24:39.463.09-Sep-2020 5408.01  645.83 75.21 16.00 397.24 2589.60
   14:24:39.663.09-Sep-2020 5408.01  645.83 75.21 16.00 397.44 2589.60
   14:24:39.864.09-Sep-2020 5408.01  646.11 75.21 16.00 397.64 2589.60
   14:24:40.064.09-Sep-2020 5408.01  646.48 75.21 16.00 397.84 2589.60
   14:24:40.264.09-Sep-2020 5408.01  646.30 75.21 16.00 398.04 2589.60
   14:24:40.464.09-Sep-2020 5408.01  646.35 75.21 16.00 398.24 2589.60
   14:24:40.664.09-Sep-2020 5408.01  646.35 75.21 16.00 398.44 2589.60
   14:24:40.864.09-Sep-2020 5408.01  646.67 75.21 16.00 398.64 2589.60
   14:24:41.064.09-Sep-2020 5408.01  646.80 75.21 16.00 398.84 2589.60
   14:24:41.264.09-Sep-2020 5408.01  646.91 75.21 16.00 399.04 2589.60
   14:24:41.465.09-Sep-2020 5408.01  646.97 75.21 16.00 399.24 2589.60
   14:24:41.665.09-Sep-2020 5408.01  646.97 75.21 16.00 399.44 2589.60
   14:24:41.865.09-Sep-2020 5408.01  647.17 75.21 16.00 399.64 2589.60
   14:24:42.065.09-Sep-2020 5408.01  647.30 75.21 16.00 399.84 2589.60
   14:24:42.265.09-Sep-2020 5408.01  647.45 75.21 16.00 400.04 2589.60
   14:24:42.465.09-Sep-2020 5408.01  647.12 75.21 16.00 400.24 2589.60
   14:24:42.665.09-Sep-2020 5408.01  647.12 75.21 16.00 400.44 2589.60
   14:24:42.865.09-Sep-2020 5408.01  647.65 75.21 16.00 400.64 2589.60
   14:24:43.066.09-Sep-2020 5408.01  647.81 75.21 16.00 400.84 2589.60
   14:24:43.266.09-Sep-2020 5408.01  648.22 75.21 16.00 401.05 2589.60
   14:24:43.466.09-Sep-2020 5408.01  647.59 75.21 16.00 401.25 2589.60
   14:24:43.666.09-Sep-2020 5408.01  647.59 75.21 16.00 401.45 2589.60
   14:24:43.866.09-Sep-2020 5408.01  648.49 75.21 16.00 401.65 2589.60
   14:24:44.066.09-Sep-2020 5408.01  648.37 75.21 16.00 401.85 2589.60
   14:24:44.266.09-Sep-2020 5408.01  648.39 75.21 16.00 402.05 2589.60
   14:24:44.466.09-Sep-2020 5408.01  648.87 75.21 16.00 402.25 2589.60
   14:24:44.667.09-Sep-2020 5408.01  648.87 75.21 16.00 402.45 2589.60
   14:24:44.867.09-Sep-2020 5408.01  648.73 75.21 16.00 402.65 2589.60
   14:24:45.067.09-Sep-2020 5408.01  649.15 75.21 16.00 402.85 2589.60
   14:24:45.267.09-Sep-2020 5408.01  649.11 75.21 16.00 403.05 2589.60
   14:24:45.467.09-Sep-2020 5408.01  649.18 75.21 16.00 403.25 2589.60
   14:24:45.667.09-Sep-2020 5408.01  649.18 75.21 16.00 403.45 2589.60
   14:24:45.867.09-Sep-2020 5408.01  649.40 75.21 16.00 403.65 2589.60
   14:24:46.067.09-Sep-2020 5408.01  649.53 75.21 16.00 403.85 2589.60
   14:24:46.268.09-Sep-2020 5408.01  649.70 75.21 16.00 404.05 2589.60
   14:24:46.468.09-Sep-2020 5408.01  650.14 75.21 16.00 404.25 2589.60
   14:24:46.668.09-Sep-2020 5408.01  650.14 75.21 16.00 404.45 2589.60
   14:24:46.868.09-Sep-2020 5408.01  649.62 75.21 16.00 404.65 2589.60
   14:24:47.068.09-Sep-2020 5408.01  650.07 75.21 16.00 404.85 2589.60
   14:24:47.268.09-Sep-2020 5408.01  650.56 75.21 16.00 405.05 2589.60
   14:24:47.468.09-Sep-2020 5408.01  650.47 75.21 16.00 405.25 2589.60
   14:24:47.668.09-Sep-2020 5408.01  650.47 75.21 16.00 405.45 2589.60
   14:24:47.868.09-Sep-2020 5408.01  650.90 75.21 16.00 405.65 2589.60
   14:24:48.069.09-Sep-2020 5408.01  650.83 75.21 16.00 405.85 2589.60
   14:24:48.269.09-Sep-2020 5408.01  650.86 75.21 16.00 406.05 2589.60
   14:24:48.469.09-Sep-2020 5408.01  650.98 75.21 16.00 406.25 2589.60
   14:24:48.669.09-Sep-2020 5408.01  650.98 75.21 16.00 406.45 2589.60
   14:24:48.869.09-Sep-2020 5408.01  651.25 75.21 16.00 406.65 2589.60
   14:24:49.069.09-Sep-2020 5408.01  651.34 75.21 16.00 406.85 2589.60
