~Version Information
 VERS.                  2.0:   CWLS log ASCII Standard -VERSION 2.0
 WRAP.                   NO:   One line per depth step
~Well Information Block
#MNEM.UNIT     VALUE/NAME     DESCRIPTION
#---------     -----------    ---------------------------
 STRT.S             20:20:33 09-Sep-20: START TIME 20:20:33 09-Sep-20
 STOP.S             20:28:41 09-Sep-20: STOP TIME  20:28:41 09-Sep-20
 STEP.S                   0.00: STEP TIME
 NULL.                 -999.25: NULL VALUE
 MDS .        Operator Entered:  MAG DATA SOURCE
 PDAT.          Mean Sea Level:  PERMANENT DATUM
 DCON.         Sperry Drilling:  DIRECTNL CONTR
 RIG .              West Azeri:  RIG NAME
 WELL.           C40 (Slot 20):  WELL NAME
 SRVC.     Turan Drilling Engineering:  CONTRACTOR
 FLD .                     ACG:  FIELD NAME
 CTRY.              Azerbaijan:  COUNTRY NAME
 PROV.                    Baku:  PROVINCE
 STAT.                    Baku:  STATE NAME
 REGN.                   EESSA:  REGION
 BASE.              Azerbaijan:  LOGGING EQUIPMENT BASE LOCATION
 COMP.     BP Exploration (Caspian Sea) Ltd:  COMPANY
 WTYP.                Deviated:  WELL TYPE
 SON .        AZ-XX-0906344804:  JOB NUMBER
 FTOP.          Formation Tops:  FORM TOPS DESC
 ILTD.               Lithology:  INTERP LTH DESC
 SVYD.                  Survey:  SURVEY DESC
 DMOD.             Drill Model:  DRILL MOD DESC
 HPTY.       Minimum Curvature:  HOLE POS TYPE
 NREF.                    Grid:  NORTH REFERENCE
 SPUD.               01-Jan-20:  SPUD DATE
 DATE.      00.59.44 15-Sep-20:  END TIME
 STIM.      12.00.00 12-Jun-20:  START TIME
 DMF .             Drill Floor:  DRILL MEAS FROM
 DFST.                        :  DIST FSL TEXT
 DFWT.                        :  DIST FWL TEXT
 API .                        :  API NUMBER
 CNTY.                        :  COUNTY
 UWI .                        :  UNIQUE WELL IDENTIFIER
 LOC .                        :  LOCATION
 LMF .             Drill Floor:  LOG MEASURED FROM
 VSNS.m                   2.88:  VERT SEC N/S
 VSEW.m                  -3.84:  VERT SEC E/W
 AGAP.m                  43.42:  AIR GAP
 APD .m                  43.42:  DEPTH ABOVE PD
 WDMS.m                 118.27:  WD ELEV
 EGL .m                   0.00:  GROUND ELEVATION
 EPD .m                   0.00:  ELEVATION
 AZTC.deg                 6.23:  AZM TOTAL CORR
 GRDC.deg                 0.20:  GRID CORRECTION
 MDEC.deg                 6.43:  MAGNETIC DECL
 MDIP.deg                59.49:  MAGNETIC DIP
 MFLD.nT              50277.00:  MAGNETIC FIELD
 GVFD.g                   1.00:  GRAVITY FIELD
 VSDR.deg               173.20:  VERT SEC DIRECT
 TDD .m                5790.01:  TOTAL DEPTH (DRILLER)
 SDEP.m                5231.01:  START DEPTH
 DFSL.m                   0.00:  DISTANCE FSL
 DFWL.m                   0.00:  DISTANCE FWL
 UTMY.m             4435808.83:  UTM Y
 UTMX.m              526266.40:  UTM X
 WHEW.m                  -3.84:  WELL HEAD E/W
 WHNS.m                   2.88:  WELL HEAD N/S
 LONG.deg                51.31:  LONGITUDE
 LATI.deg                40.06:  LATITUDE
 TVDS.m                  43.42:  TVDSS CORRECTN
 DEP .m                 430.08:  DEPTH
 EKB .m                  43.42:  KB ELEVATION
 EDF .m                  43.42:  DF ELEVATION
 TDL .m                 559.00:  TOTAL DEPTH (LOGGER)
 MAGU.                 1849381:  MAGUTM CHECKSUM
 VSC .                       0:  VS TO CLOSURE
~Parameter Information Block
#MNEM.UNIT       Value        Description
#---------     -----------    ---------------------------
 AV  .mps                 4.87:  Ann Velocity 
 AVMX.mps                 7.08:  Max Ann Veloc 
 AZIF.deg               108.87:  Azm, Final 
 BHAT.                  Rotary:  BHA Type 
 BROT.°/30m               0.35:  Build Rotating 
 BS  .in                  8.50:  Bit Size 
 BSZ .in                  8.50:  Bit Size 
 BTPL.psig              360.00:  Bit Press Loss 
 CABU.                     Yes:  Customer Abuse 
 COMM.                     ÄìU:  Run Comments 1 
 TCS .hr                106.24:  Time Ciculation Ended 
 CV  .mps                 1.77:  Crit Velocity 
 CVMX.mps                 2.03:  Max Crit Veloc 
 DD1 .         Aykhan Agagulov:  Direct Drillr 1 
 DD2 .            Nonso Okofor:  Direct Drillr 2 
 DDSV.               Geo-Pilot:  DD Service 
 DEFF.%                  98.00:  % Det Eff 
 DLRX.°/30m               0.50:  Dogleg Rot Max 
 DLSO.°/30m               0.40:  Dogleg Oriented 
 DLSX.°/30m               0.94:  Dogleg Str Max 
 DRET.      20.30.00 08-Sep-20:  Drill End Time 
 DRST.      22.15.00 06-Sep-20:  Drill Start Tim 
 DTIM.hr                 31.31:  Time Drilling 
 EDEP.m                5790.01:  End Depth 
 ENG1.           Amrah Tahirov:  Engineer 1 
 ENG2.         Dair Mahammadov:  Engineer 2 
 ENG3.           Emil Huseynov:  Engineer 3 
 ETIM.      04.01.04 12-Sep-20:  End Time 
 FLOI.gpm               450.00:  Flow In 
 FLON.gpm               450.00:  Flow In Min 
 FLOS.cptm                2.00:  Fluid Loss 
 FLOX.gpm               450.00:  Flow In Max 
 FTRO.       Formation Presure:  FTWD Run Obj 
 HFLO.                      No:  High Flow 
 HPRE.                      No:  High Pressure 
 HTEM.                      No:  High Temp 
 HYDO.m                   1.80:  Hydro Offset 
 IFIN.deg                72.03:  Inc, Final 
 IMAX.deg                73.72:  Inc Max 
 IMIN.deg                70.94:  Inc Min 
 IMND.m                5508.52:  Inc Min Depth 
 IMXD.m                5253.60:  Inc Max Depth 
 JARR.                      No:  Jarring 
 LETM.      20.30.00 08-Sep-20:  Log End Time 
 LOST.hr                     0:  Lost Rig Time 
 LSTM.      22.15.00 06-Sep-20:  Log Start Time 
 MDCL.ppm             36000.00:  Mud Chlorides 
 MDES.     Inversion Oil/Synthetic:  Mud Desc 
 DFD .sg                  1.44:  Mud Density 
 MDMN.sg                  1.44:  Dens Mud Min 
 MDMX.sg                  1.57:  Dens Mud Max 
 MOIL.                      70:  Run Mud Oil % 
 MOWR.                   70:30:  Run Mud OWR 
 MSND.                       0:  Run Mud Sand % 
 MSOL.                      21:  Run Mud Solids% 
 DFV .spqt               68.00:  Mud Viscosity 
 MWOD.in                  6.75:  MWD Tool OD 
 MWSI.                     Yes:  Serv Intrp, MWD 
 OTIM.hr                174.84:  Time Operating 
 PCON.           Look Like New:  Pad Condition 
 PMAX.psia            10616.93:  Press Op, Max 
 PV  .cP                 50.00:  Mud PV 
 RUN .                     700:  Run Number 
 ROPA.m/hr               14.24:  ROP Avg 
 ROPN.m/hr               10.00:  ROP Min 
 ROPX.m/hr               32.00:  ROP Max 
 RPMA.rpm               120.90:  RPM Surface Avg 
 RPMN.rpm               120.00:  RPM Surface Min 
 RPMX.rpm               140.00:  RPM Surface Max 
 RRUN.                    0700:  Rig Run Number 
 RTIM.hr                  3.20:  Time Reaming 
 SAZI.deg               109.99:  Azm, Start 
 SDEP.m                5231.01:  Start Depth 
 SIDD.                      No:  Serv Intrp, DD 
 SINC.deg                73.72:  Inc, Start 
 SPPA.psig             3051.00:  SPP Avg 
 SPPN.psig             2950.00:  SPP Min 
 SPPX.psig             3250.00:  SPP Max 
 STIM.      08.00.00 05-Sep-20:  Start Time 
 SVCS.                 DD, MWD:  Services 
 SVER.                    9.20:  Sperry Version 
 TDAT.m                 559.00:  Tot Depth Attmp 
 TDDF.                      No:  Trip for DD 
 TDLG.m                 559.00:  Tot Depth Loggd 
 TFF .                      No:  Trip for Fail 
 TQAA.f-kp               26.49:  Torque Abs Avg 
 TQAN.f-kp               25.00:  Torque Abs Min 
 TQAX.f-kp               27.00:  Torque Abs Max 
 TRRT.°/30m               1.50:  Turn Rotating 
 MRT .                    HCIM:  Maximum Recorded Temperature 
 TTMX.degC               90.20:  Max Tool Temp 
 VS01.                90542671:  Virtual Str1 SN 
 VS02.                90545185:  Virtual Str2 SN 
 VS03.                90602015:  Virtual Str3 SN 
 VS04.                90515230:  Virtual Str4 SN 
 WBMN.klb                 5.00:  WOB Min 
 WOBA.klb                14.79:  WOB Avg 
 WOBX.klb                20.00:  WOB Max 
 YP  .lhf2               29.00:  Yield Point 
~Curve Information Block
#MNEM.UNIT                 API CODE     Curve Description
#---------               -----------    ---------------------------
 TIME.HHMMSS            00 000 000 000:  GT Time & Date
 GTDEPTH.m              00 000 000 000:  GT Depth
 GTPQH.psia             00 000 000 000:  GT HR Quartz Pressure
 GTTQ.degC              00 000 000 000:  GT Quartz Temperature
 GTTN.NONE              00 000 000 000:  GT Test Number
 GTET.sec               00 000 000 000:  GT Elapsed Test Time
 GTTVD.m                00 000 000 000:  GT True Vertical Depth
#Other Information
#
#WARRANTY: Halliburton will use its best efforts to furnish customers with 
#accurate information and interpretations that are part of, and incident to, the services 
#provided.  However, Halliburton cannot and does not warrant the accuracy 
#or correctness of such information and interpretations.  Under no circumstances should any 
#such information or interpretation be relied upon as the sole basis for any drilling, 
#completion, production, or financial decision or any procedure involving any risk to the 
#safety of any drilling venture, drilling rig or its crew or any other third party.  The 
#Customer has full responsibility for all drilling, completion and production operation.  
#Halliburton makes no representations or warranties, either expressed or 
#implied, including, but not limited to, the implied warranties of merchantability or fitness 
#for a particular purpose, with respect to the services rendered.  In no event will 
#Halliburton be liable for failure to obtain any particular results or for 
#any damages, including, but not limited to, indirect, special or consequential damages, 
#resulting from the use of any information or interpretation provided by Halliburton.
#
~A           TIME           GTDEPTH  GTPQH  GTTQ  GTTN   GTET   GTTVD  
# ...
   20:25:50.169.09-Sep-2020 5252.51  480.35 73.99 25.00 316.55 2542.44
   20:25:50.369.09-Sep-2020 5252.51  480.08 73.99 25.00 316.75 2542.44
   20:25:50.569.09-Sep-2020 5252.51  479.88 73.99 25.00 316.95 2542.44
   20:25:50.769.09-Sep-2020 5252.51  479.55 73.99 25.00 317.15 2542.44
   20:25:50.969.09-Sep-2020 5252.51  479.02 73.99 25.00 317.35 2542.44
   20:25:51.169.09-Sep-2020 5252.51  479.24 73.99 25.00 317.55 2542.44
   20:25:51.370.09-Sep-2020 5252.51  478.97 73.99 25.00 317.75 2542.44
   20:25:51.570.09-Sep-2020 5252.51  478.99 73.99 25.00 317.95 2542.44
   20:25:51.770.09-Sep-2020 5252.51  478.30 73.99 25.00 318.15 2542.44
   20:25:51.970.09-Sep-2020 5252.51  478.30 73.99 25.00 318.35 2542.44
   20:25:52.170.09-Sep-2020 5252.51  478.30 73.99 25.00 318.55 2542.44
   20:25:52.370.09-Sep-2020 5252.51  478.38 73.99 25.00 318.75 2542.44
   20:25:52.570.09-Sep-2020 5252.51  478.12 73.99 25.00 318.95 2542.44
   20:25:52.770.09-Sep-2020 5252.51  477.92 73.99 25.00 319.15 2542.44
   20:25:52.970.09-Sep-2020 5252.51  477.92 73.99 25.00 319.35 2542.44
   20:25:53.170.09-Sep-2020 5252.51  477.58 73.99 25.00 319.55 2542.44
   20:25:53.370.09-Sep-2020 5252.51  477.20 73.99 25.00 319.75 2542.44
   20:25:53.571.09-Sep-2020 5252.51  476.90 73.99 25.00 319.95 2542.44
   20:25:53.771.09-Sep-2020 5252.51  476.94 73.99 25.00 320.15 2542.44
   20:25:53.971.09-Sep-2020 5252.51  477.00 73.99 25.00 320.35 2542.44
   20:25:54.171.09-Sep-2020 5252.51  477.22 73.99 25.00 320.55 2542.44
   20:25:54.371.09-Sep-2020 5252.51  477.15 73.99 25.00 320.75 2542.44
   20:25:54.571.09-Sep-2020 5252.51  477.29 73.99 25.00 320.95 2542.44
   20:25:54.771.09-Sep-2020 5252.51  476.68 73.99 25.00 321.15 2542.44
   20:25:54.971.09-Sep-2020 5252.51  477.02 73.99 25.00 321.35 2542.44
   20:25:55.171.09-Sep-2020 5252.51  476.70 73.99 25.00 321.55 2542.44
   20:25:55.371.09-Sep-2020 5252.51  476.82 73.99 25.00 321.75 2542.44
   20:25:55.571.09-Sep-2020 5252.51  476.66 73.99 25.00 321.95 2542.44
   20:25:55.772.09-Sep-2020 5252.51  476.78 73.99 25.00 322.15 2542.44
   20:25:55.972.09-Sep-2020 5252.51  476.27 73.99 25.00 322.35 2542.44
   20:25:56.172.09-Sep-2020 5252.51  476.62 73.99 25.00 322.55 2542.44
   20:25:56.372.09-Sep-2020 5252.51  476.16 73.99 25.00 322.75 2542.44
   20:25:56.572.09-Sep-2020 5252.51  476.34 73.99 25.00 322.95 2542.44
   20:25:56.772.09-Sep-2020 5252.51  476.38 73.99 25.00 323.15 2542.44
   20:25:56.972.09-Sep-2020 5252.51  476.58 73.99 25.00 323.35 2542.44
   20:25:57.172.09-Sep-2020 5252.51  476.29 73.99 25.00 323.55 2542.44
   20:25:57.372.09-Sep-2020 5252.51  476.18 73.99 25.00 323.75 2542.44
   20:25:57.572.09-Sep-2020 5252.51  475.97 73.99 25.00 323.95 2542.44
   20:25:57.772.09-Sep-2020 5252.51  476.06 73.99 25.00 324.15 2542.44
   20:25:57.973.09-Sep-2020 5252.51  476.12 73.99 25.00 324.35 2542.44
   20:25:58.173.09-Sep-2020 5252.51  476.23 73.99 25.00 324.55 2542.44
   20:25:58.373.09-Sep-2020 5252.51  476.29 73.99 25.00 324.75 2542.44
   20:25:58.573.09-Sep-2020 5252.51  476.31 73.99 25.00 324.95 2542.44
   20:25:58.773.09-Sep-2020 5252.51  476.30 73.99 25.00 325.15 2542.44
   20:25:58.973.09-Sep-2020 5252.51  476.34 73.99 25.00 325.35 2542.44
   20:25:59.173.09-Sep-2020 5252.51  476.41 73.99 25.00 325.55 2542.44
   20:25:59.373.09-Sep-2020 5252.51  476.22 73.99 25.00 325.75 2542.44
   20:25:59.573.09-Sep-2020 5252.51  475.80 73.99 25.00 325.95 2542.44
   20:25:59.773.09-Sep-2020 5252.51  475.51 73.99 25.00 326.15 2542.44
   20:25:59.973.09-Sep-2020 5252.51  474.80 73.99 25.00 326.35 2542.44
   20:26:00.174.09-Sep-2020 5252.51  475.04 73.99 25.00 326.55 2542.44
   20:26:00.374.09-Sep-2020 5252.51  477.16 73.99 25.00 326.75 2542.44
   20:26:00.574.09-Sep-2020 5252.51  477.51 73.99 25.00 326.95 2542.44
   20:26:00.774.09-Sep-2020 5252.51  477.47 73.99 25.00 327.15 2542.44
   20:26:00.974.09-Sep-2020 5252.51  477.63 73.99 25.00 327.35 2542.44
   20:26:01.174.09-Sep-2020 5252.51  477.70 73.99 25.00 327.55 2542.44
   20:26:01.374.09-Sep-2020 5252.51  477.75 73.99 25.00 327.75 2542.44
   20:26:01.574.09-Sep-2020 5252.51  477.78 73.99 25.00 327.95 2542.44
   20:26:01.774.09-Sep-2020 5252.51  477.81 73.99 25.00 328.15 2542.44
   20:26:01.974.09-Sep-2020 5252.51  477.89 73.99 25.00 328.35 2542.44
   20:26:02.175.09-Sep-2020 5252.51  477.95 73.99 25.00 328.55 2542.44
   20:26:02.375.09-Sep-2020 5252.51  478.00 73.99 25.00 328.75 2542.44
   20:26:02.575.09-Sep-2020 5252.51  478.07 73.99 25.00 328.95 2542.44
   20:26:02.775.09-Sep-2020 5252.51  478.13 73.99 25.00 329.15 2542.44
   20:26:02.975.09-Sep-2020 5252.51  478.41 73.99 25.00 329.35 2542.44
   20:26:03.175.09-Sep-2020 5252.51  479.43 73.99 25.00 329.55 2542.44
   20:26:03.375.09-Sep-2020 5252.51  479.59 73.99 25.00 329.75 2542.44
   20:26:03.575.09-Sep-2020 5252.51  479.60 73.99 25.00 329.95 2542.44
   20:26:03.775.09-Sep-2020 5252.51  479.84 73.99 25.00 330.15 2542.44
   20:26:03.975.09-Sep-2020 5252.51  479.30 73.99 25.00 330.35 2542.44
   20:26:04.175.09-Sep-2020 5252.51  479.89 73.99 25.00 330.55 2542.44
   20:26:04.376.09-Sep-2020 5252.51  480.16 73.99 25.00 330.75 2542.44
   20:26:04.576.09-Sep-2020 5252.51  480.22 73.99 25.00 330.95 2542.44
   20:26:04.776.09-Sep-2020 5252.51  480.21 73.99 25.00 331.15 2542.44
   20:26:04.976.09-Sep-2020 5252.51  480.43 73.99 25.00 331.35 2542.44
   20:26:05.176.09-Sep-2020 5252.51  480.39 73.99 25.00 331.55 2542.44
   20:26:05.376.09-Sep-2020 5252.51  479.75 73.99 25.00 331.75 2542.44
   20:26:05.576.09-Sep-2020 5252.51  480.63 73.99 25.00 331.95 2542.44
   20:26:05.776.09-Sep-2020 5252.51  480.58 73.99 25.00 332.15 2542.44
   20:26:05.976.09-Sep-2020 5252.51  480.51 73.99 25.00 332.35 2542.44
   20:26:06.176.09-Sep-2020 5252.51  480.63 73.99 25.00 332.55 2542.44
   20:26:06.376.09-Sep-2020 5252.51  480.79 73.99 25.00 332.75 2542.44
   20:26:06.577.09-Sep-2020 5252.51  480.81 73.99 25.00 332.95 2542.44
   20:26:06.777.09-Sep-2020 5252.51  480.83 73.99 25.00 333.15 2542.44
   20:26:06.977.09-Sep-2020 5252.51  480.35 73.99 25.00 333.35 2542.44
   20:26:07.177.09-Sep-2020 5252.51  481.01 73.99 25.00 333.55 2542.44
   20:26:07.377.09-Sep-2020 5252.51  481.20 73.99 25.00 333.75 2542.44
   20:26:07.577.09-Sep-2020 5252.51  481.19 73.99 25.00 333.95 2542.44
   20:26:07.777.09-Sep-2020 5252.51  481.41 73.99 25.00 334.15 2542.44
   20:26:07.977.09-Sep-2020 5252.51  481.31 73.99 25.00 334.35 2542.44
   20:26:08.177.09-Sep-2020 5252.51  481.46 73.99 25.00 334.55 2542.44
   20:26:08.377.09-Sep-2020 5252.51  480.72 73.99 25.00 334.75 2542.44
   20:26:08.577.09-Sep-2020 5252.51  481.69 73.99 25.00 334.95 2542.44
   20:26:08.778.09-Sep-2020 5252.51  481.65 73.99 25.00 335.15 2542.44
   20:26:08.978.09-Sep-2020 5252.51  481.65 73.99 25.00 335.35 2542.44
   20:26:09.178.09-Sep-2020 5252.51  481.77 73.99 25.00 335.55 2542.44
   20:26:09.378.09-Sep-2020 5252.51  481.90 73.99 25.00 335.75 2542.44
   20:26:09.578.09-Sep-2020 5252.51  481.88 73.99 25.00 335.95 2542.44
   20:26:09.778.09-Sep-2020 5252.51  481.87 73.99 25.00 336.15 2542.44
   20:26:09.978.09-Sep-2020 5252.51  481.87 73.99 25.00 336.36 2542.44
   20:26:10.178.09-Sep-2020 5252.51  482.02 73.99 25.00 336.56 2542.44
   20:26:10.378.09-Sep-2020 5252.51  482.11 73.99 25.00 336.76 2542.44
   20:26:10.578.09-Sep-2020 5252.51  482.15 73.99 25.00 336.96 2542.44
   20:26:10.778.09-Sep-2020 5252.51  482.19 73.99 25.00 337.16 2542.44
   20:26:10.979.09-Sep-2020 5252.51  482.24 73.99 25.00 337.36 2542.44
   20:26:11.179.09-Sep-2020 5252.51  482.27 73.99 25.00 337.56 2542.44
   20:26:11.379.09-Sep-2020 5252.51  482.34 73.99 25.00 337.76 2542.44
   20:26:11.579.09-Sep-2020 5252.51  482.39 73.99 25.00 337.96 2542.44
   20:26:11.779.09-Sep-2020 5252.51  482.42 73.99 25.00 338.16 2542.44
   20:26:11.979.09-Sep-2020 5252.51  482.42 73.99 25.00 338.36 2542.44
   20:26:12.179.09-Sep-2020 5252.51  482.54 73.99 25.00 338.56 2542.44
   20:26:12.379.09-Sep-2020 5252.51  482.57 73.99 25.00 338.76 2542.44
   20:26:12.579.09-Sep-2020 5252.51  482.56 73.99 25.00 338.96 2542.44
