~Version Information
 VERS.                  2.0:   CWLS log ASCII Standard -VERSION 2.0
 WRAP.                   NO:   One line per depth step
~Well Information Block
#MNEM.UNIT     VALUE/NAME     DESCRIPTION
#---------     -----------    ---------------------------
 STRT.S             13:30:41 09-Sep-20: START TIME 13:30:41 09-Sep-20
 STOP.S             13:37:24 09-Sep-20: STOP TIME  13:37:24 09-Sep-20
 STEP.S                   0.00: STEP TIME
 NULL.                 -999.25: NULL VALUE
 MDS .        Operator Entered:  MAG DATA SOURCE
 PDAT.          Mean Sea Level:  PERMANENT DATUM
 DCON.         Sperry Drilling:  DIRECTNL CONTR
 RIG .              West Azeri:  RIG NAME
 WELL.           C40 (Slot 20):  WELL NAME
 SRVC.     Turan Drilling Engineering:  CONTRACTOR
 FLD .                     ACG:  FIELD NAME
 CTRY.              Azerbaijan:  COUNTRY NAME
 PROV.                    Baku:  PROVINCE
 STAT.                    Baku:  STATE NAME
 REGN.                   EESSA:  REGION
 BASE.              Azerbaijan:  LOGGING EQUIPMENT BASE LOCATION
 COMP.     BP Exploration (Caspian Sea) Ltd:  COMPANY
 WTYP.                Deviated:  WELL TYPE
 SON .        AZ-XX-0906344804:  JOB NUMBER
 FTOP.          Formation Tops:  FORM TOPS DESC
 ILTD.               Lithology:  INTERP LTH DESC
 SVYD.                  Survey:  SURVEY DESC
 DMOD.             Drill Model:  DRILL MOD DESC
 HPTY.       Minimum Curvature:  HOLE POS TYPE
 NREF.                    Grid:  NORTH REFERENCE
 SPUD.               01-Jan-20:  SPUD DATE
 DATE.      00.59.44 15-Sep-20:  END TIME
 STIM.      12.00.00 12-Jun-20:  START TIME
 DMF .             Drill Floor:  DRILL MEAS FROM
 DFST.                        :  DIST FSL TEXT
 DFWT.                        :  DIST FWL TEXT
 API .                        :  API NUMBER
 CNTY.                        :  COUNTY
 UWI .                        :  UNIQUE WELL IDENTIFIER
 LOC .                        :  LOCATION
 LMF .             Drill Floor:  LOG MEASURED FROM
 VSNS.m                   2.88:  VERT SEC N/S
 VSEW.m                  -3.84:  VERT SEC E/W
 AGAP.m                  43.42:  AIR GAP
 APD .m                  43.42:  DEPTH ABOVE PD
 WDMS.m                 118.27:  WD ELEV
 EGL .m                   0.00:  GROUND ELEVATION
 EPD .m                   0.00:  ELEVATION
 AZTC.deg                 6.23:  AZM TOTAL CORR
 GRDC.deg                 0.20:  GRID CORRECTION
 MDEC.deg                 6.43:  MAGNETIC DECL
 MDIP.deg                59.49:  MAGNETIC DIP
 MFLD.nT              50277.00:  MAGNETIC FIELD
 GVFD.g                   1.00:  GRAVITY FIELD
 VSDR.deg               173.20:  VERT SEC DIRECT
 TDD .m                5790.01:  TOTAL DEPTH (DRILLER)
 SDEP.m                5231.01:  START DEPTH
 DFSL.m                   0.00:  DISTANCE FSL
 DFWL.m                   0.00:  DISTANCE FWL
 UTMY.m             4435808.83:  UTM Y
 UTMX.m              526266.40:  UTM X
 WHEW.m                  -3.84:  WELL HEAD E/W
 WHNS.m                   2.88:  WELL HEAD N/S
 LONG.deg                51.31:  LONGITUDE
 LATI.deg                40.06:  LATITUDE
 TVDS.m                  43.42:  TVDSS CORRECTN
 DEP .m                 430.08:  DEPTH
 EKB .m                  43.42:  KB ELEVATION
 EDF .m                  43.42:  DF ELEVATION
 TDL .m                 559.00:  TOTAL DEPTH (LOGGER)
 MAGU.                 1849381:  MAGUTM CHECKSUM
 VSC .                       0:  VS TO CLOSURE
~Parameter Information Block
#MNEM.UNIT       Value        Description
#---------     -----------    ---------------------------
 AV  .mps                 4.87:  Ann Velocity 
 AVMX.mps                 7.08:  Max Ann Veloc 
 AZIF.deg               108.87:  Azm, Final 
 BHAT.                  Rotary:  BHA Type 
 BROT.°/30m               0.35:  Build Rotating 
 BS  .in                  8.50:  Bit Size 
 BSZ .in                  8.50:  Bit Size 
 BTPL.psig              360.00:  Bit Press Loss 
 CABU.                     Yes:  Customer Abuse 
 COMM.                     $ñd:  Run Comments 1 
 TCS .hr                106.24:  Time Ciculation Ended 
 CV  .mps                 1.77:  Crit Velocity 
 CVMX.mps                 2.03:  Max Crit Veloc 
 DD1 .         Aykhan Agagulov:  Direct Drillr 1 
 DD2 .            Nonso Okofor:  Direct Drillr 2 
 DDSV.               Geo-Pilot:  DD Service 
 DEFF.%                  98.00:  % Det Eff 
 DLRX.°/30m               0.50:  Dogleg Rot Max 
 DLSO.°/30m               0.40:  Dogleg Oriented 
 DLSX.°/30m               0.94:  Dogleg Str Max 
 DRET.      20.30.00 08-Sep-20:  Drill End Time 
 DRST.      22.15.00 06-Sep-20:  Drill Start Tim 
 DTIM.hr                 31.31:  Time Drilling 
 EDEP.m                5790.01:  End Depth 
 ENG1.           Amrah Tahirov:  Engineer 1 
 ENG2.         Dair Mahammadov:  Engineer 2 
 ENG3.           Emil Huseynov:  Engineer 3 
 ETIM.      04.01.04 12-Sep-20:  End Time 
 FLOI.gpm               450.00:  Flow In 
 FLON.gpm               450.00:  Flow In Min 
 FLOS.cptm                2.00:  Fluid Loss 
 FLOX.gpm               450.00:  Flow In Max 
 FTRO.       Formation Presure:  FTWD Run Obj 
 HFLO.                      No:  High Flow 
 HPRE.                      No:  High Pressure 
 HTEM.                      No:  High Temp 
 HYDO.m                   1.80:  Hydro Offset 
 IFIN.deg                72.03:  Inc, Final 
 IMAX.deg                73.72:  Inc Max 
 IMIN.deg                70.94:  Inc Min 
 IMND.m                5508.52:  Inc Min Depth 
 IMXD.m                5253.60:  Inc Max Depth 
 JARR.                      No:  Jarring 
 LETM.      20.30.00 08-Sep-20:  Log End Time 
 LOST.hr                     0:  Lost Rig Time 
 LSTM.      22.15.00 06-Sep-20:  Log Start Time 
 MDCL.ppm             36000.00:  Mud Chlorides 
 MDES.     Inversion Oil/Synthetic:  Mud Desc 
 DFD .sg                  1.44:  Mud Density 
 MDMN.sg                  1.44:  Dens Mud Min 
 MDMX.sg                  1.57:  Dens Mud Max 
 MOIL.                      70:  Run Mud Oil % 
 MOWR.                   70:30:  Run Mud OWR 
 MSND.                       0:  Run Mud Sand % 
 MSOL.                      21:  Run Mud Solids% 
 DFV .spqt               68.00:  Mud Viscosity 
 MWOD.in                  6.75:  MWD Tool OD 
 MWSI.                     Yes:  Serv Intrp, MWD 
 OTIM.hr                174.84:  Time Operating 
 PCON.           Look Like New:  Pad Condition 
 PMAX.psia            10616.93:  Press Op, Max 
 PV  .cP                 50.00:  Mud PV 
 RUN .                     700:  Run Number 
 ROPA.m/hr               14.24:  ROP Avg 
 ROPN.m/hr               10.00:  ROP Min 
 ROPX.m/hr               32.00:  ROP Max 
 RPMA.rpm               120.90:  RPM Surface Avg 
 RPMN.rpm               120.00:  RPM Surface Min 
 RPMX.rpm               140.00:  RPM Surface Max 
 RRUN.                    0700:  Rig Run Number 
 RTIM.hr                  3.20:  Time Reaming 
 SAZI.deg               109.99:  Azm, Start 
 SDEP.m                5231.01:  Start Depth 
 SIDD.                      No:  Serv Intrp, DD 
 SINC.deg                73.72:  Inc, Start 
 SPPA.psig             3051.00:  SPP Avg 
 SPPN.psig             2950.00:  SPP Min 
 SPPX.psig             3250.00:  SPP Max 
 STIM.      08.00.00 05-Sep-20:  Start Time 
 SVCS.                 DD, MWD:  Services 
 SVER.                    9.20:  Sperry Version 
 TDAT.m                 559.00:  Tot Depth Attmp 
 TDDF.                      No:  Trip for DD 
 TDLG.m                 559.00:  Tot Depth Loggd 
 TFF .                      No:  Trip for Fail 
 TQAA.f-kp               26.49:  Torque Abs Avg 
 TQAN.f-kp               25.00:  Torque Abs Min 
 TQAX.f-kp               27.00:  Torque Abs Max 
 TRRT.°/30m               1.50:  Turn Rotating 
 MRT .                    HCIM:  Maximum Recorded Temperature 
 TTMX.degC               90.20:  Max Tool Temp 
 VS01.                90542671:  Virtual Str1 SN 
 VS02.                90545185:  Virtual Str2 SN 
 VS03.                90602015:  Virtual Str3 SN 
 VS04.                90515230:  Virtual Str4 SN 
 WBMN.klb                 5.00:  WOB Min 
 WOBA.klb                14.79:  WOB Avg 
 WOBX.klb                20.00:  WOB Max 
 YP  .lhf2               29.00:  Yield Point 
~Curve Information Block
#MNEM.UNIT                 API CODE     Curve Description
#---------               -----------    ---------------------------
 TIME.HHMMSS            00 000 000 000:  GT Time & Date
 GTDEPTH.m              00 000 000 000:  GT Depth
 GTPQH.psia             00 000 000 000:  GT HR Quartz Pressure
 GTTQ.degC              00 000 000 000:  GT Quartz Temperature
 GTTN.NONE              00 000 000 000:  GT Test Number
 GTET.sec               00 000 000 000:  GT Elapsed Test Time
 GTTVD.m                00 000 000 000:  GT True Vertical Depth
#Other Information
#
#WARRANTY: Halliburton will use its best efforts to furnish customers with 
#accurate information and interpretations that are part of, and incident to, the services 
#provided.  However, Halliburton cannot and does not warrant the accuracy 
#or correctness of such information and interpretations.  Under no circumstances should any 
#such information or interpretation be relied upon as the sole basis for any drilling, 
#completion, production, or financial decision or any procedure involving any risk to the 
#safety of any drilling venture, drilling rig or its crew or any other third party.  The 
#Customer has full responsibility for all drilling, completion and production operation.  
#Halliburton makes no representations or warranties, either expressed or 
#implied, including, but not limited to, the implied warranties of merchantability or fitness 
#for a particular purpose, with respect to the services rendered.  In no event will 
#Halliburton be liable for failure to obtain any particular results or for 
#any damages, including, but not limited to, indirect, special or consequential damages, 
#resulting from the use of any information or interpretation provided by Halliburton.
#
~A           TIME           GTDEPTH  GTPQH  GTTQ  GTTN   GTET   GTTVD  
# ...
   13:37:05.919.09-Sep-2020 5408.01 6402.76 75.59 15.00 384.43 2589.60
   13:37:06.120.09-Sep-2020 5408.01 6414.18 75.59 15.00 384.64 2589.60
   13:37:06.320.09-Sep-2020 5408.01 6398.82 75.59 15.00 384.84 2589.60
   13:37:06.520.09-Sep-2020 5408.01 6402.89 75.59 15.00 385.04 2589.60
   13:37:06.720.09-Sep-2020 5408.01 6403.69 75.59 15.00 385.24 2589.60
   13:37:06.920.09-Sep-2020 5408.01 6403.69 75.59 15.00 385.44 2589.60
   13:37:07.120.09-Sep-2020 5408.01 6411.40 75.58 15.00 385.64 2589.60
   13:37:07.320.09-Sep-2020 5408.01 6400.48 75.58 15.00 385.84 2589.60
   13:37:07.520.09-Sep-2020 5408.01 6405.09 75.58 15.00 386.04 2589.60
   13:37:07.720.09-Sep-2020 5408.01 6402.94 75.58 15.00 386.24 2589.60
   13:37:07.921.09-Sep-2020 5408.01 6402.94 75.58 15.00 386.44 2589.60
   13:37:08.121.09-Sep-2020 5408.01 6402.07 75.58 15.00 386.64 2589.60
   13:37:08.321.09-Sep-2020 5408.01 6412.45 75.58 15.00 386.84 2589.60
   13:37:08.521.09-Sep-2020 5408.01 6400.89 75.58 15.00 387.04 2589.60
   13:37:08.721.09-Sep-2020 5408.01 6406.99 75.58 15.00 387.24 2589.60
   13:37:08.921.09-Sep-2020 5408.01 6406.99 75.58 15.00 387.44 2589.60
   13:37:09.121.09-Sep-2020 5408.01 6406.55 75.58 15.00 387.64 2589.60
   13:37:09.321.09-Sep-2020 5408.01 6405.33 75.58 15.00 387.84 2589.60
   13:37:09.522.09-Sep-2020 5408.01 6405.09 75.58 15.00 388.04 2589.60
   13:37:09.722.09-Sep-2020 5408.01 6405.12 75.58 15.00 388.24 2589.60
   13:37:09.922.09-Sep-2020 5408.01 6405.12 75.58 15.00 388.44 2589.60
   13:37:10.122.09-Sep-2020 5408.01 6404.97 75.58 15.00 388.64 2589.60
   13:37:10.322.09-Sep-2020 5408.01 6404.59 75.58 15.00 388.84 2589.60
   13:37:10.522.09-Sep-2020 5408.01 6405.19 75.58 15.00 389.04 2589.60
   13:37:10.722.09-Sep-2020 5408.01 6405.01 75.58 15.00 389.24 2589.60
   13:37:10.922.09-Sep-2020 5408.01 6405.01 75.58 15.00 389.44 2589.60
   13:37:11.123.09-Sep-2020 5408.01 6403.82 75.58 15.00 389.64 2589.60
   13:37:11.323.09-Sep-2020 5408.01 6403.93 75.58 15.00 389.84 2589.60
   13:37:11.523.09-Sep-2020 5408.01 6404.02 75.58 15.00 390.04 2589.60
   13:37:11.723.09-Sep-2020 5408.01 6404.05 75.58 15.00 390.24 2589.60
   13:37:11.923.09-Sep-2020 5408.01 6404.05 75.58 15.00 390.44 2589.60
   13:37:12.123.09-Sep-2020 5408.01 6404.57 75.58 15.00 390.64 2589.60
   13:37:12.323.09-Sep-2020 5408.01 6403.57 75.58 15.00 390.84 2589.60
   13:37:12.523.09-Sep-2020 5408.01 6406.17 75.58 15.00 391.04 2589.60
   13:37:12.724.09-Sep-2020 5408.01 6404.72 75.58 15.00 391.24 2589.60
   13:37:12.924.09-Sep-2020 5408.01 6404.72 75.58 15.00 391.44 2589.60
   13:37:13.124.09-Sep-2020 5408.01 6403.98 75.58 15.00 391.64 2589.60
   13:37:13.324.09-Sep-2020 5408.01 6405.34 75.58 15.00 391.84 2589.60
   13:37:13.524.09-Sep-2020 5408.01 6404.40 75.58 15.00 392.04 2589.60
   13:37:13.724.09-Sep-2020 5408.01 6405.08 75.58 15.00 392.24 2589.60
   13:37:13.924.09-Sep-2020 5408.01 6405.08 75.58 15.00 392.44 2589.60
   13:37:14.124.09-Sep-2020 5408.01 6404.37 75.58 15.00 392.64 2589.60
   13:37:14.325.09-Sep-2020 5408.01 6403.62 75.58 15.00 392.84 2589.60
   13:37:14.525.09-Sep-2020 5408.01 6402.82 75.58 15.00 393.04 2589.60
   13:37:14.725.09-Sep-2020 5408.01 6402.84 75.58 15.00 393.24 2589.60
   13:37:14.925.09-Sep-2020 5408.01 6402.84 75.58 15.00 393.44 2589.60
   13:37:15.125.09-Sep-2020 5408.01 6402.87 75.58 15.00 393.64 2589.60
   13:37:15.325.09-Sep-2020 5408.01 6409.71 75.58 15.00 393.84 2589.60
   13:37:15.525.09-Sep-2020 5408.01 6402.97 75.57 15.00 394.04 2589.60
   13:37:15.725.09-Sep-2020 5408.01 6401.80 75.57 15.00 394.24 2589.60
   13:37:15.926.09-Sep-2020 5408.01 6401.80 75.57 15.00 394.44 2589.60
   13:37:16.126.09-Sep-2020 5408.01 6403.27 75.57 15.00 394.64 2589.60
   13:37:16.326.09-Sep-2020 5408.01 6405.85 75.57 15.00 394.84 2589.60
   13:37:16.526.09-Sep-2020 5408.01 6413.12 75.57 15.00 395.04 2589.60
   13:37:16.726.09-Sep-2020 5408.01 6399.19 75.57 15.00 395.24 2589.60
   13:37:16.926.09-Sep-2020 5408.01 6399.19 75.57 15.00 395.44 2589.60
   13:37:17.126.09-Sep-2020 5408.01 6404.15 75.57 15.00 395.64 2589.60
   13:37:17.326.09-Sep-2020 5408.01 6404.54 75.57 15.00 395.84 2589.60
   13:37:17.526.09-Sep-2020 5408.01 6405.03 75.57 15.00 396.04 2589.60
   13:37:17.727.09-Sep-2020 5408.01 6402.65 75.57 15.00 396.24 2589.60
   13:37:17.927.09-Sep-2020 5408.01 6402.65 75.57 15.00 396.44 2589.60
   13:37:18.127.09-Sep-2020 5408.01 6411.64 75.57 15.00 396.64 2589.60
   13:37:18.327.09-Sep-2020 5408.01 6400.99 75.57 15.00 396.84 2589.60
   13:37:18.527.09-Sep-2020 5408.01 6404.78 75.57 15.00 397.04 2589.60
   13:37:18.727.09-Sep-2020 5408.01 6401.79 75.57 15.00 397.24 2589.60
   13:37:18.927.09-Sep-2020 5408.01 6401.79 75.57 15.00 397.44 2589.60
   13:37:19.127.09-Sep-2020 5408.01 6404.07 75.57 15.00 397.64 2589.60
   13:37:19.328.09-Sep-2020 5408.01 6403.71 75.57 15.00 397.84 2589.60
   13:37:19.528.09-Sep-2020 5408.01 6410.24 75.57 15.00 398.04 2589.60
   13:37:19.728.09-Sep-2020 5408.01 6404.08 75.57 15.00 398.24 2589.60
   13:37:19.928.09-Sep-2020 5408.01 6404.08 75.57 15.00 398.44 2589.60
   13:37:20.128.09-Sep-2020 5408.01 6405.59 75.57 15.00 398.64 2589.60
   13:37:20.328.09-Sep-2020 5408.01 6404.41 75.57 15.00 398.84 2589.60
   13:37:20.528.09-Sep-2020 5408.01 6407.73 75.57 15.00 399.04 2589.60
   13:37:20.728.09-Sep-2020 5408.01 6403.94 75.57 15.00 399.24 2589.60
   13:37:20.929.09-Sep-2020 5408.01 6403.94 75.57 15.00 399.44 2589.60
   13:37:21.129.09-Sep-2020 5408.01 6399.13 75.57 15.00 399.64 2589.60
   13:37:21.329.09-Sep-2020 5408.01 6405.78 75.57 15.00 399.84 2589.60
   13:37:21.529.09-Sep-2020 5408.01 6404.65 75.57 15.00 400.04 2589.60
   13:37:21.729.09-Sep-2020 5408.01 6406.35 75.57 15.00 400.24 2589.60
   13:37:21.929.09-Sep-2020 5408.01 6406.35 75.57 15.00 400.44 2589.60
   13:37:22.129.09-Sep-2020 5408.01 6403.37 75.57 15.00 400.64 2589.60
   13:37:22.329.09-Sep-2020 5408.01 6404.30 75.57 15.00 400.84 2589.60
   13:37:22.530.09-Sep-2020 5408.01 6403.57 75.57 15.00 401.05 2589.60
   13:37:22.730.09-Sep-2020 5408.01 6404.20 75.57 15.00 401.25 2589.60
   13:37:22.930.09-Sep-2020 5408.01 6404.20 75.57 15.00 401.45 2589.60
   13:37:23.130.09-Sep-2020 5408.01 6404.07 75.57 15.00 401.65 2589.60
   13:37:23.330.09-Sep-2020 5408.01 6404.02 75.57 15.00 401.85 2589.60
   13:37:23.530.09-Sep-2020 5408.01 6403.87 75.57 15.00 402.05 2589.60
   13:37:23.730.09-Sep-2020 5408.01 6404.01 75.57 15.00 402.25 2589.60
   13:37:23.930.09-Sep-2020 5408.01 6404.01 75.57 15.00 402.45 2589.60
   13:37:24.131.09-Sep-2020 5408.01 6403.92 75.57 15.00 402.65 2589.60
   13:37:24.331.09-Sep-2020 5408.01 6403.68 75.57 15.00 402.85 2589.60
   13:37:24.531.09-Sep-2020 5408.01 6404.21 75.57 15.00 403.05 2589.60
