~Version Information
 VERS.                  2.0:   CWLS log ASCII Standard -VERSION 2.0
 WRAP.                   NO:   One line per depth step
~Well Information Block
#MNEM.UNIT     VALUE/NAME     DESCRIPTION
#---------     -----------    ---------------------------
 STRT.S             09:38:11 09-Sep-20: START TIME 09:38:11 09-Sep-20
 STOP.S             09:45:11 09-Sep-20: STOP TIME  09:45:11 09-Sep-20
 STEP.S                   0.00: STEP TIME
 NULL.                 -999.25: NULL VALUE
 MDS .        Operator Entered:  MAG DATA SOURCE
 PDAT.          Mean Sea Level:  PERMANENT DATUM
 DCON.         Sperry Drilling:  DIRECTNL CONTR
 RIG .              West Azeri:  RIG NAME
 WELL.           C40 (Slot 20):  WELL NAME
 SRVC.     Turan Drilling Engineering:  CONTRACTOR
 FLD .                     ACG:  FIELD NAME
 CTRY.              Azerbaijan:  COUNTRY NAME
 PROV.                    Baku:  PROVINCE
 STAT.                    Baku:  STATE NAME
 REGN.                   EESSA:  REGION
 BASE.              Azerbaijan:  LOGGING EQUIPMENT BASE LOCATION
 COMP.     BP Exploration (Caspian Sea) Ltd:  COMPANY
 WTYP.                Deviated:  WELL TYPE
 SON .        AZ-XX-0906344804:  JOB NUMBER
 FTOP.          Formation Tops:  FORM TOPS DESC
 ILTD.               Lithology:  INTERP LTH DESC
 SVYD.                  Survey:  SURVEY DESC
 DMOD.             Drill Model:  DRILL MOD DESC
 HPTY.       Minimum Curvature:  HOLE POS TYPE
 NREF.                    Grid:  NORTH REFERENCE
 SPUD.               01-Jan-20:  SPUD DATE
 DATE.      00.59.44 15-Sep-20:  END TIME
 STIM.      12.00.00 12-Jun-20:  START TIME
 DMF .             Drill Floor:  DRILL MEAS FROM
 DFST.                        :  DIST FSL TEXT
 DFWT.                        :  DIST FWL TEXT
 API .                        :  API NUMBER
 CNTY.                        :  COUNTY
 UWI .                        :  UNIQUE WELL IDENTIFIER
 LOC .                        :  LOCATION
 LMF .             Drill Floor:  LOG MEASURED FROM
 VSNS.m                   2.88:  VERT SEC N/S
 VSEW.m                  -3.84:  VERT SEC E/W
 AGAP.m                  43.42:  AIR GAP
 APD .m                  43.42:  DEPTH ABOVE PD
 WDMS.m                 118.27:  WD ELEV
 EGL .m                   0.00:  GROUND ELEVATION
 EPD .m                   0.00:  ELEVATION
 AZTC.deg                 6.23:  AZM TOTAL CORR
 GRDC.deg                 0.20:  GRID CORRECTION
 MDEC.deg                 6.43:  MAGNETIC DECL
 MDIP.deg                59.49:  MAGNETIC DIP
 MFLD.nT              50277.00:  MAGNETIC FIELD
 GVFD.g                   1.00:  GRAVITY FIELD
 VSDR.deg               173.20:  VERT SEC DIRECT
 TDD .m                5790.01:  TOTAL DEPTH (DRILLER)
 SDEP.m                5231.01:  START DEPTH
 DFSL.m                   0.00:  DISTANCE FSL
 DFWL.m                   0.00:  DISTANCE FWL
 UTMY.m             4435808.83:  UTM Y
 UTMX.m              526266.40:  UTM X
 WHEW.m                  -3.84:  WELL HEAD E/W
 WHNS.m                   2.88:  WELL HEAD N/S
 LONG.deg                51.31:  LONGITUDE
 LATI.deg                40.06:  LATITUDE
 TVDS.m                  43.42:  TVDSS CORRECTN
 DEP .m                 430.08:  DEPTH
 EKB .m                  43.42:  KB ELEVATION
 EDF .m                  43.42:  DF ELEVATION
 TDL .m                 559.00:  TOTAL DEPTH (LOGGER)
 MAGU.                 1849381:  MAGUTM CHECKSUM
 VSC .                       0:  VS TO CLOSURE
~Parameter Information Block
#MNEM.UNIT       Value        Description
#---------     -----------    ---------------------------
 AV  .mps                 4.87:  Ann Velocity 
 AVMX.mps                 7.08:  Max Ann Veloc 
 AZIF.deg               108.87:  Azm, Final 
 BHAT.                  Rotary:  BHA Type 
 BROT.°/30m               0.35:  Build Rotating 
 BS  .in                  8.50:  Bit Size 
 BSZ .in                  8.50:  Bit Size 
 BTPL.psig              360.00:  Bit Press Loss 
 CABU.                     Yes:  Customer Abuse 
 COMM.                     ”æo:  Run Comments 1 
 TCS .hr                106.24:  Time Ciculation Ended 
 CV  .mps                 1.77:  Crit Velocity 
 CVMX.mps                 2.03:  Max Crit Veloc 
 DD1 .         Aykhan Agagulov:  Direct Drillr 1 
 DD2 .            Nonso Okofor:  Direct Drillr 2 
 DDSV.               Geo-Pilot:  DD Service 
 DEFF.%                  98.00:  % Det Eff 
 DLRX.°/30m               0.50:  Dogleg Rot Max 
 DLSO.°/30m               0.40:  Dogleg Oriented 
 DLSX.°/30m               0.94:  Dogleg Str Max 
 DRET.      20.30.00 08-Sep-20:  Drill End Time 
 DRST.      22.15.00 06-Sep-20:  Drill Start Tim 
 DTIM.hr                 31.31:  Time Drilling 
 EDEP.m                5790.01:  End Depth 
 ENG1.           Amrah Tahirov:  Engineer 1 
 ENG2.         Dair Mahammadov:  Engineer 2 
 ENG3.           Emil Huseynov:  Engineer 3 
 ETIM.      04.01.04 12-Sep-20:  End Time 
 FLOI.gpm               450.00:  Flow In 
 FLON.gpm               450.00:  Flow In Min 
 FLOS.cptm                2.00:  Fluid Loss 
 FLOX.gpm               450.00:  Flow In Max 
 FTRO.       Formation Presure:  FTWD Run Obj 
 HFLO.                      No:  High Flow 
 HPRE.                      No:  High Pressure 
 HTEM.                      No:  High Temp 
 HYDO.m                   1.80:  Hydro Offset 
 IFIN.deg                72.03:  Inc, Final 
 IMAX.deg                73.72:  Inc Max 
 IMIN.deg                70.94:  Inc Min 
 IMND.m                5508.52:  Inc Min Depth 
 IMXD.m                5253.60:  Inc Max Depth 
 JARR.                      No:  Jarring 
 LETM.      20.30.00 08-Sep-20:  Log End Time 
 LOST.hr                     0:  Lost Rig Time 
 LSTM.      22.15.00 06-Sep-20:  Log Start Time 
 MDCL.ppm             36000.00:  Mud Chlorides 
 MDES.     Inversion Oil/Synthetic:  Mud Desc 
 DFD .sg                  1.44:  Mud Density 
 MDMN.sg                  1.44:  Dens Mud Min 
 MDMX.sg                  1.57:  Dens Mud Max 
 MOIL.                      70:  Run Mud Oil % 
 MOWR.                   70:30:  Run Mud OWR 
 MSND.                       0:  Run Mud Sand % 
 MSOL.                      21:  Run Mud Solids% 
 DFV .spqt               68.00:  Mud Viscosity 
 MWOD.in                  6.75:  MWD Tool OD 
 MWSI.                     Yes:  Serv Intrp, MWD 
 OTIM.hr                174.84:  Time Operating 
 PCON.           Look Like New:  Pad Condition 
 PMAX.psia            10616.93:  Press Op, Max 
 PV  .cP                 50.00:  Mud PV 
 RUN .                     700:  Run Number 
 ROPA.m/hr               14.24:  ROP Avg 
 ROPN.m/hr               10.00:  ROP Min 
 ROPX.m/hr               32.00:  ROP Max 
 RPMA.rpm               120.90:  RPM Surface Avg 
 RPMN.rpm               120.00:  RPM Surface Min 
 RPMX.rpm               140.00:  RPM Surface Max 
 RRUN.                    0700:  Rig Run Number 
 RTIM.hr                  3.20:  Time Reaming 
 SAZI.deg               109.99:  Azm, Start 
 SDEP.m                5231.01:  Start Depth 
 SIDD.                      No:  Serv Intrp, DD 
 SINC.deg                73.72:  Inc, Start 
 SPPA.psig             3051.00:  SPP Avg 
 SPPN.psig             2950.00:  SPP Min 
 SPPX.psig             3250.00:  SPP Max 
 STIM.      08.00.00 05-Sep-20:  Start Time 
 SVCS.                 DD, MWD:  Services 
 SVER.                    9.20:  Sperry Version 
 TDAT.m                 559.00:  Tot Depth Attmp 
 TDDF.                      No:  Trip for DD 
 TDLG.m                 559.00:  Tot Depth Loggd 
 TFF .                      No:  Trip for Fail 
 TQAA.f-kp               26.49:  Torque Abs Avg 
 TQAN.f-kp               25.00:  Torque Abs Min 
 TQAX.f-kp               27.00:  Torque Abs Max 
 TRRT.°/30m               1.50:  Turn Rotating 
 MRT .                    HCIM:  Maximum Recorded Temperature 
 TTMX.degC               90.20:  Max Tool Temp 
 VS01.                90542671:  Virtual Str1 SN 
 VS02.                90545185:  Virtual Str2 SN 
 VS03.                90602015:  Virtual Str3 SN 
 VS04.                90515230:  Virtual Str4 SN 
 WBMN.klb                 5.00:  WOB Min 
 WOBA.klb                14.79:  WOB Avg 
 WOBX.klb                20.00:  WOB Max 
 YP  .lhf2               29.00:  Yield Point 
~Curve Information Block
#MNEM.UNIT                 API CODE     Curve Description
#---------               -----------    ---------------------------
 TIME.HHMMSS            00 000 000 000:  GT Time & Date
 GTDEPTH.m              00 000 000 000:  GT Depth
 GTPQH.psia             00 000 000 000:  GT HR Quartz Pressure
 GTTQ.degC              00 000 000 000:  GT Quartz Temperature
 GTTN.NONE              00 000 000 000:  GT Test Number
 GTET.sec               00 000 000 000:  GT Elapsed Test Time
 GTTVD.m                00 000 000 000:  GT True Vertical Depth
#Other Information
#
#WARRANTY: Halliburton will use its best efforts to furnish customers with 
#accurate information and interpretations that are part of, and incident to, the services 
#provided.  However, Halliburton cannot and does not warrant the accuracy 
#or correctness of such information and interpretations.  Under no circumstances should any 
#such information or interpretation be relied upon as the sole basis for any drilling, 
#completion, production, or financial decision or any procedure involving any risk to the 
#safety of any drilling venture, drilling rig or its crew or any other third party.  The 
#Customer has full responsibility for all drilling, completion and production operation.  
#Halliburton makes no representations or warranties, either expressed or 
#implied, including, but not limited to, the implied warranties of merchantability or fitness 
#for a particular purpose, with respect to the services rendered.  In no event will 
#Halliburton be liable for failure to obtain any particular results or for 
#any damages, including, but not limited to, indirect, special or consequential damages, 
#resulting from the use of any information or interpretation provided by Halliburton.
#
~A           TIME           GTDEPTH  GTPQH  GTTQ  GTTN  GTET   GTTVD  
# ...
   09:38:57.000.09-Sep-2020 5484.51 3289.11 77.69 7.00  46.00 2613.78
   09:38:57.200.09-Sep-2020 5484.51 3289.11 77.69 7.00  46.20 2613.78
   09:38:57.400.09-Sep-2020 5484.51 3286.20 77.68 7.00  46.40 2613.78
   09:38:57.600.09-Sep-2020 5484.51 3288.28 77.68 7.00  46.60 2613.78
   09:38:57.800.09-Sep-2020 5484.51 3283.62 77.68 7.00  46.80 2613.78
   09:38:58.000.09-Sep-2020 5484.51 3283.01 77.68 7.00  47.00 2613.78
   09:38:58.200.09-Sep-2020 5484.51 3283.01 77.68 7.00  47.20 2613.78
   09:38:58.400.09-Sep-2020 5484.51 3289.25 77.67 7.00  47.40 2613.78
   09:38:58.600.09-Sep-2020 5484.51 3290.30 77.67 7.00  47.60 2613.78
   09:38:58.800.09-Sep-2020 5484.51 3285.70 77.67 7.00  47.80 2613.78
   09:38:59.000.09-Sep-2020 5484.51 3284.18 77.66 7.00  48.00 2613.78
   09:38:59.200.09-Sep-2020 5484.51 3284.18 77.66 7.00  48.20 2613.78
   09:38:59.400.09-Sep-2020 5484.51 3289.61 77.66 7.00  48.40 2613.78
   09:38:59.600.09-Sep-2020 5484.51 3285.52 77.65 7.00  48.60 2613.78
   09:38:59.800.09-Sep-2020 5484.51 3287.16 77.65 7.00  48.80 2613.78
   09:39:00.000.09-Sep-2020 5484.51 3285.12 77.65 7.00  49.00 2613.78
   09:39:00.200.09-Sep-2020 5484.51 3285.12 77.65 7.00  49.20 2613.78
   09:39:00.400.09-Sep-2020 5484.51 3284.19 77.64 7.00  49.40 2613.78
   09:39:00.600.09-Sep-2020 5484.51 3288.63 77.64 7.00  49.60 2613.78
   09:39:00.800.09-Sep-2020 5484.51 3283.76 77.64 7.00  49.80 2613.78
   09:39:01.000.09-Sep-2020 5484.51 3288.85 77.64 7.00  50.00 2613.78
   09:39:01.200.09-Sep-2020 5484.51 3288.85 77.64 7.00  50.20 2613.78
   09:39:01.400.09-Sep-2020 5484.51 3285.77 77.63 7.00  50.40 2613.78
   09:39:01.600.09-Sep-2020 5484.51 3285.00 77.63 7.00  50.60 2613.78
   09:39:01.800.09-Sep-2020 5484.51 3284.57 77.63 7.00  50.80 2613.78
   09:39:02.000.09-Sep-2020 5484.51 3282.82 77.63 7.00  51.00 2613.78
   09:39:02.200.09-Sep-2020 5484.51 3282.82 77.63 7.00  51.20 2613.78
   09:39:02.400.09-Sep-2020 5484.51 3287.64 77.63 7.00  51.40 2613.78
   09:39:02.600.09-Sep-2020 5484.51 3286.89 77.62 7.00  51.60 2613.78
   09:39:02.800.09-Sep-2020 5484.51 3280.45 77.62 7.00  51.80 2613.78
   09:39:03.000.09-Sep-2020 5484.51 3285.81 77.62 7.00  52.00 2613.78
   09:39:03.200.09-Sep-2020 5484.51 3285.81 77.62 7.00  52.20 2613.78
   09:39:03.400.09-Sep-2020 5484.51 3283.53 77.62 7.00  52.40 2613.78
   09:39:03.600.09-Sep-2020 5484.51 3284.24 77.62 7.00  52.60 2613.78
   09:39:03.800.09-Sep-2020 5484.51 3285.77 77.62 7.00  52.80 2613.78
   09:39:04.000.09-Sep-2020 5484.51 3286.99 77.61 7.00  53.00 2613.78
   09:39:04.200.09-Sep-2020 5484.51 3286.99 77.61 7.00  53.20 2613.78
   09:39:04.400.09-Sep-2020 5484.51 3512.46 77.61 7.00  53.40 2613.78
   09:39:04.600.09-Sep-2020 5484.51 3581.46 77.61 7.00  53.60 2613.78
   09:39:04.800.09-Sep-2020 5484.51 3589.92 77.61 7.00  53.80 2613.78
   09:39:05.000.09-Sep-2020 5484.51 3591.34 77.61 7.00  54.00 2613.78
   09:39:05.200.09-Sep-2020 5484.51 3591.34 77.61 7.00  54.20 2613.78
   09:39:05.400.09-Sep-2020 5484.51 3592.41 77.61 7.00  54.40 2613.78
   09:39:05.600.09-Sep-2020 5484.51 3592.70 77.61 7.00  54.60 2613.78
   09:39:05.800.09-Sep-2020 5484.51 3592.74 77.61 7.00  54.80 2613.78
   09:39:06.000.09-Sep-2020 5484.51 3593.52 77.61 7.00  55.00 2613.78
   09:39:06.200.09-Sep-2020 5484.51 3593.52 77.61 7.00  55.20 2613.78
   09:39:06.400.09-Sep-2020 5484.51 3593.54 77.61 7.00  55.40 2613.78
   09:39:06.600.09-Sep-2020 5484.51 3593.72 77.61 7.00  55.60 2613.78
   09:39:06.800.09-Sep-2020 5484.51 3593.89 77.61 7.00  55.80 2613.78
   09:39:07.000.09-Sep-2020 5484.51 3593.09 77.61 7.00  56.00 2613.78
   09:39:07.200.09-Sep-2020 5484.51 3593.09 77.61 7.00  56.20 2613.78
   09:39:07.400.09-Sep-2020 5484.51 3594.08 77.61 7.00  56.40 2613.78
   09:39:07.600.09-Sep-2020 5484.51 3594.16 77.61 7.00  56.60 2613.78
   09:39:07.800.09-Sep-2020 5484.51 3594.24 77.61 7.00  56.80 2613.78
   09:39:08.000.09-Sep-2020 5484.51 3594.34 77.61 7.00  57.00 2613.78
   09:39:08.200.09-Sep-2020 5484.51 3594.34 77.61 7.00  57.20 2613.78
   09:39:08.400.09-Sep-2020 5484.51 3594.55 77.61 7.00  57.40 2613.78
   09:39:08.600.09-Sep-2020 5484.51 3594.32 77.61 7.00  57.60 2613.78
   09:39:08.800.09-Sep-2020 5484.51 3594.51 77.61 7.00  57.80 2613.78
   09:39:09.000.09-Sep-2020 5484.51 3594.56 77.61 7.00  58.00 2613.78
   09:39:09.200.09-Sep-2020 5484.51 3594.56 77.61 7.00  58.20 2613.78
   09:39:09.400.09-Sep-2020 5484.51 3594.54 77.61 7.00  58.40 2613.78
   09:39:09.600.09-Sep-2020 5484.51 3594.66 77.61 7.00  58.60 2613.78
   09:39:09.800.09-Sep-2020 5484.51 3594.86 77.61 7.00  58.80 2613.78
   09:39:10.000.09-Sep-2020 5484.51 3594.59 77.61 7.00  59.00 2613.78
   09:39:10.200.09-Sep-2020 5484.51 3594.59 77.61 7.00  59.20 2613.78
   09:39:10.400.09-Sep-2020 5484.51 3594.78 77.61 7.00  59.40 2613.78
   09:39:10.600.09-Sep-2020 5484.51 3594.96 77.61 7.00  59.60 2613.78
   09:39:10.800.09-Sep-2020 5484.51 3594.75 77.61 7.00  59.80 2613.78
   09:39:11.000.09-Sep-2020 5484.51 3594.87 77.61 7.00  60.00 2613.78
   09:39:11.200.09-Sep-2020 5484.51 3594.87 77.61 7.00  60.20 2613.78
   09:39:11.400.09-Sep-2020 5484.51 3594.78 77.61 7.00  60.40 2613.78
   09:39:11.600.09-Sep-2020 5484.51 3594.93 77.61 7.00  60.60 2613.78
   09:39:11.800.09-Sep-2020 5484.51 3594.95 77.61 7.00  60.80 2613.78
   09:39:12.000.09-Sep-2020 5484.51 3595.13 77.61 7.00  61.00 2613.78
   09:39:12.200.09-Sep-2020 5484.51 3595.13 77.61 7.00  61.20 2613.78
   09:39:12.400.09-Sep-2020 5484.51 3595.03 77.61 7.00  61.40 2613.78
   09:39:12.600.09-Sep-2020 5484.51 3595.04 77.61 7.00  61.60 2613.78
   09:39:12.800.09-Sep-2020 5484.51 3595.07 77.61 7.00  61.80 2613.78
   09:39:13.000.09-Sep-2020 5484.51 3595.06 77.61 7.00  62.00 2613.78
   09:39:13.200.09-Sep-2020 5484.51 3595.06 77.61 7.00  62.20 2613.78
   09:39:13.400.09-Sep-2020 5484.51 3595.13 77.61 7.00  62.40 2613.78
   09:39:13.600.09-Sep-2020 5484.51 3595.14 77.61 7.00  62.60 2613.78
   09:39:13.800.09-Sep-2020 5484.51 3595.16 77.61 7.00  62.80 2613.78
   09:39:14.000.09-Sep-2020 5484.51 3595.17 77.61 7.00  63.00 2613.78
   09:39:14.200.09-Sep-2020 5484.51 3595.17 77.61 7.00  63.20 2613.78
   09:39:14.400.09-Sep-2020 5484.51 3595.19 77.61 7.00  63.40 2613.78
   09:39:14.600.09-Sep-2020 5484.51 3595.22 77.61 7.00  63.60 2613.78
   09:39:14.800.09-Sep-2020 5484.51 3595.05 77.61 7.00  63.80 2613.78
   09:39:15.000.09-Sep-2020 5484.51 3595.41 77.61 7.00  64.00 2613.78
   09:39:15.200.09-Sep-2020 5484.51 3595.41 77.61 7.00  64.20 2613.78
   09:39:15.400.09-Sep-2020 5484.51 3595.28 77.61 7.00  64.40 2613.78
   09:39:15.600.09-Sep-2020 5484.51 3595.31 77.62 7.00  64.60 2613.78
   09:39:15.800.09-Sep-2020 5484.51 3595.39 77.62 7.00  64.80 2613.78
   09:39:16.000.09-Sep-2020 5484.51 3595.21 77.62 7.00  65.00 2613.78
   09:39:16.200.09-Sep-2020 5484.51 3595.21 77.62 7.00  65.20 2613.78
   09:39:16.400.09-Sep-2020 5484.51 3595.32 77.62 7.00  65.40 2613.78
   09:39:16.600.09-Sep-2020 5484.51 3595.36 77.62 7.00  65.60 2613.78
   09:39:16.800.09-Sep-2020 5484.51 3595.37 77.62 7.00  65.80 2613.78
   09:39:17.000.09-Sep-2020 5484.51 3595.38 77.62 7.00  66.00 2613.78
   09:39:17.200.09-Sep-2020 5484.51 3595.38 77.62 7.00  66.20 2613.78
   09:39:17.400.09-Sep-2020 5484.51 3595.37 77.62 7.00  66.40 2613.78
   09:39:17.600.09-Sep-2020 5484.51 3595.42 77.62 7.00  66.60 2613.78
   09:39:17.800.09-Sep-2020 5484.51 3595.42 77.62 7.00  66.80 2613.78
   09:39:18.000.09-Sep-2020 5484.51 3595.44 77.62 7.00  67.00 2613.78
   09:39:18.200.09-Sep-2020 5484.51 3595.44 77.62 7.00  67.20 2613.78
   09:39:18.400.09-Sep-2020 5484.51 3595.86 77.62 7.00  67.40 2613.78
   09:39:18.600.09-Sep-2020 5484.51 3595.44 77.62 7.00  67.60 2613.78
   09:39:18.800.09-Sep-2020 5484.51 3595.45 77.62 7.00  67.80 2613.78
   09:39:19.000.09-Sep-2020 5484.51 3595.44 77.62 7.00  68.00 2613.78
   09:39:19.200.09-Sep-2020 5484.51 3595.44 77.62 7.00  68.20 2613.78
   09:39:19.400.09-Sep-2020 5484.51 3595.63 77.62 7.00  68.40 2613.78
   09:39:19.600.09-Sep-2020 5484.51 3595.35 77.62 7.00  68.60 2613.78
   09:39:19.800.09-Sep-2020 5484.51 3595.52 77.62 7.00  68.80 2613.78
