~Version Information
 VERS.                  2.0:   CWLS log ASCII Standard -VERSION 2.0
 WRAP.                   NO:   One line per depth step
~Well Information Block
#MNEM.UNIT     VALUE/NAME     DESCRIPTION
#---------     -----------    ---------------------------
 STRT.S             07:31:38 09-Sep-20: START TIME 07:31:38 09-Sep-20
 STOP.S             07:38:38 09-Sep-20: STOP TIME  07:38:38 09-Sep-20
 STEP.S                   0.00: STEP TIME
 NULL.                 -999.25: NULL VALUE
 MDS .        Operator Entered:  MAG DATA SOURCE
 PDAT.          Mean Sea Level:  PERMANENT DATUM
 DCON.         Sperry Drilling:  DIRECTNL CONTR
 RIG .              West Azeri:  RIG NAME
 WELL.           C40 (Slot 20):  WELL NAME
 SRVC.     Turan Drilling Engineering:  CONTRACTOR
 FLD .                     ACG:  FIELD NAME
 CTRY.              Azerbaijan:  COUNTRY NAME
 PROV.                    Baku:  PROVINCE
 STAT.                    Baku:  STATE NAME
 REGN.                   EESSA:  REGION
 BASE.              Azerbaijan:  LOGGING EQUIPMENT BASE LOCATION
 COMP.     BP Exploration (Caspian Sea) Ltd:  COMPANY
 WTYP.                Deviated:  WELL TYPE
 SON .        AZ-XX-0906344804:  JOB NUMBER
 FTOP.          Formation Tops:  FORM TOPS DESC
 ILTD.               Lithology:  INTERP LTH DESC
 SVYD.                  Survey:  SURVEY DESC
 DMOD.             Drill Model:  DRILL MOD DESC
 HPTY.       Minimum Curvature:  HOLE POS TYPE
 NREF.                    Grid:  NORTH REFERENCE
 SPUD.               01-Jan-20:  SPUD DATE
 DATE.      00.59.44 15-Sep-20:  END TIME
 STIM.      12.00.00 12-Jun-20:  START TIME
 DMF .             Drill Floor:  DRILL MEAS FROM
 DFST.                        :  DIST FSL TEXT
 DFWT.                        :  DIST FWL TEXT
 API .                        :  API NUMBER
 CNTY.                        :  COUNTY
 UWI .                        :  UNIQUE WELL IDENTIFIER
 LOC .                        :  LOCATION
 LMF .             Drill Floor:  LOG MEASURED FROM
 VSNS.m                   2.88:  VERT SEC N/S
 VSEW.m                  -3.84:  VERT SEC E/W
 AGAP.m                  43.42:  AIR GAP
 APD .m                  43.42:  DEPTH ABOVE PD
 WDMS.m                 118.27:  WD ELEV
 EGL .m                   0.00:  GROUND ELEVATION
 EPD .m                   0.00:  ELEVATION
 AZTC.deg                 6.23:  AZM TOTAL CORR
 GRDC.deg                 0.20:  GRID CORRECTION
 MDEC.deg                 6.43:  MAGNETIC DECL
 MDIP.deg                59.49:  MAGNETIC DIP
 MFLD.nT              50277.00:  MAGNETIC FIELD
 GVFD.g                   1.00:  GRAVITY FIELD
 VSDR.deg               173.20:  VERT SEC DIRECT
 TDD .m                5790.01:  TOTAL DEPTH (DRILLER)
 SDEP.m                5231.01:  START DEPTH
 DFSL.m                   0.00:  DISTANCE FSL
 DFWL.m                   0.00:  DISTANCE FWL
 UTMY.m             4435808.83:  UTM Y
 UTMX.m              526266.40:  UTM X
 WHEW.m                  -3.84:  WELL HEAD E/W
 WHNS.m                   2.88:  WELL HEAD N/S
 LONG.deg                51.31:  LONGITUDE
 LATI.deg                40.06:  LATITUDE
 TVDS.m                  43.42:  TVDSS CORRECTN
 DEP .m                 430.08:  DEPTH
 EKB .m                  43.42:  KB ELEVATION
 EDF .m                  43.42:  DF ELEVATION
 TDL .m                 559.00:  TOTAL DEPTH (LOGGER)
 MAGU.                 1849381:  MAGUTM CHECKSUM
 VSC .                       0:  VS TO CLOSURE
~Parameter Information Block
#MNEM.UNIT       Value        Description
#---------     -----------    ---------------------------
 AV  .mps                 4.87:  Ann Velocity 
 AVMX.mps                 7.08:  Max Ann Veloc 
 AZIF.deg               108.87:  Azm, Final 
 BHAT.                  Rotary:  BHA Type 
 BROT.°/30m               0.35:  Build Rotating 
 BS  .in                  8.50:  Bit Size 
 BSZ .in                  8.50:  Bit Size 
 BTPL.psig              360.00:  Bit Press Loss 
 CABU.                     Yes:  Customer Abuse 
 COMM.                     |L:  Run Comments 1 
 TCS .hr                106.24:  Time Ciculation Ended 
 CV  .mps                 1.77:  Crit Velocity 
 CVMX.mps                 2.03:  Max Crit Veloc 
 DD1 .         Aykhan Agagulov:  Direct Drillr 1 
 DD2 .            Nonso Okofor:  Direct Drillr 2 
 DDSV.               Geo-Pilot:  DD Service 
 DEFF.%                  98.00:  % Det Eff 
 DLRX.°/30m               0.50:  Dogleg Rot Max 
 DLSO.°/30m               0.40:  Dogleg Oriented 
 DLSX.°/30m               0.94:  Dogleg Str Max 
 DRET.      20.30.00 08-Sep-20:  Drill End Time 
 DRST.      22.15.00 06-Sep-20:  Drill Start Tim 
 DTIM.hr                 31.31:  Time Drilling 
 EDEP.m                5790.01:  End Depth 
 ENG1.           Amrah Tahirov:  Engineer 1 
 ENG2.         Dair Mahammadov:  Engineer 2 
 ENG3.           Emil Huseynov:  Engineer 3 
 ETIM.      04.01.04 12-Sep-20:  End Time 
 FLOI.gpm               450.00:  Flow In 
 FLON.gpm               450.00:  Flow In Min 
 FLOS.cptm                2.00:  Fluid Loss 
 FLOX.gpm               450.00:  Flow In Max 
 FTRO.       Formation Presure:  FTWD Run Obj 
 HFLO.                      No:  High Flow 
 HPRE.                      No:  High Pressure 
 HTEM.                      No:  High Temp 
 HYDO.m                   1.80:  Hydro Offset 
 IFIN.deg                72.03:  Inc, Final 
 IMAX.deg                73.72:  Inc Max 
 IMIN.deg                70.94:  Inc Min 
 IMND.m                5508.52:  Inc Min Depth 
 IMXD.m                5253.60:  Inc Max Depth 
 JARR.                      No:  Jarring 
 LETM.      20.30.00 08-Sep-20:  Log End Time 
 LOST.hr                     0:  Lost Rig Time 
 LSTM.      22.15.00 06-Sep-20:  Log Start Time 
 MDCL.ppm             36000.00:  Mud Chlorides 
 MDES.     Inversion Oil/Synthetic:  Mud Desc 
 DFD .sg                  1.44:  Mud Density 
 MDMN.sg                  1.44:  Dens Mud Min 
 MDMX.sg                  1.57:  Dens Mud Max 
 MOIL.                      70:  Run Mud Oil % 
 MOWR.                   70:30:  Run Mud OWR 
 MSND.                       0:  Run Mud Sand % 
 MSOL.                      21:  Run Mud Solids% 
 DFV .spqt               68.00:  Mud Viscosity 
 MWOD.in                  6.75:  MWD Tool OD 
 MWSI.                     Yes:  Serv Intrp, MWD 
 OTIM.hr                174.84:  Time Operating 
 PCON.           Look Like New:  Pad Condition 
 PMAX.psia            10616.93:  Press Op, Max 
 PV  .cP                 50.00:  Mud PV 
 RUN .                     700:  Run Number 
 ROPA.m/hr               14.24:  ROP Avg 
 ROPN.m/hr               10.00:  ROP Min 
 ROPX.m/hr               32.00:  ROP Max 
 RPMA.rpm               120.90:  RPM Surface Avg 
 RPMN.rpm               120.00:  RPM Surface Min 
 RPMX.rpm               140.00:  RPM Surface Max 
 RRUN.                    0700:  Rig Run Number 
 RTIM.hr                  3.20:  Time Reaming 
 SAZI.deg               109.99:  Azm, Start 
 SDEP.m                5231.01:  Start Depth 
 SIDD.                      No:  Serv Intrp, DD 
 SINC.deg                73.72:  Inc, Start 
 SPPA.psig             3051.00:  SPP Avg 
 SPPN.psig             2950.00:  SPP Min 
 SPPX.psig             3250.00:  SPP Max 
 STIM.      08.00.00 05-Sep-20:  Start Time 
 SVCS.                 DD, MWD:  Services 
 SVER.                    9.20:  Sperry Version 
 TDAT.m                 559.00:  Tot Depth Attmp 
 TDDF.                      No:  Trip for DD 
 TDLG.m                 559.00:  Tot Depth Loggd 
 TFF .                      No:  Trip for Fail 
 TQAA.f-kp               26.49:  Torque Abs Avg 
 TQAN.f-kp               25.00:  Torque Abs Min 
 TQAX.f-kp               27.00:  Torque Abs Max 
 TRRT.°/30m               1.50:  Turn Rotating 
 MRT .                    HCIM:  Maximum Recorded Temperature 
 TTMX.degC               90.20:  Max Tool Temp 
 VS01.                90542671:  Virtual Str1 SN 
 VS02.                90545185:  Virtual Str2 SN 
 VS03.                90602015:  Virtual Str3 SN 
 VS04.                90515230:  Virtual Str4 SN 
 WBMN.klb                 5.00:  WOB Min 
 WOBA.klb                14.79:  WOB Avg 
 WOBX.klb                20.00:  WOB Max 
 YP  .lhf2               29.00:  Yield Point 
~Curve Information Block
#MNEM.UNIT                 API CODE     Curve Description
#---------               -----------    ---------------------------
 TIME.HHMMSS            00 000 000 000:  GT Time & Date
 GTDEPTH.m              00 000 000 000:  GT Depth
 GTPQH.psia             00 000 000 000:  GT HR Quartz Pressure
 GTTQ.degC              00 000 000 000:  GT Quartz Temperature
 GTTN.NONE              00 000 000 000:  GT Test Number
 GTET.sec               00 000 000 000:  GT Elapsed Test Time
 GTTVD.m                00 000 000 000:  GT True Vertical Depth
#Other Information
#
#WARRANTY: Halliburton will use its best efforts to furnish customers with 
#accurate information and interpretations that are part of, and incident to, the services 
#provided.  However, Halliburton cannot and does not warrant the accuracy 
#or correctness of such information and interpretations.  Under no circumstances should any 
#such information or interpretation be relied upon as the sole basis for any drilling, 
#completion, production, or financial decision or any procedure involving any risk to the 
#safety of any drilling venture, drilling rig or its crew or any other third party.  The 
#Customer has full responsibility for all drilling, completion and production operation.  
#Halliburton makes no representations or warranties, either expressed or 
#implied, including, but not limited to, the implied warranties of merchantability or fitness 
#for a particular purpose, with respect to the services rendered.  In no event will 
#Halliburton be liable for failure to obtain any particular results or for 
#any damages, including, but not limited to, indirect, special or consequential damages, 
#resulting from the use of any information or interpretation provided by Halliburton.
#
~A           TIME           GTDEPTH  GTPQH  GTTQ  GTTN  GTET   GTTVD  
# ...
   07:32:47.316.09-Sep-2020 5569.01 3533.13 78.50 4.00  69.03 2640.81
   07:32:47.516.09-Sep-2020 5569.01 3533.13 78.50 4.00  69.23 2640.81
   07:32:47.716.09-Sep-2020 5569.01 3533.13 78.50 4.00  69.43 2640.81
   07:32:47.916.09-Sep-2020 5569.01 3533.13 78.50 4.00  69.63 2640.81
   07:32:48.116.09-Sep-2020 5569.01 3533.15 78.50 4.00  69.83 2640.81
   07:32:48.316.09-Sep-2020 5569.01 3533.14 78.50 4.00  70.03 2640.81
   07:32:48.516.09-Sep-2020 5569.01 3533.14 78.50 4.00  70.23 2640.81
   07:32:48.716.09-Sep-2020 5569.01 3533.16 78.50 4.00  70.43 2640.81
   07:32:48.916.09-Sep-2020 5569.01 3533.16 78.50 4.00  70.63 2640.81
   07:32:49.116.09-Sep-2020 5569.01 3533.16 78.50 4.00  70.83 2640.81
   07:32:49.316.09-Sep-2020 5569.01 3533.16 78.50 4.00  71.03 2640.81
   07:32:49.517.09-Sep-2020 5569.01 3533.16 78.50 4.00  71.23 2640.81
   07:32:49.717.09-Sep-2020 5569.01 3533.18 78.50 4.00  71.43 2640.81
   07:32:49.917.09-Sep-2020 5569.01 3533.18 78.50 4.00  71.63 2640.81
   07:32:50.117.09-Sep-2020 5569.01 3533.20 78.50 4.00  71.83 2640.81
   07:32:50.317.09-Sep-2020 5569.01 3533.18 78.50 4.00  72.03 2640.81
   07:32:50.517.09-Sep-2020 5569.01 3533.18 78.50 4.00  72.23 2640.81
   07:32:50.717.09-Sep-2020 5569.01 3533.20 78.50 4.00  72.43 2640.81
   07:32:50.917.09-Sep-2020 5569.01 3533.19 78.50 4.00  72.63 2640.81
   07:32:51.117.09-Sep-2020 5569.01 3533.21 78.50 4.00  72.83 2640.81
   07:32:51.317.09-Sep-2020 5569.01 3533.26 78.50 4.00  73.03 2640.81
   07:32:51.517.09-Sep-2020 5569.01 3533.26 78.50 4.00  73.23 2640.81
   07:32:51.717.09-Sep-2020 5569.01 3533.21 78.51 4.00  73.43 2640.81
   07:32:51.918.09-Sep-2020 5569.01 3533.20 78.51 4.00  73.63 2640.81
   07:32:52.118.09-Sep-2020 5569.01 3533.24 78.51 4.00  73.83 2640.81
   07:32:52.318.09-Sep-2020 5569.01 3533.20 78.51 4.00  74.03 2640.81
   07:32:52.518.09-Sep-2020 5569.01 3533.20 78.51 4.00  74.23 2640.81
   07:32:52.718.09-Sep-2020 5569.01 3533.26 78.51 4.00  74.43 2640.81
   07:32:52.918.09-Sep-2020 5569.01 3533.24 78.51 4.00  74.63 2640.81
   07:32:53.118.09-Sep-2020 5569.01 3533.25 78.51 4.00  74.83 2640.81
   07:32:53.318.09-Sep-2020 5569.01 3533.24 78.51 4.00  75.03 2640.81
   07:32:53.518.09-Sep-2020 5569.01 3533.24 78.51 4.00  75.23 2640.81
   07:32:53.718.09-Sep-2020 5569.01 3533.24 78.51 4.00  75.43 2640.81
   07:32:53.918.09-Sep-2020 5569.01 3533.32 78.51 4.00  75.63 2640.81
   07:32:54.118.09-Sep-2020 5569.01 3533.19 78.51 4.00  75.83 2640.81
   07:32:54.319.09-Sep-2020 5569.01 3533.26 78.51 4.00  76.03 2640.81
   07:32:54.519.09-Sep-2020 5569.01 3533.26 78.51 4.00  76.23 2640.81
   07:32:54.719.09-Sep-2020 5569.01 3533.30 78.51 4.00  76.43 2640.81
   07:32:54.919.09-Sep-2020 5569.01 3533.24 78.51 4.00  76.63 2640.81
   07:32:55.119.09-Sep-2020 5569.01 3533.26 78.51 4.00  76.83 2640.81
   07:32:55.319.09-Sep-2020 5569.01 3533.28 78.51 4.00  77.03 2640.81
   07:32:55.519.09-Sep-2020 5569.01 3533.28 78.51 4.00  77.23 2640.81
   07:32:55.719.09-Sep-2020 5569.01 3533.29 78.51 4.00  77.43 2640.81
   07:32:55.919.09-Sep-2020 5569.01 3533.28 78.51 4.00  77.63 2640.81
   07:32:56.119.09-Sep-2020 5569.01 3533.29 78.51 4.00  77.83 2640.81
   07:32:56.319.09-Sep-2020 5569.01 3533.29 78.51 4.00  78.03 2640.81
   07:32:56.519.09-Sep-2020 5569.01 3533.29 78.51 4.00  78.23 2640.81
   07:32:56.720.09-Sep-2020 5569.01 3533.29 78.51 4.00  78.43 2640.81
   07:32:56.920.09-Sep-2020 5569.01 3533.29 78.51 4.00  78.63 2640.81
   07:32:57.120.09-Sep-2020 5569.01 3533.29 78.51 4.00  78.83 2640.81
   07:32:57.320.09-Sep-2020 5569.01 3533.30 78.51 4.00  79.03 2640.81
   07:32:57.520.09-Sep-2020 5569.01 3533.30 78.51 4.00  79.23 2640.81
   07:32:57.720.09-Sep-2020 5569.01 3533.30 78.51 4.00  79.43 2640.81
   07:32:57.920.09-Sep-2020 5569.01 3533.31 78.51 4.00  79.63 2640.81
   07:32:58.120.09-Sep-2020 5569.01 3533.31 78.51 4.00  79.83 2640.81
   07:32:58.320.09-Sep-2020 5569.01 3533.31 78.51 4.00  80.03 2640.81
   07:32:58.520.09-Sep-2020 5569.01 3533.31 78.51 4.00  80.23 2640.81
   07:32:58.720.09-Sep-2020 5569.01 3533.32 78.51 4.00  80.43 2640.81
   07:32:58.920.09-Sep-2020 5569.01 3533.34 78.51 4.00  80.63 2640.81
   07:32:59.120.09-Sep-2020 5569.01 3533.31 78.51 4.00  80.83 2640.81
   07:32:59.321.09-Sep-2020 5569.01 3533.33 78.51 4.00  81.03 2640.81
   07:32:59.521.09-Sep-2020 5569.01 3533.33 78.51 4.00  81.23 2640.81
   07:32:59.721.09-Sep-2020 5569.01 3533.34 78.51 4.00  81.43 2640.81
   07:32:59.921.09-Sep-2020 5569.01 3533.32 78.51 4.00  81.63 2640.81
   07:33:00.121.09-Sep-2020 5569.01 3533.33 78.51 4.00  81.83 2640.81
   07:33:00.321.09-Sep-2020 5569.01 3533.34 78.51 4.00  82.03 2640.81
   07:33:00.521.09-Sep-2020 5569.01 3533.34 78.51 4.00  82.23 2640.81
   07:33:00.721.09-Sep-2020 5569.01 3533.34 78.51 4.00  82.43 2640.81
   07:33:00.921.09-Sep-2020 5569.01 3533.35 78.51 4.00  82.63 2640.81
   07:33:01.121.09-Sep-2020 5569.01 3533.34 78.51 4.00  82.83 2640.81
   07:33:01.321.09-Sep-2020 5569.01 3533.35 78.51 4.00  83.03 2640.81
   07:33:01.521.09-Sep-2020 5569.01 3533.35 78.51 4.00  83.23 2640.81
   07:33:01.722.09-Sep-2020 5569.01 3533.32 78.51 4.00  83.43 2640.81
   07:33:01.922.09-Sep-2020 5569.01 3533.37 78.51 4.00  83.63 2640.81
   07:33:02.122.09-Sep-2020 5569.01 3533.37 78.51 4.00  83.83 2640.81
   07:33:02.322.09-Sep-2020 5569.01 3533.37 78.51 4.00  84.03 2640.81
   07:33:02.522.09-Sep-2020 5569.01 3533.37 78.51 4.00  84.23 2640.81
   07:33:02.722.09-Sep-2020 5569.01 3533.37 78.51 4.00  84.43 2640.81
   07:33:02.922.09-Sep-2020 5569.01 3533.37 78.51 4.00  84.63 2640.81
   07:33:03.122.09-Sep-2020 5569.01 3533.37 78.51 4.00  84.83 2640.81
   07:33:03.322.09-Sep-2020 5569.01 3533.35 78.51 4.00  85.03 2640.81
   07:33:03.522.09-Sep-2020 5569.01 3533.35 78.51 4.00  85.23 2640.81
   07:33:03.722.09-Sep-2020 5569.01 3533.37 78.51 4.00  85.43 2640.81
   07:33:03.922.09-Sep-2020 5569.01 3533.38 78.51 4.00  85.64 2640.81
   07:33:04.123.09-Sep-2020 5569.01 3533.36 78.51 4.00  85.84 2640.81
   07:33:04.323.09-Sep-2020 5569.01 3533.39 78.51 4.00  86.04 2640.81
   07:33:04.523.09-Sep-2020 5569.01 3533.39 78.51 4.00  86.24 2640.81
   07:33:04.723.09-Sep-2020 5569.01 3533.40 78.51 4.00  86.44 2640.81
   07:33:04.923.09-Sep-2020 5569.01 3533.37 78.51 4.00  86.64 2640.81
   07:33:05.123.09-Sep-2020 5569.01 3533.39 78.51 4.00  86.84 2640.81
   07:33:05.323.09-Sep-2020 5569.01 3533.37 78.51 4.00  87.04 2640.81
   07:33:05.523.09-Sep-2020 5569.01 3533.37 78.51 4.00  87.24 2640.81
   07:33:05.723.09-Sep-2020 5569.01 3533.41 78.51 4.00  87.44 2640.81
   07:33:05.923.09-Sep-2020 5569.01 3533.40 78.51 4.00  87.64 2640.81
   07:33:06.123.09-Sep-2020 5569.01 3533.40 78.51 4.00  87.84 2640.81
   07:33:06.323.09-Sep-2020 5569.01 3533.39 78.51 4.00  88.04 2640.81
   07:33:06.524.09-Sep-2020 5569.01 3533.39 78.51 4.00  88.24 2640.81
   07:33:06.724.09-Sep-2020 5569.01 3533.39 78.51 4.00  88.44 2640.81
   07:33:06.924.09-Sep-2020 5569.01 3533.40 78.51 4.00  88.64 2640.81
   07:33:07.124.09-Sep-2020 5569.01 3533.41 78.51 4.00  88.84 2640.81
   07:33:07.324.09-Sep-2020 5569.01 3533.40 78.51 4.00  89.04 2640.81
   07:33:07.524.09-Sep-2020 5569.01 3533.40 78.51 4.00  89.24 2640.81
   07:33:07.724.09-Sep-2020 5569.01 3533.40 78.51 4.00  89.44 2640.81
   07:33:07.924.09-Sep-2020 5569.01 3533.41 78.51 4.00  89.64 2640.81
   07:33:08.124.09-Sep-2020 5569.01 3533.40 78.51 4.00  89.84 2640.81
   07:33:08.324.09-Sep-2020 5569.01 3533.40 78.51 4.00  90.04 2640.81
   07:33:08.524.09-Sep-2020 5569.01 3533.40 78.51 4.00  90.24 2640.81
   07:33:08.724.09-Sep-2020 5569.01 3533.41 78.51 4.00  90.44 2640.81
   07:33:08.924.09-Sep-2020 5569.01 3533.41 78.51 4.00  90.64 2640.81
   07:33:09.125.09-Sep-2020 5569.01 3533.41 78.51 4.00  90.84 2640.81
   07:33:09.325.09-Sep-2020 5569.01 3533.42 78.51 4.00  91.04 2640.81
   07:33:09.525.09-Sep-2020 5569.01 3533.42 78.51 4.00  91.24 2640.81
   07:33:09.725.09-Sep-2020 5569.01 3533.42 78.51 4.00  91.44 2640.81
   07:33:09.925.09-Sep-2020 5569.01 3533.42 78.51 4.00  91.64 2640.81
   07:33:10.125.09-Sep-2020 5569.01 3533.42 78.51 4.00  91.84 2640.81
