~Version Information
 VERS.                  2.0:   CWLS log ASCII Standard -VERSION 2.0
 WRAP.                   NO:   One line per depth step
~Well Information Block
#MNEM.UNIT     VALUE/NAME     DESCRIPTION
#---------     -----------    ---------------------------
 STRT.S             20:20:33 09-Sep-20: START TIME 20:20:33 09-Sep-20
 STOP.S             20:28:41 09-Sep-20: STOP TIME  20:28:41 09-Sep-20
 STEP.S                   0.00: STEP TIME
 NULL.                 -999.25: NULL VALUE
 MDS .        Operator Entered:  MAG DATA SOURCE
 PDAT.          Mean Sea Level:  PERMANENT DATUM
 DCON.         Sperry Drilling:  DIRECTNL CONTR
 RIG .              West Azeri:  RIG NAME
 WELL.           C40 (Slot 20):  WELL NAME
 SRVC.     Turan Drilling Engineering:  CONTRACTOR
 FLD .                     ACG:  FIELD NAME
 CTRY.              Azerbaijan:  COUNTRY NAME
 PROV.                    Baku:  PROVINCE
 STAT.                    Baku:  STATE NAME
 REGN.                   EESSA:  REGION
 BASE.              Azerbaijan:  LOGGING EQUIPMENT BASE LOCATION
 COMP.     BP Exploration (Caspian Sea) Ltd:  COMPANY
 WTYP.                Deviated:  WELL TYPE
 SON .        AZ-XX-0906344804:  JOB NUMBER
 FTOP.          Formation Tops:  FORM TOPS DESC
 ILTD.               Lithology:  INTERP LTH DESC
 SVYD.                  Survey:  SURVEY DESC
 DMOD.             Drill Model:  DRILL MOD DESC
 HPTY.       Minimum Curvature:  HOLE POS TYPE
 NREF.                    Grid:  NORTH REFERENCE
 SPUD.               01-Jan-20:  SPUD DATE
 DATE.      00.59.44 15-Sep-20:  END TIME
 STIM.      12.00.00 12-Jun-20:  START TIME
 DMF .             Drill Floor:  DRILL MEAS FROM
 DFST.                        :  DIST FSL TEXT
 DFWT.                        :  DIST FWL TEXT
 API .                        :  API NUMBER
 CNTY.                        :  COUNTY
 UWI .                        :  UNIQUE WELL IDENTIFIER
 LOC .                        :  LOCATION
 LMF .             Drill Floor:  LOG MEASURED FROM
 VSNS.m                   2.88:  VERT SEC N/S
 VSEW.m                  -3.84:  VERT SEC E/W
 AGAP.m                  43.42:  AIR GAP
 APD .m                  43.42:  DEPTH ABOVE PD
 WDMS.m                 118.27:  WD ELEV
 EGL .m                   0.00:  GROUND ELEVATION
 EPD .m                   0.00:  ELEVATION
 AZTC.deg                 6.23:  AZM TOTAL CORR
 GRDC.deg                 0.20:  GRID CORRECTION
 MDEC.deg                 6.43:  MAGNETIC DECL
 MDIP.deg                59.49:  MAGNETIC DIP
 MFLD.nT              50277.00:  MAGNETIC FIELD
 GVFD.g                   1.00:  GRAVITY FIELD
 VSDR.deg               173.20:  VERT SEC DIRECT
 TDD .m                5790.01:  TOTAL DEPTH (DRILLER)
 SDEP.m                5231.01:  START DEPTH
 DFSL.m                   0.00:  DISTANCE FSL
 DFWL.m                   0.00:  DISTANCE FWL
 UTMY.m             4435808.83:  UTM Y
 UTMX.m              526266.40:  UTM X
 WHEW.m                  -3.84:  WELL HEAD E/W
 WHNS.m                   2.88:  WELL HEAD N/S
 LONG.deg                51.31:  LONGITUDE
 LATI.deg                40.06:  LATITUDE
 TVDS.m                  43.42:  TVDSS CORRECTN
 DEP .m                 430.08:  DEPTH
 EKB .m                  43.42:  KB ELEVATION
 EDF .m                  43.42:  DF ELEVATION
 TDL .m                 559.00:  TOTAL DEPTH (LOGGER)
 MAGU.                 1849381:  MAGUTM CHECKSUM
 VSC .                       0:  VS TO CLOSURE
~Parameter Information Block
#MNEM.UNIT       Value        Description
#---------     -----------    ---------------------------
 AV  .mps                 4.87:  Ann Velocity 
 AVMX.mps                 7.08:  Max Ann Veloc 
 AZIF.deg               108.87:  Azm, Final 
 BHAT.                  Rotary:  BHA Type 
 BROT.°/30m               0.35:  Build Rotating 
 BS  .in                  8.50:  Bit Size 
 BSZ .in                  8.50:  Bit Size 
 BTPL.psig              360.00:  Bit Press Loss 
 CABU.                     Yes:  Customer Abuse 
 COMM.                     ÄìU:  Run Comments 1 
 TCS .hr                106.24:  Time Ciculation Ended 
 CV  .mps                 1.77:  Crit Velocity 
 CVMX.mps                 2.03:  Max Crit Veloc 
 DD1 .         Aykhan Agagulov:  Direct Drillr 1 
 DD2 .            Nonso Okofor:  Direct Drillr 2 
 DDSV.               Geo-Pilot:  DD Service 
 DEFF.%                  98.00:  % Det Eff 
 DLRX.°/30m               0.50:  Dogleg Rot Max 
 DLSO.°/30m               0.40:  Dogleg Oriented 
 DLSX.°/30m               0.94:  Dogleg Str Max 
 DRET.      20.30.00 08-Sep-20:  Drill End Time 
 DRST.      22.15.00 06-Sep-20:  Drill Start Tim 
 DTIM.hr                 31.31:  Time Drilling 
 EDEP.m                5790.01:  End Depth 
 ENG1.           Amrah Tahirov:  Engineer 1 
 ENG2.         Dair Mahammadov:  Engineer 2 
 ENG3.           Emil Huseynov:  Engineer 3 
 ETIM.      04.01.04 12-Sep-20:  End Time 
 FLOI.gpm               450.00:  Flow In 
 FLON.gpm               450.00:  Flow In Min 
 FLOS.cptm                2.00:  Fluid Loss 
 FLOX.gpm               450.00:  Flow In Max 
 FTRO.       Formation Presure:  FTWD Run Obj 
 HFLO.                      No:  High Flow 
 HPRE.                      No:  High Pressure 
 HTEM.                      No:  High Temp 
 HYDO.m                   1.80:  Hydro Offset 
 IFIN.deg                72.03:  Inc, Final 
 IMAX.deg                73.72:  Inc Max 
 IMIN.deg                70.94:  Inc Min 
 IMND.m                5508.52:  Inc Min Depth 
 IMXD.m                5253.60:  Inc Max Depth 
 JARR.                      No:  Jarring 
 LETM.      20.30.00 08-Sep-20:  Log End Time 
 LOST.hr                     0:  Lost Rig Time 
 LSTM.      22.15.00 06-Sep-20:  Log Start Time 
 MDCL.ppm             36000.00:  Mud Chlorides 
 MDES.     Inversion Oil/Synthetic:  Mud Desc 
 DFD .sg                  1.44:  Mud Density 
 MDMN.sg                  1.44:  Dens Mud Min 
 MDMX.sg                  1.57:  Dens Mud Max 
 MOIL.                      70:  Run Mud Oil % 
 MOWR.                   70:30:  Run Mud OWR 
 MSND.                       0:  Run Mud Sand % 
 MSOL.                      21:  Run Mud Solids% 
 DFV .spqt               68.00:  Mud Viscosity 
 MWOD.in                  6.75:  MWD Tool OD 
 MWSI.                     Yes:  Serv Intrp, MWD 
 OTIM.hr                174.84:  Time Operating 
 PCON.           Look Like New:  Pad Condition 
 PMAX.psia            10616.93:  Press Op, Max 
 PV  .cP                 50.00:  Mud PV 
 RUN .                     700:  Run Number 
 ROPA.m/hr               14.24:  ROP Avg 
 ROPN.m/hr               10.00:  ROP Min 
 ROPX.m/hr               32.00:  ROP Max 
 RPMA.rpm               120.90:  RPM Surface Avg 
 RPMN.rpm               120.00:  RPM Surface Min 
 RPMX.rpm               140.00:  RPM Surface Max 
 RRUN.                    0700:  Rig Run Number 
 RTIM.hr                  3.20:  Time Reaming 
 SAZI.deg               109.99:  Azm, Start 
 SDEP.m                5231.01:  Start Depth 
 SIDD.                      No:  Serv Intrp, DD 
 SINC.deg                73.72:  Inc, Start 
 SPPA.psig             3051.00:  SPP Avg 
 SPPN.psig             2950.00:  SPP Min 
 SPPX.psig             3250.00:  SPP Max 
 STIM.      08.00.00 05-Sep-20:  Start Time 
 SVCS.                 DD, MWD:  Services 
 SVER.                    9.20:  Sperry Version 
 TDAT.m                 559.00:  Tot Depth Attmp 
 TDDF.                      No:  Trip for DD 
 TDLG.m                 559.00:  Tot Depth Loggd 
 TFF .                      No:  Trip for Fail 
 TQAA.f-kp               26.49:  Torque Abs Avg 
 TQAN.f-kp               25.00:  Torque Abs Min 
 TQAX.f-kp               27.00:  Torque Abs Max 
 TRRT.°/30m               1.50:  Turn Rotating 
 MRT .                    HCIM:  Maximum Recorded Temperature 
 TTMX.degC               90.20:  Max Tool Temp 
 VS01.                90542671:  Virtual Str1 SN 
 VS02.                90545185:  Virtual Str2 SN 
 VS03.                90602015:  Virtual Str3 SN 
 VS04.                90515230:  Virtual Str4 SN 
 WBMN.klb                 5.00:  WOB Min 
 WOBA.klb                14.79:  WOB Avg 
 WOBX.klb                20.00:  WOB Max 
 YP  .lhf2               29.00:  Yield Point 
~Curve Information Block
#MNEM.UNIT                 API CODE     Curve Description
#---------               -----------    ---------------------------
 TIME.HHMMSS            00 000 000 000:  GT Time & Date
 GTDEPTH.m              00 000 000 000:  GT Depth
 GTPQH.psia             00 000 000 000:  GT HR Quartz Pressure
 GTTQ.degC              00 000 000 000:  GT Quartz Temperature
 GTTN.NONE              00 000 000 000:  GT Test Number
 GTET.sec               00 000 000 000:  GT Elapsed Test Time
 GTTVD.m                00 000 000 000:  GT True Vertical Depth
#Other Information
#
#WARRANTY: Halliburton will use its best efforts to furnish customers with 
#accurate information and interpretations that are part of, and incident to, the services 
#provided.  However, Halliburton cannot and does not warrant the accuracy 
#or correctness of such information and interpretations.  Under no circumstances should any 
#such information or interpretation be relied upon as the sole basis for any drilling, 
#completion, production, or financial decision or any procedure involving any risk to the 
#safety of any drilling venture, drilling rig or its crew or any other third party.  The 
#Customer has full responsibility for all drilling, completion and production operation.  
#Halliburton makes no representations or warranties, either expressed or 
#implied, including, but not limited to, the implied warranties of merchantability or fitness 
#for a particular purpose, with respect to the services rendered.  In no event will 
#Halliburton be liable for failure to obtain any particular results or for 
#any damages, including, but not limited to, indirect, special or consequential damages, 
#resulting from the use of any information or interpretation provided by Halliburton.
#
~A           TIME           GTDEPTH  GTPQH  GTTQ  GTTN   GTET   GTTVD  
# ...
   20:28:28.442.09-Sep-2020 5252.51 6354.21 74.20 25.00 474.82 2542.44
   20:28:28.642.09-Sep-2020 5252.51 6354.99 74.19 25.00 475.02 2542.44
   20:28:28.842.09-Sep-2020 5252.51 6357.13 74.19 25.00 475.22 2542.44
   20:28:29.042.09-Sep-2020 5252.51 6357.13 74.19 25.00 475.42 2542.44
   20:28:29.242.09-Sep-2020 5252.51 6351.18 74.19 25.00 475.62 2542.44
   20:28:29.442.09-Sep-2020 5252.51 6357.83 74.19 25.00 475.82 2542.44
   20:28:29.642.09-Sep-2020 5252.51 6356.97 74.19 25.00 476.02 2542.44
   20:28:29.843.09-Sep-2020 5252.51 6366.50 74.19 25.00 476.22 2542.44
   20:28:30.043.09-Sep-2020 5252.51 6358.89 74.19 25.00 476.42 2542.44
   20:28:30.243.09-Sep-2020 5252.51 6363.88 74.19 25.00 476.62 2542.44
   20:28:30.443.09-Sep-2020 5252.51 6361.55 74.19 25.00 476.82 2542.44
   20:28:30.643.09-Sep-2020 5252.51 6364.01 74.19 25.00 477.02 2542.44
   20:28:30.843.09-Sep-2020 5252.51 6365.82 74.19 25.00 477.22 2542.44
   20:28:31.043.09-Sep-2020 5252.51 6365.82 74.19 25.00 477.42 2542.44
   20:28:31.243.09-Sep-2020 5252.51 6368.83 74.19 25.00 477.62 2542.44
   20:28:31.443.09-Sep-2020 5252.51 6369.36 74.19 25.00 477.82 2542.44
   20:28:31.643.09-Sep-2020 5252.51 6369.50 74.19 25.00 478.02 2542.44
   20:28:31.843.09-Sep-2020 5252.51 6370.08 74.19 25.00 478.22 2542.44
   20:28:32.044.09-Sep-2020 5252.51 6371.29 74.19 25.00 478.42 2542.44
   20:28:32.244.09-Sep-2020 5252.51 6371.91 74.19 25.00 478.62 2542.44
   20:28:32.444.09-Sep-2020 5252.51 6372.41 74.19 25.00 478.82 2542.44
   20:28:32.644.09-Sep-2020 5252.51 6372.90 74.18 25.00 479.02 2542.44
   20:28:32.844.09-Sep-2020 5252.51 6373.36 74.18 25.00 479.22 2542.44
   20:28:33.044.09-Sep-2020 5252.51 6373.36 74.18 25.00 479.42 2542.44
   20:28:33.244.09-Sep-2020 5252.51 6373.64 74.18 25.00 479.62 2542.44
   20:28:33.444.09-Sep-2020 5252.51 6374.21 74.18 25.00 479.82 2542.44
   20:28:33.644.09-Sep-2020 5252.51 6385.81 74.18 25.00 480.02 2542.44
   20:28:33.844.09-Sep-2020 5252.51 6369.11 74.18 25.00 480.22 2542.44
   20:28:34.045.09-Sep-2020 5252.51 6369.11 74.18 25.00 480.42 2542.44
   20:28:34.245.09-Sep-2020 5252.51 6373.62 74.18 25.00 480.62 2542.44
   20:28:34.445.09-Sep-2020 5252.51 6375.02 74.18 25.00 480.82 2542.44
   20:28:34.645.09-Sep-2020 5252.51 6375.13 74.18 25.00 481.02 2542.44
   20:28:34.845.09-Sep-2020 5252.51 6376.72 74.18 25.00 481.22 2542.44
   20:28:35.045.09-Sep-2020 5252.51 6376.72 74.18 25.00 481.42 2542.44
   20:28:35.245.09-Sep-2020 5252.51 6374.90 74.18 25.00 481.62 2542.44
   20:28:35.445.09-Sep-2020 5252.51 6374.51 74.18 25.00 481.82 2542.44
   20:28:35.645.09-Sep-2020 5252.51 6375.30 74.18 25.00 482.02 2542.44
   20:28:35.845.09-Sep-2020 5252.51 6375.17 74.18 25.00 482.22 2542.44
   20:28:36.045.09-Sep-2020 5252.51 6375.17 74.18 25.00 482.42 2542.44
   20:28:36.246.09-Sep-2020 5252.51 6375.09 74.18 25.00 482.62 2542.44
   20:28:36.446.09-Sep-2020 5252.51 6374.88 74.18 25.00 482.82 2542.44
   20:28:36.646.09-Sep-2020 5252.51 6374.65 74.18 25.00 483.02 2542.44
   20:28:36.846.09-Sep-2020 5252.51 6374.45 74.18 25.00 483.22 2542.44
   20:28:37.046.09-Sep-2020 5252.51 6374.45 74.18 25.00 483.42 2542.44
   20:28:37.246.09-Sep-2020 5252.51 6370.19 74.17 25.00 483.62 2542.44
   20:28:37.446.09-Sep-2020 5252.51 6376.46 74.17 25.00 483.82 2542.44
   20:28:37.646.09-Sep-2020 5252.51 6374.05 74.17 25.00 484.02 2542.44
   20:28:37.846.09-Sep-2020 5252.51 6375.21 74.17 25.00 484.22 2542.44
   20:28:38.046.09-Sep-2020 5252.51 6375.21 74.17 25.00 484.42 2542.44
   20:28:38.246.09-Sep-2020 5252.51 6383.90 74.17 25.00 484.62 2542.44
   20:28:38.447.09-Sep-2020 5252.51 6375.08 74.17 25.00 484.82 2542.44
   20:28:38.647.09-Sep-2020 5252.51 6377.96 74.17 25.00 485.02 2542.44
   20:28:38.847.09-Sep-2020 5252.51 6376.31 74.17 25.00 485.22 2542.44
   20:28:39.047.09-Sep-2020 5252.51 6376.31 74.17 25.00 485.42 2542.44
   20:28:39.247.09-Sep-2020 5252.51 6377.41 74.17 25.00 485.62 2542.44
   20:28:39.447.09-Sep-2020 5252.51 6384.83 74.17 25.00 485.82 2542.44
   20:28:39.647.09-Sep-2020 5252.51 6375.59 74.17 25.00 486.02 2542.44
   20:28:39.847.09-Sep-2020 5252.51 6378.27 74.17 25.00 486.22 2542.44
   20:28:40.047.09-Sep-2020 5252.51 6378.27 74.17 25.00 486.42 2542.44
   20:28:40.247.09-Sep-2020 5252.51 6378.24 74.17 25.00 486.62 2542.44
   20:28:40.447.09-Sep-2020 5252.51 6377.35 74.17 25.00 486.82 2542.44
   20:28:40.648.09-Sep-2020 5252.51 6379.12 74.17 25.00 487.02 2542.44
   20:28:40.848.09-Sep-2020 5252.51 6388.86 74.17 25.00 487.22 2542.44
   20:28:41.048.09-Sep-2020 5252.51 6388.86 74.17 25.00 487.42 2542.44
   20:28:41.248.09-Sep-2020 5252.51 6379.92 74.17 25.00 487.62 2542.44
   20:28:41.448.09-Sep-2020 5252.51 6378.31 74.17 25.00 487.82 2542.44
   20:28:41.648.09-Sep-2020 5252.51 6390.80 74.17 25.00 488.02 2542.44
