~Version Information
 VERS.                  2.0:   CWLS log ASCII Standard -VERSION 2.0
 WRAP.                   NO:   One line per depth step
~Well Information Block
#MNEM.UNIT     VALUE/NAME     DESCRIPTION
#---------     -----------    ---------------------------
 STRT.S             06:44:03 09-Sep-20: START TIME 06:44:03 09-Sep-20
 STOP.S             06:51:03 09-Sep-20: STOP TIME  06:51:03 09-Sep-20
 STEP.S                   0.00: STEP TIME
 NULL.                 -999.25: NULL VALUE
 MDS .        Operator Entered:  MAG DATA SOURCE
 PDAT.          Mean Sea Level:  PERMANENT DATUM
 DCON.         Sperry Drilling:  DIRECTNL CONTR
 RIG .              West Azeri:  RIG NAME
 WELL.           C40 (Slot 20):  WELL NAME
 SRVC.     Turan Drilling Engineering:  CONTRACTOR
 FLD .                     ACG:  FIELD NAME
 CTRY.              Azerbaijan:  COUNTRY NAME
 PROV.                    Baku:  PROVINCE
 STAT.                    Baku:  STATE NAME
 REGN.                   EESSA:  REGION
 BASE.              Azerbaijan:  LOGGING EQUIPMENT BASE LOCATION
 COMP.     BP Exploration (Caspian Sea) Ltd:  COMPANY
 WTYP.                Deviated:  WELL TYPE
 SON .        AZ-XX-0906344804:  JOB NUMBER
 FTOP.          Formation Tops:  FORM TOPS DESC
 ILTD.               Lithology:  INTERP LTH DESC
 SVYD.                  Survey:  SURVEY DESC
 DMOD.             Drill Model:  DRILL MOD DESC
 HPTY.       Minimum Curvature:  HOLE POS TYPE
 NREF.                    Grid:  NORTH REFERENCE
 SPUD.               01-Jan-20:  SPUD DATE
 DATE.      00.59.44 15-Sep-20:  END TIME
 STIM.      12.00.00 12-Jun-20:  START TIME
 DMF .             Drill Floor:  DRILL MEAS FROM
 DFST.                        :  DIST FSL TEXT
 DFWT.                        :  DIST FWL TEXT
 API .                        :  API NUMBER
 CNTY.                        :  COUNTY
 UWI .                        :  UNIQUE WELL IDENTIFIER
 LOC .                        :  LOCATION
 LMF .             Drill Floor:  LOG MEASURED FROM
 VSNS.m                   2.88:  VERT SEC N/S
 VSEW.m                  -3.84:  VERT SEC E/W
 AGAP.m                  43.42:  AIR GAP
 APD .m                  43.42:  DEPTH ABOVE PD
 WDMS.m                 118.27:  WD ELEV
 EGL .m                   0.00:  GROUND ELEVATION
 EPD .m                   0.00:  ELEVATION
 AZTC.deg                 6.23:  AZM TOTAL CORR
 GRDC.deg                 0.20:  GRID CORRECTION
 MDEC.deg                 6.43:  MAGNETIC DECL
 MDIP.deg                59.49:  MAGNETIC DIP
 MFLD.nT              50277.00:  MAGNETIC FIELD
 GVFD.g                   1.00:  GRAVITY FIELD
 VSDR.deg               173.20:  VERT SEC DIRECT
 TDD .m                5790.01:  TOTAL DEPTH (DRILLER)
 SDEP.m                5231.01:  START DEPTH
 DFSL.m                   0.00:  DISTANCE FSL
 DFWL.m                   0.00:  DISTANCE FWL
 UTMY.m             4435808.83:  UTM Y
 UTMX.m              526266.40:  UTM X
 WHEW.m                  -3.84:  WELL HEAD E/W
 WHNS.m                   2.88:  WELL HEAD N/S
 LONG.deg                51.31:  LONGITUDE
 LATI.deg                40.06:  LATITUDE
 TVDS.m                  43.42:  TVDSS CORRECTN
 DEP .m                 430.08:  DEPTH
 EKB .m                  43.42:  KB ELEVATION
 EDF .m                  43.42:  DF ELEVATION
 TDL .m                 559.00:  TOTAL DEPTH (LOGGER)
 MAGU.                 1849381:  MAGUTM CHECKSUM
 VSC .                       0:  VS TO CLOSURE
~Parameter Information Block
#MNEM.UNIT       Value        Description
#---------     -----------    ---------------------------
 AV  .mps                 4.87:  Ann Velocity 
 AVMX.mps                 7.08:  Max Ann Veloc 
 AZIF.deg               108.87:  Azm, Final 
 BHAT.                  Rotary:  BHA Type 
 BROT.°/30m               0.35:  Build Rotating 
 BS  .in                  8.50:  Bit Size 
 BSZ .in                  8.50:  Bit Size 
 BTPL.psig              360.00:  Bit Press Loss 
 CABU.                     Yes:  Customer Abuse 
 COMM.                     „/r:  Run Comments 1 
 TCS .hr                106.24:  Time Ciculation Ended 
 CV  .mps                 1.77:  Crit Velocity 
 CVMX.mps                 2.03:  Max Crit Veloc 
 DD1 .         Aykhan Agagulov:  Direct Drillr 1 
 DD2 .            Nonso Okofor:  Direct Drillr 2 
 DDSV.               Geo-Pilot:  DD Service 
 DEFF.%                  98.00:  % Det Eff 
 DLRX.°/30m               0.50:  Dogleg Rot Max 
 DLSO.°/30m               0.40:  Dogleg Oriented 
 DLSX.°/30m               0.94:  Dogleg Str Max 
 DRET.      20.30.00 08-Sep-20:  Drill End Time 
 DRST.      22.15.00 06-Sep-20:  Drill Start Tim 
 DTIM.hr                 31.31:  Time Drilling 
 EDEP.m                5790.01:  End Depth 
 ENG1.           Amrah Tahirov:  Engineer 1 
 ENG2.         Dair Mahammadov:  Engineer 2 
 ENG3.           Emil Huseynov:  Engineer 3 
 ETIM.      04.01.04 12-Sep-20:  End Time 
 FLOI.gpm               450.00:  Flow In 
 FLON.gpm               450.00:  Flow In Min 
 FLOS.cptm                2.00:  Fluid Loss 
 FLOX.gpm               450.00:  Flow In Max 
 FTRO.       Formation Presure:  FTWD Run Obj 
 HFLO.                      No:  High Flow 
 HPRE.                      No:  High Pressure 
 HTEM.                      No:  High Temp 
 HYDO.m                   1.80:  Hydro Offset 
 IFIN.deg                72.03:  Inc, Final 
 IMAX.deg                73.72:  Inc Max 
 IMIN.deg                70.94:  Inc Min 
 IMND.m                5508.52:  Inc Min Depth 
 IMXD.m                5253.60:  Inc Max Depth 
 JARR.                      No:  Jarring 
 LETM.      20.30.00 08-Sep-20:  Log End Time 
 LOST.hr                     0:  Lost Rig Time 
 LSTM.      22.15.00 06-Sep-20:  Log Start Time 
 MDCL.ppm             36000.00:  Mud Chlorides 
 MDES.     Inversion Oil/Synthetic:  Mud Desc 
 DFD .sg                  1.44:  Mud Density 
 MDMN.sg                  1.44:  Dens Mud Min 
 MDMX.sg                  1.57:  Dens Mud Max 
 MOIL.                      70:  Run Mud Oil % 
 MOWR.                   70:30:  Run Mud OWR 
 MSND.                       0:  Run Mud Sand % 
 MSOL.                      21:  Run Mud Solids% 
 DFV .spqt               68.00:  Mud Viscosity 
 MWOD.in                  6.75:  MWD Tool OD 
 MWSI.                     Yes:  Serv Intrp, MWD 
 OTIM.hr                174.84:  Time Operating 
 PCON.           Look Like New:  Pad Condition 
 PMAX.psia            10616.93:  Press Op, Max 
 PV  .cP                 50.00:  Mud PV 
 RUN .                     700:  Run Number 
 ROPA.m/hr               14.24:  ROP Avg 
 ROPN.m/hr               10.00:  ROP Min 
 ROPX.m/hr               32.00:  ROP Max 
 RPMA.rpm               120.90:  RPM Surface Avg 
 RPMN.rpm               120.00:  RPM Surface Min 
 RPMX.rpm               140.00:  RPM Surface Max 
 RRUN.                    0700:  Rig Run Number 
 RTIM.hr                  3.20:  Time Reaming 
 SAZI.deg               109.99:  Azm, Start 
 SDEP.m                5231.01:  Start Depth 
 SIDD.                      No:  Serv Intrp, DD 
 SINC.deg                73.72:  Inc, Start 
 SPPA.psig             3051.00:  SPP Avg 
 SPPN.psig             2950.00:  SPP Min 
 SPPX.psig             3250.00:  SPP Max 
 STIM.      08.00.00 05-Sep-20:  Start Time 
 SVCS.                 DD, MWD:  Services 
 SVER.                    9.20:  Sperry Version 
 TDAT.m                 559.00:  Tot Depth Attmp 
 TDDF.                      No:  Trip for DD 
 TDLG.m                 559.00:  Tot Depth Loggd 
 TFF .                      No:  Trip for Fail 
 TQAA.f-kp               26.49:  Torque Abs Avg 
 TQAN.f-kp               25.00:  Torque Abs Min 
 TQAX.f-kp               27.00:  Torque Abs Max 
 TRRT.°/30m               1.50:  Turn Rotating 
 MRT .                    HCIM:  Maximum Recorded Temperature 
 TTMX.degC               90.20:  Max Tool Temp 
 VS01.                90542671:  Virtual Str1 SN 
 VS02.                90545185:  Virtual Str2 SN 
 VS03.                90602015:  Virtual Str3 SN 
 VS04.                90515230:  Virtual Str4 SN 
 WBMN.klb                 5.00:  WOB Min 
 WOBA.klb                14.79:  WOB Avg 
 WOBX.klb                20.00:  WOB Max 
 YP  .lhf2               29.00:  Yield Point 
~Curve Information Block
#MNEM.UNIT                 API CODE     Curve Description
#---------               -----------    ---------------------------
 TIME.HHMMSS            00 000 000 000:  GT Time & Date
 GTDEPTH.m              00 000 000 000:  GT Depth
 GTPQH.psia             00 000 000 000:  GT HR Quartz Pressure
 GTTQ.degC              00 000 000 000:  GT Quartz Temperature
 GTTN.NONE              00 000 000 000:  GT Test Number
 GTET.sec               00 000 000 000:  GT Elapsed Test Time
 GTTVD.m                00 000 000 000:  GT True Vertical Depth
#Other Information
#
#WARRANTY: Halliburton will use its best efforts to furnish customers with 
#accurate information and interpretations that are part of, and incident to, the services 
#provided.  However, Halliburton cannot and does not warrant the accuracy 
#or correctness of such information and interpretations.  Under no circumstances should any 
#such information or interpretation be relied upon as the sole basis for any drilling, 
#completion, production, or financial decision or any procedure involving any risk to the 
#safety of any drilling venture, drilling rig or its crew or any other third party.  The 
#Customer has full responsibility for all drilling, completion and production operation.  
#Halliburton makes no representations or warranties, either expressed or 
#implied, including, but not limited to, the implied warranties of merchantability or fitness 
#for a particular purpose, with respect to the services rendered.  In no event will 
#Halliburton be liable for failure to obtain any particular results or for 
#any damages, including, but not limited to, indirect, special or consequential damages, 
#resulting from the use of any information or interpretation provided by Halliburton.
#
~A           TIME           GTDEPTH  GTPQH  GTTQ  GTTN  GTET   GTTVD  
# ...
   06:47:07.000.09-Sep-2020 5603.00 3668.02 78.95 3.00 184.00 2651.31
   06:47:07.200.09-Sep-2020 5603.00 3668.02 78.95 3.00 184.20 2651.31
   06:47:07.400.09-Sep-2020 5603.00 3668.06 78.95 3.00 184.40 2651.31
   06:47:07.600.09-Sep-2020 5603.00 3668.01 78.95 3.00 184.60 2651.31
   06:47:07.800.09-Sep-2020 5603.00 3668.06 78.95 3.00 184.80 2651.31
   06:47:08.000.09-Sep-2020 5603.00 3668.05 78.95 3.00 185.00 2651.31
   06:47:08.200.09-Sep-2020 5603.00 3668.05 78.95 3.00 185.20 2651.31
   06:47:08.400.09-Sep-2020 5603.00 3668.05 78.95 3.00 185.40 2651.31
   06:47:08.600.09-Sep-2020 5603.00 3668.05 78.95 3.00 185.60 2651.31
   06:47:08.800.09-Sep-2020 5603.00 3668.06 78.95 3.00 185.80 2651.31
   06:47:09.000.09-Sep-2020 5603.00 3668.04 78.95 3.00 186.00 2651.31
   06:47:09.200.09-Sep-2020 5603.00 3668.04 78.95 3.00 186.20 2651.31
   06:47:09.400.09-Sep-2020 5603.00 3668.04 78.94 3.00 186.40 2651.31
   06:47:09.600.09-Sep-2020 5603.00 3668.05 78.94 3.00 186.60 2651.31
   06:47:09.800.09-Sep-2020 5603.00 3668.05 78.94 3.00 186.80 2651.31
   06:47:10.000.09-Sep-2020 5603.00 3668.05 78.94 3.00 187.00 2651.31
   06:47:10.200.09-Sep-2020 5603.00 3668.05 78.94 3.00 187.20 2651.31
   06:47:10.400.09-Sep-2020 5603.00 3668.14 78.94 3.00 187.40 2651.31
   06:47:10.600.09-Sep-2020 5603.00 3668.05 78.94 3.00 187.60 2651.31
   06:47:10.800.09-Sep-2020 5603.00 3668.04 78.94 3.00 187.80 2651.31
   06:47:11.000.09-Sep-2020 5603.00 3668.00 78.94 3.00 188.00 2651.31
   06:47:11.200.09-Sep-2020 5603.00 3668.00 78.94 3.00 188.20 2651.31
   06:47:11.400.09-Sep-2020 5603.00 3668.03 78.94 3.00 188.40 2651.31
   06:47:11.600.09-Sep-2020 5603.00 3668.06 78.94 3.00 188.60 2651.31
   06:47:11.800.09-Sep-2020 5603.00 3668.04 78.94 3.00 188.80 2651.31
   06:47:12.000.09-Sep-2020 5603.00 3668.04 78.94 3.00 189.00 2651.31
   06:47:12.200.09-Sep-2020 5603.00 3668.04 78.94 3.00 189.20 2651.31
   06:47:12.400.09-Sep-2020 5603.00 3668.04 78.94 3.00 189.40 2651.31
   06:47:12.600.09-Sep-2020 5603.00 3668.05 78.94 3.00 189.60 2651.31
   06:47:12.800.09-Sep-2020 5603.00 3668.04 78.94 3.00 189.80 2651.31
   06:47:13.000.09-Sep-2020 5603.00 3668.04 78.94 3.00 190.00 2651.31
   06:47:13.200.09-Sep-2020 5603.00 3668.04 78.94 3.00 190.20 2651.31
   06:47:13.400.09-Sep-2020 5603.00 3668.05 78.94 3.00 190.40 2651.31
   06:47:13.600.09-Sep-2020 5603.00 3668.02 78.94 3.00 190.60 2651.31
   06:47:13.800.09-Sep-2020 5603.00 3668.12 78.94 3.00 190.80 2651.31
   06:47:14.000.09-Sep-2020 5603.00 3668.04 78.94 3.00 191.00 2651.31
   06:47:14.200.09-Sep-2020 5603.00 3668.04 78.94 3.00 191.20 2651.31
   06:47:14.400.09-Sep-2020 5603.00 3668.10 78.94 3.00 191.40 2651.31
   06:47:14.600.09-Sep-2020 5603.00 3667.70 78.94 3.00 191.60 2651.31
   06:47:14.800.09-Sep-2020 5603.00 3668.39 78.94 3.00 191.80 2651.31
   06:47:15.000.09-Sep-2020 5603.00 3668.06 78.94 3.00 192.00 2651.31
   06:47:15.200.09-Sep-2020 5603.00 3668.06 78.94 3.00 192.20 2651.31
   06:47:15.400.09-Sep-2020 5603.00 3667.79 78.94 3.00 192.40 2651.31
   06:47:15.600.09-Sep-2020 5603.00 3668.37 78.94 3.00 192.60 2651.31
   06:47:15.800.09-Sep-2020 5603.00 3668.04 78.94 3.00 192.80 2651.31
   06:47:16.000.09-Sep-2020 5603.00 3668.03 78.94 3.00 193.00 2651.31
   06:47:16.200.09-Sep-2020 5603.00 3668.03 78.94 3.00 193.20 2651.31
   06:47:16.400.09-Sep-2020 5603.00 3668.04 78.94 3.00 193.40 2651.31
   06:47:16.600.09-Sep-2020 5603.00 3668.03 78.94 3.00 193.60 2651.31
   06:47:16.800.09-Sep-2020 5603.00 3668.07 78.94 3.00 193.80 2651.31
   06:47:17.000.09-Sep-2020 5603.00 3668.27 78.94 3.00 194.00 2651.31
   06:47:17.200.09-Sep-2020 5603.00 3668.27 78.94 3.00 194.20 2651.31
   06:47:17.400.09-Sep-2020 5603.00 3668.10 78.94 3.00 194.40 2651.31
   06:47:17.600.09-Sep-2020 5603.00 3668.02 78.94 3.00 194.60 2651.31
   06:47:17.800.09-Sep-2020 5603.00 3668.30 78.94 3.00 194.80 2651.31
   06:47:18.000.09-Sep-2020 5603.00 3667.82 78.94 3.00 195.00 2651.31
   06:47:18.200.09-Sep-2020 5603.00 3667.82 78.94 3.00 195.20 2651.31
   06:47:18.400.09-Sep-2020 5603.00 3668.02 78.94 3.00 195.40 2651.31
   06:47:18.600.09-Sep-2020 5603.00 3668.09 78.94 3.00 195.60 2651.31
   06:47:18.800.09-Sep-2020 5603.00 3668.03 78.94 3.00 195.80 2651.31
   06:47:19.000.09-Sep-2020 5603.00 3668.04 78.94 3.00 196.00 2651.31
   06:47:19.200.09-Sep-2020 5603.00 3668.04 78.94 3.00 196.20 2651.31
   06:47:19.400.09-Sep-2020 5603.00 3668.05 78.94 3.00 196.40 2651.31
   06:47:19.600.09-Sep-2020 5603.00 3668.04 78.94 3.00 196.60 2651.31
   06:47:19.800.09-Sep-2020 5603.00 3668.05 78.94 3.00 196.80 2651.31
   06:47:20.000.09-Sep-2020 5603.00 3668.05 78.94 3.00 197.00 2651.31
   06:47:20.200.09-Sep-2020 5603.00 3668.05 78.94 3.00 197.20 2651.31
   06:47:20.400.09-Sep-2020 5603.00 3668.06 78.94 3.00 197.40 2651.31
   06:47:20.600.09-Sep-2020 5603.00 3668.05 78.94 3.00 197.60 2651.31
   06:47:20.800.09-Sep-2020 5603.00 3668.04 78.94 3.00 197.80 2651.31
   06:47:21.000.09-Sep-2020 5603.00 3668.04 78.94 3.00 198.00 2651.31
   06:47:21.200.09-Sep-2020 5603.00 3668.04 78.94 3.00 198.20 2651.31
   06:47:21.400.09-Sep-2020 5603.00 3668.06 78.94 3.00 198.40 2651.31
   06:47:21.600.09-Sep-2020 5603.00 3668.04 78.94 3.00 198.60 2651.31
   06:47:21.800.09-Sep-2020 5603.00 3668.11 78.94 3.00 198.80 2651.31
   06:47:22.000.09-Sep-2020 5603.00 3668.05 78.94 3.00 199.00 2651.31
   06:47:22.200.09-Sep-2020 5603.00 3668.05 78.94 3.00 199.20 2651.31
   06:47:22.400.09-Sep-2020 5603.00 3668.09 78.94 3.00 199.40 2651.31
   06:47:22.600.09-Sep-2020 5603.00 3667.98 78.94 3.00 199.60 2651.31
   06:47:22.800.09-Sep-2020 5603.00 3668.06 78.94 3.00 199.80 2651.31
   06:47:23.000.09-Sep-2020 5603.00 3668.06 78.94 3.00 200.00 2651.31
   06:47:23.200.09-Sep-2020 5603.00 3668.06 78.94 3.00 200.20 2651.31
   06:47:23.400.09-Sep-2020 5603.00 3668.05 78.94 3.00 200.40 2651.31
   06:47:23.600.09-Sep-2020 5603.00 3668.04 78.94 3.00 200.60 2651.31
   06:47:23.800.09-Sep-2020 5603.00 3668.06 78.94 3.00 200.80 2651.31
   06:47:24.000.09-Sep-2020 5603.00 3668.03 78.94 3.00 201.00 2651.31
   06:47:24.200.09-Sep-2020 5603.00 3668.03 78.94 3.00 201.20 2651.31
   06:47:24.400.09-Sep-2020 5603.00 3668.04 78.94 3.00 201.40 2651.31
   06:47:24.600.09-Sep-2020 5603.00 3668.06 78.94 3.00 201.60 2651.31
   06:47:24.800.09-Sep-2020 5603.00 3668.00 78.94 3.00 201.80 2651.31
   06:47:25.000.09-Sep-2020 5603.00 3668.15 78.94 3.00 202.00 2651.31
   06:47:25.200.09-Sep-2020 5603.00 3668.15 78.94 3.00 202.20 2651.31
   06:47:25.400.09-Sep-2020 5603.00 3668.05 78.94 3.00 202.40 2651.31
   06:47:25.600.09-Sep-2020 5603.00 3668.00 78.94 3.00 202.60 2651.31
   06:47:25.800.09-Sep-2020 5603.00 3668.08 78.94 3.00 202.80 2651.31
   06:47:26.000.09-Sep-2020 5603.00 3668.25 78.94 3.00 203.00 2651.31
   06:47:26.200.09-Sep-2020 5603.00 3668.25 78.94 3.00 203.20 2651.31
   06:47:26.400.09-Sep-2020 5603.00 3668.08 78.94 3.00 203.40 2651.31
   06:47:26.600.09-Sep-2020 5603.00 3668.01 78.94 3.00 203.60 2651.31
   06:47:26.800.09-Sep-2020 5603.00 3668.28 78.94 3.00 203.80 2651.31
   06:47:27.000.09-Sep-2020 5603.00 3667.85 78.94 3.00 204.00 2651.31
   06:47:27.200.09-Sep-2020 5603.00 3667.85 78.94 3.00 204.20 2651.31
   06:47:27.400.09-Sep-2020 5603.00 3668.00 78.94 3.00 204.40 2651.31
   06:47:27.600.09-Sep-2020 5603.00 3668.08 78.94 3.00 204.60 2651.31
   06:47:27.800.09-Sep-2020 5603.00 3668.02 78.94 3.00 204.80 2651.31
   06:47:28.000.09-Sep-2020 5603.00 3668.05 78.94 3.00 205.00 2651.31
   06:47:28.200.09-Sep-2020 5603.00 3668.05 78.94 3.00 205.20 2651.31
   06:47:28.400.09-Sep-2020 5603.00 3668.35 78.94 3.00 205.40 2651.31
   06:47:28.600.09-Sep-2020 5603.00 3668.06 78.94 3.00 205.60 2651.31
   06:47:28.800.09-Sep-2020 5603.00 3668.02 78.94 3.00 205.80 2651.31
   06:47:29.000.09-Sep-2020 5603.00 3667.80 78.94 3.00 206.00 2651.31
   06:47:29.200.09-Sep-2020 5603.00 3667.80 78.94 3.00 206.20 2651.31
   06:47:29.400.09-Sep-2020 5603.00 3668.05 78.94 3.00 206.40 2651.31
   06:47:29.600.09-Sep-2020 5603.00 3668.05 78.94 3.00 206.60 2651.31
   06:47:29.800.09-Sep-2020 5603.00 3668.05 78.94 3.00 206.80 2651.31
