~Version Information
 VERS.                  2.0:   CWLS log ASCII Standard -VERSION 2.0
 WRAP.                   NO:   One line per depth step
~Well Information Block
#MNEM.UNIT     VALUE/NAME     DESCRIPTION
#---------     -----------    ---------------------------
 STRT.S             19:35:07 09-Sep-20: START TIME 19:35:07 09-Sep-20
 STOP.S             19:43:27 09-Sep-20: STOP TIME  19:43:27 09-Sep-20
 STEP.S                   0.00: STEP TIME
 NULL.                 -999.25: NULL VALUE
 MDS .        Operator Entered:  MAG DATA SOURCE
 PDAT.          Mean Sea Level:  PERMANENT DATUM
 DCON.         Sperry Drilling:  DIRECTNL CONTR
 RIG .              West Azeri:  RIG NAME
 WELL.           C40 (Slot 20):  WELL NAME
 SRVC.     Turan Drilling Engineering:  CONTRACTOR
 FLD .                     ACG:  FIELD NAME
 CTRY.              Azerbaijan:  COUNTRY NAME
 PROV.                    Baku:  PROVINCE
 STAT.                    Baku:  STATE NAME
 REGN.                   EESSA:  REGION
 BASE.              Azerbaijan:  LOGGING EQUIPMENT BASE LOCATION
 COMP.     BP Exploration (Caspian Sea) Ltd:  COMPANY
 WTYP.                Deviated:  WELL TYPE
 SON .        AZ-XX-0906344804:  JOB NUMBER
 FTOP.          Formation Tops:  FORM TOPS DESC
 ILTD.               Lithology:  INTERP LTH DESC
 SVYD.                  Survey:  SURVEY DESC
 DMOD.             Drill Model:  DRILL MOD DESC
 HPTY.       Minimum Curvature:  HOLE POS TYPE
 NREF.                    Grid:  NORTH REFERENCE
 SPUD.               01-Jan-20:  SPUD DATE
 DATE.      00.59.44 15-Sep-20:  END TIME
 STIM.      12.00.00 12-Jun-20:  START TIME
 DMF .             Drill Floor:  DRILL MEAS FROM
 DFST.                        :  DIST FSL TEXT
 DFWT.                        :  DIST FWL TEXT
 API .                        :  API NUMBER
 CNTY.                        :  COUNTY
 UWI .                        :  UNIQUE WELL IDENTIFIER
 LOC .                        :  LOCATION
 LMF .             Drill Floor:  LOG MEASURED FROM
 VSNS.m                   2.88:  VERT SEC N/S
 VSEW.m                  -3.84:  VERT SEC E/W
 AGAP.m                  43.42:  AIR GAP
 APD .m                  43.42:  DEPTH ABOVE PD
 WDMS.m                 118.27:  WD ELEV
 EGL .m                   0.00:  GROUND ELEVATION
 EPD .m                   0.00:  ELEVATION
 AZTC.deg                 6.23:  AZM TOTAL CORR
 GRDC.deg                 0.20:  GRID CORRECTION
 MDEC.deg                 6.43:  MAGNETIC DECL
 MDIP.deg                59.49:  MAGNETIC DIP
 MFLD.nT              50277.00:  MAGNETIC FIELD
 GVFD.g                   1.00:  GRAVITY FIELD
 VSDR.deg               173.20:  VERT SEC DIRECT
 TDD .m                5790.01:  TOTAL DEPTH (DRILLER)
 SDEP.m                5231.01:  START DEPTH
 DFSL.m                   0.00:  DISTANCE FSL
 DFWL.m                   0.00:  DISTANCE FWL
 UTMY.m             4435808.83:  UTM Y
 UTMX.m              526266.40:  UTM X
 WHEW.m                  -3.84:  WELL HEAD E/W
 WHNS.m                   2.88:  WELL HEAD N/S
 LONG.deg                51.31:  LONGITUDE
 LATI.deg                40.06:  LATITUDE
 TVDS.m                  43.42:  TVDSS CORRECTN
 DEP .m                 430.08:  DEPTH
 EKB .m                  43.42:  KB ELEVATION
 EDF .m                  43.42:  DF ELEVATION
 TDL .m                 559.00:  TOTAL DEPTH (LOGGER)
 MAGU.                 1849381:  MAGUTM CHECKSUM
 VSC .                       0:  VS TO CLOSURE
~Parameter Information Block
#MNEM.UNIT       Value        Description
#---------     -----------    ---------------------------
 AV  .mps                 4.87:  Ann Velocity 
 AVMX.mps                 7.08:  Max Ann Veloc 
 AZIF.deg               108.87:  Azm, Final 
 BHAT.                  Rotary:  BHA Type 
 BROT.°/30m               0.35:  Build Rotating 
 BS  .in                  8.50:  Bit Size 
 BSZ .in                  8.50:  Bit Size 
 BTPL.psig              360.00:  Bit Press Loss 
 CABU.                     Yes:  Customer Abuse 
 COMM.                     ¼«|:  Run Comments 1 
 TCS .hr                106.24:  Time Ciculation Ended 
 CV  .mps                 1.77:  Crit Velocity 
 CVMX.mps                 2.03:  Max Crit Veloc 
 DD1 .         Aykhan Agagulov:  Direct Drillr 1 
 DD2 .            Nonso Okofor:  Direct Drillr 2 
 DDSV.               Geo-Pilot:  DD Service 
 DEFF.%                  98.00:  % Det Eff 
 DLRX.°/30m               0.50:  Dogleg Rot Max 
 DLSO.°/30m               0.40:  Dogleg Oriented 
 DLSX.°/30m               0.94:  Dogleg Str Max 
 DRET.      20.30.00 08-Sep-20:  Drill End Time 
 DRST.      22.15.00 06-Sep-20:  Drill Start Tim 
 DTIM.hr                 31.31:  Time Drilling 
 EDEP.m                5790.01:  End Depth 
 ENG1.           Amrah Tahirov:  Engineer 1 
 ENG2.         Dair Mahammadov:  Engineer 2 
 ENG3.           Emil Huseynov:  Engineer 3 
 ETIM.      04.01.04 12-Sep-20:  End Time 
 FLOI.gpm               450.00:  Flow In 
 FLON.gpm               450.00:  Flow In Min 
 FLOS.cptm                2.00:  Fluid Loss 
 FLOX.gpm               450.00:  Flow In Max 
 FTRO.       Formation Presure:  FTWD Run Obj 
 HFLO.                      No:  High Flow 
 HPRE.                      No:  High Pressure 
 HTEM.                      No:  High Temp 
 HYDO.m                   1.80:  Hydro Offset 
 IFIN.deg                72.03:  Inc, Final 
 IMAX.deg                73.72:  Inc Max 
 IMIN.deg                70.94:  Inc Min 
 IMND.m                5508.52:  Inc Min Depth 
 IMXD.m                5253.60:  Inc Max Depth 
 JARR.                      No:  Jarring 
 LETM.      20.30.00 08-Sep-20:  Log End Time 
 LOST.hr                     0:  Lost Rig Time 
 LSTM.      22.15.00 06-Sep-20:  Log Start Time 
 MDCL.ppm             36000.00:  Mud Chlorides 
 MDES.     Inversion Oil/Synthetic:  Mud Desc 
 DFD .sg                  1.44:  Mud Density 
 MDMN.sg                  1.44:  Dens Mud Min 
 MDMX.sg                  1.57:  Dens Mud Max 
 MOIL.                      70:  Run Mud Oil % 
 MOWR.                   70:30:  Run Mud OWR 
 MSND.                       0:  Run Mud Sand % 
 MSOL.                      21:  Run Mud Solids% 
 DFV .spqt               68.00:  Mud Viscosity 
 MWOD.in                  6.75:  MWD Tool OD 
 MWSI.                     Yes:  Serv Intrp, MWD 
 OTIM.hr                174.84:  Time Operating 
 PCON.           Look Like New:  Pad Condition 
 PMAX.psia            10616.93:  Press Op, Max 
 PV  .cP                 50.00:  Mud PV 
 RUN .                     700:  Run Number 
 ROPA.m/hr               14.24:  ROP Avg 
 ROPN.m/hr               10.00:  ROP Min 
 ROPX.m/hr               32.00:  ROP Max 
 RPMA.rpm               120.90:  RPM Surface Avg 
 RPMN.rpm               120.00:  RPM Surface Min 
 RPMX.rpm               140.00:  RPM Surface Max 
 RRUN.                    0700:  Rig Run Number 
 RTIM.hr                  3.20:  Time Reaming 
 SAZI.deg               109.99:  Azm, Start 
 SDEP.m                5231.01:  Start Depth 
 SIDD.                      No:  Serv Intrp, DD 
 SINC.deg                73.72:  Inc, Start 
 SPPA.psig             3051.00:  SPP Avg 
 SPPN.psig             2950.00:  SPP Min 
 SPPX.psig             3250.00:  SPP Max 
 STIM.      08.00.00 05-Sep-20:  Start Time 
 SVCS.                 DD, MWD:  Services 
 SVER.                    9.20:  Sperry Version 
 TDAT.m                 559.00:  Tot Depth Attmp 
 TDDF.                      No:  Trip for DD 
 TDLG.m                 559.00:  Tot Depth Loggd 
 TFF .                      No:  Trip for Fail 
 TQAA.f-kp               26.49:  Torque Abs Avg 
 TQAN.f-kp               25.00:  Torque Abs Min 
 TQAX.f-kp               27.00:  Torque Abs Max 
 TRRT.°/30m               1.50:  Turn Rotating 
 MRT .                    HCIM:  Maximum Recorded Temperature 
 TTMX.degC               90.20:  Max Tool Temp 
 VS01.                90542671:  Virtual Str1 SN 
 VS02.                90545185:  Virtual Str2 SN 
 VS03.                90602015:  Virtual Str3 SN 
 VS04.                90515230:  Virtual Str4 SN 
 WBMN.klb                 5.00:  WOB Min 
 WOBA.klb                14.79:  WOB Avg 
 WOBX.klb                20.00:  WOB Max 
 YP  .lhf2               29.00:  Yield Point 
~Curve Information Block
#MNEM.UNIT                 API CODE     Curve Description
#---------               -----------    ---------------------------
 TIME.HHMMSS            00 000 000 000:  GT Time & Date
 GTDEPTH.m              00 000 000 000:  GT Depth
 GTPQH.psia             00 000 000 000:  GT HR Quartz Pressure
 GTTQ.degC              00 000 000 000:  GT Quartz Temperature
 GTTN.NONE              00 000 000 000:  GT Test Number
 GTET.sec               00 000 000 000:  GT Elapsed Test Time
 GTTVD.m                00 000 000 000:  GT True Vertical Depth
#Other Information
#
#WARRANTY: Halliburton will use its best efforts to furnish customers with 
#accurate information and interpretations that are part of, and incident to, the services 
#provided.  However, Halliburton cannot and does not warrant the accuracy 
#or correctness of such information and interpretations.  Under no circumstances should any 
#such information or interpretation be relied upon as the sole basis for any drilling, 
#completion, production, or financial decision or any procedure involving any risk to the 
#safety of any drilling venture, drilling rig or its crew or any other third party.  The 
#Customer has full responsibility for all drilling, completion and production operation.  
#Halliburton makes no representations or warranties, either expressed or 
#implied, including, but not limited to, the implied warranties of merchantability or fitness 
#for a particular purpose, with respect to the services rendered.  In no event will 
#Halliburton be liable for failure to obtain any particular results or for 
#any damages, including, but not limited to, indirect, special or consequential damages, 
#resulting from the use of any information or interpretation provided by Halliburton.
#
~A           TIME           GTDEPTH  GTPQH  GTTQ  GTTN   GTET   GTTVD  
# ...
   19:37:45.639.09-Sep-2020 5260.01 6277.88 74.28 23.00 158.27 2544.55
   19:37:45.840.09-Sep-2020 5260.01 6277.77 74.28 23.00 158.47 2544.55
   19:37:46.040.09-Sep-2020 5260.01 6277.77 74.28 23.00 158.67 2544.55
   19:37:46.240.09-Sep-2020 5260.01 6287.58 74.28 23.00 158.87 2544.55
   19:37:46.440.09-Sep-2020 5260.01 6274.76 74.28 23.00 159.07 2544.55
   19:37:46.640.09-Sep-2020 5260.01 6280.01 74.28 23.00 159.27 2544.55
   19:37:46.840.09-Sep-2020 5260.01 6278.10 74.28 23.00 159.47 2544.55
   19:37:47.040.09-Sep-2020 5260.01 6278.79 74.28 23.00 159.67 2544.55
   19:37:47.240.09-Sep-2020 5260.01 6280.38 74.28 23.00 159.87 2544.55
   19:37:47.440.09-Sep-2020 5260.01 6286.56 74.28 23.00 160.07 2544.55
   19:37:47.640.09-Sep-2020 5260.01 6286.56 74.28 23.00 160.27 2544.55
   19:37:47.841.09-Sep-2020 5260.01 6280.11 74.28 23.00 160.47 2544.55
   19:37:48.041.09-Sep-2020 5260.01 6278.10 74.28 23.00 160.67 2544.55
   19:37:48.241.09-Sep-2020 5260.01 6279.71 74.28 23.00 160.87 2544.55
   19:37:48.441.09-Sep-2020 5260.01 6280.56 74.28 23.00 161.07 2544.55
   19:37:48.641.09-Sep-2020 5260.01 6280.56 74.28 23.00 161.27 2544.55
   19:37:48.841.09-Sep-2020 5260.01 6277.53 74.28 23.00 161.47 2544.55
   19:37:49.041.09-Sep-2020 5260.01 6280.00 74.28 23.00 161.67 2544.55
   19:37:49.241.09-Sep-2020 5260.01 6278.61 74.28 23.00 161.87 2544.55
   19:37:49.441.09-Sep-2020 5260.01 6291.86 74.28 23.00 162.07 2544.55
   19:37:49.641.09-Sep-2020 5260.01 6274.10 74.28 23.00 162.27 2544.55
   19:37:49.841.09-Sep-2020 5260.01 6282.28 74.28 23.00 162.47 2544.55
   19:37:50.042.09-Sep-2020 5260.01 6279.85 74.28 23.00 162.67 2544.55
   19:37:50.242.09-Sep-2020 5260.01 6279.84 74.28 23.00 162.88 2544.55
   19:37:50.442.09-Sep-2020 5260.01 6280.47 74.28 23.00 163.08 2544.55
   19:37:50.642.09-Sep-2020 5260.01 6280.47 74.28 23.00 163.28 2544.55
   19:37:50.842.09-Sep-2020 5260.01 6280.13 74.28 23.00 163.48 2544.55
   19:37:51.042.09-Sep-2020 5260.01 6290.39 74.28 23.00 163.68 2544.55
   19:37:51.242.09-Sep-2020 5260.01 6276.44 74.28 23.00 163.88 2544.55
   19:37:51.442.09-Sep-2020 5260.01 6282.14 74.28 23.00 164.08 2544.55
   19:37:51.642.09-Sep-2020 5260.01 6282.14 74.28 23.00 164.28 2544.55
   19:37:51.842.09-Sep-2020 5260.01 6281.22 74.28 23.00 164.48 2544.55
   19:37:52.042.09-Sep-2020 5260.01 6280.62 74.28 23.00 164.68 2544.55
   19:37:52.243.09-Sep-2020 5260.01 6283.09 74.28 23.00 164.88 2544.55
   19:37:52.443.09-Sep-2020 5260.01 6280.67 74.28 23.00 165.08 2544.55
   19:37:52.643.09-Sep-2020 5260.01 6280.82 74.28 23.00 165.28 2544.55
   19:37:52.843.09-Sep-2020 5260.01 6280.15 74.28 23.00 165.48 2544.55
   19:37:53.043.09-Sep-2020 5260.01 6280.67 74.28 23.00 165.68 2544.55
   19:37:53.243.09-Sep-2020 5260.01 6280.45 74.28 23.00 165.88 2544.55
   19:37:53.443.09-Sep-2020 5260.01 6280.40 74.28 23.00 166.08 2544.55
   19:37:53.643.09-Sep-2020 5260.01 6280.40 74.28 23.00 166.28 2544.55
   19:37:53.843.09-Sep-2020 5260.01 6280.34 74.28 23.00 166.48 2544.55
   19:37:54.043.09-Sep-2020 5260.01 6280.38 74.28 23.00 166.68 2544.55
   19:37:54.243.09-Sep-2020 5260.01 6280.36 74.28 23.00 166.88 2544.55
   19:37:54.444.09-Sep-2020 5260.01 6280.38 74.28 23.00 167.08 2544.55
   19:37:54.644.09-Sep-2020 5260.01 6280.38 74.28 23.00 167.28 2544.55
   19:37:54.844.09-Sep-2020 5260.01 6279.47 74.28 23.00 167.48 2544.55
   19:37:55.044.09-Sep-2020 5260.01 6280.54 74.28 23.00 167.68 2544.55
   19:37:55.244.09-Sep-2020 5260.01 6281.41 74.28 23.00 167.88 2544.55
   19:37:55.444.09-Sep-2020 5260.01 6280.69 74.28 23.00 168.08 2544.55
   19:37:55.644.09-Sep-2020 5260.01 6280.69 74.28 23.00 168.28 2544.55
   19:37:55.844.09-Sep-2020 5260.01 6281.70 74.28 23.00 168.48 2544.55
   19:37:56.044.09-Sep-2020 5260.01 6280.79 74.28 23.00 168.68 2544.55
   19:37:56.244.09-Sep-2020 5260.01 6279.87 74.28 23.00 168.88 2544.55
   19:37:56.444.09-Sep-2020 5260.01 6279.83 74.28 23.00 169.08 2544.55
   19:37:56.645.09-Sep-2020 5260.01 6280.12 74.28 23.00 169.28 2544.55
   19:37:56.845.09-Sep-2020 5260.01 6280.32 74.28 23.00 169.48 2544.55
   19:37:57.045.09-Sep-2020 5260.01 6280.37 74.28 23.00 169.68 2544.55
   19:37:57.245.09-Sep-2020 5260.01 6279.68 74.28 23.00 169.88 2544.55
   19:37:57.445.09-Sep-2020 5260.01 6279.68 74.28 23.00 170.08 2544.55
   19:37:57.645.09-Sep-2020 5260.01 6279.68 74.28 23.00 170.28 2544.55
   19:37:57.845.09-Sep-2020 5260.01 6279.44 74.28 23.00 170.48 2544.55
   19:37:58.045.09-Sep-2020 5260.01 6286.63 74.28 23.00 170.68 2544.55
   19:37:58.245.09-Sep-2020 5260.01 6278.71 74.28 23.00 170.88 2544.55
   19:37:58.445.09-Sep-2020 5260.01 6279.26 74.28 23.00 171.08 2544.55
   19:37:58.645.09-Sep-2020 5260.01 6279.26 74.28 23.00 171.28 2544.55
   19:37:58.846.09-Sep-2020 5260.01 6279.86 74.28 23.00 171.48 2544.55
   19:37:59.046.09-Sep-2020 5260.01 6280.67 74.28 23.00 171.68 2544.55
   19:37:59.246.09-Sep-2020 5260.01 6292.42 74.28 23.00 171.88 2544.55
   19:37:59.446.09-Sep-2020 5260.01 6274.42 74.28 23.00 172.08 2544.55
   19:37:59.646.09-Sep-2020 5260.01 6280.35 74.28 23.00 172.28 2544.55
   19:37:59.846.09-Sep-2020 5260.01 6280.00 74.28 23.00 172.48 2544.55
   19:38:00.046.09-Sep-2020 5260.01 6280.42 74.28 23.00 172.68 2544.55
   19:38:00.246.09-Sep-2020 5260.01 6281.21 74.28 23.00 172.88 2544.55
   19:38:00.446.09-Sep-2020 5260.01 6283.46 74.28 23.00 173.08 2544.55
   19:38:00.646.09-Sep-2020 5260.01 6286.66 74.28 23.00 173.28 2544.55
   19:38:00.847.09-Sep-2020 5260.01 6278.60 74.28 23.00 173.48 2544.55
   19:38:01.047.09-Sep-2020 5260.01 6281.69 74.28 23.00 173.68 2544.55
   19:38:01.247.09-Sep-2020 5260.01 6282.14 74.28 23.00 173.88 2544.55
   19:38:01.447.09-Sep-2020 5260.01 6288.12 74.28 23.00 174.08 2544.55
   19:38:01.647.09-Sep-2020 5260.01 6288.12 74.28 23.00 174.28 2544.55
   19:38:01.847.09-Sep-2020 5260.01 6284.60 74.28 23.00 174.48 2544.55
   19:38:02.047.09-Sep-2020 5260.01 6280.88 74.28 23.00 174.68 2544.55
   19:38:02.247.09-Sep-2020 5260.01 6289.72 74.28 23.00 174.88 2544.55
   19:38:02.447.09-Sep-2020 5260.01 6280.97 74.28 23.00 175.08 2544.55
   19:38:02.647.09-Sep-2020 5260.01 6280.97 74.28 23.00 175.28 2544.55
   19:38:02.847.09-Sep-2020 5260.01 6282.87 74.28 23.00 175.48 2544.55
   19:38:03.048.09-Sep-2020 5260.01 6282.38 74.28 23.00 175.68 2544.55
   19:38:03.248.09-Sep-2020 5260.01 6282.76 74.28 23.00 175.88 2544.55
   19:38:03.448.09-Sep-2020 5260.01 6283.55 74.28 23.00 176.08 2544.55
   19:38:03.648.09-Sep-2020 5260.01 6283.55 74.28 23.00 176.28 2544.55
   19:38:03.848.09-Sep-2020 5260.01 6282.28 74.28 23.00 176.48 2544.55
   19:38:04.048.09-Sep-2020 5260.01 6282.47 74.28 23.00 176.68 2544.55
   19:38:04.248.09-Sep-2020 5260.01 6282.66 74.28 23.00 176.88 2544.55
   19:38:04.448.09-Sep-2020 5260.01 6282.91 74.28 23.00 177.08 2544.55
   19:38:04.648.09-Sep-2020 5260.01 6282.09 74.28 23.00 177.28 2544.55
   19:38:04.848.09-Sep-2020 5260.01 6282.10 74.28 23.00 177.48 2544.55
   19:38:05.048.09-Sep-2020 5260.01 6281.98 74.28 23.00 177.68 2544.55
   19:38:05.249.09-Sep-2020 5260.01 6282.02 74.28 23.00 177.88 2544.55
   19:38:05.449.09-Sep-2020 5260.01 6282.01 74.28 23.00 178.08 2544.55
   19:38:05.649.09-Sep-2020 5260.01 6280.13 74.28 23.00 178.28 2544.55
   19:38:05.849.09-Sep-2020 5260.01 6280.59 74.28 23.00 178.48 2544.55
   19:38:06.049.09-Sep-2020 5260.01 6290.77 74.28 23.00 178.68 2544.55
   19:38:06.249.09-Sep-2020 5260.01 6277.19 74.28 23.00 178.88 2544.55
   19:38:06.449.09-Sep-2020 5260.01 6282.14 74.28 23.00 179.08 2544.55
   19:38:06.649.09-Sep-2020 5260.01 6282.14 74.28 23.00 179.28 2544.55
   19:38:06.849.09-Sep-2020 5260.01 6281.55 74.28 23.00 179.48 2544.55
   19:38:07.049.09-Sep-2020 5260.01 6281.32 74.28 23.00 179.68 2544.55
   19:38:07.249.09-Sep-2020 5260.01 6283.00 74.28 23.00 179.88 2544.55
   19:38:07.450.09-Sep-2020 5260.01 6280.67 74.28 23.00 180.08 2544.55
   19:38:07.650.09-Sep-2020 5260.01 6280.67 74.28 23.00 180.28 2544.55
   19:38:07.850.09-Sep-2020 5260.01 6280.72 74.28 23.00 180.48 2544.55
   19:38:08.050.09-Sep-2020 5260.01 6280.46 74.28 23.00 180.68 2544.55
