~Version Information
 VERS.                  2.0:   CWLS log ASCII Standard -VERSION 2.0
 WRAP.                   NO:   One line per depth step
~Well Information Block
#MNEM.UNIT     VALUE/NAME     DESCRIPTION
#---------     -----------    ---------------------------
 STRT.S             20:20:33 09-Sep-20: START TIME 20:20:33 09-Sep-20
 STOP.S             20:28:41 09-Sep-20: STOP TIME  20:28:41 09-Sep-20
 STEP.S                   0.00: STEP TIME
 NULL.                 -999.25: NULL VALUE
 MDS .        Operator Entered:  MAG DATA SOURCE
 PDAT.          Mean Sea Level:  PERMANENT DATUM
 DCON.         Sperry Drilling:  DIRECTNL CONTR
 RIG .              West Azeri:  RIG NAME
 WELL.           C40 (Slot 20):  WELL NAME
 SRVC.     Turan Drilling Engineering:  CONTRACTOR
 FLD .                     ACG:  FIELD NAME
 CTRY.              Azerbaijan:  COUNTRY NAME
 PROV.                    Baku:  PROVINCE
 STAT.                    Baku:  STATE NAME
 REGN.                   EESSA:  REGION
 BASE.              Azerbaijan:  LOGGING EQUIPMENT BASE LOCATION
 COMP.     BP Exploration (Caspian Sea) Ltd:  COMPANY
 WTYP.                Deviated:  WELL TYPE
 SON .        AZ-XX-0906344804:  JOB NUMBER
 FTOP.          Formation Tops:  FORM TOPS DESC
 ILTD.               Lithology:  INTERP LTH DESC
 SVYD.                  Survey:  SURVEY DESC
 DMOD.             Drill Model:  DRILL MOD DESC
 HPTY.       Minimum Curvature:  HOLE POS TYPE
 NREF.                    Grid:  NORTH REFERENCE
 SPUD.               01-Jan-20:  SPUD DATE
 DATE.      00.59.44 15-Sep-20:  END TIME
 STIM.      12.00.00 12-Jun-20:  START TIME
 DMF .             Drill Floor:  DRILL MEAS FROM
 DFST.                        :  DIST FSL TEXT
 DFWT.                        :  DIST FWL TEXT
 API .                        :  API NUMBER
 CNTY.                        :  COUNTY
 UWI .                        :  UNIQUE WELL IDENTIFIER
 LOC .                        :  LOCATION
 LMF .             Drill Floor:  LOG MEASURED FROM
 VSNS.m                   2.88:  VERT SEC N/S
 VSEW.m                  -3.84:  VERT SEC E/W
 AGAP.m                  43.42:  AIR GAP
 APD .m                  43.42:  DEPTH ABOVE PD
 WDMS.m                 118.27:  WD ELEV
 EGL .m                   0.00:  GROUND ELEVATION
 EPD .m                   0.00:  ELEVATION
 AZTC.deg                 6.23:  AZM TOTAL CORR
 GRDC.deg                 0.20:  GRID CORRECTION
 MDEC.deg                 6.43:  MAGNETIC DECL
 MDIP.deg                59.49:  MAGNETIC DIP
 MFLD.nT              50277.00:  MAGNETIC FIELD
 GVFD.g                   1.00:  GRAVITY FIELD
 VSDR.deg               173.20:  VERT SEC DIRECT
 TDD .m                5790.01:  TOTAL DEPTH (DRILLER)
 SDEP.m                5231.01:  START DEPTH
 DFSL.m                   0.00:  DISTANCE FSL
 DFWL.m                   0.00:  DISTANCE FWL
 UTMY.m             4435808.83:  UTM Y
 UTMX.m              526266.40:  UTM X
 WHEW.m                  -3.84:  WELL HEAD E/W
 WHNS.m                   2.88:  WELL HEAD N/S
 LONG.deg                51.31:  LONGITUDE
 LATI.deg                40.06:  LATITUDE
 TVDS.m                  43.42:  TVDSS CORRECTN
 DEP .m                 430.08:  DEPTH
 EKB .m                  43.42:  KB ELEVATION
 EDF .m                  43.42:  DF ELEVATION
 TDL .m                 559.00:  TOTAL DEPTH (LOGGER)
 MAGU.                 1849381:  MAGUTM CHECKSUM
 VSC .                       0:  VS TO CLOSURE
~Parameter Information Block
#MNEM.UNIT       Value        Description
#---------     -----------    ---------------------------
 AV  .mps                 4.87:  Ann Velocity 
 AVMX.mps                 7.08:  Max Ann Veloc 
 AZIF.deg               108.87:  Azm, Final 
 BHAT.                  Rotary:  BHA Type 
 BROT.°/30m               0.35:  Build Rotating 
 BS  .in                  8.50:  Bit Size 
 BSZ .in                  8.50:  Bit Size 
 BTPL.psig              360.00:  Bit Press Loss 
 CABU.                     Yes:  Customer Abuse 
 COMM.                     ÄìU:  Run Comments 1 
 TCS .hr                106.24:  Time Ciculation Ended 
 CV  .mps                 1.77:  Crit Velocity 
 CVMX.mps                 2.03:  Max Crit Veloc 
 DD1 .         Aykhan Agagulov:  Direct Drillr 1 
 DD2 .            Nonso Okofor:  Direct Drillr 2 
 DDSV.               Geo-Pilot:  DD Service 
 DEFF.%                  98.00:  % Det Eff 
 DLRX.°/30m               0.50:  Dogleg Rot Max 
 DLSO.°/30m               0.40:  Dogleg Oriented 
 DLSX.°/30m               0.94:  Dogleg Str Max 
 DRET.      20.30.00 08-Sep-20:  Drill End Time 
 DRST.      22.15.00 06-Sep-20:  Drill Start Tim 
 DTIM.hr                 31.31:  Time Drilling 
 EDEP.m                5790.01:  End Depth 
 ENG1.           Amrah Tahirov:  Engineer 1 
 ENG2.         Dair Mahammadov:  Engineer 2 
 ENG3.           Emil Huseynov:  Engineer 3 
 ETIM.      04.01.04 12-Sep-20:  End Time 
 FLOI.gpm               450.00:  Flow In 
 FLON.gpm               450.00:  Flow In Min 
 FLOS.cptm                2.00:  Fluid Loss 
 FLOX.gpm               450.00:  Flow In Max 
 FTRO.       Formation Presure:  FTWD Run Obj 
 HFLO.                      No:  High Flow 
 HPRE.                      No:  High Pressure 
 HTEM.                      No:  High Temp 
 HYDO.m                   1.80:  Hydro Offset 
 IFIN.deg                72.03:  Inc, Final 
 IMAX.deg                73.72:  Inc Max 
 IMIN.deg                70.94:  Inc Min 
 IMND.m                5508.52:  Inc Min Depth 
 IMXD.m                5253.60:  Inc Max Depth 
 JARR.                      No:  Jarring 
 LETM.      20.30.00 08-Sep-20:  Log End Time 
 LOST.hr                     0:  Lost Rig Time 
 LSTM.      22.15.00 06-Sep-20:  Log Start Time 
 MDCL.ppm             36000.00:  Mud Chlorides 
 MDES.     Inversion Oil/Synthetic:  Mud Desc 
 DFD .sg                  1.44:  Mud Density 
 MDMN.sg                  1.44:  Dens Mud Min 
 MDMX.sg                  1.57:  Dens Mud Max 
 MOIL.                      70:  Run Mud Oil % 
 MOWR.                   70:30:  Run Mud OWR 
 MSND.                       0:  Run Mud Sand % 
 MSOL.                      21:  Run Mud Solids% 
 DFV .spqt               68.00:  Mud Viscosity 
 MWOD.in                  6.75:  MWD Tool OD 
 MWSI.                     Yes:  Serv Intrp, MWD 
 OTIM.hr                174.84:  Time Operating 
 PCON.           Look Like New:  Pad Condition 
 PMAX.psia            10616.93:  Press Op, Max 
 PV  .cP                 50.00:  Mud PV 
 RUN .                     700:  Run Number 
 ROPA.m/hr               14.24:  ROP Avg 
 ROPN.m/hr               10.00:  ROP Min 
 ROPX.m/hr               32.00:  ROP Max 
 RPMA.rpm               120.90:  RPM Surface Avg 
 RPMN.rpm               120.00:  RPM Surface Min 
 RPMX.rpm               140.00:  RPM Surface Max 
 RRUN.                    0700:  Rig Run Number 
 RTIM.hr                  3.20:  Time Reaming 
 SAZI.deg               109.99:  Azm, Start 
 SDEP.m                5231.01:  Start Depth 
 SIDD.                      No:  Serv Intrp, DD 
 SINC.deg                73.72:  Inc, Start 
 SPPA.psig             3051.00:  SPP Avg 
 SPPN.psig             2950.00:  SPP Min 
 SPPX.psig             3250.00:  SPP Max 
 STIM.      08.00.00 05-Sep-20:  Start Time 
 SVCS.                 DD, MWD:  Services 
 SVER.                    9.20:  Sperry Version 
 TDAT.m                 559.00:  Tot Depth Attmp 
 TDDF.                      No:  Trip for DD 
 TDLG.m                 559.00:  Tot Depth Loggd 
 TFF .                      No:  Trip for Fail 
 TQAA.f-kp               26.49:  Torque Abs Avg 
 TQAN.f-kp               25.00:  Torque Abs Min 
 TQAX.f-kp               27.00:  Torque Abs Max 
 TRRT.°/30m               1.50:  Turn Rotating 
 MRT .                    HCIM:  Maximum Recorded Temperature 
 TTMX.degC               90.20:  Max Tool Temp 
 VS01.                90542671:  Virtual Str1 SN 
 VS02.                90545185:  Virtual Str2 SN 
 VS03.                90602015:  Virtual Str3 SN 
 VS04.                90515230:  Virtual Str4 SN 
 WBMN.klb                 5.00:  WOB Min 
 WOBA.klb                14.79:  WOB Avg 
 WOBX.klb                20.00:  WOB Max 
 YP  .lhf2               29.00:  Yield Point 
~Curve Information Block
#MNEM.UNIT                 API CODE     Curve Description
#---------               -----------    ---------------------------
 TIME.HHMMSS            00 000 000 000:  GT Time & Date
 GTDEPTH.m              00 000 000 000:  GT Depth
 GTPQH.psia             00 000 000 000:  GT HR Quartz Pressure
 GTTQ.degC              00 000 000 000:  GT Quartz Temperature
 GTTN.NONE              00 000 000 000:  GT Test Number
 GTET.sec               00 000 000 000:  GT Elapsed Test Time
 GTTVD.m                00 000 000 000:  GT True Vertical Depth
#Other Information
#
#WARRANTY: Halliburton will use its best efforts to furnish customers with 
#accurate information and interpretations that are part of, and incident to, the services 
#provided.  However, Halliburton cannot and does not warrant the accuracy 
#or correctness of such information and interpretations.  Under no circumstances should any 
#such information or interpretation be relied upon as the sole basis for any drilling, 
#completion, production, or financial decision or any procedure involving any risk to the 
#safety of any drilling venture, drilling rig or its crew or any other third party.  The 
#Customer has full responsibility for all drilling, completion and production operation.  
#Halliburton makes no representations or warranties, either expressed or 
#implied, including, but not limited to, the implied warranties of merchantability or fitness 
#for a particular purpose, with respect to the services rendered.  In no event will 
#Halliburton be liable for failure to obtain any particular results or for 
#any damages, including, but not limited to, indirect, special or consequential damages, 
#resulting from the use of any information or interpretation provided by Halliburton.
#
~A           TIME           GTDEPTH  GTPQH  GTTQ  GTTN   GTET   GTTVD  
# ...
   20:26:12.779.09-Sep-2020 5252.51  482.60 73.99 25.00 339.16 2542.44
   20:26:12.979.09-Sep-2020 5252.51  482.60 73.99 25.00 339.36 2542.44
   20:26:13.180.09-Sep-2020 5252.51  482.72 73.99 25.00 339.56 2542.44
   20:26:13.380.09-Sep-2020 5252.51  482.69 73.99 25.00 339.76 2542.44
   20:26:13.580.09-Sep-2020 5252.51  482.77 73.99 25.00 339.96 2542.44
   20:26:13.780.09-Sep-2020 5252.51  482.76 73.99 25.00 340.16 2542.44
   20:26:13.980.09-Sep-2020 5252.51  482.76 73.99 25.00 340.36 2542.44
   20:26:14.180.09-Sep-2020 5252.51  482.81 73.99 25.00 340.56 2542.44
   20:26:14.380.09-Sep-2020 5252.51  482.86 73.99 25.00 340.76 2542.44
   20:26:14.580.09-Sep-2020 5252.51  482.91 73.99 25.00 340.96 2542.44
   20:26:14.780.09-Sep-2020 5252.51  482.97 73.99 25.00 341.16 2542.44
   20:26:14.980.09-Sep-2020 5252.51  483.00 73.99 25.00 341.36 2542.44
   20:26:15.181.09-Sep-2020 5252.51  482.01 73.99 25.00 341.56 2542.44
   20:26:15.381.09-Sep-2020 5252.51  483.18 73.99 25.00 341.76 2542.44
   20:26:15.581.09-Sep-2020 5252.51  482.97 73.99 25.00 341.96 2542.44
   20:26:15.781.09-Sep-2020 5252.51  483.02 73.99 25.00 342.16 2542.44
   20:26:15.981.09-Sep-2020 5252.51  483.01 73.99 25.00 342.36 2542.44
   20:26:16.181.09-Sep-2020 5252.51  483.27 73.99 25.00 342.56 2542.44
   20:26:16.381.09-Sep-2020 5252.51  482.41 73.99 25.00 342.76 2542.44
   20:26:16.581.09-Sep-2020 5252.51  483.21 73.99 25.00 342.96 2542.44
   20:26:16.781.09-Sep-2020 5252.51  483.16 73.99 25.00 343.16 2542.44
   20:26:16.981.09-Sep-2020 5252.51  483.16 73.99 25.00 343.36 2542.44
   20:26:17.181.09-Sep-2020 5252.51  483.24 73.99 25.00 343.56 2542.44
   20:26:17.382.09-Sep-2020 5252.51  483.38 73.99 25.00 343.76 2542.44
   20:26:17.582.09-Sep-2020 5252.51  483.38 73.99 25.00 343.96 2542.44
   20:26:17.782.09-Sep-2020 5252.51  482.57 73.99 25.00 344.16 2542.44
   20:26:17.982.09-Sep-2020 5252.51  483.49 73.99 25.00 344.36 2542.44
   20:26:18.182.09-Sep-2020 5252.51  483.38 73.99 25.00 344.56 2542.44
   20:26:18.382.09-Sep-2020 5252.51  483.37 73.99 25.00 344.76 2542.44
   20:26:18.582.09-Sep-2020 5252.51  483.45 73.99 25.00 344.96 2542.44
   20:26:18.782.09-Sep-2020 5252.51  483.60 73.99 25.00 345.16 2542.44
   20:26:18.982.09-Sep-2020 5252.51  482.84 73.99 25.00 345.36 2542.44
   20:26:19.182.09-Sep-2020 5252.51  483.69 73.99 25.00 345.56 2542.44
   20:26:19.382.09-Sep-2020 5252.51  483.69 73.99 25.00 345.76 2542.44
   20:26:19.583.09-Sep-2020 5252.51  483.62 73.99 25.00 345.96 2542.44
   20:26:19.783.09-Sep-2020 5252.51  483.73 73.99 25.00 346.16 2542.44
   20:26:19.983.09-Sep-2020 5252.51  483.87 73.99 25.00 346.36 2542.44
   20:26:20.183.09-Sep-2020 5252.51  483.44 73.99 25.00 346.56 2542.44
   20:26:20.383.09-Sep-2020 5252.51  483.58 73.99 25.00 346.76 2542.44
   20:26:20.583.09-Sep-2020 5252.51  483.93 73.99 25.00 346.96 2542.44
   20:26:20.783.09-Sep-2020 5252.51  483.93 73.99 25.00 347.16 2542.44
   20:26:20.983.09-Sep-2020 5252.51  483.98 73.99 25.00 347.36 2542.44
   20:26:21.183.09-Sep-2020 5252.51  484.11 73.99 25.00 347.56 2542.44
   20:26:21.383.09-Sep-2020 5252.51  484.07 73.99 25.00 347.76 2542.44
   20:26:21.583.09-Sep-2020 5252.51  484.14 73.99 25.00 347.96 2542.44
   20:26:21.784.09-Sep-2020 5252.51  484.11 73.99 25.00 348.16 2542.44
   20:26:21.984.09-Sep-2020 5252.51  484.13 73.99 25.00 348.36 2542.44
   20:26:22.184.09-Sep-2020 5252.51  484.19 73.99 25.00 348.56 2542.44
   20:26:22.384.09-Sep-2020 5252.51  484.27 74.00 25.00 348.76 2542.44
   20:26:22.584.09-Sep-2020 5252.51  484.33 73.99 25.00 348.96 2542.44
   20:26:22.784.09-Sep-2020 5252.51  484.37 74.00 25.00 349.16 2542.44
   20:26:22.984.09-Sep-2020 5252.51  484.39 74.00 25.00 349.36 2542.44
   20:26:23.184.09-Sep-2020 5252.51  484.43 74.00 25.00 349.56 2542.44
   20:26:23.384.09-Sep-2020 5252.51  484.48 74.00 25.00 349.76 2542.44
   20:26:23.584.09-Sep-2020 5252.51  484.51 74.00 25.00 349.96 2542.44
   20:26:23.784.09-Sep-2020 5252.51  484.14 74.00 25.00 350.16 2542.44
   20:26:23.985.09-Sep-2020 5252.51  484.31 74.00 25.00 350.36 2542.44
   20:26:24.185.09-Sep-2020 5252.51  484.65 74.00 25.00 350.56 2542.44
   20:26:24.385.09-Sep-2020 5252.51  484.66 74.00 25.00 350.76 2542.44
   20:26:24.585.09-Sep-2020 5252.51  484.70 74.00 25.00 350.96 2542.44
   20:26:24.785.09-Sep-2020 5252.51  484.84 74.00 25.00 351.16 2542.44
   20:26:24.985.09-Sep-2020 5252.51  484.84 74.00 25.00 351.36 2542.44
   20:26:25.185.09-Sep-2020 5252.51  484.79 74.00 25.00 351.56 2542.44
   20:26:25.385.09-Sep-2020 5252.51  484.82 74.00 25.00 351.76 2542.44
   20:26:25.585.09-Sep-2020 5252.51  484.85 74.00 25.00 351.96 2542.44
   20:26:25.785.09-Sep-2020 5252.51  484.94 74.00 25.00 352.16 2542.44
   20:26:25.985.09-Sep-2020 5252.51  484.94 74.00 25.00 352.36 2542.44
   20:26:26.186.09-Sep-2020 5252.51  484.96 74.00 25.00 352.56 2542.44
   20:26:26.386.09-Sep-2020 5252.51  484.97 74.00 25.00 352.76 2542.44
   20:26:26.586.09-Sep-2020 5252.51  485.01 74.00 25.00 352.96 2542.44
   20:26:26.786.09-Sep-2020 5252.51  485.07 74.00 25.00 353.16 2542.44
   20:26:26.986.09-Sep-2020 5252.51  485.13 74.00 25.00 353.36 2542.44
   20:26:27.186.09-Sep-2020 5252.51  484.58 74.00 25.00 353.56 2542.44
   20:26:27.386.09-Sep-2020 5252.51  485.13 74.00 25.00 353.76 2542.44
   20:26:27.586.09-Sep-2020 5252.51  485.23 74.00 25.00 353.96 2542.44
   20:26:27.786.09-Sep-2020 5252.51  485.20 74.00 25.00 354.16 2542.44
   20:26:27.986.09-Sep-2020 5252.51  485.41 74.00 25.00 354.36 2542.44
   20:26:28.186.09-Sep-2020 5252.51  484.90 74.00 25.00 354.56 2542.44
   20:26:28.387.09-Sep-2020 5252.51  485.19 74.00 25.00 354.76 2542.44
   20:26:28.587.09-Sep-2020 5252.51  485.48 74.00 25.00 354.96 2542.44
   20:26:28.787.09-Sep-2020 5252.51  485.46 74.00 25.00 355.16 2542.44
   20:26:28.987.09-Sep-2020 5252.51  485.46 74.00 25.00 355.36 2542.44
   20:26:29.187.09-Sep-2020 5252.51  485.63 74.00 25.00 355.56 2542.44
   20:26:29.387.09-Sep-2020 5252.51  485.56 74.00 25.00 355.76 2542.44
   20:26:29.587.09-Sep-2020 5252.51  485.67 74.00 25.00 355.96 2542.44
   20:26:29.787.09-Sep-2020 5252.51  485.10 74.00 25.00 356.16 2542.44
   20:26:29.987.09-Sep-2020 5252.51  485.10 74.00 25.00 356.36 2542.44
   20:26:30.187.09-Sep-2020 5252.51  485.70 74.00 25.00 356.56 2542.44
   20:26:30.388.09-Sep-2020 5252.51  485.70 74.00 25.00 356.76 2542.44
   20:26:30.588.09-Sep-2020 5252.51  485.91 74.00 25.00 356.96 2542.44
   20:26:30.788.09-Sep-2020 5252.51  485.80 74.00 25.00 357.16 2542.44
   20:26:30.988.09-Sep-2020 5252.51  485.15 74.00 25.00 357.36 2542.44
   20:26:31.188.09-Sep-2020 5252.51  486.01 74.00 25.00 357.56 2542.44
   20:26:31.388.09-Sep-2020 5252.51  485.99 74.00 25.00 357.76 2542.44
   20:26:31.588.09-Sep-2020 5252.51  485.93 74.00 25.00 357.96 2542.44
   20:26:31.788.09-Sep-2020 5252.51  486.02 74.00 25.00 358.17 2542.44
   20:26:31.988.09-Sep-2020 5252.51  486.17 74.00 25.00 358.37 2542.44
   20:26:32.188.09-Sep-2020 5252.51  486.15 74.00 25.00 358.57 2542.44
   20:26:32.388.09-Sep-2020 5252.51  485.34 74.00 25.00 358.77 2542.44
   20:26:32.589.09-Sep-2020 5252.51  486.33 74.00 25.00 358.97 2542.44
   20:26:32.789.09-Sep-2020 5252.51  486.26 74.00 25.00 359.17 2542.44
   20:26:32.989.09-Sep-2020 5252.51  486.26 74.00 25.00 359.37 2542.44
   20:26:33.189.09-Sep-2020 5252.51  486.35 74.00 25.00 359.57 2542.44
   20:26:33.389.09-Sep-2020 5252.51  486.48 74.00 25.00 359.77 2542.44
   20:26:33.589.09-Sep-2020 5252.51  486.47 74.00 25.00 359.97 2542.44
   20:26:33.789.09-Sep-2020 5252.51  486.41 74.00 25.00 360.17 2542.44
   20:26:33.989.09-Sep-2020 5252.51  486.41 74.00 25.00 360.37 2542.44
   20:26:34.189.09-Sep-2020 5252.51  486.51 74.00 25.00 360.57 2542.44
   20:26:34.389.09-Sep-2020 5252.51  486.60 74.00 25.00 360.77 2542.44
   20:26:34.589.09-Sep-2020 5252.51  486.64 74.00 25.00 360.97 2542.44
   20:26:34.790.09-Sep-2020 5252.51  486.66 74.00 25.00 361.17 2542.44
   20:26:34.990.09-Sep-2020 5252.51  486.68 74.00 25.00 361.37 2542.44
   20:26:35.190.09-Sep-2020 5252.51  486.69 74.00 25.00 361.57 2542.44
