~Version Information
 VERS.                  2.0:   CWLS log ASCII Standard -VERSION 2.0
 WRAP.                   NO:   One line per depth step
~Well Information Block
#MNEM.UNIT     VALUE/NAME     DESCRIPTION
#---------     -----------    ---------------------------
 STRT.S             21:21:48 09-Sep-20: START TIME 21:21:48 09-Sep-20
 STOP.S             21:29:57 09-Sep-20: STOP TIME  21:29:57 09-Sep-20
 STEP.S                   0.00: STEP TIME
 NULL.                 -999.25: NULL VALUE
 MDS .        Operator Entered:  MAG DATA SOURCE
 PDAT.          Mean Sea Level:  PERMANENT DATUM
 DCON.         Sperry Drilling:  DIRECTNL CONTR
 RIG .              West Azeri:  RIG NAME
 WELL.           C40 (Slot 20):  WELL NAME
 SRVC.     Turan Drilling Engineering:  CONTRACTOR
 FLD .                     ACG:  FIELD NAME
 CTRY.              Azerbaijan:  COUNTRY NAME
 PROV.                    Baku:  PROVINCE
 STAT.                    Baku:  STATE NAME
 REGN.                   EESSA:  REGION
 BASE.              Azerbaijan:  LOGGING EQUIPMENT BASE LOCATION
 COMP.     BP Exploration (Caspian Sea) Ltd:  COMPANY
 WTYP.                Deviated:  WELL TYPE
 SON .        AZ-XX-0906344804:  JOB NUMBER
 FTOP.          Formation Tops:  FORM TOPS DESC
 ILTD.               Lithology:  INTERP LTH DESC
 SVYD.                  Survey:  SURVEY DESC
 DMOD.             Drill Model:  DRILL MOD DESC
 HPTY.       Minimum Curvature:  HOLE POS TYPE
 NREF.                    Grid:  NORTH REFERENCE
 SPUD.               01-Jan-20:  SPUD DATE
 DATE.      00.59.44 15-Sep-20:  END TIME
 STIM.      12.00.00 12-Jun-20:  START TIME
 DMF .             Drill Floor:  DRILL MEAS FROM
 DFST.                        :  DIST FSL TEXT
 DFWT.                        :  DIST FWL TEXT
 API .                        :  API NUMBER
 CNTY.                        :  COUNTY
 UWI .                        :  UNIQUE WELL IDENTIFIER
 LOC .                        :  LOCATION
 LMF .             Drill Floor:  LOG MEASURED FROM
 VSNS.m                   2.88:  VERT SEC N/S
 VSEW.m                  -3.84:  VERT SEC E/W
 AGAP.m                  43.42:  AIR GAP
 APD .m                  43.42:  DEPTH ABOVE PD
 WDMS.m                 118.27:  WD ELEV
 EGL .m                   0.00:  GROUND ELEVATION
 EPD .m                   0.00:  ELEVATION
 AZTC.deg                 6.23:  AZM TOTAL CORR
 GRDC.deg                 0.20:  GRID CORRECTION
 MDEC.deg                 6.43:  MAGNETIC DECL
 MDIP.deg                59.49:  MAGNETIC DIP
 MFLD.nT              50277.00:  MAGNETIC FIELD
 GVFD.g                   1.00:  GRAVITY FIELD
 VSDR.deg               173.20:  VERT SEC DIRECT
 TDD .m                5790.01:  TOTAL DEPTH (DRILLER)
 SDEP.m                5231.01:  START DEPTH
 DFSL.m                   0.00:  DISTANCE FSL
 DFWL.m                   0.00:  DISTANCE FWL
 UTMY.m             4435808.83:  UTM Y
 UTMX.m              526266.40:  UTM X
 WHEW.m                  -3.84:  WELL HEAD E/W
 WHNS.m                   2.88:  WELL HEAD N/S
 LONG.deg                51.31:  LONGITUDE
 LATI.deg                40.06:  LATITUDE
 TVDS.m                  43.42:  TVDSS CORRECTN
 DEP .m                 430.08:  DEPTH
 EKB .m                  43.42:  KB ELEVATION
 EDF .m                  43.42:  DF ELEVATION
 TDL .m                 559.00:  TOTAL DEPTH (LOGGER)
 MAGU.                 1849381:  MAGUTM CHECKSUM
 VSC .                       0:  VS TO CLOSURE
~Parameter Information Block
#MNEM.UNIT       Value        Description
#---------     -----------    ---------------------------
 AV  .mps                 4.87:  Ann Velocity 
 AVMX.mps                 7.08:  Max Ann Veloc 
 AZIF.deg               108.87:  Azm, Final 
 BHAT.                  Rotary:  BHA Type 
 BROT.°/30m               0.35:  Build Rotating 
 BS  .in                  8.50:  Bit Size 
 BSZ .in                  8.50:  Bit Size 
 BTPL.psig              360.00:  Bit Press Loss 
 CABU.                     Yes:  Customer Abuse 
 COMM.                     ¼¥|:  Run Comments 1 
 TCS .hr                106.24:  Time Ciculation Ended 
 CV  .mps                 1.77:  Crit Velocity 
 CVMX.mps                 2.03:  Max Crit Veloc 
 DD1 .         Aykhan Agagulov:  Direct Drillr 1 
 DD2 .            Nonso Okofor:  Direct Drillr 2 
 DDSV.               Geo-Pilot:  DD Service 
 DEFF.%                  98.00:  % Det Eff 
 DLRX.°/30m               0.50:  Dogleg Rot Max 
 DLSO.°/30m               0.40:  Dogleg Oriented 
 DLSX.°/30m               0.94:  Dogleg Str Max 
 DRET.      20.30.00 08-Sep-20:  Drill End Time 
 DRST.      22.15.00 06-Sep-20:  Drill Start Tim 
 DTIM.hr                 31.31:  Time Drilling 
 EDEP.m                5790.01:  End Depth 
 ENG1.           Amrah Tahirov:  Engineer 1 
 ENG2.         Dair Mahammadov:  Engineer 2 
 ENG3.           Emil Huseynov:  Engineer 3 
 ETIM.      04.01.04 12-Sep-20:  End Time 
 FLOI.gpm               450.00:  Flow In 
 FLON.gpm               450.00:  Flow In Min 
 FLOS.cptm                2.00:  Fluid Loss 
 FLOX.gpm               450.00:  Flow In Max 
 FTRO.       Formation Presure:  FTWD Run Obj 
 HFLO.                      No:  High Flow 
 HPRE.                      No:  High Pressure 
 HTEM.                      No:  High Temp 
 HYDO.m                   1.80:  Hydro Offset 
 IFIN.deg                72.03:  Inc, Final 
 IMAX.deg                73.72:  Inc Max 
 IMIN.deg                70.94:  Inc Min 
 IMND.m                5508.52:  Inc Min Depth 
 IMXD.m                5253.60:  Inc Max Depth 
 JARR.                      No:  Jarring 
 LETM.      20.30.00 08-Sep-20:  Log End Time 
 LOST.hr                     0:  Lost Rig Time 
 LSTM.      22.15.00 06-Sep-20:  Log Start Time 
 MDCL.ppm             36000.00:  Mud Chlorides 
 MDES.     Inversion Oil/Synthetic:  Mud Desc 
 DFD .sg                  1.44:  Mud Density 
 MDMN.sg                  1.44:  Dens Mud Min 
 MDMX.sg                  1.57:  Dens Mud Max 
 MOIL.                      70:  Run Mud Oil % 
 MOWR.                   70:30:  Run Mud OWR 
 MSND.                       0:  Run Mud Sand % 
 MSOL.                      21:  Run Mud Solids% 
 DFV .spqt               68.00:  Mud Viscosity 
 MWOD.in                  6.75:  MWD Tool OD 
 MWSI.                     Yes:  Serv Intrp, MWD 
 OTIM.hr                174.84:  Time Operating 
 PCON.           Look Like New:  Pad Condition 
 PMAX.psia            10616.93:  Press Op, Max 
 PV  .cP                 50.00:  Mud PV 
 RUN .                     700:  Run Number 
 ROPA.m/hr               14.24:  ROP Avg 
 ROPN.m/hr               10.00:  ROP Min 
 ROPX.m/hr               32.00:  ROP Max 
 RPMA.rpm               120.90:  RPM Surface Avg 
 RPMN.rpm               120.00:  RPM Surface Min 
 RPMX.rpm               140.00:  RPM Surface Max 
 RRUN.                    0700:  Rig Run Number 
 RTIM.hr                  3.20:  Time Reaming 
 SAZI.deg               109.99:  Azm, Start 
 SDEP.m                5231.01:  Start Depth 
 SIDD.                      No:  Serv Intrp, DD 
 SINC.deg                73.72:  Inc, Start 
 SPPA.psig             3051.00:  SPP Avg 
 SPPN.psig             2950.00:  SPP Min 
 SPPX.psig             3250.00:  SPP Max 
 STIM.      08.00.00 05-Sep-20:  Start Time 
 SVCS.                 DD, MWD:  Services 
 SVER.                    9.20:  Sperry Version 
 TDAT.m                 559.00:  Tot Depth Attmp 
 TDDF.                      No:  Trip for DD 
 TDLG.m                 559.00:  Tot Depth Loggd 
 TFF .                      No:  Trip for Fail 
 TQAA.f-kp               26.49:  Torque Abs Avg 
 TQAN.f-kp               25.00:  Torque Abs Min 
 TQAX.f-kp               27.00:  Torque Abs Max 
 TRRT.°/30m               1.50:  Turn Rotating 
 MRT .                    HCIM:  Maximum Recorded Temperature 
 TTMX.degC               90.20:  Max Tool Temp 
 VS01.                90542671:  Virtual Str1 SN 
 VS02.                90545185:  Virtual Str2 SN 
 VS03.                90602015:  Virtual Str3 SN 
 VS04.                90515230:  Virtual Str4 SN 
 WBMN.klb                 5.00:  WOB Min 
 WOBA.klb                14.79:  WOB Avg 
 WOBX.klb                20.00:  WOB Max 
 YP  .lhf2               29.00:  Yield Point 
~Curve Information Block
#MNEM.UNIT                 API CODE     Curve Description
#---------               -----------    ---------------------------
 TIME.HHMMSS            00 000 000 000:  GT Time & Date
 GTDEPTH.m              00 000 000 000:  GT Depth
 GTPQH.psia             00 000 000 000:  GT HR Quartz Pressure
 GTTQ.degC              00 000 000 000:  GT Quartz Temperature
 GTTN.NONE              00 000 000 000:  GT Test Number
 GTET.sec               00 000 000 000:  GT Elapsed Test Time
 GTTVD.m                00 000 000 000:  GT True Vertical Depth
#Other Information
#
#WARRANTY: Halliburton will use its best efforts to furnish customers with 
#accurate information and interpretations that are part of, and incident to, the services 
#provided.  However, Halliburton cannot and does not warrant the accuracy 
#or correctness of such information and interpretations.  Under no circumstances should any 
#such information or interpretation be relied upon as the sole basis for any drilling, 
#completion, production, or financial decision or any procedure involving any risk to the 
#safety of any drilling venture, drilling rig or its crew or any other third party.  The 
#Customer has full responsibility for all drilling, completion and production operation.  
#Halliburton makes no representations or warranties, either expressed or 
#implied, including, but not limited to, the implied warranties of merchantability or fitness 
#for a particular purpose, with respect to the services rendered.  In no event will 
#Halliburton be liable for failure to obtain any particular results or for 
#any damages, including, but not limited to, indirect, special or consequential damages, 
#resulting from the use of any information or interpretation provided by Halliburton.
#
~A           TIME           GTDEPTH  GTPQH  GTTQ  GTTN   GTET   GTTVD  
# ...
   21:29:20.525.09-Sep-2020 5252.22  327.81 73.45 26.00 452.21 2542.36
   21:29:20.725.09-Sep-2020 5252.22  327.97 73.45 26.00 452.41 2542.36
   21:29:20.925.09-Sep-2020 5252.22  328.13 73.45 26.00 452.61 2542.36
   21:29:21.125.09-Sep-2020 5252.22  328.29 73.45 26.00 452.81 2542.36
   21:29:21.326.09-Sep-2020 5252.22  328.47 73.45 26.00 453.01 2542.36
   21:29:21.526.09-Sep-2020 5252.22  328.67 73.45 26.00 453.21 2542.36
   21:29:21.726.09-Sep-2020 5252.22  328.67 73.45 26.00 453.41 2542.36
   21:29:21.926.09-Sep-2020 5252.22  380.71 73.45 26.00 453.61 2542.36
   21:29:22.126.09-Sep-2020 5252.22 3523.33 73.45 26.00 453.81 2542.36
   21:29:22.326.09-Sep-2020 5252.22 6092.76 73.45 26.00 454.01 2542.36
   21:29:22.526.09-Sep-2020 5252.22 6096.16 73.45 26.00 454.21 2542.36
   21:29:22.726.09-Sep-2020 5252.22 6096.16 73.45 26.00 454.41 2542.36
   21:29:22.926.09-Sep-2020 5252.22 6094.44 73.45 26.00 454.61 2542.36
   21:29:23.126.09-Sep-2020 5252.22 6095.97 73.45 26.00 454.81 2542.36
   21:29:23.326.09-Sep-2020 5252.22 6100.10 73.45 26.00 455.01 2542.36
   21:29:23.527.09-Sep-2020 5252.22 6098.11 73.46 26.00 455.21 2542.36
   21:29:23.727.09-Sep-2020 5252.22 6098.11 73.46 26.00 455.41 2542.36
   21:29:23.927.09-Sep-2020 5252.22 6100.90 73.46 26.00 455.61 2542.36
   21:29:24.127.09-Sep-2020 5252.22 6102.36 73.47 26.00 455.81 2542.36
   21:29:24.327.09-Sep-2020 5252.22 6103.09 73.47 26.00 456.01 2542.36
   21:29:24.527.09-Sep-2020 5252.22 6103.45 73.48 26.00 456.21 2542.36
   21:29:24.727.09-Sep-2020 5252.22 6103.45 73.48 26.00 456.41 2542.36
   21:29:24.927.09-Sep-2020 5252.22 6104.52 73.49 26.00 456.61 2542.36
   21:29:25.127.09-Sep-2020 5252.22 6105.32 73.49 26.00 456.81 2542.36
   21:29:25.327.09-Sep-2020 5252.22 6112.81 73.50 26.00 457.01 2542.36
   21:29:25.527.09-Sep-2020 5252.22 6104.91 73.50 26.00 457.21 2542.36
   21:29:25.728.09-Sep-2020 5252.22 6104.91 73.51 26.00 457.41 2542.36
   21:29:25.928.09-Sep-2020 5252.22 6107.36 73.51 26.00 457.61 2542.36
   21:29:26.128.09-Sep-2020 5252.22 6107.83 73.52 26.00 457.81 2542.36
   21:29:26.328.09-Sep-2020 5252.22 6108.82 73.52 26.00 458.01 2542.36
   21:29:26.528.09-Sep-2020 5252.22 6120.73 73.53 26.00 458.21 2542.36
   21:29:26.728.09-Sep-2020 5252.22 6120.73 73.53 26.00 458.41 2542.36
   21:29:26.928.09-Sep-2020 5252.22 6109.09 73.54 26.00 458.61 2542.36
   21:29:27.128.09-Sep-2020 5252.22 6108.53 73.54 26.00 458.81 2542.36
   21:29:27.328.09-Sep-2020 5252.22 6108.80 73.55 26.00 459.01 2542.36
   21:29:27.528.09-Sep-2020 5252.22 6111.08 73.55 26.00 459.21 2542.36
   21:29:27.728.09-Sep-2020 5252.22 6117.19 73.56 26.00 459.41 2542.36
   21:29:27.929.09-Sep-2020 5252.22 6107.56 73.56 26.00 459.61 2542.36
   21:29:28.129.09-Sep-2020 5252.22 6110.01 73.57 26.00 459.81 2542.36
   21:29:28.329.09-Sep-2020 5252.22 6109.24 73.57 26.00 460.01 2542.36
   21:29:28.529.09-Sep-2020 5252.22 6110.20 73.57 26.00 460.21 2542.36
   21:29:28.729.09-Sep-2020 5252.22 6110.20 73.57 26.00 460.41 2542.36
   21:29:28.929.09-Sep-2020 5252.22 6110.67 73.58 26.00 460.61 2542.36
   21:29:29.129.09-Sep-2020 5252.22 6109.54 73.58 26.00 460.81 2542.36
   21:29:29.329.09-Sep-2020 5252.22 6109.73 73.59 26.00 461.01 2542.36
   21:29:29.529.09-Sep-2020 5252.22 6109.31 73.59 26.00 461.21 2542.36
   21:29:29.729.09-Sep-2020 5252.22 6109.31 73.59 26.00 461.41 2542.36
   21:29:29.930.09-Sep-2020 5252.22 6111.80 73.60 26.00 461.61 2542.36
   21:29:30.130.09-Sep-2020 5252.22 6111.18 73.60 26.00 461.81 2542.36
   21:29:30.330.09-Sep-2020 5252.22 6121.24 73.60 26.00 462.01 2542.36
   21:29:30.530.09-Sep-2020 5252.22 6104.33 73.60 26.00 462.21 2542.36
   21:29:30.730.09-Sep-2020 5252.22 6104.33 73.61 26.00 462.41 2542.36
   21:29:30.930.09-Sep-2020 5252.22 6111.28 73.61 26.00 462.61 2542.36
   21:29:31.130.09-Sep-2020 5252.22 6110.63 73.61 26.00 462.81 2542.36
   21:29:31.330.09-Sep-2020 5252.22 6111.01 73.61 26.00 463.01 2542.36
   21:29:31.530.09-Sep-2020 5252.22 6113.96 73.61 26.00 463.21 2542.36
   21:29:31.730.09-Sep-2020 5252.22 6110.47 73.62 26.00 463.41 2542.36
   21:29:31.930.09-Sep-2020 5252.22 6111.25 73.62 26.00 463.61 2542.36
   21:29:32.131.09-Sep-2020 5252.22 6110.62 73.62 26.00 463.81 2542.36
   21:29:32.331.09-Sep-2020 5252.22 6110.32 73.62 26.00 464.01 2542.36
   21:29:32.531.09-Sep-2020 5252.22 6110.27 73.62 26.00 464.21 2542.36
   21:29:32.731.09-Sep-2020 5252.22 6110.23 73.62 26.00 464.41 2542.36
   21:29:32.931.09-Sep-2020 5252.22 6110.18 73.62 26.00 464.61 2542.36
   21:29:33.131.09-Sep-2020 5252.22 6110.45 73.62 26.00 464.81 2542.36
   21:29:33.331.09-Sep-2020 5252.22 6110.30 73.62 26.00 465.01 2542.36
   21:29:33.531.09-Sep-2020 5252.22 6110.55 73.63 26.00 465.21 2542.36
   21:29:33.731.09-Sep-2020 5252.22 6110.55 73.63 26.00 465.41 2542.36
   21:29:33.931.09-Sep-2020 5252.22 6116.79 73.63 26.00 465.61 2542.36
   21:29:34.131.09-Sep-2020 5252.22 6109.14 73.63 26.00 465.81 2542.36
   21:29:34.332.09-Sep-2020 5252.22 6110.40 73.63 26.00 466.01 2542.36
   21:29:34.532.09-Sep-2020 5252.22 6110.53 73.63 26.00 466.21 2542.36
   21:29:34.732.09-Sep-2020 5252.22 6110.53 73.63 26.00 466.41 2542.36
   21:29:34.932.09-Sep-2020 5252.22 6110.74 73.63 26.00 466.62 2542.36
   21:29:35.132.09-Sep-2020 5252.22 6111.99 73.63 26.00 466.82 2542.36
   21:29:35.332.09-Sep-2020 5252.22 6110.68 73.63 26.00 467.02 2542.36
   21:29:35.532.09-Sep-2020 5252.22 6109.67 73.63 26.00 467.22 2542.36
   21:29:35.732.09-Sep-2020 5252.22 6109.10 73.63 26.00 467.42 2542.36
   21:29:35.932.09-Sep-2020 5252.22 6108.73 73.63 26.00 467.62 2542.36
   21:29:36.132.09-Sep-2020 5252.22 6109.68 73.63 26.00 467.82 2542.36
   21:29:36.332.09-Sep-2020 5252.22 6109.40 73.63 26.00 468.02 2542.36
   21:29:36.533.09-Sep-2020 5252.22 6109.11 73.63 26.00 468.22 2542.36
   21:29:36.733.09-Sep-2020 5252.22 6109.11 73.63 26.00 468.42 2542.36
   21:29:36.933.09-Sep-2020 5252.22 6108.71 73.63 26.00 468.62 2542.36
   21:29:37.133.09-Sep-2020 5252.22 6109.02 73.63 26.00 468.82 2542.36
   21:29:37.333.09-Sep-2020 5252.22 6109.18 73.63 26.00 469.02 2542.36
   21:29:37.533.09-Sep-2020 5252.22 6120.10 73.63 26.00 469.22 2542.36
   21:29:37.733.09-Sep-2020 5252.22 6103.12 73.63 26.00 469.42 2542.36
   21:29:37.933.09-Sep-2020 5252.22 6109.88 73.63 26.00 469.62 2542.36
   21:29:38.133.09-Sep-2020 5252.22 6108.97 73.63 26.00 469.82 2542.36
   21:29:38.333.09-Sep-2020 5252.22 6109.34 73.63 26.00 470.02 2542.36
   21:29:38.533.09-Sep-2020 5252.22 6110.06 73.63 26.00 470.22 2542.36
   21:29:38.734.09-Sep-2020 5252.22 6121.09 73.63 26.00 470.42 2542.36
   21:29:38.934.09-Sep-2020 5252.22 6104.74 73.63 26.00 470.62 2542.36
   21:29:39.134.09-Sep-2020 5252.22 6110.15 73.63 26.00 470.82 2542.36
   21:29:39.334.09-Sep-2020 5252.22 6108.76 73.63 26.00 471.02 2542.36
   21:29:39.534.09-Sep-2020 5252.22 6110.00 73.63 26.00 471.22 2542.36
   21:29:39.734.09-Sep-2020 5252.22 6110.14 73.62 26.00 471.42 2542.36
   21:29:39.934.09-Sep-2020 5252.22 6113.54 73.62 26.00 471.62 2542.36
   21:29:40.134.09-Sep-2020 5252.22 6115.75 73.62 26.00 471.82 2542.36
   21:29:40.334.09-Sep-2020 5252.22 6108.38 73.62 26.00 472.02 2542.36
   21:29:40.534.09-Sep-2020 5252.22 6108.90 73.62 26.00 472.22 2542.36
   21:29:40.734.09-Sep-2020 5252.22 6108.90 73.62 26.00 472.42 2542.36
   21:29:40.935.09-Sep-2020 5252.22 6109.36 73.62 26.00 472.62 2542.36
   21:29:41.135.09-Sep-2020 5252.22 6110.32 73.62 26.00 472.82 2542.36
   21:29:41.335.09-Sep-2020 5252.22 6117.51 73.62 26.00 473.02 2542.36
   21:29:41.535.09-Sep-2020 5252.22 6109.08 73.62 26.00 473.22 2542.36
   21:29:41.735.09-Sep-2020 5252.22 6109.39 73.62 26.00 473.42 2542.36
   21:29:41.935.09-Sep-2020 5252.22 6109.69 73.62 26.00 473.62 2542.36
   21:29:42.135.09-Sep-2020 5252.22 6109.17 73.62 26.00 473.82 2542.36
   21:29:42.335.09-Sep-2020 5252.22 6110.69 73.62 26.00 474.02 2542.36
   21:29:42.535.09-Sep-2020 5252.22 6120.43 73.62 26.00 474.22 2542.36
   21:29:42.735.09-Sep-2020 5252.22 6106.86 73.62 26.00 474.42 2542.36
   21:29:42.935.09-Sep-2020 5252.22 6110.91 73.62 26.00 474.62 2542.36
