~Version Information
 VERS.                  2.0:   CWLS log ASCII Standard -VERSION 2.0
 WRAP.                   NO:   One line per depth step
~Well Information Block
#MNEM.UNIT     VALUE/NAME     DESCRIPTION
#---------     -----------    ---------------------------
 STRT.S             17:25:53 09-Sep-20: START TIME 17:25:53 09-Sep-20
 STOP.S             17:34:04 09-Sep-20: STOP TIME  17:34:04 09-Sep-20
 STEP.S                   0.00: STEP TIME
 NULL.                 -999.25: NULL VALUE
 MDS .        Operator Entered:  MAG DATA SOURCE
 PDAT.          Mean Sea Level:  PERMANENT DATUM
 DCON.         Sperry Drilling:  DIRECTNL CONTR
 RIG .              West Azeri:  RIG NAME
 WELL.           C40 (Slot 20):  WELL NAME
 SRVC.     Turan Drilling Engineering:  CONTRACTOR
 FLD .                     ACG:  FIELD NAME
 CTRY.              Azerbaijan:  COUNTRY NAME
 PROV.                    Baku:  PROVINCE
 STAT.                    Baku:  STATE NAME
 REGN.                   EESSA:  REGION
 BASE.              Azerbaijan:  LOGGING EQUIPMENT BASE LOCATION
 COMP.     BP Exploration (Caspian Sea) Ltd:  COMPANY
 WTYP.                Deviated:  WELL TYPE
 SON .        AZ-XX-0906344804:  JOB NUMBER
 FTOP.          Formation Tops:  FORM TOPS DESC
 ILTD.               Lithology:  INTERP LTH DESC
 SVYD.                  Survey:  SURVEY DESC
 DMOD.             Drill Model:  DRILL MOD DESC
 HPTY.       Minimum Curvature:  HOLE POS TYPE
 NREF.                    Grid:  NORTH REFERENCE
 SPUD.               01-Jan-20:  SPUD DATE
 DATE.      00.59.44 15-Sep-20:  END TIME
 STIM.      12.00.00 12-Jun-20:  START TIME
 DMF .             Drill Floor:  DRILL MEAS FROM
 DFST.                        :  DIST FSL TEXT
 DFWT.                        :  DIST FWL TEXT
 API .                        :  API NUMBER
 CNTY.                        :  COUNTY
 UWI .                        :  UNIQUE WELL IDENTIFIER
 LOC .                        :  LOCATION
 LMF .             Drill Floor:  LOG MEASURED FROM
 VSNS.m                   2.88:  VERT SEC N/S
 VSEW.m                  -3.84:  VERT SEC E/W
 AGAP.m                  43.42:  AIR GAP
 APD .m                  43.42:  DEPTH ABOVE PD
 WDMS.m                 118.27:  WD ELEV
 EGL .m                   0.00:  GROUND ELEVATION
 EPD .m                   0.00:  ELEVATION
 AZTC.deg                 6.23:  AZM TOTAL CORR
 GRDC.deg                 0.20:  GRID CORRECTION
 MDEC.deg                 6.43:  MAGNETIC DECL
 MDIP.deg                59.49:  MAGNETIC DIP
 MFLD.nT              50277.00:  MAGNETIC FIELD
 GVFD.g                   1.00:  GRAVITY FIELD
 VSDR.deg               173.20:  VERT SEC DIRECT
 TDD .m                5790.01:  TOTAL DEPTH (DRILLER)
 SDEP.m                5231.01:  START DEPTH
 DFSL.m                   0.00:  DISTANCE FSL
 DFWL.m                   0.00:  DISTANCE FWL
 UTMY.m             4435808.83:  UTM Y
 UTMX.m              526266.40:  UTM X
 WHEW.m                  -3.84:  WELL HEAD E/W
 WHNS.m                   2.88:  WELL HEAD N/S
 LONG.deg                51.31:  LONGITUDE
 LATI.deg                40.06:  LATITUDE
 TVDS.m                  43.42:  TVDSS CORRECTN
 DEP .m                 430.08:  DEPTH
 EKB .m                  43.42:  KB ELEVATION
 EDF .m                  43.42:  DF ELEVATION
 TDL .m                 559.00:  TOTAL DEPTH (LOGGER)
 MAGU.                 1849381:  MAGUTM CHECKSUM
 VSC .                       0:  VS TO CLOSURE
~Parameter Information Block
#MNEM.UNIT       Value        Description
#---------     -----------    ---------------------------
 AV  .mps                 4.87:  Ann Velocity 
 AVMX.mps                 7.08:  Max Ann Veloc 
 AZIF.deg               108.87:  Azm, Final 
 BHAT.                  Rotary:  BHA Type 
 BROT.°/30m               0.35:  Build Rotating 
 BS  .in                  8.50:  Bit Size 
 BSZ .in                  8.50:  Bit Size 
 BTPL.psig              360.00:  Bit Press Loss 
 CABU.                     Yes:  Customer Abuse 
 COMM.                     ô¸n:  Run Comments 1 
 TCS .hr                106.24:  Time Ciculation Ended 
 CV  .mps                 1.77:  Crit Velocity 
 CVMX.mps                 2.03:  Max Crit Veloc 
 DD1 .         Aykhan Agagulov:  Direct Drillr 1 
 DD2 .            Nonso Okofor:  Direct Drillr 2 
 DDSV.               Geo-Pilot:  DD Service 
 DEFF.%                  98.00:  % Det Eff 
 DLRX.°/30m               0.50:  Dogleg Rot Max 
 DLSO.°/30m               0.40:  Dogleg Oriented 
 DLSX.°/30m               0.94:  Dogleg Str Max 
 DRET.      20.30.00 08-Sep-20:  Drill End Time 
 DRST.      22.15.00 06-Sep-20:  Drill Start Tim 
 DTIM.hr                 31.31:  Time Drilling 
 EDEP.m                5790.01:  End Depth 
 ENG1.           Amrah Tahirov:  Engineer 1 
 ENG2.         Dair Mahammadov:  Engineer 2 
 ENG3.           Emil Huseynov:  Engineer 3 
 ETIM.      04.01.04 12-Sep-20:  End Time 
 FLOI.gpm               450.00:  Flow In 
 FLON.gpm               450.00:  Flow In Min 
 FLOS.cptm                2.00:  Fluid Loss 
 FLOX.gpm               450.00:  Flow In Max 
 FTRO.       Formation Presure:  FTWD Run Obj 
 HFLO.                      No:  High Flow 
 HPRE.                      No:  High Pressure 
 HTEM.                      No:  High Temp 
 HYDO.m                   1.80:  Hydro Offset 
 IFIN.deg                72.03:  Inc, Final 
 IMAX.deg                73.72:  Inc Max 
 IMIN.deg                70.94:  Inc Min 
 IMND.m                5508.52:  Inc Min Depth 
 IMXD.m                5253.60:  Inc Max Depth 
 JARR.                      No:  Jarring 
 LETM.      20.30.00 08-Sep-20:  Log End Time 
 LOST.hr                     0:  Lost Rig Time 
 LSTM.      22.15.00 06-Sep-20:  Log Start Time 
 MDCL.ppm             36000.00:  Mud Chlorides 
 MDES.     Inversion Oil/Synthetic:  Mud Desc 
 DFD .sg                  1.44:  Mud Density 
 MDMN.sg                  1.44:  Dens Mud Min 
 MDMX.sg                  1.57:  Dens Mud Max 
 MOIL.                      70:  Run Mud Oil % 
 MOWR.                   70:30:  Run Mud OWR 
 MSND.                       0:  Run Mud Sand % 
 MSOL.                      21:  Run Mud Solids% 
 DFV .spqt               68.00:  Mud Viscosity 
 MWOD.in                  6.75:  MWD Tool OD 
 MWSI.                     Yes:  Serv Intrp, MWD 
 OTIM.hr                174.84:  Time Operating 
 PCON.           Look Like New:  Pad Condition 
 PMAX.psia            10616.93:  Press Op, Max 
 PV  .cP                 50.00:  Mud PV 
 RUN .                     700:  Run Number 
 ROPA.m/hr               14.24:  ROP Avg 
 ROPN.m/hr               10.00:  ROP Min 
 ROPX.m/hr               32.00:  ROP Max 
 RPMA.rpm               120.90:  RPM Surface Avg 
 RPMN.rpm               120.00:  RPM Surface Min 
 RPMX.rpm               140.00:  RPM Surface Max 
 RRUN.                    0700:  Rig Run Number 
 RTIM.hr                  3.20:  Time Reaming 
 SAZI.deg               109.99:  Azm, Start 
 SDEP.m                5231.01:  Start Depth 
 SIDD.                      No:  Serv Intrp, DD 
 SINC.deg                73.72:  Inc, Start 
 SPPA.psig             3051.00:  SPP Avg 
 SPPN.psig             2950.00:  SPP Min 
 SPPX.psig             3250.00:  SPP Max 
 STIM.      08.00.00 05-Sep-20:  Start Time 
 SVCS.                 DD, MWD:  Services 
 SVER.                    9.20:  Sperry Version 
 TDAT.m                 559.00:  Tot Depth Attmp 
 TDDF.                      No:  Trip for DD 
 TDLG.m                 559.00:  Tot Depth Loggd 
 TFF .                      No:  Trip for Fail 
 TQAA.f-kp               26.49:  Torque Abs Avg 
 TQAN.f-kp               25.00:  Torque Abs Min 
 TQAX.f-kp               27.00:  Torque Abs Max 
 TRRT.°/30m               1.50:  Turn Rotating 
 MRT .                    HCIM:  Maximum Recorded Temperature 
 TTMX.degC               90.20:  Max Tool Temp 
 VS01.                90542671:  Virtual Str1 SN 
 VS02.                90545185:  Virtual Str2 SN 
 VS03.                90602015:  Virtual Str3 SN 
 VS04.                90515230:  Virtual Str4 SN 
 WBMN.klb                 5.00:  WOB Min 
 WOBA.klb                14.79:  WOB Avg 
 WOBX.klb                20.00:  WOB Max 
 YP  .lhf2               29.00:  Yield Point 
~Curve Information Block
#MNEM.UNIT                 API CODE     Curve Description
#---------               -----------    ---------------------------
 TIME.HHMMSS            00 000 000 000:  GT Time & Date
 GTDEPTH.m              00 000 000 000:  GT Depth
 GTPQH.psia             00 000 000 000:  GT HR Quartz Pressure
 GTTQ.degC              00 000 000 000:  GT Quartz Temperature
 GTTN.NONE              00 000 000 000:  GT Test Number
 GTET.sec               00 000 000 000:  GT Elapsed Test Time
 GTTVD.m                00 000 000 000:  GT True Vertical Depth
#Other Information
#
#WARRANTY: Halliburton will use its best efforts to furnish customers with 
#accurate information and interpretations that are part of, and incident to, the services 
#provided.  However, Halliburton cannot and does not warrant the accuracy 
#or correctness of such information and interpretations.  Under no circumstances should any 
#such information or interpretation be relied upon as the sole basis for any drilling, 
#completion, production, or financial decision or any procedure involving any risk to the 
#safety of any drilling venture, drilling rig or its crew or any other third party.  The 
#Customer has full responsibility for all drilling, completion and production operation.  
#Halliburton makes no representations or warranties, either expressed or 
#implied, including, but not limited to, the implied warranties of merchantability or fitness 
#for a particular purpose, with respect to the services rendered.  In no event will 
#Halliburton be liable for failure to obtain any particular results or for 
#any damages, including, but not limited to, indirect, special or consequential damages, 
#resulting from the use of any information or interpretation provided by Halliburton.
#
~A           TIME           GTDEPTH  GTPQH  GTTQ  GTTN   GTET   GTTVD  
# ...
   17:30:01.828.09-Sep-2020 5302.51  923.51 74.51 20.00 248.72 2556.93
   17:30:02.028.09-Sep-2020 5302.51  924.42 74.51 20.00 248.92 2556.93
   17:30:02.228.09-Sep-2020 5302.51  925.17 74.51 20.00 249.12 2556.93
   17:30:02.428.09-Sep-2020 5302.51  925.17 74.51 20.00 249.32 2556.93
   17:30:02.628.09-Sep-2020 5302.51  925.64 74.51 20.00 249.52 2556.93
   17:30:02.828.09-Sep-2020 5302.51  926.06 74.51 20.00 249.72 2556.93
   17:30:03.028.09-Sep-2020 5302.51  926.25 74.51 20.00 249.92 2556.93
   17:30:03.229.09-Sep-2020 5302.51  925.86 74.51 20.00 250.12 2556.93
   17:30:03.429.09-Sep-2020 5302.51  925.86 74.51 20.00 250.32 2556.93
   17:30:03.629.09-Sep-2020 5302.51  927.10 74.51 20.00 250.52 2556.93
   17:30:03.829.09-Sep-2020 5302.51  927.34 74.51 20.00 250.72 2556.93
   17:30:04.029.09-Sep-2020 5302.51  926.75 74.51 20.00 250.92 2556.93
   17:30:04.229.09-Sep-2020 5302.51  928.29 74.51 20.00 251.12 2556.93
   17:30:04.429.09-Sep-2020 5302.51  928.29 74.51 20.00 251.32 2556.93
   17:30:04.629.09-Sep-2020 5302.51  928.56 74.51 20.00 251.52 2556.93
   17:30:04.829.09-Sep-2020 5302.51  928.79 74.51 20.00 251.72 2556.93
   17:30:05.029.09-Sep-2020 5302.51  928.74 74.51 20.00 251.92 2556.93
   17:30:05.229.09-Sep-2020 5302.51  929.47 74.51 20.00 252.12 2556.93
   17:30:05.430.09-Sep-2020 5302.51  929.47 74.51 20.00 252.32 2556.93
   17:30:05.630.09-Sep-2020 5302.51  930.07 74.51 20.00 252.52 2556.93
   17:30:05.830.09-Sep-2020 5302.51  930.54 74.51 20.00 252.72 2556.93
   17:30:06.030.09-Sep-2020 5302.51  930.77 74.51 20.00 252.92 2556.93
   17:30:06.230.09-Sep-2020 5302.51  931.05 74.51 20.00 253.12 2556.93
   17:30:06.430.09-Sep-2020 5302.51  931.05 74.51 20.00 253.32 2556.93
   17:30:06.630.09-Sep-2020 5302.51  931.64 74.51 20.00 253.52 2556.93
   17:30:06.830.09-Sep-2020 5302.51  931.88 74.51 20.00 253.72 2556.93
   17:30:07.030.09-Sep-2020 5302.51  932.18 74.51 20.00 253.92 2556.93
   17:30:07.230.09-Sep-2020 5302.51  932.45 74.51 20.00 254.12 2556.93
   17:30:07.431.09-Sep-2020 5302.51  932.45 74.51 20.00 254.32 2556.93
   17:30:07.631.09-Sep-2020 5302.51  932.94 74.51 20.00 254.52 2556.93
   17:30:07.831.09-Sep-2020 5302.51  933.24 74.51 20.00 254.72 2556.93
   17:30:08.031.09-Sep-2020 5302.51  933.54 74.51 20.00 254.92 2556.93
   17:30:08.231.09-Sep-2020 5302.51  933.81 74.51 20.00 255.12 2556.93
   17:30:08.431.09-Sep-2020 5302.51  933.81 74.51 20.00 255.32 2556.93
   17:30:08.631.09-Sep-2020 5302.51  933.52 74.51 20.00 255.52 2556.93
   17:30:08.831.09-Sep-2020 5302.51  934.65 74.51 20.00 255.72 2556.93
   17:30:09.031.09-Sep-2020 5302.51  934.75 74.51 20.00 255.92 2556.93
   17:30:09.231.09-Sep-2020 5302.51  935.01 74.51 20.00 256.12 2556.93
   17:30:09.431.09-Sep-2020 5302.51  935.01 74.51 20.00 256.32 2556.93
   17:30:09.632.09-Sep-2020 5302.51  935.69 74.51 20.00 256.52 2556.93
   17:30:09.832.09-Sep-2020 5302.51  935.84 74.51 20.00 256.72 2556.93
   17:30:10.032.09-Sep-2020 5302.51  936.09 74.51 20.00 256.92 2556.93
   17:30:10.232.09-Sep-2020 5302.51  936.37 74.51 20.00 257.12 2556.93
   17:30:10.432.09-Sep-2020 5302.51  936.37 74.51 20.00 257.32 2556.93
   17:30:10.632.09-Sep-2020 5302.51  936.81 74.51 20.00 257.52 2556.93
   17:30:10.832.09-Sep-2020 5302.51  937.02 74.51 20.00 257.72 2556.93
   17:30:11.032.09-Sep-2020 5302.51  937.26 74.51 20.00 257.92 2556.93
   17:30:11.232.09-Sep-2020 5302.51  937.52 74.51 20.00 258.12 2556.93
   17:30:11.432.09-Sep-2020 5302.51  937.81 74.52 20.00 258.32 2556.93
   17:30:11.633.09-Sep-2020 5302.51  938.06 74.52 20.00 258.52 2556.93
   17:30:11.833.09-Sep-2020 5302.51  937.40 74.52 20.00 258.72 2556.93
   17:30:12.033.09-Sep-2020 5302.51  938.69 74.52 20.00 258.92 2556.93
   17:30:12.233.09-Sep-2020 5302.51  938.68 74.52 20.00 259.12 2556.93
   17:30:12.433.09-Sep-2020 5302.51  938.68 74.52 20.00 259.32 2556.93
   17:30:12.633.09-Sep-2020 5302.51  939.21 74.52 20.00 259.52 2556.93
   17:30:12.833.09-Sep-2020 5302.51  939.67 74.52 20.00 259.72 2556.93
   17:30:13.033.09-Sep-2020 5302.51  939.01 74.52 20.00 259.92 2556.93
   17:30:13.233.09-Sep-2020 5302.51  940.13 74.52 20.00 260.12 2556.93
   17:30:13.433.09-Sep-2020 5302.51  940.13 74.52 20.00 260.32 2556.93
   17:30:13.634.09-Sep-2020 5302.51  940.48 74.52 20.00 260.52 2556.93
   17:30:13.834.09-Sep-2020 5302.51  940.77 74.52 20.00 260.72 2556.93
   17:30:14.034.09-Sep-2020 5302.51  941.12 74.52 20.00 260.93 2556.93
   17:30:14.234.09-Sep-2020 5302.51  941.24 74.52 20.00 261.13 2556.93
   17:30:14.434.09-Sep-2020 5302.51  941.24 74.52 20.00 261.33 2556.93
   17:30:14.634.09-Sep-2020 5302.51  941.66 74.52 20.00 261.53 2556.93
   17:30:14.834.09-Sep-2020 5302.51  941.92 74.52 20.00 261.73 2556.93
   17:30:15.034.09-Sep-2020 5302.51  942.15 74.52 20.00 261.93 2556.93
   17:30:15.234.09-Sep-2020 5302.51  942.57 74.52 20.00 262.13 2556.93
   17:30:15.434.09-Sep-2020 5302.51  942.57 74.52 20.00 262.33 2556.93
   17:30:15.634.09-Sep-2020 5302.51  942.99 74.52 20.00 262.53 2556.93
   17:30:15.835.09-Sep-2020 5302.51  943.33 74.52 20.00 262.73 2556.93
   17:30:16.035.09-Sep-2020 5302.51  943.60 74.52 20.00 262.93 2556.93
   17:30:16.235.09-Sep-2020 5302.51  944.01 74.52 20.00 263.13 2556.93
   17:30:16.435.09-Sep-2020 5302.51  944.01 74.52 20.00 263.33 2556.93
   17:30:16.635.09-Sep-2020 5302.51  944.47 74.52 20.00 263.53 2556.93
   17:30:16.835.09-Sep-2020 5302.51  944.20 74.52 20.00 263.73 2556.93
   17:30:17.035.09-Sep-2020 5302.51  945.00 74.52 20.00 263.93 2556.93
   17:30:17.235.09-Sep-2020 5302.51  945.30 74.52 20.00 264.13 2556.93
   17:30:17.435.09-Sep-2020 5302.51  945.30 74.52 20.00 264.33 2556.93
   17:30:17.635.09-Sep-2020 5302.51  945.99 74.52 20.00 264.53 2556.93
   17:30:17.836.09-Sep-2020 5302.51  946.15 74.52 20.00 264.73 2556.93
   17:30:18.036.09-Sep-2020 5302.51  946.43 74.52 20.00 264.93 2556.93
   17:30:18.236.09-Sep-2020 5302.51  946.67 74.52 20.00 265.13 2556.93
   17:30:18.436.09-Sep-2020 5302.51  946.67 74.52 20.00 265.33 2556.93
   17:30:18.636.09-Sep-2020 5302.51  947.11 74.52 20.00 265.53 2556.93
   17:30:18.836.09-Sep-2020 5302.51  947.37 74.52 20.00 265.73 2556.93
   17:30:19.036.09-Sep-2020 5302.51  947.65 74.52 20.00 265.93 2556.93
   17:30:19.236.09-Sep-2020 5302.51  947.93 74.52 20.00 266.13 2556.93
   17:30:19.436.09-Sep-2020 5302.51  947.93 74.52 20.00 266.33 2556.93
   17:30:19.636.09-Sep-2020 5302.51  948.47 74.52 20.00 266.53 2556.93
   17:30:19.836.09-Sep-2020 5302.51  948.71 74.52 20.00 266.73 2556.93
   17:30:20.037.09-Sep-2020 5302.51  948.95 74.52 20.00 266.93 2556.93
   17:30:20.237.09-Sep-2020 5302.51  949.21 74.52 20.00 267.13 2556.93
   17:30:20.437.09-Sep-2020 5302.51  949.21 74.52 20.00 267.33 2556.93
   17:30:20.637.09-Sep-2020 5302.51  949.98 74.52 20.00 267.53 2556.93
   17:30:20.837.09-Sep-2020 5302.51  950.05 74.52 20.00 267.73 2556.93
   17:30:21.037.09-Sep-2020 5302.51  950.28 74.52 20.00 267.93 2556.93
   17:30:21.237.09-Sep-2020 5302.51  950.55 74.52 20.00 268.13 2556.93
   17:30:21.437.09-Sep-2020 5302.51  950.55 74.52 20.00 268.33 2556.93
   17:30:21.637.09-Sep-2020 5302.51  951.10 74.52 20.00 268.53 2556.93
   17:30:21.837.09-Sep-2020 5302.51  951.28 74.52 20.00 268.73 2556.93
   17:30:22.038.09-Sep-2020 5302.51  951.53 74.52 20.00 268.93 2556.93
   17:30:22.238.09-Sep-2020 5302.51  951.75 74.52 20.00 269.13 2556.93
   17:30:22.438.09-Sep-2020 5302.51  951.75 74.52 20.00 269.33 2556.93
   17:30:22.638.09-Sep-2020 5302.51  952.29 74.52 20.00 269.53 2556.93
   17:30:22.838.09-Sep-2020 5302.51  952.51 74.52 20.00 269.73 2556.93
   17:30:23.038.09-Sep-2020 5302.51  952.67 74.52 20.00 269.93 2556.93
   17:30:23.238.09-Sep-2020 5302.51  952.89 74.52 20.00 270.13 2556.93
   17:30:23.438.09-Sep-2020 5302.51  952.89 74.52 20.00 270.33 2556.93
   17:30:23.638.09-Sep-2020 5302.51  952.53 74.52 20.00 270.53 2556.93
   17:30:23.838.09-Sep-2020 5302.51  953.91 74.52 20.00 270.73 2556.93
   17:30:24.038.09-Sep-2020 5302.51  953.87 74.52 20.00 270.93 2556.93
   17:30:24.239.09-Sep-2020 5302.51  954.10 74.52 20.00 271.13 2556.93
