~Version Information
 VERS.                  2.0:   CWLS log ASCII Standard -VERSION 2.0
 WRAP.                   NO:   One line per depth step
~Well Information Block
#MNEM.UNIT     VALUE/NAME     DESCRIPTION
#---------     -----------    ---------------------------
 STRT.S             10:55:02 09-Sep-20: START TIME 10:55:02 09-Sep-20
 STOP.S             11:02:04 09-Sep-20: STOP TIME  11:02:04 09-Sep-20
 STEP.S                   0.00: STEP TIME
 NULL.                 -999.25: NULL VALUE
 MDS .        Operator Entered:  MAG DATA SOURCE
 PDAT.          Mean Sea Level:  PERMANENT DATUM
 DCON.         Sperry Drilling:  DIRECTNL CONTR
 RIG .              West Azeri:  RIG NAME
 WELL.           C40 (Slot 20):  WELL NAME
 SRVC.     Turan Drilling Engineering:  CONTRACTOR
 FLD .                     ACG:  FIELD NAME
 CTRY.              Azerbaijan:  COUNTRY NAME
 PROV.                    Baku:  PROVINCE
 STAT.                    Baku:  STATE NAME
 REGN.                   EESSA:  REGION
 BASE.              Azerbaijan:  LOGGING EQUIPMENT BASE LOCATION
 COMP.     BP Exploration (Caspian Sea) Ltd:  COMPANY
 WTYP.                Deviated:  WELL TYPE
 SON .        AZ-XX-0906344804:  JOB NUMBER
 FTOP.          Formation Tops:  FORM TOPS DESC
 ILTD.               Lithology:  INTERP LTH DESC
 SVYD.                  Survey:  SURVEY DESC
 DMOD.             Drill Model:  DRILL MOD DESC
 HPTY.       Minimum Curvature:  HOLE POS TYPE
 NREF.                    Grid:  NORTH REFERENCE
 SPUD.               01-Jan-20:  SPUD DATE
 DATE.      00.59.44 15-Sep-20:  END TIME
 STIM.      12.00.00 12-Jun-20:  START TIME
 DMF .             Drill Floor:  DRILL MEAS FROM
 DFST.                        :  DIST FSL TEXT
 DFWT.                        :  DIST FWL TEXT
 API .                        :  API NUMBER
 CNTY.                        :  COUNTY
 UWI .                        :  UNIQUE WELL IDENTIFIER
 LOC .                        :  LOCATION
 LMF .             Drill Floor:  LOG MEASURED FROM
 VSNS.m                   2.88:  VERT SEC N/S
 VSEW.m                  -3.84:  VERT SEC E/W
 AGAP.m                  43.42:  AIR GAP
 APD .m                  43.42:  DEPTH ABOVE PD
 WDMS.m                 118.27:  WD ELEV
 EGL .m                   0.00:  GROUND ELEVATION
 EPD .m                   0.00:  ELEVATION
 AZTC.deg                 6.23:  AZM TOTAL CORR
 GRDC.deg                 0.20:  GRID CORRECTION
 MDEC.deg                 6.43:  MAGNETIC DECL
 MDIP.deg                59.49:  MAGNETIC DIP
 MFLD.nT              50277.00:  MAGNETIC FIELD
 GVFD.g                   1.00:  GRAVITY FIELD
 VSDR.deg               173.20:  VERT SEC DIRECT
 TDD .m                5790.01:  TOTAL DEPTH (DRILLER)
 SDEP.m                5231.01:  START DEPTH
 DFSL.m                   0.00:  DISTANCE FSL
 DFWL.m                   0.00:  DISTANCE FWL
 UTMY.m             4435808.83:  UTM Y
 UTMX.m              526266.40:  UTM X
 WHEW.m                  -3.84:  WELL HEAD E/W
 WHNS.m                   2.88:  WELL HEAD N/S
 LONG.deg                51.31:  LONGITUDE
 LATI.deg                40.06:  LATITUDE
 TVDS.m                  43.42:  TVDSS CORRECTN
 DEP .m                 430.08:  DEPTH
 EKB .m                  43.42:  KB ELEVATION
 EDF .m                  43.42:  DF ELEVATION
 TDL .m                 559.00:  TOTAL DEPTH (LOGGER)
 MAGU.                 1849381:  MAGUTM CHECKSUM
 VSC .                       0:  VS TO CLOSURE
~Parameter Information Block
#MNEM.UNIT       Value        Description
#---------     -----------    ---------------------------
 AV  .mps                 4.87:  Ann Velocity 
 AVMX.mps                 7.08:  Max Ann Veloc 
 AZIF.deg               108.87:  Azm, Final 
 BHAT.                  Rotary:  BHA Type 
 BROT.°/30m               0.35:  Build Rotating 
 BS  .in                  8.50:  Bit Size 
 BSZ .in                  8.50:  Bit Size 
 BTPL.psig              360.00:  Bit Press Loss 
 CABU.                     Yes:  Customer Abuse 
 COMM.                     ¬Î:  Run Comments 1 
 TCS .hr                106.24:  Time Ciculation Ended 
 CV  .mps                 1.77:  Crit Velocity 
 CVMX.mps                 2.03:  Max Crit Veloc 
 DD1 .         Aykhan Agagulov:  Direct Drillr 1 
 DD2 .            Nonso Okofor:  Direct Drillr 2 
 DDSV.               Geo-Pilot:  DD Service 
 DEFF.%                  98.00:  % Det Eff 
 DLRX.°/30m               0.50:  Dogleg Rot Max 
 DLSO.°/30m               0.40:  Dogleg Oriented 
 DLSX.°/30m               0.94:  Dogleg Str Max 
 DRET.      20.30.00 08-Sep-20:  Drill End Time 
 DRST.      22.15.00 06-Sep-20:  Drill Start Tim 
 DTIM.hr                 31.31:  Time Drilling 
 EDEP.m                5790.01:  End Depth 
 ENG1.           Amrah Tahirov:  Engineer 1 
 ENG2.         Dair Mahammadov:  Engineer 2 
 ENG3.           Emil Huseynov:  Engineer 3 
 ETIM.      04.01.04 12-Sep-20:  End Time 
 FLOI.gpm               450.00:  Flow In 
 FLON.gpm               450.00:  Flow In Min 
 FLOS.cptm                2.00:  Fluid Loss 
 FLOX.gpm               450.00:  Flow In Max 
 FTRO.       Formation Presure:  FTWD Run Obj 
 HFLO.                      No:  High Flow 
 HPRE.                      No:  High Pressure 
 HTEM.                      No:  High Temp 
 HYDO.m                   1.80:  Hydro Offset 
 IFIN.deg                72.03:  Inc, Final 
 IMAX.deg                73.72:  Inc Max 
 IMIN.deg                70.94:  Inc Min 
 IMND.m                5508.52:  Inc Min Depth 
 IMXD.m                5253.60:  Inc Max Depth 
 JARR.                      No:  Jarring 
 LETM.      20.30.00 08-Sep-20:  Log End Time 
 LOST.hr                     0:  Lost Rig Time 
 LSTM.      22.15.00 06-Sep-20:  Log Start Time 
 MDCL.ppm             36000.00:  Mud Chlorides 
 MDES.     Inversion Oil/Synthetic:  Mud Desc 
 DFD .sg                  1.44:  Mud Density 
 MDMN.sg                  1.44:  Dens Mud Min 
 MDMX.sg                  1.57:  Dens Mud Max 
 MOIL.                      70:  Run Mud Oil % 
 MOWR.                   70:30:  Run Mud OWR 
 MSND.                       0:  Run Mud Sand % 
 MSOL.                      21:  Run Mud Solids% 
 DFV .spqt               68.00:  Mud Viscosity 
 MWOD.in                  6.75:  MWD Tool OD 
 MWSI.                     Yes:  Serv Intrp, MWD 
 OTIM.hr                174.84:  Time Operating 
 PCON.           Look Like New:  Pad Condition 
 PMAX.psia            10616.93:  Press Op, Max 
 PV  .cP                 50.00:  Mud PV 
 RUN .                     700:  Run Number 
 ROPA.m/hr               14.24:  ROP Avg 
 ROPN.m/hr               10.00:  ROP Min 
 ROPX.m/hr               32.00:  ROP Max 
 RPMA.rpm               120.90:  RPM Surface Avg 
 RPMN.rpm               120.00:  RPM Surface Min 
 RPMX.rpm               140.00:  RPM Surface Max 
 RRUN.                    0700:  Rig Run Number 
 RTIM.hr                  3.20:  Time Reaming 
 SAZI.deg               109.99:  Azm, Start 
 SDEP.m                5231.01:  Start Depth 
 SIDD.                      No:  Serv Intrp, DD 
 SINC.deg                73.72:  Inc, Start 
 SPPA.psig             3051.00:  SPP Avg 
 SPPN.psig             2950.00:  SPP Min 
 SPPX.psig             3250.00:  SPP Max 
 STIM.      08.00.00 05-Sep-20:  Start Time 
 SVCS.                 DD, MWD:  Services 
 SVER.                    9.20:  Sperry Version 
 TDAT.m                 559.00:  Tot Depth Attmp 
 TDDF.                      No:  Trip for DD 
 TDLG.m                 559.00:  Tot Depth Loggd 
 TFF .                      No:  Trip for Fail 
 TQAA.f-kp               26.49:  Torque Abs Avg 
 TQAN.f-kp               25.00:  Torque Abs Min 
 TQAX.f-kp               27.00:  Torque Abs Max 
 TRRT.°/30m               1.50:  Turn Rotating 
 MRT .                    HCIM:  Maximum Recorded Temperature 
 TTMX.degC               90.20:  Max Tool Temp 
 VS01.                90542671:  Virtual Str1 SN 
 VS02.                90545185:  Virtual Str2 SN 
 VS03.                90602015:  Virtual Str3 SN 
 VS04.                90515230:  Virtual Str4 SN 
 WBMN.klb                 5.00:  WOB Min 
 WOBA.klb                14.79:  WOB Avg 
 WOBX.klb                20.00:  WOB Max 
 YP  .lhf2               29.00:  Yield Point 
~Curve Information Block
#MNEM.UNIT                 API CODE     Curve Description
#---------               -----------    ---------------------------
 TIME.HHMMSS            00 000 000 000:  GT Time & Date
 GTDEPTH.m              00 000 000 000:  GT Depth
 GTPQH.psia             00 000 000 000:  GT HR Quartz Pressure
 GTTQ.degC              00 000 000 000:  GT Quartz Temperature
 GTTN.NONE              00 000 000 000:  GT Test Number
 GTET.sec               00 000 000 000:  GT Elapsed Test Time
 GTTVD.m                00 000 000 000:  GT True Vertical Depth
#Other Information
#
#WARRANTY: Halliburton will use its best efforts to furnish customers with 
#accurate information and interpretations that are part of, and incident to, the services 
#provided.  However, Halliburton cannot and does not warrant the accuracy 
#or correctness of such information and interpretations.  Under no circumstances should any 
#such information or interpretation be relied upon as the sole basis for any drilling, 
#completion, production, or financial decision or any procedure involving any risk to the 
#safety of any drilling venture, drilling rig or its crew or any other third party.  The 
#Customer has full responsibility for all drilling, completion and production operation.  
#Halliburton makes no representations or warranties, either expressed or 
#implied, including, but not limited to, the implied warranties of merchantability or fitness 
#for a particular purpose, with respect to the services rendered.  In no event will 
#Halliburton be liable for failure to obtain any particular results or for 
#any damages, including, but not limited to, indirect, special or consequential damages, 
#resulting from the use of any information or interpretation provided by Halliburton.
#
~A           TIME           GTDEPTH  GTPQH  GTTQ  GTTN   GTET   GTTVD  
# ...
   10:58:03.041.09-Sep-2020 5456.01 3588.92 76.38 10.00 180.85 2604.72
   10:58:03.241.09-Sep-2020 5456.01 3589.03 76.38 10.00 181.05 2604.72
   10:58:03.441.09-Sep-2020 5456.01 3589.03 76.38 10.00 181.25 2604.72
   10:58:03.641.09-Sep-2020 5456.01 3588.85 76.38 10.00 181.45 2604.72
   10:58:03.841.09-Sep-2020 5456.01 3589.01 76.38 10.00 181.65 2604.72
   10:58:04.041.09-Sep-2020 5456.01 3588.93 76.38 10.00 181.85 2604.72
   10:58:04.241.09-Sep-2020 5456.01 3588.91 76.38 10.00 182.05 2604.72
   10:58:04.441.09-Sep-2020 5456.01 3588.91 76.38 10.00 182.25 2604.72
   10:58:04.642.09-Sep-2020 5456.01 3588.91 76.38 10.00 182.45 2604.72
   10:58:04.842.09-Sep-2020 5456.01 3588.93 76.38 10.00 182.65 2604.72
   10:58:05.042.09-Sep-2020 5456.01 3588.92 76.38 10.00 182.85 2604.72
   10:58:05.242.09-Sep-2020 5456.01 3588.93 76.38 10.00 183.05 2604.72
   10:58:05.442.09-Sep-2020 5456.01 3588.93 76.38 10.00 183.25 2604.72
   10:58:05.642.09-Sep-2020 5456.01 3588.93 76.38 10.00 183.45 2604.72
   10:58:05.842.09-Sep-2020 5456.01 3588.93 76.38 10.00 183.65 2604.72
   10:58:06.042.09-Sep-2020 5456.01 3588.92 76.38 10.00 183.85 2604.72
   10:58:06.242.09-Sep-2020 5456.01 3588.91 76.38 10.00 184.05 2604.72
   10:58:06.442.09-Sep-2020 5456.01 3588.91 76.38 10.00 184.25 2604.72
   10:58:06.642.09-Sep-2020 5456.01 3588.92 76.38 10.00 184.45 2604.72
   10:58:06.842.09-Sep-2020 5456.01 3588.92 76.38 10.00 184.65 2604.72
   10:58:07.042.09-Sep-2020 5456.01 3588.94 76.38 10.00 184.85 2604.72
   10:58:07.242.09-Sep-2020 5456.01 3588.93 76.38 10.00 185.05 2604.72
   10:58:07.442.09-Sep-2020 5456.01 3588.93 76.38 10.00 185.25 2604.72
   10:58:07.642.09-Sep-2020 5456.01 3588.90 76.38 10.00 185.45 2604.72
   10:58:07.842.09-Sep-2020 5456.01 3588.92 76.38 10.00 185.65 2604.72
   10:58:08.042.09-Sep-2020 5456.01 3588.92 76.38 10.00 185.85 2604.72
   10:58:08.243.09-Sep-2020 5456.01 3589.05 76.38 10.00 186.05 2604.72
   10:58:08.443.09-Sep-2020 5456.01 3589.05 76.38 10.00 186.25 2604.72
   10:58:08.643.09-Sep-2020 5456.01 3588.92 76.38 10.00 186.45 2604.72
   10:58:08.843.09-Sep-2020 5456.01 3588.92 76.38 10.00 186.65 2604.72
   10:58:09.043.09-Sep-2020 5456.01 3588.95 76.38 10.00 186.85 2604.72
   10:58:09.243.09-Sep-2020 5456.01 3588.92 76.38 10.00 187.05 2604.72
   10:58:09.443.09-Sep-2020 5456.01 3588.92 76.38 10.00 187.25 2604.72
   10:58:09.643.09-Sep-2020 5456.01 3588.91 76.38 10.00 187.45 2604.72
   10:58:09.843.09-Sep-2020 5456.01 3588.92 76.38 10.00 187.65 2604.72
   10:58:10.043.09-Sep-2020 5456.01 3588.92 76.38 10.00 187.85 2604.72
   10:58:10.243.09-Sep-2020 5456.01 3588.95 76.38 10.00 188.05 2604.72
   10:58:10.443.09-Sep-2020 5456.01 3588.95 76.38 10.00 188.25 2604.72
   10:58:10.643.09-Sep-2020 5456.01 3588.45 76.38 10.00 188.45 2604.72
   10:58:10.843.09-Sep-2020 5456.01 3589.41 76.38 10.00 188.65 2604.72
   10:58:11.043.09-Sep-2020 5456.01 3588.92 76.38 10.00 188.85 2604.72
   10:58:11.243.09-Sep-2020 5456.01 3588.94 76.38 10.00 189.05 2604.72
   10:58:11.443.09-Sep-2020 5456.01 3588.94 76.38 10.00 189.25 2604.72
   10:58:11.643.09-Sep-2020 5456.01 3588.98 76.38 10.00 189.45 2604.72
   10:58:11.844.09-Sep-2020 5456.01 3588.84 76.38 10.00 189.65 2604.72
   10:58:12.044.09-Sep-2020 5456.01 3589.05 76.38 10.00 189.85 2604.72
   10:58:12.244.09-Sep-2020 5456.01 3588.96 76.38 10.00 190.05 2604.72
   10:58:12.444.09-Sep-2020 5456.01 3588.96 76.38 10.00 190.25 2604.72
   10:58:12.644.09-Sep-2020 5456.01 3588.90 76.38 10.00 190.45 2604.72
   10:58:12.844.09-Sep-2020 5456.01 3589.04 76.38 10.00 190.65 2604.72
   10:58:13.044.09-Sep-2020 5456.01 3588.94 76.38 10.00 190.85 2604.72
   10:58:13.244.09-Sep-2020 5456.01 3588.93 76.38 10.00 191.05 2604.72
   10:58:13.444.09-Sep-2020 5456.01 3588.93 76.38 10.00 191.25 2604.72
   10:58:13.644.09-Sep-2020 5456.01 3589.20 76.38 10.00 191.45 2604.72
   10:58:13.844.09-Sep-2020 5456.01 3588.99 76.38 10.00 191.65 2604.72
   10:58:14.044.09-Sep-2020 5456.01 3588.93 76.38 10.00 191.85 2604.72
   10:58:14.244.09-Sep-2020 5456.01 3588.99 76.38 10.00 192.05 2604.72
   10:58:14.444.09-Sep-2020 5456.01 3588.99 76.38 10.00 192.25 2604.72
   10:58:14.644.09-Sep-2020 5456.01 3588.89 76.38 10.00 192.45 2604.72
   10:58:14.844.09-Sep-2020 5456.01 3589.04 76.38 10.00 192.65 2604.72
   10:58:15.044.09-Sep-2020 5456.01 3588.91 76.38 10.00 192.85 2604.72
   10:58:15.244.09-Sep-2020 5456.01 3588.91 76.38 10.00 193.05 2604.72
   10:58:15.445.09-Sep-2020 5456.01 3588.91 76.38 10.00 193.25 2604.72
   10:58:15.645.09-Sep-2020 5456.01 3589.07 76.38 10.00 193.45 2604.72
   10:58:15.845.09-Sep-2020 5456.01 3588.85 76.38 10.00 193.65 2604.72
   10:58:16.045.09-Sep-2020 5456.01 3588.94 76.38 10.00 193.85 2604.72
   10:58:16.245.09-Sep-2020 5456.01 3588.95 76.38 10.00 194.05 2604.72
   10:58:16.445.09-Sep-2020 5456.01 3588.95 76.38 10.00 194.25 2604.72
   10:58:16.645.09-Sep-2020 5456.01 3588.94 76.38 10.00 194.45 2604.72
   10:58:16.845.09-Sep-2020 5456.01 3588.94 76.38 10.00 194.65 2604.72
   10:58:17.045.09-Sep-2020 5456.01 3588.95 76.38 10.00 194.85 2604.72
   10:58:17.245.09-Sep-2020 5456.01 3588.96 76.38 10.00 195.05 2604.72
   10:58:17.445.09-Sep-2020 5456.01 3588.96 76.38 10.00 195.25 2604.72
   10:58:17.645.09-Sep-2020 5456.01 3588.94 76.38 10.00 195.45 2604.72
   10:58:17.845.09-Sep-2020 5456.01 3588.95 76.38 10.00 195.65 2604.72
   10:58:18.045.09-Sep-2020 5456.01 3588.96 76.38 10.00 195.85 2604.72
   10:58:18.245.09-Sep-2020 5456.01 3588.96 76.38 10.00 196.05 2604.72
   10:58:18.445.09-Sep-2020 5456.01 3588.96 76.38 10.00 196.25 2604.72
   10:58:18.645.09-Sep-2020 5456.01 3589.18 76.38 10.00 196.45 2604.72
   10:58:18.845.09-Sep-2020 5456.01 3589.01 76.38 10.00 196.65 2604.72
   10:58:19.046.09-Sep-2020 5456.01 3588.93 76.38 10.00 196.85 2604.72
   10:58:19.246.09-Sep-2020 5456.01 3588.98 76.38 10.00 197.05 2604.72
   10:58:19.446.09-Sep-2020 5456.01 3588.98 76.38 10.00 197.25 2604.72
   10:58:19.646.09-Sep-2020 5456.01 3588.90 76.38 10.00 197.45 2604.72
   10:58:19.846.09-Sep-2020 5456.01 3588.95 76.38 10.00 197.65 2604.72
   10:58:20.046.09-Sep-2020 5456.01 3588.95 76.38 10.00 197.85 2604.72
   10:58:20.246.09-Sep-2020 5456.01 3588.93 76.38 10.00 198.05 2604.72
   10:58:20.446.09-Sep-2020 5456.01 3588.93 76.38 10.00 198.25 2604.72
   10:58:20.646.09-Sep-2020 5456.01 3588.95 76.38 10.00 198.45 2604.72
   10:58:20.846.09-Sep-2020 5456.01 3588.94 76.38 10.00 198.65 2604.72
   10:58:21.046.09-Sep-2020 5456.01 3588.95 76.38 10.00 198.85 2604.72
   10:58:21.246.09-Sep-2020 5456.01 3588.95 76.38 10.00 199.05 2604.72
   10:58:21.446.09-Sep-2020 5456.01 3588.95 76.38 10.00 199.26 2604.72
   10:58:21.646.09-Sep-2020 5456.01 3588.98 76.38 10.00 199.46 2604.72
   10:58:21.846.09-Sep-2020 5456.01 3588.85 76.38 10.00 199.66 2604.72
   10:58:22.046.09-Sep-2020 5456.01 3589.05 76.38 10.00 199.86 2604.72
   10:58:22.246.09-Sep-2020 5456.01 3588.95 76.38 10.00 200.06 2604.72
   10:58:22.446.09-Sep-2020 5456.01 3588.95 76.38 10.00 200.26 2604.72
   10:58:22.647.09-Sep-2020 5456.01 3588.98 76.38 10.00 200.46 2604.72
   10:58:22.847.09-Sep-2020 5456.01 3588.95 76.38 10.00 200.66 2604.72
   10:58:23.047.09-Sep-2020 5456.01 3589.03 76.38 10.00 200.86 2604.72
   10:58:23.247.09-Sep-2020 5456.01 3588.91 76.38 10.00 201.06 2604.72
   10:58:23.447.09-Sep-2020 5456.01 3588.91 76.38 10.00 201.26 2604.72
   10:58:23.647.09-Sep-2020 5456.01 3588.92 76.38 10.00 201.46 2604.72
   10:58:23.847.09-Sep-2020 5456.01 3589.14 76.38 10.00 201.66 2604.72
   10:58:24.047.09-Sep-2020 5456.01 3588.81 76.38 10.00 201.86 2604.72
   10:58:24.247.09-Sep-2020 5456.01 3588.95 76.38 10.00 202.06 2604.72
   10:58:24.447.09-Sep-2020 5456.01 3588.95 76.38 10.00 202.26 2604.72
   10:58:24.647.09-Sep-2020 5456.01 3588.59 76.38 10.00 202.46 2604.72
   10:58:24.847.09-Sep-2020 5456.01 3589.38 76.38 10.00 202.66 2604.72
   10:58:25.047.09-Sep-2020 5456.01 3588.94 76.38 10.00 202.86 2604.72
   10:58:25.247.09-Sep-2020 5456.01 3588.96 76.38 10.00 203.06 2604.72
   10:58:25.447.09-Sep-2020 5456.01 3588.96 76.38 10.00 203.26 2604.72
