~Version Information
 VERS.                  2.0:   CWLS log ASCII Standard -VERSION 2.0
 WRAP.                   NO:   One line per depth step
~Well Information Block
#MNEM.UNIT     VALUE/NAME     DESCRIPTION
#---------     -----------    ---------------------------
 STRT.S             10:55:02 09-Sep-20: START TIME 10:55:02 09-Sep-20
 STOP.S             11:02:04 09-Sep-20: STOP TIME  11:02:04 09-Sep-20
 STEP.S                   0.00: STEP TIME
 NULL.                 -999.25: NULL VALUE
 MDS .        Operator Entered:  MAG DATA SOURCE
 PDAT.          Mean Sea Level:  PERMANENT DATUM
 DCON.         Sperry Drilling:  DIRECTNL CONTR
 RIG .              West Azeri:  RIG NAME
 WELL.           C40 (Slot 20):  WELL NAME
 SRVC.     Turan Drilling Engineering:  CONTRACTOR
 FLD .                     ACG:  FIELD NAME
 CTRY.              Azerbaijan:  COUNTRY NAME
 PROV.                    Baku:  PROVINCE
 STAT.                    Baku:  STATE NAME
 REGN.                   EESSA:  REGION
 BASE.              Azerbaijan:  LOGGING EQUIPMENT BASE LOCATION
 COMP.     BP Exploration (Caspian Sea) Ltd:  COMPANY
 WTYP.                Deviated:  WELL TYPE
 SON .        AZ-XX-0906344804:  JOB NUMBER
 FTOP.          Formation Tops:  FORM TOPS DESC
 ILTD.               Lithology:  INTERP LTH DESC
 SVYD.                  Survey:  SURVEY DESC
 DMOD.             Drill Model:  DRILL MOD DESC
 HPTY.       Minimum Curvature:  HOLE POS TYPE
 NREF.                    Grid:  NORTH REFERENCE
 SPUD.               01-Jan-20:  SPUD DATE
 DATE.      00.59.44 15-Sep-20:  END TIME
 STIM.      12.00.00 12-Jun-20:  START TIME
 DMF .             Drill Floor:  DRILL MEAS FROM
 DFST.                        :  DIST FSL TEXT
 DFWT.                        :  DIST FWL TEXT
 API .                        :  API NUMBER
 CNTY.                        :  COUNTY
 UWI .                        :  UNIQUE WELL IDENTIFIER
 LOC .                        :  LOCATION
 LMF .             Drill Floor:  LOG MEASURED FROM
 VSNS.m                   2.88:  VERT SEC N/S
 VSEW.m                  -3.84:  VERT SEC E/W
 AGAP.m                  43.42:  AIR GAP
 APD .m                  43.42:  DEPTH ABOVE PD
 WDMS.m                 118.27:  WD ELEV
 EGL .m                   0.00:  GROUND ELEVATION
 EPD .m                   0.00:  ELEVATION
 AZTC.deg                 6.23:  AZM TOTAL CORR
 GRDC.deg                 0.20:  GRID CORRECTION
 MDEC.deg                 6.43:  MAGNETIC DECL
 MDIP.deg                59.49:  MAGNETIC DIP
 MFLD.nT              50277.00:  MAGNETIC FIELD
 GVFD.g                   1.00:  GRAVITY FIELD
 VSDR.deg               173.20:  VERT SEC DIRECT
 TDD .m                5790.01:  TOTAL DEPTH (DRILLER)
 SDEP.m                5231.01:  START DEPTH
 DFSL.m                   0.00:  DISTANCE FSL
 DFWL.m                   0.00:  DISTANCE FWL
 UTMY.m             4435808.83:  UTM Y
 UTMX.m              526266.40:  UTM X
 WHEW.m                  -3.84:  WELL HEAD E/W
 WHNS.m                   2.88:  WELL HEAD N/S
 LONG.deg                51.31:  LONGITUDE
 LATI.deg                40.06:  LATITUDE
 TVDS.m                  43.42:  TVDSS CORRECTN
 DEP .m                 430.08:  DEPTH
 EKB .m                  43.42:  KB ELEVATION
 EDF .m                  43.42:  DF ELEVATION
 TDL .m                 559.00:  TOTAL DEPTH (LOGGER)
 MAGU.                 1849381:  MAGUTM CHECKSUM
 VSC .                       0:  VS TO CLOSURE
~Parameter Information Block
#MNEM.UNIT       Value        Description
#---------     -----------    ---------------------------
 AV  .mps                 4.87:  Ann Velocity 
 AVMX.mps                 7.08:  Max Ann Veloc 
 AZIF.deg               108.87:  Azm, Final 
 BHAT.                  Rotary:  BHA Type 
 BROT.°/30m               0.35:  Build Rotating 
 BS  .in                  8.50:  Bit Size 
 BSZ .in                  8.50:  Bit Size 
 BTPL.psig              360.00:  Bit Press Loss 
 CABU.                     Yes:  Customer Abuse 
 COMM.                     ¬Î:  Run Comments 1 
 TCS .hr                106.24:  Time Ciculation Ended 
 CV  .mps                 1.77:  Crit Velocity 
 CVMX.mps                 2.03:  Max Crit Veloc 
 DD1 .         Aykhan Agagulov:  Direct Drillr 1 
 DD2 .            Nonso Okofor:  Direct Drillr 2 
 DDSV.               Geo-Pilot:  DD Service 
 DEFF.%                  98.00:  % Det Eff 
 DLRX.°/30m               0.50:  Dogleg Rot Max 
 DLSO.°/30m               0.40:  Dogleg Oriented 
 DLSX.°/30m               0.94:  Dogleg Str Max 
 DRET.      20.30.00 08-Sep-20:  Drill End Time 
 DRST.      22.15.00 06-Sep-20:  Drill Start Tim 
 DTIM.hr                 31.31:  Time Drilling 
 EDEP.m                5790.01:  End Depth 
 ENG1.           Amrah Tahirov:  Engineer 1 
 ENG2.         Dair Mahammadov:  Engineer 2 
 ENG3.           Emil Huseynov:  Engineer 3 
 ETIM.      04.01.04 12-Sep-20:  End Time 
 FLOI.gpm               450.00:  Flow In 
 FLON.gpm               450.00:  Flow In Min 
 FLOS.cptm                2.00:  Fluid Loss 
 FLOX.gpm               450.00:  Flow In Max 
 FTRO.       Formation Presure:  FTWD Run Obj 
 HFLO.                      No:  High Flow 
 HPRE.                      No:  High Pressure 
 HTEM.                      No:  High Temp 
 HYDO.m                   1.80:  Hydro Offset 
 IFIN.deg                72.03:  Inc, Final 
 IMAX.deg                73.72:  Inc Max 
 IMIN.deg                70.94:  Inc Min 
 IMND.m                5508.52:  Inc Min Depth 
 IMXD.m                5253.60:  Inc Max Depth 
 JARR.                      No:  Jarring 
 LETM.      20.30.00 08-Sep-20:  Log End Time 
 LOST.hr                     0:  Lost Rig Time 
 LSTM.      22.15.00 06-Sep-20:  Log Start Time 
 MDCL.ppm             36000.00:  Mud Chlorides 
 MDES.     Inversion Oil/Synthetic:  Mud Desc 
 DFD .sg                  1.44:  Mud Density 
 MDMN.sg                  1.44:  Dens Mud Min 
 MDMX.sg                  1.57:  Dens Mud Max 
 MOIL.                      70:  Run Mud Oil % 
 MOWR.                   70:30:  Run Mud OWR 
 MSND.                       0:  Run Mud Sand % 
 MSOL.                      21:  Run Mud Solids% 
 DFV .spqt               68.00:  Mud Viscosity 
 MWOD.in                  6.75:  MWD Tool OD 
 MWSI.                     Yes:  Serv Intrp, MWD 
 OTIM.hr                174.84:  Time Operating 
 PCON.           Look Like New:  Pad Condition 
 PMAX.psia            10616.93:  Press Op, Max 
 PV  .cP                 50.00:  Mud PV 
 RUN .                     700:  Run Number 
 ROPA.m/hr               14.24:  ROP Avg 
 ROPN.m/hr               10.00:  ROP Min 
 ROPX.m/hr               32.00:  ROP Max 
 RPMA.rpm               120.90:  RPM Surface Avg 
 RPMN.rpm               120.00:  RPM Surface Min 
 RPMX.rpm               140.00:  RPM Surface Max 
 RRUN.                    0700:  Rig Run Number 
 RTIM.hr                  3.20:  Time Reaming 
 SAZI.deg               109.99:  Azm, Start 
 SDEP.m                5231.01:  Start Depth 
 SIDD.                      No:  Serv Intrp, DD 
 SINC.deg                73.72:  Inc, Start 
 SPPA.psig             3051.00:  SPP Avg 
 SPPN.psig             2950.00:  SPP Min 
 SPPX.psig             3250.00:  SPP Max 
 STIM.      08.00.00 05-Sep-20:  Start Time 
 SVCS.                 DD, MWD:  Services 
 SVER.                    9.20:  Sperry Version 
 TDAT.m                 559.00:  Tot Depth Attmp 
 TDDF.                      No:  Trip for DD 
 TDLG.m                 559.00:  Tot Depth Loggd 
 TFF .                      No:  Trip for Fail 
 TQAA.f-kp               26.49:  Torque Abs Avg 
 TQAN.f-kp               25.00:  Torque Abs Min 
 TQAX.f-kp               27.00:  Torque Abs Max 
 TRRT.°/30m               1.50:  Turn Rotating 
 MRT .                    HCIM:  Maximum Recorded Temperature 
 TTMX.degC               90.20:  Max Tool Temp 
 VS01.                90542671:  Virtual Str1 SN 
 VS02.                90545185:  Virtual Str2 SN 
 VS03.                90602015:  Virtual Str3 SN 
 VS04.                90515230:  Virtual Str4 SN 
 WBMN.klb                 5.00:  WOB Min 
 WOBA.klb                14.79:  WOB Avg 
 WOBX.klb                20.00:  WOB Max 
 YP  .lhf2               29.00:  Yield Point 
~Curve Information Block
#MNEM.UNIT                 API CODE     Curve Description
#---------               -----------    ---------------------------
 TIME.HHMMSS            00 000 000 000:  GT Time & Date
 GTDEPTH.m              00 000 000 000:  GT Depth
 GTPQH.psia             00 000 000 000:  GT HR Quartz Pressure
 GTTQ.degC              00 000 000 000:  GT Quartz Temperature
 GTTN.NONE              00 000 000 000:  GT Test Number
 GTET.sec               00 000 000 000:  GT Elapsed Test Time
 GTTVD.m                00 000 000 000:  GT True Vertical Depth
#Other Information
#
#WARRANTY: Halliburton will use its best efforts to furnish customers with 
#accurate information and interpretations that are part of, and incident to, the services 
#provided.  However, Halliburton cannot and does not warrant the accuracy 
#or correctness of such information and interpretations.  Under no circumstances should any 
#such information or interpretation be relied upon as the sole basis for any drilling, 
#completion, production, or financial decision or any procedure involving any risk to the 
#safety of any drilling venture, drilling rig or its crew or any other third party.  The 
#Customer has full responsibility for all drilling, completion and production operation.  
#Halliburton makes no representations or warranties, either expressed or 
#implied, including, but not limited to, the implied warranties of merchantability or fitness 
#for a particular purpose, with respect to the services rendered.  In no event will 
#Halliburton be liable for failure to obtain any particular results or for 
#any damages, including, but not limited to, indirect, special or consequential damages, 
#resulting from the use of any information or interpretation provided by Halliburton.
#
~A           TIME           GTDEPTH  GTPQH  GTTQ  GTTN   GTET   GTTVD  
# ...
   10:56:55.222.09-Sep-2020 5456.01 3589.01 76.37 10.00 113.03 2604.72
   10:56:55.422.09-Sep-2020 5456.01 3589.01 76.37 10.00 113.23 2604.72
   10:56:55.622.09-Sep-2020 5456.01 3588.48 76.37 10.00 113.43 2604.72
   10:56:55.823.09-Sep-2020 5456.01 3589.47 76.37 10.00 113.63 2604.72
   10:56:56.023.09-Sep-2020 5456.01 3588.95 76.37 10.00 113.83 2604.72
   10:56:56.223.09-Sep-2020 5456.01 3588.97 76.37 10.00 114.03 2604.72
   10:56:56.423.09-Sep-2020 5456.01 3588.97 76.37 10.00 114.23 2604.72
   10:56:56.623.09-Sep-2020 5456.01 3589.01 76.37 10.00 114.43 2604.72
   10:56:56.823.09-Sep-2020 5456.01 3588.97 76.37 10.00 114.63 2604.72
   10:56:57.023.09-Sep-2020 5456.01 3588.96 76.37 10.00 114.83 2604.72
   10:56:57.223.09-Sep-2020 5456.01 3588.97 76.37 10.00 115.03 2604.72
   10:56:57.423.09-Sep-2020 5456.01 3588.97 76.37 10.00 115.23 2604.72
   10:56:57.623.09-Sep-2020 5456.01 3588.98 76.37 10.00 115.43 2604.72
   10:56:57.823.09-Sep-2020 5456.01 3588.97 76.37 10.00 115.63 2604.72
   10:56:58.023.09-Sep-2020 5456.01 3588.97 76.37 10.00 115.83 2604.72
   10:56:58.223.09-Sep-2020 5456.01 3588.97 76.37 10.00 116.03 2604.72
   10:56:58.423.09-Sep-2020 5456.01 3588.97 76.37 10.00 116.23 2604.72
   10:56:58.623.09-Sep-2020 5456.01 3588.96 76.37 10.00 116.43 2604.72
   10:56:58.823.09-Sep-2020 5456.01 3588.97 76.37 10.00 116.63 2604.72
   10:56:59.023.09-Sep-2020 5456.01 3588.98 76.37 10.00 116.83 2604.72
   10:56:59.223.09-Sep-2020 5456.01 3588.98 76.37 10.00 117.03 2604.72
   10:56:59.424.09-Sep-2020 5456.01 3588.98 76.37 10.00 117.23 2604.72
   10:56:59.624.09-Sep-2020 5456.01 3588.98 76.37 10.00 117.43 2604.72
   10:56:59.824.09-Sep-2020 5456.01 3588.97 76.37 10.00 117.63 2604.72
   10:57:00.024.09-Sep-2020 5456.01 3588.95 76.37 10.00 117.83 2604.72
   10:57:00.224.09-Sep-2020 5456.01 3589.04 76.37 10.00 118.03 2604.72
   10:57:00.424.09-Sep-2020 5456.01 3589.04 76.37 10.00 118.23 2604.72
   10:57:00.624.09-Sep-2020 5456.01 3588.98 76.37 10.00 118.43 2604.72
   10:57:00.824.09-Sep-2020 5456.01 3588.96 76.37 10.00 118.63 2604.72
   10:57:01.024.09-Sep-2020 5456.01 3588.98 76.37 10.00 118.83 2604.72
   10:57:01.224.09-Sep-2020 5456.01 3588.97 76.37 10.00 119.03 2604.72
   10:57:01.424.09-Sep-2020 5456.01 3588.97 76.37 10.00 119.23 2604.72
   10:57:01.624.09-Sep-2020 5456.01 3588.96 76.37 10.00 119.43 2604.72
   10:57:01.824.09-Sep-2020 5456.01 3588.95 76.37 10.00 119.63 2604.72
   10:57:02.024.09-Sep-2020 5456.01 3588.98 76.37 10.00 119.83 2604.72
   10:57:02.224.09-Sep-2020 5456.01 3588.98 76.37 10.00 120.03 2604.72
   10:57:02.424.09-Sep-2020 5456.01 3588.98 76.37 10.00 120.23 2604.72
   10:57:02.624.09-Sep-2020 5456.01 3588.54 76.37 10.00 120.43 2604.72
   10:57:02.824.09-Sep-2020 5456.01 3589.38 76.37 10.00 120.63 2604.72
   10:57:03.025.09-Sep-2020 5456.01 3588.99 76.37 10.00 120.83 2604.72
   10:57:03.225.09-Sep-2020 5456.01 3588.97 76.37 10.00 121.03 2604.72
   10:57:03.425.09-Sep-2020 5456.01 3588.97 76.37 10.00 121.23 2604.72
   10:57:03.625.09-Sep-2020 5456.01 3588.99 76.37 10.00 121.43 2604.72
   10:57:03.825.09-Sep-2020 5456.01 3588.46 76.37 10.00 121.63 2604.72
   10:57:04.025.09-Sep-2020 5456.01 3589.50 76.37 10.00 121.83 2604.72
   10:57:04.225.09-Sep-2020 5456.01 3588.98 76.37 10.00 122.03 2604.72
   10:57:04.425.09-Sep-2020 5456.01 3588.98 76.37 10.00 122.23 2604.72
   10:57:04.625.09-Sep-2020 5456.01 3588.46 76.37 10.00 122.43 2604.72
   10:57:04.825.09-Sep-2020 5456.01 3589.51 76.37 10.00 122.63 2604.72
   10:57:05.025.09-Sep-2020 5456.01 3588.98 76.37 10.00 122.83 2604.72
   10:57:05.225.09-Sep-2020 5456.01 3588.98 76.37 10.00 123.03 2604.72
   10:57:05.425.09-Sep-2020 5456.01 3588.98 76.37 10.00 123.23 2604.72
   10:57:05.625.09-Sep-2020 5456.01 3589.03 76.37 10.00 123.43 2604.72
   10:57:05.825.09-Sep-2020 5456.01 3589.00 76.37 10.00 123.63 2604.72
   10:57:06.025.09-Sep-2020 5456.01 3588.97 76.37 10.00 123.83 2604.72
   10:57:06.225.09-Sep-2020 5456.01 3588.99 76.37 10.00 124.03 2604.72
   10:57:06.425.09-Sep-2020 5456.01 3588.99 76.37 10.00 124.23 2604.72
   10:57:06.626.09-Sep-2020 5456.01 3588.90 76.37 10.00 124.43 2604.72
   10:57:06.826.09-Sep-2020 5456.01 3588.98 76.37 10.00 124.63 2604.72
   10:57:07.026.09-Sep-2020 5456.01 3589.00 76.37 10.00 124.83 2604.72
   10:57:07.226.09-Sep-2020 5456.01 3588.99 76.37 10.00 125.03 2604.72
   10:57:07.426.09-Sep-2020 5456.01 3588.99 76.37 10.00 125.23 2604.72
   10:57:07.626.09-Sep-2020 5456.01 3589.05 76.37 10.00 125.43 2604.72
   10:57:07.826.09-Sep-2020 5456.01 3588.96 76.37 10.00 125.63 2604.72
   10:57:08.026.09-Sep-2020 5456.01 3588.98 76.37 10.00 125.83 2604.72
   10:57:08.226.09-Sep-2020 5456.01 3588.97 76.37 10.00 126.03 2604.72
   10:57:08.426.09-Sep-2020 5456.01 3588.97 76.37 10.00 126.23 2604.72
   10:57:08.626.09-Sep-2020 5456.01 3588.97 76.37 10.00 126.43 2604.72
   10:57:08.826.09-Sep-2020 5456.01 3589.00 76.37 10.00 126.63 2604.72
   10:57:09.026.09-Sep-2020 5456.01 3588.99 76.37 10.00 126.84 2604.72
   10:57:09.226.09-Sep-2020 5456.01 3588.99 76.37 10.00 127.04 2604.72
   10:57:09.426.09-Sep-2020 5456.01 3588.99 76.37 10.00 127.24 2604.72
   10:57:09.626.09-Sep-2020 5456.01 3588.98 76.37 10.00 127.44 2604.72
   10:57:09.826.09-Sep-2020 5456.01 3588.99 76.37 10.00 127.64 2604.72
   10:57:10.026.09-Sep-2020 5456.01 3588.99 76.37 10.00 127.84 2604.72
   10:57:10.227.09-Sep-2020 5456.01 3588.98 76.37 10.00 128.04 2604.72
   10:57:10.427.09-Sep-2020 5456.01 3588.98 76.37 10.00 128.24 2604.72
   10:57:10.627.09-Sep-2020 5456.01 3589.01 76.37 10.00 128.44 2604.72
   10:57:10.827.09-Sep-2020 5456.01 3588.99 76.37 10.00 128.64 2604.72
   10:57:11.027.09-Sep-2020 5456.01 3588.98 76.37 10.00 128.84 2604.72
   10:57:11.227.09-Sep-2020 5456.01 3588.98 76.37 10.00 129.04 2604.72
   10:57:11.427.09-Sep-2020 5456.01 3588.98 76.37 10.00 129.24 2604.72
   10:57:11.627.09-Sep-2020 5456.01 3588.88 76.37 10.00 129.44 2604.72
   10:57:11.827.09-Sep-2020 5456.01 3588.99 76.37 10.00 129.64 2604.72
   10:57:12.027.09-Sep-2020 5456.01 3588.99 76.37 10.00 129.84 2604.72
   10:57:12.227.09-Sep-2020 5456.01 3588.99 76.37 10.00 130.04 2604.72
   10:57:12.427.09-Sep-2020 5456.01 3589.00 76.37 10.00 130.24 2604.72
   10:57:12.627.09-Sep-2020 5456.01 3588.98 76.37 10.00 130.44 2604.72
   10:57:12.827.09-Sep-2020 5456.01 3588.98 76.37 10.00 130.64 2604.72
   10:57:13.027.09-Sep-2020 5456.01 3588.98 76.37 10.00 130.84 2604.72
   10:57:13.227.09-Sep-2020 5456.01 3588.99 76.37 10.00 131.04 2604.72
   10:57:13.427.09-Sep-2020 5456.01 3588.99 76.37 10.00 131.24 2604.72
   10:57:13.627.09-Sep-2020 5456.01 3589.01 76.37 10.00 131.44 2604.72
   10:57:13.828.09-Sep-2020 5456.01 3588.50 76.37 10.00 131.64 2604.72
   10:57:14.028.09-Sep-2020 5456.01 3589.48 76.37 10.00 131.84 2604.72
   10:57:14.228.09-Sep-2020 5456.01 3588.98 76.37 10.00 132.04 2604.72
   10:57:14.428.09-Sep-2020 5456.01 3588.98 76.37 10.00 132.24 2604.72
   10:57:14.628.09-Sep-2020 5456.01 3588.96 76.37 10.00 132.44 2604.72
   10:57:14.828.09-Sep-2020 5456.01 3589.03 76.37 10.00 132.64 2604.72
   10:57:15.028.09-Sep-2020 5456.01 3588.96 76.37 10.00 132.84 2604.72
   10:57:15.228.09-Sep-2020 5456.01 3589.04 76.37 10.00 133.04 2604.72
   10:57:15.428.09-Sep-2020 5456.01 3589.04 76.37 10.00 133.24 2604.72
   10:57:15.628.09-Sep-2020 5456.01 3588.96 76.37 10.00 133.44 2604.72
   10:57:15.828.09-Sep-2020 5456.01 3589.02 76.37 10.00 133.64 2604.72
   10:57:16.028.09-Sep-2020 5456.01 3589.01 76.37 10.00 133.84 2604.72
   10:57:16.228.09-Sep-2020 5456.01 3589.02 76.37 10.00 134.04 2604.72
   10:57:16.428.09-Sep-2020 5456.01 3589.02 76.37 10.00 134.24 2604.72
   10:57:16.628.09-Sep-2020 5456.01 3588.66 76.37 10.00 134.44 2604.72
   10:57:16.828.09-Sep-2020 5456.01 3589.36 76.37 10.00 134.64 2604.72
   10:57:17.028.09-Sep-2020 5456.01 3589.03 76.37 10.00 134.84 2604.72
   10:57:17.228.09-Sep-2020 5456.01 3588.98 76.37 10.00 135.04 2604.72
   10:57:17.428.09-Sep-2020 5456.01 3588.98 76.37 10.00 135.24 2604.72
   10:57:17.629.09-Sep-2020 5456.01 3589.03 76.37 10.00 135.44 2604.72
