~Version Information
 VERS.                  2.0:   CWLS log ASCII Standard -VERSION 2.0
 WRAP.                   NO:   One line per depth step
~Well Information Block
#MNEM.UNIT     VALUE/NAME     DESCRIPTION
#---------     -----------    ---------------------------
 STRT.S             18:49:58 09-Sep-20: START TIME 18:49:58 09-Sep-20
 STOP.S             18:58:03 09-Sep-20: STOP TIME  18:58:03 09-Sep-20
 STEP.S                   0.00: STEP TIME
 NULL.                 -999.25: NULL VALUE
 MDS .        Operator Entered:  MAG DATA SOURCE
 PDAT.          Mean Sea Level:  PERMANENT DATUM
 DCON.         Sperry Drilling:  DIRECTNL CONTR
 RIG .              West Azeri:  RIG NAME
 WELL.           C40 (Slot 20):  WELL NAME
 SRVC.     Turan Drilling Engineering:  CONTRACTOR
 FLD .                     ACG:  FIELD NAME
 CTRY.              Azerbaijan:  COUNTRY NAME
 PROV.                    Baku:  PROVINCE
 STAT.                    Baku:  STATE NAME
 REGN.                   EESSA:  REGION
 BASE.              Azerbaijan:  LOGGING EQUIPMENT BASE LOCATION
 COMP.     BP Exploration (Caspian Sea) Ltd:  COMPANY
 WTYP.                Deviated:  WELL TYPE
 SON .        AZ-XX-0906344804:  JOB NUMBER
 FTOP.          Formation Tops:  FORM TOPS DESC
 ILTD.               Lithology:  INTERP LTH DESC
 SVYD.                  Survey:  SURVEY DESC
 DMOD.             Drill Model:  DRILL MOD DESC
 HPTY.       Minimum Curvature:  HOLE POS TYPE
 NREF.                    Grid:  NORTH REFERENCE
 SPUD.               01-Jan-20:  SPUD DATE
 DATE.      00.59.44 15-Sep-20:  END TIME
 STIM.      12.00.00 12-Jun-20:  START TIME
 DMF .             Drill Floor:  DRILL MEAS FROM
 DFST.                        :  DIST FSL TEXT
 DFWT.                        :  DIST FWL TEXT
 API .                        :  API NUMBER
 CNTY.                        :  COUNTY
 UWI .                        :  UNIQUE WELL IDENTIFIER
 LOC .                        :  LOCATION
 LMF .             Drill Floor:  LOG MEASURED FROM
 VSNS.m                   2.88:  VERT SEC N/S
 VSEW.m                  -3.84:  VERT SEC E/W
 AGAP.m                  43.42:  AIR GAP
 APD .m                  43.42:  DEPTH ABOVE PD
 WDMS.m                 118.27:  WD ELEV
 EGL .m                   0.00:  GROUND ELEVATION
 EPD .m                   0.00:  ELEVATION
 AZTC.deg                 6.23:  AZM TOTAL CORR
 GRDC.deg                 0.20:  GRID CORRECTION
 MDEC.deg                 6.43:  MAGNETIC DECL
 MDIP.deg                59.49:  MAGNETIC DIP
 MFLD.nT              50277.00:  MAGNETIC FIELD
 GVFD.g                   1.00:  GRAVITY FIELD
 VSDR.deg               173.20:  VERT SEC DIRECT
 TDD .m                5790.01:  TOTAL DEPTH (DRILLER)
 SDEP.m                5231.01:  START DEPTH
 DFSL.m                   0.00:  DISTANCE FSL
 DFWL.m                   0.00:  DISTANCE FWL
 UTMY.m             4435808.83:  UTM Y
 UTMX.m              526266.40:  UTM X
 WHEW.m                  -3.84:  WELL HEAD E/W
 WHNS.m                   2.88:  WELL HEAD N/S
 LONG.deg                51.31:  LONGITUDE
 LATI.deg                40.06:  LATITUDE
 TVDS.m                  43.42:  TVDSS CORRECTN
 DEP .m                 430.08:  DEPTH
 EKB .m                  43.42:  KB ELEVATION
 EDF .m                  43.42:  DF ELEVATION
 TDL .m                 559.00:  TOTAL DEPTH (LOGGER)
 MAGU.                 1849381:  MAGUTM CHECKSUM
 VSC .                       0:  VS TO CLOSURE
~Parameter Information Block
#MNEM.UNIT       Value        Description
#---------     -----------    ---------------------------
 AV  .mps                 4.87:  Ann Velocity 
 AVMX.mps                 7.08:  Max Ann Veloc 
 AZIF.deg               108.87:  Azm, Final 
 BHAT.                  Rotary:  BHA Type 
 BROT.°/30m               0.35:  Build Rotating 
 BS  .in                  8.50:  Bit Size 
 BSZ .in                  8.50:  Bit Size 
 BTPL.psig              360.00:  Bit Press Loss 
 CABU.                     Yes:  Customer Abuse 
 COMM.                     „T:  Run Comments 1 
 TCS .hr                106.24:  Time Ciculation Ended 
 CV  .mps                 1.77:  Crit Velocity 
 CVMX.mps                 2.03:  Max Crit Veloc 
 DD1 .         Aykhan Agagulov:  Direct Drillr 1 
 DD2 .            Nonso Okofor:  Direct Drillr 2 
 DDSV.               Geo-Pilot:  DD Service 
 DEFF.%                  98.00:  % Det Eff 
 DLRX.°/30m               0.50:  Dogleg Rot Max 
 DLSO.°/30m               0.40:  Dogleg Oriented 
 DLSX.°/30m               0.94:  Dogleg Str Max 
 DRET.      20.30.00 08-Sep-20:  Drill End Time 
 DRST.      22.15.00 06-Sep-20:  Drill Start Tim 
 DTIM.hr                 31.31:  Time Drilling 
 EDEP.m                5790.01:  End Depth 
 ENG1.           Amrah Tahirov:  Engineer 1 
 ENG2.         Dair Mahammadov:  Engineer 2 
 ENG3.           Emil Huseynov:  Engineer 3 
 ETIM.      04.01.04 12-Sep-20:  End Time 
 FLOI.gpm               450.00:  Flow In 
 FLON.gpm               450.00:  Flow In Min 
 FLOS.cptm                2.00:  Fluid Loss 
 FLOX.gpm               450.00:  Flow In Max 
 FTRO.       Formation Presure:  FTWD Run Obj 
 HFLO.                      No:  High Flow 
 HPRE.                      No:  High Pressure 
 HTEM.                      No:  High Temp 
 HYDO.m                   1.80:  Hydro Offset 
 IFIN.deg                72.03:  Inc, Final 
 IMAX.deg                73.72:  Inc Max 
 IMIN.deg                70.94:  Inc Min 
 IMND.m                5508.52:  Inc Min Depth 
 IMXD.m                5253.60:  Inc Max Depth 
 JARR.                      No:  Jarring 
 LETM.      20.30.00 08-Sep-20:  Log End Time 
 LOST.hr                     0:  Lost Rig Time 
 LSTM.      22.15.00 06-Sep-20:  Log Start Time 
 MDCL.ppm             36000.00:  Mud Chlorides 
 MDES.     Inversion Oil/Synthetic:  Mud Desc 
 DFD .sg                  1.44:  Mud Density 
 MDMN.sg                  1.44:  Dens Mud Min 
 MDMX.sg                  1.57:  Dens Mud Max 
 MOIL.                      70:  Run Mud Oil % 
 MOWR.                   70:30:  Run Mud OWR 
 MSND.                       0:  Run Mud Sand % 
 MSOL.                      21:  Run Mud Solids% 
 DFV .spqt               68.00:  Mud Viscosity 
 MWOD.in                  6.75:  MWD Tool OD 
 MWSI.                     Yes:  Serv Intrp, MWD 
 OTIM.hr                174.84:  Time Operating 
 PCON.           Look Like New:  Pad Condition 
 PMAX.psia            10616.93:  Press Op, Max 
 PV  .cP                 50.00:  Mud PV 
 RUN .                     700:  Run Number 
 ROPA.m/hr               14.24:  ROP Avg 
 ROPN.m/hr               10.00:  ROP Min 
 ROPX.m/hr               32.00:  ROP Max 
 RPMA.rpm               120.90:  RPM Surface Avg 
 RPMN.rpm               120.00:  RPM Surface Min 
 RPMX.rpm               140.00:  RPM Surface Max 
 RRUN.                    0700:  Rig Run Number 
 RTIM.hr                  3.20:  Time Reaming 
 SAZI.deg               109.99:  Azm, Start 
 SDEP.m                5231.01:  Start Depth 
 SIDD.                      No:  Serv Intrp, DD 
 SINC.deg                73.72:  Inc, Start 
 SPPA.psig             3051.00:  SPP Avg 
 SPPN.psig             2950.00:  SPP Min 
 SPPX.psig             3250.00:  SPP Max 
 STIM.      08.00.00 05-Sep-20:  Start Time 
 SVCS.                 DD, MWD:  Services 
 SVER.                    9.20:  Sperry Version 
 TDAT.m                 559.00:  Tot Depth Attmp 
 TDDF.                      No:  Trip for DD 
 TDLG.m                 559.00:  Tot Depth Loggd 
 TFF .                      No:  Trip for Fail 
 TQAA.f-kp               26.49:  Torque Abs Avg 
 TQAN.f-kp               25.00:  Torque Abs Min 
 TQAX.f-kp               27.00:  Torque Abs Max 
 TRRT.°/30m               1.50:  Turn Rotating 
 MRT .                    HCIM:  Maximum Recorded Temperature 
 TTMX.degC               90.20:  Max Tool Temp 
 VS01.                90542671:  Virtual Str1 SN 
 VS02.                90545185:  Virtual Str2 SN 
 VS03.                90602015:  Virtual Str3 SN 
 VS04.                90515230:  Virtual Str4 SN 
 WBMN.klb                 5.00:  WOB Min 
 WOBA.klb                14.79:  WOB Avg 
 WOBX.klb                20.00:  WOB Max 
 YP  .lhf2               29.00:  Yield Point 
~Curve Information Block
#MNEM.UNIT                 API CODE     Curve Description
#---------               -----------    ---------------------------
 TIME.HHMMSS            00 000 000 000:  GT Time & Date
 GTDEPTH.m              00 000 000 000:  GT Depth
 GTPQH.psia             00 000 000 000:  GT HR Quartz Pressure
 GTTQ.degC              00 000 000 000:  GT Quartz Temperature
 GTTN.NONE              00 000 000 000:  GT Test Number
 GTET.sec               00 000 000 000:  GT Elapsed Test Time
 GTTVD.m                00 000 000 000:  GT True Vertical Depth
#Other Information
#
#WARRANTY: Halliburton will use its best efforts to furnish customers with 
#accurate information and interpretations that are part of, and incident to, the services 
#provided.  However, Halliburton cannot and does not warrant the accuracy 
#or correctness of such information and interpretations.  Under no circumstances should any 
#such information or interpretation be relied upon as the sole basis for any drilling, 
#completion, production, or financial decision or any procedure involving any risk to the 
#safety of any drilling venture, drilling rig or its crew or any other third party.  The 
#Customer has full responsibility for all drilling, completion and production operation.  
#Halliburton makes no representations or warranties, either expressed or 
#implied, including, but not limited to, the implied warranties of merchantability or fitness 
#for a particular purpose, with respect to the services rendered.  In no event will 
#Halliburton be liable for failure to obtain any particular results or for 
#any damages, including, but not limited to, indirect, special or consequential damages, 
#resulting from the use of any information or interpretation provided by Halliburton.
#
~A           TIME           GTDEPTH  GTPQH  GTTQ  GTTN   GTET   GTTVD  
# ...
   18:51:28.829.09-Sep-2020 5280.51  743.28 74.26 22.00  90.33 2550.44
   18:51:29.029.09-Sep-2020 5280.51  743.89 74.26 22.00  90.53 2550.44
   18:51:29.229.09-Sep-2020 5280.51  744.49 74.26 22.00  90.73 2550.44
   18:51:29.428.09-Sep-2020 5280.51  745.06 74.26 22.00  90.93 2550.44
   18:51:29.628.09-Sep-2020 5280.51  745.06 74.26 22.00  91.13 2550.44
   18:51:29.828.09-Sep-2020 5280.51  745.59 74.26 22.00  91.33 2550.44
   18:51:30.028.09-Sep-2020 5280.51  746.53 74.26 22.00  91.53 2550.44
   18:51:30.228.09-Sep-2020 5280.51  747.21 74.26 22.00  91.73 2550.44
   18:51:30.428.09-Sep-2020 5280.51  747.72 74.26 22.00  91.93 2550.44
   18:51:30.628.09-Sep-2020 5280.51  747.72 74.26 22.00  92.13 2550.44
   18:51:30.827.09-Sep-2020 5280.51  748.91 74.27 22.00  92.33 2550.44
   18:51:31.027.09-Sep-2020 5280.51  749.52 74.27 22.00  92.53 2550.44
   18:51:31.227.09-Sep-2020 5280.51  750.05 74.27 22.00  92.73 2550.44
   18:51:31.427.09-Sep-2020 5280.51  750.59 74.27 22.00  92.93 2550.44
   18:51:31.627.09-Sep-2020 5280.51  750.59 74.27 22.00  93.13 2550.44
   18:51:31.827.09-Sep-2020 5280.51  751.73 74.27 22.00  93.33 2550.44
   18:51:32.026.09-Sep-2020 5280.51  752.33 74.27 22.00  93.53 2550.44
   18:51:32.226.09-Sep-2020 5280.51  752.91 74.27 22.00  93.73 2550.44
   18:51:32.426.09-Sep-2020 5280.51  753.40 74.27 22.00  93.93 2550.44
   18:51:32.626.09-Sep-2020 5280.51  753.92 74.27 22.00  94.13 2550.44
   18:51:32.826.09-Sep-2020 5280.51  754.50 74.27 22.00  94.33 2550.44
   18:51:33.026.09-Sep-2020 5280.51  754.39 74.27 22.00  94.53 2550.44
   18:51:33.225.09-Sep-2020 5280.51  755.24 74.27 22.00  94.73 2550.44
   18:51:33.425.09-Sep-2020 5280.51  755.93 74.27 22.00  94.93 2550.44
   18:51:33.625.09-Sep-2020 5280.51  755.93 74.27 22.00  95.13 2550.44
   18:51:33.825.09-Sep-2020 5280.51  757.08 74.27 22.00  95.33 2550.44
   18:51:34.025.09-Sep-2020 5280.51  757.24 74.27 22.00  95.53 2550.44
   18:51:34.225.09-Sep-2020 5280.51  757.48 74.27 22.00  95.72 2550.44
   18:51:34.425.09-Sep-2020 5280.51  758.46 74.27 22.00  95.92 2550.44
   18:51:34.624.09-Sep-2020 5280.51  758.46 74.27 22.00  96.12 2550.44
   18:51:34.824.09-Sep-2020 5280.51  759.45 74.27 22.00  96.32 2550.44
   18:51:35.024.09-Sep-2020 5280.51  760.15 74.27 22.00  96.52 2550.44
   18:51:35.224.09-Sep-2020 5280.51  760.52 74.27 22.00  96.72 2550.44
   18:51:35.424.09-Sep-2020 5280.51  760.50 74.27 22.00  96.92 2550.44
   18:51:35.624.09-Sep-2020 5280.51  760.50 74.27 22.00  97.12 2550.44
   18:51:35.823.09-Sep-2020 5280.51  762.08 74.27 22.00  97.32 2550.44
   18:51:36.023.09-Sep-2020 5280.51  762.50 74.27 22.00  97.52 2550.44
   18:51:36.223.09-Sep-2020 5280.51  763.16 74.27 22.00  97.72 2550.44
   18:51:36.423.09-Sep-2020 5280.51  763.57 74.27 22.00  97.92 2550.44
   18:51:36.623.09-Sep-2020 5280.51  763.57 74.27 22.00  98.12 2550.44
   18:51:36.823.09-Sep-2020 5280.51  763.76 74.27 22.00  98.32 2550.44
   18:51:37.023.09-Sep-2020 5280.51  765.27 74.27 22.00  98.52 2550.44
   18:51:37.222.09-Sep-2020 5280.51  765.46 74.27 22.00  98.72 2550.44
   18:51:37.422.09-Sep-2020 5280.51  765.99 74.27 22.00  98.92 2550.44
   18:51:37.622.09-Sep-2020 5280.51  765.99 74.27 22.00  99.12 2550.44
   18:51:37.822.09-Sep-2020 5280.51  767.23 74.27 22.00  99.32 2550.44
   18:51:38.022.09-Sep-2020 5280.51  767.34 74.27 22.00  99.52 2550.44
   18:51:38.222.09-Sep-2020 5280.51  767.85 74.27 22.00  99.72 2550.44
   18:51:38.421.09-Sep-2020 5280.51  768.29 74.27 22.00  99.92 2550.44
   18:51:38.621.09-Sep-2020 5280.51  768.29 74.27 22.00 100.12 2550.44
   18:51:38.821.09-Sep-2020 5280.51  769.37 74.27 22.00 100.32 2550.44
   18:51:39.021.09-Sep-2020 5280.51  769.86 74.27 22.00 100.52 2550.44
   18:51:39.221.09-Sep-2020 5280.51  770.39 74.27 22.00 100.72 2550.44
   18:51:39.421.09-Sep-2020 5280.51  770.86 74.27 22.00 100.92 2550.44
   18:51:39.620.09-Sep-2020 5280.51  770.86 74.27 22.00 101.12 2550.44
   18:51:39.820.09-Sep-2020 5280.51  771.81 74.27 22.00 101.32 2550.44
   18:51:40.020.09-Sep-2020 5280.51  772.31 74.27 22.00 101.52 2550.44
   18:51:40.220.09-Sep-2020 5280.51  772.83 74.27 22.00 101.72 2550.44
   18:51:40.420.09-Sep-2020 5280.51  773.32 74.27 22.00 101.92 2550.44
   18:51:40.620.09-Sep-2020 5280.51  773.82 74.27 22.00 102.12 2550.44
   18:51:40.820.09-Sep-2020 5280.51  774.30 74.27 22.00 102.32 2550.44
   18:51:41.019.09-Sep-2020 5280.51  774.78 74.27 22.00 102.52 2550.44
   18:51:41.219.09-Sep-2020 5280.51  775.06 74.27 22.00 102.72 2550.44
   18:51:41.419.09-Sep-2020 5280.51  775.15 74.27 22.00 102.92 2550.44
   18:51:41.619.09-Sep-2020 5280.51  775.15 74.27 22.00 103.12 2550.44
   18:51:41.819.09-Sep-2020 5280.51  776.52 74.27 22.00 103.32 2550.44
   18:51:42.019.09-Sep-2020 5280.51  776.95 74.27 22.00 103.52 2550.44
   18:51:42.218.09-Sep-2020 5280.51  777.59 74.27 22.00 103.72 2550.44
   18:51:42.418.09-Sep-2020 5280.51  777.92 74.27 22.00 103.92 2550.44
   18:51:42.618.09-Sep-2020 5280.51  777.92 74.27 22.00 104.12 2550.44
   18:51:42.818.09-Sep-2020 5280.51  778.89 74.27 22.00 104.32 2550.44
   18:51:43.018.09-Sep-2020 5280.51  779.34 74.27 22.00 104.52 2550.44
   18:51:43.218.09-Sep-2020 5280.51  779.81 74.27 22.00 104.72 2550.44
   18:51:43.417.09-Sep-2020 5280.51  780.33 74.27 22.00 104.92 2550.44
   18:51:43.617.09-Sep-2020 5280.51  780.33 74.27 22.00 105.12 2550.44
   18:51:43.817.09-Sep-2020 5280.51  781.31 74.27 22.00 105.32 2550.44
   18:51:44.017.09-Sep-2020 5280.51  781.73 74.27 22.00 105.52 2550.44
   18:51:44.217.09-Sep-2020 5280.51  782.18 74.27 22.00 105.72 2550.44
   18:51:44.417.09-Sep-2020 5280.51  782.47 74.27 22.00 105.92 2550.44
   18:51:44.617.09-Sep-2020 5280.51  782.56 74.27 22.00 106.12 2550.44
   18:51:44.816.09-Sep-2020 5280.51  783.50 74.28 22.00 106.32 2550.44
   18:51:45.016.09-Sep-2020 5280.51  783.96 74.27 22.00 106.52 2550.44
   18:51:45.216.09-Sep-2020 5280.51  784.31 74.28 22.00 106.72 2550.44
   18:51:45.416.09-Sep-2020 5280.51  784.91 74.28 22.00 106.92 2550.44
   18:51:45.616.09-Sep-2020 5280.51  784.91 74.28 22.00 107.12 2550.44
   18:51:45.816.09-Sep-2020 5280.51  785.82 74.28 22.00 107.32 2550.44
   18:51:46.015.09-Sep-2020 5280.51  786.04 74.28 22.00 107.52 2550.44
   18:51:46.215.09-Sep-2020 5280.51  786.56 74.28 22.00 107.72 2550.44
   18:51:46.415.09-Sep-2020 5280.51  786.93 74.28 22.00 107.92 2550.44
   18:51:46.615.09-Sep-2020 5280.51  786.93 74.28 22.00 108.12 2550.44
   18:51:46.815.09-Sep-2020 5280.51  787.86 74.28 22.00 108.32 2550.44
   18:51:47.015.09-Sep-2020 5280.51  787.48 74.28 22.00 108.51 2550.44
   18:51:47.215.09-Sep-2020 5280.51  788.98 74.28 22.00 108.71 2550.44
   18:51:47.414.09-Sep-2020 5280.51  789.30 74.28 22.00 108.91 2550.44
   18:51:47.614.09-Sep-2020 5280.51  789.30 74.28 22.00 109.11 2550.44
   18:51:47.814.09-Sep-2020 5280.51  790.13 74.28 22.00 109.31 2550.44
   18:51:48.014.09-Sep-2020 5280.51  790.78 74.28 22.00 109.51 2550.44
   18:51:48.214.09-Sep-2020 5280.51  791.11 74.28 22.00 109.71 2550.44
   18:51:48.414.09-Sep-2020 5280.51  791.60 74.28 22.00 109.91 2550.44
   18:51:48.613.09-Sep-2020 5280.51  791.60 74.28 22.00 110.11 2550.44
   18:51:48.813.09-Sep-2020 5280.51  792.65 74.28 22.00 110.31 2550.44
   18:51:49.013.09-Sep-2020 5280.51  792.88 74.28 22.00 110.51 2550.44
   18:51:49.213.09-Sep-2020 5280.51  793.32 74.28 22.00 110.71 2550.44
   18:51:49.413.09-Sep-2020 5280.51  793.70 74.28 22.00 110.91 2550.44
   18:51:49.613.09-Sep-2020 5280.51  793.70 74.28 22.00 111.11 2550.44
   18:51:49.812.09-Sep-2020 5280.51  794.04 74.28 22.00 111.31 2550.44
   18:51:50.012.09-Sep-2020 5280.51  794.91 74.28 22.00 111.51 2550.44
   18:51:50.212.09-Sep-2020 5280.51  795.48 74.28 22.00 111.71 2550.44
   18:51:50.412.09-Sep-2020 5280.51  795.85 74.28 22.00 111.91 2550.44
   18:51:50.612.09-Sep-2020 5280.51  795.85 74.28 22.00 112.11 2550.44
   18:51:50.812.09-Sep-2020 5280.51  796.83 74.28 22.00 112.31 2550.44
   18:51:51.012.09-Sep-2020 5280.51  797.28 74.28 22.00 112.51 2550.44
   18:51:51.211.09-Sep-2020 5280.51  797.64 74.28 22.00 112.71 2550.44
