~Version Information
 VERS.                  2.0:   CWLS log ASCII Standard -VERSION 2.0
 WRAP.                   NO:   One line per depth step
~Well Information Block
#MNEM.UNIT     VALUE/NAME     DESCRIPTION
#---------     -----------    ---------------------------
 STRT.S             18:49:58 09-Sep-20: START TIME 18:49:58 09-Sep-20
 STOP.S             18:58:03 09-Sep-20: STOP TIME  18:58:03 09-Sep-20
 STEP.S                   0.00: STEP TIME
 NULL.                 -999.25: NULL VALUE
 MDS .        Operator Entered:  MAG DATA SOURCE
 PDAT.          Mean Sea Level:  PERMANENT DATUM
 DCON.         Sperry Drilling:  DIRECTNL CONTR
 RIG .              West Azeri:  RIG NAME
 WELL.           C40 (Slot 20):  WELL NAME
 SRVC.     Turan Drilling Engineering:  CONTRACTOR
 FLD .                     ACG:  FIELD NAME
 CTRY.              Azerbaijan:  COUNTRY NAME
 PROV.                    Baku:  PROVINCE
 STAT.                    Baku:  STATE NAME
 REGN.                   EESSA:  REGION
 BASE.              Azerbaijan:  LOGGING EQUIPMENT BASE LOCATION
 COMP.     BP Exploration (Caspian Sea) Ltd:  COMPANY
 WTYP.                Deviated:  WELL TYPE
 SON .        AZ-XX-0906344804:  JOB NUMBER
 FTOP.          Formation Tops:  FORM TOPS DESC
 ILTD.               Lithology:  INTERP LTH DESC
 SVYD.                  Survey:  SURVEY DESC
 DMOD.             Drill Model:  DRILL MOD DESC
 HPTY.       Minimum Curvature:  HOLE POS TYPE
 NREF.                    Grid:  NORTH REFERENCE
 SPUD.               01-Jan-20:  SPUD DATE
 DATE.      00.59.44 15-Sep-20:  END TIME
 STIM.      12.00.00 12-Jun-20:  START TIME
 DMF .             Drill Floor:  DRILL MEAS FROM
 DFST.                        :  DIST FSL TEXT
 DFWT.                        :  DIST FWL TEXT
 API .                        :  API NUMBER
 CNTY.                        :  COUNTY
 UWI .                        :  UNIQUE WELL IDENTIFIER
 LOC .                        :  LOCATION
 LMF .             Drill Floor:  LOG MEASURED FROM
 VSNS.m                   2.88:  VERT SEC N/S
 VSEW.m                  -3.84:  VERT SEC E/W
 AGAP.m                  43.42:  AIR GAP
 APD .m                  43.42:  DEPTH ABOVE PD
 WDMS.m                 118.27:  WD ELEV
 EGL .m                   0.00:  GROUND ELEVATION
 EPD .m                   0.00:  ELEVATION
 AZTC.deg                 6.23:  AZM TOTAL CORR
 GRDC.deg                 0.20:  GRID CORRECTION
 MDEC.deg                 6.43:  MAGNETIC DECL
 MDIP.deg                59.49:  MAGNETIC DIP
 MFLD.nT              50277.00:  MAGNETIC FIELD
 GVFD.g                   1.00:  GRAVITY FIELD
 VSDR.deg               173.20:  VERT SEC DIRECT
 TDD .m                5790.01:  TOTAL DEPTH (DRILLER)
 SDEP.m                5231.01:  START DEPTH
 DFSL.m                   0.00:  DISTANCE FSL
 DFWL.m                   0.00:  DISTANCE FWL
 UTMY.m             4435808.83:  UTM Y
 UTMX.m              526266.40:  UTM X
 WHEW.m                  -3.84:  WELL HEAD E/W
 WHNS.m                   2.88:  WELL HEAD N/S
 LONG.deg                51.31:  LONGITUDE
 LATI.deg                40.06:  LATITUDE
 TVDS.m                  43.42:  TVDSS CORRECTN
 DEP .m                 430.08:  DEPTH
 EKB .m                  43.42:  KB ELEVATION
 EDF .m                  43.42:  DF ELEVATION
 TDL .m                 559.00:  TOTAL DEPTH (LOGGER)
 MAGU.                 1849381:  MAGUTM CHECKSUM
 VSC .                       0:  VS TO CLOSURE
~Parameter Information Block
#MNEM.UNIT       Value        Description
#---------     -----------    ---------------------------
 AV  .mps                 4.87:  Ann Velocity 
 AVMX.mps                 7.08:  Max Ann Veloc 
 AZIF.deg               108.87:  Azm, Final 
 BHAT.                  Rotary:  BHA Type 
 BROT.°/30m               0.35:  Build Rotating 
 BS  .in                  8.50:  Bit Size 
 BSZ .in                  8.50:  Bit Size 
 BTPL.psig              360.00:  Bit Press Loss 
 CABU.                     Yes:  Customer Abuse 
 COMM.                     „T:  Run Comments 1 
 TCS .hr                106.24:  Time Ciculation Ended 
 CV  .mps                 1.77:  Crit Velocity 
 CVMX.mps                 2.03:  Max Crit Veloc 
 DD1 .         Aykhan Agagulov:  Direct Drillr 1 
 DD2 .            Nonso Okofor:  Direct Drillr 2 
 DDSV.               Geo-Pilot:  DD Service 
 DEFF.%                  98.00:  % Det Eff 
 DLRX.°/30m               0.50:  Dogleg Rot Max 
 DLSO.°/30m               0.40:  Dogleg Oriented 
 DLSX.°/30m               0.94:  Dogleg Str Max 
 DRET.      20.30.00 08-Sep-20:  Drill End Time 
 DRST.      22.15.00 06-Sep-20:  Drill Start Tim 
 DTIM.hr                 31.31:  Time Drilling 
 EDEP.m                5790.01:  End Depth 
 ENG1.           Amrah Tahirov:  Engineer 1 
 ENG2.         Dair Mahammadov:  Engineer 2 
 ENG3.           Emil Huseynov:  Engineer 3 
 ETIM.      04.01.04 12-Sep-20:  End Time 
 FLOI.gpm               450.00:  Flow In 
 FLON.gpm               450.00:  Flow In Min 
 FLOS.cptm                2.00:  Fluid Loss 
 FLOX.gpm               450.00:  Flow In Max 
 FTRO.       Formation Presure:  FTWD Run Obj 
 HFLO.                      No:  High Flow 
 HPRE.                      No:  High Pressure 
 HTEM.                      No:  High Temp 
 HYDO.m                   1.80:  Hydro Offset 
 IFIN.deg                72.03:  Inc, Final 
 IMAX.deg                73.72:  Inc Max 
 IMIN.deg                70.94:  Inc Min 
 IMND.m                5508.52:  Inc Min Depth 
 IMXD.m                5253.60:  Inc Max Depth 
 JARR.                      No:  Jarring 
 LETM.      20.30.00 08-Sep-20:  Log End Time 
 LOST.hr                     0:  Lost Rig Time 
 LSTM.      22.15.00 06-Sep-20:  Log Start Time 
 MDCL.ppm             36000.00:  Mud Chlorides 
 MDES.     Inversion Oil/Synthetic:  Mud Desc 
 DFD .sg                  1.44:  Mud Density 
 MDMN.sg                  1.44:  Dens Mud Min 
 MDMX.sg                  1.57:  Dens Mud Max 
 MOIL.                      70:  Run Mud Oil % 
 MOWR.                   70:30:  Run Mud OWR 
 MSND.                       0:  Run Mud Sand % 
 MSOL.                      21:  Run Mud Solids% 
 DFV .spqt               68.00:  Mud Viscosity 
 MWOD.in                  6.75:  MWD Tool OD 
 MWSI.                     Yes:  Serv Intrp, MWD 
 OTIM.hr                174.84:  Time Operating 
 PCON.           Look Like New:  Pad Condition 
 PMAX.psia            10616.93:  Press Op, Max 
 PV  .cP                 50.00:  Mud PV 
 RUN .                     700:  Run Number 
 ROPA.m/hr               14.24:  ROP Avg 
 ROPN.m/hr               10.00:  ROP Min 
 ROPX.m/hr               32.00:  ROP Max 
 RPMA.rpm               120.90:  RPM Surface Avg 
 RPMN.rpm               120.00:  RPM Surface Min 
 RPMX.rpm               140.00:  RPM Surface Max 
 RRUN.                    0700:  Rig Run Number 
 RTIM.hr                  3.20:  Time Reaming 
 SAZI.deg               109.99:  Azm, Start 
 SDEP.m                5231.01:  Start Depth 
 SIDD.                      No:  Serv Intrp, DD 
 SINC.deg                73.72:  Inc, Start 
 SPPA.psig             3051.00:  SPP Avg 
 SPPN.psig             2950.00:  SPP Min 
 SPPX.psig             3250.00:  SPP Max 
 STIM.      08.00.00 05-Sep-20:  Start Time 
 SVCS.                 DD, MWD:  Services 
 SVER.                    9.20:  Sperry Version 
 TDAT.m                 559.00:  Tot Depth Attmp 
 TDDF.                      No:  Trip for DD 
 TDLG.m                 559.00:  Tot Depth Loggd 
 TFF .                      No:  Trip for Fail 
 TQAA.f-kp               26.49:  Torque Abs Avg 
 TQAN.f-kp               25.00:  Torque Abs Min 
 TQAX.f-kp               27.00:  Torque Abs Max 
 TRRT.°/30m               1.50:  Turn Rotating 
 MRT .                    HCIM:  Maximum Recorded Temperature 
 TTMX.degC               90.20:  Max Tool Temp 
 VS01.                90542671:  Virtual Str1 SN 
 VS02.                90545185:  Virtual Str2 SN 
 VS03.                90602015:  Virtual Str3 SN 
 VS04.                90515230:  Virtual Str4 SN 
 WBMN.klb                 5.00:  WOB Min 
 WOBA.klb                14.79:  WOB Avg 
 WOBX.klb                20.00:  WOB Max 
 YP  .lhf2               29.00:  Yield Point 
~Curve Information Block
#MNEM.UNIT                 API CODE     Curve Description
#---------               -----------    ---------------------------
 TIME.HHMMSS            00 000 000 000:  GT Time & Date
 GTDEPTH.m              00 000 000 000:  GT Depth
 GTPQH.psia             00 000 000 000:  GT HR Quartz Pressure
 GTTQ.degC              00 000 000 000:  GT Quartz Temperature
 GTTN.NONE              00 000 000 000:  GT Test Number
 GTET.sec               00 000 000 000:  GT Elapsed Test Time
 GTTVD.m                00 000 000 000:  GT True Vertical Depth
#Other Information
#
#WARRANTY: Halliburton will use its best efforts to furnish customers with 
#accurate information and interpretations that are part of, and incident to, the services 
#provided.  However, Halliburton cannot and does not warrant the accuracy 
#or correctness of such information and interpretations.  Under no circumstances should any 
#such information or interpretation be relied upon as the sole basis for any drilling, 
#completion, production, or financial decision or any procedure involving any risk to the 
#safety of any drilling venture, drilling rig or its crew or any other third party.  The 
#Customer has full responsibility for all drilling, completion and production operation.  
#Halliburton makes no representations or warranties, either expressed or 
#implied, including, but not limited to, the implied warranties of merchantability or fitness 
#for a particular purpose, with respect to the services rendered.  In no event will 
#Halliburton be liable for failure to obtain any particular results or for 
#any damages, including, but not limited to, indirect, special or consequential damages, 
#resulting from the use of any information or interpretation provided by Halliburton.
#
~A           TIME           GTDEPTH  GTPQH  GTTQ  GTTN   GTET   GTTVD  
# ...
   18:50:21.082.09-Sep-2020 5280.51 6198.77 74.40 22.00  22.58 2550.44
   18:50:21.282.09-Sep-2020 5280.51 6200.36 74.40 22.00  22.78 2550.44
   18:50:21.482.09-Sep-2020 5280.51 6200.18 74.40 22.00  22.98 2550.44
   18:50:21.682.09-Sep-2020 5280.51 6200.18 74.40 22.00  23.18 2550.44
   18:50:21.881.09-Sep-2020 5280.51 6198.62 74.40 22.00  23.38 2550.44
   18:50:22.081.09-Sep-2020 5280.51 6202.26 74.40 22.00  23.58 2550.44
   18:50:22.281.09-Sep-2020 5280.51 6201.55 74.40 22.00  23.78 2550.44
   18:50:22.481.09-Sep-2020 5280.51 6202.45 74.40 22.00  23.98 2550.44
   18:50:22.681.09-Sep-2020 5280.51 6202.45 74.40 22.00  24.18 2550.44
   18:50:22.881.09-Sep-2020 5280.51 6213.33 74.40 22.00  24.38 2550.44
   18:50:23.081.09-Sep-2020 5280.51 6199.92 74.40 22.00  24.58 2550.44
   18:50:23.280.09-Sep-2020 5280.51 6203.85 74.40 22.00  24.78 2550.44
   18:50:23.480.09-Sep-2020 5280.51 6204.00 74.40 22.00  24.98 2550.44
   18:50:23.680.09-Sep-2020 5280.51 6204.00 74.40 22.00  25.18 2550.44
   18:50:23.880.09-Sep-2020 5280.51 6204.80 74.40 22.00  25.38 2550.44
   18:50:24.080.09-Sep-2020 5280.51 6214.96 74.40 22.00  25.58 2550.44
   18:50:24.280.09-Sep-2020 5280.51 6202.27 74.40 22.00  25.78 2550.44
   18:50:24.479.09-Sep-2020 5280.51 6206.23 74.40 22.00  25.98 2550.44
   18:50:24.679.09-Sep-2020 5280.51 6206.69 74.39 22.00  26.18 2550.44
   18:50:24.879.09-Sep-2020 5280.51 6213.37 74.40 22.00  26.38 2550.44
   18:50:25.079.09-Sep-2020 5280.51 6208.04 74.39 22.00  26.58 2550.44
   18:50:25.279.09-Sep-2020 5280.51 6207.18 74.39 22.00  26.78 2550.44
   18:50:25.479.09-Sep-2020 5280.51 6208.65 74.39 22.00  26.98 2550.44
   18:50:25.678.09-Sep-2020 5280.51 6208.05 74.39 22.00  27.18 2550.44
   18:50:25.878.09-Sep-2020 5280.51 6209.72 74.39 22.00  27.38 2550.44
   18:50:26.078.09-Sep-2020 5280.51 6216.88 74.39 22.00  27.58 2550.44
   18:50:26.278.09-Sep-2020 5280.51 6210.48 74.39 22.00  27.78 2550.44
   18:50:26.478.09-Sep-2020 5280.51 6209.24 74.39 22.00  27.98 2550.44
   18:50:26.678.09-Sep-2020 5280.51 6209.24 74.39 22.00  28.18 2550.44
   18:50:26.878.09-Sep-2020 5280.51 6210.33 74.39 22.00  28.38 2550.44
   18:50:27.077.09-Sep-2020 5280.51 6211.56 74.39 22.00  28.58 2550.44
   18:50:27.277.09-Sep-2020 5280.51 6211.34 74.39 22.00  28.78 2550.44
   18:50:27.477.09-Sep-2020 5280.51 6212.00 74.39 22.00  28.98 2550.44
   18:50:27.677.09-Sep-2020 5280.51 6212.00 74.39 22.00  29.18 2550.44
   18:50:27.877.09-Sep-2020 5280.51 6213.18 74.39 22.00  29.38 2550.44
   18:50:28.077.09-Sep-2020 5280.51 6213.69 74.39 22.00  29.58 2550.44
   18:50:28.276.09-Sep-2020 5280.51 6216.11 74.39 22.00  29.78 2550.44
   18:50:28.476.09-Sep-2020 5280.51 6193.36 74.39 22.00  29.98 2550.44
   18:50:28.676.09-Sep-2020 5280.51 6193.36 74.39 22.00  30.18 2550.44
   18:50:28.876.09-Sep-2020 5280.51 6141.69 74.39 22.00  30.38 2550.44
   18:50:29.076.09-Sep-2020 5280.51 6121.61 74.39 22.00  30.58 2550.44
   18:50:29.276.09-Sep-2020 5280.51 6108.15 74.39 22.00  30.78 2550.44
   18:50:29.475.09-Sep-2020 5280.51 6099.82 74.39 22.00  30.98 2550.44
   18:50:29.675.09-Sep-2020 5280.51 6099.82 74.39 22.00  31.18 2550.44
   18:50:29.875.09-Sep-2020 5280.51 6068.35 74.39 22.00  31.38 2550.44
   18:50:30.075.09-Sep-2020 5280.51 6031.86 74.39 22.00  31.58 2550.44
   18:50:30.275.09-Sep-2020 5280.51 5996.56 74.39 22.00  31.78 2550.44
   18:50:30.475.09-Sep-2020 5280.51 5964.03 74.39 22.00  31.97 2550.44
   18:50:30.675.09-Sep-2020 5280.51 5964.03 74.39 22.00  32.17 2550.44
   18:50:30.874.09-Sep-2020 5280.51 5952.66 74.39 22.00  32.37 2550.44
   18:50:31.074.09-Sep-2020 5280.51 5956.29 74.39 22.00  32.57 2550.44
   18:50:31.274.09-Sep-2020 5280.51 5960.61 74.39 22.00  32.77 2550.44
   18:50:31.474.09-Sep-2020 5280.51 5964.82 74.39 22.00  32.97 2550.44
   18:50:31.674.09-Sep-2020 5280.51 5964.82 74.39 22.00  33.17 2550.44
   18:50:31.874.09-Sep-2020 5280.51 5972.93 74.39 22.00  33.37 2550.44
   18:50:32.073.09-Sep-2020 5280.51 5976.93 74.39 22.00  33.57 2550.44
   18:50:32.273.09-Sep-2020 5280.51 5982.26 74.39 22.00  33.77 2550.44
   18:50:32.473.09-Sep-2020 5280.51 5991.60 74.39 22.00  33.97 2550.44
   18:50:32.673.09-Sep-2020 5280.51 5991.60 74.39 22.00  34.17 2550.44
   18:50:32.873.09-Sep-2020 5280.51 5925.17 74.39 22.00  34.37 2550.44
   18:50:33.073.09-Sep-2020 5280.51 5889.47 74.39 22.00  34.57 2550.44
   18:50:33.273.09-Sep-2020 5280.51 5864.83 74.39 22.00  34.77 2550.44
   18:50:33.472.09-Sep-2020 5280.51 5835.11 74.39 22.00  34.97 2550.44
   18:50:33.672.09-Sep-2020 5280.51 5835.11 74.39 22.00  35.17 2550.44
   18:50:33.872.09-Sep-2020 5280.51 5783.30 74.39 22.00  35.37 2550.44
   18:50:34.072.09-Sep-2020 5280.51 5762.75 74.39 22.00  35.57 2550.44
   18:50:34.272.09-Sep-2020 5280.51 5746.00 74.39 22.00  35.77 2550.44
   18:50:34.472.09-Sep-2020 5280.51 5736.10 74.39 22.00  35.97 2550.44
   18:50:34.671.09-Sep-2020 5280.51 5736.10 74.39 22.00  36.17 2550.44
   18:50:34.871.09-Sep-2020 5280.51 5711.19 74.39 22.00  36.37 2550.44
   18:50:35.071.09-Sep-2020 5280.51 5702.36 74.39 22.00  36.57 2550.44
   18:50:35.271.09-Sep-2020 5280.51 5695.58 74.38 22.00  36.77 2550.44
   18:50:35.471.09-Sep-2020 5280.51 5688.25 74.38 22.00  36.97 2550.44
   18:50:35.671.09-Sep-2020 5280.51 5688.25 74.38 22.00  37.17 2550.44
   18:50:35.870.09-Sep-2020 5280.51 5676.97 74.38 22.00  37.37 2550.44
   18:50:36.070.09-Sep-2020 5280.51 5673.31 74.38 22.00  37.57 2550.44
   18:50:36.270.09-Sep-2020 5280.51 5670.14 74.38 22.00  37.77 2550.44
   18:50:36.470.09-Sep-2020 5280.51 5667.55 74.38 22.00  37.97 2550.44
   18:50:36.670.09-Sep-2020 5280.51 5667.55 74.38 22.00  38.17 2550.44
   18:50:36.870.09-Sep-2020 5280.51 5662.55 74.38 22.00  38.37 2550.44
   18:50:37.070.09-Sep-2020 5280.51 5671.18 74.38 22.00  38.57 2550.44
   18:50:37.269.09-Sep-2020 5280.51 5224.58 74.38 22.00  38.77 2550.44
   18:50:37.469.09-Sep-2020 5280.51 4238.27 74.38 22.00  38.97 2550.44
   18:50:37.669.09-Sep-2020 5280.51 4238.27 74.38 22.00  39.17 2550.44
   18:50:37.869.09-Sep-2020 5280.51 2527.21 74.38 22.00  39.37 2550.44
   18:50:38.069.09-Sep-2020 5280.51 1823.28 74.38 22.00  39.57 2550.44
   18:50:38.269.09-Sep-2020 5280.51 1212.18 74.38 22.00  39.77 2550.44
   18:50:38.468.09-Sep-2020 5280.51  750.28 74.37 22.00  39.97 2550.44
   18:50:38.668.09-Sep-2020 5280.51  750.28 74.37 22.00  40.17 2550.44
   18:50:38.868.09-Sep-2020 5280.51  483.62 74.37 22.00  40.37 2550.44
   18:50:39.068.09-Sep-2020 5280.51  470.74 74.37 22.00  40.57 2550.44
   18:50:39.268.09-Sep-2020 5280.51  465.26 74.36 22.00  40.77 2550.44
   18:50:39.468.09-Sep-2020 5280.51  463.22 74.36 22.00  40.97 2550.44
   18:50:39.667.09-Sep-2020 5280.51  463.22 74.36 22.00  41.17 2550.44
   18:50:39.867.09-Sep-2020 5280.51  452.71 74.35 22.00  41.37 2550.44
   18:50:40.067.09-Sep-2020 5280.51  443.02 74.35 22.00  41.57 2550.44
   18:50:40.267.09-Sep-2020 5280.51  440.42 74.35 22.00  41.77 2550.44
   18:50:40.467.09-Sep-2020 5280.51  435.45 74.34 22.00  41.97 2550.44
   18:50:40.667.09-Sep-2020 5280.51  441.01 74.34 22.00  42.17 2550.44
   18:50:40.867.09-Sep-2020 5280.51  441.40 74.33 22.00  42.37 2550.44
   18:50:41.066.09-Sep-2020 5280.51  436.70 74.33 22.00  42.57 2550.44
   18:50:41.266.09-Sep-2020 5280.51  442.05 74.32 22.00  42.77 2550.44
   18:50:41.466.09-Sep-2020 5280.51  447.18 74.32 22.00  42.97 2550.44
   18:50:41.666.09-Sep-2020 5280.51  447.18 74.32 22.00  43.17 2550.44
   18:50:41.866.09-Sep-2020 5280.51  449.50 74.31 22.00  43.37 2550.44
   18:50:42.066.09-Sep-2020 5280.51  452.57 74.30 22.00  43.57 2550.44
   18:50:42.265.09-Sep-2020 5280.51  452.11 74.30 22.00  43.77 2550.44
   18:50:42.465.09-Sep-2020 5280.51  445.96 74.29 22.00  43.97 2550.44
   18:50:42.665.09-Sep-2020 5280.51  449.98 74.29 22.00  44.17 2550.44
   18:50:42.865.09-Sep-2020 5280.51  446.22 74.28 22.00  44.37 2550.44
   18:50:43.065.09-Sep-2020 5280.51  434.68 74.28 22.00  44.57 2550.44
   18:50:43.265.09-Sep-2020 5280.51  433.78 74.28 22.00  44.76 2550.44
   18:50:43.465.09-Sep-2020 5280.51  436.72 74.27 22.00  44.96 2550.44
