~Version Information
 VERS.                  2.0:   CWLS log ASCII Standard -VERSION 2.0
 WRAP.                   NO:   One line per depth step
~Well Information Block
#MNEM.UNIT     VALUE/NAME     DESCRIPTION
#---------     -----------    ---------------------------
 STRT.S             08:34:18 09-Sep-20: START TIME 08:34:18 09-Sep-20
 STOP.S             08:41:20 09-Sep-20: STOP TIME  08:41:20 09-Sep-20
 STEP.S                   0.00: STEP TIME
 NULL.                 -999.25: NULL VALUE
 MDS .        Operator Entered:  MAG DATA SOURCE
 PDAT.          Mean Sea Level:  PERMANENT DATUM
 DCON.         Sperry Drilling:  DIRECTNL CONTR
 RIG .              West Azeri:  RIG NAME
 WELL.           C40 (Slot 20):  WELL NAME
 SRVC.     Turan Drilling Engineering:  CONTRACTOR
 FLD .                     ACG:  FIELD NAME
 CTRY.              Azerbaijan:  COUNTRY NAME
 PROV.                    Baku:  PROVINCE
 STAT.                    Baku:  STATE NAME
 REGN.                   EESSA:  REGION
 BASE.              Azerbaijan:  LOGGING EQUIPMENT BASE LOCATION
 COMP.     BP Exploration (Caspian Sea) Ltd:  COMPANY
 WTYP.                Deviated:  WELL TYPE
 SON .        AZ-XX-0906344804:  JOB NUMBER
 FTOP.          Formation Tops:  FORM TOPS DESC
 ILTD.               Lithology:  INTERP LTH DESC
 SVYD.                  Survey:  SURVEY DESC
 DMOD.             Drill Model:  DRILL MOD DESC
 HPTY.       Minimum Curvature:  HOLE POS TYPE
 NREF.                    Grid:  NORTH REFERENCE
 SPUD.               01-Jan-20:  SPUD DATE
 DATE.      00.59.44 15-Sep-20:  END TIME
 STIM.      12.00.00 12-Jun-20:  START TIME
 DMF .             Drill Floor:  DRILL MEAS FROM
 DFST.                        :  DIST FSL TEXT
 DFWT.                        :  DIST FWL TEXT
 API .                        :  API NUMBER
 CNTY.                        :  COUNTY
 UWI .                        :  UNIQUE WELL IDENTIFIER
 LOC .                        :  LOCATION
 LMF .             Drill Floor:  LOG MEASURED FROM
 VSNS.m                   2.88:  VERT SEC N/S
 VSEW.m                  -3.84:  VERT SEC E/W
 AGAP.m                  43.42:  AIR GAP
 APD .m                  43.42:  DEPTH ABOVE PD
 WDMS.m                 118.27:  WD ELEV
 EGL .m                   0.00:  GROUND ELEVATION
 EPD .m                   0.00:  ELEVATION
 AZTC.deg                 6.23:  AZM TOTAL CORR
 GRDC.deg                 0.20:  GRID CORRECTION
 MDEC.deg                 6.43:  MAGNETIC DECL
 MDIP.deg                59.49:  MAGNETIC DIP
 MFLD.nT              50277.00:  MAGNETIC FIELD
 GVFD.g                   1.00:  GRAVITY FIELD
 VSDR.deg               173.20:  VERT SEC DIRECT
 TDD .m                5790.01:  TOTAL DEPTH (DRILLER)
 SDEP.m                5231.01:  START DEPTH
 DFSL.m                   0.00:  DISTANCE FSL
 DFWL.m                   0.00:  DISTANCE FWL
 UTMY.m             4435808.83:  UTM Y
 UTMX.m              526266.40:  UTM X
 WHEW.m                  -3.84:  WELL HEAD E/W
 WHNS.m                   2.88:  WELL HEAD N/S
 LONG.deg                51.31:  LONGITUDE
 LATI.deg                40.06:  LATITUDE
 TVDS.m                  43.42:  TVDSS CORRECTN
 DEP .m                 430.08:  DEPTH
 EKB .m                  43.42:  KB ELEVATION
 EDF .m                  43.42:  DF ELEVATION
 TDL .m                 559.00:  TOTAL DEPTH (LOGGER)
 MAGU.                 1849381:  MAGUTM CHECKSUM
 VSC .                       0:  VS TO CLOSURE
~Parameter Information Block
#MNEM.UNIT       Value        Description
#---------     -----------    ---------------------------
 AV  .mps                 4.87:  Ann Velocity 
 AVMX.mps                 7.08:  Max Ann Veloc 
 AZIF.deg               108.87:  Azm, Final 
 BHAT.                  Rotary:  BHA Type 
 BROT.°/30m               0.35:  Build Rotating 
 BS  .in                  8.50:  Bit Size 
 BSZ .in                  8.50:  Bit Size 
 BTPL.psig              360.00:  Bit Press Loss 
 CABU.                     Yes:  Customer Abuse 
 COMM.                     \¸P:  Run Comments 1 
 TCS .hr                106.24:  Time Ciculation Ended 
 CV  .mps                 1.77:  Crit Velocity 
 CVMX.mps                 2.03:  Max Crit Veloc 
 DD1 .         Aykhan Agagulov:  Direct Drillr 1 
 DD2 .            Nonso Okofor:  Direct Drillr 2 
 DDSV.               Geo-Pilot:  DD Service 
 DEFF.%                  98.00:  % Det Eff 
 DLRX.°/30m               0.50:  Dogleg Rot Max 
 DLSO.°/30m               0.40:  Dogleg Oriented 
 DLSX.°/30m               0.94:  Dogleg Str Max 
 DRET.      20.30.00 08-Sep-20:  Drill End Time 
 DRST.      22.15.00 06-Sep-20:  Drill Start Tim 
 DTIM.hr                 31.31:  Time Drilling 
 EDEP.m                5790.01:  End Depth 
 ENG1.           Amrah Tahirov:  Engineer 1 
 ENG2.         Dair Mahammadov:  Engineer 2 
 ENG3.           Emil Huseynov:  Engineer 3 
 ETIM.      04.01.04 12-Sep-20:  End Time 
 FLOI.gpm               450.00:  Flow In 
 FLON.gpm               450.00:  Flow In Min 
 FLOS.cptm                2.00:  Fluid Loss 
 FLOX.gpm               450.00:  Flow In Max 
 FTRO.       Formation Presure:  FTWD Run Obj 
 HFLO.                      No:  High Flow 
 HPRE.                      No:  High Pressure 
 HTEM.                      No:  High Temp 
 HYDO.m                   1.80:  Hydro Offset 
 IFIN.deg                72.03:  Inc, Final 
 IMAX.deg                73.72:  Inc Max 
 IMIN.deg                70.94:  Inc Min 
 IMND.m                5508.52:  Inc Min Depth 
 IMXD.m                5253.60:  Inc Max Depth 
 JARR.                      No:  Jarring 
 LETM.      20.30.00 08-Sep-20:  Log End Time 
 LOST.hr                     0:  Lost Rig Time 
 LSTM.      22.15.00 06-Sep-20:  Log Start Time 
 MDCL.ppm             36000.00:  Mud Chlorides 
 MDES.     Inversion Oil/Synthetic:  Mud Desc 
 DFD .sg                  1.44:  Mud Density 
 MDMN.sg                  1.44:  Dens Mud Min 
 MDMX.sg                  1.57:  Dens Mud Max 
 MOIL.                      70:  Run Mud Oil % 
 MOWR.                   70:30:  Run Mud OWR 
 MSND.                       0:  Run Mud Sand % 
 MSOL.                      21:  Run Mud Solids% 
 DFV .spqt               68.00:  Mud Viscosity 
 MWOD.in                  6.75:  MWD Tool OD 
 MWSI.                     Yes:  Serv Intrp, MWD 
 OTIM.hr                174.84:  Time Operating 
 PCON.           Look Like New:  Pad Condition 
 PMAX.psia            10616.93:  Press Op, Max 
 PV  .cP                 50.00:  Mud PV 
 RUN .                     700:  Run Number 
 ROPA.m/hr               14.24:  ROP Avg 
 ROPN.m/hr               10.00:  ROP Min 
 ROPX.m/hr               32.00:  ROP Max 
 RPMA.rpm               120.90:  RPM Surface Avg 
 RPMN.rpm               120.00:  RPM Surface Min 
 RPMX.rpm               140.00:  RPM Surface Max 
 RRUN.                    0700:  Rig Run Number 
 RTIM.hr                  3.20:  Time Reaming 
 SAZI.deg               109.99:  Azm, Start 
 SDEP.m                5231.01:  Start Depth 
 SIDD.                      No:  Serv Intrp, DD 
 SINC.deg                73.72:  Inc, Start 
 SPPA.psig             3051.00:  SPP Avg 
 SPPN.psig             2950.00:  SPP Min 
 SPPX.psig             3250.00:  SPP Max 
 STIM.      08.00.00 05-Sep-20:  Start Time 
 SVCS.                 DD, MWD:  Services 
 SVER.                    9.20:  Sperry Version 
 TDAT.m                 559.00:  Tot Depth Attmp 
 TDDF.                      No:  Trip for DD 
 TDLG.m                 559.00:  Tot Depth Loggd 
 TFF .                      No:  Trip for Fail 
 TQAA.f-kp               26.49:  Torque Abs Avg 
 TQAN.f-kp               25.00:  Torque Abs Min 
 TQAX.f-kp               27.00:  Torque Abs Max 
 TRRT.°/30m               1.50:  Turn Rotating 
 MRT .                    HCIM:  Maximum Recorded Temperature 
 TTMX.degC               90.20:  Max Tool Temp 
 VS01.                90542671:  Virtual Str1 SN 
 VS02.                90545185:  Virtual Str2 SN 
 VS03.                90602015:  Virtual Str3 SN 
 VS04.                90515230:  Virtual Str4 SN 
 WBMN.klb                 5.00:  WOB Min 
 WOBA.klb                14.79:  WOB Avg 
 WOBX.klb                20.00:  WOB Max 
 YP  .lhf2               29.00:  Yield Point 
~Curve Information Block
#MNEM.UNIT                 API CODE     Curve Description
#---------               -----------    ---------------------------
 TIME.HHMMSS            00 000 000 000:  GT Time & Date
 GTDEPTH.m              00 000 000 000:  GT Depth
 GTPQH.psia             00 000 000 000:  GT HR Quartz Pressure
 GTTQ.degC              00 000 000 000:  GT Quartz Temperature
 GTTN.NONE              00 000 000 000:  GT Test Number
 GTET.sec               00 000 000 000:  GT Elapsed Test Time
 GTTVD.m                00 000 000 000:  GT True Vertical Depth
#Other Information
#
#WARRANTY: Halliburton will use its best efforts to furnish customers with 
#accurate information and interpretations that are part of, and incident to, the services 
#provided.  However, Halliburton cannot and does not warrant the accuracy 
#or correctness of such information and interpretations.  Under no circumstances should any 
#such information or interpretation be relied upon as the sole basis for any drilling, 
#completion, production, or financial decision or any procedure involving any risk to the 
#safety of any drilling venture, drilling rig or its crew or any other third party.  The 
#Customer has full responsibility for all drilling, completion and production operation.  
#Halliburton makes no representations or warranties, either expressed or 
#implied, including, but not limited to, the implied warranties of merchantability or fitness 
#for a particular purpose, with respect to the services rendered.  In no event will 
#Halliburton be liable for failure to obtain any particular results or for 
#any damages, including, but not limited to, indirect, special or consequential damages, 
#resulting from the use of any information or interpretation provided by Halliburton.
#
~A           TIME           GTDEPTH  GTPQH  GTTQ  GTTN  GTET   GTTVD  
# ...
   08:34:41.806.09-Sep-2020 5524.01 6361.01 77.67 6.00  23.01 2626.56
   08:34:42.006.09-Sep-2020 5524.01 6361.01 77.67 6.00  23.21 2626.56
   08:34:42.206.09-Sep-2020 5524.01 6362.12 77.67 6.00  23.41 2626.56
   08:34:42.406.09-Sep-2020 5524.01 6362.90 77.67 6.00  23.61 2626.56
   08:34:42.606.09-Sep-2020 5524.01 6369.70 77.67 6.00  23.81 2626.56
   08:34:42.806.09-Sep-2020 5524.01 6360.88 77.67 6.00  24.01 2626.56
   08:34:43.006.09-Sep-2020 5524.01 6363.44 77.67 6.00  24.21 2626.56
   08:34:43.206.09-Sep-2020 5524.01 6365.62 77.67 6.00  24.41 2626.56
   08:34:43.406.09-Sep-2020 5524.01 6363.95 77.67 6.00  24.61 2626.56
   08:34:43.606.09-Sep-2020 5524.01 6364.97 77.67 6.00  24.81 2626.56
   08:34:43.807.09-Sep-2020 5524.01 6374.98 77.67 6.00  25.01 2626.56
   08:34:44.007.09-Sep-2020 5524.01 6374.98 77.67 6.00  25.21 2626.56
   08:34:44.207.09-Sep-2020 5524.01 6365.07 77.67 6.00  25.41 2626.56
   08:34:44.407.09-Sep-2020 5524.01 6367.26 77.67 6.00  25.61 2626.56
   08:34:44.607.09-Sep-2020 5524.01 6366.97 77.67 6.00  25.81 2626.56
   08:34:44.807.09-Sep-2020 5524.01 6366.99 77.67 6.00  26.01 2626.56
   08:34:45.007.09-Sep-2020 5524.01 6366.99 77.67 6.00  26.21 2626.56
   08:34:45.207.09-Sep-2020 5524.01 6374.56 77.67 6.00  26.41 2626.56
   08:34:45.407.09-Sep-2020 5524.01 6364.05 77.67 6.00  26.61 2626.56
   08:34:45.607.09-Sep-2020 5524.01 6367.87 77.67 6.00  26.81 2626.56
   08:34:45.807.09-Sep-2020 5524.01 6370.20 77.67 6.00  27.01 2626.56
   08:34:46.007.09-Sep-2020 5524.01 6368.64 77.67 6.00  27.21 2626.56
   08:34:46.207.09-Sep-2020 5524.01 6369.87 77.67 6.00  27.41 2626.56
   08:34:46.408.09-Sep-2020 5524.01 6376.27 77.67 6.00  27.61 2626.56
   08:34:46.608.09-Sep-2020 5524.01 6367.74 77.67 6.00  27.81 2626.56
   08:34:46.808.09-Sep-2020 5524.01 6370.09 77.67 6.00  28.01 2626.56
   08:34:47.008.09-Sep-2020 5524.01 6370.09 77.67 6.00  28.21 2626.56
   08:34:47.208.09-Sep-2020 5524.01 6370.77 77.67 6.00  28.41 2626.56
   08:34:47.408.09-Sep-2020 5524.01 6371.79 77.67 6.00  28.61 2626.56
   08:34:47.608.09-Sep-2020 5524.01 6370.91 77.67 6.00  28.81 2626.56
   08:34:47.808.09-Sep-2020 5524.01 6372.27 77.67 6.00  29.01 2626.56
   08:34:48.008.09-Sep-2020 5524.01 6372.27 77.67 6.00  29.21 2626.56
   08:34:48.208.09-Sep-2020 5524.01 6372.14 77.67 6.00  29.41 2626.56
   08:34:48.408.09-Sep-2020 5524.01 6372.59 77.67 6.00  29.61 2626.56
   08:34:48.608.09-Sep-2020 5524.01 6372.03 77.67 6.00  29.81 2626.56
   08:34:48.809.09-Sep-2020 5524.01 6372.08 77.67 6.00  30.01 2626.56
   08:34:49.009.09-Sep-2020 5524.01 6372.08 77.67 6.00  30.21 2626.56
   08:34:49.209.09-Sep-2020 5524.01 6372.75 77.67 6.00  30.41 2626.56
   08:34:49.409.09-Sep-2020 5524.01 6373.34 77.67 6.00  30.61 2626.56
   08:34:49.609.09-Sep-2020 5524.01 6373.83 77.67 6.00  30.81 2626.56
   08:34:49.809.09-Sep-2020 5524.01 6373.95 77.67 6.00  31.01 2626.56
   08:34:50.009.09-Sep-2020 5524.01 6381.90 77.67 6.00  31.21 2626.56
   08:34:50.209.09-Sep-2020 5524.01 6372.92 77.67 6.00  31.41 2626.56
   08:34:50.409.09-Sep-2020 5524.01 6374.09 77.67 6.00  31.61 2626.56
   08:34:50.609.09-Sep-2020 5524.01 6376.83 77.67 6.00  31.81 2626.56
   08:34:50.809.09-Sep-2020 5524.01 6377.17 77.67 6.00  32.01 2626.56
   08:34:51.009.09-Sep-2020 5524.01 6377.17 77.67 6.00  32.21 2626.56
   08:34:51.209.09-Sep-2020 5524.01 6376.56 77.67 6.00  32.41 2626.56
   08:34:51.410.09-Sep-2020 5524.01 6377.15 77.67 6.00  32.61 2626.56
   08:34:51.610.09-Sep-2020 5524.01 6377.12 77.67 6.00  32.81 2626.56
   08:34:51.810.09-Sep-2020 5524.01 6377.06 77.67 6.00  33.01 2626.56
   08:34:52.010.09-Sep-2020 5524.01 6377.06 77.67 6.00  33.21 2626.56
   08:34:52.210.09-Sep-2020 5524.01 6376.88 77.67 6.00  33.41 2626.56
   08:34:52.410.09-Sep-2020 5524.01 6377.00 77.67 6.00  33.61 2626.56
   08:34:52.610.09-Sep-2020 5524.01 6377.91 77.67 6.00  33.81 2626.56
   08:34:52.810.09-Sep-2020 5524.01 6378.85 77.67 6.00  34.01 2626.56
   08:34:53.010.09-Sep-2020 5524.01 6378.85 77.67 6.00  34.21 2626.56
   08:34:53.210.09-Sep-2020 5524.01 6378.66 77.67 6.00  34.41 2626.56
   08:34:53.410.09-Sep-2020 5524.01 6386.12 77.67 6.00  34.61 2626.56
   08:34:53.610.09-Sep-2020 5524.01 6377.14 77.67 6.00  34.81 2626.56
   08:34:53.810.09-Sep-2020 5524.01 6378.57 77.67 6.00  35.01 2626.56
   08:34:54.011.09-Sep-2020 5524.01 6381.49 77.67 6.00  35.21 2626.56
   08:34:54.211.09-Sep-2020 5524.01 6381.60 77.67 6.00  35.41 2626.56
   08:34:54.411.09-Sep-2020 5524.01 6379.88 77.67 6.00  35.61 2626.56
   08:34:54.611.09-Sep-2020 5524.01 6391.52 77.67 6.00  35.81 2626.56
   08:34:54.811.09-Sep-2020 5524.01 6374.66 77.67 6.00  36.01 2626.56
   08:34:55.011.09-Sep-2020 5524.01 6374.66 77.67 6.00  36.21 2626.56
   08:34:55.211.09-Sep-2020 5524.01 6382.76 77.67 6.00  36.41 2626.56
   08:34:55.411.09-Sep-2020 5524.01 6382.25 77.67 6.00  36.61 2626.56
   08:34:55.611.09-Sep-2020 5524.01 6382.48 77.67 6.00  36.81 2626.56
   08:34:55.811.09-Sep-2020 5524.01 6382.03 77.66 6.00  37.01 2626.56
   08:34:56.011.09-Sep-2020 5524.01 6382.03 77.66 6.00  37.21 2626.56
   08:34:56.211.09-Sep-2020 5524.01 6380.50 77.66 6.00  37.41 2626.56
   08:34:56.412.09-Sep-2020 5524.01 6383.41 77.66 6.00  37.61 2626.56
   08:34:56.612.09-Sep-2020 5524.01 6385.96 77.66 6.00  37.81 2626.56
   08:34:56.812.09-Sep-2020 5524.01 6383.31 77.66 6.00  38.02 2626.56
   08:34:57.012.09-Sep-2020 5524.01 6383.31 77.66 6.00  38.22 2626.56
   08:34:57.212.09-Sep-2020 5524.01 6384.32 77.66 6.00  38.42 2626.56
   08:34:57.412.09-Sep-2020 5524.01 6435.55 77.66 6.00  38.62 2626.56
   08:34:57.612.09-Sep-2020 5524.01 6487.40 77.66 6.00  38.82 2626.56
   08:34:57.812.09-Sep-2020 5524.01 6497.85 77.66 6.00  39.02 2626.56
   08:34:58.012.09-Sep-2020 5524.01 6517.42 77.66 6.00  39.22 2626.56
   08:34:58.212.09-Sep-2020 5524.01 6525.84 77.66 6.00  39.42 2626.56
   08:34:58.412.09-Sep-2020 5524.01 6522.79 77.66 6.00  39.62 2626.56
   08:34:58.612.09-Sep-2020 5524.01 6518.25 77.66 6.00  39.82 2626.56
   08:34:58.812.09-Sep-2020 5524.01 6508.32 77.66 6.00  40.02 2626.56
   08:34:59.013.09-Sep-2020 5524.01 6479.51 77.66 6.00  40.22 2626.56
   08:34:59.213.09-Sep-2020 5524.01 6448.34 77.66 6.00  40.42 2626.56
   08:34:59.413.09-Sep-2020 5524.01 6418.72 77.66 6.00  40.62 2626.56
   08:34:59.613.09-Sep-2020 5524.01 6392.20 77.66 6.00  40.82 2626.56
   08:34:59.813.09-Sep-2020 5524.01 6366.85 77.66 6.00  41.02 2626.56
   08:35:00.013.09-Sep-2020 5524.01 6366.85 77.66 6.00  41.22 2626.56
   08:35:00.213.09-Sep-2020 5524.01 6323.74 77.66 6.00  41.42 2626.56
   08:35:00.413.09-Sep-2020 5524.01 6304.66 77.66 6.00  41.62 2626.56
   08:35:00.613.09-Sep-2020 5524.01 6286.11 77.66 6.00  41.82 2626.56
   08:35:00.813.09-Sep-2020 5524.01 6270.38 77.66 6.00  42.02 2626.56
   08:35:01.013.09-Sep-2020 5524.01 6270.38 77.66 6.00  42.22 2626.56
   08:35:01.213.09-Sep-2020 5524.01 6245.46 77.66 6.00  42.42 2626.56
   08:35:01.413.09-Sep-2020 5524.01 6235.37 77.66 6.00  42.62 2626.56
   08:35:01.614.09-Sep-2020 5524.01 6225.91 77.66 6.00  42.82 2626.56
   08:35:01.814.09-Sep-2020 5524.01 6217.05 77.66 6.00  43.02 2626.56
   08:35:02.014.09-Sep-2020 5524.01 6217.05 77.66 6.00  43.22 2626.56
   08:35:02.214.09-Sep-2020 5524.01 6201.47 77.66 6.00  43.42 2626.56
   08:35:02.414.09-Sep-2020 5524.01 6193.55 77.66 6.00  43.62 2626.56
   08:35:02.614.09-Sep-2020 5524.01 6188.68 77.66 6.00  43.82 2626.56
   08:35:02.814.09-Sep-2020 5524.01 6010.70 77.66 6.00  44.02 2626.56
   08:35:03.014.09-Sep-2020 5524.01 5222.29 77.66 6.00  44.22 2626.56
   08:35:03.214.09-Sep-2020 5524.01 4536.43 77.66 6.00  44.42 2626.56
   08:35:03.414.09-Sep-2020 5524.01 4182.43 77.66 6.00  44.62 2626.56
   08:35:03.614.09-Sep-2020 5524.01 3619.82 77.66 6.00  44.82 2626.56
   08:35:03.814.09-Sep-2020 5524.01 3513.09 77.66 6.00  45.02 2626.56
   08:35:04.015.09-Sep-2020 5524.01 3513.09 77.66 6.00  45.22 2626.56
   08:35:04.215.09-Sep-2020 5524.01 3505.12 77.65 6.00  45.42 2626.56
   08:35:04.415.09-Sep-2020 5524.01 3504.66 77.65 6.00  45.62 2626.56
   08:35:04.615.09-Sep-2020 5524.01 3499.61 77.65 6.00  45.82 2626.56
