~Version Information
 VERS.                  2.0:   CWLS log ASCII Standard -VERSION 2.0
 WRAP.                   NO:   One line per depth step
~Well Information Block
#MNEM.UNIT     VALUE/NAME     DESCRIPTION
#---------     -----------    ---------------------------
 STRT.S             14:18:02 09-Sep-20: START TIME 14:18:02 09-Sep-20
 STOP.S             14:26:13 09-Sep-20: STOP TIME  14:26:13 09-Sep-20
 STEP.S                   0.00: STEP TIME
 NULL.                 -999.25: NULL VALUE
 MDS .        Operator Entered:  MAG DATA SOURCE
 PDAT.          Mean Sea Level:  PERMANENT DATUM
 DCON.         Sperry Drilling:  DIRECTNL CONTR
 RIG .              West Azeri:  RIG NAME
 WELL.           C40 (Slot 20):  WELL NAME
 SRVC.     Turan Drilling Engineering:  CONTRACTOR
 FLD .                     ACG:  FIELD NAME
 CTRY.              Azerbaijan:  COUNTRY NAME
 PROV.                    Baku:  PROVINCE
 STAT.                    Baku:  STATE NAME
 REGN.                   EESSA:  REGION
 BASE.              Azerbaijan:  LOGGING EQUIPMENT BASE LOCATION
 COMP.     BP Exploration (Caspian Sea) Ltd:  COMPANY
 WTYP.                Deviated:  WELL TYPE
 SON .        AZ-XX-0906344804:  JOB NUMBER
 FTOP.          Formation Tops:  FORM TOPS DESC
 ILTD.               Lithology:  INTERP LTH DESC
 SVYD.                  Survey:  SURVEY DESC
 DMOD.             Drill Model:  DRILL MOD DESC
 HPTY.       Minimum Curvature:  HOLE POS TYPE
 NREF.                    Grid:  NORTH REFERENCE
 SPUD.               01-Jan-20:  SPUD DATE
 DATE.      00.59.44 15-Sep-20:  END TIME
 STIM.      12.00.00 12-Jun-20:  START TIME
 DMF .             Drill Floor:  DRILL MEAS FROM
 DFST.                        :  DIST FSL TEXT
 DFWT.                        :  DIST FWL TEXT
 API .                        :  API NUMBER
 CNTY.                        :  COUNTY
 UWI .                        :  UNIQUE WELL IDENTIFIER
 LOC .                        :  LOCATION
 LMF .             Drill Floor:  LOG MEASURED FROM
 VSNS.m                   2.88:  VERT SEC N/S
 VSEW.m                  -3.84:  VERT SEC E/W
 AGAP.m                  43.42:  AIR GAP
 APD .m                  43.42:  DEPTH ABOVE PD
 WDMS.m                 118.27:  WD ELEV
 EGL .m                   0.00:  GROUND ELEVATION
 EPD .m                   0.00:  ELEVATION
 AZTC.deg                 6.23:  AZM TOTAL CORR
 GRDC.deg                 0.20:  GRID CORRECTION
 MDEC.deg                 6.43:  MAGNETIC DECL
 MDIP.deg                59.49:  MAGNETIC DIP
 MFLD.nT              50277.00:  MAGNETIC FIELD
 GVFD.g                   1.00:  GRAVITY FIELD
 VSDR.deg               173.20:  VERT SEC DIRECT
 TDD .m                5790.01:  TOTAL DEPTH (DRILLER)
 SDEP.m                5231.01:  START DEPTH
 DFSL.m                   0.00:  DISTANCE FSL
 DFWL.m                   0.00:  DISTANCE FWL
 UTMY.m             4435808.83:  UTM Y
 UTMX.m              526266.40:  UTM X
 WHEW.m                  -3.84:  WELL HEAD E/W
 WHNS.m                   2.88:  WELL HEAD N/S
 LONG.deg                51.31:  LONGITUDE
 LATI.deg                40.06:  LATITUDE
 TVDS.m                  43.42:  TVDSS CORRECTN
 DEP .m                 430.08:  DEPTH
 EKB .m                  43.42:  KB ELEVATION
 EDF .m                  43.42:  DF ELEVATION
 TDL .m                 559.00:  TOTAL DEPTH (LOGGER)
 MAGU.                 1849381:  MAGUTM CHECKSUM
 VSC .                       0:  VS TO CLOSURE
~Parameter Information Block
#MNEM.UNIT       Value        Description
#---------     -----------    ---------------------------
 AV  .mps                 4.87:  Ann Velocity 
 AVMX.mps                 7.08:  Max Ann Veloc 
 AZIF.deg               108.87:  Azm, Final 
 BHAT.                  Rotary:  BHA Type 
 BROT.°/30m               0.35:  Build Rotating 
 BS  .in                  8.50:  Bit Size 
 BSZ .in                  8.50:  Bit Size 
 BTPL.psig              360.00:  Bit Press Loss 
 CABU.                     Yes:  Customer Abuse 
 TCS .hr                106.24:  Time Ciculation Ended 
 CV  .mps                 1.77:  Crit Velocity 
 CVMX.mps                 2.03:  Max Crit Veloc 
 DD1 .         Aykhan Agagulov:  Direct Drillr 1 
 DD2 .            Nonso Okofor:  Direct Drillr 2 
 DDSV.               Geo-Pilot:  DD Service 
 DEFF.%                  98.00:  % Det Eff 
 DLRX.°/30m               0.50:  Dogleg Rot Max 
 DLSO.°/30m               0.40:  Dogleg Oriented 
 DLSX.°/30m               0.94:  Dogleg Str Max 
 DRET.      20.30.00 08-Sep-20:  Drill End Time 
 DRST.      22.15.00 06-Sep-20:  Drill Start Tim 
 DTIM.hr                 31.31:  Time Drilling 
 EDEP.m                5790.01:  End Depth 
 ENG1.           Amrah Tahirov:  Engineer 1 
 ENG2.         Dair Mahammadov:  Engineer 2 
 ENG3.           Emil Huseynov:  Engineer 3 
 ETIM.      04.01.04 12-Sep-20:  End Time 
 FLOI.gpm               450.00:  Flow In 
 FLON.gpm               450.00:  Flow In Min 
 FLOS.cptm                2.00:  Fluid Loss 
 FLOX.gpm               450.00:  Flow In Max 
 FTRO.       Formation Presure:  FTWD Run Obj 
 HFLO.                      No:  High Flow 
 HPRE.                      No:  High Pressure 
 HTEM.                      No:  High Temp 
 HYDO.m                   1.80:  Hydro Offset 
 IFIN.deg                72.03:  Inc, Final 
 IMAX.deg                73.72:  Inc Max 
 IMIN.deg                70.94:  Inc Min 
 IMND.m                5508.52:  Inc Min Depth 
 IMXD.m                5253.60:  Inc Max Depth 
 JARR.                      No:  Jarring 
 LETM.      20.30.00 08-Sep-20:  Log End Time 
 LOST.hr                     0:  Lost Rig Time 
 LSTM.      22.15.00 06-Sep-20:  Log Start Time 
 MDCL.ppm             36000.00:  Mud Chlorides 
 MDES.     Inversion Oil/Synthetic:  Mud Desc 
 DFD .sg                  1.44:  Mud Density 
 MDMN.sg                  1.44:  Dens Mud Min 
 MDMX.sg                  1.57:  Dens Mud Max 
 MOIL.                      70:  Run Mud Oil % 
 MOWR.                   70:30:  Run Mud OWR 
 MSND.                       0:  Run Mud Sand % 
 MSOL.                      21:  Run Mud Solids% 
 DFV .spqt               68.00:  Mud Viscosity 
 MWOD.in                  6.75:  MWD Tool OD 
 MWSI.                     Yes:  Serv Intrp, MWD 
 OTIM.hr                174.84:  Time Operating 
 PCON.           Look Like New:  Pad Condition 
 PMAX.psia            10616.93:  Press Op, Max 
 PV  .cP                 50.00:  Mud PV 
 RUN .                     700:  Run Number 
 ROPA.m/hr               14.24:  ROP Avg 
 ROPN.m/hr               10.00:  ROP Min 
 ROPX.m/hr               32.00:  ROP Max 
 RPMA.rpm               120.90:  RPM Surface Avg 
 RPMN.rpm               120.00:  RPM Surface Min 
 RPMX.rpm               140.00:  RPM Surface Max 
 RRUN.                    0700:  Rig Run Number 
 RTIM.hr                  3.20:  Time Reaming 
 SAZI.deg               109.99:  Azm, Start 
 SDEP.m                5231.01:  Start Depth 
 SIDD.                      No:  Serv Intrp, DD 
 SINC.deg                73.72:  Inc, Start 
 SPPA.psig             3051.00:  SPP Avg 
 SPPN.psig             2950.00:  SPP Min 
 SPPX.psig             3250.00:  SPP Max 
 STIM.      08.00.00 05-Sep-20:  Start Time 
 SVCS.                 DD, MWD:  Services 
 SVER.                    9.20:  Sperry Version 
 TDAT.m                 559.00:  Tot Depth Attmp 
 TDDF.                      No:  Trip for DD 
 TDLG.m                 559.00:  Tot Depth Loggd 
 TFF .                      No:  Trip for Fail 
 TQAA.f-kp               26.49:  Torque Abs Avg 
 TQAN.f-kp               25.00:  Torque Abs Min 
 TQAX.f-kp               27.00:  Torque Abs Max 
 TRRT.°/30m               1.50:  Turn Rotating 
 MRT .                    HCIM:  Maximum Recorded Temperature 
 TTMX.degC               90.20:  Max Tool Temp 
 VS01.                90542671:  Virtual Str1 SN 
 VS02.                90545185:  Virtual Str2 SN 
 VS03.                90602015:  Virtual Str3 SN 
 VS04.                90515230:  Virtual Str4 SN 
 WBMN.klb                 5.00:  WOB Min 
 WOBA.klb                14.79:  WOB Avg 
 WOBX.klb                20.00:  WOB Max 
 YP  .lhf2               29.00:  Yield Point 
~Curve Information Block
#MNEM.UNIT                 API CODE     Curve Description
#---------               -----------    ---------------------------
 TIME.HHMMSS            00 000 000 000:  GT Time & Date
 GTDEPTH.m              00 000 000 000:  GT Depth
 GTPQH.psia             00 000 000 000:  GT HR Quartz Pressure
 GTTQ.degC              00 000 000 000:  GT Quartz Temperature
 GTTN.NONE              00 000 000 000:  GT Test Number
 GTET.sec               00 000 000 000:  GT Elapsed Test Time
 GTTVD.m                00 000 000 000:  GT True Vertical Depth
#Other Information
#
#WARRANTY: Halliburton will use its best efforts to furnish customers with 
#accurate information and interpretations that are part of, and incident to, the services 
#provided.  However, Halliburton cannot and does not warrant the accuracy 
#or correctness of such information and interpretations.  Under no circumstances should any 
#such information or interpretation be relied upon as the sole basis for any drilling, 
#completion, production, or financial decision or any procedure involving any risk to the 
#safety of any drilling venture, drilling rig or its crew or any other third party.  The 
#Customer has full responsibility for all drilling, completion and production operation.  
#Halliburton makes no representations or warranties, either expressed or 
#implied, including, but not limited to, the implied warranties of merchantability or fitness 
#for a particular purpose, with respect to the services rendered.  In no event will 
#Halliburton be liable for failure to obtain any particular results or for 
#any damages, including, but not limited to, indirect, special or consequential damages, 
#resulting from the use of any information or interpretation provided by Halliburton.
#
~A           TIME           GTDEPTH  GTPQH  GTTQ  GTTN   GTET   GTTVD  
# ...
   14:19:10.062.09-Sep-2020 5408.01  809.24 75.14 16.00  67.84 2589.60
   14:19:10.262.09-Sep-2020 5408.01  811.69 75.14 16.00  68.04 2589.60
   14:19:10.462.09-Sep-2020 5408.01  814.07 75.14 16.00  68.24 2589.60
   14:19:10.662.09-Sep-2020 5408.01  816.14 75.14 16.00  68.44 2589.60
   14:19:10.863.09-Sep-2020 5408.01  818.14 75.14 16.00  68.64 2589.60
   14:19:11.063.09-Sep-2020 5408.01  820.30 75.14 16.00  68.84 2589.60
   14:19:11.263.09-Sep-2020 5408.01  822.08 75.14 16.00  69.04 2589.60
   14:19:11.463.09-Sep-2020 5408.01  822.08 75.14 16.00  69.24 2589.60
   14:19:11.663.09-Sep-2020 5408.01  826.02 75.14 16.00  69.44 2589.60
   14:19:11.863.09-Sep-2020 5408.01  828.00 75.15 16.00  69.64 2589.60
   14:19:12.063.09-Sep-2020 5408.01  829.86 75.15 16.00  69.84 2589.60
   14:19:12.263.09-Sep-2020 5408.01  831.67 75.15 16.00  70.04 2589.60
   14:19:12.463.09-Sep-2020 5408.01  831.67 75.15 16.00  70.24 2589.60
   14:19:12.664.09-Sep-2020 5408.01  835.23 75.15 16.00  70.44 2589.60
   14:19:12.864.09-Sep-2020 5408.01  837.00 75.15 16.00  70.64 2589.60
   14:19:13.064.09-Sep-2020 5408.01  838.69 75.15 16.00  70.84 2589.60
   14:19:13.264.09-Sep-2020 5408.01  840.34 75.15 16.00  71.04 2589.60
   14:19:13.464.09-Sep-2020 5408.01  842.02 75.15 16.00  71.24 2589.60
   14:19:13.664.09-Sep-2020 5408.01  843.65 75.15 16.00  71.44 2589.60
   14:19:13.864.09-Sep-2020 5408.01  845.21 75.15 16.00  71.64 2589.60
   14:19:14.064.09-Sep-2020 5408.01  846.77 75.15 16.00  71.84 2589.60
   14:19:14.265.09-Sep-2020 5408.01  848.38 75.15 16.00  72.04 2589.60
   14:19:14.465.09-Sep-2020 5408.01  850.00 75.15 16.00  72.24 2589.60
   14:19:14.665.09-Sep-2020 5408.01  851.59 75.15 16.00  72.44 2589.60
   14:19:14.865.09-Sep-2020 5408.01  853.12 75.15 16.00  72.64 2589.60
   14:19:15.065.09-Sep-2020 5408.01  853.81 75.15 16.00  72.84 2589.60
   14:19:15.265.09-Sep-2020 5408.01  856.50 75.15 16.00  73.04 2589.60
   14:19:15.465.09-Sep-2020 5408.01  856.50 75.15 16.00  73.24 2589.60
   14:19:15.665.09-Sep-2020 5408.01  859.72 75.15 16.00  73.44 2589.60
   14:19:15.866.09-Sep-2020 5408.01  861.15 75.15 16.00  73.65 2589.60
   14:19:16.066.09-Sep-2020 5408.01  862.98 75.15 16.00  73.85 2589.60
   14:19:16.266.09-Sep-2020 5408.01  864.32 75.15 16.00  74.05 2589.60
   14:19:16.466.09-Sep-2020 5408.01  864.32 75.15 16.00  74.25 2589.60
   14:19:16.666.09-Sep-2020 5408.01  867.29 75.16 16.00  74.45 2589.60
   14:19:16.866.09-Sep-2020 5408.01  868.70 75.16 16.00  74.65 2589.60
   14:19:17.066.09-Sep-2020 5408.01  870.11 75.16 16.00  74.85 2589.60
   14:19:17.266.09-Sep-2020 5408.01  871.51 75.16 16.00  75.05 2589.60
   14:19:17.467.09-Sep-2020 5408.01  871.51 75.16 16.00  75.25 2589.60
   14:19:17.667.09-Sep-2020 5408.01  874.30 75.16 16.00  75.45 2589.60
   14:19:17.867.09-Sep-2020 5408.01  875.69 75.16 16.00  75.65 2589.60
   14:19:18.067.09-Sep-2020 5408.01  877.03 75.16 16.00  75.85 2589.60
   14:19:18.267.09-Sep-2020 5408.01  877.90 75.16 16.00  76.05 2589.60
   14:19:18.467.09-Sep-2020 5408.01  880.10 75.16 16.00  76.25 2589.60
   14:19:18.667.09-Sep-2020 5408.01  885.09 75.16 16.00  76.45 2589.60
   14:19:18.867.09-Sep-2020 5408.01  886.62 75.16 16.00  76.65 2589.60
   14:19:19.068.09-Sep-2020 5408.01  889.09 75.16 16.00  76.85 2589.60
   14:19:19.268.09-Sep-2020 5408.01  891.82 75.16 16.00  77.05 2589.60
   14:19:19.468.09-Sep-2020 5408.01  891.82 75.16 16.00  77.25 2589.60
   14:19:19.668.09-Sep-2020 5408.01  896.52 75.16 16.00  77.45 2589.60
   14:19:19.868.09-Sep-2020 5408.01  898.66 75.16 16.00  77.65 2589.60
   14:19:20.068.09-Sep-2020 5408.01  900.77 75.16 16.00  77.85 2589.60
   14:19:20.268.09-Sep-2020 5408.01  902.72 75.16 16.00  78.05 2589.60
   14:19:20.468.09-Sep-2020 5408.01  902.72 75.16 16.00  78.25 2589.60
   14:19:20.669.09-Sep-2020 5408.01  906.77 75.16 16.00  78.45 2589.60
   14:19:20.869.09-Sep-2020 5408.01  908.87 75.16 16.00  78.65 2589.60
   14:19:21.069.09-Sep-2020 5408.01  911.07 75.16 16.00  78.85 2589.60
   14:19:21.269.09-Sep-2020 5408.01  912.73 75.16 16.00  79.05 2589.60
   14:19:21.469.09-Sep-2020 5408.01  915.04 75.16 16.00  79.25 2589.60
   14:19:21.669.09-Sep-2020 5408.01  917.05 75.16 16.00  79.45 2589.60
   14:19:21.869.09-Sep-2020 5408.01  918.95 75.16 16.00  79.65 2589.60
   14:19:22.069.09-Sep-2020 5408.01  920.80 75.17 16.00  79.85 2589.60
   14:19:22.269.09-Sep-2020 5408.01  922.18 75.17 16.00  80.05 2589.60
   14:19:22.470.09-Sep-2020 5408.01  922.18 75.17 16.00  80.25 2589.60
   14:19:22.670.09-Sep-2020 5408.01  926.45 75.17 16.00  80.45 2589.60
   14:19:22.870.09-Sep-2020 5408.01  928.08 75.17 16.00  80.65 2589.60
   14:19:23.070.09-Sep-2020 5408.01  929.62 75.17 16.00  80.85 2589.60
   14:19:23.270.09-Sep-2020 5408.01  931.25 75.17 16.00  81.05 2589.60
   14:19:23.470.09-Sep-2020 5408.01  931.25 75.17 16.00  81.25 2589.60
   14:19:23.670.09-Sep-2020 5408.01  934.23 75.17 16.00  81.45 2589.60
   14:19:23.870.09-Sep-2020 5408.01  935.70 75.17 16.00  81.65 2589.60
   14:19:24.071.09-Sep-2020 5408.01  937.11 75.17 16.00  81.85 2589.60
   14:19:24.271.09-Sep-2020 5408.01  938.54 75.17 16.00  82.05 2589.60
   14:19:24.471.09-Sep-2020 5408.01  938.54 75.17 16.00  82.25 2589.60
   14:19:24.671.09-Sep-2020 5408.01  941.31 75.17 16.00  82.45 2589.60
   14:19:24.871.09-Sep-2020 5408.01  942.71 75.17 16.00  82.65 2589.60
   14:19:25.071.09-Sep-2020 5408.01  944.12 75.17 16.00  82.85 2589.60
   14:19:25.271.09-Sep-2020 5408.01  945.39 75.17 16.00  83.05 2589.60
   14:19:25.471.09-Sep-2020 5408.01  945.39 75.17 16.00  83.25 2589.60
   14:19:25.672.09-Sep-2020 5408.01  948.04 75.17 16.00  83.45 2589.60
   14:19:25.872.09-Sep-2020 5408.01  948.55 75.17 16.00  83.65 2589.60
   14:19:26.072.09-Sep-2020 5408.01  951.09 75.17 16.00  83.85 2589.60
   14:19:26.272.09-Sep-2020 5408.01  952.54 75.17 16.00  84.05 2589.60
   14:19:26.472.09-Sep-2020 5408.01  952.54 75.17 16.00  84.25 2589.60
   14:19:26.672.09-Sep-2020 5408.01  955.30 75.17 16.00  84.45 2589.60
   14:19:26.872.09-Sep-2020 5408.01  956.87 75.17 16.00  84.65 2589.60
   14:19:27.072.09-Sep-2020 5408.01  958.05 75.17 16.00  84.85 2589.60
   14:19:27.273.09-Sep-2020 5408.01  959.41 75.17 16.00  85.05 2589.60
   14:19:27.473.09-Sep-2020 5408.01  959.41 75.17 16.00  85.25 2589.60
   14:19:27.673.09-Sep-2020 5408.01  961.99 75.17 16.00  85.45 2589.60
   14:19:27.873.09-Sep-2020 5408.01  963.31 75.17 16.00  85.65 2589.60
   14:19:28.073.09-Sep-2020 5408.01  964.60 75.17 16.00  85.85 2589.60
   14:19:28.273.09-Sep-2020 5408.01  965.82 75.17 16.00  86.05 2589.60
   14:19:28.473.09-Sep-2020 5408.01  965.82 75.17 16.00  86.25 2589.60
   14:19:28.673.09-Sep-2020 5408.01  968.27 75.17 16.00  86.45 2589.60
   14:19:28.874.09-Sep-2020 5408.01  969.51 75.17 16.00  86.65 2589.60
   14:19:29.074.09-Sep-2020 5408.01  970.30 75.18 16.00  86.85 2589.60
   14:19:29.274.09-Sep-2020 5408.01  968.80 75.18 16.00  87.05 2589.60
   14:19:29.474.09-Sep-2020 5408.01  968.80 75.18 16.00  87.25 2589.60
   14:19:29.674.09-Sep-2020 5408.01  971.60 75.18 16.00  87.45 2589.60
   14:19:29.874.09-Sep-2020 5408.01  972.96 75.18 16.00  87.65 2589.60
   14:19:30.074.09-Sep-2020 5408.01  974.55 75.18 16.00  87.85 2589.60
   14:19:30.274.09-Sep-2020 5408.01  974.92 75.18 16.00  88.05 2589.60
   14:19:30.475.09-Sep-2020 5408.01  977.45 75.18 16.00  88.25 2589.60
   14:19:30.675.09-Sep-2020 5408.01  978.87 75.18 16.00  88.45 2589.60
   14:19:30.875.09-Sep-2020 5408.01  980.29 75.18 16.00  88.65 2589.60
   14:19:31.075.09-Sep-2020 5408.01  981.51 75.18 16.00  88.85 2589.60
   14:19:31.275.09-Sep-2020 5408.01  983.12 75.18 16.00  89.05 2589.60
   14:19:31.475.09-Sep-2020 5408.01  983.12 75.18 16.00  89.25 2589.60
   14:19:31.675.09-Sep-2020 5408.01  985.77 75.18 16.00  89.45 2589.60
   14:19:31.875.09-Sep-2020 5408.01  987.24 75.18 16.00  89.65 2589.60
   14:19:32.075.09-Sep-2020 5408.01  988.59 75.18 16.00  89.85 2589.60
   14:19:32.276.09-Sep-2020 5408.01  990.08 75.18 16.00  90.06 2589.60
   14:19:32.476.09-Sep-2020 5408.01  990.08 75.18 16.00  90.26 2589.60
