~Version Information
 VERS.                  2.0:   CWLS log ASCII Standard -VERSION 2.0
 WRAP.                   NO:   One line per depth step
~Well Information Block
#MNEM.UNIT     VALUE/NAME     DESCRIPTION
#---------     -----------    ---------------------------
 STRT.S             19:35:07 09-Sep-20: START TIME 19:35:07 09-Sep-20
 STOP.S             19:43:27 09-Sep-20: STOP TIME  19:43:27 09-Sep-20
 STEP.S                   0.00: STEP TIME
 NULL.                 -999.25: NULL VALUE
 MDS .        Operator Entered:  MAG DATA SOURCE
 PDAT.          Mean Sea Level:  PERMANENT DATUM
 DCON.         Sperry Drilling:  DIRECTNL CONTR
 RIG .              West Azeri:  RIG NAME
 WELL.           C40 (Slot 20):  WELL NAME
 SRVC.     Turan Drilling Engineering:  CONTRACTOR
 FLD .                     ACG:  FIELD NAME
 CTRY.              Azerbaijan:  COUNTRY NAME
 PROV.                    Baku:  PROVINCE
 STAT.                    Baku:  STATE NAME
 REGN.                   EESSA:  REGION
 BASE.              Azerbaijan:  LOGGING EQUIPMENT BASE LOCATION
 COMP.     BP Exploration (Caspian Sea) Ltd:  COMPANY
 WTYP.                Deviated:  WELL TYPE
 SON .        AZ-XX-0906344804:  JOB NUMBER
 FTOP.          Formation Tops:  FORM TOPS DESC
 ILTD.               Lithology:  INTERP LTH DESC
 SVYD.                  Survey:  SURVEY DESC
 DMOD.             Drill Model:  DRILL MOD DESC
 HPTY.       Minimum Curvature:  HOLE POS TYPE
 NREF.                    Grid:  NORTH REFERENCE
 SPUD.               01-Jan-20:  SPUD DATE
 DATE.      00.59.44 15-Sep-20:  END TIME
 STIM.      12.00.00 12-Jun-20:  START TIME
 DMF .             Drill Floor:  DRILL MEAS FROM
 DFST.                        :  DIST FSL TEXT
 DFWT.                        :  DIST FWL TEXT
 API .                        :  API NUMBER
 CNTY.                        :  COUNTY
 UWI .                        :  UNIQUE WELL IDENTIFIER
 LOC .                        :  LOCATION
 LMF .             Drill Floor:  LOG MEASURED FROM
 VSNS.m                   2.88:  VERT SEC N/S
 VSEW.m                  -3.84:  VERT SEC E/W
 AGAP.m                  43.42:  AIR GAP
 APD .m                  43.42:  DEPTH ABOVE PD
 WDMS.m                 118.27:  WD ELEV
 EGL .m                   0.00:  GROUND ELEVATION
 EPD .m                   0.00:  ELEVATION
 AZTC.deg                 6.23:  AZM TOTAL CORR
 GRDC.deg                 0.20:  GRID CORRECTION
 MDEC.deg                 6.43:  MAGNETIC DECL
 MDIP.deg                59.49:  MAGNETIC DIP
 MFLD.nT              50277.00:  MAGNETIC FIELD
 GVFD.g                   1.00:  GRAVITY FIELD
 VSDR.deg               173.20:  VERT SEC DIRECT
 TDD .m                5790.01:  TOTAL DEPTH (DRILLER)
 SDEP.m                5231.01:  START DEPTH
 DFSL.m                   0.00:  DISTANCE FSL
 DFWL.m                   0.00:  DISTANCE FWL
 UTMY.m             4435808.83:  UTM Y
 UTMX.m              526266.40:  UTM X
 WHEW.m                  -3.84:  WELL HEAD E/W
 WHNS.m                   2.88:  WELL HEAD N/S
 LONG.deg                51.31:  LONGITUDE
 LATI.deg                40.06:  LATITUDE
 TVDS.m                  43.42:  TVDSS CORRECTN
 DEP .m                 430.08:  DEPTH
 EKB .m                  43.42:  KB ELEVATION
 EDF .m                  43.42:  DF ELEVATION
 TDL .m                 559.00:  TOTAL DEPTH (LOGGER)
 MAGU.                 1849381:  MAGUTM CHECKSUM
 VSC .                       0:  VS TO CLOSURE
~Parameter Information Block
#MNEM.UNIT       Value        Description
#---------     -----------    ---------------------------
 AV  .mps                 4.87:  Ann Velocity 
 AVMX.mps                 7.08:  Max Ann Veloc 
 AZIF.deg               108.87:  Azm, Final 
 BHAT.                  Rotary:  BHA Type 
 BROT.°/30m               0.35:  Build Rotating 
 BS  .in                  8.50:  Bit Size 
 BSZ .in                  8.50:  Bit Size 
 BTPL.psig              360.00:  Bit Press Loss 
 CABU.                     Yes:  Customer Abuse 
 COMM.                     ¼«|:  Run Comments 1 
 TCS .hr                106.24:  Time Ciculation Ended 
 CV  .mps                 1.77:  Crit Velocity 
 CVMX.mps                 2.03:  Max Crit Veloc 
 DD1 .         Aykhan Agagulov:  Direct Drillr 1 
 DD2 .            Nonso Okofor:  Direct Drillr 2 
 DDSV.               Geo-Pilot:  DD Service 
 DEFF.%                  98.00:  % Det Eff 
 DLRX.°/30m               0.50:  Dogleg Rot Max 
 DLSO.°/30m               0.40:  Dogleg Oriented 
 DLSX.°/30m               0.94:  Dogleg Str Max 
 DRET.      20.30.00 08-Sep-20:  Drill End Time 
 DRST.      22.15.00 06-Sep-20:  Drill Start Tim 
 DTIM.hr                 31.31:  Time Drilling 
 EDEP.m                5790.01:  End Depth 
 ENG1.           Amrah Tahirov:  Engineer 1 
 ENG2.         Dair Mahammadov:  Engineer 2 
 ENG3.           Emil Huseynov:  Engineer 3 
 ETIM.      04.01.04 12-Sep-20:  End Time 
 FLOI.gpm               450.00:  Flow In 
 FLON.gpm               450.00:  Flow In Min 
 FLOS.cptm                2.00:  Fluid Loss 
 FLOX.gpm               450.00:  Flow In Max 
 FTRO.       Formation Presure:  FTWD Run Obj 
 HFLO.                      No:  High Flow 
 HPRE.                      No:  High Pressure 
 HTEM.                      No:  High Temp 
 HYDO.m                   1.80:  Hydro Offset 
 IFIN.deg                72.03:  Inc, Final 
 IMAX.deg                73.72:  Inc Max 
 IMIN.deg                70.94:  Inc Min 
 IMND.m                5508.52:  Inc Min Depth 
 IMXD.m                5253.60:  Inc Max Depth 
 JARR.                      No:  Jarring 
 LETM.      20.30.00 08-Sep-20:  Log End Time 
 LOST.hr                     0:  Lost Rig Time 
 LSTM.      22.15.00 06-Sep-20:  Log Start Time 
 MDCL.ppm             36000.00:  Mud Chlorides 
 MDES.     Inversion Oil/Synthetic:  Mud Desc 
 DFD .sg                  1.44:  Mud Density 
 MDMN.sg                  1.44:  Dens Mud Min 
 MDMX.sg                  1.57:  Dens Mud Max 
 MOIL.                      70:  Run Mud Oil % 
 MOWR.                   70:30:  Run Mud OWR 
 MSND.                       0:  Run Mud Sand % 
 MSOL.                      21:  Run Mud Solids% 
 DFV .spqt               68.00:  Mud Viscosity 
 MWOD.in                  6.75:  MWD Tool OD 
 MWSI.                     Yes:  Serv Intrp, MWD 
 OTIM.hr                174.84:  Time Operating 
 PCON.           Look Like New:  Pad Condition 
 PMAX.psia            10616.93:  Press Op, Max 
 PV  .cP                 50.00:  Mud PV 
 RUN .                     700:  Run Number 
 ROPA.m/hr               14.24:  ROP Avg 
 ROPN.m/hr               10.00:  ROP Min 
 ROPX.m/hr               32.00:  ROP Max 
 RPMA.rpm               120.90:  RPM Surface Avg 
 RPMN.rpm               120.00:  RPM Surface Min 
 RPMX.rpm               140.00:  RPM Surface Max 
 RRUN.                    0700:  Rig Run Number 
 RTIM.hr                  3.20:  Time Reaming 
 SAZI.deg               109.99:  Azm, Start 
 SDEP.m                5231.01:  Start Depth 
 SIDD.                      No:  Serv Intrp, DD 
 SINC.deg                73.72:  Inc, Start 
 SPPA.psig             3051.00:  SPP Avg 
 SPPN.psig             2950.00:  SPP Min 
 SPPX.psig             3250.00:  SPP Max 
 STIM.      08.00.00 05-Sep-20:  Start Time 
 SVCS.                 DD, MWD:  Services 
 SVER.                    9.20:  Sperry Version 
 TDAT.m                 559.00:  Tot Depth Attmp 
 TDDF.                      No:  Trip for DD 
 TDLG.m                 559.00:  Tot Depth Loggd 
 TFF .                      No:  Trip for Fail 
 TQAA.f-kp               26.49:  Torque Abs Avg 
 TQAN.f-kp               25.00:  Torque Abs Min 
 TQAX.f-kp               27.00:  Torque Abs Max 
 TRRT.°/30m               1.50:  Turn Rotating 
 MRT .                    HCIM:  Maximum Recorded Temperature 
 TTMX.degC               90.20:  Max Tool Temp 
 VS01.                90542671:  Virtual Str1 SN 
 VS02.                90545185:  Virtual Str2 SN 
 VS03.                90602015:  Virtual Str3 SN 
 VS04.                90515230:  Virtual Str4 SN 
 WBMN.klb                 5.00:  WOB Min 
 WOBA.klb                14.79:  WOB Avg 
 WOBX.klb                20.00:  WOB Max 
 YP  .lhf2               29.00:  Yield Point 
~Curve Information Block
#MNEM.UNIT                 API CODE     Curve Description
#---------               -----------    ---------------------------
 TIME.HHMMSS            00 000 000 000:  GT Time & Date
 GTDEPTH.m              00 000 000 000:  GT Depth
 GTPQH.psia             00 000 000 000:  GT HR Quartz Pressure
 GTTQ.degC              00 000 000 000:  GT Quartz Temperature
 GTTN.NONE              00 000 000 000:  GT Test Number
 GTET.sec               00 000 000 000:  GT Elapsed Test Time
 GTTVD.m                00 000 000 000:  GT True Vertical Depth
#Other Information
#
#WARRANTY: Halliburton will use its best efforts to furnish customers with 
#accurate information and interpretations that are part of, and incident to, the services 
#provided.  However, Halliburton cannot and does not warrant the accuracy 
#or correctness of such information and interpretations.  Under no circumstances should any 
#such information or interpretation be relied upon as the sole basis for any drilling, 
#completion, production, or financial decision or any procedure involving any risk to the 
#safety of any drilling venture, drilling rig or its crew or any other third party.  The 
#Customer has full responsibility for all drilling, completion and production operation.  
#Halliburton makes no representations or warranties, either expressed or 
#implied, including, but not limited to, the implied warranties of merchantability or fitness 
#for a particular purpose, with respect to the services rendered.  In no event will 
#Halliburton be liable for failure to obtain any particular results or for 
#any damages, including, but not limited to, indirect, special or consequential damages, 
#resulting from the use of any information or interpretation provided by Halliburton.
#
~A           TIME           GTDEPTH  GTPQH  GTTQ  GTTN   GTET   GTTVD  
# ...
   19:36:37.808.09-Sep-2020 5260.01 6256.04 74.29 23.00  90.44 2544.55
   19:36:38.008.09-Sep-2020 5260.01 6263.81 74.29 23.00  90.64 2544.55
   19:36:38.208.09-Sep-2020 5260.01 6253.06 74.29 23.00  90.84 2544.55
   19:36:38.409.09-Sep-2020 5260.01 6255.84 74.29 23.00  91.04 2544.55
   19:36:38.609.09-Sep-2020 5260.01 6255.84 74.29 23.00  91.24 2544.55
   19:36:38.809.09-Sep-2020 5260.01 6256.05 74.29 23.00  91.44 2544.55
   19:36:39.009.09-Sep-2020 5260.01 6256.70 74.29 23.00  91.64 2544.55
   19:36:39.209.09-Sep-2020 5260.01 6265.81 74.29 23.00  91.84 2544.55
   19:36:39.409.09-Sep-2020 5260.01 6253.83 74.29 23.00  92.04 2544.55
   19:36:39.609.09-Sep-2020 5260.01 6258.24 74.29 23.00  92.24 2544.55
   19:36:39.809.09-Sep-2020 5260.01 6256.48 74.29 23.00  92.44 2544.55
   19:36:40.009.09-Sep-2020 5260.01 6257.50 74.29 23.00  92.64 2544.55
   19:36:40.209.09-Sep-2020 5260.01 6256.73 74.29 23.00  92.84 2544.55
   19:36:40.409.09-Sep-2020 5260.01 6268.88 74.29 23.00  93.04 2544.55
   19:36:40.610.09-Sep-2020 5260.01 6252.45 74.29 23.00  93.24 2544.55
   19:36:40.810.09-Sep-2020 5260.01 6258.90 74.29 23.00  93.44 2544.55
   19:36:41.010.09-Sep-2020 5260.01 6258.13 74.29 23.00  93.64 2544.55
   19:36:41.210.09-Sep-2020 5260.01 6258.63 74.29 23.00  93.84 2544.55
   19:36:41.410.09-Sep-2020 5260.01 6267.89 74.29 23.00  94.04 2544.55
   19:36:41.610.09-Sep-2020 5260.01 6256.77 74.29 23.00  94.24 2544.55
   19:36:41.810.09-Sep-2020 5260.01 6260.20 74.29 23.00  94.44 2544.55
   19:36:42.010.09-Sep-2020 5260.01 6258.94 74.29 23.00  94.64 2544.55
   19:36:42.210.09-Sep-2020 5260.01 6260.02 74.29 23.00  94.84 2544.55
   19:36:42.410.09-Sep-2020 5260.01 6259.63 74.29 23.00  95.04 2544.55
   19:36:42.610.09-Sep-2020 5260.01 6259.63 74.29 23.00  95.24 2544.55
   19:36:42.811.09-Sep-2020 5260.01 6259.32 74.29 23.00  95.44 2544.55
   19:36:43.011.09-Sep-2020 5260.01 6260.17 74.29 23.00  95.64 2544.55
   19:36:43.211.09-Sep-2020 5260.01 6260.26 74.29 23.00  95.84 2544.55
   19:36:43.411.09-Sep-2020 5260.01 6260.00 74.29 23.00  96.04 2544.55
   19:36:43.611.09-Sep-2020 5260.01 6260.00 74.29 23.00  96.24 2544.55
   19:36:43.811.09-Sep-2020 5260.01 6259.75 74.29 23.00  96.44 2544.55
   19:36:44.011.09-Sep-2020 5260.01 6259.93 74.29 23.00  96.64 2544.55
   19:36:44.211.09-Sep-2020 5260.01 6260.02 74.29 23.00  96.84 2544.55
   19:36:44.411.09-Sep-2020 5260.01 6260.39 74.29 23.00  97.04 2544.55
   19:36:44.611.09-Sep-2020 5260.01 6260.40 74.29 23.00  97.24 2544.55
   19:36:44.811.09-Sep-2020 5260.01 6260.50 74.29 23.00  97.44 2544.55
   19:36:45.012.09-Sep-2020 5260.01 6268.87 74.29 23.00  97.65 2544.55
   19:36:45.212.09-Sep-2020 5260.01 6258.04 74.29 23.00  97.85 2544.55
   19:36:45.412.09-Sep-2020 5260.01 6261.17 74.29 23.00  98.05 2544.55
   19:36:45.612.09-Sep-2020 5260.01 6261.38 74.29 23.00  98.25 2544.55
   19:36:45.812.09-Sep-2020 5260.01 6260.88 74.29 23.00  98.45 2544.55
   19:36:46.012.09-Sep-2020 5260.01 6261.38 74.29 23.00  98.65 2544.55
   19:36:46.212.09-Sep-2020 5260.01 6261.04 74.29 23.00  98.85 2544.55
   19:36:46.412.09-Sep-2020 5260.01 6260.97 74.29 23.00  99.05 2544.55
   19:36:46.612.09-Sep-2020 5260.01 6260.97 74.29 23.00  99.25 2544.55
   19:36:46.812.09-Sep-2020 5260.01 6260.69 74.29 23.00  99.45 2544.55
   19:36:47.012.09-Sep-2020 5260.01 6260.47 74.29 23.00  99.65 2544.55
   19:36:47.213.09-Sep-2020 5260.01 6260.12 74.29 23.00  99.85 2544.55
   19:36:47.413.09-Sep-2020 5260.01 6260.42 74.29 23.00 100.05 2544.55
   19:36:47.613.09-Sep-2020 5260.01 6260.42 74.29 23.00 100.25 2544.55
   19:36:47.813.09-Sep-2020 5260.01 6260.96 74.29 23.00 100.45 2544.55
   19:36:48.013.09-Sep-2020 5260.01 6260.49 74.29 23.00 100.65 2544.55
   19:36:48.213.09-Sep-2020 5260.01 6260.66 74.29 23.00 100.85 2544.55
   19:36:48.413.09-Sep-2020 5260.01 6269.08 74.29 23.00 101.05 2544.55
   19:36:48.613.09-Sep-2020 5260.01 6269.08 74.29 23.00 101.25 2544.55
   19:36:48.813.09-Sep-2020 5260.01 6262.31 74.29 23.00 101.45 2544.55
   19:36:49.013.09-Sep-2020 5260.01 6262.26 74.29 23.00 101.65 2544.55
   19:36:49.213.09-Sep-2020 5260.01 6261.66 74.29 23.00 101.85 2544.55
   19:36:49.414.09-Sep-2020 5260.01 6262.14 74.29 23.00 102.05 2544.55
   19:36:49.614.09-Sep-2020 5260.01 6272.52 74.29 23.00 102.25 2544.55
   19:36:49.814.09-Sep-2020 5260.01 6257.05 74.29 23.00 102.45 2544.55
   19:36:50.014.09-Sep-2020 5260.01 6263.12 74.29 23.00 102.65 2544.55
   19:36:50.214.09-Sep-2020 5260.01 6262.24 74.29 23.00 102.85 2544.55
   19:36:50.414.09-Sep-2020 5260.01 6261.91 74.29 23.00 103.05 2544.55
   19:36:50.614.09-Sep-2020 5260.01 6261.91 74.29 23.00 103.25 2544.55
   19:36:50.814.09-Sep-2020 5260.01 6271.88 74.29 23.00 103.45 2544.55
   19:36:51.014.09-Sep-2020 5260.01 6259.00 74.29 23.00 103.65 2544.55
   19:36:51.214.09-Sep-2020 5260.01 6263.45 74.29 23.00 103.85 2544.55
   19:36:51.415.09-Sep-2020 5260.01 6261.81 74.29 23.00 104.05 2544.55
   19:36:51.615.09-Sep-2020 5260.01 6261.81 74.29 23.00 104.25 2544.55
   19:36:51.815.09-Sep-2020 5260.01 6262.12 74.29 23.00 104.45 2544.55
   19:36:52.015.09-Sep-2020 5260.01 6265.95 74.29 23.00 104.65 2544.55
   19:36:52.215.09-Sep-2020 5260.01 6267.46 74.29 23.00 104.85 2544.55
   19:36:52.415.09-Sep-2020 5260.01 6261.56 74.29 23.00 105.05 2544.55
   19:36:52.615.09-Sep-2020 5260.01 6264.71 74.29 23.00 105.25 2544.55
   19:36:52.815.09-Sep-2020 5260.01 6263.91 74.29 23.00 105.45 2544.55
   19:36:53.015.09-Sep-2020 5260.01 6272.92 74.29 23.00 105.65 2544.55
   19:36:53.215.09-Sep-2020 5260.01 6261.42 74.29 23.00 105.85 2544.55
   19:36:53.415.09-Sep-2020 5260.01 6265.60 74.29 23.00 106.05 2544.55
   19:36:53.616.09-Sep-2020 5260.01 6265.60 74.29 23.00 106.25 2544.55
   19:36:53.816.09-Sep-2020 5260.01 6265.09 74.29 23.00 106.45 2544.55
   19:36:54.016.09-Sep-2020 5260.01 6265.79 74.29 23.00 106.65 2544.55
   19:36:54.216.09-Sep-2020 5260.01 6265.67 74.29 23.00 106.85 2544.55
   19:36:54.416.09-Sep-2020 5260.01 6265.45 74.29 23.00 107.05 2544.55
   19:36:54.616.09-Sep-2020 5260.01 6265.45 74.29 23.00 107.25 2544.55
   19:36:54.816.09-Sep-2020 5260.01 6266.18 74.29 23.00 107.45 2544.55
   19:36:55.016.09-Sep-2020 5260.01 6265.67 74.29 23.00 107.65 2544.55
   19:36:55.216.09-Sep-2020 5260.01 6265.61 74.29 23.00 107.85 2544.55
   19:36:55.416.09-Sep-2020 5260.01 6265.53 74.29 23.00 108.05 2544.55
   19:36:55.616.09-Sep-2020 5260.01 6265.53 74.29 23.00 108.25 2544.55
   19:36:55.817.09-Sep-2020 5260.01 6265.94 74.29 23.00 108.45 2544.55
   19:36:56.017.09-Sep-2020 5260.01 6266.05 74.29 23.00 108.65 2544.55
   19:36:56.217.09-Sep-2020 5260.01 6266.10 74.29 23.00 108.85 2544.55
   19:36:56.417.09-Sep-2020 5260.01 6266.09 74.29 23.00 109.05 2544.55
   19:36:56.617.09-Sep-2020 5260.01 6266.13 74.29 23.00 109.25 2544.55
   19:36:56.817.09-Sep-2020 5260.01 6275.44 74.29 23.00 109.45 2544.55
   19:36:57.017.09-Sep-2020 5260.01 6263.50 74.29 23.00 109.65 2544.55
   19:36:57.217.09-Sep-2020 5260.01 6267.69 74.29 23.00 109.85 2544.55
   19:36:57.417.09-Sep-2020 5260.01 6266.42 74.29 23.00 110.05 2544.55
   19:36:57.617.09-Sep-2020 5260.01 6266.92 74.29 23.00 110.25 2544.55
   19:36:57.817.09-Sep-2020 5260.01 6266.50 74.29 23.00 110.45 2544.55
   19:36:58.018.09-Sep-2020 5260.01 6267.60 74.29 23.00 110.65 2544.55
   19:36:58.218.09-Sep-2020 5260.01 6266.26 74.29 23.00 110.85 2544.55
   19:36:58.418.09-Sep-2020 5260.01 6266.11 74.29 23.00 111.05 2544.55
   19:36:58.618.09-Sep-2020 5260.01 6266.11 74.29 23.00 111.25 2544.55
   19:36:58.818.09-Sep-2020 5260.01 6265.83 74.29 23.00 111.45 2544.55
   19:36:59.018.09-Sep-2020 5260.01 6265.92 74.29 23.00 111.65 2544.55
   19:36:59.218.09-Sep-2020 5260.01 6266.34 74.29 23.00 111.85 2544.55
   19:36:59.418.09-Sep-2020 5260.01 6266.29 74.29 23.00 112.05 2544.55
   19:36:59.618.09-Sep-2020 5260.01 6266.08 74.29 23.00 112.25 2544.55
   19:36:59.818.09-Sep-2020 5260.01 6266.21 74.29 23.00 112.45 2544.55
   19:37:00.018.09-Sep-2020 5260.01 6266.21 74.29 23.00 112.65 2544.55
   19:37:00.219.09-Sep-2020 5260.01 6275.88 74.29 23.00 112.85 2544.55
