~Version Information
 VERS.                  2.0:   CWLS log ASCII Standard -VERSION 2.0
 WRAP.                   NO:   One line per depth step
~Well Information Block
#MNEM.UNIT     VALUE/NAME     DESCRIPTION
#---------     -----------    ---------------------------
 STRT.S             11:53:26 09-Sep-20: START TIME 11:53:26 09-Sep-20
 STOP.S             12:00:27 09-Sep-20: STOP TIME  12:00:27 09-Sep-20
 STEP.S                   0.00: STEP TIME
 NULL.                 -999.25: NULL VALUE
 MDS .        Operator Entered:  MAG DATA SOURCE
 PDAT.          Mean Sea Level:  PERMANENT DATUM
 DCON.         Sperry Drilling:  DIRECTNL CONTR
 RIG .              West Azeri:  RIG NAME
 WELL.           C40 (Slot 20):  WELL NAME
 SRVC.     Turan Drilling Engineering:  CONTRACTOR
 FLD .                     ACG:  FIELD NAME
 CTRY.              Azerbaijan:  COUNTRY NAME
 PROV.                    Baku:  PROVINCE
 STAT.                    Baku:  STATE NAME
 REGN.                   EESSA:  REGION
 BASE.              Azerbaijan:  LOGGING EQUIPMENT BASE LOCATION
 COMP.     BP Exploration (Caspian Sea) Ltd:  COMPANY
 WTYP.                Deviated:  WELL TYPE
 SON .        AZ-XX-0906344804:  JOB NUMBER
 FTOP.          Formation Tops:  FORM TOPS DESC
 ILTD.               Lithology:  INTERP LTH DESC
 SVYD.                  Survey:  SURVEY DESC
 DMOD.             Drill Model:  DRILL MOD DESC
 HPTY.       Minimum Curvature:  HOLE POS TYPE
 NREF.                    Grid:  NORTH REFERENCE
 SPUD.               01-Jan-20:  SPUD DATE
 DATE.      00.59.44 15-Sep-20:  END TIME
 STIM.      12.00.00 12-Jun-20:  START TIME
 DMF .             Drill Floor:  DRILL MEAS FROM
 DFST.                        :  DIST FSL TEXT
 DFWT.                        :  DIST FWL TEXT
 API .                        :  API NUMBER
 CNTY.                        :  COUNTY
 UWI .                        :  UNIQUE WELL IDENTIFIER
 LOC .                        :  LOCATION
 LMF .             Drill Floor:  LOG MEASURED FROM
 VSNS.m                   2.88:  VERT SEC N/S
 VSEW.m                  -3.84:  VERT SEC E/W
 AGAP.m                  43.42:  AIR GAP
 APD .m                  43.42:  DEPTH ABOVE PD
 WDMS.m                 118.27:  WD ELEV
 EGL .m                   0.00:  GROUND ELEVATION
 EPD .m                   0.00:  ELEVATION
 AZTC.deg                 6.23:  AZM TOTAL CORR
 GRDC.deg                 0.20:  GRID CORRECTION
 MDEC.deg                 6.43:  MAGNETIC DECL
 MDIP.deg                59.49:  MAGNETIC DIP
 MFLD.nT              50277.00:  MAGNETIC FIELD
 GVFD.g                   1.00:  GRAVITY FIELD
 VSDR.deg               173.20:  VERT SEC DIRECT
 TDD .m                5790.01:  TOTAL DEPTH (DRILLER)
 SDEP.m                5231.01:  START DEPTH
 DFSL.m                   0.00:  DISTANCE FSL
 DFWL.m                   0.00:  DISTANCE FWL
 UTMY.m             4435808.83:  UTM Y
 UTMX.m              526266.40:  UTM X
 WHEW.m                  -3.84:  WELL HEAD E/W
 WHNS.m                   2.88:  WELL HEAD N/S
 LONG.deg                51.31:  LONGITUDE
 LATI.deg                40.06:  LATITUDE
 TVDS.m                  43.42:  TVDSS CORRECTN
 DEP .m                 430.08:  DEPTH
 EKB .m                  43.42:  KB ELEVATION
 EDF .m                  43.42:  DF ELEVATION
 TDL .m                 559.00:  TOTAL DEPTH (LOGGER)
 MAGU.                 1849381:  MAGUTM CHECKSUM
 VSC .                       0:  VS TO CLOSURE
~Parameter Information Block
#MNEM.UNIT       Value        Description
#---------     -----------    ---------------------------
 AV  .mps                 4.87:  Ann Velocity 
 AVMX.mps                 7.08:  Max Ann Veloc 
 AZIF.deg               108.87:  Azm, Final 
 BHAT.                  Rotary:  BHA Type 
 BROT.°/30m               0.35:  Build Rotating 
 BS  .in                  8.50:  Bit Size 
 BSZ .in                  8.50:  Bit Size 
 BTPL.psig              360.00:  Bit Press Loss 
 CABU.                     Yes:  Customer Abuse 
 COMM.                     dãƒ:  Run Comments 1 
 TCS .hr                106.24:  Time Ciculation Ended 
 CV  .mps                 1.77:  Crit Velocity 
 CVMX.mps                 2.03:  Max Crit Veloc 
 DD1 .         Aykhan Agagulov:  Direct Drillr 1 
 DD2 .            Nonso Okofor:  Direct Drillr 2 
 DDSV.               Geo-Pilot:  DD Service 
 DEFF.%                  98.00:  % Det Eff 
 DLRX.°/30m               0.50:  Dogleg Rot Max 
 DLSO.°/30m               0.40:  Dogleg Oriented 
 DLSX.°/30m               0.94:  Dogleg Str Max 
 DRET.      20.30.00 08-Sep-20:  Drill End Time 
 DRST.      22.15.00 06-Sep-20:  Drill Start Tim 
 DTIM.hr                 31.31:  Time Drilling 
 EDEP.m                5790.01:  End Depth 
 ENG1.           Amrah Tahirov:  Engineer 1 
 ENG2.         Dair Mahammadov:  Engineer 2 
 ENG3.           Emil Huseynov:  Engineer 3 
 ETIM.      04.01.04 12-Sep-20:  End Time 
 FLOI.gpm               450.00:  Flow In 
 FLON.gpm               450.00:  Flow In Min 
 FLOS.cptm                2.00:  Fluid Loss 
 FLOX.gpm               450.00:  Flow In Max 
 FTRO.       Formation Presure:  FTWD Run Obj 
 HFLO.                      No:  High Flow 
 HPRE.                      No:  High Pressure 
 HTEM.                      No:  High Temp 
 HYDO.m                   1.80:  Hydro Offset 
 IFIN.deg                72.03:  Inc, Final 
 IMAX.deg                73.72:  Inc Max 
 IMIN.deg                70.94:  Inc Min 
 IMND.m                5508.52:  Inc Min Depth 
 IMXD.m                5253.60:  Inc Max Depth 
 JARR.                      No:  Jarring 
 LETM.      20.30.00 08-Sep-20:  Log End Time 
 LOST.hr                     0:  Lost Rig Time 
 LSTM.      22.15.00 06-Sep-20:  Log Start Time 
 MDCL.ppm             36000.00:  Mud Chlorides 
 MDES.     Inversion Oil/Synthetic:  Mud Desc 
 DFD .sg                  1.44:  Mud Density 
 MDMN.sg                  1.44:  Dens Mud Min 
 MDMX.sg                  1.57:  Dens Mud Max 
 MOIL.                      70:  Run Mud Oil % 
 MOWR.                   70:30:  Run Mud OWR 
 MSND.                       0:  Run Mud Sand % 
 MSOL.                      21:  Run Mud Solids% 
 DFV .spqt               68.00:  Mud Viscosity 
 MWOD.in                  6.75:  MWD Tool OD 
 MWSI.                     Yes:  Serv Intrp, MWD 
 OTIM.hr                174.84:  Time Operating 
 PCON.           Look Like New:  Pad Condition 
 PMAX.psia            10616.93:  Press Op, Max 
 PV  .cP                 50.00:  Mud PV 
 RUN .                     700:  Run Number 
 ROPA.m/hr               14.24:  ROP Avg 
 ROPN.m/hr               10.00:  ROP Min 
 ROPX.m/hr               32.00:  ROP Max 
 RPMA.rpm               120.90:  RPM Surface Avg 
 RPMN.rpm               120.00:  RPM Surface Min 
 RPMX.rpm               140.00:  RPM Surface Max 
 RRUN.                    0700:  Rig Run Number 
 RTIM.hr                  3.20:  Time Reaming 
 SAZI.deg               109.99:  Azm, Start 
 SDEP.m                5231.01:  Start Depth 
 SIDD.                      No:  Serv Intrp, DD 
 SINC.deg                73.72:  Inc, Start 
 SPPA.psig             3051.00:  SPP Avg 
 SPPN.psig             2950.00:  SPP Min 
 SPPX.psig             3250.00:  SPP Max 
 STIM.      08.00.00 05-Sep-20:  Start Time 
 SVCS.                 DD, MWD:  Services 
 SVER.                    9.20:  Sperry Version 
 TDAT.m                 559.00:  Tot Depth Attmp 
 TDDF.                      No:  Trip for DD 
 TDLG.m                 559.00:  Tot Depth Loggd 
 TFF .                      No:  Trip for Fail 
 TQAA.f-kp               26.49:  Torque Abs Avg 
 TQAN.f-kp               25.00:  Torque Abs Min 
 TQAX.f-kp               27.00:  Torque Abs Max 
 TRRT.°/30m               1.50:  Turn Rotating 
 MRT .                    HCIM:  Maximum Recorded Temperature 
 TTMX.degC               90.20:  Max Tool Temp 
 VS01.                90542671:  Virtual Str1 SN 
 VS02.                90545185:  Virtual Str2 SN 
 VS03.                90602015:  Virtual Str3 SN 
 VS04.                90515230:  Virtual Str4 SN 
 WBMN.klb                 5.00:  WOB Min 
 WOBA.klb                14.79:  WOB Avg 
 WOBX.klb                20.00:  WOB Max 
 YP  .lhf2               29.00:  Yield Point 
~Curve Information Block
#MNEM.UNIT                 API CODE     Curve Description
#---------               -----------    ---------------------------
 TIME.HHMMSS            00 000 000 000:  GT Time & Date
 GTDEPTH.m              00 000 000 000:  GT Depth
 GTPQH.psia             00 000 000 000:  GT HR Quartz Pressure
 GTTQ.degC              00 000 000 000:  GT Quartz Temperature
 GTTN.NONE              00 000 000 000:  GT Test Number
 GTET.sec               00 000 000 000:  GT Elapsed Test Time
 GTTVD.m                00 000 000 000:  GT True Vertical Depth
#Other Information
#
#WARRANTY: Halliburton will use its best efforts to furnish customers with 
#accurate information and interpretations that are part of, and incident to, the services 
#provided.  However, Halliburton cannot and does not warrant the accuracy 
#or correctness of such information and interpretations.  Under no circumstances should any 
#such information or interpretation be relied upon as the sole basis for any drilling, 
#completion, production, or financial decision or any procedure involving any risk to the 
#safety of any drilling venture, drilling rig or its crew or any other third party.  The 
#Customer has full responsibility for all drilling, completion and production operation.  
#Halliburton makes no representations or warranties, either expressed or 
#implied, including, but not limited to, the implied warranties of merchantability or fitness 
#for a particular purpose, with respect to the services rendered.  In no event will 
#Halliburton be liable for failure to obtain any particular results or for 
#any damages, including, but not limited to, indirect, special or consequential damages, 
#resulting from the use of any information or interpretation provided by Halliburton.
#
~A           TIME           GTDEPTH  GTPQH  GTTQ  GTTN   GTET   GTTVD  
# ...
   11:54:11.200.09-Sep-2020 5430.01 3546.50 75.96 12.00  45.20 2596.52
   11:54:11.400.09-Sep-2020 5430.01 3525.95 75.96 12.00  45.40 2596.52
   11:54:11.600.09-Sep-2020 5430.01 3525.56 75.95 12.00  45.60 2596.52
   11:54:11.800.09-Sep-2020 5430.01 3522.40 75.95 12.00  45.80 2596.52
   11:54:12.000.09-Sep-2020 5430.01 3520.24 75.95 12.00  46.00 2596.52
   11:54:12.200.09-Sep-2020 5430.01 3517.50 75.95 12.00  46.20 2596.52
   11:54:12.400.09-Sep-2020 5430.01 3517.78 75.95 12.00  46.40 2596.52
   11:54:12.600.09-Sep-2020 5430.01 3514.21 75.95 12.00  46.60 2596.52
   11:54:12.800.09-Sep-2020 5430.01 3512.40 75.94 12.00  46.80 2596.52
   11:54:13.000.09-Sep-2020 5430.01 3511.08 75.94 12.00  47.00 2596.52
   11:54:13.200.09-Sep-2020 5430.01 3507.61 75.94 12.00  47.20 2596.52
   11:54:13.400.09-Sep-2020 5430.01 3507.57 75.94 12.00  47.40 2596.52
   11:54:13.600.09-Sep-2020 5430.01 3503.78 75.93 12.00  47.60 2596.52
   11:54:13.800.09-Sep-2020 5430.01 3503.68 75.93 12.00  47.80 2596.52
   11:54:14.000.09-Sep-2020 5430.01 3497.98 75.93 12.00  48.00 2596.52
   11:54:14.200.09-Sep-2020 5430.01 3497.98 75.93 12.00  48.20 2596.52
   11:54:14.400.09-Sep-2020 5430.01 3487.21 75.92 12.00  48.40 2596.52
   11:54:14.600.09-Sep-2020 5430.01 3480.60 75.92 12.00  48.60 2596.52
   11:54:14.800.09-Sep-2020 5430.01 3470.70 75.92 12.00  48.80 2596.52
   11:54:15.000.09-Sep-2020 5430.01 3461.49 75.92 12.00  49.00 2596.52
   11:54:15.200.09-Sep-2020 5430.01 3461.49 75.92 12.00  49.20 2596.52
   11:54:15.400.09-Sep-2020 5430.01 3453.90 75.91 12.00  49.40 2596.52
   11:54:15.600.09-Sep-2020 5430.01 3451.03 75.91 12.00  49.60 2596.52
   11:54:15.800.09-Sep-2020 5430.01 3451.71 75.91 12.00  49.80 2596.52
   11:54:16.000.09-Sep-2020 5430.01 3459.77 75.91 12.00  50.00 2596.52
   11:54:16.200.09-Sep-2020 5430.01 3454.08 75.90 12.00  50.20 2596.52
   11:54:16.400.09-Sep-2020 5430.01 3449.47 75.90 12.00  50.40 2596.52
   11:54:16.600.09-Sep-2020 5430.01 3443.19 75.90 12.00  50.60 2596.52
   11:54:16.800.09-Sep-2020 5430.01 3452.28 75.90 12.00  50.80 2596.52
   11:54:17.000.09-Sep-2020 5430.01 3442.64 75.90 12.00  51.00 2596.52
   11:54:17.200.09-Sep-2020 5430.01 3439.50 75.89 12.00  51.20 2596.52
   11:54:17.400.09-Sep-2020 5430.01 3437.42 75.89 12.00  51.40 2596.52
   11:54:17.600.09-Sep-2020 5430.01 3433.19 75.89 12.00  51.60 2596.52
   11:54:17.800.09-Sep-2020 5430.01 3440.40 75.89 12.00  51.80 2596.52
   11:54:18.000.09-Sep-2020 5430.01 3445.61 75.89 12.00  52.00 2596.52
   11:54:18.200.09-Sep-2020 5430.01 3445.61 75.89 12.00  52.20 2596.52
   11:54:18.400.09-Sep-2020 5430.01 3431.42 75.88 12.00  52.40 2596.52
   11:54:18.600.09-Sep-2020 5430.01 3428.17 75.88 12.00  52.60 2596.52
   11:54:18.800.09-Sep-2020 5430.01 3433.48 75.88 12.00  52.80 2596.52
   11:54:19.000.09-Sep-2020 5430.01 3428.52 75.88 12.00  53.00 2596.52
   11:54:19.200.09-Sep-2020 5430.01 3428.52 75.88 12.00  53.20 2596.52
   11:54:19.400.09-Sep-2020 5430.01 3433.57 75.88 12.00  53.40 2596.52
   11:54:19.600.09-Sep-2020 5430.01 3424.50 75.88 12.00  53.60 2596.52
   11:54:19.800.09-Sep-2020 5430.01 3420.17 75.88 12.00  53.80 2596.52
   11:54:20.000.09-Sep-2020 5430.01 3511.82 75.88 12.00  54.00 2596.52
   11:54:20.200.09-Sep-2020 5430.01 3575.93 75.88 12.00  54.20 2596.52
   11:54:20.400.09-Sep-2020 5430.01 3576.29 75.87 12.00  54.40 2596.52
   11:54:20.600.09-Sep-2020 5430.01 3576.21 75.87 12.00  54.60 2596.52
   11:54:20.800.09-Sep-2020 5430.01 3576.25 75.87 12.00  54.80 2596.52
   11:54:21.000.09-Sep-2020 5430.01 3576.34 75.87 12.00  55.00 2596.52
   11:54:21.200.09-Sep-2020 5430.01 3576.30 75.87 12.00  55.20 2596.52
   11:54:21.400.09-Sep-2020 5430.01 3576.37 75.87 12.00  55.40 2596.52
   11:54:21.600.09-Sep-2020 5430.01 3576.38 75.87 12.00  55.60 2596.52
   11:54:21.800.09-Sep-2020 5430.01 3576.45 75.87 12.00  55.80 2596.52
   11:54:22.000.09-Sep-2020 5430.01 3576.48 75.87 12.00  56.00 2596.52
   11:54:22.200.09-Sep-2020 5430.01 3576.48 75.87 12.00  56.20 2596.52
   11:54:22.400.09-Sep-2020 5430.01 3576.66 75.87 12.00  56.40 2596.52
   11:54:22.600.09-Sep-2020 5430.01 3576.48 75.87 12.00  56.60 2596.52
   11:54:22.800.09-Sep-2020 5430.01 3576.59 75.87 12.00  56.80 2596.52
   11:54:23.000.09-Sep-2020 5430.01 3576.60 75.87 12.00  57.00 2596.52
   11:54:23.200.09-Sep-2020 5430.01 3576.60 75.87 12.00  57.20 2596.52
   11:54:23.400.09-Sep-2020 5430.01 3576.62 75.87 12.00  57.40 2596.52
   11:54:23.600.09-Sep-2020 5430.01 3576.65 75.87 12.00  57.60 2596.52
   11:54:23.800.09-Sep-2020 5430.01 3576.68 75.87 12.00  57.80 2596.52
   11:54:24.000.09-Sep-2020 5430.01 3576.69 75.87 12.00  58.00 2596.52
   11:54:24.200.09-Sep-2020 5430.01 3576.69 75.87 12.00  58.20 2596.52
   11:54:24.400.09-Sep-2020 5430.01 3576.71 75.87 12.00  58.40 2596.52
   11:54:24.600.09-Sep-2020 5430.01 3576.72 75.87 12.00  58.60 2596.52
   11:54:24.800.09-Sep-2020 5430.01 3576.73 75.87 12.00  58.80 2596.52
   11:54:25.000.09-Sep-2020 5430.01 3576.74 75.87 12.00  59.00 2596.52
   11:54:25.200.09-Sep-2020 5430.01 3576.75 75.87 12.00  59.20 2596.52
   11:54:25.400.09-Sep-2020 5430.01 3576.75 75.87 12.00  59.40 2596.52
   11:54:25.600.09-Sep-2020 5430.01 3576.76 75.87 12.00  59.60 2596.52
   11:54:25.800.09-Sep-2020 5430.01 3576.77 75.87 12.00  59.80 2596.52
   11:54:26.000.09-Sep-2020 5430.01 3576.63 75.87 12.00  60.00 2596.52
   11:54:26.200.09-Sep-2020 5430.01 3576.63 75.87 12.00  60.20 2596.52
   11:54:26.400.09-Sep-2020 5430.01 3576.79 75.87 12.00  60.40 2596.52
   11:54:26.600.09-Sep-2020 5430.01 3576.82 75.87 12.00  60.60 2596.52
   11:54:26.800.09-Sep-2020 5430.01 3576.81 75.87 12.00  60.80 2596.52
   11:54:27.000.09-Sep-2020 5430.01 3576.78 75.87 12.00  61.00 2596.52
   11:54:27.200.09-Sep-2020 5430.01 3576.78 75.87 12.00  61.20 2596.52
   11:54:27.400.09-Sep-2020 5430.01 3576.82 75.87 12.00  61.40 2596.52
   11:54:27.600.09-Sep-2020 5430.01 3576.84 75.87 12.00  61.60 2596.52
   11:54:27.800.09-Sep-2020 5430.01 3576.83 75.87 12.00  61.80 2596.52
   11:54:28.000.09-Sep-2020 5430.01 3576.85 75.87 12.00  62.00 2596.52
   11:54:28.200.09-Sep-2020 5430.01 3576.85 75.87 12.00  62.20 2596.52
   11:54:28.400.09-Sep-2020 5430.01 3576.86 75.87 12.00  62.40 2596.52
   11:54:28.600.09-Sep-2020 5430.01 3576.86 75.87 12.00  62.60 2596.52
   11:54:28.800.09-Sep-2020 5430.01 3576.88 75.87 12.00  62.80 2596.52
   11:54:29.000.09-Sep-2020 5430.01 3576.87 75.87 12.00  63.00 2596.52
   11:54:29.200.09-Sep-2020 5430.01 3576.87 75.87 12.00  63.20 2596.52
   11:54:29.400.09-Sep-2020 5430.01 3576.84 75.87 12.00  63.40 2596.52
   11:54:29.600.09-Sep-2020 5430.01 3576.98 75.87 12.00  63.60 2596.52
   11:54:29.800.09-Sep-2020 5430.01 3576.88 75.87 12.00  63.80 2596.52
   11:54:30.000.09-Sep-2020 5430.01 3576.92 75.87 12.00  64.00 2596.52
   11:54:30.200.09-Sep-2020 5430.01 3576.92 75.87 12.00  64.20 2596.52
   11:54:30.400.09-Sep-2020 5430.01 3576.92 75.88 12.00  64.40 2596.52
   11:54:30.600.09-Sep-2020 5430.01 3577.04 75.88 12.00  64.60 2596.52
   11:54:30.800.09-Sep-2020 5430.01 3576.83 75.88 12.00  64.80 2596.52
   11:54:31.000.09-Sep-2020 5430.01 3576.93 75.88 12.00  65.00 2596.52
   11:54:31.200.09-Sep-2020 5430.01 3576.93 75.88 12.00  65.20 2596.52
   11:54:31.400.09-Sep-2020 5430.01 3576.99 75.88 12.00  65.40 2596.52
   11:54:31.600.09-Sep-2020 5430.01 3576.88 75.88 12.00  65.60 2596.52
   11:54:31.800.09-Sep-2020 5430.01 3577.03 75.88 12.00  65.80 2596.52
   11:54:32.000.09-Sep-2020 5430.01 3576.94 75.88 12.00  66.00 2596.52
   11:54:32.200.09-Sep-2020 5430.01 3576.99 75.88 12.00  66.20 2596.52
   11:54:32.400.09-Sep-2020 5430.01 3576.95 75.88 12.00  66.40 2596.52
   11:54:32.600.09-Sep-2020 5430.01 3576.99 75.88 12.00  66.60 2596.52
   11:54:32.800.09-Sep-2020 5430.01 3576.99 75.88 12.00  66.80 2596.52
   11:54:33.000.09-Sep-2020 5430.01 3577.10 75.88 12.00  67.00 2596.52
   11:54:33.200.09-Sep-2020 5430.01 3577.10 75.88 12.00  67.20 2596.52
   11:54:33.400.09-Sep-2020 5430.01 3576.99 75.88 12.00  67.40 2596.52
   11:54:33.600.09-Sep-2020 5430.01 3576.99 75.88 12.00  67.60 2596.52
