~Version Information
 VERS.                  2.0:   CWLS log ASCII Standard -VERSION 2.0
 WRAP.                   NO:   One line per depth step
~Well Information Block
#MNEM.UNIT     VALUE/NAME     DESCRIPTION
#---------     -----------    ---------------------------
 STRT.S             10:55:02 09-Sep-20: START TIME 10:55:02 09-Sep-20
 STOP.S             11:02:04 09-Sep-20: STOP TIME  11:02:04 09-Sep-20
 STEP.S                   0.00: STEP TIME
 NULL.                 -999.25: NULL VALUE
 MDS .        Operator Entered:  MAG DATA SOURCE
 PDAT.          Mean Sea Level:  PERMANENT DATUM
 DCON.         Sperry Drilling:  DIRECTNL CONTR
 RIG .              West Azeri:  RIG NAME
 WELL.           C40 (Slot 20):  WELL NAME
 SRVC.     Turan Drilling Engineering:  CONTRACTOR
 FLD .                     ACG:  FIELD NAME
 CTRY.              Azerbaijan:  COUNTRY NAME
 PROV.                    Baku:  PROVINCE
 STAT.                    Baku:  STATE NAME
 REGN.                   EESSA:  REGION
 BASE.              Azerbaijan:  LOGGING EQUIPMENT BASE LOCATION
 COMP.     BP Exploration (Caspian Sea) Ltd:  COMPANY
 WTYP.                Deviated:  WELL TYPE
 SON .        AZ-XX-0906344804:  JOB NUMBER
 FTOP.          Formation Tops:  FORM TOPS DESC
 ILTD.               Lithology:  INTERP LTH DESC
 SVYD.                  Survey:  SURVEY DESC
 DMOD.             Drill Model:  DRILL MOD DESC
 HPTY.       Minimum Curvature:  HOLE POS TYPE
 NREF.                    Grid:  NORTH REFERENCE
 SPUD.               01-Jan-20:  SPUD DATE
 DATE.      00.59.44 15-Sep-20:  END TIME
 STIM.      12.00.00 12-Jun-20:  START TIME
 DMF .             Drill Floor:  DRILL MEAS FROM
 DFST.                        :  DIST FSL TEXT
 DFWT.                        :  DIST FWL TEXT
 API .                        :  API NUMBER
 CNTY.                        :  COUNTY
 UWI .                        :  UNIQUE WELL IDENTIFIER
 LOC .                        :  LOCATION
 LMF .             Drill Floor:  LOG MEASURED FROM
 VSNS.m                   2.88:  VERT SEC N/S
 VSEW.m                  -3.84:  VERT SEC E/W
 AGAP.m                  43.42:  AIR GAP
 APD .m                  43.42:  DEPTH ABOVE PD
 WDMS.m                 118.27:  WD ELEV
 EGL .m                   0.00:  GROUND ELEVATION
 EPD .m                   0.00:  ELEVATION
 AZTC.deg                 6.23:  AZM TOTAL CORR
 GRDC.deg                 0.20:  GRID CORRECTION
 MDEC.deg                 6.43:  MAGNETIC DECL
 MDIP.deg                59.49:  MAGNETIC DIP
 MFLD.nT              50277.00:  MAGNETIC FIELD
 GVFD.g                   1.00:  GRAVITY FIELD
 VSDR.deg               173.20:  VERT SEC DIRECT
 TDD .m                5790.01:  TOTAL DEPTH (DRILLER)
 SDEP.m                5231.01:  START DEPTH
 DFSL.m                   0.00:  DISTANCE FSL
 DFWL.m                   0.00:  DISTANCE FWL
 UTMY.m             4435808.83:  UTM Y
 UTMX.m              526266.40:  UTM X
 WHEW.m                  -3.84:  WELL HEAD E/W
 WHNS.m                   2.88:  WELL HEAD N/S
 LONG.deg                51.31:  LONGITUDE
 LATI.deg                40.06:  LATITUDE
 TVDS.m                  43.42:  TVDSS CORRECTN
 DEP .m                 430.08:  DEPTH
 EKB .m                  43.42:  KB ELEVATION
 EDF .m                  43.42:  DF ELEVATION
 TDL .m                 559.00:  TOTAL DEPTH (LOGGER)
 MAGU.                 1849381:  MAGUTM CHECKSUM
 VSC .                       0:  VS TO CLOSURE
~Parameter Information Block
#MNEM.UNIT       Value        Description
#---------     -----------    ---------------------------
 AV  .mps                 4.87:  Ann Velocity 
 AVMX.mps                 7.08:  Max Ann Veloc 
 AZIF.deg               108.87:  Azm, Final 
 BHAT.                  Rotary:  BHA Type 
 BROT.°/30m               0.35:  Build Rotating 
 BS  .in                  8.50:  Bit Size 
 BSZ .in                  8.50:  Bit Size 
 BTPL.psig              360.00:  Bit Press Loss 
 CABU.                     Yes:  Customer Abuse 
 COMM.                     ¬Î:  Run Comments 1 
 TCS .hr                106.24:  Time Ciculation Ended 
 CV  .mps                 1.77:  Crit Velocity 
 CVMX.mps                 2.03:  Max Crit Veloc 
 DD1 .         Aykhan Agagulov:  Direct Drillr 1 
 DD2 .            Nonso Okofor:  Direct Drillr 2 
 DDSV.               Geo-Pilot:  DD Service 
 DEFF.%                  98.00:  % Det Eff 
 DLRX.°/30m               0.50:  Dogleg Rot Max 
 DLSO.°/30m               0.40:  Dogleg Oriented 
 DLSX.°/30m               0.94:  Dogleg Str Max 
 DRET.      20.30.00 08-Sep-20:  Drill End Time 
 DRST.      22.15.00 06-Sep-20:  Drill Start Tim 
 DTIM.hr                 31.31:  Time Drilling 
 EDEP.m                5790.01:  End Depth 
 ENG1.           Amrah Tahirov:  Engineer 1 
 ENG2.         Dair Mahammadov:  Engineer 2 
 ENG3.           Emil Huseynov:  Engineer 3 
 ETIM.      04.01.04 12-Sep-20:  End Time 
 FLOI.gpm               450.00:  Flow In 
 FLON.gpm               450.00:  Flow In Min 
 FLOS.cptm                2.00:  Fluid Loss 
 FLOX.gpm               450.00:  Flow In Max 
 FTRO.       Formation Presure:  FTWD Run Obj 
 HFLO.                      No:  High Flow 
 HPRE.                      No:  High Pressure 
 HTEM.                      No:  High Temp 
 HYDO.m                   1.80:  Hydro Offset 
 IFIN.deg                72.03:  Inc, Final 
 IMAX.deg                73.72:  Inc Max 
 IMIN.deg                70.94:  Inc Min 
 IMND.m                5508.52:  Inc Min Depth 
 IMXD.m                5253.60:  Inc Max Depth 
 JARR.                      No:  Jarring 
 LETM.      20.30.00 08-Sep-20:  Log End Time 
 LOST.hr                     0:  Lost Rig Time 
 LSTM.      22.15.00 06-Sep-20:  Log Start Time 
 MDCL.ppm             36000.00:  Mud Chlorides 
 MDES.     Inversion Oil/Synthetic:  Mud Desc 
 DFD .sg                  1.44:  Mud Density 
 MDMN.sg                  1.44:  Dens Mud Min 
 MDMX.sg                  1.57:  Dens Mud Max 
 MOIL.                      70:  Run Mud Oil % 
 MOWR.                   70:30:  Run Mud OWR 
 MSND.                       0:  Run Mud Sand % 
 MSOL.                      21:  Run Mud Solids% 
 DFV .spqt               68.00:  Mud Viscosity 
 MWOD.in                  6.75:  MWD Tool OD 
 MWSI.                     Yes:  Serv Intrp, MWD 
 OTIM.hr                174.84:  Time Operating 
 PCON.           Look Like New:  Pad Condition 
 PMAX.psia            10616.93:  Press Op, Max 
 PV  .cP                 50.00:  Mud PV 
 RUN .                     700:  Run Number 
 ROPA.m/hr               14.24:  ROP Avg 
 ROPN.m/hr               10.00:  ROP Min 
 ROPX.m/hr               32.00:  ROP Max 
 RPMA.rpm               120.90:  RPM Surface Avg 
 RPMN.rpm               120.00:  RPM Surface Min 
 RPMX.rpm               140.00:  RPM Surface Max 
 RRUN.                    0700:  Rig Run Number 
 RTIM.hr                  3.20:  Time Reaming 
 SAZI.deg               109.99:  Azm, Start 
 SDEP.m                5231.01:  Start Depth 
 SIDD.                      No:  Serv Intrp, DD 
 SINC.deg                73.72:  Inc, Start 
 SPPA.psig             3051.00:  SPP Avg 
 SPPN.psig             2950.00:  SPP Min 
 SPPX.psig             3250.00:  SPP Max 
 STIM.      08.00.00 05-Sep-20:  Start Time 
 SVCS.                 DD, MWD:  Services 
 SVER.                    9.20:  Sperry Version 
 TDAT.m                 559.00:  Tot Depth Attmp 
 TDDF.                      No:  Trip for DD 
 TDLG.m                 559.00:  Tot Depth Loggd 
 TFF .                      No:  Trip for Fail 
 TQAA.f-kp               26.49:  Torque Abs Avg 
 TQAN.f-kp               25.00:  Torque Abs Min 
 TQAX.f-kp               27.00:  Torque Abs Max 
 TRRT.°/30m               1.50:  Turn Rotating 
 MRT .                    HCIM:  Maximum Recorded Temperature 
 TTMX.degC               90.20:  Max Tool Temp 
 VS01.                90542671:  Virtual Str1 SN 
 VS02.                90545185:  Virtual Str2 SN 
 VS03.                90602015:  Virtual Str3 SN 
 VS04.                90515230:  Virtual Str4 SN 
 WBMN.klb                 5.00:  WOB Min 
 WOBA.klb                14.79:  WOB Avg 
 WOBX.klb                20.00:  WOB Max 
 YP  .lhf2               29.00:  Yield Point 
~Curve Information Block
#MNEM.UNIT                 API CODE     Curve Description
#---------               -----------    ---------------------------
 TIME.HHMMSS            00 000 000 000:  GT Time & Date
 GTDEPTH.m              00 000 000 000:  GT Depth
 GTPQH.psia             00 000 000 000:  GT HR Quartz Pressure
 GTTQ.degC              00 000 000 000:  GT Quartz Temperature
 GTTN.NONE              00 000 000 000:  GT Test Number
 GTET.sec               00 000 000 000:  GT Elapsed Test Time
 GTTVD.m                00 000 000 000:  GT True Vertical Depth
#Other Information
#
#WARRANTY: Halliburton will use its best efforts to furnish customers with 
#accurate information and interpretations that are part of, and incident to, the services 
#provided.  However, Halliburton cannot and does not warrant the accuracy 
#or correctness of such information and interpretations.  Under no circumstances should any 
#such information or interpretation be relied upon as the sole basis for any drilling, 
#completion, production, or financial decision or any procedure involving any risk to the 
#safety of any drilling venture, drilling rig or its crew or any other third party.  The 
#Customer has full responsibility for all drilling, completion and production operation.  
#Halliburton makes no representations or warranties, either expressed or 
#implied, including, but not limited to, the implied warranties of merchantability or fitness 
#for a particular purpose, with respect to the services rendered.  In no event will 
#Halliburton be liable for failure to obtain any particular results or for 
#any damages, including, but not limited to, indirect, special or consequential damages, 
#resulting from the use of any information or interpretation provided by Halliburton.
#
~A           TIME           GTDEPTH  GTPQH  GTTQ  GTTN   GTET   GTTVD  
# ...
   11:01:03.891.09-Sep-2020 5456.01 3588.86 76.39 10.00 361.70 2604.72
   11:01:04.091.09-Sep-2020 5456.01 3589.00 76.39 10.00 361.90 2604.72
   11:01:04.291.09-Sep-2020 5456.01 3588.92 76.39 10.00 362.10 2604.72
   11:01:04.491.09-Sep-2020 5456.01 3588.92 76.39 10.00 362.30 2604.72
   11:01:04.691.09-Sep-2020 5456.01 3588.95 76.39 10.00 362.50 2604.72
   11:01:04.891.09-Sep-2020 5456.01 3588.92 76.39 10.00 362.70 2604.72
   11:01:05.091.09-Sep-2020 5456.01 3588.95 76.39 10.00 362.90 2604.72
   11:01:05.291.09-Sep-2020 5456.01 3588.94 76.39 10.00 363.10 2604.72
   11:01:05.491.09-Sep-2020 5456.01 3588.94 76.39 10.00 363.30 2604.72
   11:01:05.692.09-Sep-2020 5456.01 3588.94 76.39 10.00 363.50 2604.72
   11:01:05.892.09-Sep-2020 5456.01 3588.91 76.39 10.00 363.70 2604.72
   11:01:06.092.09-Sep-2020 5456.01 3588.94 76.39 10.00 363.90 2604.72
   11:01:06.292.09-Sep-2020 5456.01 3588.93 76.39 10.00 364.10 2604.72
   11:01:06.492.09-Sep-2020 5456.01 3588.93 76.39 10.00 364.30 2604.72
   11:01:06.692.09-Sep-2020 5456.01 3588.94 76.39 10.00 364.50 2604.72
   11:01:06.892.09-Sep-2020 5456.01 3589.99 76.39 10.00 364.70 2604.72
   11:01:07.092.09-Sep-2020 5456.01 3592.82 76.39 10.00 364.90 2604.72
   11:01:07.292.09-Sep-2020 5456.01 3678.51 76.39 10.00 365.10 2604.72
   11:01:07.492.09-Sep-2020 5456.01 3678.51 76.39 10.00 365.30 2604.72
   11:01:07.692.09-Sep-2020 5456.01 6428.95 76.39 10.00 365.50 2604.72
   11:01:07.892.09-Sep-2020 5456.01 6428.75 76.39 10.00 365.70 2604.72
   11:01:08.092.09-Sep-2020 5456.01 6427.40 76.39 10.00 365.90 2604.72
   11:01:08.292.09-Sep-2020 5456.01 6428.30 76.39 10.00 366.10 2604.72
   11:01:08.492.09-Sep-2020 5456.01 6429.60 76.39 10.00 366.30 2604.72
   11:01:08.692.09-Sep-2020 5456.01 6429.26 76.39 10.00 366.50 2604.72
   11:01:08.892.09-Sep-2020 5456.01 6429.98 76.39 10.00 366.70 2604.72
   11:01:09.092.09-Sep-2020 5456.01 6430.46 76.40 10.00 366.90 2604.72
   11:01:09.293.09-Sep-2020 5456.01 6429.98 76.40 10.00 367.10 2604.72
   11:01:09.493.09-Sep-2020 5456.01 6429.98 76.40 10.00 367.30 2604.72
   11:01:09.693.09-Sep-2020 5456.01 6430.64 76.40 10.00 367.50 2604.72
   11:01:09.893.09-Sep-2020 5456.01 6431.02 76.40 10.00 367.70 2604.72
   11:01:10.093.09-Sep-2020 5456.01 6438.74 76.41 10.00 367.90 2604.72
   11:01:10.293.09-Sep-2020 5456.01 6432.56 76.41 10.00 368.10 2604.72
   11:01:10.493.09-Sep-2020 5456.01 6432.56 76.41 10.00 368.30 2604.72
   11:01:10.693.09-Sep-2020 5456.01 6433.78 76.41 10.00 368.50 2604.72
   11:01:10.893.09-Sep-2020 5456.01 6434.37 76.42 10.00 368.70 2604.72
   11:01:11.093.09-Sep-2020 5456.01 6433.33 76.42 10.00 368.90 2604.72
   11:01:11.293.09-Sep-2020 5456.01 6446.37 76.42 10.00 369.10 2604.72
   11:01:11.493.09-Sep-2020 5456.01 6446.37 76.42 10.00 369.30 2604.72
   11:01:11.693.09-Sep-2020 5456.01 6433.67 76.43 10.00 369.50 2604.72
   11:01:11.893.09-Sep-2020 5456.01 6436.24 76.43 10.00 369.70 2604.72
   11:01:12.093.09-Sep-2020 5456.01 6447.86 76.43 10.00 369.90 2604.72
   11:01:12.293.09-Sep-2020 5456.01 6428.94 76.43 10.00 370.10 2604.72
   11:01:12.493.09-Sep-2020 5456.01 6428.94 76.43 10.00 370.30 2604.72
   11:01:12.693.09-Sep-2020 5456.01 6436.86 76.44 10.00 370.50 2604.72
   11:01:12.894.09-Sep-2020 5456.01 6436.09 76.44 10.00 370.70 2604.72
   11:01:13.094.09-Sep-2020 5456.01 6443.77 76.44 10.00 370.90 2604.72
   11:01:13.294.09-Sep-2020 5456.01 6435.46 76.44 10.00 371.10 2604.72
   11:01:13.494.09-Sep-2020 5456.01 6435.46 76.44 10.00 371.30 2604.72
   11:01:13.694.09-Sep-2020 5456.01 6438.10 76.45 10.00 371.50 2604.72
   11:01:13.894.09-Sep-2020 5456.01 6434.72 76.45 10.00 371.70 2604.72
   11:01:14.094.09-Sep-2020 5456.01 6435.56 76.45 10.00 371.90 2604.72
   11:01:14.294.09-Sep-2020 5456.01 6446.49 76.45 10.00 372.10 2604.72
   11:01:14.494.09-Sep-2020 5456.01 6446.49 76.45 10.00 372.30 2604.72
   11:01:14.694.09-Sep-2020 5456.01 6435.77 76.46 10.00 372.50 2604.72
   11:01:14.894.09-Sep-2020 5456.01 6438.21 76.46 10.00 372.70 2604.72
   11:01:15.094.09-Sep-2020 5456.01 6436.32 76.46 10.00 372.90 2604.72
   11:01:15.294.09-Sep-2020 5456.01 6437.62 76.46 10.00 373.10 2604.72
   11:01:15.494.09-Sep-2020 5456.01 6437.62 76.46 10.00 373.30 2604.72
   11:01:15.694.09-Sep-2020 5456.01 6436.85 76.46 10.00 373.50 2604.72
   11:01:15.894.09-Sep-2020 5456.01 6437.62 76.46 10.00 373.70 2604.72
   11:01:16.094.09-Sep-2020 5456.01 6436.86 76.47 10.00 373.90 2604.72
   11:01:16.294.09-Sep-2020 5456.01 6437.25 76.47 10.00 374.10 2604.72
   11:01:16.495.09-Sep-2020 5456.01 6437.25 76.47 10.00 374.30 2604.72
   11:01:16.695.09-Sep-2020 5456.01 6437.84 76.47 10.00 374.50 2604.72
   11:01:16.895.09-Sep-2020 5456.01 6437.73 76.47 10.00 374.70 2604.72
   11:01:17.095.09-Sep-2020 5456.01 6437.43 76.47 10.00 374.90 2604.72
   11:01:17.295.09-Sep-2020 5456.01 6436.79 76.47 10.00 375.10 2604.72
   11:01:17.495.09-Sep-2020 5456.01 6436.79 76.47 10.00 375.30 2604.72
   11:01:17.695.09-Sep-2020 5456.01 6436.78 76.47 10.00 375.50 2604.72
   11:01:17.895.09-Sep-2020 5456.01 6443.71 76.47 10.00 375.70 2604.72
   11:01:18.095.09-Sep-2020 5456.01 6437.56 76.47 10.00 375.90 2604.72
   11:01:18.295.09-Sep-2020 5456.01 6437.44 76.47 10.00 376.10 2604.72
   11:01:18.495.09-Sep-2020 5456.01 6437.44 76.47 10.00 376.30 2604.72
   11:01:18.695.09-Sep-2020 5456.01 6438.53 76.47 10.00 376.50 2604.72
   11:01:18.895.09-Sep-2020 5456.01 6437.34 76.47 10.00 376.70 2604.72
   11:01:19.095.09-Sep-2020 5456.01 6436.56 76.47 10.00 376.90 2604.72
   11:01:19.295.09-Sep-2020 5456.01 6437.33 76.47 10.00 377.10 2604.72
   11:01:19.495.09-Sep-2020 5456.01 6437.33 76.47 10.00 377.30 2604.72
   11:01:19.695.09-Sep-2020 5456.01 6436.58 76.48 10.00 377.50 2604.72
   11:01:19.895.09-Sep-2020 5456.01 6436.37 76.48 10.00 377.70 2604.72
   11:01:20.095.09-Sep-2020 5456.01 6436.29 76.48 10.00 377.90 2604.72
   11:01:20.296.09-Sep-2020 5456.01 6436.00 76.48 10.00 378.10 2604.72
   11:01:20.496.09-Sep-2020 5456.01 6434.79 76.48 10.00 378.30 2604.72
   11:01:20.696.09-Sep-2020 5456.01 6434.60 76.48 10.00 378.50 2604.72
   11:01:20.896.09-Sep-2020 5456.01 6434.30 76.48 10.00 378.70 2604.72
   11:01:21.096.09-Sep-2020 5456.01 6434.74 76.48 10.00 378.90 2604.72
   11:01:21.296.09-Sep-2020 5456.01 6434.96 76.48 10.00 379.10 2604.72
   11:01:21.496.09-Sep-2020 5456.01 6434.96 76.48 10.00 379.30 2604.72
   11:01:21.696.09-Sep-2020 5456.01 6435.24 76.48 10.00 379.50 2604.72
   11:01:21.896.09-Sep-2020 5456.01 6434.90 76.48 10.00 379.70 2604.72
   11:01:22.096.09-Sep-2020 5456.01 6437.48 76.48 10.00 379.90 2604.72
   11:01:22.296.09-Sep-2020 5456.01 6434.83 76.48 10.00 380.10 2604.72
   11:01:22.496.09-Sep-2020 5456.01 6434.83 76.48 10.00 380.30 2604.72
   11:01:22.696.09-Sep-2020 5456.01 6436.28 76.48 10.00 380.51 2604.72
   11:01:22.896.09-Sep-2020 5456.01 6435.20 76.48 10.00 380.71 2604.72
   11:01:23.096.09-Sep-2020 5456.01 6436.99 76.48 10.00 380.91 2604.72
   11:01:23.296.09-Sep-2020 5456.01 6436.34 76.48 10.00 381.11 2604.72
   11:01:23.496.09-Sep-2020 5456.01 6436.34 76.48 10.00 381.31 2604.72
   11:01:23.696.09-Sep-2020 5456.01 6442.05 76.47 10.00 381.51 2604.72
   11:01:23.897.09-Sep-2020 5456.01 6436.40 76.47 10.00 381.71 2604.72
   11:01:24.097.09-Sep-2020 5456.01 6435.64 76.47 10.00 381.91 2604.72
   11:01:24.297.09-Sep-2020 5456.01 6438.15 76.47 10.00 382.11 2604.72
   11:01:24.497.09-Sep-2020 5456.01 6438.15 76.47 10.00 382.31 2604.72
   11:01:24.697.09-Sep-2020 5456.01 6436.37 76.47 10.00 382.51 2604.72
   11:01:24.897.09-Sep-2020 5456.01 6436.76 76.47 10.00 382.71 2604.72
   11:01:25.097.09-Sep-2020 5456.01 6437.71 76.47 10.00 382.91 2604.72
   11:01:25.297.09-Sep-2020 5456.01 6436.43 76.47 10.00 383.11 2604.72
   11:01:25.497.09-Sep-2020 5456.01 6436.43 76.47 10.00 383.31 2604.72
   11:01:25.697.09-Sep-2020 5456.01 6436.77 76.47 10.00 383.51 2604.72
   11:01:25.897.09-Sep-2020 5456.01 6446.77 76.47 10.00 383.71 2604.72
   11:01:26.097.09-Sep-2020 5456.01 6434.47 76.47 10.00 383.91 2604.72
   11:01:26.297.09-Sep-2020 5456.01 6436.03 76.47 10.00 384.11 2604.72
