~Version Information
 VERS.                  2.0:   CWLS log ASCII Standard -VERSION 2.0
 WRAP.                   NO:   One line per depth step
~Well Information Block
#MNEM.UNIT     VALUE/NAME     DESCRIPTION
#---------     -----------    ---------------------------
 STRT.S             18:19:19 09-Sep-20: START TIME 18:19:19 09-Sep-20
 STOP.S             18:27:34 09-Sep-20: STOP TIME  18:27:34 09-Sep-20
 STEP.S                   0.00: STEP TIME
 NULL.                 -999.25: NULL VALUE
 MDS .        Operator Entered:  MAG DATA SOURCE
 PDAT.          Mean Sea Level:  PERMANENT DATUM
 DCON.         Sperry Drilling:  DIRECTNL CONTR
 RIG .              West Azeri:  RIG NAME
 WELL.           C40 (Slot 20):  WELL NAME
 SRVC.     Turan Drilling Engineering:  CONTRACTOR
 FLD .                     ACG:  FIELD NAME
 CTRY.              Azerbaijan:  COUNTRY NAME
 PROV.                    Baku:  PROVINCE
 STAT.                    Baku:  STATE NAME
 REGN.                   EESSA:  REGION
 BASE.              Azerbaijan:  LOGGING EQUIPMENT BASE LOCATION
 COMP.     BP Exploration (Caspian Sea) Ltd:  COMPANY
 WTYP.                Deviated:  WELL TYPE
 SON .        AZ-XX-0906344804:  JOB NUMBER
 FTOP.          Formation Tops:  FORM TOPS DESC
 ILTD.               Lithology:  INTERP LTH DESC
 SVYD.                  Survey:  SURVEY DESC
 DMOD.             Drill Model:  DRILL MOD DESC
 HPTY.       Minimum Curvature:  HOLE POS TYPE
 NREF.                    Grid:  NORTH REFERENCE
 SPUD.               01-Jan-20:  SPUD DATE
 DATE.      00.59.44 15-Sep-20:  END TIME
 STIM.      12.00.00 12-Jun-20:  START TIME
 DMF .             Drill Floor:  DRILL MEAS FROM
 DFST.                        :  DIST FSL TEXT
 DFWT.                        :  DIST FWL TEXT
 API .                        :  API NUMBER
 CNTY.                        :  COUNTY
 UWI .                        :  UNIQUE WELL IDENTIFIER
 LOC .                        :  LOCATION
 LMF .             Drill Floor:  LOG MEASURED FROM
 VSNS.m                   2.88:  VERT SEC N/S
 VSEW.m                  -3.84:  VERT SEC E/W
 AGAP.m                  43.42:  AIR GAP
 APD .m                  43.42:  DEPTH ABOVE PD
 WDMS.m                 118.27:  WD ELEV
 EGL .m                   0.00:  GROUND ELEVATION
 EPD .m                   0.00:  ELEVATION
 AZTC.deg                 6.23:  AZM TOTAL CORR
 GRDC.deg                 0.20:  GRID CORRECTION
 MDEC.deg                 6.43:  MAGNETIC DECL
 MDIP.deg                59.49:  MAGNETIC DIP
 MFLD.nT              50277.00:  MAGNETIC FIELD
 GVFD.g                   1.00:  GRAVITY FIELD
 VSDR.deg               173.20:  VERT SEC DIRECT
 TDD .m                5790.01:  TOTAL DEPTH (DRILLER)
 SDEP.m                5231.01:  START DEPTH
 DFSL.m                   0.00:  DISTANCE FSL
 DFWL.m                   0.00:  DISTANCE FWL
 UTMY.m             4435808.83:  UTM Y
 UTMX.m              526266.40:  UTM X
 WHEW.m                  -3.84:  WELL HEAD E/W
 WHNS.m                   2.88:  WELL HEAD N/S
 LONG.deg                51.31:  LONGITUDE
 LATI.deg                40.06:  LATITUDE
 TVDS.m                  43.42:  TVDSS CORRECTN
 DEP .m                 430.08:  DEPTH
 EKB .m                  43.42:  KB ELEVATION
 EDF .m                  43.42:  DF ELEVATION
 TDL .m                 559.00:  TOTAL DEPTH (LOGGER)
 MAGU.                 1849381:  MAGUTM CHECKSUM
 VSC .                       0:  VS TO CLOSURE
~Parameter Information Block
#MNEM.UNIT       Value        Description
#---------     -----------    ---------------------------
 AV  .mps                 4.87:  Ann Velocity 
 AVMX.mps                 7.08:  Max Ann Veloc 
 AZIF.deg               108.87:  Azm, Final 
 BHAT.                  Rotary:  BHA Type 
 BROT.°/30m               0.35:  Build Rotating 
 BS  .in                  8.50:  Bit Size 
 BSZ .in                  8.50:  Bit Size 
 BTPL.psig              360.00:  Bit Press Loss 
 CABU.                     Yes:  Customer Abuse 
 TCS .hr                106.24:  Time Ciculation Ended 
 CV  .mps                 1.77:  Crit Velocity 
 CVMX.mps                 2.03:  Max Crit Veloc 
 DD1 .         Aykhan Agagulov:  Direct Drillr 1 
 DD2 .            Nonso Okofor:  Direct Drillr 2 
 DDSV.               Geo-Pilot:  DD Service 
 DEFF.%                  98.00:  % Det Eff 
 DLRX.°/30m               0.50:  Dogleg Rot Max 
 DLSO.°/30m               0.40:  Dogleg Oriented 
 DLSX.°/30m               0.94:  Dogleg Str Max 
 DRET.      20.30.00 08-Sep-20:  Drill End Time 
 DRST.      22.15.00 06-Sep-20:  Drill Start Tim 
 DTIM.hr                 31.31:  Time Drilling 
 EDEP.m                5790.01:  End Depth 
 ENG1.           Amrah Tahirov:  Engineer 1 
 ENG2.         Dair Mahammadov:  Engineer 2 
 ENG3.           Emil Huseynov:  Engineer 3 
 ETIM.      04.01.04 12-Sep-20:  End Time 
 FLOI.gpm               450.00:  Flow In 
 FLON.gpm               450.00:  Flow In Min 
 FLOS.cptm                2.00:  Fluid Loss 
 FLOX.gpm               450.00:  Flow In Max 
 FTRO.       Formation Presure:  FTWD Run Obj 
 HFLO.                      No:  High Flow 
 HPRE.                      No:  High Pressure 
 HTEM.                      No:  High Temp 
 HYDO.m                   1.80:  Hydro Offset 
 IFIN.deg                72.03:  Inc, Final 
 IMAX.deg                73.72:  Inc Max 
 IMIN.deg                70.94:  Inc Min 
 IMND.m                5508.52:  Inc Min Depth 
 IMXD.m                5253.60:  Inc Max Depth 
 JARR.                      No:  Jarring 
 LETM.      20.30.00 08-Sep-20:  Log End Time 
 LOST.hr                     0:  Lost Rig Time 
 LSTM.      22.15.00 06-Sep-20:  Log Start Time 
 MDCL.ppm             36000.00:  Mud Chlorides 
 MDES.     Inversion Oil/Synthetic:  Mud Desc 
 DFD .sg                  1.44:  Mud Density 
 MDMN.sg                  1.44:  Dens Mud Min 
 MDMX.sg                  1.57:  Dens Mud Max 
 MOIL.                      70:  Run Mud Oil % 
 MOWR.                   70:30:  Run Mud OWR 
 MSND.                       0:  Run Mud Sand % 
 MSOL.                      21:  Run Mud Solids% 
 DFV .spqt               68.00:  Mud Viscosity 
 MWOD.in                  6.75:  MWD Tool OD 
 MWSI.                     Yes:  Serv Intrp, MWD 
 OTIM.hr                174.84:  Time Operating 
 PCON.           Look Like New:  Pad Condition 
 PMAX.psia            10616.93:  Press Op, Max 
 PV  .cP                 50.00:  Mud PV 
 RUN .                     700:  Run Number 
 ROPA.m/hr               14.24:  ROP Avg 
 ROPN.m/hr               10.00:  ROP Min 
 ROPX.m/hr               32.00:  ROP Max 
 RPMA.rpm               120.90:  RPM Surface Avg 
 RPMN.rpm               120.00:  RPM Surface Min 
 RPMX.rpm               140.00:  RPM Surface Max 
 RRUN.                    0700:  Rig Run Number 
 RTIM.hr                  3.20:  Time Reaming 
 SAZI.deg               109.99:  Azm, Start 
 SDEP.m                5231.01:  Start Depth 
 SIDD.                      No:  Serv Intrp, DD 
 SINC.deg                73.72:  Inc, Start 
 SPPA.psig             3051.00:  SPP Avg 
 SPPN.psig             2950.00:  SPP Min 
 SPPX.psig             3250.00:  SPP Max 
 STIM.      08.00.00 05-Sep-20:  Start Time 
 SVCS.                 DD, MWD:  Services 
 SVER.                    9.20:  Sperry Version 
 TDAT.m                 559.00:  Tot Depth Attmp 
 TDDF.                      No:  Trip for DD 
 TDLG.m                 559.00:  Tot Depth Loggd 
 TFF .                      No:  Trip for Fail 
 TQAA.f-kp               26.49:  Torque Abs Avg 
 TQAN.f-kp               25.00:  Torque Abs Min 
 TQAX.f-kp               27.00:  Torque Abs Max 
 TRRT.°/30m               1.50:  Turn Rotating 
 MRT .                    HCIM:  Maximum Recorded Temperature 
 TTMX.degC               90.20:  Max Tool Temp 
 VS01.                90542671:  Virtual Str1 SN 
 VS02.                90545185:  Virtual Str2 SN 
 VS03.                90602015:  Virtual Str3 SN 
 VS04.                90515230:  Virtual Str4 SN 
 WBMN.klb                 5.00:  WOB Min 
 WOBA.klb                14.79:  WOB Avg 
 WOBX.klb                20.00:  WOB Max 
 YP  .lhf2               29.00:  Yield Point 
~Curve Information Block
#MNEM.UNIT                 API CODE     Curve Description
#---------               -----------    ---------------------------
 TIME.HHMMSS            00 000 000 000:  GT Time & Date
 GTDEPTH.m              00 000 000 000:  GT Depth
 GTPQH.psia             00 000 000 000:  GT HR Quartz Pressure
 GTTQ.degC              00 000 000 000:  GT Quartz Temperature
 GTTN.NONE              00 000 000 000:  GT Test Number
 GTET.sec               00 000 000 000:  GT Elapsed Test Time
 GTTVD.m                00 000 000 000:  GT True Vertical Depth
#Other Information
#
#WARRANTY: Halliburton will use its best efforts to furnish customers with 
#accurate information and interpretations that are part of, and incident to, the services 
#provided.  However, Halliburton cannot and does not warrant the accuracy 
#or correctness of such information and interpretations.  Under no circumstances should any 
#such information or interpretation be relied upon as the sole basis for any drilling, 
#completion, production, or financial decision or any procedure involving any risk to the 
#safety of any drilling venture, drilling rig or its crew or any other third party.  The 
#Customer has full responsibility for all drilling, completion and production operation.  
#Halliburton makes no representations or warranties, either expressed or 
#implied, including, but not limited to, the implied warranties of merchantability or fitness 
#for a particular purpose, with respect to the services rendered.  In no event will 
#Halliburton be liable for failure to obtain any particular results or for 
#any damages, including, but not limited to, indirect, special or consequential damages, 
#resulting from the use of any information or interpretation provided by Halliburton.
#
~A           TIME           GTDEPTH  GTPQH  GTTQ  GTTN   GTET   GTTVD  
# ...
   18:19:42.524.09-Sep-2020 5281.01 6192.03 74.66 21.00  22.58 2550.59
   18:19:42.724.09-Sep-2020 5281.01 6195.89 74.66 21.00  22.78 2550.59
   18:19:42.924.09-Sep-2020 5281.01 6194.76 74.66 21.00  22.98 2550.59
   18:19:43.124.09-Sep-2020 5281.01 6194.98 74.66 21.00  23.18 2550.59
   18:19:43.324.09-Sep-2020 5281.01 6195.63 74.66 21.00  23.38 2550.59
   18:19:43.524.09-Sep-2020 5281.01 6196.69 74.66 21.00  23.58 2550.59
   18:19:43.723.09-Sep-2020 5281.01 6196.62 74.66 21.00  23.78 2550.59
   18:19:43.923.09-Sep-2020 5281.01 6197.54 74.66 21.00  23.98 2550.59
   18:19:44.123.09-Sep-2020 5281.01 6197.54 74.66 21.00  24.18 2550.59
   18:19:44.323.09-Sep-2020 5281.01 6197.44 74.66 21.00  24.38 2550.59
   18:19:44.523.09-Sep-2020 5281.01 6197.13 74.66 21.00  24.58 2550.59
   18:19:44.723.09-Sep-2020 5281.01 6197.82 74.66 21.00  24.78 2550.59
   18:19:44.922.09-Sep-2020 5281.01 6198.35 74.66 21.00  24.98 2550.59
   18:19:45.122.09-Sep-2020 5281.01 6198.35 74.66 21.00  25.18 2550.59
   18:19:45.322.09-Sep-2020 5281.01 6198.49 74.66 21.00  25.38 2550.59
   18:19:45.522.09-Sep-2020 5281.01 6198.31 74.66 21.00  25.58 2550.59
   18:19:45.722.09-Sep-2020 5281.01 6206.96 74.66 21.00  25.78 2550.59
   18:19:45.922.09-Sep-2020 5281.01 6195.36 74.66 21.00  25.98 2550.59
   18:19:46.122.09-Sep-2020 5281.01 6195.36 74.66 21.00  26.18 2550.59
   18:19:46.321.09-Sep-2020 5281.01 6199.75 74.66 21.00  26.38 2550.59
   18:19:46.521.09-Sep-2020 5281.01 6199.67 74.66 21.00  26.58 2550.59
   18:19:46.721.09-Sep-2020 5281.01 6199.95 74.66 21.00  26.78 2550.59
   18:19:46.921.09-Sep-2020 5281.01 6208.02 74.66 21.00  26.98 2550.59
   18:19:47.121.09-Sep-2020 5281.01 6198.77 74.66 21.00  27.18 2550.59
   18:19:47.321.09-Sep-2020 5281.01 6201.78 74.66 21.00  27.38 2550.59
   18:19:47.520.09-Sep-2020 5281.01 6200.29 74.66 21.00  27.58 2550.59
   18:19:47.720.09-Sep-2020 5281.01 6201.53 74.66 21.00  27.78 2550.59
   18:19:47.920.09-Sep-2020 5281.01 6208.86 74.66 21.00  27.98 2550.59
   18:19:48.120.09-Sep-2020 5281.01 6208.86 74.66 21.00  28.18 2550.59
   18:19:48.320.09-Sep-2020 5281.01 6203.88 74.66 21.00  28.38 2550.59
   18:19:48.520.09-Sep-2020 5281.01 6202.70 74.66 21.00  28.58 2550.59
   18:19:48.720.09-Sep-2020 5281.01 6213.30 74.66 21.00  28.78 2550.59
   18:19:48.919.09-Sep-2020 5281.01 6199.94 74.66 21.00  28.98 2550.59
   18:19:49.119.09-Sep-2020 5281.01 6199.94 74.66 21.00  29.18 2550.59
   18:19:49.319.09-Sep-2020 5281.01 6204.65 74.66 21.00  29.38 2550.59
   18:19:49.519.09-Sep-2020 5281.01 6204.88 74.66 21.00  29.58 2550.59
   18:19:49.719.09-Sep-2020 5281.01 6206.07 74.66 21.00  29.78 2550.59
   18:19:49.919.09-Sep-2020 5281.01 6206.39 74.66 21.00  29.98 2550.59
   18:19:50.118.09-Sep-2020 5281.01 6206.39 74.66 21.00  30.18 2550.59
   18:19:50.318.09-Sep-2020 5281.01 6203.58 74.66 21.00  30.38 2550.59
   18:19:50.518.09-Sep-2020 5281.01 6207.33 74.66 21.00  30.58 2550.59
   18:19:50.718.09-Sep-2020 5281.01 6208.22 74.66 21.00  30.78 2550.59
   18:19:50.918.09-Sep-2020 5281.01 6207.88 74.66 21.00  30.98 2550.59
   18:19:51.118.09-Sep-2020 5281.01 6209.19 74.66 21.00  31.18 2550.59
   18:19:51.317.09-Sep-2020 5281.01 6209.22 74.66 21.00  31.38 2550.59
   18:19:51.517.09-Sep-2020 5281.01 6209.38 74.66 21.00  31.58 2550.59
   18:19:51.717.09-Sep-2020 5281.01 6209.81 74.66 21.00  31.78 2550.59
   18:19:51.917.09-Sep-2020 5281.01 6210.27 74.66 21.00  31.97 2550.59
   18:19:52.117.09-Sep-2020 5281.01 6210.27 74.66 21.00  32.17 2550.59
   18:19:52.317.09-Sep-2020 5281.01 6191.29 74.66 21.00  32.37 2550.59
   18:19:52.517.09-Sep-2020 5281.01 6219.51 74.66 21.00  32.57 2550.59
   18:19:52.716.09-Sep-2020 5281.01 6237.02 74.66 21.00  32.77 2550.59
   18:19:52.916.09-Sep-2020 5281.01 6237.20 74.66 21.00  32.97 2550.59
   18:19:53.116.09-Sep-2020 5281.01 6237.20 74.66 21.00  33.17 2550.59
   18:19:53.316.09-Sep-2020 5281.01 6245.13 74.66 21.00  33.37 2550.59
   18:19:53.516.09-Sep-2020 5281.01 6240.92 74.66 21.00  33.57 2550.59
   18:19:53.716.09-Sep-2020 5281.01 6229.45 74.66 21.00  33.77 2550.59
   18:19:53.915.09-Sep-2020 5281.01 6221.06 74.66 21.00  33.97 2550.59
   18:19:54.115.09-Sep-2020 5281.01 6221.06 74.66 21.00  34.17 2550.59
   18:19:54.315.09-Sep-2020 5281.01 6179.52 74.66 21.00  34.37 2550.59
   18:19:54.515.09-Sep-2020 5281.01 6156.64 74.66 21.00  34.57 2550.59
   18:19:54.715.09-Sep-2020 5281.01 6137.78 74.66 21.00  34.77 2550.59
   18:19:54.915.09-Sep-2020 5281.01 6116.42 74.66 21.00  34.97 2550.59
   18:19:55.114.09-Sep-2020 5281.01 6116.42 74.66 21.00  35.17 2550.59
   18:19:55.314.09-Sep-2020 5281.01 6070.45 74.66 21.00  35.37 2550.59
   18:19:55.514.09-Sep-2020 5281.01 6048.66 74.66 21.00  35.57 2550.59
   18:19:55.714.09-Sep-2020 5281.01 6023.18 74.66 21.00  35.77 2550.59
   18:19:55.914.09-Sep-2020 5281.01 5997.52 74.66 21.00  35.97 2550.59
   18:19:56.114.09-Sep-2020 5281.01 5997.52 74.66 21.00  36.17 2550.59
   18:19:56.314.09-Sep-2020 5281.01 5951.51 74.66 21.00  36.37 2550.59
   18:19:56.513.09-Sep-2020 5281.01 5929.76 74.66 21.00  36.57 2550.59
   18:19:56.713.09-Sep-2020 5281.01 5909.39 74.66 21.00  36.77 2550.59
   18:19:56.913.09-Sep-2020 5281.01 5888.84 74.65 21.00  36.97 2550.59
   18:19:57.113.09-Sep-2020 5281.01 5888.84 74.65 21.00  37.17 2550.59
   18:19:57.313.09-Sep-2020 5281.01 5854.88 74.65 21.00  37.37 2550.59
   18:19:57.513.09-Sep-2020 5281.01 5846.54 74.65 21.00  37.57 2550.59
   18:19:57.712.09-Sep-2020 5281.01 5825.67 74.65 21.00  37.77 2550.59
   18:19:57.912.09-Sep-2020 5281.01 5815.12 74.65 21.00  37.97 2550.59
   18:19:58.112.09-Sep-2020 5281.01 5815.12 74.65 21.00  38.17 2550.59
   18:19:58.312.09-Sep-2020 5281.01 5790.64 74.65 21.00  38.37 2550.59
   18:19:58.512.09-Sep-2020 5281.01 5784.48 74.65 21.00  38.57 2550.59
   18:19:58.712.09-Sep-2020 5281.01 5592.41 74.65 21.00  38.77 2550.59
   18:19:58.912.09-Sep-2020 5281.01 4752.66 74.65 21.00  38.97 2550.59
   18:19:59.111.09-Sep-2020 5281.01 3884.21 74.65 21.00  39.17 2550.59
   18:19:59.311.09-Sep-2020 5281.01 3180.36 74.65 21.00  39.37 2550.59
   18:19:59.511.09-Sep-2020 5281.01 2602.29 74.65 21.00  39.57 2550.59
   18:19:59.711.09-Sep-2020 5281.01 2081.86 74.65 21.00  39.77 2550.59
   18:19:59.911.09-Sep-2020 5281.01 1630.12 74.65 21.00  39.97 2550.59
   18:20:00.111.09-Sep-2020 5281.01 1630.12 74.65 21.00  40.17 2550.59
   18:20:00.310.09-Sep-2020 5281.01 1309.77 74.64 21.00  40.37 2550.59
   18:20:00.510.09-Sep-2020 5281.01 1171.80 74.64 21.00  40.57 2550.59
   18:20:00.710.09-Sep-2020 5281.01 1062.77 74.64 21.00  40.77 2550.59
   18:20:00.910.09-Sep-2020 5281.01 1012.41 74.63 21.00  40.97 2550.59
   18:20:01.110.09-Sep-2020 5281.01 1012.41 74.63 21.00  41.17 2550.59
   18:20:01.310.09-Sep-2020 5281.01 1105.02 74.63 21.00  41.37 2550.59
   18:20:01.509.09-Sep-2020 5281.01 1132.92 74.62 21.00  41.57 2550.59
   18:20:01.709.09-Sep-2020 5281.01 1146.15 74.62 21.00  41.77 2550.59
   18:20:01.909.09-Sep-2020 5281.01 1154.49 74.62 21.00  41.97 2550.59
   18:20:02.109.09-Sep-2020 5281.01 1154.49 74.62 21.00  42.17 2550.59
   18:20:02.309.09-Sep-2020 5281.01 1178.23 74.61 21.00  42.37 2550.59
   18:20:02.509.09-Sep-2020 5281.01 1164.00 74.60 21.00  42.57 2550.59
   18:20:02.709.09-Sep-2020 5281.01 1155.82 74.60 21.00  42.77 2550.59
   18:20:02.908.09-Sep-2020 5281.01 1158.32 74.60 21.00  42.97 2550.59
   18:20:03.108.09-Sep-2020 5281.01 1155.39 74.59 21.00  43.17 2550.59
   18:20:03.308.09-Sep-2020 5281.01 1169.73 74.59 21.00  43.37 2550.59
   18:20:03.508.09-Sep-2020 5281.01 1163.37 74.58 21.00  43.57 2550.59
   18:20:03.708.09-Sep-2020 5281.01 1155.04 74.58 21.00  43.77 2550.59
   18:20:03.908.09-Sep-2020 5281.01 1143.18 74.57 21.00  43.97 2550.59
   18:20:04.107.09-Sep-2020 5281.01 1143.18 74.57 21.00  44.17 2550.59
   18:20:04.307.09-Sep-2020 5281.01 1120.85 74.57 21.00  44.37 2550.59
   18:20:04.507.09-Sep-2020 5281.01 1107.25 74.56 21.00  44.57 2550.59
   18:20:04.707.09-Sep-2020 5281.01 1091.98 74.56 21.00  44.76 2550.59
   18:20:04.907.09-Sep-2020 5281.01 1081.01 74.55 21.00  44.96 2550.59
