~Version Information
 VERS.                  2.0:   CWLS log ASCII Standard -VERSION 2.0
 WRAP.                   NO:   One line per depth step
~Well Information Block
#MNEM.UNIT     VALUE/NAME     DESCRIPTION
#---------     -----------    ---------------------------
 STRT.S             20:20:33 09-Sep-20: START TIME 20:20:33 09-Sep-20
 STOP.S             20:28:41 09-Sep-20: STOP TIME  20:28:41 09-Sep-20
 STEP.S                   0.00: STEP TIME
 NULL.                 -999.25: NULL VALUE
 MDS .        Operator Entered:  MAG DATA SOURCE
 PDAT.          Mean Sea Level:  PERMANENT DATUM
 DCON.         Sperry Drilling:  DIRECTNL CONTR
 RIG .              West Azeri:  RIG NAME
 WELL.           C40 (Slot 20):  WELL NAME
 SRVC.     Turan Drilling Engineering:  CONTRACTOR
 FLD .                     ACG:  FIELD NAME
 CTRY.              Azerbaijan:  COUNTRY NAME
 PROV.                    Baku:  PROVINCE
 STAT.                    Baku:  STATE NAME
 REGN.                   EESSA:  REGION
 BASE.              Azerbaijan:  LOGGING EQUIPMENT BASE LOCATION
 COMP.     BP Exploration (Caspian Sea) Ltd:  COMPANY
 WTYP.                Deviated:  WELL TYPE
 SON .        AZ-XX-0906344804:  JOB NUMBER
 FTOP.          Formation Tops:  FORM TOPS DESC
 ILTD.               Lithology:  INTERP LTH DESC
 SVYD.                  Survey:  SURVEY DESC
 DMOD.             Drill Model:  DRILL MOD DESC
 HPTY.       Minimum Curvature:  HOLE POS TYPE
 NREF.                    Grid:  NORTH REFERENCE
 SPUD.               01-Jan-20:  SPUD DATE
 DATE.      00.59.44 15-Sep-20:  END TIME
 STIM.      12.00.00 12-Jun-20:  START TIME
 DMF .             Drill Floor:  DRILL MEAS FROM
 DFST.                        :  DIST FSL TEXT
 DFWT.                        :  DIST FWL TEXT
 API .                        :  API NUMBER
 CNTY.                        :  COUNTY
 UWI .                        :  UNIQUE WELL IDENTIFIER
 LOC .                        :  LOCATION
 LMF .             Drill Floor:  LOG MEASURED FROM
 VSNS.m                   2.88:  VERT SEC N/S
 VSEW.m                  -3.84:  VERT SEC E/W
 AGAP.m                  43.42:  AIR GAP
 APD .m                  43.42:  DEPTH ABOVE PD
 WDMS.m                 118.27:  WD ELEV
 EGL .m                   0.00:  GROUND ELEVATION
 EPD .m                   0.00:  ELEVATION
 AZTC.deg                 6.23:  AZM TOTAL CORR
 GRDC.deg                 0.20:  GRID CORRECTION
 MDEC.deg                 6.43:  MAGNETIC DECL
 MDIP.deg                59.49:  MAGNETIC DIP
 MFLD.nT              50277.00:  MAGNETIC FIELD
 GVFD.g                   1.00:  GRAVITY FIELD
 VSDR.deg               173.20:  VERT SEC DIRECT
 TDD .m                5790.01:  TOTAL DEPTH (DRILLER)
 SDEP.m                5231.01:  START DEPTH
 DFSL.m                   0.00:  DISTANCE FSL
 DFWL.m                   0.00:  DISTANCE FWL
 UTMY.m             4435808.83:  UTM Y
 UTMX.m              526266.40:  UTM X
 WHEW.m                  -3.84:  WELL HEAD E/W
 WHNS.m                   2.88:  WELL HEAD N/S
 LONG.deg                51.31:  LONGITUDE
 LATI.deg                40.06:  LATITUDE
 TVDS.m                  43.42:  TVDSS CORRECTN
 DEP .m                 430.08:  DEPTH
 EKB .m                  43.42:  KB ELEVATION
 EDF .m                  43.42:  DF ELEVATION
 TDL .m                 559.00:  TOTAL DEPTH (LOGGER)
 MAGU.                 1849381:  MAGUTM CHECKSUM
 VSC .                       0:  VS TO CLOSURE
~Parameter Information Block
#MNEM.UNIT       Value        Description
#---------     -----------    ---------------------------
 AV  .mps                 4.87:  Ann Velocity 
 AVMX.mps                 7.08:  Max Ann Veloc 
 AZIF.deg               108.87:  Azm, Final 
 BHAT.                  Rotary:  BHA Type 
 BROT.°/30m               0.35:  Build Rotating 
 BS  .in                  8.50:  Bit Size 
 BSZ .in                  8.50:  Bit Size 
 BTPL.psig              360.00:  Bit Press Loss 
 CABU.                     Yes:  Customer Abuse 
 COMM.                     ÄìU:  Run Comments 1 
 TCS .hr                106.24:  Time Ciculation Ended 
 CV  .mps                 1.77:  Crit Velocity 
 CVMX.mps                 2.03:  Max Crit Veloc 
 DD1 .         Aykhan Agagulov:  Direct Drillr 1 
 DD2 .            Nonso Okofor:  Direct Drillr 2 
 DDSV.               Geo-Pilot:  DD Service 
 DEFF.%                  98.00:  % Det Eff 
 DLRX.°/30m               0.50:  Dogleg Rot Max 
 DLSO.°/30m               0.40:  Dogleg Oriented 
 DLSX.°/30m               0.94:  Dogleg Str Max 
 DRET.      20.30.00 08-Sep-20:  Drill End Time 
 DRST.      22.15.00 06-Sep-20:  Drill Start Tim 
 DTIM.hr                 31.31:  Time Drilling 
 EDEP.m                5790.01:  End Depth 
 ENG1.           Amrah Tahirov:  Engineer 1 
 ENG2.         Dair Mahammadov:  Engineer 2 
 ENG3.           Emil Huseynov:  Engineer 3 
 ETIM.      04.01.04 12-Sep-20:  End Time 
 FLOI.gpm               450.00:  Flow In 
 FLON.gpm               450.00:  Flow In Min 
 FLOS.cptm                2.00:  Fluid Loss 
 FLOX.gpm               450.00:  Flow In Max 
 FTRO.       Formation Presure:  FTWD Run Obj 
 HFLO.                      No:  High Flow 
 HPRE.                      No:  High Pressure 
 HTEM.                      No:  High Temp 
 HYDO.m                   1.80:  Hydro Offset 
 IFIN.deg                72.03:  Inc, Final 
 IMAX.deg                73.72:  Inc Max 
 IMIN.deg                70.94:  Inc Min 
 IMND.m                5508.52:  Inc Min Depth 
 IMXD.m                5253.60:  Inc Max Depth 
 JARR.                      No:  Jarring 
 LETM.      20.30.00 08-Sep-20:  Log End Time 
 LOST.hr                     0:  Lost Rig Time 
 LSTM.      22.15.00 06-Sep-20:  Log Start Time 
 MDCL.ppm             36000.00:  Mud Chlorides 
 MDES.     Inversion Oil/Synthetic:  Mud Desc 
 DFD .sg                  1.44:  Mud Density 
 MDMN.sg                  1.44:  Dens Mud Min 
 MDMX.sg                  1.57:  Dens Mud Max 
 MOIL.                      70:  Run Mud Oil % 
 MOWR.                   70:30:  Run Mud OWR 
 MSND.                       0:  Run Mud Sand % 
 MSOL.                      21:  Run Mud Solids% 
 DFV .spqt               68.00:  Mud Viscosity 
 MWOD.in                  6.75:  MWD Tool OD 
 MWSI.                     Yes:  Serv Intrp, MWD 
 OTIM.hr                174.84:  Time Operating 
 PCON.           Look Like New:  Pad Condition 
 PMAX.psia            10616.93:  Press Op, Max 
 PV  .cP                 50.00:  Mud PV 
 RUN .                     700:  Run Number 
 ROPA.m/hr               14.24:  ROP Avg 
 ROPN.m/hr               10.00:  ROP Min 
 ROPX.m/hr               32.00:  ROP Max 
 RPMA.rpm               120.90:  RPM Surface Avg 
 RPMN.rpm               120.00:  RPM Surface Min 
 RPMX.rpm               140.00:  RPM Surface Max 
 RRUN.                    0700:  Rig Run Number 
 RTIM.hr                  3.20:  Time Reaming 
 SAZI.deg               109.99:  Azm, Start 
 SDEP.m                5231.01:  Start Depth 
 SIDD.                      No:  Serv Intrp, DD 
 SINC.deg                73.72:  Inc, Start 
 SPPA.psig             3051.00:  SPP Avg 
 SPPN.psig             2950.00:  SPP Min 
 SPPX.psig             3250.00:  SPP Max 
 STIM.      08.00.00 05-Sep-20:  Start Time 
 SVCS.                 DD, MWD:  Services 
 SVER.                    9.20:  Sperry Version 
 TDAT.m                 559.00:  Tot Depth Attmp 
 TDDF.                      No:  Trip for DD 
 TDLG.m                 559.00:  Tot Depth Loggd 
 TFF .                      No:  Trip for Fail 
 TQAA.f-kp               26.49:  Torque Abs Avg 
 TQAN.f-kp               25.00:  Torque Abs Min 
 TQAX.f-kp               27.00:  Torque Abs Max 
 TRRT.°/30m               1.50:  Turn Rotating 
 MRT .                    HCIM:  Maximum Recorded Temperature 
 TTMX.degC               90.20:  Max Tool Temp 
 VS01.                90542671:  Virtual Str1 SN 
 VS02.                90545185:  Virtual Str2 SN 
 VS03.                90602015:  Virtual Str3 SN 
 VS04.                90515230:  Virtual Str4 SN 
 WBMN.klb                 5.00:  WOB Min 
 WOBA.klb                14.79:  WOB Avg 
 WOBX.klb                20.00:  WOB Max 
 YP  .lhf2               29.00:  Yield Point 
~Curve Information Block
#MNEM.UNIT                 API CODE     Curve Description
#---------               -----------    ---------------------------
 TIME.HHMMSS            00 000 000 000:  GT Time & Date
 GTDEPTH.m              00 000 000 000:  GT Depth
 GTPQH.psia             00 000 000 000:  GT HR Quartz Pressure
 GTTQ.degC              00 000 000 000:  GT Quartz Temperature
 GTTN.NONE              00 000 000 000:  GT Test Number
 GTET.sec               00 000 000 000:  GT Elapsed Test Time
 GTTVD.m                00 000 000 000:  GT True Vertical Depth
#Other Information
#
#WARRANTY: Halliburton will use its best efforts to furnish customers with 
#accurate information and interpretations that are part of, and incident to, the services 
#provided.  However, Halliburton cannot and does not warrant the accuracy 
#or correctness of such information and interpretations.  Under no circumstances should any 
#such information or interpretation be relied upon as the sole basis for any drilling, 
#completion, production, or financial decision or any procedure involving any risk to the 
#safety of any drilling venture, drilling rig or its crew or any other third party.  The 
#Customer has full responsibility for all drilling, completion and production operation.  
#Halliburton makes no representations or warranties, either expressed or 
#implied, including, but not limited to, the implied warranties of merchantability or fitness 
#for a particular purpose, with respect to the services rendered.  In no event will 
#Halliburton be liable for failure to obtain any particular results or for 
#any damages, including, but not limited to, indirect, special or consequential damages, 
#resulting from the use of any information or interpretation provided by Halliburton.
#
~A           TIME           GTDEPTH  GTPQH  GTTQ  GTTN   GTET   GTTVD  
# ...
   20:25:27.559.09-Sep-2020 5252.51  481.57 73.98 25.00 293.94 2542.44
   20:25:27.759.09-Sep-2020 5252.51  480.55 73.98 25.00 294.14 2542.44
   20:25:27.959.09-Sep-2020 5252.51  480.55 73.98 25.00 294.34 2542.44
   20:25:28.159.09-Sep-2020 5252.51  481.59 73.98 25.00 294.54 2542.44
   20:25:28.359.09-Sep-2020 5252.51  481.61 73.98 25.00 294.74 2542.44
   20:25:28.559.09-Sep-2020 5252.51  481.59 73.98 25.00 294.94 2542.44
   20:25:28.759.09-Sep-2020 5252.51  481.89 73.98 25.00 295.14 2542.44
   20:25:28.959.09-Sep-2020 5252.51  481.89 73.98 25.00 295.34 2542.44
   20:25:29.159.09-Sep-2020 5252.51  481.17 73.98 25.00 295.54 2542.44
   20:25:29.359.09-Sep-2020 5252.51  481.96 73.98 25.00 295.74 2542.44
   20:25:29.559.09-Sep-2020 5252.51  481.96 73.98 25.00 295.94 2542.44
   20:25:29.760.09-Sep-2020 5252.51  481.94 73.98 25.00 296.14 2542.44
   20:25:29.960.09-Sep-2020 5252.51  481.94 73.98 25.00 296.34 2542.44
   20:25:30.160.09-Sep-2020 5252.51  482.18 73.99 25.00 296.54 2542.44
   20:25:30.360.09-Sep-2020 5252.51  482.21 73.99 25.00 296.74 2542.44
   20:25:30.560.09-Sep-2020 5252.51  481.68 73.99 25.00 296.94 2542.44
   20:25:30.760.09-Sep-2020 5252.51  482.17 73.99 25.00 297.14 2542.44
   20:25:30.960.09-Sep-2020 5252.51  482.32 73.99 25.00 297.34 2542.44
   20:25:31.160.09-Sep-2020 5252.51  482.40 73.99 25.00 297.54 2542.44
   20:25:31.360.09-Sep-2020 5252.51  482.39 73.99 25.00 297.74 2542.44
   20:25:31.560.09-Sep-2020 5252.51  482.59 73.99 25.00 297.94 2542.44
   20:25:31.760.09-Sep-2020 5252.51  482.51 73.99 25.00 298.14 2542.44
   20:25:31.961.09-Sep-2020 5252.51  482.51 73.99 25.00 298.34 2542.44
   20:25:32.161.09-Sep-2020 5252.51  482.94 73.99 25.00 298.54 2542.44
   20:25:32.361.09-Sep-2020 5252.51  482.71 73.99 25.00 298.74 2542.44
   20:25:32.561.09-Sep-2020 5252.51  482.74 73.99 25.00 298.94 2542.44
   20:25:32.761.09-Sep-2020 5252.51  482.73 73.99 25.00 299.14 2542.44
   20:25:32.961.09-Sep-2020 5252.51  482.99 73.99 25.00 299.34 2542.44
   20:25:33.161.09-Sep-2020 5252.51  482.89 73.99 25.00 299.54 2542.44
   20:25:33.361.09-Sep-2020 5252.51  482.90 73.99 25.00 299.74 2542.44
   20:25:33.561.09-Sep-2020 5252.51  482.97 73.99 25.00 299.94 2542.44
   20:25:33.761.09-Sep-2020 5252.51  483.03 73.99 25.00 300.14 2542.44
   20:25:33.962.09-Sep-2020 5252.51  483.03 73.99 25.00 300.34 2542.44
   20:25:34.162.09-Sep-2020 5252.51  483.18 73.99 25.00 300.54 2542.44
   20:25:34.362.09-Sep-2020 5252.51  483.19 73.99 25.00 300.74 2542.44
   20:25:34.562.09-Sep-2020 5252.51  483.24 73.99 25.00 300.94 2542.44
   20:25:34.762.09-Sep-2020 5252.51  483.29 73.99 25.00 301.14 2542.44
   20:25:34.962.09-Sep-2020 5252.51  483.33 73.99 25.00 301.34 2542.44
   20:25:35.162.09-Sep-2020 5252.51  483.40 73.99 25.00 301.54 2542.44
   20:25:35.362.09-Sep-2020 5252.51  483.44 73.99 25.00 301.74 2542.44
   20:25:35.562.09-Sep-2020 5252.51  482.53 73.99 25.00 301.94 2542.44
   20:25:35.762.09-Sep-2020 5252.51  483.85 73.99 25.00 302.14 2542.44
   20:25:35.962.09-Sep-2020 5252.51  483.65 73.99 25.00 302.34 2542.44
   20:25:36.163.09-Sep-2020 5252.51  483.68 73.99 25.00 302.54 2542.44
   20:25:36.363.09-Sep-2020 5252.51  483.63 73.99 25.00 302.74 2542.44
   20:25:36.563.09-Sep-2020 5252.51  483.84 73.99 25.00 302.94 2542.44
   20:25:36.763.09-Sep-2020 5252.51  483.81 73.99 25.00 303.14 2542.44
   20:25:36.963.09-Sep-2020 5252.51  483.81 73.99 25.00 303.34 2542.44
   20:25:37.163.09-Sep-2020 5252.51  483.93 73.99 25.00 303.54 2542.44
   20:25:37.363.09-Sep-2020 5252.51  483.96 73.99 25.00 303.74 2542.44
   20:25:37.563.09-Sep-2020 5252.51  484.00 73.99 25.00 303.94 2542.44
   20:25:37.763.09-Sep-2020 5252.51  484.01 73.99 25.00 304.14 2542.44
   20:25:37.963.09-Sep-2020 5252.51  484.01 73.99 25.00 304.34 2542.44
   20:25:38.163.09-Sep-2020 5252.51  484.10 73.99 25.00 304.54 2542.44
   20:25:38.364.09-Sep-2020 5252.51  484.17 73.99 25.00 304.74 2542.44
   20:25:38.564.09-Sep-2020 5252.51  484.24 73.99 25.00 304.94 2542.44
   20:25:38.764.09-Sep-2020 5252.51  483.77 73.99 25.00 305.14 2542.44
   20:25:38.964.09-Sep-2020 5252.51  484.17 73.99 25.00 305.34 2542.44
   20:25:39.164.09-Sep-2020 5252.51  484.37 73.99 25.00 305.54 2542.44
   20:25:39.364.09-Sep-2020 5252.51  484.43 73.99 25.00 305.74 2542.44
   20:25:39.564.09-Sep-2020 5252.51  484.44 73.99 25.00 305.94 2542.44
   20:25:39.764.09-Sep-2020 5252.51  484.64 73.99 25.00 306.14 2542.44
   20:25:39.964.09-Sep-2020 5252.51  484.64 73.99 25.00 306.34 2542.44
   20:25:40.164.09-Sep-2020 5252.51  485.01 73.99 25.00 306.54 2542.44
   20:25:40.364.09-Sep-2020 5252.51  484.71 73.99 25.00 306.74 2542.44
   20:25:40.565.09-Sep-2020 5252.51  484.69 73.99 25.00 306.94 2542.44
   20:25:40.765.09-Sep-2020 5252.51  484.66 73.99 25.00 307.14 2542.44
   20:25:40.965.09-Sep-2020 5252.51  484.96 73.99 25.00 307.34 2542.44
   20:25:41.165.09-Sep-2020 5252.51  484.94 73.99 25.00 307.54 2542.44
   20:25:41.365.09-Sep-2020 5252.51  484.03 73.99 25.00 307.74 2542.44
   20:25:41.565.09-Sep-2020 5252.51  485.33 73.99 25.00 307.94 2542.44
   20:25:41.765.09-Sep-2020 5252.51  485.03 73.99 25.00 308.14 2542.44
   20:25:41.965.09-Sep-2020 5252.51  485.06 73.99 25.00 308.34 2542.44
   20:25:42.165.09-Sep-2020 5252.51  485.05 73.99 25.00 308.54 2542.44
   20:25:42.365.09-Sep-2020 5252.51  485.32 73.99 25.00 308.74 2542.44
   20:25:42.565.09-Sep-2020 5252.51  484.78 73.99 25.00 308.94 2542.44
   20:25:42.766.09-Sep-2020 5252.51  485.19 73.99 25.00 309.14 2542.44
   20:25:42.966.09-Sep-2020 5252.51  485.37 73.99 25.00 309.34 2542.44
   20:25:43.166.09-Sep-2020 5252.51  485.39 73.99 25.00 309.54 2542.44
   20:25:43.366.09-Sep-2020 5252.51  485.42 73.99 25.00 309.74 2542.44
   20:25:43.566.09-Sep-2020 5252.51  485.60 73.99 25.00 309.94 2542.44
   20:25:43.766.09-Sep-2020 5252.51  485.04 73.99 25.00 310.14 2542.44
   20:25:43.966.09-Sep-2020 5252.51  485.53 73.99 25.00 310.34 2542.44
   20:25:44.166.09-Sep-2020 5252.51  485.72 73.99 25.00 310.54 2542.44
   20:25:44.366.09-Sep-2020 5252.51  485.73 73.99 25.00 310.74 2542.44
   20:25:44.566.09-Sep-2020 5252.51  485.76 73.99 25.00 310.94 2542.44
   20:25:44.766.09-Sep-2020 5252.51  485.94 73.99 25.00 311.14 2542.44
   20:25:44.967.09-Sep-2020 5252.51  485.91 73.99 25.00 311.34 2542.44
   20:25:45.167.09-Sep-2020 5252.51  485.99 73.99 25.00 311.54 2542.44
   20:25:45.367.09-Sep-2020 5252.51  485.98 73.99 25.00 311.74 2542.44
   20:25:45.567.09-Sep-2020 5252.51  485.98 73.99 25.00 311.94 2542.44
   20:25:45.767.09-Sep-2020 5252.51  486.05 73.99 25.00 312.14 2542.44
   20:25:45.967.09-Sep-2020 5252.51  486.05 73.99 25.00 312.34 2542.44
   20:25:46.167.09-Sep-2020 5252.51  486.21 73.99 25.00 312.54 2542.44
   20:25:46.367.09-Sep-2020 5252.51  486.26 73.99 25.00 312.74 2542.44
   20:25:46.567.09-Sep-2020 5252.51  486.28 73.99 25.00 312.94 2542.44
   20:25:46.767.09-Sep-2020 5252.51  486.29 73.99 25.00 313.14 2542.44
   20:25:46.967.09-Sep-2020 5252.51  486.36 73.99 25.00 313.34 2542.44
   20:25:47.168.09-Sep-2020 5252.51  486.40 73.99 25.00 313.54 2542.44
   20:25:47.368.09-Sep-2020 5252.51  485.96 73.99 25.00 313.74 2542.44
   20:25:47.568.09-Sep-2020 5252.51  486.35 73.99 25.00 313.94 2542.44
   20:25:47.768.09-Sep-2020 5252.51  486.60 73.99 25.00 314.14 2542.44
   20:25:47.968.09-Sep-2020 5252.51  486.60 73.99 25.00 314.34 2542.44
   20:25:48.168.09-Sep-2020 5252.51  486.65 73.99 25.00 314.54 2542.44
   20:25:48.368.09-Sep-2020 5252.51  486.84 73.99 25.00 314.75 2542.44
   20:25:48.568.09-Sep-2020 5252.51  486.76 73.99 25.00 314.95 2542.44
   20:25:48.768.09-Sep-2020 5252.51  486.83 73.99 25.00 315.15 2542.44
   20:25:48.968.09-Sep-2020 5252.51  486.86 73.99 25.00 315.35 2542.44
   20:25:49.169.09-Sep-2020 5252.51  486.90 73.99 25.00 315.55 2542.44
   20:25:49.369.09-Sep-2020 5252.51  486.99 73.99 25.00 315.75 2542.44
   20:25:49.569.09-Sep-2020 5252.51  487.01 73.99 25.00 315.95 2542.44
   20:25:49.769.09-Sep-2020 5252.51  484.18 73.99 25.00 316.15 2542.44
   20:25:49.969.09-Sep-2020 5252.51  484.18 73.99 25.00 316.35 2542.44
