~Version Information
 VERS.                  2.0:   CWLS log ASCII Standard -VERSION 2.0
 WRAP.                   NO:   One line per depth step
~Well Information Block
#MNEM.UNIT     VALUE/NAME     DESCRIPTION
#---------     -----------    ---------------------------
 STRT.S             11:53:26 09-Sep-20: START TIME 11:53:26 09-Sep-20
 STOP.S             12:00:27 09-Sep-20: STOP TIME  12:00:27 09-Sep-20
 STEP.S                   0.00: STEP TIME
 NULL.                 -999.25: NULL VALUE
 MDS .        Operator Entered:  MAG DATA SOURCE
 PDAT.          Mean Sea Level:  PERMANENT DATUM
 DCON.         Sperry Drilling:  DIRECTNL CONTR
 RIG .              West Azeri:  RIG NAME
 WELL.           C40 (Slot 20):  WELL NAME
 SRVC.     Turan Drilling Engineering:  CONTRACTOR
 FLD .                     ACG:  FIELD NAME
 CTRY.              Azerbaijan:  COUNTRY NAME
 PROV.                    Baku:  PROVINCE
 STAT.                    Baku:  STATE NAME
 REGN.                   EESSA:  REGION
 BASE.              Azerbaijan:  LOGGING EQUIPMENT BASE LOCATION
 COMP.     BP Exploration (Caspian Sea) Ltd:  COMPANY
 WTYP.                Deviated:  WELL TYPE
 SON .        AZ-XX-0906344804:  JOB NUMBER
 FTOP.          Formation Tops:  FORM TOPS DESC
 ILTD.               Lithology:  INTERP LTH DESC
 SVYD.                  Survey:  SURVEY DESC
 DMOD.             Drill Model:  DRILL MOD DESC
 HPTY.       Minimum Curvature:  HOLE POS TYPE
 NREF.                    Grid:  NORTH REFERENCE
 SPUD.               01-Jan-20:  SPUD DATE
 DATE.      00.59.44 15-Sep-20:  END TIME
 STIM.      12.00.00 12-Jun-20:  START TIME
 DMF .             Drill Floor:  DRILL MEAS FROM
 DFST.                        :  DIST FSL TEXT
 DFWT.                        :  DIST FWL TEXT
 API .                        :  API NUMBER
 CNTY.                        :  COUNTY
 UWI .                        :  UNIQUE WELL IDENTIFIER
 LOC .                        :  LOCATION
 LMF .             Drill Floor:  LOG MEASURED FROM
 VSNS.m                   2.88:  VERT SEC N/S
 VSEW.m                  -3.84:  VERT SEC E/W
 AGAP.m                  43.42:  AIR GAP
 APD .m                  43.42:  DEPTH ABOVE PD
 WDMS.m                 118.27:  WD ELEV
 EGL .m                   0.00:  GROUND ELEVATION
 EPD .m                   0.00:  ELEVATION
 AZTC.deg                 6.23:  AZM TOTAL CORR
 GRDC.deg                 0.20:  GRID CORRECTION
 MDEC.deg                 6.43:  MAGNETIC DECL
 MDIP.deg                59.49:  MAGNETIC DIP
 MFLD.nT              50277.00:  MAGNETIC FIELD
 GVFD.g                   1.00:  GRAVITY FIELD
 VSDR.deg               173.20:  VERT SEC DIRECT
 TDD .m                5790.01:  TOTAL DEPTH (DRILLER)
 SDEP.m                5231.01:  START DEPTH
 DFSL.m                   0.00:  DISTANCE FSL
 DFWL.m                   0.00:  DISTANCE FWL
 UTMY.m             4435808.83:  UTM Y
 UTMX.m              526266.40:  UTM X
 WHEW.m                  -3.84:  WELL HEAD E/W
 WHNS.m                   2.88:  WELL HEAD N/S
 LONG.deg                51.31:  LONGITUDE
 LATI.deg                40.06:  LATITUDE
 TVDS.m                  43.42:  TVDSS CORRECTN
 DEP .m                 430.08:  DEPTH
 EKB .m                  43.42:  KB ELEVATION
 EDF .m                  43.42:  DF ELEVATION
 TDL .m                 559.00:  TOTAL DEPTH (LOGGER)
 MAGU.                 1849381:  MAGUTM CHECKSUM
 VSC .                       0:  VS TO CLOSURE
~Parameter Information Block
#MNEM.UNIT       Value        Description
#---------     -----------    ---------------------------
 AV  .mps                 4.87:  Ann Velocity 
 AVMX.mps                 7.08:  Max Ann Veloc 
 AZIF.deg               108.87:  Azm, Final 
 BHAT.                  Rotary:  BHA Type 
 BROT.°/30m               0.35:  Build Rotating 
 BS  .in                  8.50:  Bit Size 
 BSZ .in                  8.50:  Bit Size 
 BTPL.psig              360.00:  Bit Press Loss 
 CABU.                     Yes:  Customer Abuse 
 COMM.                     dãƒ:  Run Comments 1 
 TCS .hr                106.24:  Time Ciculation Ended 
 CV  .mps                 1.77:  Crit Velocity 
 CVMX.mps                 2.03:  Max Crit Veloc 
 DD1 .         Aykhan Agagulov:  Direct Drillr 1 
 DD2 .            Nonso Okofor:  Direct Drillr 2 
 DDSV.               Geo-Pilot:  DD Service 
 DEFF.%                  98.00:  % Det Eff 
 DLRX.°/30m               0.50:  Dogleg Rot Max 
 DLSO.°/30m               0.40:  Dogleg Oriented 
 DLSX.°/30m               0.94:  Dogleg Str Max 
 DRET.      20.30.00 08-Sep-20:  Drill End Time 
 DRST.      22.15.00 06-Sep-20:  Drill Start Tim 
 DTIM.hr                 31.31:  Time Drilling 
 EDEP.m                5790.01:  End Depth 
 ENG1.           Amrah Tahirov:  Engineer 1 
 ENG2.         Dair Mahammadov:  Engineer 2 
 ENG3.           Emil Huseynov:  Engineer 3 
 ETIM.      04.01.04 12-Sep-20:  End Time 
 FLOI.gpm               450.00:  Flow In 
 FLON.gpm               450.00:  Flow In Min 
 FLOS.cptm                2.00:  Fluid Loss 
 FLOX.gpm               450.00:  Flow In Max 
 FTRO.       Formation Presure:  FTWD Run Obj 
 HFLO.                      No:  High Flow 
 HPRE.                      No:  High Pressure 
 HTEM.                      No:  High Temp 
 HYDO.m                   1.80:  Hydro Offset 
 IFIN.deg                72.03:  Inc, Final 
 IMAX.deg                73.72:  Inc Max 
 IMIN.deg                70.94:  Inc Min 
 IMND.m                5508.52:  Inc Min Depth 
 IMXD.m                5253.60:  Inc Max Depth 
 JARR.                      No:  Jarring 
 LETM.      20.30.00 08-Sep-20:  Log End Time 
 LOST.hr                     0:  Lost Rig Time 
 LSTM.      22.15.00 06-Sep-20:  Log Start Time 
 MDCL.ppm             36000.00:  Mud Chlorides 
 MDES.     Inversion Oil/Synthetic:  Mud Desc 
 DFD .sg                  1.44:  Mud Density 
 MDMN.sg                  1.44:  Dens Mud Min 
 MDMX.sg                  1.57:  Dens Mud Max 
 MOIL.                      70:  Run Mud Oil % 
 MOWR.                   70:30:  Run Mud OWR 
 MSND.                       0:  Run Mud Sand % 
 MSOL.                      21:  Run Mud Solids% 
 DFV .spqt               68.00:  Mud Viscosity 
 MWOD.in                  6.75:  MWD Tool OD 
 MWSI.                     Yes:  Serv Intrp, MWD 
 OTIM.hr                174.84:  Time Operating 
 PCON.           Look Like New:  Pad Condition 
 PMAX.psia            10616.93:  Press Op, Max 
 PV  .cP                 50.00:  Mud PV 
 RUN .                     700:  Run Number 
 ROPA.m/hr               14.24:  ROP Avg 
 ROPN.m/hr               10.00:  ROP Min 
 ROPX.m/hr               32.00:  ROP Max 
 RPMA.rpm               120.90:  RPM Surface Avg 
 RPMN.rpm               120.00:  RPM Surface Min 
 RPMX.rpm               140.00:  RPM Surface Max 
 RRUN.                    0700:  Rig Run Number 
 RTIM.hr                  3.20:  Time Reaming 
 SAZI.deg               109.99:  Azm, Start 
 SDEP.m                5231.01:  Start Depth 
 SIDD.                      No:  Serv Intrp, DD 
 SINC.deg                73.72:  Inc, Start 
 SPPA.psig             3051.00:  SPP Avg 
 SPPN.psig             2950.00:  SPP Min 
 SPPX.psig             3250.00:  SPP Max 
 STIM.      08.00.00 05-Sep-20:  Start Time 
 SVCS.                 DD, MWD:  Services 
 SVER.                    9.20:  Sperry Version 
 TDAT.m                 559.00:  Tot Depth Attmp 
 TDDF.                      No:  Trip for DD 
 TDLG.m                 559.00:  Tot Depth Loggd 
 TFF .                      No:  Trip for Fail 
 TQAA.f-kp               26.49:  Torque Abs Avg 
 TQAN.f-kp               25.00:  Torque Abs Min 
 TQAX.f-kp               27.00:  Torque Abs Max 
 TRRT.°/30m               1.50:  Turn Rotating 
 MRT .                    HCIM:  Maximum Recorded Temperature 
 TTMX.degC               90.20:  Max Tool Temp 
 VS01.                90542671:  Virtual Str1 SN 
 VS02.                90545185:  Virtual Str2 SN 
 VS03.                90602015:  Virtual Str3 SN 
 VS04.                90515230:  Virtual Str4 SN 
 WBMN.klb                 5.00:  WOB Min 
 WOBA.klb                14.79:  WOB Avg 
 WOBX.klb                20.00:  WOB Max 
 YP  .lhf2               29.00:  Yield Point 
~Curve Information Block
#MNEM.UNIT                 API CODE     Curve Description
#---------               -----------    ---------------------------
 TIME.HHMMSS            00 000 000 000:  GT Time & Date
 GTDEPTH.m              00 000 000 000:  GT Depth
 GTPQH.psia             00 000 000 000:  GT HR Quartz Pressure
 GTTQ.degC              00 000 000 000:  GT Quartz Temperature
 GTTN.NONE              00 000 000 000:  GT Test Number
 GTET.sec               00 000 000 000:  GT Elapsed Test Time
 GTTVD.m                00 000 000 000:  GT True Vertical Depth
#Other Information
#
#WARRANTY: Halliburton will use its best efforts to furnish customers with 
#accurate information and interpretations that are part of, and incident to, the services 
#provided.  However, Halliburton cannot and does not warrant the accuracy 
#or correctness of such information and interpretations.  Under no circumstances should any 
#such information or interpretation be relied upon as the sole basis for any drilling, 
#completion, production, or financial decision or any procedure involving any risk to the 
#safety of any drilling venture, drilling rig or its crew or any other third party.  The 
#Customer has full responsibility for all drilling, completion and production operation.  
#Halliburton makes no representations or warranties, either expressed or 
#implied, including, but not limited to, the implied warranties of merchantability or fitness 
#for a particular purpose, with respect to the services rendered.  In no event will 
#Halliburton be liable for failure to obtain any particular results or for 
#any damages, including, but not limited to, indirect, special or consequential damages, 
#resulting from the use of any information or interpretation provided by Halliburton.
#
~A           TIME           GTDEPTH  GTPQH  GTTQ  GTTN   GTET   GTTVD  
# ...
   11:59:27.600.09-Sep-2020 5430.01 3577.37 75.94 12.00 361.60 2596.52
   11:59:27.800.09-Sep-2020 5430.01 3577.31 75.94 12.00 361.80 2596.52
   11:59:28.000.09-Sep-2020 5430.01 3577.33 75.94 12.00 362.00 2596.52
   11:59:28.200.09-Sep-2020 5430.01 3577.33 75.94 12.00 362.20 2596.52
   11:59:28.400.09-Sep-2020 5430.01 3577.35 75.94 12.00 362.40 2596.52
   11:59:28.600.09-Sep-2020 5430.01 3577.33 75.94 12.00 362.60 2596.52
   11:59:28.800.09-Sep-2020 5430.01 3577.33 75.94 12.00 362.80 2596.52
   11:59:29.000.09-Sep-2020 5430.01 3577.34 75.94 12.00 363.00 2596.52
   11:59:29.200.09-Sep-2020 5430.01 3577.34 75.94 12.00 363.20 2596.52
   11:59:29.400.09-Sep-2020 5430.01 3577.34 75.94 12.00 363.40 2596.52
   11:59:29.600.09-Sep-2020 5430.01 3577.33 75.94 12.00 363.60 2596.52
   11:59:29.800.09-Sep-2020 5430.01 3577.34 75.94 12.00 363.80 2596.52
   11:59:30.000.09-Sep-2020 5430.01 3577.34 75.94 12.00 364.00 2596.52
   11:59:30.200.09-Sep-2020 5430.01 3577.34 75.94 12.00 364.20 2596.52
   11:59:30.400.09-Sep-2020 5430.01 3577.36 75.94 12.00 364.40 2596.52
   11:59:30.600.09-Sep-2020 5430.01 3577.34 75.94 12.00 364.60 2596.52
   11:59:30.800.09-Sep-2020 5430.01 3576.27 75.94 12.00 364.80 2596.52
   11:59:31.000.09-Sep-2020 5430.01 3578.00 75.94 12.00 365.00 2596.52
   11:59:31.200.09-Sep-2020 5430.01 3578.00 75.94 12.00 365.20 2596.52
   11:59:31.400.09-Sep-2020 5430.01 5833.66 75.94 12.00 365.40 2596.52
   11:59:31.600.09-Sep-2020 5430.01 6401.70 75.94 12.00 365.60 2596.52
   11:59:31.800.09-Sep-2020 5430.01 6403.21 75.94 12.00 365.80 2596.52
   11:59:32.000.09-Sep-2020 5430.01 6399.86 75.94 12.00 366.00 2596.52
   11:59:32.200.09-Sep-2020 5430.01 6399.86 75.94 12.00 366.20 2596.52
   11:59:32.400.09-Sep-2020 5430.01 6401.71 75.94 12.00 366.40 2596.52
   11:59:32.600.09-Sep-2020 5430.01 6402.63 75.94 12.00 366.60 2596.52
   11:59:32.800.09-Sep-2020 5430.01 6412.83 75.94 12.00 366.80 2596.52
   11:59:33.000.09-Sep-2020 5430.01 6400.90 75.94 12.00 367.00 2596.52
   11:59:33.200.09-Sep-2020 5430.01 6400.90 75.95 12.00 367.20 2596.52
   11:59:33.400.09-Sep-2020 5430.01 6405.67 75.95 12.00 367.40 2596.52
   11:59:33.600.09-Sep-2020 5430.01 6407.15 75.95 12.00 367.60 2596.52
   11:59:33.800.09-Sep-2020 5430.01 6407.30 75.95 12.00 367.80 2596.52
   11:59:34.000.09-Sep-2020 5430.01 6406.28 75.95 12.00 368.00 2596.52
   11:59:34.200.09-Sep-2020 5430.01 6406.28 75.95 12.00 368.20 2596.52
   11:59:34.400.09-Sep-2020 5430.01 6402.40 75.96 12.00 368.40 2596.52
   11:59:34.600.09-Sep-2020 5430.01 6406.83 75.96 12.00 368.60 2596.52
   11:59:34.800.09-Sep-2020 5430.01 6409.08 75.96 12.00 368.80 2596.52
   11:59:35.000.09-Sep-2020 5430.01 6409.64 75.97 12.00 369.00 2596.52
   11:59:35.200.09-Sep-2020 5430.01 6409.64 75.97 12.00 369.20 2596.52
   11:59:35.400.09-Sep-2020 5430.01 6407.71 75.97 12.00 369.40 2596.52
   11:59:35.600.09-Sep-2020 5430.01 6408.84 75.97 12.00 369.60 2596.52
   11:59:35.800.09-Sep-2020 5430.01 6413.79 75.98 12.00 369.80 2596.52
   11:59:36.000.09-Sep-2020 5430.01 6408.59 75.98 12.00 370.00 2596.52
   11:59:36.200.09-Sep-2020 5430.01 6408.59 75.98 12.00 370.20 2596.52
   11:59:36.400.09-Sep-2020 5430.01 6408.82 75.98 12.00 370.40 2596.52
   11:59:36.600.09-Sep-2020 5430.01 6410.39 75.99 12.00 370.60 2596.52
   11:59:36.800.09-Sep-2020 5430.01 6409.88 75.99 12.00 370.80 2596.52
   11:59:37.000.09-Sep-2020 5430.01 6409.26 75.99 12.00 371.00 2596.52
   11:59:37.200.09-Sep-2020 5430.01 6408.71 75.99 12.00 371.20 2596.52
   11:59:37.400.09-Sep-2020 5430.01 6408.83 75.99 12.00 371.40 2596.52
   11:59:37.600.09-Sep-2020 5430.01 6408.88 76.00 12.00 371.60 2596.52
   11:59:37.800.09-Sep-2020 5430.01 6409.16 76.00 12.00 371.80 2596.52
   11:59:38.000.09-Sep-2020 5430.01 6409.68 76.00 12.00 372.00 2596.52
   11:59:38.200.09-Sep-2020 5430.01 6409.68 76.00 12.00 372.20 2596.52
   11:59:38.400.09-Sep-2020 5430.01 6409.81 76.00 12.00 372.40 2596.52
   11:59:38.600.09-Sep-2020 5430.01 6409.84 76.00 12.00 372.60 2596.52
   11:59:38.800.09-Sep-2020 5430.01 6409.77 76.01 12.00 372.80 2596.52
   11:59:39.000.09-Sep-2020 5430.01 6409.73 76.01 12.00 373.00 2596.52
   11:59:39.200.09-Sep-2020 5430.01 6409.73 76.01 12.00 373.20 2596.52
   11:59:39.400.09-Sep-2020 5430.01 6420.77 76.01 12.00 373.40 2596.52
   11:59:39.600.09-Sep-2020 5430.01 6404.80 76.01 12.00 373.60 2596.52
   11:59:39.800.09-Sep-2020 5430.01 6409.28 76.01 12.00 373.80 2596.52
   11:59:40.000.09-Sep-2020 5430.01 6411.67 76.01 12.00 374.00 2596.52
   11:59:40.200.09-Sep-2020 5430.01 6411.67 76.01 12.00 374.20 2596.52
   11:59:40.400.09-Sep-2020 5430.01 6410.84 76.01 12.00 374.40 2596.52
   11:59:40.600.09-Sep-2020 5430.01 6408.82 76.02 12.00 374.60 2596.52
   11:59:40.800.09-Sep-2020 5430.01 6410.05 76.02 12.00 374.80 2596.52
   11:59:41.000.09-Sep-2020 5430.01 6409.83 76.02 12.00 375.00 2596.52
   11:59:41.200.09-Sep-2020 5430.01 6410.31 76.02 12.00 375.20 2596.52
   11:59:41.400.09-Sep-2020 5430.01 6409.88 76.02 12.00 375.40 2596.52
   11:59:41.600.09-Sep-2020 5430.01 6409.45 76.02 12.00 375.60 2596.52
   11:59:41.800.09-Sep-2020 5430.01 6409.52 76.02 12.00 375.80 2596.52
   11:59:42.000.09-Sep-2020 5430.01 6409.33 76.02 12.00 376.00 2596.52
   11:59:42.200.09-Sep-2020 5430.01 6409.33 76.02 12.00 376.20 2596.52
   11:59:42.400.09-Sep-2020 5430.01 6409.50 76.02 12.00 376.40 2596.52
   11:59:42.600.09-Sep-2020 5430.01 6409.90 76.02 12.00 376.60 2596.52
   11:59:42.800.09-Sep-2020 5430.01 6414.18 76.02 12.00 376.80 2596.52
   11:59:43.000.09-Sep-2020 5430.01 6410.73 76.02 12.00 377.00 2596.52
   11:59:43.200.09-Sep-2020 5430.01 6410.73 76.02 12.00 377.20 2596.52
   11:59:43.400.09-Sep-2020 5430.01 6411.75 76.02 12.00 377.40 2596.52
   11:59:43.600.09-Sep-2020 5430.01 6409.46 76.02 12.00 377.60 2596.52
   11:59:43.800.09-Sep-2020 5430.01 6411.00 76.02 12.00 377.80 2596.52
   11:59:44.000.09-Sep-2020 5430.01 6420.49 76.02 12.00 378.00 2596.52
   11:59:44.200.09-Sep-2020 5430.01 6420.49 76.02 12.00 378.20 2596.52
   11:59:44.400.09-Sep-2020 5430.01 6408.65 76.02 12.00 378.40 2596.52
   11:59:44.600.09-Sep-2020 5430.01 6411.22 76.02 12.00 378.60 2596.52
   11:59:44.800.09-Sep-2020 5430.01 6421.16 76.02 12.00 378.80 2596.52
   11:59:45.000.09-Sep-2020 5430.01 6405.66 76.02 12.00 379.00 2596.52
   11:59:45.200.09-Sep-2020 5430.01 6408.32 76.02 12.00 379.20 2596.52
   11:59:45.400.09-Sep-2020 5430.01 6411.49 76.02 12.00 379.40 2596.52
   11:59:45.600.09-Sep-2020 5430.01 6415.46 76.02 12.00 379.60 2596.52
   11:59:45.800.09-Sep-2020 5430.01 6412.95 76.02 12.00 379.80 2596.52
   11:59:46.000.09-Sep-2020 5430.01 6408.08 76.02 12.00 380.00 2596.52
   11:59:46.200.09-Sep-2020 5430.01 6412.63 76.02 12.00 380.20 2596.52
   11:59:46.400.09-Sep-2020 5430.01 6409.87 76.02 12.00 380.40 2596.52
   11:59:46.600.09-Sep-2020 5430.01 6411.76 76.02 12.00 380.60 2596.52
   11:59:46.800.09-Sep-2020 5430.01 6409.67 76.02 12.00 380.80 2596.52
   11:59:47.000.09-Sep-2020 5430.01 6420.36 76.02 12.00 381.00 2596.52
   11:59:47.200.09-Sep-2020 5430.01 6420.36 76.02 12.00 381.20 2596.52
   11:59:47.400.09-Sep-2020 5430.01 6410.65 76.02 12.00 381.40 2596.52
   11:59:47.600.09-Sep-2020 5430.01 6411.29 76.02 12.00 381.60 2596.52
   11:59:47.800.09-Sep-2020 5430.01 6411.98 76.02 12.00 381.80 2596.52
   11:59:48.000.09-Sep-2020 5430.01 6412.31 76.02 12.00 382.00 2596.52
   11:59:48.200.09-Sep-2020 5430.01 6412.31 76.02 12.00 382.20 2596.52
   11:59:48.400.09-Sep-2020 5430.01 6411.01 76.02 12.00 382.40 2596.52
   11:59:48.600.09-Sep-2020 5430.01 6410.86 76.02 12.00 382.60 2596.52
   11:59:48.800.09-Sep-2020 5430.01 6410.76 76.02 12.00 382.80 2596.52
   11:59:49.000.09-Sep-2020 5430.01 6410.41 76.02 12.00 383.00 2596.52
   11:59:49.200.09-Sep-2020 5430.01 6410.69 76.02 12.00 383.20 2596.52
   11:59:49.400.09-Sep-2020 5430.01 6410.63 76.02 12.00 383.40 2596.52
   11:59:49.600.09-Sep-2020 5430.01 6409.88 76.02 12.00 383.60 2596.52
   11:59:49.800.09-Sep-2020 5430.01 6409.43 76.02 12.00 383.80 2596.52
   11:59:50.000.09-Sep-2020 5430.01 6409.16 76.02 12.00 384.00 2596.52
