~Version Information
 VERS.                  2.0:   CWLS log ASCII Standard -VERSION 2.0
 WRAP.                   NO:   One line per depth step
~Well Information Block
#MNEM.UNIT     VALUE/NAME     DESCRIPTION
#---------     -----------    ---------------------------
 STRT.S             10:55:02 09-Sep-20: START TIME 10:55:02 09-Sep-20
 STOP.S             11:02:04 09-Sep-20: STOP TIME  11:02:04 09-Sep-20
 STEP.S                   0.00: STEP TIME
 NULL.                 -999.25: NULL VALUE
 MDS .        Operator Entered:  MAG DATA SOURCE
 PDAT.          Mean Sea Level:  PERMANENT DATUM
 DCON.         Sperry Drilling:  DIRECTNL CONTR
 RIG .              West Azeri:  RIG NAME
 WELL.           C40 (Slot 20):  WELL NAME
 SRVC.     Turan Drilling Engineering:  CONTRACTOR
 FLD .                     ACG:  FIELD NAME
 CTRY.              Azerbaijan:  COUNTRY NAME
 PROV.                    Baku:  PROVINCE
 STAT.                    Baku:  STATE NAME
 REGN.                   EESSA:  REGION
 BASE.              Azerbaijan:  LOGGING EQUIPMENT BASE LOCATION
 COMP.     BP Exploration (Caspian Sea) Ltd:  COMPANY
 WTYP.                Deviated:  WELL TYPE
 SON .        AZ-XX-0906344804:  JOB NUMBER
 FTOP.          Formation Tops:  FORM TOPS DESC
 ILTD.               Lithology:  INTERP LTH DESC
 SVYD.                  Survey:  SURVEY DESC
 DMOD.             Drill Model:  DRILL MOD DESC
 HPTY.       Minimum Curvature:  HOLE POS TYPE
 NREF.                    Grid:  NORTH REFERENCE
 SPUD.               01-Jan-20:  SPUD DATE
 DATE.      00.59.44 15-Sep-20:  END TIME
 STIM.      12.00.00 12-Jun-20:  START TIME
 DMF .             Drill Floor:  DRILL MEAS FROM
 DFST.                        :  DIST FSL TEXT
 DFWT.                        :  DIST FWL TEXT
 API .                        :  API NUMBER
 CNTY.                        :  COUNTY
 UWI .                        :  UNIQUE WELL IDENTIFIER
 LOC .                        :  LOCATION
 LMF .             Drill Floor:  LOG MEASURED FROM
 VSNS.m                   2.88:  VERT SEC N/S
 VSEW.m                  -3.84:  VERT SEC E/W
 AGAP.m                  43.42:  AIR GAP
 APD .m                  43.42:  DEPTH ABOVE PD
 WDMS.m                 118.27:  WD ELEV
 EGL .m                   0.00:  GROUND ELEVATION
 EPD .m                   0.00:  ELEVATION
 AZTC.deg                 6.23:  AZM TOTAL CORR
 GRDC.deg                 0.20:  GRID CORRECTION
 MDEC.deg                 6.43:  MAGNETIC DECL
 MDIP.deg                59.49:  MAGNETIC DIP
 MFLD.nT              50277.00:  MAGNETIC FIELD
 GVFD.g                   1.00:  GRAVITY FIELD
 VSDR.deg               173.20:  VERT SEC DIRECT
 TDD .m                5790.01:  TOTAL DEPTH (DRILLER)
 SDEP.m                5231.01:  START DEPTH
 DFSL.m                   0.00:  DISTANCE FSL
 DFWL.m                   0.00:  DISTANCE FWL
 UTMY.m             4435808.83:  UTM Y
 UTMX.m              526266.40:  UTM X
 WHEW.m                  -3.84:  WELL HEAD E/W
 WHNS.m                   2.88:  WELL HEAD N/S
 LONG.deg                51.31:  LONGITUDE
 LATI.deg                40.06:  LATITUDE
 TVDS.m                  43.42:  TVDSS CORRECTN
 DEP .m                 430.08:  DEPTH
 EKB .m                  43.42:  KB ELEVATION
 EDF .m                  43.42:  DF ELEVATION
 TDL .m                 559.00:  TOTAL DEPTH (LOGGER)
 MAGU.                 1849381:  MAGUTM CHECKSUM
 VSC .                       0:  VS TO CLOSURE
~Parameter Information Block
#MNEM.UNIT       Value        Description
#---------     -----------    ---------------------------
 AV  .mps                 4.87:  Ann Velocity 
 AVMX.mps                 7.08:  Max Ann Veloc 
 AZIF.deg               108.87:  Azm, Final 
 BHAT.                  Rotary:  BHA Type 
 BROT.°/30m               0.35:  Build Rotating 
 BS  .in                  8.50:  Bit Size 
 BSZ .in                  8.50:  Bit Size 
 BTPL.psig              360.00:  Bit Press Loss 
 CABU.                     Yes:  Customer Abuse 
 COMM.                     ¬Î:  Run Comments 1 
 TCS .hr                106.24:  Time Ciculation Ended 
 CV  .mps                 1.77:  Crit Velocity 
 CVMX.mps                 2.03:  Max Crit Veloc 
 DD1 .         Aykhan Agagulov:  Direct Drillr 1 
 DD2 .            Nonso Okofor:  Direct Drillr 2 
 DDSV.               Geo-Pilot:  DD Service 
 DEFF.%                  98.00:  % Det Eff 
 DLRX.°/30m               0.50:  Dogleg Rot Max 
 DLSO.°/30m               0.40:  Dogleg Oriented 
 DLSX.°/30m               0.94:  Dogleg Str Max 
 DRET.      20.30.00 08-Sep-20:  Drill End Time 
 DRST.      22.15.00 06-Sep-20:  Drill Start Tim 
 DTIM.hr                 31.31:  Time Drilling 
 EDEP.m                5790.01:  End Depth 
 ENG1.           Amrah Tahirov:  Engineer 1 
 ENG2.         Dair Mahammadov:  Engineer 2 
 ENG3.           Emil Huseynov:  Engineer 3 
 ETIM.      04.01.04 12-Sep-20:  End Time 
 FLOI.gpm               450.00:  Flow In 
 FLON.gpm               450.00:  Flow In Min 
 FLOS.cptm                2.00:  Fluid Loss 
 FLOX.gpm               450.00:  Flow In Max 
 FTRO.       Formation Presure:  FTWD Run Obj 
 HFLO.                      No:  High Flow 
 HPRE.                      No:  High Pressure 
 HTEM.                      No:  High Temp 
 HYDO.m                   1.80:  Hydro Offset 
 IFIN.deg                72.03:  Inc, Final 
 IMAX.deg                73.72:  Inc Max 
 IMIN.deg                70.94:  Inc Min 
 IMND.m                5508.52:  Inc Min Depth 
 IMXD.m                5253.60:  Inc Max Depth 
 JARR.                      No:  Jarring 
 LETM.      20.30.00 08-Sep-20:  Log End Time 
 LOST.hr                     0:  Lost Rig Time 
 LSTM.      22.15.00 06-Sep-20:  Log Start Time 
 MDCL.ppm             36000.00:  Mud Chlorides 
 MDES.     Inversion Oil/Synthetic:  Mud Desc 
 DFD .sg                  1.44:  Mud Density 
 MDMN.sg                  1.44:  Dens Mud Min 
 MDMX.sg                  1.57:  Dens Mud Max 
 MOIL.                      70:  Run Mud Oil % 
 MOWR.                   70:30:  Run Mud OWR 
 MSND.                       0:  Run Mud Sand % 
 MSOL.                      21:  Run Mud Solids% 
 DFV .spqt               68.00:  Mud Viscosity 
 MWOD.in                  6.75:  MWD Tool OD 
 MWSI.                     Yes:  Serv Intrp, MWD 
 OTIM.hr                174.84:  Time Operating 
 PCON.           Look Like New:  Pad Condition 
 PMAX.psia            10616.93:  Press Op, Max 
 PV  .cP                 50.00:  Mud PV 
 RUN .                     700:  Run Number 
 ROPA.m/hr               14.24:  ROP Avg 
 ROPN.m/hr               10.00:  ROP Min 
 ROPX.m/hr               32.00:  ROP Max 
 RPMA.rpm               120.90:  RPM Surface Avg 
 RPMN.rpm               120.00:  RPM Surface Min 
 RPMX.rpm               140.00:  RPM Surface Max 
 RRUN.                    0700:  Rig Run Number 
 RTIM.hr                  3.20:  Time Reaming 
 SAZI.deg               109.99:  Azm, Start 
 SDEP.m                5231.01:  Start Depth 
 SIDD.                      No:  Serv Intrp, DD 
 SINC.deg                73.72:  Inc, Start 
 SPPA.psig             3051.00:  SPP Avg 
 SPPN.psig             2950.00:  SPP Min 
 SPPX.psig             3250.00:  SPP Max 
 STIM.      08.00.00 05-Sep-20:  Start Time 
 SVCS.                 DD, MWD:  Services 
 SVER.                    9.20:  Sperry Version 
 TDAT.m                 559.00:  Tot Depth Attmp 
 TDDF.                      No:  Trip for DD 
 TDLG.m                 559.00:  Tot Depth Loggd 
 TFF .                      No:  Trip for Fail 
 TQAA.f-kp               26.49:  Torque Abs Avg 
 TQAN.f-kp               25.00:  Torque Abs Min 
 TQAX.f-kp               27.00:  Torque Abs Max 
 TRRT.°/30m               1.50:  Turn Rotating 
 MRT .                    HCIM:  Maximum Recorded Temperature 
 TTMX.degC               90.20:  Max Tool Temp 
 VS01.                90542671:  Virtual Str1 SN 
 VS02.                90545185:  Virtual Str2 SN 
 VS03.                90602015:  Virtual Str3 SN 
 VS04.                90515230:  Virtual Str4 SN 
 WBMN.klb                 5.00:  WOB Min 
 WOBA.klb                14.79:  WOB Avg 
 WOBX.klb                20.00:  WOB Max 
 YP  .lhf2               29.00:  Yield Point 
~Curve Information Block
#MNEM.UNIT                 API CODE     Curve Description
#---------               -----------    ---------------------------
 TIME.HHMMSS            00 000 000 000:  GT Time & Date
 GTDEPTH.m              00 000 000 000:  GT Depth
 GTPQH.psia             00 000 000 000:  GT HR Quartz Pressure
 GTTQ.degC              00 000 000 000:  GT Quartz Temperature
 GTTN.NONE              00 000 000 000:  GT Test Number
 GTET.sec               00 000 000 000:  GT Elapsed Test Time
 GTTVD.m                00 000 000 000:  GT True Vertical Depth
#Other Information
#
#WARRANTY: Halliburton will use its best efforts to furnish customers with 
#accurate information and interpretations that are part of, and incident to, the services 
#provided.  However, Halliburton cannot and does not warrant the accuracy 
#or correctness of such information and interpretations.  Under no circumstances should any 
#such information or interpretation be relied upon as the sole basis for any drilling, 
#completion, production, or financial decision or any procedure involving any risk to the 
#safety of any drilling venture, drilling rig or its crew or any other third party.  The 
#Customer has full responsibility for all drilling, completion and production operation.  
#Halliburton makes no representations or warranties, either expressed or 
#implied, including, but not limited to, the implied warranties of merchantability or fitness 
#for a particular purpose, with respect to the services rendered.  In no event will 
#Halliburton be liable for failure to obtain any particular results or for 
#any damages, including, but not limited to, indirect, special or consequential damages, 
#resulting from the use of any information or interpretation provided by Halliburton.
#
~A           TIME           GTDEPTH  GTPQH  GTTQ  GTTN   GTET   GTTVD  
# ...
   10:57:40.435.09-Sep-2020 5456.01 3298.05 76.37 10.00 158.24 2604.72
   10:57:40.635.09-Sep-2020 5456.01 3291.86 76.37 10.00 158.44 2604.72
   10:57:40.835.09-Sep-2020 5456.01 3295.77 76.37 10.00 158.64 2604.72
   10:57:41.035.09-Sep-2020 5456.01 3302.70 76.37 10.00 158.84 2604.72
   10:57:41.235.09-Sep-2020 5456.01 3293.23 76.37 10.00 159.04 2604.72
   10:57:41.435.09-Sep-2020 5456.01 3293.23 76.37 10.00 159.24 2604.72
   10:57:41.635.09-Sep-2020 5456.01 3288.44 76.37 10.00 159.44 2604.72
   10:57:41.835.09-Sep-2020 5456.01 3288.59 76.37 10.00 159.64 2604.72
   10:57:42.035.09-Sep-2020 5456.01 3289.01 76.37 10.00 159.84 2604.72
   10:57:42.235.09-Sep-2020 5456.01 3289.10 76.37 10.00 160.04 2604.72
   10:57:42.435.09-Sep-2020 5456.01 3289.10 76.37 10.00 160.24 2604.72
   10:57:42.635.09-Sep-2020 5456.01 3294.43 76.37 10.00 160.44 2604.72
   10:57:42.836.09-Sep-2020 5456.01 3288.43 76.37 10.00 160.64 2604.72
   10:57:43.036.09-Sep-2020 5456.01 3470.86 76.37 10.00 160.84 2604.72
   10:57:43.236.09-Sep-2020 5456.01 3569.97 76.37 10.00 161.04 2604.72
   10:57:43.436.09-Sep-2020 5456.01 3569.97 76.37 10.00 161.24 2604.72
   10:57:43.636.09-Sep-2020 5456.01 3586.82 76.37 10.00 161.44 2604.72
   10:57:43.836.09-Sep-2020 5456.01 3587.17 76.37 10.00 161.64 2604.72
   10:57:44.036.09-Sep-2020 5456.01 3587.36 76.37 10.00 161.84 2604.72
   10:57:44.236.09-Sep-2020 5456.01 3587.16 76.37 10.00 162.04 2604.72
   10:57:44.436.09-Sep-2020 5456.01 3587.16 76.37 10.00 162.24 2604.72
   10:57:44.636.09-Sep-2020 5456.01 3587.80 76.37 10.00 162.44 2604.72
   10:57:44.836.09-Sep-2020 5456.01 3587.92 76.37 10.00 162.64 2604.72
   10:57:45.036.09-Sep-2020 5456.01 3587.97 76.37 10.00 162.84 2604.72
   10:57:45.236.09-Sep-2020 5456.01 3588.14 76.37 10.00 163.05 2604.72
   10:57:45.436.09-Sep-2020 5456.01 3588.14 76.37 10.00 163.25 2604.72
   10:57:45.636.09-Sep-2020 5456.01 3588.23 76.37 10.00 163.45 2604.72
   10:57:45.836.09-Sep-2020 5456.01 3588.30 76.37 10.00 163.65 2604.72
   10:57:46.036.09-Sep-2020 5456.01 3588.33 76.37 10.00 163.85 2604.72
   10:57:46.236.09-Sep-2020 5456.01 3588.42 76.37 10.00 164.05 2604.72
   10:57:46.437.09-Sep-2020 5456.01 3588.42 76.37 10.00 164.25 2604.72
   10:57:46.637.09-Sep-2020 5456.01 3588.46 76.37 10.00 164.45 2604.72
   10:57:46.837.09-Sep-2020 5456.01 3588.49 76.37 10.00 164.65 2604.72
   10:57:47.037.09-Sep-2020 5456.01 3588.53 76.37 10.00 164.85 2604.72
   10:57:47.237.09-Sep-2020 5456.01 3588.57 76.37 10.00 165.05 2604.72
   10:57:47.437.09-Sep-2020 5456.01 3588.57 76.37 10.00 165.25 2604.72
   10:57:47.637.09-Sep-2020 5456.01 3588.56 76.37 10.00 165.45 2604.72
   10:57:47.837.09-Sep-2020 5456.01 3588.58 76.37 10.00 165.65 2604.72
   10:57:48.037.09-Sep-2020 5456.01 3588.62 76.37 10.00 165.85 2604.72
   10:57:48.237.09-Sep-2020 5456.01 3588.65 76.37 10.00 166.05 2604.72
   10:57:48.437.09-Sep-2020 5456.01 3588.65 76.37 10.00 166.25 2604.72
   10:57:48.637.09-Sep-2020 5456.01 3588.25 76.37 10.00 166.45 2604.72
   10:57:48.837.09-Sep-2020 5456.01 3588.95 76.37 10.00 166.65 2604.72
   10:57:49.037.09-Sep-2020 5456.01 3588.75 76.37 10.00 166.85 2604.72
   10:57:49.237.09-Sep-2020 5456.01 3588.70 76.37 10.00 167.05 2604.72
   10:57:49.437.09-Sep-2020 5456.01 3588.70 76.37 10.00 167.25 2604.72
   10:57:49.637.09-Sep-2020 5456.01 3588.75 76.37 10.00 167.45 2604.72
   10:57:49.837.09-Sep-2020 5456.01 3588.68 76.37 10.00 167.65 2604.72
   10:57:50.038.09-Sep-2020 5456.01 3588.74 76.37 10.00 167.85 2604.72
   10:57:50.238.09-Sep-2020 5456.01 3588.34 76.37 10.00 168.05 2604.72
   10:57:50.438.09-Sep-2020 5456.01 3588.34 76.37 10.00 168.25 2604.72
   10:57:50.638.09-Sep-2020 5456.01 3588.75 76.38 10.00 168.45 2604.72
   10:57:50.838.09-Sep-2020 5456.01 3588.75 76.38 10.00 168.65 2604.72
   10:57:51.038.09-Sep-2020 5456.01 3588.73 76.38 10.00 168.85 2604.72
   10:57:51.238.09-Sep-2020 5456.01 3588.84 76.38 10.00 169.05 2604.72
   10:57:51.438.09-Sep-2020 5456.01 3588.84 76.38 10.00 169.25 2604.72
   10:57:51.638.09-Sep-2020 5456.01 3589.06 76.38 10.00 169.45 2604.72
   10:57:51.838.09-Sep-2020 5456.01 3588.86 76.38 10.00 169.65 2604.72
   10:57:52.038.09-Sep-2020 5456.01 3588.78 76.38 10.00 169.85 2604.72
   10:57:52.238.09-Sep-2020 5456.01 3588.84 76.38 10.00 170.05 2604.72
   10:57:52.438.09-Sep-2020 5456.01 3588.84 76.38 10.00 170.25 2604.72
   10:57:52.638.09-Sep-2020 5456.01 3589.23 76.38 10.00 170.45 2604.72
   10:57:52.838.09-Sep-2020 5456.01 3588.80 76.38 10.00 170.65 2604.72
   10:57:53.038.09-Sep-2020 5456.01 3588.84 76.38 10.00 170.85 2604.72
   10:57:53.238.09-Sep-2020 5456.01 3588.76 76.38 10.00 171.05 2604.72
   10:57:53.438.09-Sep-2020 5456.01 3588.76 76.38 10.00 171.25 2604.72
   10:57:53.638.09-Sep-2020 5456.01 3588.83 76.38 10.00 171.45 2604.72
   10:57:53.839.09-Sep-2020 5456.01 3588.83 76.38 10.00 171.65 2604.72
   10:57:54.039.09-Sep-2020 5456.01 3588.84 76.38 10.00 171.85 2604.72
   10:57:54.239.09-Sep-2020 5456.01 3588.83 76.38 10.00 172.05 2604.72
   10:57:54.439.09-Sep-2020 5456.01 3588.83 76.38 10.00 172.25 2604.72
   10:57:54.639.09-Sep-2020 5456.01 3588.84 76.38 10.00 172.45 2604.72
   10:57:54.839.09-Sep-2020 5456.01 3588.85 76.38 10.00 172.65 2604.72
   10:57:55.039.09-Sep-2020 5456.01 3588.86 76.38 10.00 172.85 2604.72
   10:57:55.239.09-Sep-2020 5456.01 3588.88 76.38 10.00 173.05 2604.72
   10:57:55.439.09-Sep-2020 5456.01 3588.88 76.38 10.00 173.25 2604.72
   10:57:55.639.09-Sep-2020 5456.01 3588.86 76.38 10.00 173.45 2604.72
   10:57:55.839.09-Sep-2020 5456.01 3588.86 76.38 10.00 173.65 2604.72
   10:57:56.039.09-Sep-2020 5456.01 3588.85 76.38 10.00 173.85 2604.72
   10:57:56.239.09-Sep-2020 5456.01 3588.79 76.38 10.00 174.05 2604.72
   10:57:56.439.09-Sep-2020 5456.01 3588.79 76.38 10.00 174.25 2604.72
   10:57:56.639.09-Sep-2020 5456.01 3588.87 76.38 10.00 174.45 2604.72
   10:57:56.839.09-Sep-2020 5456.01 3588.85 76.38 10.00 174.65 2604.72
   10:57:57.039.09-Sep-2020 5456.01 3588.91 76.38 10.00 174.85 2604.72
   10:57:57.239.09-Sep-2020 5456.01 3588.87 76.38 10.00 175.05 2604.72
   10:57:57.440.09-Sep-2020 5456.01 3588.87 76.38 10.00 175.25 2604.72
   10:57:57.640.09-Sep-2020 5456.01 3588.87 76.38 10.00 175.45 2604.72
   10:57:57.840.09-Sep-2020 5456.01 3588.87 76.38 10.00 175.65 2604.72
   10:57:58.040.09-Sep-2020 5456.01 3588.87 76.38 10.00 175.85 2604.72
   10:57:58.240.09-Sep-2020 5456.01 3588.90 76.38 10.00 176.05 2604.72
   10:57:58.440.09-Sep-2020 5456.01 3588.90 76.38 10.00 176.25 2604.72
   10:57:58.640.09-Sep-2020 5456.01 3588.90 76.38 10.00 176.45 2604.72
   10:57:58.840.09-Sep-2020 5456.01 3588.87 76.38 10.00 176.65 2604.72
   10:57:59.040.09-Sep-2020 5456.01 3588.88 76.38 10.00 176.85 2604.72
   10:57:59.240.09-Sep-2020 5456.01 3588.89 76.38 10.00 177.05 2604.72
   10:57:59.440.09-Sep-2020 5456.01 3588.89 76.38 10.00 177.25 2604.72
   10:57:59.640.09-Sep-2020 5456.01 3589.13 76.38 10.00 177.45 2604.72
   10:57:59.840.09-Sep-2020 5456.01 3588.96 76.38 10.00 177.65 2604.72
   10:58:00.040.09-Sep-2020 5456.01 3588.88 76.38 10.00 177.85 2604.72
   10:58:00.240.09-Sep-2020 5456.01 3588.93 76.38 10.00 178.05 2604.72
   10:58:00.440.09-Sep-2020 5456.01 3588.93 76.38 10.00 178.25 2604.72
   10:58:00.640.09-Sep-2020 5456.01 3588.39 76.38 10.00 178.45 2604.72
   10:58:00.840.09-Sep-2020 5456.01 3589.39 76.38 10.00 178.65 2604.72
   10:58:01.041.09-Sep-2020 5456.01 3588.92 76.38 10.00 178.85 2604.72
   10:58:01.241.09-Sep-2020 5456.01 3588.92 76.38 10.00 179.05 2604.72
   10:58:01.441.09-Sep-2020 5456.01 3588.92 76.38 10.00 179.25 2604.72
   10:58:01.641.09-Sep-2020 5456.01 3589.41 76.38 10.00 179.45 2604.72
   10:58:01.841.09-Sep-2020 5456.01 3588.89 76.38 10.00 179.65 2604.72
   10:58:02.041.09-Sep-2020 5456.01 3588.92 76.38 10.00 179.85 2604.72
   10:58:02.241.09-Sep-2020 5456.01 3588.89 76.38 10.00 180.05 2604.72
   10:58:02.441.09-Sep-2020 5456.01 3588.89 76.38 10.00 180.25 2604.72
   10:58:02.641.09-Sep-2020 5456.01 3588.89 76.38 10.00 180.45 2604.72
   10:58:02.841.09-Sep-2020 5456.01 3588.89 76.38 10.00 180.65 2604.72
