~Version Information
 VERS.                  2.0:   CWLS log ASCII Standard -VERSION 2.0
 WRAP.                   NO:   One line per depth step
~Well Information Block
#MNEM.UNIT     VALUE/NAME     DESCRIPTION
#---------     -----------    ---------------------------
 STRT.S             17:25:53 09-Sep-20: START TIME 17:25:53 09-Sep-20
 STOP.S             17:34:04 09-Sep-20: STOP TIME  17:34:04 09-Sep-20
 STEP.S                   0.00: STEP TIME
 NULL.                 -999.25: NULL VALUE
 MDS .        Operator Entered:  MAG DATA SOURCE
 PDAT.          Mean Sea Level:  PERMANENT DATUM
 DCON.         Sperry Drilling:  DIRECTNL CONTR
 RIG .              West Azeri:  RIG NAME
 WELL.           C40 (Slot 20):  WELL NAME
 SRVC.     Turan Drilling Engineering:  CONTRACTOR
 FLD .                     ACG:  FIELD NAME
 CTRY.              Azerbaijan:  COUNTRY NAME
 PROV.                    Baku:  PROVINCE
 STAT.                    Baku:  STATE NAME
 REGN.                   EESSA:  REGION
 BASE.              Azerbaijan:  LOGGING EQUIPMENT BASE LOCATION
 COMP.     BP Exploration (Caspian Sea) Ltd:  COMPANY
 WTYP.                Deviated:  WELL TYPE
 SON .        AZ-XX-0906344804:  JOB NUMBER
 FTOP.          Formation Tops:  FORM TOPS DESC
 ILTD.               Lithology:  INTERP LTH DESC
 SVYD.                  Survey:  SURVEY DESC
 DMOD.             Drill Model:  DRILL MOD DESC
 HPTY.       Minimum Curvature:  HOLE POS TYPE
 NREF.                    Grid:  NORTH REFERENCE
 SPUD.               01-Jan-20:  SPUD DATE
 DATE.      00.59.44 15-Sep-20:  END TIME
 STIM.      12.00.00 12-Jun-20:  START TIME
 DMF .             Drill Floor:  DRILL MEAS FROM
 DFST.                        :  DIST FSL TEXT
 DFWT.                        :  DIST FWL TEXT
 API .                        :  API NUMBER
 CNTY.                        :  COUNTY
 UWI .                        :  UNIQUE WELL IDENTIFIER
 LOC .                        :  LOCATION
 LMF .             Drill Floor:  LOG MEASURED FROM
 VSNS.m                   2.88:  VERT SEC N/S
 VSEW.m                  -3.84:  VERT SEC E/W
 AGAP.m                  43.42:  AIR GAP
 APD .m                  43.42:  DEPTH ABOVE PD
 WDMS.m                 118.27:  WD ELEV
 EGL .m                   0.00:  GROUND ELEVATION
 EPD .m                   0.00:  ELEVATION
 AZTC.deg                 6.23:  AZM TOTAL CORR
 GRDC.deg                 0.20:  GRID CORRECTION
 MDEC.deg                 6.43:  MAGNETIC DECL
 MDIP.deg                59.49:  MAGNETIC DIP
 MFLD.nT              50277.00:  MAGNETIC FIELD
 GVFD.g                   1.00:  GRAVITY FIELD
 VSDR.deg               173.20:  VERT SEC DIRECT
 TDD .m                5790.01:  TOTAL DEPTH (DRILLER)
 SDEP.m                5231.01:  START DEPTH
 DFSL.m                   0.00:  DISTANCE FSL
 DFWL.m                   0.00:  DISTANCE FWL
 UTMY.m             4435808.83:  UTM Y
 UTMX.m              526266.40:  UTM X
 WHEW.m                  -3.84:  WELL HEAD E/W
 WHNS.m                   2.88:  WELL HEAD N/S
 LONG.deg                51.31:  LONGITUDE
 LATI.deg                40.06:  LATITUDE
 TVDS.m                  43.42:  TVDSS CORRECTN
 DEP .m                 430.08:  DEPTH
 EKB .m                  43.42:  KB ELEVATION
 EDF .m                  43.42:  DF ELEVATION
 TDL .m                 559.00:  TOTAL DEPTH (LOGGER)
 MAGU.                 1849381:  MAGUTM CHECKSUM
 VSC .                       0:  VS TO CLOSURE
~Parameter Information Block
#MNEM.UNIT       Value        Description
#---------     -----------    ---------------------------
 AV  .mps                 4.87:  Ann Velocity 
 AVMX.mps                 7.08:  Max Ann Veloc 
 AZIF.deg               108.87:  Azm, Final 
 BHAT.                  Rotary:  BHA Type 
 BROT.°/30m               0.35:  Build Rotating 
 BS  .in                  8.50:  Bit Size 
 BSZ .in                  8.50:  Bit Size 
 BTPL.psig              360.00:  Bit Press Loss 
 CABU.                     Yes:  Customer Abuse 
 COMM.                     ô¸n:  Run Comments 1 
 TCS .hr                106.24:  Time Ciculation Ended 
 CV  .mps                 1.77:  Crit Velocity 
 CVMX.mps                 2.03:  Max Crit Veloc 
 DD1 .         Aykhan Agagulov:  Direct Drillr 1 
 DD2 .            Nonso Okofor:  Direct Drillr 2 
 DDSV.               Geo-Pilot:  DD Service 
 DEFF.%                  98.00:  % Det Eff 
 DLRX.°/30m               0.50:  Dogleg Rot Max 
 DLSO.°/30m               0.40:  Dogleg Oriented 
 DLSX.°/30m               0.94:  Dogleg Str Max 
 DRET.      20.30.00 08-Sep-20:  Drill End Time 
 DRST.      22.15.00 06-Sep-20:  Drill Start Tim 
 DTIM.hr                 31.31:  Time Drilling 
 EDEP.m                5790.01:  End Depth 
 ENG1.           Amrah Tahirov:  Engineer 1 
 ENG2.         Dair Mahammadov:  Engineer 2 
 ENG3.           Emil Huseynov:  Engineer 3 
 ETIM.      04.01.04 12-Sep-20:  End Time 
 FLOI.gpm               450.00:  Flow In 
 FLON.gpm               450.00:  Flow In Min 
 FLOS.cptm                2.00:  Fluid Loss 
 FLOX.gpm               450.00:  Flow In Max 
 FTRO.       Formation Presure:  FTWD Run Obj 
 HFLO.                      No:  High Flow 
 HPRE.                      No:  High Pressure 
 HTEM.                      No:  High Temp 
 HYDO.m                   1.80:  Hydro Offset 
 IFIN.deg                72.03:  Inc, Final 
 IMAX.deg                73.72:  Inc Max 
 IMIN.deg                70.94:  Inc Min 
 IMND.m                5508.52:  Inc Min Depth 
 IMXD.m                5253.60:  Inc Max Depth 
 JARR.                      No:  Jarring 
 LETM.      20.30.00 08-Sep-20:  Log End Time 
 LOST.hr                     0:  Lost Rig Time 
 LSTM.      22.15.00 06-Sep-20:  Log Start Time 
 MDCL.ppm             36000.00:  Mud Chlorides 
 MDES.     Inversion Oil/Synthetic:  Mud Desc 
 DFD .sg                  1.44:  Mud Density 
 MDMN.sg                  1.44:  Dens Mud Min 
 MDMX.sg                  1.57:  Dens Mud Max 
 MOIL.                      70:  Run Mud Oil % 
 MOWR.                   70:30:  Run Mud OWR 
 MSND.                       0:  Run Mud Sand % 
 MSOL.                      21:  Run Mud Solids% 
 DFV .spqt               68.00:  Mud Viscosity 
 MWOD.in                  6.75:  MWD Tool OD 
 MWSI.                     Yes:  Serv Intrp, MWD 
 OTIM.hr                174.84:  Time Operating 
 PCON.           Look Like New:  Pad Condition 
 PMAX.psia            10616.93:  Press Op, Max 
 PV  .cP                 50.00:  Mud PV 
 RUN .                     700:  Run Number 
 ROPA.m/hr               14.24:  ROP Avg 
 ROPN.m/hr               10.00:  ROP Min 
 ROPX.m/hr               32.00:  ROP Max 
 RPMA.rpm               120.90:  RPM Surface Avg 
 RPMN.rpm               120.00:  RPM Surface Min 
 RPMX.rpm               140.00:  RPM Surface Max 
 RRUN.                    0700:  Rig Run Number 
 RTIM.hr                  3.20:  Time Reaming 
 SAZI.deg               109.99:  Azm, Start 
 SDEP.m                5231.01:  Start Depth 
 SIDD.                      No:  Serv Intrp, DD 
 SINC.deg                73.72:  Inc, Start 
 SPPA.psig             3051.00:  SPP Avg 
 SPPN.psig             2950.00:  SPP Min 
 SPPX.psig             3250.00:  SPP Max 
 STIM.      08.00.00 05-Sep-20:  Start Time 
 SVCS.                 DD, MWD:  Services 
 SVER.                    9.20:  Sperry Version 
 TDAT.m                 559.00:  Tot Depth Attmp 
 TDDF.                      No:  Trip for DD 
 TDLG.m                 559.00:  Tot Depth Loggd 
 TFF .                      No:  Trip for Fail 
 TQAA.f-kp               26.49:  Torque Abs Avg 
 TQAN.f-kp               25.00:  Torque Abs Min 
 TQAX.f-kp               27.00:  Torque Abs Max 
 TRRT.°/30m               1.50:  Turn Rotating 
 MRT .                    HCIM:  Maximum Recorded Temperature 
 TTMX.degC               90.20:  Max Tool Temp 
 VS01.                90542671:  Virtual Str1 SN 
 VS02.                90545185:  Virtual Str2 SN 
 VS03.                90602015:  Virtual Str3 SN 
 VS04.                90515230:  Virtual Str4 SN 
 WBMN.klb                 5.00:  WOB Min 
 WOBA.klb                14.79:  WOB Avg 
 WOBX.klb                20.00:  WOB Max 
 YP  .lhf2               29.00:  Yield Point 
~Curve Information Block
#MNEM.UNIT                 API CODE     Curve Description
#---------               -----------    ---------------------------
 TIME.HHMMSS            00 000 000 000:  GT Time & Date
 GTDEPTH.m              00 000 000 000:  GT Depth
 GTPQH.psia             00 000 000 000:  GT HR Quartz Pressure
 GTTQ.degC              00 000 000 000:  GT Quartz Temperature
 GTTN.NONE              00 000 000 000:  GT Test Number
 GTET.sec               00 000 000 000:  GT Elapsed Test Time
 GTTVD.m                00 000 000 000:  GT True Vertical Depth
#Other Information
#
#WARRANTY: Halliburton will use its best efforts to furnish customers with 
#accurate information and interpretations that are part of, and incident to, the services 
#provided.  However, Halliburton cannot and does not warrant the accuracy 
#or correctness of such information and interpretations.  Under no circumstances should any 
#such information or interpretation be relied upon as the sole basis for any drilling, 
#completion, production, or financial decision or any procedure involving any risk to the 
#safety of any drilling venture, drilling rig or its crew or any other third party.  The 
#Customer has full responsibility for all drilling, completion and production operation.  
#Halliburton makes no representations or warranties, either expressed or 
#implied, including, but not limited to, the implied warranties of merchantability or fitness 
#for a particular purpose, with respect to the services rendered.  In no event will 
#Halliburton be liable for failure to obtain any particular results or for 
#any damages, including, but not limited to, indirect, special or consequential damages, 
#resulting from the use of any information or interpretation provided by Halliburton.
#
~A           TIME           GTDEPTH  GTPQH  GTTQ  GTTN   GTET   GTTVD  
# ...
   17:32:17.493.09-Sep-2020 5302.51  611.01 74.54 20.00 384.38 2556.93
   17:32:17.693.09-Sep-2020 5302.51  610.19 74.54 20.00 384.58 2556.93
   17:32:17.893.09-Sep-2020 5302.51  611.58 74.54 20.00 384.78 2556.93
   17:32:18.093.09-Sep-2020 5302.51  611.33 74.54 20.00 384.98 2556.93
   17:32:18.293.09-Sep-2020 5302.51  611.43 74.54 20.00 385.18 2556.93
   17:32:18.493.09-Sep-2020 5302.51  611.43 74.54 20.00 385.38 2556.93
   17:32:18.693.09-Sep-2020 5302.51  611.75 74.54 20.00 385.58 2556.93
   17:32:18.894.09-Sep-2020 5302.51  611.15 74.54 20.00 385.78 2556.93
   17:32:19.094.09-Sep-2020 5302.51  611.81 74.54 20.00 385.98 2556.93
   17:32:19.294.09-Sep-2020 5302.51  611.88 74.54 20.00 386.19 2556.93
   17:32:19.494.09-Sep-2020 5302.51  611.88 74.54 20.00 386.39 2556.93
   17:32:19.694.09-Sep-2020 5302.51  612.09 74.54 20.00 386.59 2556.93
   17:32:19.894.09-Sep-2020 5302.51  611.60 74.54 20.00 386.79 2556.93
   17:32:20.094.09-Sep-2020 5302.51  612.22 74.54 20.00 386.99 2556.93
   17:32:20.294.09-Sep-2020 5302.51  612.28 74.54 20.00 387.19 2556.93
   17:32:20.494.09-Sep-2020 5302.51  612.28 74.54 20.00 387.39 2556.93
   17:32:20.694.09-Sep-2020 5302.51  612.59 74.54 20.00 387.59 2556.93
   17:32:20.894.09-Sep-2020 5302.51  612.58 74.54 20.00 387.79 2556.93
   17:32:21.095.09-Sep-2020 5302.51  612.73 74.54 20.00 387.99 2556.93
   17:32:21.295.09-Sep-2020 5302.51  611.89 74.54 20.00 388.19 2556.93
   17:32:21.495.09-Sep-2020 5302.51  611.89 74.54 20.00 388.39 2556.93
   17:32:21.695.09-Sep-2020 5302.51  613.03 74.54 20.00 388.59 2556.93
   17:32:21.895.09-Sep-2020 5302.51  613.17 74.54 20.00 388.79 2556.93
   17:32:22.095.09-Sep-2020 5302.51  613.18 74.54 20.00 388.99 2556.93
   17:32:22.295.09-Sep-2020 5302.51  613.51 74.54 20.00 389.19 2556.93
   17:32:22.495.09-Sep-2020 5302.51  613.51 74.54 20.00 389.39 2556.93
   17:32:22.695.09-Sep-2020 5302.51  613.01 74.54 20.00 389.59 2556.93
   17:32:22.895.09-Sep-2020 5302.51  613.70 74.54 20.00 389.79 2556.93
   17:32:23.096.09-Sep-2020 5302.51  613.73 74.54 20.00 389.99 2556.93
   17:32:23.296.09-Sep-2020 5302.51  613.82 74.54 20.00 390.19 2556.93
   17:32:23.496.09-Sep-2020 5302.51  613.82 74.54 20.00 390.39 2556.93
   17:32:23.696.09-Sep-2020 5302.51  614.01 74.54 20.00 390.59 2556.93
   17:32:23.896.09-Sep-2020 5302.51  614.13 74.54 20.00 390.79 2556.93
   17:32:24.096.09-Sep-2020 5302.51  614.49 74.54 20.00 390.99 2556.93
   17:32:24.296.09-Sep-2020 5302.51  615.31 74.54 20.00 391.19 2556.93
   17:32:24.496.09-Sep-2020 5302.51  615.31 74.54 20.00 391.39 2556.93
   17:32:24.696.09-Sep-2020 5302.51  615.70 74.54 20.00 391.59 2556.93
   17:32:24.896.09-Sep-2020 5302.51  616.02 74.54 20.00 391.79 2556.93
   17:32:25.097.09-Sep-2020 5302.51  616.23 74.54 20.00 391.99 2556.93
   17:32:25.297.09-Sep-2020 5302.51  616.43 74.54 20.00 392.19 2556.93
   17:32:25.497.09-Sep-2020 5302.51  616.43 74.54 20.00 392.39 2556.93
   17:32:25.697.09-Sep-2020 5302.51  616.72 74.54 20.00 392.59 2556.93
   17:32:25.897.09-Sep-2020 5302.51  616.86 74.54 20.00 392.79 2556.93
   17:32:26.097.09-Sep-2020 5302.51  616.98 74.54 20.00 392.99 2556.93
   17:32:26.297.09-Sep-2020 5302.51  616.47 74.54 20.00 393.19 2556.93
   17:32:26.497.09-Sep-2020 5302.51  616.47 74.54 20.00 393.39 2556.93
   17:32:26.697.09-Sep-2020 5302.51  617.17 74.54 20.00 393.59 2556.93
   17:32:26.897.09-Sep-2020 5302.51  617.25 74.54 20.00 393.79 2556.93
   17:32:27.097.09-Sep-2020 5302.51  617.53 74.54 20.00 393.99 2556.93
   17:32:27.298.09-Sep-2020 5302.51  617.64 74.54 20.00 394.19 2556.93
   17:32:27.498.09-Sep-2020 5302.51  617.64 74.54 20.00 394.39 2556.93
   17:32:27.698.09-Sep-2020 5302.51  617.75 74.54 20.00 394.59 2556.93
   17:32:27.898.09-Sep-2020 5302.51  617.89 74.54 20.00 394.79 2556.93
   17:32:28.098.09-Sep-2020 5302.51  617.99 74.54 20.00 394.99 2556.93
   17:32:28.298.09-Sep-2020 5302.51  618.15 74.54 20.00 395.19 2556.93
   17:32:28.498.09-Sep-2020 5302.51  618.27 74.54 20.00 395.39 2556.93
   17:32:28.698.09-Sep-2020 5302.51  618.34 74.54 20.00 395.59 2556.93
   17:32:28.898.09-Sep-2020 5302.51  618.41 74.54 20.00 395.79 2556.93
   17:32:29.098.09-Sep-2020 5302.51  618.50 74.54 20.00 395.99 2556.93
   17:32:29.299.09-Sep-2020 5302.51  618.64 74.54 20.00 396.19 2556.93
   17:32:29.499.09-Sep-2020 5302.51  618.07 74.54 20.00 396.39 2556.93
   17:32:29.699.09-Sep-2020 5302.51  618.56 74.54 20.00 396.59 2556.93
   17:32:29.899.09-Sep-2020 5302.51  618.62 74.54 20.00 396.79 2556.93
   17:32:30.099.09-Sep-2020 5302.51  618.68 74.54 20.00 396.99 2556.93
   17:32:30.299.09-Sep-2020 5302.51  618.91 74.54 20.00 397.19 2556.93
   17:32:30.499.09-Sep-2020 5302.51  618.91 74.54 20.00 397.39 2556.93
   17:32:30.699.09-Sep-2020 5302.51  618.46 74.54 20.00 397.59 2556.93
   17:32:30.899.09-Sep-2020 5302.51  619.14 74.54 20.00 397.79 2556.93
   17:32:31.099.09-Sep-2020 5302.51  619.23 74.54 20.00 397.99 2556.93
   17:32:31.299.09-Sep-2020 5302.51  619.18 74.54 20.00 398.19 2556.93
   17:32:31.500.09-Sep-2020 5302.51  619.18 74.54 20.00 398.39 2556.93
   17:32:31.700.09-Sep-2020 5302.51  618.83 74.54 20.00 398.59 2556.93
   17:32:31.900.09-Sep-2020 5302.51  619.59 74.54 20.00 398.79 2556.93
   17:32:32.100.09-Sep-2020 5302.51  619.70 74.55 20.00 398.99 2556.93
   17:32:32.300.09-Sep-2020 5302.51  619.76 74.54 20.00 399.19 2556.93
   17:32:32.500.09-Sep-2020 5302.51  619.76 74.54 20.00 399.39 2556.93
   17:32:32.700.09-Sep-2020 5302.51  620.00 74.55 20.00 399.59 2556.93
   17:32:32.900.09-Sep-2020 5302.51  619.16 74.54 20.00 399.79 2556.93
   17:32:33.100.09-Sep-2020 5302.51  620.57 74.54 20.00 399.99 2556.93
   17:32:33.300.09-Sep-2020 5302.51  620.33 74.55 20.00 400.19 2556.93
   17:32:33.501.09-Sep-2020 5302.51  620.41 74.55 20.00 400.39 2556.93
   17:32:33.701.09-Sep-2020 5302.51  620.43 74.55 20.00 400.59 2556.93
   17:32:33.901.09-Sep-2020 5302.51  620.78 74.55 20.00 400.79 2556.93
   17:32:34.101.09-Sep-2020 5302.51  620.76 74.55 20.00 400.99 2556.93
   17:32:34.301.09-Sep-2020 5302.51  620.18 74.55 20.00 401.19 2556.93
   17:32:34.501.09-Sep-2020 5302.51  620.18 74.55 20.00 401.39 2556.93
   17:32:34.701.09-Sep-2020 5302.51  621.05 74.55 20.00 401.59 2556.93
   17:32:34.901.09-Sep-2020 5302.51  621.16 74.55 20.00 401.79 2556.93
   17:32:35.101.09-Sep-2020 5302.51  621.20 74.55 20.00 401.99 2556.93
   17:32:35.301.09-Sep-2020 5302.51  621.47 74.55 20.00 402.19 2556.93
   17:32:35.501.09-Sep-2020 5302.51  621.47 74.55 20.00 402.39 2556.93
   17:32:35.702.09-Sep-2020 5302.51  621.58 74.55 20.00 402.59 2556.93
   17:32:35.902.09-Sep-2020 5302.51  621.67 74.55 20.00 402.79 2556.93
   17:32:36.102.09-Sep-2020 5302.51  621.70 74.55 20.00 402.99 2556.93
   17:32:36.302.09-Sep-2020 5302.51  621.78 74.55 20.00 403.19 2556.93
   17:32:36.502.09-Sep-2020 5302.51  621.78 74.55 20.00 403.39 2556.93
   17:32:36.702.09-Sep-2020 5302.51  621.97 74.55 20.00 403.59 2556.93
   17:32:36.902.09-Sep-2020 5302.51  622.03 74.55 20.00 403.79 2556.93
   17:32:37.102.09-Sep-2020 5302.51  622.14 74.55 20.00 403.99 2556.93
   17:32:37.302.09-Sep-2020 5302.51  622.21 74.55 20.00 404.19 2556.93
   17:32:37.502.09-Sep-2020 5302.51  622.30 74.55 20.00 404.39 2556.93
   17:32:37.703.09-Sep-2020 5302.51  622.40 74.55 20.00 404.59 2556.93
   17:32:37.903.09-Sep-2020 5302.51  622.46 74.55 20.00 404.79 2556.93
   17:32:38.103.09-Sep-2020 5302.51  621.97 74.55 20.00 404.99 2556.93
   17:32:38.303.09-Sep-2020 5302.51  622.70 74.55 20.00 405.19 2556.93
   17:32:38.503.09-Sep-2020 5302.51  622.70 74.55 20.00 405.39 2556.93
   17:32:38.703.09-Sep-2020 5302.51  622.79 74.55 20.00 405.59 2556.93
   17:32:38.903.09-Sep-2020 5302.51  623.03 74.55 20.00 405.79 2556.93
   17:32:39.103.09-Sep-2020 5302.51  622.98 74.55 20.00 405.99 2556.93
   17:32:39.303.09-Sep-2020 5302.51  623.08 74.55 20.00 406.19 2556.93
   17:32:39.503.09-Sep-2020 5302.51  623.08 74.55 20.00 406.39 2556.93
   17:32:39.704.09-Sep-2020 5302.51  623.19 74.55 20.00 406.59 2556.93
   17:32:39.904.09-Sep-2020 5302.51  623.25 74.55 20.00 406.79 2556.93
