~Version Information
 VERS.                  2.0:   CWLS log ASCII Standard -VERSION 2.0
 WRAP.                   NO:   One line per depth step
~Well Information Block
#MNEM.UNIT     VALUE/NAME     DESCRIPTION
#---------     -----------    ---------------------------
 STRT.S             12:49:18 09-Sep-20: START TIME 12:49:18 09-Sep-20
 STOP.S             12:55:59 09-Sep-20: STOP TIME  12:55:59 09-Sep-20
 STEP.S                   0.00: STEP TIME
 NULL.                 -999.25: NULL VALUE
 MDS .        Operator Entered:  MAG DATA SOURCE
 PDAT.          Mean Sea Level:  PERMANENT DATUM
 DCON.         Sperry Drilling:  DIRECTNL CONTR
 RIG .              West Azeri:  RIG NAME
 WELL.           C40 (Slot 20):  WELL NAME
 SRVC.     Turan Drilling Engineering:  CONTRACTOR
 FLD .                     ACG:  FIELD NAME
 CTRY.              Azerbaijan:  COUNTRY NAME
 PROV.                    Baku:  PROVINCE
 STAT.                    Baku:  STATE NAME
 REGN.                   EESSA:  REGION
 BASE.              Azerbaijan:  LOGGING EQUIPMENT BASE LOCATION
 COMP.     BP Exploration (Caspian Sea) Ltd:  COMPANY
 WTYP.                Deviated:  WELL TYPE
 SON .        AZ-XX-0906344804:  JOB NUMBER
 FTOP.          Formation Tops:  FORM TOPS DESC
 ILTD.               Lithology:  INTERP LTH DESC
 SVYD.                  Survey:  SURVEY DESC
 DMOD.             Drill Model:  DRILL MOD DESC
 HPTY.       Minimum Curvature:  HOLE POS TYPE
 NREF.                    Grid:  NORTH REFERENCE
 SPUD.               01-Jan-20:  SPUD DATE
 DATE.      00.59.44 15-Sep-20:  END TIME
 STIM.      12.00.00 12-Jun-20:  START TIME
 DMF .             Drill Floor:  DRILL MEAS FROM
 DFST.                        :  DIST FSL TEXT
 DFWT.                        :  DIST FWL TEXT
 API .                        :  API NUMBER
 CNTY.                        :  COUNTY
 UWI .                        :  UNIQUE WELL IDENTIFIER
 LOC .                        :  LOCATION
 LMF .             Drill Floor:  LOG MEASURED FROM
 VSNS.m                   2.88:  VERT SEC N/S
 VSEW.m                  -3.84:  VERT SEC E/W
 AGAP.m                  43.42:  AIR GAP
 APD .m                  43.42:  DEPTH ABOVE PD
 WDMS.m                 118.27:  WD ELEV
 EGL .m                   0.00:  GROUND ELEVATION
 EPD .m                   0.00:  ELEVATION
 AZTC.deg                 6.23:  AZM TOTAL CORR
 GRDC.deg                 0.20:  GRID CORRECTION
 MDEC.deg                 6.43:  MAGNETIC DECL
 MDIP.deg                59.49:  MAGNETIC DIP
 MFLD.nT              50277.00:  MAGNETIC FIELD
 GVFD.g                   1.00:  GRAVITY FIELD
 VSDR.deg               173.20:  VERT SEC DIRECT
 TDD .m                5790.01:  TOTAL DEPTH (DRILLER)
 SDEP.m                5231.01:  START DEPTH
 DFSL.m                   0.00:  DISTANCE FSL
 DFWL.m                   0.00:  DISTANCE FWL
 UTMY.m             4435808.83:  UTM Y
 UTMX.m              526266.40:  UTM X
 WHEW.m                  -3.84:  WELL HEAD E/W
 WHNS.m                   2.88:  WELL HEAD N/S
 LONG.deg                51.31:  LONGITUDE
 LATI.deg                40.06:  LATITUDE
 TVDS.m                  43.42:  TVDSS CORRECTN
 DEP .m                 430.08:  DEPTH
 EKB .m                  43.42:  KB ELEVATION
 EDF .m                  43.42:  DF ELEVATION
 TDL .m                 559.00:  TOTAL DEPTH (LOGGER)
 MAGU.                 1849381:  MAGUTM CHECKSUM
 VSC .                       0:  VS TO CLOSURE
~Parameter Information Block
#MNEM.UNIT       Value        Description
#---------     -----------    ---------------------------
 AV  .mps                 4.87:  Ann Velocity 
 AVMX.mps                 7.08:  Max Ann Veloc 
 AZIF.deg               108.87:  Azm, Final 
 BHAT.                  Rotary:  BHA Type 
 BROT.°/30m               0.35:  Build Rotating 
 BS  .in                  8.50:  Bit Size 
 BSZ .in                  8.50:  Bit Size 
 BTPL.psig              360.00:  Bit Press Loss 
 CABU.                     Yes:  Customer Abuse 
 COMM.                     ¤C}:  Run Comments 1 
 TCS .hr                106.24:  Time Ciculation Ended 
 CV  .mps                 1.77:  Crit Velocity 
 CVMX.mps                 2.03:  Max Crit Veloc 
 DD1 .         Aykhan Agagulov:  Direct Drillr 1 
 DD2 .            Nonso Okofor:  Direct Drillr 2 
 DDSV.               Geo-Pilot:  DD Service 
 DEFF.%                  98.00:  % Det Eff 
 DLRX.°/30m               0.50:  Dogleg Rot Max 
 DLSO.°/30m               0.40:  Dogleg Oriented 
 DLSX.°/30m               0.94:  Dogleg Str Max 
 DRET.      20.30.00 08-Sep-20:  Drill End Time 
 DRST.      22.15.00 06-Sep-20:  Drill Start Tim 
 DTIM.hr                 31.31:  Time Drilling 
 EDEP.m                5790.01:  End Depth 
 ENG1.           Amrah Tahirov:  Engineer 1 
 ENG2.         Dair Mahammadov:  Engineer 2 
 ENG3.           Emil Huseynov:  Engineer 3 
 ETIM.      04.01.04 12-Sep-20:  End Time 
 FLOI.gpm               450.00:  Flow In 
 FLON.gpm               450.00:  Flow In Min 
 FLOS.cptm                2.00:  Fluid Loss 
 FLOX.gpm               450.00:  Flow In Max 
 FTRO.       Formation Presure:  FTWD Run Obj 
 HFLO.                      No:  High Flow 
 HPRE.                      No:  High Pressure 
 HTEM.                      No:  High Temp 
 HYDO.m                   1.80:  Hydro Offset 
 IFIN.deg                72.03:  Inc, Final 
 IMAX.deg                73.72:  Inc Max 
 IMIN.deg                70.94:  Inc Min 
 IMND.m                5508.52:  Inc Min Depth 
 IMXD.m                5253.60:  Inc Max Depth 
 JARR.                      No:  Jarring 
 LETM.      20.30.00 08-Sep-20:  Log End Time 
 LOST.hr                     0:  Lost Rig Time 
 LSTM.      22.15.00 06-Sep-20:  Log Start Time 
 MDCL.ppm             36000.00:  Mud Chlorides 
 MDES.     Inversion Oil/Synthetic:  Mud Desc 
 DFD .sg                  1.44:  Mud Density 
 MDMN.sg                  1.44:  Dens Mud Min 
 MDMX.sg                  1.57:  Dens Mud Max 
 MOIL.                      70:  Run Mud Oil % 
 MOWR.                   70:30:  Run Mud OWR 
 MSND.                       0:  Run Mud Sand % 
 MSOL.                      21:  Run Mud Solids% 
 DFV .spqt               68.00:  Mud Viscosity 
 MWOD.in                  6.75:  MWD Tool OD 
 MWSI.                     Yes:  Serv Intrp, MWD 
 OTIM.hr                174.84:  Time Operating 
 PCON.           Look Like New:  Pad Condition 
 PMAX.psia            10616.93:  Press Op, Max 
 PV  .cP                 50.00:  Mud PV 
 RUN .                     700:  Run Number 
 ROPA.m/hr               14.24:  ROP Avg 
 ROPN.m/hr               10.00:  ROP Min 
 ROPX.m/hr               32.00:  ROP Max 
 RPMA.rpm               120.90:  RPM Surface Avg 
 RPMN.rpm               120.00:  RPM Surface Min 
 RPMX.rpm               140.00:  RPM Surface Max 
 RRUN.                    0700:  Rig Run Number 
 RTIM.hr                  3.20:  Time Reaming 
 SAZI.deg               109.99:  Azm, Start 
 SDEP.m                5231.01:  Start Depth 
 SIDD.                      No:  Serv Intrp, DD 
 SINC.deg                73.72:  Inc, Start 
 SPPA.psig             3051.00:  SPP Avg 
 SPPN.psig             2950.00:  SPP Min 
 SPPX.psig             3250.00:  SPP Max 
 STIM.      08.00.00 05-Sep-20:  Start Time 
 SVCS.                 DD, MWD:  Services 
 SVER.                    9.20:  Sperry Version 
 TDAT.m                 559.00:  Tot Depth Attmp 
 TDDF.                      No:  Trip for DD 
 TDLG.m                 559.00:  Tot Depth Loggd 
 TFF .                      No:  Trip for Fail 
 TQAA.f-kp               26.49:  Torque Abs Avg 
 TQAN.f-kp               25.00:  Torque Abs Min 
 TQAX.f-kp               27.00:  Torque Abs Max 
 TRRT.°/30m               1.50:  Turn Rotating 
 MRT .                    HCIM:  Maximum Recorded Temperature 
 TTMX.degC               90.20:  Max Tool Temp 
 VS01.                90542671:  Virtual Str1 SN 
 VS02.                90545185:  Virtual Str2 SN 
 VS03.                90602015:  Virtual Str3 SN 
 VS04.                90515230:  Virtual Str4 SN 
 WBMN.klb                 5.00:  WOB Min 
 WOBA.klb                14.79:  WOB Avg 
 WOBX.klb                20.00:  WOB Max 
 YP  .lhf2               29.00:  Yield Point 
~Curve Information Block
#MNEM.UNIT                 API CODE     Curve Description
#---------               -----------    ---------------------------
 TIME.HHMMSS            00 000 000 000:  GT Time & Date
 GTDEPTH.m              00 000 000 000:  GT Depth
 GTPQH.psia             00 000 000 000:  GT HR Quartz Pressure
 GTTQ.degC              00 000 000 000:  GT Quartz Temperature
 GTTN.NONE              00 000 000 000:  GT Test Number
 GTET.sec               00 000 000 000:  GT Elapsed Test Time
 GTTVD.m                00 000 000 000:  GT True Vertical Depth
#Other Information
#
#WARRANTY: Halliburton will use its best efforts to furnish customers with 
#accurate information and interpretations that are part of, and incident to, the services 
#provided.  However, Halliburton cannot and does not warrant the accuracy 
#or correctness of such information and interpretations.  Under no circumstances should any 
#such information or interpretation be relied upon as the sole basis for any drilling, 
#completion, production, or financial decision or any procedure involving any risk to the 
#safety of any drilling venture, drilling rig or its crew or any other third party.  The 
#Customer has full responsibility for all drilling, completion and production operation.  
#Halliburton makes no representations or warranties, either expressed or 
#implied, including, but not limited to, the implied warranties of merchantability or fitness 
#for a particular purpose, with respect to the services rendered.  In no event will 
#Halliburton be liable for failure to obtain any particular results or for 
#any damages, including, but not limited to, indirect, special or consequential damages, 
#resulting from the use of any information or interpretation provided by Halliburton.
#
~A           TIME           GTDEPTH  GTPQH  GTTQ  GTTN   GTET   GTTVD  
# ...
   12:53:04.000.09-Sep-2020 5424.51 1728.23 75.46 14.00 226.00 2594.79
   12:53:04.200.09-Sep-2020 5424.51 1728.23 75.46 14.00 226.20 2594.79
   12:53:04.400.09-Sep-2020 5424.51 1732.74 75.46 14.00 226.40 2594.79
   12:53:04.600.09-Sep-2020 5424.51 1734.99 75.46 14.00 226.60 2594.79
   12:53:04.800.09-Sep-2020 5424.51 1738.07 75.46 14.00 226.80 2594.79
   12:53:05.000.09-Sep-2020 5424.51 1741.19 75.46 14.00 227.00 2594.79
   12:53:05.200.09-Sep-2020 5424.51 1741.19 75.46 14.00 227.20 2594.79
   12:53:05.400.09-Sep-2020 5424.51 1747.45 75.46 14.00 227.40 2594.79
   12:53:05.600.09-Sep-2020 5424.51 1750.56 75.46 14.00 227.60 2594.79
   12:53:05.800.09-Sep-2020 5424.51 1753.71 75.46 14.00 227.80 2594.79
   12:53:06.000.09-Sep-2020 5424.51 1756.76 75.46 14.00 228.00 2594.79
   12:53:06.200.09-Sep-2020 5424.51 1756.76 75.46 14.00 228.20 2594.79
   12:53:06.400.09-Sep-2020 5424.51 1762.91 75.46 14.00 228.40 2594.79
   12:53:06.600.09-Sep-2020 5424.51 1764.99 75.46 14.00 228.60 2594.79
   12:53:06.800.09-Sep-2020 5424.51 1768.72 75.46 14.00 228.80 2594.79
   12:53:07.000.09-Sep-2020 5424.51 1771.76 75.46 14.00 229.00 2594.79
   12:53:07.200.09-Sep-2020 5424.51 1771.76 75.46 14.00 229.20 2594.79
   12:53:07.400.09-Sep-2020 5424.51 1778.00 75.46 14.00 229.40 2594.79
   12:53:07.600.09-Sep-2020 5424.51 1781.00 75.46 14.00 229.60 2594.79
   12:53:07.800.09-Sep-2020 5424.51 1784.04 75.46 14.00 229.80 2594.79
   12:53:08.000.09-Sep-2020 5424.51 1787.09 75.46 14.00 230.00 2594.79
   12:53:08.200.09-Sep-2020 5424.51 1787.09 75.46 14.00 230.20 2594.79
   12:53:08.400.09-Sep-2020 5424.51 1793.11 75.46 14.00 230.40 2594.79
   12:53:08.600.09-Sep-2020 5424.51 1796.15 75.46 14.00 230.60 2594.79
   12:53:08.800.09-Sep-2020 5424.51 1799.21 75.46 14.00 230.80 2594.79
   12:53:09.000.09-Sep-2020 5424.51 1802.26 75.46 14.00 231.00 2594.79
   12:53:09.200.09-Sep-2020 5424.51 1802.26 75.46 14.00 231.20 2594.79
   12:53:09.400.09-Sep-2020 5424.51 1808.23 75.46 14.00 231.40 2594.79
   12:53:09.600.09-Sep-2020 5424.51 1811.22 75.46 14.00 231.60 2594.79
   12:53:09.800.09-Sep-2020 5424.51 1813.29 75.46 14.00 231.80 2594.79
   12:53:10.000.09-Sep-2020 5424.51 1815.21 75.46 14.00 232.00 2594.79
   12:53:10.200.09-Sep-2020 5424.51 1815.21 75.46 14.00 232.20 2594.79
   12:53:10.400.09-Sep-2020 5424.51 1819.75 75.46 14.00 232.40 2594.79
   12:53:10.600.09-Sep-2020 5424.51 1822.68 75.46 14.00 232.60 2594.79
   12:53:10.800.09-Sep-2020 5424.51 1825.88 75.46 14.00 232.80 2594.79
   12:53:11.000.09-Sep-2020 5424.51 1827.35 75.46 14.00 233.00 2594.79
   12:53:11.200.09-Sep-2020 5424.51 1827.35 75.46 14.00 233.20 2594.79
   12:53:11.400.09-Sep-2020 5424.51 1834.55 75.46 14.00 233.40 2594.79
   12:53:11.600.09-Sep-2020 5424.51 1837.59 75.46 14.00 233.60 2594.79
   12:53:11.800.09-Sep-2020 5424.51 1840.50 75.46 14.00 233.80 2594.79
   12:53:12.000.09-Sep-2020 5424.51 1843.78 75.46 14.00 234.00 2594.79
   12:53:12.200.09-Sep-2020 5424.51 1843.78 75.46 14.00 234.20 2594.79
   12:53:12.400.09-Sep-2020 5424.51 1849.38 75.46 14.00 234.40 2594.79
   12:53:12.600.09-Sep-2020 5424.51 1852.49 75.46 14.00 234.60 2594.79
   12:53:12.800.09-Sep-2020 5424.51 1855.47 75.46 14.00 234.80 2594.79
   12:53:13.000.09-Sep-2020 5424.51 1858.70 75.46 14.00 235.00 2594.79
   12:53:13.200.09-Sep-2020 5424.51 1858.70 75.46 14.00 235.20 2594.79
   12:53:13.400.09-Sep-2020 5424.51 1864.50 75.46 14.00 235.40 2594.79
   12:53:13.600.09-Sep-2020 5424.51 1866.49 75.46 14.00 235.60 2594.79
   12:53:13.800.09-Sep-2020 5424.51 1870.22 75.46 14.00 235.80 2594.79
   12:53:14.000.09-Sep-2020 5424.51 1873.21 75.46 14.00 236.00 2594.79
   12:53:14.200.09-Sep-2020 5424.51 1873.21 75.46 14.00 236.20 2594.79
   12:53:14.400.09-Sep-2020 5424.51 1879.34 75.46 14.00 236.40 2594.79
   12:53:14.600.09-Sep-2020 5424.51 1882.26 75.46 14.00 236.60 2594.79
   12:53:14.800.09-Sep-2020 5424.51 1885.20 75.46 14.00 236.80 2594.79
   12:53:15.000.09-Sep-2020 5424.51 1886.82 75.46 14.00 237.00 2594.79
   12:53:15.200.09-Sep-2020 5424.51 1886.82 75.46 14.00 237.20 2594.79
   12:53:15.400.09-Sep-2020 5424.51 1891.35 75.46 14.00 237.40 2594.79
   12:53:15.600.09-Sep-2020 5424.51 1894.33 75.46 14.00 237.60 2594.79
   12:53:15.800.09-Sep-2020 5424.51 1897.55 75.46 14.00 237.80 2594.79
   12:53:16.000.09-Sep-2020 5424.51 1900.29 75.46 14.00 238.00 2594.79
   12:53:16.200.09-Sep-2020 5424.51 1900.29 75.46 14.00 238.20 2594.79
   12:53:16.400.09-Sep-2020 5424.51 1906.32 75.46 14.00 238.40 2594.79
   12:53:16.600.09-Sep-2020 5424.51 1909.27 75.46 14.00 238.60 2594.79
   12:53:16.800.09-Sep-2020 5424.51 1912.12 75.46 14.00 238.80 2594.79
   12:53:17.000.09-Sep-2020 5424.51 1915.10 75.46 14.00 239.00 2594.79
   12:53:17.200.09-Sep-2020 5424.51 1915.10 75.46 14.00 239.20 2594.79
   12:53:17.400.09-Sep-2020 5424.51 1920.98 75.46 14.00 239.40 2594.79
   12:53:17.600.09-Sep-2020 5424.51 1923.92 75.46 14.00 239.60 2594.79
   12:53:17.800.09-Sep-2020 5424.51 1926.83 75.46 14.00 239.80 2594.79
   12:53:18.000.09-Sep-2020 5424.51 1929.75 75.46 14.00 240.00 2594.79
   12:53:18.200.09-Sep-2020 5424.51 1929.75 75.46 14.00 240.20 2594.79
   12:53:18.400.09-Sep-2020 5424.51 1935.50 75.46 14.00 240.40 2594.79
   12:53:18.600.09-Sep-2020 5424.51 1937.36 75.46 14.00 240.60 2594.79
   12:53:18.800.09-Sep-2020 5424.51 1940.94 75.46 14.00 240.80 2594.79
   12:53:19.000.09-Sep-2020 5424.51 1943.74 75.46 14.00 241.00 2594.79
   12:53:19.200.09-Sep-2020 5424.51 1943.74 75.46 14.00 241.20 2594.79
   12:53:19.400.09-Sep-2020 5424.51 1949.60 75.46 14.00 241.40 2594.79
   12:53:19.600.09-Sep-2020 5424.51 1952.46 75.46 14.00 241.60 2594.79
   12:53:19.800.09-Sep-2020 5424.51 1955.27 75.46 14.00 241.80 2594.79
   12:53:20.000.09-Sep-2020 5424.51 1958.03 75.46 14.00 242.00 2594.79
   12:53:20.200.09-Sep-2020 5424.51 1958.03 75.46 14.00 242.20 2594.79
   12:53:20.400.09-Sep-2020 5424.51 1962.61 75.46 14.00 242.40 2594.79
   12:53:20.600.09-Sep-2020 5424.51 1963.83 75.46 14.00 242.60 2594.79
   12:53:20.800.09-Sep-2020 5424.51 1966.74 75.46 14.00 242.80 2594.79
   12:53:21.000.09-Sep-2020 5424.51 1969.59 75.46 14.00 243.00 2594.79
   12:53:21.200.09-Sep-2020 5424.51 1969.59 75.46 14.00 243.20 2594.79
   12:53:21.400.09-Sep-2020 5424.51 1975.22 75.46 14.00 243.40 2594.79
   12:53:21.600.09-Sep-2020 5424.51 1978.06 75.46 14.00 243.60 2594.79
   12:53:21.800.09-Sep-2020 5424.51 1980.95 75.47 14.00 243.80 2594.79
   12:53:22.000.09-Sep-2020 5424.51 1982.69 75.47 14.00 244.00 2594.79
   12:53:22.200.09-Sep-2020 5424.51 1982.69 75.47 14.00 244.20 2594.79
   12:53:22.400.09-Sep-2020 5424.51 1989.01 75.47 14.00 244.40 2594.79
   12:53:22.600.09-Sep-2020 5424.51 1991.76 75.47 14.00 244.60 2594.79
   12:53:22.800.09-Sep-2020 5424.51 1994.83 75.47 14.00 244.80 2594.79
   12:53:23.000.09-Sep-2020 5424.51 1996.55 75.47 14.00 245.00 2594.79
   12:53:23.200.09-Sep-2020 5424.51 1996.55 75.47 14.00 245.20 2594.79
   12:53:23.400.09-Sep-2020 5424.51 2002.81 75.47 14.00 245.40 2594.79
   12:53:23.600.09-Sep-2020 5424.51 2005.68 75.47 14.00 245.60 2594.79
   12:53:23.800.09-Sep-2020 5424.51 2008.37 75.47 14.00 245.80 2594.79
   12:53:24.000.09-Sep-2020 5424.51 2011.44 75.47 14.00 246.00 2594.79
   12:53:24.200.09-Sep-2020 5424.51 2011.44 75.47 14.00 246.20 2594.79
   12:53:24.400.09-Sep-2020 5424.51 2016.72 75.47 14.00 246.40 2594.79
   12:53:24.600.09-Sep-2020 5424.51 2019.57 75.47 14.00 246.60 2594.79
   12:53:24.800.09-Sep-2020 5424.51 2022.35 75.47 14.00 246.80 2594.79
   12:53:25.000.09-Sep-2020 5424.51 2025.30 75.47 14.00 247.00 2594.79
   12:53:25.200.09-Sep-2020 5424.51 2025.30 75.47 14.00 247.20 2594.79
   12:53:25.400.09-Sep-2020 5424.51 2030.57 75.47 14.00 247.40 2594.79
   12:53:25.600.09-Sep-2020 5424.51 2033.42 75.47 14.00 247.60 2594.79
   12:53:25.800.09-Sep-2020 5424.51 2036.28 75.47 14.00 247.80 2594.79
   12:53:26.000.09-Sep-2020 5424.51 2037.40 75.47 14.00 248.00 2594.79
   12:53:26.200.09-Sep-2020 5424.51 2037.40 75.47 14.00 248.20 2594.79
   12:53:26.400.09-Sep-2020 5424.51 2041.75 75.47 14.00 248.40 2594.79
