~Version Information
 VERS.                  2.0:   CWLS log ASCII Standard -VERSION 2.0
 WRAP.                   NO:   One line per depth step
~Well Information Block
#MNEM.UNIT     VALUE/NAME     DESCRIPTION
#---------     -----------    ---------------------------
 STRT.S             20:20:33 09-Sep-20: START TIME 20:20:33 09-Sep-20
 STOP.S             20:28:41 09-Sep-20: STOP TIME  20:28:41 09-Sep-20
 STEP.S                   0.00: STEP TIME
 NULL.                 -999.25: NULL VALUE
 MDS .        Operator Entered:  MAG DATA SOURCE
 PDAT.          Mean Sea Level:  PERMANENT DATUM
 DCON.         Sperry Drilling:  DIRECTNL CONTR
 RIG .              West Azeri:  RIG NAME
 WELL.           C40 (Slot 20):  WELL NAME
 SRVC.     Turan Drilling Engineering:  CONTRACTOR
 FLD .                     ACG:  FIELD NAME
 CTRY.              Azerbaijan:  COUNTRY NAME
 PROV.                    Baku:  PROVINCE
 STAT.                    Baku:  STATE NAME
 REGN.                   EESSA:  REGION
 BASE.              Azerbaijan:  LOGGING EQUIPMENT BASE LOCATION
 COMP.     BP Exploration (Caspian Sea) Ltd:  COMPANY
 WTYP.                Deviated:  WELL TYPE
 SON .        AZ-XX-0906344804:  JOB NUMBER
 FTOP.          Formation Tops:  FORM TOPS DESC
 ILTD.               Lithology:  INTERP LTH DESC
 SVYD.                  Survey:  SURVEY DESC
 DMOD.             Drill Model:  DRILL MOD DESC
 HPTY.       Minimum Curvature:  HOLE POS TYPE
 NREF.                    Grid:  NORTH REFERENCE
 SPUD.               01-Jan-20:  SPUD DATE
 DATE.      00.59.44 15-Sep-20:  END TIME
 STIM.      12.00.00 12-Jun-20:  START TIME
 DMF .             Drill Floor:  DRILL MEAS FROM
 DFST.                        :  DIST FSL TEXT
 DFWT.                        :  DIST FWL TEXT
 API .                        :  API NUMBER
 CNTY.                        :  COUNTY
 UWI .                        :  UNIQUE WELL IDENTIFIER
 LOC .                        :  LOCATION
 LMF .             Drill Floor:  LOG MEASURED FROM
 VSNS.m                   2.88:  VERT SEC N/S
 VSEW.m                  -3.84:  VERT SEC E/W
 AGAP.m                  43.42:  AIR GAP
 APD .m                  43.42:  DEPTH ABOVE PD
 WDMS.m                 118.27:  WD ELEV
 EGL .m                   0.00:  GROUND ELEVATION
 EPD .m                   0.00:  ELEVATION
 AZTC.deg                 6.23:  AZM TOTAL CORR
 GRDC.deg                 0.20:  GRID CORRECTION
 MDEC.deg                 6.43:  MAGNETIC DECL
 MDIP.deg                59.49:  MAGNETIC DIP
 MFLD.nT              50277.00:  MAGNETIC FIELD
 GVFD.g                   1.00:  GRAVITY FIELD
 VSDR.deg               173.20:  VERT SEC DIRECT
 TDD .m                5790.01:  TOTAL DEPTH (DRILLER)
 SDEP.m                5231.01:  START DEPTH
 DFSL.m                   0.00:  DISTANCE FSL
 DFWL.m                   0.00:  DISTANCE FWL
 UTMY.m             4435808.83:  UTM Y
 UTMX.m              526266.40:  UTM X
 WHEW.m                  -3.84:  WELL HEAD E/W
 WHNS.m                   2.88:  WELL HEAD N/S
 LONG.deg                51.31:  LONGITUDE
 LATI.deg                40.06:  LATITUDE
 TVDS.m                  43.42:  TVDSS CORRECTN
 DEP .m                 430.08:  DEPTH
 EKB .m                  43.42:  KB ELEVATION
 EDF .m                  43.42:  DF ELEVATION
 TDL .m                 559.00:  TOTAL DEPTH (LOGGER)
 MAGU.                 1849381:  MAGUTM CHECKSUM
 VSC .                       0:  VS TO CLOSURE
~Parameter Information Block
#MNEM.UNIT       Value        Description
#---------     -----------    ---------------------------
 AV  .mps                 4.87:  Ann Velocity 
 AVMX.mps                 7.08:  Max Ann Veloc 
 AZIF.deg               108.87:  Azm, Final 
 BHAT.                  Rotary:  BHA Type 
 BROT.°/30m               0.35:  Build Rotating 
 BS  .in                  8.50:  Bit Size 
 BSZ .in                  8.50:  Bit Size 
 BTPL.psig              360.00:  Bit Press Loss 
 CABU.                     Yes:  Customer Abuse 
 COMM.                     ÄìU:  Run Comments 1 
 TCS .hr                106.24:  Time Ciculation Ended 
 CV  .mps                 1.77:  Crit Velocity 
 CVMX.mps                 2.03:  Max Crit Veloc 
 DD1 .         Aykhan Agagulov:  Direct Drillr 1 
 DD2 .            Nonso Okofor:  Direct Drillr 2 
 DDSV.               Geo-Pilot:  DD Service 
 DEFF.%                  98.00:  % Det Eff 
 DLRX.°/30m               0.50:  Dogleg Rot Max 
 DLSO.°/30m               0.40:  Dogleg Oriented 
 DLSX.°/30m               0.94:  Dogleg Str Max 
 DRET.      20.30.00 08-Sep-20:  Drill End Time 
 DRST.      22.15.00 06-Sep-20:  Drill Start Tim 
 DTIM.hr                 31.31:  Time Drilling 
 EDEP.m                5790.01:  End Depth 
 ENG1.           Amrah Tahirov:  Engineer 1 
 ENG2.         Dair Mahammadov:  Engineer 2 
 ENG3.           Emil Huseynov:  Engineer 3 
 ETIM.      04.01.04 12-Sep-20:  End Time 
 FLOI.gpm               450.00:  Flow In 
 FLON.gpm               450.00:  Flow In Min 
 FLOS.cptm                2.00:  Fluid Loss 
 FLOX.gpm               450.00:  Flow In Max 
 FTRO.       Formation Presure:  FTWD Run Obj 
 HFLO.                      No:  High Flow 
 HPRE.                      No:  High Pressure 
 HTEM.                      No:  High Temp 
 HYDO.m                   1.80:  Hydro Offset 
 IFIN.deg                72.03:  Inc, Final 
 IMAX.deg                73.72:  Inc Max 
 IMIN.deg                70.94:  Inc Min 
 IMND.m                5508.52:  Inc Min Depth 
 IMXD.m                5253.60:  Inc Max Depth 
 JARR.                      No:  Jarring 
 LETM.      20.30.00 08-Sep-20:  Log End Time 
 LOST.hr                     0:  Lost Rig Time 
 LSTM.      22.15.00 06-Sep-20:  Log Start Time 
 MDCL.ppm             36000.00:  Mud Chlorides 
 MDES.     Inversion Oil/Synthetic:  Mud Desc 
 DFD .sg                  1.44:  Mud Density 
 MDMN.sg                  1.44:  Dens Mud Min 
 MDMX.sg                  1.57:  Dens Mud Max 
 MOIL.                      70:  Run Mud Oil % 
 MOWR.                   70:30:  Run Mud OWR 
 MSND.                       0:  Run Mud Sand % 
 MSOL.                      21:  Run Mud Solids% 
 DFV .spqt               68.00:  Mud Viscosity 
 MWOD.in                  6.75:  MWD Tool OD 
 MWSI.                     Yes:  Serv Intrp, MWD 
 OTIM.hr                174.84:  Time Operating 
 PCON.           Look Like New:  Pad Condition 
 PMAX.psia            10616.93:  Press Op, Max 
 PV  .cP                 50.00:  Mud PV 
 RUN .                     700:  Run Number 
 ROPA.m/hr               14.24:  ROP Avg 
 ROPN.m/hr               10.00:  ROP Min 
 ROPX.m/hr               32.00:  ROP Max 
 RPMA.rpm               120.90:  RPM Surface Avg 
 RPMN.rpm               120.00:  RPM Surface Min 
 RPMX.rpm               140.00:  RPM Surface Max 
 RRUN.                    0700:  Rig Run Number 
 RTIM.hr                  3.20:  Time Reaming 
 SAZI.deg               109.99:  Azm, Start 
 SDEP.m                5231.01:  Start Depth 
 SIDD.                      No:  Serv Intrp, DD 
 SINC.deg                73.72:  Inc, Start 
 SPPA.psig             3051.00:  SPP Avg 
 SPPN.psig             2950.00:  SPP Min 
 SPPX.psig             3250.00:  SPP Max 
 STIM.      08.00.00 05-Sep-20:  Start Time 
 SVCS.                 DD, MWD:  Services 
 SVER.                    9.20:  Sperry Version 
 TDAT.m                 559.00:  Tot Depth Attmp 
 TDDF.                      No:  Trip for DD 
 TDLG.m                 559.00:  Tot Depth Loggd 
 TFF .                      No:  Trip for Fail 
 TQAA.f-kp               26.49:  Torque Abs Avg 
 TQAN.f-kp               25.00:  Torque Abs Min 
 TQAX.f-kp               27.00:  Torque Abs Max 
 TRRT.°/30m               1.50:  Turn Rotating 
 MRT .                    HCIM:  Maximum Recorded Temperature 
 TTMX.degC               90.20:  Max Tool Temp 
 VS01.                90542671:  Virtual Str1 SN 
 VS02.                90545185:  Virtual Str2 SN 
 VS03.                90602015:  Virtual Str3 SN 
 VS04.                90515230:  Virtual Str4 SN 
 WBMN.klb                 5.00:  WOB Min 
 WOBA.klb                14.79:  WOB Avg 
 WOBX.klb                20.00:  WOB Max 
 YP  .lhf2               29.00:  Yield Point 
~Curve Information Block
#MNEM.UNIT                 API CODE     Curve Description
#---------               -----------    ---------------------------
 TIME.HHMMSS            00 000 000 000:  GT Time & Date
 GTDEPTH.m              00 000 000 000:  GT Depth
 GTPQH.psia             00 000 000 000:  GT HR Quartz Pressure
 GTTQ.degC              00 000 000 000:  GT Quartz Temperature
 GTTN.NONE              00 000 000 000:  GT Test Number
 GTET.sec               00 000 000 000:  GT Elapsed Test Time
 GTTVD.m                00 000 000 000:  GT True Vertical Depth
#Other Information
#
#WARRANTY: Halliburton will use its best efforts to furnish customers with 
#accurate information and interpretations that are part of, and incident to, the services 
#provided.  However, Halliburton cannot and does not warrant the accuracy 
#or correctness of such information and interpretations.  Under no circumstances should any 
#such information or interpretation be relied upon as the sole basis for any drilling, 
#completion, production, or financial decision or any procedure involving any risk to the 
#safety of any drilling venture, drilling rig or its crew or any other third party.  The 
#Customer has full responsibility for all drilling, completion and production operation.  
#Halliburton makes no representations or warranties, either expressed or 
#implied, including, but not limited to, the implied warranties of merchantability or fitness 
#for a particular purpose, with respect to the services rendered.  In no event will 
#Halliburton be liable for failure to obtain any particular results or for 
#any damages, including, but not limited to, indirect, special or consequential damages, 
#resulting from the use of any information or interpretation provided by Halliburton.
#
~A           TIME           GTDEPTH  GTPQH  GTTQ  GTTN   GTET   GTTVD  
# ...
   20:27:20.611.09-Sep-2020 5252.51  494.11 74.01 25.00 406.99 2542.44
   20:27:20.811.09-Sep-2020 5252.51  494.24 74.01 25.00 407.19 2542.44
   20:27:21.011.09-Sep-2020 5252.51  494.24 74.01 25.00 407.39 2542.44
   20:27:21.211.09-Sep-2020 5252.51  494.27 74.01 25.00 407.59 2542.44
   20:27:21.411.09-Sep-2020 5252.51  494.24 74.01 25.00 407.79 2542.44
   20:27:21.611.09-Sep-2020 5252.51  494.23 74.01 25.00 407.99 2542.44
   20:27:21.811.09-Sep-2020 5252.51  494.25 74.01 25.00 408.19 2542.44
   20:27:22.011.09-Sep-2020 5252.51  494.25 74.01 25.00 408.39 2542.44
   20:27:22.211.09-Sep-2020 5252.51  494.36 74.01 25.00 408.59 2542.44
   20:27:22.411.09-Sep-2020 5252.51  494.41 74.01 25.00 408.79 2542.44
   20:27:22.612.09-Sep-2020 5252.51  494.43 74.01 25.00 408.99 2542.44
   20:27:22.812.09-Sep-2020 5252.51  494.44 74.01 25.00 409.19 2542.44
   20:27:23.012.09-Sep-2020 5252.51  494.48 74.01 25.00 409.39 2542.44
   20:27:23.212.09-Sep-2020 5252.51  494.52 74.01 25.00 409.59 2542.44
   20:27:23.412.09-Sep-2020 5252.51  494.21 74.01 25.00 409.79 2542.44
   20:27:23.612.09-Sep-2020 5252.51  494.17 74.01 25.00 409.99 2542.44
   20:27:23.812.09-Sep-2020 5252.51  494.63 74.01 25.00 410.19 2542.44
   20:27:24.012.09-Sep-2020 5252.51  494.63 74.01 25.00 410.39 2542.44
   20:27:24.212.09-Sep-2020 5252.51  494.66 74.01 25.00 410.59 2542.44
   20:27:24.412.09-Sep-2020 5252.51  494.80 74.01 25.00 410.79 2542.44
   20:27:24.613.09-Sep-2020 5252.51  494.69 74.01 25.00 410.99 2542.44
   20:27:24.813.09-Sep-2020 5252.51  494.73 74.01 25.00 411.19 2542.44
   20:27:25.013.09-Sep-2020 5252.51  494.73 74.01 25.00 411.39 2542.44
   20:27:25.213.09-Sep-2020 5252.51  494.76 74.01 25.00 411.59 2542.44
   20:27:25.413.09-Sep-2020 5252.51  494.82 74.01 25.00 411.79 2542.44
   20:27:25.613.09-Sep-2020 5252.51  494.89 74.01 25.00 411.99 2542.44
   20:27:25.813.09-Sep-2020 5252.51  494.89 74.01 25.00 412.19 2542.44
   20:27:26.013.09-Sep-2020 5252.51  494.87 74.01 25.00 412.39 2542.44
   20:27:26.213.09-Sep-2020 5252.51  494.90 74.01 25.00 412.59 2542.44
   20:27:26.413.09-Sep-2020 5252.51  494.93 74.01 25.00 412.79 2542.44
   20:27:26.613.09-Sep-2020 5252.51  494.98 74.01 25.00 412.99 2542.44
   20:27:26.814.09-Sep-2020 5252.51  494.47 74.01 25.00 413.19 2542.44
   20:27:27.014.09-Sep-2020 5252.51  494.94 74.01 25.00 413.39 2542.44
   20:27:27.214.09-Sep-2020 5252.51  495.12 74.01 25.00 413.59 2542.44
   20:27:27.414.09-Sep-2020 5252.51  495.04 74.01 25.00 413.79 2542.44
   20:27:27.614.09-Sep-2020 5252.51  495.21 74.01 25.00 413.99 2542.44
   20:27:27.814.09-Sep-2020 5252.51  494.80 74.01 25.00 414.19 2542.44
   20:27:28.014.09-Sep-2020 5252.51  494.87 74.01 25.00 414.39 2542.44
   20:27:28.214.09-Sep-2020 5252.51  495.31 74.01 25.00 414.59 2542.44
   20:27:28.414.09-Sep-2020 5252.51  495.36 74.01 25.00 414.79 2542.44
   20:27:28.614.09-Sep-2020 5252.51  495.26 74.01 25.00 414.99 2542.44
   20:27:28.814.09-Sep-2020 5252.51  495.45 74.01 25.00 415.19 2542.44
   20:27:29.015.09-Sep-2020 5252.51  495.45 74.01 25.00 415.39 2542.44
   20:27:29.215.09-Sep-2020 5252.51  495.50 74.01 25.00 415.59 2542.44
   20:27:29.415.09-Sep-2020 5252.51  495.65 74.01 25.00 415.79 2542.44
   20:27:29.615.09-Sep-2020 5252.51  495.66 74.01 25.00 415.99 2542.44
   20:27:29.815.09-Sep-2020 5252.51  495.40 74.01 25.00 416.19 2542.44
   20:27:30.015.09-Sep-2020 5252.51  495.07 74.01 25.00 416.39 2542.44
   20:27:30.215.09-Sep-2020 5252.51  495.07 74.01 25.00 416.59 2542.44
   20:27:30.415.09-Sep-2020 5252.51  495.07 74.01 25.00 416.79 2542.44
   20:27:30.615.09-Sep-2020 5252.51  495.91 74.01 25.00 416.99 2542.44
   20:27:30.815.09-Sep-2020 5252.51  495.21 74.01 25.00 417.19 2542.44
   20:27:31.015.09-Sep-2020 5252.51  495.82 74.01 25.00 417.39 2542.44
   20:27:31.216.09-Sep-2020 5252.51  495.92 74.01 25.00 417.59 2542.44
   20:27:31.416.09-Sep-2020 5252.51  495.90 74.01 25.00 417.79 2542.44
   20:27:31.616.09-Sep-2020 5252.51  496.04 74.01 25.00 417.99 2542.44
   20:27:31.816.09-Sep-2020 5252.51  496.00 74.01 25.00 418.19 2542.44
   20:27:32.016.09-Sep-2020 5252.51  496.00 74.01 25.00 418.39 2542.44
   20:27:32.216.09-Sep-2020 5252.51  496.05 74.01 25.00 418.59 2542.44
   20:27:32.416.09-Sep-2020 5252.51  496.08 74.01 25.00 418.79 2542.44
   20:27:32.616.09-Sep-2020 5252.51  496.05 74.01 25.00 418.99 2542.44
   20:27:32.816.09-Sep-2020 5252.51  496.14 74.01 25.00 419.19 2542.44
   20:27:33.016.09-Sep-2020 5252.51  496.14 74.01 25.00 419.39 2542.44
   20:27:33.216.09-Sep-2020 5252.51  496.21 74.01 25.00 419.59 2542.44
   20:27:33.417.09-Sep-2020 5252.51  496.23 74.01 25.00 419.79 2542.44
   20:27:33.617.09-Sep-2020 5252.51  496.27 74.01 25.00 419.99 2542.44
   20:27:33.817.09-Sep-2020 5252.51  496.29 74.01 25.00 420.19 2542.44
   20:27:34.017.09-Sep-2020 5252.51  496.31 74.01 25.00 420.39 2542.44
   20:27:34.217.09-Sep-2020 5252.51  496.35 74.01 25.00 420.59 2542.44
   20:27:34.417.09-Sep-2020 5252.51  495.82 74.01 25.00 420.79 2542.44
   20:27:34.617.09-Sep-2020 5252.51  496.30 74.01 25.00 420.99 2542.44
   20:27:34.817.09-Sep-2020 5252.51  496.49 74.01 25.00 421.19 2542.44
   20:27:35.017.09-Sep-2020 5252.51  496.46 74.01 25.00 421.39 2542.44
   20:27:35.217.09-Sep-2020 5252.51  496.66 74.01 25.00 421.59 2542.44
   20:27:35.417.09-Sep-2020 5252.51  496.55 74.01 25.00 421.79 2542.44
   20:27:35.618.09-Sep-2020 5252.51  496.61 74.01 25.00 421.99 2542.44
   20:27:35.818.09-Sep-2020 5252.51  496.58 74.01 25.00 422.19 2542.44
   20:27:36.018.09-Sep-2020 5252.51  496.64 74.01 25.00 422.39 2542.44
   20:27:36.218.09-Sep-2020 5252.51  496.67 74.01 25.00 422.59 2542.44
   20:27:36.418.09-Sep-2020 5252.51  496.73 74.01 25.00 422.79 2542.44
   20:27:36.618.09-Sep-2020 5252.51  496.74 74.01 25.00 422.99 2542.44
   20:27:36.818.09-Sep-2020 5252.51  496.71 74.01 25.00 423.20 2542.44
   20:27:37.018.09-Sep-2020 5252.51  496.74 74.01 25.00 423.40 2542.44
   20:27:37.218.09-Sep-2020 5252.51  496.77 74.01 25.00 423.60 2542.44
   20:27:37.418.09-Sep-2020 5252.51  496.83 74.01 25.00 423.80 2542.44
   20:27:37.618.09-Sep-2020 5252.51  496.02 74.01 25.00 424.00 2542.44
   20:27:37.819.09-Sep-2020 5252.51  497.06 74.01 25.00 424.20 2542.44
   20:27:38.019.09-Sep-2020 5252.51  496.95 74.01 25.00 424.40 2542.44
   20:27:38.219.09-Sep-2020 5252.51  496.86 74.01 25.00 424.60 2542.44
   20:27:38.419.09-Sep-2020 5252.51  496.89 74.01 25.00 424.80 2542.44
   20:27:38.619.09-Sep-2020 5252.51  497.09 74.01 25.00 425.00 2542.44
   20:27:38.819.09-Sep-2020 5252.51  496.55 74.01 25.00 425.20 2542.44
   20:27:39.019.09-Sep-2020 5252.51  496.98 74.01 25.00 425.40 2542.44
   20:27:39.219.09-Sep-2020 5252.51  497.20 74.01 25.00 425.60 2542.44
   20:27:39.419.09-Sep-2020 5252.51  497.08 74.01 25.00 425.80 2542.44
   20:27:39.619.09-Sep-2020 5252.51  497.25 74.01 25.00 426.00 2542.44
   20:27:39.820.09-Sep-2020 5252.51  497.16 74.01 25.00 426.20 2542.44
   20:27:40.020.09-Sep-2020 5252.51  497.29 74.01 25.00 426.40 2542.44
   20:27:40.220.09-Sep-2020 5252.51  496.99 74.01 25.00 426.60 2542.44
   20:27:40.420.09-Sep-2020 5252.51  496.92 74.01 25.00 426.80 2542.44
   20:27:40.620.09-Sep-2020 5252.51  497.31 74.01 25.00 427.00 2542.44
   20:27:40.820.09-Sep-2020 5252.51  497.34 74.01 25.00 427.20 2542.44
   20:27:41.020.09-Sep-2020 5252.51  497.34 74.01 25.00 427.40 2542.44
   20:27:41.220.09-Sep-2020 5252.51  497.52 74.01 25.00 427.60 2542.44
   20:27:41.420.09-Sep-2020 5252.51  497.42 74.01 25.00 427.80 2542.44
   20:27:41.620.09-Sep-2020 5252.51  496.62 74.01 25.00 428.00 2542.44
   20:27:41.820.09-Sep-2020 5252.51  497.73 74.01 25.00 428.20 2542.44
   20:27:42.021.09-Sep-2020 5252.51  497.55 74.01 25.00 428.40 2542.44
   20:27:42.221.09-Sep-2020 5252.51  497.56 74.01 25.00 428.60 2542.44
   20:27:42.421.09-Sep-2020 5252.51  496.65 74.01 25.00 428.80 2542.44
   20:27:42.621.09-Sep-2020 5252.51  497.99 74.01 25.00 429.00 2542.44
   20:27:42.821.09-Sep-2020 5252.51  497.72 74.01 25.00 429.20 2542.44
   20:27:43.021.09-Sep-2020 5252.51  497.72 74.01 25.00 429.40 2542.44
