~Version Information
 VERS.                  2.0:   CWLS log ASCII Standard -VERSION 2.0
 WRAP.                   NO:   One line per depth step
~Well Information Block
#MNEM.UNIT     VALUE/NAME     DESCRIPTION
#---------     -----------    ---------------------------
 STRT.S             18:49:58 09-Sep-20: START TIME 18:49:58 09-Sep-20
 STOP.S             18:58:03 09-Sep-20: STOP TIME  18:58:03 09-Sep-20
 STEP.S                   0.00: STEP TIME
 NULL.                 -999.25: NULL VALUE
 MDS .        Operator Entered:  MAG DATA SOURCE
 PDAT.          Mean Sea Level:  PERMANENT DATUM
 DCON.         Sperry Drilling:  DIRECTNL CONTR
 RIG .              West Azeri:  RIG NAME
 WELL.           C40 (Slot 20):  WELL NAME
 SRVC.     Turan Drilling Engineering:  CONTRACTOR
 FLD .                     ACG:  FIELD NAME
 CTRY.              Azerbaijan:  COUNTRY NAME
 PROV.                    Baku:  PROVINCE
 STAT.                    Baku:  STATE NAME
 REGN.                   EESSA:  REGION
 BASE.              Azerbaijan:  LOGGING EQUIPMENT BASE LOCATION
 COMP.     BP Exploration (Caspian Sea) Ltd:  COMPANY
 WTYP.                Deviated:  WELL TYPE
 SON .        AZ-XX-0906344804:  JOB NUMBER
 FTOP.          Formation Tops:  FORM TOPS DESC
 ILTD.               Lithology:  INTERP LTH DESC
 SVYD.                  Survey:  SURVEY DESC
 DMOD.             Drill Model:  DRILL MOD DESC
 HPTY.       Minimum Curvature:  HOLE POS TYPE
 NREF.                    Grid:  NORTH REFERENCE
 SPUD.               01-Jan-20:  SPUD DATE
 DATE.      00.59.44 15-Sep-20:  END TIME
 STIM.      12.00.00 12-Jun-20:  START TIME
 DMF .             Drill Floor:  DRILL MEAS FROM
 DFST.                        :  DIST FSL TEXT
 DFWT.                        :  DIST FWL TEXT
 API .                        :  API NUMBER
 CNTY.                        :  COUNTY
 UWI .                        :  UNIQUE WELL IDENTIFIER
 LOC .                        :  LOCATION
 LMF .             Drill Floor:  LOG MEASURED FROM
 VSNS.m                   2.88:  VERT SEC N/S
 VSEW.m                  -3.84:  VERT SEC E/W
 AGAP.m                  43.42:  AIR GAP
 APD .m                  43.42:  DEPTH ABOVE PD
 WDMS.m                 118.27:  WD ELEV
 EGL .m                   0.00:  GROUND ELEVATION
 EPD .m                   0.00:  ELEVATION
 AZTC.deg                 6.23:  AZM TOTAL CORR
 GRDC.deg                 0.20:  GRID CORRECTION
 MDEC.deg                 6.43:  MAGNETIC DECL
 MDIP.deg                59.49:  MAGNETIC DIP
 MFLD.nT              50277.00:  MAGNETIC FIELD
 GVFD.g                   1.00:  GRAVITY FIELD
 VSDR.deg               173.20:  VERT SEC DIRECT
 TDD .m                5790.01:  TOTAL DEPTH (DRILLER)
 SDEP.m                5231.01:  START DEPTH
 DFSL.m                   0.00:  DISTANCE FSL
 DFWL.m                   0.00:  DISTANCE FWL
 UTMY.m             4435808.83:  UTM Y
 UTMX.m              526266.40:  UTM X
 WHEW.m                  -3.84:  WELL HEAD E/W
 WHNS.m                   2.88:  WELL HEAD N/S
 LONG.deg                51.31:  LONGITUDE
 LATI.deg                40.06:  LATITUDE
 TVDS.m                  43.42:  TVDSS CORRECTN
 DEP .m                 430.08:  DEPTH
 EKB .m                  43.42:  KB ELEVATION
 EDF .m                  43.42:  DF ELEVATION
 TDL .m                 559.00:  TOTAL DEPTH (LOGGER)
 MAGU.                 1849381:  MAGUTM CHECKSUM
 VSC .                       0:  VS TO CLOSURE
~Parameter Information Block
#MNEM.UNIT       Value        Description
#---------     -----------    ---------------------------
 AV  .mps                 4.87:  Ann Velocity 
 AVMX.mps                 7.08:  Max Ann Veloc 
 AZIF.deg               108.87:  Azm, Final 
 BHAT.                  Rotary:  BHA Type 
 BROT.°/30m               0.35:  Build Rotating 
 BS  .in                  8.50:  Bit Size 
 BSZ .in                  8.50:  Bit Size 
 BTPL.psig              360.00:  Bit Press Loss 
 CABU.                     Yes:  Customer Abuse 
 COMM.                     „T:  Run Comments 1 
 TCS .hr                106.24:  Time Ciculation Ended 
 CV  .mps                 1.77:  Crit Velocity 
 CVMX.mps                 2.03:  Max Crit Veloc 
 DD1 .         Aykhan Agagulov:  Direct Drillr 1 
 DD2 .            Nonso Okofor:  Direct Drillr 2 
 DDSV.               Geo-Pilot:  DD Service 
 DEFF.%                  98.00:  % Det Eff 
 DLRX.°/30m               0.50:  Dogleg Rot Max 
 DLSO.°/30m               0.40:  Dogleg Oriented 
 DLSX.°/30m               0.94:  Dogleg Str Max 
 DRET.      20.30.00 08-Sep-20:  Drill End Time 
 DRST.      22.15.00 06-Sep-20:  Drill Start Tim 
 DTIM.hr                 31.31:  Time Drilling 
 EDEP.m                5790.01:  End Depth 
 ENG1.           Amrah Tahirov:  Engineer 1 
 ENG2.         Dair Mahammadov:  Engineer 2 
 ENG3.           Emil Huseynov:  Engineer 3 
 ETIM.      04.01.04 12-Sep-20:  End Time 
 FLOI.gpm               450.00:  Flow In 
 FLON.gpm               450.00:  Flow In Min 
 FLOS.cptm                2.00:  Fluid Loss 
 FLOX.gpm               450.00:  Flow In Max 
 FTRO.       Formation Presure:  FTWD Run Obj 
 HFLO.                      No:  High Flow 
 HPRE.                      No:  High Pressure 
 HTEM.                      No:  High Temp 
 HYDO.m                   1.80:  Hydro Offset 
 IFIN.deg                72.03:  Inc, Final 
 IMAX.deg                73.72:  Inc Max 
 IMIN.deg                70.94:  Inc Min 
 IMND.m                5508.52:  Inc Min Depth 
 IMXD.m                5253.60:  Inc Max Depth 
 JARR.                      No:  Jarring 
 LETM.      20.30.00 08-Sep-20:  Log End Time 
 LOST.hr                     0:  Lost Rig Time 
 LSTM.      22.15.00 06-Sep-20:  Log Start Time 
 MDCL.ppm             36000.00:  Mud Chlorides 
 MDES.     Inversion Oil/Synthetic:  Mud Desc 
 DFD .sg                  1.44:  Mud Density 
 MDMN.sg                  1.44:  Dens Mud Min 
 MDMX.sg                  1.57:  Dens Mud Max 
 MOIL.                      70:  Run Mud Oil % 
 MOWR.                   70:30:  Run Mud OWR 
 MSND.                       0:  Run Mud Sand % 
 MSOL.                      21:  Run Mud Solids% 
 DFV .spqt               68.00:  Mud Viscosity 
 MWOD.in                  6.75:  MWD Tool OD 
 MWSI.                     Yes:  Serv Intrp, MWD 
 OTIM.hr                174.84:  Time Operating 
 PCON.           Look Like New:  Pad Condition 
 PMAX.psia            10616.93:  Press Op, Max 
 PV  .cP                 50.00:  Mud PV 
 RUN .                     700:  Run Number 
 ROPA.m/hr               14.24:  ROP Avg 
 ROPN.m/hr               10.00:  ROP Min 
 ROPX.m/hr               32.00:  ROP Max 
 RPMA.rpm               120.90:  RPM Surface Avg 
 RPMN.rpm               120.00:  RPM Surface Min 
 RPMX.rpm               140.00:  RPM Surface Max 
 RRUN.                    0700:  Rig Run Number 
 RTIM.hr                  3.20:  Time Reaming 
 SAZI.deg               109.99:  Azm, Start 
 SDEP.m                5231.01:  Start Depth 
 SIDD.                      No:  Serv Intrp, DD 
 SINC.deg                73.72:  Inc, Start 
 SPPA.psig             3051.00:  SPP Avg 
 SPPN.psig             2950.00:  SPP Min 
 SPPX.psig             3250.00:  SPP Max 
 STIM.      08.00.00 05-Sep-20:  Start Time 
 SVCS.                 DD, MWD:  Services 
 SVER.                    9.20:  Sperry Version 
 TDAT.m                 559.00:  Tot Depth Attmp 
 TDDF.                      No:  Trip for DD 
 TDLG.m                 559.00:  Tot Depth Loggd 
 TFF .                      No:  Trip for Fail 
 TQAA.f-kp               26.49:  Torque Abs Avg 
 TQAN.f-kp               25.00:  Torque Abs Min 
 TQAX.f-kp               27.00:  Torque Abs Max 
 TRRT.°/30m               1.50:  Turn Rotating 
 MRT .                    HCIM:  Maximum Recorded Temperature 
 TTMX.degC               90.20:  Max Tool Temp 
 VS01.                90542671:  Virtual Str1 SN 
 VS02.                90545185:  Virtual Str2 SN 
 VS03.                90602015:  Virtual Str3 SN 
 VS04.                90515230:  Virtual Str4 SN 
 WBMN.klb                 5.00:  WOB Min 
 WOBA.klb                14.79:  WOB Avg 
 WOBX.klb                20.00:  WOB Max 
 YP  .lhf2               29.00:  Yield Point 
~Curve Information Block
#MNEM.UNIT                 API CODE     Curve Description
#---------               -----------    ---------------------------
 TIME.HHMMSS            00 000 000 000:  GT Time & Date
 GTDEPTH.m              00 000 000 000:  GT Depth
 GTPQH.psia             00 000 000 000:  GT HR Quartz Pressure
 GTTQ.degC              00 000 000 000:  GT Quartz Temperature
 GTTN.NONE              00 000 000 000:  GT Test Number
 GTET.sec               00 000 000 000:  GT Elapsed Test Time
 GTTVD.m                00 000 000 000:  GT True Vertical Depth
#Other Information
#
#WARRANTY: Halliburton will use its best efforts to furnish customers with 
#accurate information and interpretations that are part of, and incident to, the services 
#provided.  However, Halliburton cannot and does not warrant the accuracy 
#or correctness of such information and interpretations.  Under no circumstances should any 
#such information or interpretation be relied upon as the sole basis for any drilling, 
#completion, production, or financial decision or any procedure involving any risk to the 
#safety of any drilling venture, drilling rig or its crew or any other third party.  The 
#Customer has full responsibility for all drilling, completion and production operation.  
#Halliburton makes no representations or warranties, either expressed or 
#implied, including, but not limited to, the implied warranties of merchantability or fitness 
#for a particular purpose, with respect to the services rendered.  In no event will 
#Halliburton be liable for failure to obtain any particular results or for 
#any damages, including, but not limited to, indirect, special or consequential damages, 
#resulting from the use of any information or interpretation provided by Halliburton.
#
~A           TIME           GTDEPTH  GTPQH  GTTQ  GTTN   GTET   GTTVD  
   18:49:58.500.09-Sep-2020 5280.51 6159.84 74.41 22.00   0.00 2550.44
   18:49:58.700.09-Sep-2020 5280.51 6159.84 74.41 22.00   0.20 2550.44
   18:49:58.899.09-Sep-2020 5280.51 6161.41 74.41 22.00   0.40 2550.44
   18:49:59.099.09-Sep-2020 5280.51 6161.80 74.41 22.00   0.60 2550.44
   18:49:59.299.09-Sep-2020 5280.51 6162.51 74.41 22.00   0.80 2550.44
   18:49:59.499.09-Sep-2020 5280.51 6162.51 74.41 22.00   1.00 2550.44
   18:49:59.699.09-Sep-2020 5280.51 6162.51 74.41 22.00   1.20 2550.44
   18:49:59.899.09-Sep-2020 5280.51 6164.49 74.41 22.00   1.40 2550.44
   18:50:00.099.09-Sep-2020 5280.51 6164.99 74.41 22.00   1.60 2550.44
   18:50:00.298.09-Sep-2020 5280.51 6165.39 74.41 22.00   1.80 2550.44
   18:50:00.498.09-Sep-2020 5280.51 6165.68 74.41 22.00   2.00 2550.44
   18:50:00.698.09-Sep-2020 5280.51 6165.95 74.41 22.00   2.20 2550.44
   18:50:00.898.09-Sep-2020 5280.51 6166.10 74.41 22.00   2.40 2550.44
   18:50:01.098.09-Sep-2020 5280.51 6166.10 74.41 22.00   2.60 2550.44
   18:50:01.298.09-Sep-2020 5280.51 6172.93 74.41 22.00   2.80 2550.44
   18:50:01.497.09-Sep-2020 5280.51 6164.94 74.41 22.00   3.00 2550.44
   18:50:01.697.09-Sep-2020 5280.51 6164.94 74.41 22.00   3.20 2550.44
   18:50:01.897.09-Sep-2020 5280.51 6165.13 74.41 22.00   3.40 2550.44
   18:50:02.097.09-Sep-2020 5280.51 6163.72 74.41 22.00   3.60 2550.44
   18:50:02.297.09-Sep-2020 5280.51 6164.47 74.41 22.00   3.80 2550.44
   18:50:02.497.09-Sep-2020 5280.51 6163.42 74.41 22.00   4.00 2550.44
   18:50:02.697.09-Sep-2020 5280.51 6163.42 74.41 22.00   4.20 2550.44
   18:50:02.896.09-Sep-2020 5280.51 6162.97 74.41 22.00   4.40 2550.44
   18:50:03.096.09-Sep-2020 5280.51 6163.25 74.41 22.00   4.60 2550.44
   18:50:03.296.09-Sep-2020 5280.51 6163.27 74.41 22.00   4.80 2550.44
   18:50:03.496.09-Sep-2020 5280.51 6163.37 74.40 22.00   5.00 2550.44
   18:50:03.696.09-Sep-2020 5280.51 6163.37 74.40 22.00   5.20 2550.44
   18:50:03.896.09-Sep-2020 5280.51 6173.51 74.40 22.00   5.40 2550.44
   18:50:04.095.09-Sep-2020 5280.51 6162.85 74.40 22.00   5.60 2550.44
   18:50:04.295.09-Sep-2020 5280.51 6167.55 74.40 22.00   5.80 2550.44
   18:50:04.495.09-Sep-2020 5280.51 6168.32 74.40 22.00   6.00 2550.44
   18:50:04.695.09-Sep-2020 5280.51 6177.08 74.40 22.00   6.20 2550.44
   18:50:04.895.09-Sep-2020 5280.51 6166.66 74.40 22.00   6.39 2550.44
   18:50:05.095.09-Sep-2020 5280.51 6171.15 74.40 22.00   6.59 2550.44
   18:50:05.294.09-Sep-2020 5280.51 6170.92 74.40 22.00   6.79 2550.44
   18:50:05.494.09-Sep-2020 5280.51 6170.75 74.40 22.00   6.99 2550.44
   18:50:05.694.09-Sep-2020 5280.51 6170.75 74.40 22.00   7.19 2550.44
   18:50:05.894.09-Sep-2020 5280.51 6180.46 74.40 22.00   7.39 2550.44
   18:50:06.094.09-Sep-2020 5280.51 6172.50 74.40 22.00   7.59 2550.44
   18:50:06.294.09-Sep-2020 5280.51 6171.93 74.40 22.00   7.79 2550.44
   18:50:06.494.09-Sep-2020 5280.51 6174.18 74.40 22.00   7.99 2550.44
   18:50:06.693.09-Sep-2020 5280.51 6174.18 74.40 22.00   8.19 2550.44
   18:50:06.893.09-Sep-2020 5280.51 6174.51 74.40 22.00   8.39 2550.44
   18:50:07.093.09-Sep-2020 5280.51 6174.31 74.40 22.00   8.59 2550.44
   18:50:07.293.09-Sep-2020 5280.51 6176.85 74.40 22.00   8.79 2550.44
   18:50:07.493.09-Sep-2020 5280.51 6180.64 74.40 22.00   8.99 2550.44
   18:50:07.693.09-Sep-2020 5280.51 6180.64 74.40 22.00   9.19 2550.44
   18:50:07.892.09-Sep-2020 5280.51 6180.64 74.40 22.00   9.39 2550.44
   18:50:08.092.09-Sep-2020 5280.51 6175.60 74.40 22.00   9.59 2550.44
   18:50:08.292.09-Sep-2020 5280.51 6184.41 74.40 22.00   9.79 2550.44
   18:50:08.492.09-Sep-2020 5280.51 6174.67 74.40 22.00   9.99 2550.44
   18:50:08.692.09-Sep-2020 5280.51 6174.67 74.40 22.00  10.19 2550.44
   18:50:08.892.09-Sep-2020 5280.51 6177.39 74.40 22.00  10.39 2550.44
   18:50:09.091.09-Sep-2020 5280.51 6178.44 74.40 22.00  10.59 2550.44
   18:50:09.291.09-Sep-2020 5280.51 6185.94 74.40 22.00  10.79 2550.44
   18:50:09.491.09-Sep-2020 5280.51 6180.24 74.40 22.00  10.99 2550.44
   18:50:09.691.09-Sep-2020 5280.51 6180.24 74.40 22.00  11.19 2550.44
   18:50:09.891.09-Sep-2020 5280.51 6180.98 74.40 22.00  11.39 2550.44
   18:50:10.091.09-Sep-2020 5280.51 6180.49 74.40 22.00  11.59 2550.44
   18:50:10.291.09-Sep-2020 5280.51 6182.19 74.40 22.00  11.79 2550.44
   18:50:10.490.09-Sep-2020 5280.51 6181.80 74.40 22.00  11.99 2550.44
   18:50:10.690.09-Sep-2020 5280.51 6181.80 74.40 22.00  12.19 2550.44
   18:50:10.890.09-Sep-2020 5280.51 6190.38 74.40 22.00  12.39 2550.44
   18:50:11.090.09-Sep-2020 5280.51 6181.22 74.40 22.00  12.59 2550.44
   18:50:11.290.09-Sep-2020 5280.51 6184.16 74.40 22.00  12.79 2550.44
   18:50:11.490.09-Sep-2020 5280.51 6182.78 74.40 22.00  12.99 2550.44
   18:50:11.689.09-Sep-2020 5280.51 6182.78 74.40 22.00  13.19 2550.44
   18:50:11.889.09-Sep-2020 5280.51 6181.94 74.40 22.00  13.39 2550.44
   18:50:12.089.09-Sep-2020 5280.51 6186.28 74.40 22.00  13.59 2550.44
   18:50:12.289.09-Sep-2020 5280.51 6184.48 74.40 22.00  13.79 2550.44
   18:50:12.489.09-Sep-2020 5280.51 6185.35 74.40 22.00  13.99 2550.44
   18:50:12.689.09-Sep-2020 5280.51 6185.56 74.40 22.00  14.19 2550.44
   18:50:12.889.09-Sep-2020 5280.51 6186.82 74.40 22.00  14.39 2550.44
   18:50:13.088.09-Sep-2020 5280.51 6195.11 74.40 22.00  14.59 2550.44
   18:50:13.288.09-Sep-2020 5280.51 6183.99 74.40 22.00  14.79 2550.44
   18:50:13.488.09-Sep-2020 5280.51 6188.40 74.40 22.00  14.99 2550.44
   18:50:13.688.09-Sep-2020 5280.51 6188.40 74.40 22.00  15.19 2550.44
   18:50:13.888.09-Sep-2020 5280.51 6187.52 74.40 22.00  15.39 2550.44
   18:50:14.088.09-Sep-2020 5280.51 6188.63 74.40 22.00  15.59 2550.44
   18:50:14.287.09-Sep-2020 5280.51 6189.14 74.40 22.00  15.79 2550.44
   18:50:14.487.09-Sep-2020 5280.51 6189.11 74.40 22.00  15.99 2550.44
   18:50:14.687.09-Sep-2020 5280.51 6189.11 74.40 22.00  16.19 2550.44
   18:50:14.887.09-Sep-2020 5280.51 6189.76 74.40 22.00  16.39 2550.44
   18:50:15.087.09-Sep-2020 5280.51 6190.08 74.40 22.00  16.59 2550.44
   18:50:15.287.09-Sep-2020 5280.51 6190.62 74.40 22.00  16.79 2550.44
   18:50:15.486.09-Sep-2020 5280.51 6191.36 74.40 22.00  16.99 2550.44
   18:50:15.686.09-Sep-2020 5280.51 6191.36 74.40 22.00  17.19 2550.44
   18:50:15.886.09-Sep-2020 5280.51 6192.10 74.40 22.00  17.39 2550.44
   18:50:16.086.09-Sep-2020 5280.51 6192.05 74.40 22.00  17.59 2550.44
   18:50:16.286.09-Sep-2020 5280.51 6192.25 74.40 22.00  17.79 2550.44
   18:50:16.486.09-Sep-2020 5280.51 6192.58 74.40 22.00  17.99 2550.44
   18:50:16.686.09-Sep-2020 5280.51 6195.15 74.40 22.00  18.19 2550.44
   18:50:16.885.09-Sep-2020 5280.51 6199.80 74.40 22.00  18.39 2550.44
   18:50:17.085.09-Sep-2020 5280.51 6191.76 74.40 22.00  18.59 2550.44
   18:50:17.285.09-Sep-2020 5280.51 6194.51 74.40 22.00  18.79 2550.44
   18:50:17.485.09-Sep-2020 5280.51 6193.24 74.40 22.00  18.99 2550.44
   18:50:17.685.09-Sep-2020 5280.51 6193.24 74.40 22.00  19.18 2550.44
   18:50:17.885.09-Sep-2020 5280.51 6194.47 74.40 22.00  19.38 2550.44
   18:50:18.084.09-Sep-2020 5280.51 6195.51 74.40 22.00  19.58 2550.44
   18:50:18.284.09-Sep-2020 5280.51 6194.92 74.40 22.00  19.78 2550.44
   18:50:18.484.09-Sep-2020 5280.51 6195.48 74.40 22.00  19.98 2550.44
   18:50:18.684.09-Sep-2020 5280.51 6195.48 74.40 22.00  20.18 2550.44
   18:50:18.884.09-Sep-2020 5280.51 6196.21 74.40 22.00  20.38 2550.44
   18:50:19.084.09-Sep-2020 5280.51 6197.04 74.40 22.00  20.58 2550.44
   18:50:19.283.09-Sep-2020 5280.51 6197.17 74.40 22.00  20.78 2550.44
   18:50:19.483.09-Sep-2020 5280.51 6197.11 74.40 22.00  20.98 2550.44
   18:50:19.683.09-Sep-2020 5280.51 6197.11 74.40 22.00  21.18 2550.44
   18:50:19.883.09-Sep-2020 5280.51 6197.51 74.40 22.00  21.38 2550.44
   18:50:20.083.09-Sep-2020 5280.51 6197.72 74.40 22.00  21.58 2550.44
   18:50:20.283.09-Sep-2020 5280.51 6200.64 74.40 22.00  21.78 2550.44
   18:50:20.483.09-Sep-2020 5280.51 6205.11 74.40 22.00  21.98 2550.44
   18:50:20.682.09-Sep-2020 5280.51 6196.95 74.40 22.00  22.18 2550.44
   18:50:20.882.09-Sep-2020 5280.51 6199.52 74.40 22.00  22.38 2550.44
