~Version Information
 VERS.                  2.0:   CWLS log ASCII Standard -VERSION 2.0
 WRAP.                   NO:   One line per depth step
~Well Information Block
#MNEM.UNIT     VALUE/NAME     DESCRIPTION
#---------     -----------    ---------------------------
 STRT.S             08:13:58 09-Sep-20: START TIME 08:13:58 09-Sep-20
 STOP.S             08:20:59 09-Sep-20: STOP TIME  08:20:59 09-Sep-20
 STEP.S                   0.00: STEP TIME
 NULL.                 -999.25: NULL VALUE
 MDS .        Operator Entered:  MAG DATA SOURCE
 PDAT.          Mean Sea Level:  PERMANENT DATUM
 DCON.         Sperry Drilling:  DIRECTNL CONTR
 RIG .              West Azeri:  RIG NAME
 WELL.           C40 (Slot 20):  WELL NAME
 SRVC.     Turan Drilling Engineering:  CONTRACTOR
 FLD .                     ACG:  FIELD NAME
 CTRY.              Azerbaijan:  COUNTRY NAME
 PROV.                    Baku:  PROVINCE
 STAT.                    Baku:  STATE NAME
 REGN.                   EESSA:  REGION
 BASE.              Azerbaijan:  LOGGING EQUIPMENT BASE LOCATION
 COMP.     BP Exploration (Caspian Sea) Ltd:  COMPANY
 WTYP.                Deviated:  WELL TYPE
 SON .        AZ-XX-0906344804:  JOB NUMBER
 FTOP.          Formation Tops:  FORM TOPS DESC
 ILTD.               Lithology:  INTERP LTH DESC
 SVYD.                  Survey:  SURVEY DESC
 DMOD.             Drill Model:  DRILL MOD DESC
 HPTY.       Minimum Curvature:  HOLE POS TYPE
 NREF.                    Grid:  NORTH REFERENCE
 SPUD.               01-Jan-20:  SPUD DATE
 DATE.      00.59.44 15-Sep-20:  END TIME
 STIM.      12.00.00 12-Jun-20:  START TIME
 DMF .             Drill Floor:  DRILL MEAS FROM
 DFST.                        :  DIST FSL TEXT
 DFWT.                        :  DIST FWL TEXT
 API .                        :  API NUMBER
 CNTY.                        :  COUNTY
 UWI .                        :  UNIQUE WELL IDENTIFIER
 LOC .                        :  LOCATION
 LMF .             Drill Floor:  LOG MEASURED FROM
 VSNS.m                   2.88:  VERT SEC N/S
 VSEW.m                  -3.84:  VERT SEC E/W
 AGAP.m                  43.42:  AIR GAP
 APD .m                  43.42:  DEPTH ABOVE PD
 WDMS.m                 118.27:  WD ELEV
 EGL .m                   0.00:  GROUND ELEVATION
 EPD .m                   0.00:  ELEVATION
 AZTC.deg                 6.23:  AZM TOTAL CORR
 GRDC.deg                 0.20:  GRID CORRECTION
 MDEC.deg                 6.43:  MAGNETIC DECL
 MDIP.deg                59.49:  MAGNETIC DIP
 MFLD.nT              50277.00:  MAGNETIC FIELD
 GVFD.g                   1.00:  GRAVITY FIELD
 VSDR.deg               173.20:  VERT SEC DIRECT
 TDD .m                5790.01:  TOTAL DEPTH (DRILLER)
 SDEP.m                5231.01:  START DEPTH
 DFSL.m                   0.00:  DISTANCE FSL
 DFWL.m                   0.00:  DISTANCE FWL
 UTMY.m             4435808.83:  UTM Y
 UTMX.m              526266.40:  UTM X
 WHEW.m                  -3.84:  WELL HEAD E/W
 WHNS.m                   2.88:  WELL HEAD N/S
 LONG.deg                51.31:  LONGITUDE
 LATI.deg                40.06:  LATITUDE
 TVDS.m                  43.42:  TVDSS CORRECTN
 DEP .m                 430.08:  DEPTH
 EKB .m                  43.42:  KB ELEVATION
 EDF .m                  43.42:  DF ELEVATION
 TDL .m                 559.00:  TOTAL DEPTH (LOGGER)
 MAGU.                 1849381:  MAGUTM CHECKSUM
 VSC .                       0:  VS TO CLOSURE
~Parameter Information Block
#MNEM.UNIT       Value        Description
#---------     -----------    ---------------------------
 AV  .mps                 4.87:  Ann Velocity 
 AVMX.mps                 7.08:  Max Ann Veloc 
 AZIF.deg               108.87:  Azm, Final 
 BHAT.                  Rotary:  BHA Type 
 BROT.°/30m               0.35:  Build Rotating 
 BS  .in                  8.50:  Bit Size 
 BSZ .in                  8.50:  Bit Size 
 BTPL.psig              360.00:  Bit Press Loss 
 CABU.                     Yes:  Customer Abuse 
 COMM.                     t›a:  Run Comments 1 
 TCS .hr                106.24:  Time Ciculation Ended 
 CV  .mps                 1.77:  Crit Velocity 
 CVMX.mps                 2.03:  Max Crit Veloc 
 DD1 .         Aykhan Agagulov:  Direct Drillr 1 
 DD2 .            Nonso Okofor:  Direct Drillr 2 
 DDSV.               Geo-Pilot:  DD Service 
 DEFF.%                  98.00:  % Det Eff 
 DLRX.°/30m               0.50:  Dogleg Rot Max 
 DLSO.°/30m               0.40:  Dogleg Oriented 
 DLSX.°/30m               0.94:  Dogleg Str Max 
 DRET.      20.30.00 08-Sep-20:  Drill End Time 
 DRST.      22.15.00 06-Sep-20:  Drill Start Tim 
 DTIM.hr                 31.31:  Time Drilling 
 EDEP.m                5790.01:  End Depth 
 ENG1.           Amrah Tahirov:  Engineer 1 
 ENG2.         Dair Mahammadov:  Engineer 2 
 ENG3.           Emil Huseynov:  Engineer 3 
 ETIM.      04.01.04 12-Sep-20:  End Time 
 FLOI.gpm               450.00:  Flow In 
 FLON.gpm               450.00:  Flow In Min 
 FLOS.cptm                2.00:  Fluid Loss 
 FLOX.gpm               450.00:  Flow In Max 
 FTRO.       Formation Presure:  FTWD Run Obj 
 HFLO.                      No:  High Flow 
 HPRE.                      No:  High Pressure 
 HTEM.                      No:  High Temp 
 HYDO.m                   1.80:  Hydro Offset 
 IFIN.deg                72.03:  Inc, Final 
 IMAX.deg                73.72:  Inc Max 
 IMIN.deg                70.94:  Inc Min 
 IMND.m                5508.52:  Inc Min Depth 
 IMXD.m                5253.60:  Inc Max Depth 
 JARR.                      No:  Jarring 
 LETM.      20.30.00 08-Sep-20:  Log End Time 
 LOST.hr                     0:  Lost Rig Time 
 LSTM.      22.15.00 06-Sep-20:  Log Start Time 
 MDCL.ppm             36000.00:  Mud Chlorides 
 MDES.     Inversion Oil/Synthetic:  Mud Desc 
 DFD .sg                  1.44:  Mud Density 
 MDMN.sg                  1.44:  Dens Mud Min 
 MDMX.sg                  1.57:  Dens Mud Max 
 MOIL.                      70:  Run Mud Oil % 
 MOWR.                   70:30:  Run Mud OWR 
 MSND.                       0:  Run Mud Sand % 
 MSOL.                      21:  Run Mud Solids% 
 DFV .spqt               68.00:  Mud Viscosity 
 MWOD.in                  6.75:  MWD Tool OD 
 MWSI.                     Yes:  Serv Intrp, MWD 
 OTIM.hr                174.84:  Time Operating 
 PCON.           Look Like New:  Pad Condition 
 PMAX.psia            10616.93:  Press Op, Max 
 PV  .cP                 50.00:  Mud PV 
 RUN .                     700:  Run Number 
 ROPA.m/hr               14.24:  ROP Avg 
 ROPN.m/hr               10.00:  ROP Min 
 ROPX.m/hr               32.00:  ROP Max 
 RPMA.rpm               120.90:  RPM Surface Avg 
 RPMN.rpm               120.00:  RPM Surface Min 
 RPMX.rpm               140.00:  RPM Surface Max 
 RRUN.                    0700:  Rig Run Number 
 RTIM.hr                  3.20:  Time Reaming 
 SAZI.deg               109.99:  Azm, Start 
 SDEP.m                5231.01:  Start Depth 
 SIDD.                      No:  Serv Intrp, DD 
 SINC.deg                73.72:  Inc, Start 
 SPPA.psig             3051.00:  SPP Avg 
 SPPN.psig             2950.00:  SPP Min 
 SPPX.psig             3250.00:  SPP Max 
 STIM.      08.00.00 05-Sep-20:  Start Time 
 SVCS.                 DD, MWD:  Services 
 SVER.                    9.20:  Sperry Version 
 TDAT.m                 559.00:  Tot Depth Attmp 
 TDDF.                      No:  Trip for DD 
 TDLG.m                 559.00:  Tot Depth Loggd 
 TFF .                      No:  Trip for Fail 
 TQAA.f-kp               26.49:  Torque Abs Avg 
 TQAN.f-kp               25.00:  Torque Abs Min 
 TQAX.f-kp               27.00:  Torque Abs Max 
 TRRT.°/30m               1.50:  Turn Rotating 
 MRT .                    HCIM:  Maximum Recorded Temperature 
 TTMX.degC               90.20:  Max Tool Temp 
 VS01.                90542671:  Virtual Str1 SN 
 VS02.                90545185:  Virtual Str2 SN 
 VS03.                90602015:  Virtual Str3 SN 
 VS04.                90515230:  Virtual Str4 SN 
 WBMN.klb                 5.00:  WOB Min 
 WOBA.klb                14.79:  WOB Avg 
 WOBX.klb                20.00:  WOB Max 
 YP  .lhf2               29.00:  Yield Point 
~Curve Information Block
#MNEM.UNIT                 API CODE     Curve Description
#---------               -----------    ---------------------------
 TIME.HHMMSS            00 000 000 000:  GT Time & Date
 GTDEPTH.m              00 000 000 000:  GT Depth
 GTPQH.psia             00 000 000 000:  GT HR Quartz Pressure
 GTTQ.degC              00 000 000 000:  GT Quartz Temperature
 GTTN.NONE              00 000 000 000:  GT Test Number
 GTET.sec               00 000 000 000:  GT Elapsed Test Time
 GTTVD.m                00 000 000 000:  GT True Vertical Depth
#Other Information
#
#WARRANTY: Halliburton will use its best efforts to furnish customers with 
#accurate information and interpretations that are part of, and incident to, the services 
#provided.  However, Halliburton cannot and does not warrant the accuracy 
#or correctness of such information and interpretations.  Under no circumstances should any 
#such information or interpretation be relied upon as the sole basis for any drilling, 
#completion, production, or financial decision or any procedure involving any risk to the 
#safety of any drilling venture, drilling rig or its crew or any other third party.  The 
#Customer has full responsibility for all drilling, completion and production operation.  
#Halliburton makes no representations or warranties, either expressed or 
#implied, including, but not limited to, the implied warranties of merchantability or fitness 
#for a particular purpose, with respect to the services rendered.  In no event will 
#Halliburton be liable for failure to obtain any particular results or for 
#any damages, including, but not limited to, indirect, special or consequential damages, 
#resulting from the use of any information or interpretation provided by Halliburton.
#
~A           TIME           GTDEPTH  GTPQH  GTTQ  GTTN  GTET   GTTVD  
# ...
   08:14:44.333.09-Sep-2020 5533.01 3512.65 78.08 5.00  46.02 2629.43
   08:14:44.533.09-Sep-2020 5533.01 3512.65 78.08 5.00  46.22 2629.43
   08:14:44.733.09-Sep-2020 5533.01 3514.63 78.08 5.00  46.42 2629.43
   08:14:44.933.09-Sep-2020 5533.01 3511.95 78.08 5.00  46.62 2629.43
   08:14:45.133.09-Sep-2020 5533.01 3507.37 78.07 5.00  46.82 2629.43
   08:14:45.333.09-Sep-2020 5533.01 3516.25 78.07 5.00  47.02 2629.43
   08:14:45.533.09-Sep-2020 5533.01 3516.25 78.07 5.00  47.22 2629.43
   08:14:45.733.09-Sep-2020 5533.01 3511.14 78.07 5.00  47.42 2629.43
   08:14:45.934.09-Sep-2020 5533.01 3513.24 78.06 5.00  47.62 2629.43
   08:14:46.134.09-Sep-2020 5533.01 3511.30 78.06 5.00  47.82 2629.43
   08:14:46.334.09-Sep-2020 5533.01 3511.29 78.06 5.00  48.02 2629.43
   08:14:46.534.09-Sep-2020 5533.01 3512.36 78.06 5.00  48.22 2629.43
   08:14:46.734.09-Sep-2020 5533.01 3511.81 78.05 5.00  48.42 2629.43
   08:14:46.934.09-Sep-2020 5533.01 3510.55 78.05 5.00  48.62 2629.43
   08:14:47.134.09-Sep-2020 5533.01 3510.77 78.05 5.00  48.82 2629.43
   08:14:47.334.09-Sep-2020 5533.01 3513.64 78.05 5.00  49.02 2629.43
   08:14:47.534.09-Sep-2020 5533.01 3513.64 78.05 5.00  49.22 2629.43
   08:14:47.734.09-Sep-2020 5533.01 3511.57 78.04 5.00  49.42 2629.43
   08:14:47.934.09-Sep-2020 5533.01 3510.01 78.04 5.00  49.62 2629.43
   08:14:48.134.09-Sep-2020 5533.01 3512.81 78.04 5.00  49.82 2629.43
   08:14:48.334.09-Sep-2020 5533.01 3503.67 78.04 5.00  50.02 2629.43
   08:14:48.535.09-Sep-2020 5533.01 3503.67 78.04 5.00  50.22 2629.43
   08:14:48.735.09-Sep-2020 5533.01 3513.17 78.03 5.00  50.42 2629.43
   08:14:48.935.09-Sep-2020 5533.01 3512.29 78.03 5.00  50.62 2629.43
   08:14:49.135.09-Sep-2020 5533.01 3507.78 78.03 5.00  50.82 2629.43
   08:14:49.335.09-Sep-2020 5533.01 3510.48 78.03 5.00  51.02 2629.43
   08:14:49.535.09-Sep-2020 5533.01 3510.48 78.02 5.00  51.22 2629.43
   08:14:49.735.09-Sep-2020 5533.01 3508.38 78.02 5.00  51.42 2629.43
   08:14:49.935.09-Sep-2020 5533.01 3513.70 78.02 5.00  51.62 2629.43
   08:14:50.135.09-Sep-2020 5533.01 3514.83 78.02 5.00  51.82 2629.43
   08:14:50.335.09-Sep-2020 5533.01 3511.57 78.02 5.00  52.02 2629.43
   08:14:50.535.09-Sep-2020 5533.01 3512.01 78.02 5.00  52.22 2629.43
   08:14:50.735.09-Sep-2020 5533.01 3512.01 78.02 5.00  52.42 2629.43
   08:14:50.936.09-Sep-2020 5533.01 3513.23 78.01 5.00  52.62 2629.43
   08:14:51.136.09-Sep-2020 5533.01 3511.78 78.01 5.00  52.82 2629.43
   08:14:51.336.09-Sep-2020 5533.01 3514.78 78.01 5.00  53.02 2629.43
   08:14:51.536.09-Sep-2020 5533.01 3514.78 78.01 5.00  53.22 2629.43
   08:14:51.736.09-Sep-2020 5533.01 3512.55 78.01 5.00  53.42 2629.43
   08:14:51.936.09-Sep-2020 5533.01 3662.32 78.01 5.00  53.62 2629.43
   08:14:52.136.09-Sep-2020 5533.01 3701.37 78.01 5.00  53.82 2629.43
   08:14:52.336.09-Sep-2020 5533.01 3702.38 78.01 5.00  54.02 2629.43
   08:14:52.536.09-Sep-2020 5533.01 3702.38 78.01 5.00  54.22 2629.43
   08:14:52.736.09-Sep-2020 5533.01 3702.41 78.01 5.00  54.42 2629.43
   08:14:52.936.09-Sep-2020 5533.01 3702.49 78.01 5.00  54.62 2629.43
   08:14:53.136.09-Sep-2020 5533.01 3702.86 78.01 5.00  54.82 2629.43
   08:14:53.336.09-Sep-2020 5533.01 3702.50 78.01 5.00  55.02 2629.43
   08:14:53.537.09-Sep-2020 5533.01 3702.50 78.00 5.00  55.22 2629.43
   08:14:53.737.09-Sep-2020 5533.01 3702.73 78.00 5.00  55.42 2629.43
   08:14:53.937.09-Sep-2020 5533.01 3702.86 78.00 5.00  55.62 2629.43
   08:14:54.137.09-Sep-2020 5533.01 3702.80 78.00 5.00  55.82 2629.43
   08:14:54.337.09-Sep-2020 5533.01 3702.88 78.00 5.00  56.02 2629.43
   08:14:54.537.09-Sep-2020 5533.01 3702.93 78.00 5.00  56.22 2629.43
   08:14:54.737.09-Sep-2020 5533.01 3702.96 78.00 5.00  56.42 2629.43
   08:14:54.937.09-Sep-2020 5533.01 3702.98 78.00 5.00  56.62 2629.43
   08:14:55.137.09-Sep-2020 5533.01 3703.00 78.00 5.00  56.82 2629.43
   08:14:55.337.09-Sep-2020 5533.01 3703.02 78.00 5.00  57.02 2629.43
   08:14:55.537.09-Sep-2020 5533.01 3703.02 78.00 5.00  57.22 2629.43
   08:14:55.737.09-Sep-2020 5533.01 3703.07 78.00 5.00  57.42 2629.43
   08:14:55.937.09-Sep-2020 5533.01 3703.08 78.00 5.00  57.62 2629.43
   08:14:56.138.09-Sep-2020 5533.01 3703.09 78.00 5.00  57.82 2629.43
   08:14:56.338.09-Sep-2020 5533.01 3703.10 78.00 5.00  58.02 2629.43
   08:14:56.538.09-Sep-2020 5533.01 3703.10 78.00 5.00  58.22 2629.43
   08:14:56.738.09-Sep-2020 5533.01 3703.09 78.00 5.00  58.42 2629.43
   08:14:56.938.09-Sep-2020 5533.01 3703.15 78.00 5.00  58.62 2629.43
   08:14:57.138.09-Sep-2020 5533.01 3703.13 78.00 5.00  58.82 2629.43
   08:14:57.338.09-Sep-2020 5533.01 3703.24 78.00 5.00  59.02 2629.43
   08:14:57.538.09-Sep-2020 5533.01 3703.24 78.00 5.00  59.22 2629.43
   08:14:57.738.09-Sep-2020 5533.01 3703.60 78.00 5.00  59.42 2629.43
   08:14:57.938.09-Sep-2020 5533.01 3703.15 78.00 5.00  59.62 2629.43
   08:14:58.138.09-Sep-2020 5533.01 3703.21 78.00 5.00  59.82 2629.43
   08:14:58.338.09-Sep-2020 5533.01 3703.20 78.00 5.00  60.02 2629.43
   08:14:58.539.09-Sep-2020 5533.01 3703.19 78.00 5.00  60.22 2629.43
   08:14:58.739.09-Sep-2020 5533.01 3703.20 78.00 5.00  60.42 2629.43
   08:14:58.939.09-Sep-2020 5533.01 3703.21 78.00 5.00  60.62 2629.43
   08:14:59.139.09-Sep-2020 5533.01 3703.29 78.01 5.00  60.82 2629.43
   08:14:59.339.09-Sep-2020 5533.01 3703.18 78.01 5.00  61.02 2629.43
   08:14:59.539.09-Sep-2020 5533.01 3703.18 78.01 5.00  61.22 2629.43
   08:14:59.739.09-Sep-2020 5533.01 3703.23 78.01 5.00  61.42 2629.43
   08:14:59.939.09-Sep-2020 5533.01 3703.33 78.01 5.00  61.62 2629.43
   08:15:00.139.09-Sep-2020 5533.01 3702.91 78.01 5.00  61.82 2629.43
   08:15:00.339.09-Sep-2020 5533.01 3703.57 78.01 5.00  62.02 2629.43
   08:15:00.539.09-Sep-2020 5533.01 3703.57 78.01 5.00  62.22 2629.43
   08:15:00.739.09-Sep-2020 5533.01 3703.31 78.01 5.00  62.42 2629.43
   08:15:00.939.09-Sep-2020 5533.01 3703.25 78.01 5.00  62.62 2629.43
   08:15:01.140.09-Sep-2020 5533.01 3702.95 78.01 5.00  62.82 2629.43
   08:15:01.340.09-Sep-2020 5533.01 3703.72 78.01 5.00  63.02 2629.43
   08:15:01.540.09-Sep-2020 5533.01 3703.72 78.01 5.00  63.22 2629.43
   08:15:01.740.09-Sep-2020 5533.01 3703.35 78.01 5.00  63.43 2629.43
   08:15:01.940.09-Sep-2020 5533.01 3703.30 78.01 5.00  63.63 2629.43
   08:15:02.140.09-Sep-2020 5533.01 3703.34 78.01 5.00  63.83 2629.43
   08:15:02.340.09-Sep-2020 5533.01 3703.32 78.01 5.00  64.03 2629.43
   08:15:02.540.09-Sep-2020 5533.01 3703.32 78.01 5.00  64.23 2629.43
   08:15:02.740.09-Sep-2020 5533.01 3703.35 78.01 5.00  64.43 2629.43
   08:15:02.940.09-Sep-2020 5533.01 3703.34 78.01 5.00  64.63 2629.43
   08:15:03.140.09-Sep-2020 5533.01 3703.37 78.01 5.00  64.83 2629.43
   08:15:03.340.09-Sep-2020 5533.01 3703.35 78.01 5.00  65.03 2629.43
   08:15:03.540.09-Sep-2020 5533.01 3703.35 78.01 5.00  65.23 2629.43
   08:15:03.741.09-Sep-2020 5533.01 3703.37 78.01 5.00  65.43 2629.43
   08:15:03.941.09-Sep-2020 5533.01 3703.38 78.01 5.00  65.63 2629.43
   08:15:04.141.09-Sep-2020 5533.01 3703.39 78.01 5.00  65.83 2629.43
   08:15:04.341.09-Sep-2020 5533.01 3703.40 78.01 5.00  66.03 2629.43
   08:15:04.541.09-Sep-2020 5533.01 3703.40 78.01 5.00  66.23 2629.43
   08:15:04.741.09-Sep-2020 5533.01 3703.40 78.01 5.00  66.43 2629.43
   08:15:04.941.09-Sep-2020 5533.01 3703.16 78.01 5.00  66.63 2629.43
   08:15:05.141.09-Sep-2020 5533.01 3703.71 78.01 5.00  66.83 2629.43
   08:15:05.341.09-Sep-2020 5533.01 3703.39 78.01 5.00  67.03 2629.43
   08:15:05.541.09-Sep-2020 5533.01 3703.39 78.01 5.00  67.23 2629.43
   08:15:05.741.09-Sep-2020 5533.01 3703.39 78.01 5.00  67.43 2629.43
   08:15:05.941.09-Sep-2020 5533.01 3703.44 78.01 5.00  67.63 2629.43
   08:15:06.142.09-Sep-2020 5533.01 3703.44 78.01 5.00  67.83 2629.43
   08:15:06.342.09-Sep-2020 5533.01 3703.44 78.01 5.00  68.03 2629.43
   08:15:06.542.09-Sep-2020 5533.01 3703.44 78.01 5.00  68.23 2629.43
   08:15:06.742.09-Sep-2020 5533.01 3703.42 78.01 5.00  68.43 2629.43
   08:15:06.942.09-Sep-2020 5533.01 3703.45 78.01 5.00  68.63 2629.43
   08:15:07.142.09-Sep-2020 5533.01 3703.45 78.01 5.00  68.83 2629.43
