~Version Information
 VERS.                  2.0:   CWLS log ASCII Standard -VERSION 2.0
 WRAP.                   NO:   One line per depth step
~Well Information Block
#MNEM.UNIT     VALUE/NAME     DESCRIPTION
#---------     -----------    ---------------------------
 STRT.S             21:21:48 09-Sep-20: START TIME 21:21:48 09-Sep-20
 STOP.S             21:29:57 09-Sep-20: STOP TIME  21:29:57 09-Sep-20
 STEP.S                   0.00: STEP TIME
 NULL.                 -999.25: NULL VALUE
 MDS .        Operator Entered:  MAG DATA SOURCE
 PDAT.          Mean Sea Level:  PERMANENT DATUM
 DCON.         Sperry Drilling:  DIRECTNL CONTR
 RIG .              West Azeri:  RIG NAME
 WELL.           C40 (Slot 20):  WELL NAME
 SRVC.     Turan Drilling Engineering:  CONTRACTOR
 FLD .                     ACG:  FIELD NAME
 CTRY.              Azerbaijan:  COUNTRY NAME
 PROV.                    Baku:  PROVINCE
 STAT.                    Baku:  STATE NAME
 REGN.                   EESSA:  REGION
 BASE.              Azerbaijan:  LOGGING EQUIPMENT BASE LOCATION
 COMP.     BP Exploration (Caspian Sea) Ltd:  COMPANY
 WTYP.                Deviated:  WELL TYPE
 SON .        AZ-XX-0906344804:  JOB NUMBER
 FTOP.          Formation Tops:  FORM TOPS DESC
 ILTD.               Lithology:  INTERP LTH DESC
 SVYD.                  Survey:  SURVEY DESC
 DMOD.             Drill Model:  DRILL MOD DESC
 HPTY.       Minimum Curvature:  HOLE POS TYPE
 NREF.                    Grid:  NORTH REFERENCE
 SPUD.               01-Jan-20:  SPUD DATE
 DATE.      00.59.44 15-Sep-20:  END TIME
 STIM.      12.00.00 12-Jun-20:  START TIME
 DMF .             Drill Floor:  DRILL MEAS FROM
 DFST.                        :  DIST FSL TEXT
 DFWT.                        :  DIST FWL TEXT
 API .                        :  API NUMBER
 CNTY.                        :  COUNTY
 UWI .                        :  UNIQUE WELL IDENTIFIER
 LOC .                        :  LOCATION
 LMF .             Drill Floor:  LOG MEASURED FROM
 VSNS.m                   2.88:  VERT SEC N/S
 VSEW.m                  -3.84:  VERT SEC E/W
 AGAP.m                  43.42:  AIR GAP
 APD .m                  43.42:  DEPTH ABOVE PD
 WDMS.m                 118.27:  WD ELEV
 EGL .m                   0.00:  GROUND ELEVATION
 EPD .m                   0.00:  ELEVATION
 AZTC.deg                 6.23:  AZM TOTAL CORR
 GRDC.deg                 0.20:  GRID CORRECTION
 MDEC.deg                 6.43:  MAGNETIC DECL
 MDIP.deg                59.49:  MAGNETIC DIP
 MFLD.nT              50277.00:  MAGNETIC FIELD
 GVFD.g                   1.00:  GRAVITY FIELD
 VSDR.deg               173.20:  VERT SEC DIRECT
 TDD .m                5790.01:  TOTAL DEPTH (DRILLER)
 SDEP.m                5231.01:  START DEPTH
 DFSL.m                   0.00:  DISTANCE FSL
 DFWL.m                   0.00:  DISTANCE FWL
 UTMY.m             4435808.83:  UTM Y
 UTMX.m              526266.40:  UTM X
 WHEW.m                  -3.84:  WELL HEAD E/W
 WHNS.m                   2.88:  WELL HEAD N/S
 LONG.deg                51.31:  LONGITUDE
 LATI.deg                40.06:  LATITUDE
 TVDS.m                  43.42:  TVDSS CORRECTN
 DEP .m                 430.08:  DEPTH
 EKB .m                  43.42:  KB ELEVATION
 EDF .m                  43.42:  DF ELEVATION
 TDL .m                 559.00:  TOTAL DEPTH (LOGGER)
 MAGU.                 1849381:  MAGUTM CHECKSUM
 VSC .                       0:  VS TO CLOSURE
~Parameter Information Block
#MNEM.UNIT       Value        Description
#---------     -----------    ---------------------------
 AV  .mps                 4.87:  Ann Velocity 
 AVMX.mps                 7.08:  Max Ann Veloc 
 AZIF.deg               108.87:  Azm, Final 
 BHAT.                  Rotary:  BHA Type 
 BROT.°/30m               0.35:  Build Rotating 
 BS  .in                  8.50:  Bit Size 
 BSZ .in                  8.50:  Bit Size 
 BTPL.psig              360.00:  Bit Press Loss 
 CABU.                     Yes:  Customer Abuse 
 COMM.                     ¼¥|:  Run Comments 1 
 TCS .hr                106.24:  Time Ciculation Ended 
 CV  .mps                 1.77:  Crit Velocity 
 CVMX.mps                 2.03:  Max Crit Veloc 
 DD1 .         Aykhan Agagulov:  Direct Drillr 1 
 DD2 .            Nonso Okofor:  Direct Drillr 2 
 DDSV.               Geo-Pilot:  DD Service 
 DEFF.%                  98.00:  % Det Eff 
 DLRX.°/30m               0.50:  Dogleg Rot Max 
 DLSO.°/30m               0.40:  Dogleg Oriented 
 DLSX.°/30m               0.94:  Dogleg Str Max 
 DRET.      20.30.00 08-Sep-20:  Drill End Time 
 DRST.      22.15.00 06-Sep-20:  Drill Start Tim 
 DTIM.hr                 31.31:  Time Drilling 
 EDEP.m                5790.01:  End Depth 
 ENG1.           Amrah Tahirov:  Engineer 1 
 ENG2.         Dair Mahammadov:  Engineer 2 
 ENG3.           Emil Huseynov:  Engineer 3 
 ETIM.      04.01.04 12-Sep-20:  End Time 
 FLOI.gpm               450.00:  Flow In 
 FLON.gpm               450.00:  Flow In Min 
 FLOS.cptm                2.00:  Fluid Loss 
 FLOX.gpm               450.00:  Flow In Max 
 FTRO.       Formation Presure:  FTWD Run Obj 
 HFLO.                      No:  High Flow 
 HPRE.                      No:  High Pressure 
 HTEM.                      No:  High Temp 
 HYDO.m                   1.80:  Hydro Offset 
 IFIN.deg                72.03:  Inc, Final 
 IMAX.deg                73.72:  Inc Max 
 IMIN.deg                70.94:  Inc Min 
 IMND.m                5508.52:  Inc Min Depth 
 IMXD.m                5253.60:  Inc Max Depth 
 JARR.                      No:  Jarring 
 LETM.      20.30.00 08-Sep-20:  Log End Time 
 LOST.hr                     0:  Lost Rig Time 
 LSTM.      22.15.00 06-Sep-20:  Log Start Time 
 MDCL.ppm             36000.00:  Mud Chlorides 
 MDES.     Inversion Oil/Synthetic:  Mud Desc 
 DFD .sg                  1.44:  Mud Density 
 MDMN.sg                  1.44:  Dens Mud Min 
 MDMX.sg                  1.57:  Dens Mud Max 
 MOIL.                      70:  Run Mud Oil % 
 MOWR.                   70:30:  Run Mud OWR 
 MSND.                       0:  Run Mud Sand % 
 MSOL.                      21:  Run Mud Solids% 
 DFV .spqt               68.00:  Mud Viscosity 
 MWOD.in                  6.75:  MWD Tool OD 
 MWSI.                     Yes:  Serv Intrp, MWD 
 OTIM.hr                174.84:  Time Operating 
 PCON.           Look Like New:  Pad Condition 
 PMAX.psia            10616.93:  Press Op, Max 
 PV  .cP                 50.00:  Mud PV 
 RUN .                     700:  Run Number 
 ROPA.m/hr               14.24:  ROP Avg 
 ROPN.m/hr               10.00:  ROP Min 
 ROPX.m/hr               32.00:  ROP Max 
 RPMA.rpm               120.90:  RPM Surface Avg 
 RPMN.rpm               120.00:  RPM Surface Min 
 RPMX.rpm               140.00:  RPM Surface Max 
 RRUN.                    0700:  Rig Run Number 
 RTIM.hr                  3.20:  Time Reaming 
 SAZI.deg               109.99:  Azm, Start 
 SDEP.m                5231.01:  Start Depth 
 SIDD.                      No:  Serv Intrp, DD 
 SINC.deg                73.72:  Inc, Start 
 SPPA.psig             3051.00:  SPP Avg 
 SPPN.psig             2950.00:  SPP Min 
 SPPX.psig             3250.00:  SPP Max 
 STIM.      08.00.00 05-Sep-20:  Start Time 
 SVCS.                 DD, MWD:  Services 
 SVER.                    9.20:  Sperry Version 
 TDAT.m                 559.00:  Tot Depth Attmp 
 TDDF.                      No:  Trip for DD 
 TDLG.m                 559.00:  Tot Depth Loggd 
 TFF .                      No:  Trip for Fail 
 TQAA.f-kp               26.49:  Torque Abs Avg 
 TQAN.f-kp               25.00:  Torque Abs Min 
 TQAX.f-kp               27.00:  Torque Abs Max 
 TRRT.°/30m               1.50:  Turn Rotating 
 MRT .                    HCIM:  Maximum Recorded Temperature 
 TTMX.degC               90.20:  Max Tool Temp 
 VS01.                90542671:  Virtual Str1 SN 
 VS02.                90545185:  Virtual Str2 SN 
 VS03.                90602015:  Virtual Str3 SN 
 VS04.                90515230:  Virtual Str4 SN 
 WBMN.klb                 5.00:  WOB Min 
 WOBA.klb                14.79:  WOB Avg 
 WOBX.klb                20.00:  WOB Max 
 YP  .lhf2               29.00:  Yield Point 
~Curve Information Block
#MNEM.UNIT                 API CODE     Curve Description
#---------               -----------    ---------------------------
 TIME.HHMMSS            00 000 000 000:  GT Time & Date
 GTDEPTH.m              00 000 000 000:  GT Depth
 GTPQH.psia             00 000 000 000:  GT HR Quartz Pressure
 GTTQ.degC              00 000 000 000:  GT Quartz Temperature
 GTTN.NONE              00 000 000 000:  GT Test Number
 GTET.sec               00 000 000 000:  GT Elapsed Test Time
 GTTVD.m                00 000 000 000:  GT True Vertical Depth
#Other Information
#
#WARRANTY: Halliburton will use its best efforts to furnish customers with 
#accurate information and interpretations that are part of, and incident to, the services 
#provided.  However, Halliburton cannot and does not warrant the accuracy 
#or correctness of such information and interpretations.  Under no circumstances should any 
#such information or interpretation be relied upon as the sole basis for any drilling, 
#completion, production, or financial decision or any procedure involving any risk to the 
#safety of any drilling venture, drilling rig or its crew or any other third party.  The 
#Customer has full responsibility for all drilling, completion and production operation.  
#Halliburton makes no representations or warranties, either expressed or 
#implied, including, but not limited to, the implied warranties of merchantability or fitness 
#for a particular purpose, with respect to the services rendered.  In no event will 
#Halliburton be liable for failure to obtain any particular results or for 
#any damages, including, but not limited to, indirect, special or consequential damages, 
#resulting from the use of any information or interpretation provided by Halliburton.
#
~A           TIME           GTDEPTH  GTPQH  GTTQ  GTTN   GTET   GTTVD  
# ...
   21:28:35.304.09-Sep-2020 5252.22  293.37 73.45 26.00 406.99 2542.36
   21:28:35.504.09-Sep-2020 5252.22  293.36 73.45 26.00 407.19 2542.36
   21:28:35.705.09-Sep-2020 5252.22  293.49 73.45 26.00 407.39 2542.36
   21:28:35.905.09-Sep-2020 5252.22  293.58 73.45 26.00 407.59 2542.36
   21:28:36.105.09-Sep-2020 5252.22  293.65 73.45 26.00 407.79 2542.36
   21:28:36.305.09-Sep-2020 5252.22  293.73 73.45 26.00 407.99 2542.36
   21:28:36.505.09-Sep-2020 5252.22  293.81 73.45 26.00 408.19 2542.36
   21:28:36.705.09-Sep-2020 5252.22  293.89 73.45 26.00 408.39 2542.36
   21:28:36.905.09-Sep-2020 5252.22  293.99 73.45 26.00 408.59 2542.36
   21:28:37.105.09-Sep-2020 5252.22  294.11 73.45 26.00 408.79 2542.36
   21:28:37.305.09-Sep-2020 5252.22  294.18 73.45 26.00 408.99 2542.36
   21:28:37.505.09-Sep-2020 5252.22  294.29 73.45 26.00 409.19 2542.36
   21:28:37.705.09-Sep-2020 5252.22  294.37 73.45 26.00 409.39 2542.36
   21:28:37.906.09-Sep-2020 5252.22  294.25 73.45 26.00 409.59 2542.36
   21:28:38.106.09-Sep-2020 5252.22  294.39 73.45 26.00 409.79 2542.36
   21:28:38.306.09-Sep-2020 5252.22  294.65 73.45 26.00 409.99 2542.36
   21:28:38.506.09-Sep-2020 5252.22  294.70 73.45 26.00 410.19 2542.36
   21:28:38.706.09-Sep-2020 5252.22  294.70 73.45 26.00 410.39 2542.36
   21:28:38.906.09-Sep-2020 5252.22  294.91 73.45 26.00 410.59 2542.36
   21:28:39.106.09-Sep-2020 5252.22  294.91 73.45 26.00 410.79 2542.36
   21:28:39.306.09-Sep-2020 5252.22  295.05 73.45 26.00 410.99 2542.36
   21:28:39.506.09-Sep-2020 5252.22  295.13 73.45 26.00 411.19 2542.36
   21:28:39.706.09-Sep-2020 5252.22  295.19 73.45 26.00 411.39 2542.36
   21:28:39.906.09-Sep-2020 5252.22  295.25 73.45 26.00 411.59 2542.36
   21:28:40.107.09-Sep-2020 5252.22  295.35 73.45 26.00 411.79 2542.36
   21:28:40.307.09-Sep-2020 5252.22  295.46 73.45 26.00 411.99 2542.36
   21:28:40.507.09-Sep-2020 5252.22  295.54 73.45 26.00 412.19 2542.36
   21:28:40.707.09-Sep-2020 5252.22  295.54 73.45 26.00 412.39 2542.36
   21:28:40.907.09-Sep-2020 5252.22  295.70 73.45 26.00 412.59 2542.36
   21:28:41.107.09-Sep-2020 5252.22  295.78 73.45 26.00 412.79 2542.36
   21:28:41.307.09-Sep-2020 5252.22  295.59 73.45 26.00 412.99 2542.36
   21:28:41.507.09-Sep-2020 5252.22  295.89 73.45 26.00 413.19 2542.36
   21:28:41.707.09-Sep-2020 5252.22  295.89 73.45 26.00 413.39 2542.36
   21:28:41.907.09-Sep-2020 5252.22  296.06 73.45 26.00 413.59 2542.36
   21:28:42.107.09-Sep-2020 5252.22  296.24 73.45 26.00 413.79 2542.36
   21:28:42.308.09-Sep-2020 5252.22  296.06 73.45 26.00 413.99 2542.36
   21:28:42.508.09-Sep-2020 5252.22  296.26 73.45 26.00 414.19 2542.36
   21:28:42.708.09-Sep-2020 5252.22  296.49 73.45 26.00 414.39 2542.36
   21:28:42.908.09-Sep-2020 5252.22  296.54 73.45 26.00 414.59 2542.36
   21:28:43.108.09-Sep-2020 5252.22  296.59 73.45 26.00 414.79 2542.36
   21:28:43.308.09-Sep-2020 5252.22  296.79 73.45 26.00 414.99 2542.36
   21:28:43.508.09-Sep-2020 5252.22  296.52 73.45 26.00 415.19 2542.36
   21:28:43.708.09-Sep-2020 5252.22  296.93 73.45 26.00 415.39 2542.36
   21:28:43.908.09-Sep-2020 5252.22  297.13 73.45 26.00 415.59 2542.36
   21:28:44.108.09-Sep-2020 5252.22  297.19 73.45 26.00 415.79 2542.36
   21:28:44.308.09-Sep-2020 5252.22  297.10 73.45 26.00 415.99 2542.36
   21:28:44.509.09-Sep-2020 5252.22  297.31 73.45 26.00 416.19 2542.36
   21:28:44.709.09-Sep-2020 5252.22  297.53 73.45 26.00 416.39 2542.36
   21:28:44.909.09-Sep-2020 5252.22  297.57 73.45 26.00 416.59 2542.36
   21:28:45.109.09-Sep-2020 5252.22  297.80 73.45 26.00 416.79 2542.36
   21:28:45.309.09-Sep-2020 5252.22  297.80 73.45 26.00 416.99 2542.36
   21:28:45.509.09-Sep-2020 5252.22  297.94 73.45 26.00 417.19 2542.36
   21:28:45.709.09-Sep-2020 5252.22  297.94 73.45 26.00 417.39 2542.36
   21:28:45.909.09-Sep-2020 5252.22  298.21 73.45 26.00 417.59 2542.36
   21:28:46.109.09-Sep-2020 5252.22  298.22 73.45 26.00 417.79 2542.36
   21:28:46.309.09-Sep-2020 5252.22  298.30 73.45 26.00 417.99 2542.36
   21:28:46.509.09-Sep-2020 5252.22  298.39 73.45 26.00 418.19 2542.36
   21:28:46.710.09-Sep-2020 5252.22  298.57 73.45 26.00 418.39 2542.36
   21:28:46.910.09-Sep-2020 5252.22  298.62 73.45 26.00 418.59 2542.36
   21:28:47.110.09-Sep-2020 5252.22  298.68 73.45 26.00 418.79 2542.36
   21:28:47.310.09-Sep-2020 5252.22  298.77 73.45 26.00 418.99 2542.36
   21:28:47.510.09-Sep-2020 5252.22  298.86 73.45 26.00 419.19 2542.36
   21:28:47.710.09-Sep-2020 5252.22  298.96 73.45 26.00 419.39 2542.36
   21:28:47.910.09-Sep-2020 5252.22  299.02 73.45 26.00 419.59 2542.36
   21:28:48.110.09-Sep-2020 5252.22  299.07 73.45 26.00 419.79 2542.36
   21:28:48.310.09-Sep-2020 5252.22  299.16 73.45 26.00 419.99 2542.36
   21:28:48.510.09-Sep-2020 5252.22  299.25 73.45 26.00 420.19 2542.36
   21:28:48.711.09-Sep-2020 5252.22  299.34 73.45 26.00 420.39 2542.36
   21:28:48.911.09-Sep-2020 5252.22  299.43 73.45 26.00 420.59 2542.36
   21:28:49.111.09-Sep-2020 5252.22  299.52 73.45 26.00 420.79 2542.36
   21:28:49.311.09-Sep-2020 5252.22  299.18 73.45 26.00 420.99 2542.36
   21:28:49.511.09-Sep-2020 5252.22  299.75 73.45 26.00 421.19 2542.36
   21:28:49.711.09-Sep-2020 5252.22  299.77 73.45 26.00 421.39 2542.36
   21:28:49.911.09-Sep-2020 5252.22  299.84 73.45 26.00 421.59 2542.36
   21:28:50.111.09-Sep-2020 5252.22  299.90 73.45 26.00 421.79 2542.36
   21:28:50.311.09-Sep-2020 5252.22  300.06 73.45 26.00 421.99 2542.36
   21:28:50.511.09-Sep-2020 5252.22  300.11 73.45 26.00 422.19 2542.36
   21:28:50.711.09-Sep-2020 5252.22  300.18 73.45 26.00 422.39 2542.36
   21:28:50.912.09-Sep-2020 5252.22  300.28 73.45 26.00 422.59 2542.36
   21:28:51.112.09-Sep-2020 5252.22  300.34 73.45 26.00 422.79 2542.36
   21:28:51.312.09-Sep-2020 5252.22  300.42 73.45 26.00 422.99 2542.36
   21:28:51.512.09-Sep-2020 5252.22  300.49 73.45 26.00 423.20 2542.36
   21:28:51.712.09-Sep-2020 5252.22  300.58 73.45 26.00 423.40 2542.36
   21:28:51.912.09-Sep-2020 5252.22  300.67 73.45 26.00 423.60 2542.36
   21:28:52.112.09-Sep-2020 5252.22  300.77 73.45 26.00 423.80 2542.36
   21:28:52.312.09-Sep-2020 5252.22  300.84 73.45 26.00 424.00 2542.36
   21:28:52.512.09-Sep-2020 5252.22  300.42 73.45 26.00 424.20 2542.36
   21:28:52.712.09-Sep-2020 5252.22  300.42 73.45 26.00 424.40 2542.36
   21:28:52.912.09-Sep-2020 5252.22  301.11 73.45 26.00 424.60 2542.36
   21:28:53.113.09-Sep-2020 5252.22  301.19 73.45 26.00 424.80 2542.36
   21:28:53.313.09-Sep-2020 5252.22  301.23 73.45 26.00 425.00 2542.36
   21:28:53.513.09-Sep-2020 5252.22  301.40 73.45 26.00 425.20 2542.36
   21:28:53.713.09-Sep-2020 5252.22  301.40 73.45 26.00 425.40 2542.36
   21:28:53.913.09-Sep-2020 5252.22  301.60 73.45 26.00 425.60 2542.36
   21:28:54.113.09-Sep-2020 5252.22  301.65 73.45 26.00 425.80 2542.36
   21:28:54.313.09-Sep-2020 5252.22  301.69 73.45 26.00 426.00 2542.36
   21:28:54.513.09-Sep-2020 5252.22  301.77 73.45 26.00 426.20 2542.36
   21:28:54.713.09-Sep-2020 5252.22  301.77 73.45 26.00 426.40 2542.36
   21:28:54.913.09-Sep-2020 5252.22  301.85 73.45 26.00 426.60 2542.36
   21:28:55.113.09-Sep-2020 5252.22  302.13 73.45 26.00 426.80 2542.36
   21:28:55.314.09-Sep-2020 5252.22  302.19 73.45 26.00 427.00 2542.36
   21:28:55.514.09-Sep-2020 5252.22  302.05 73.45 26.00 427.20 2542.36
   21:28:55.714.09-Sep-2020 5252.22  302.23 73.45 26.00 427.40 2542.36
   21:28:55.914.09-Sep-2020 5252.22  302.46 73.45 26.00 427.60 2542.36
   21:28:56.114.09-Sep-2020 5252.22  302.59 73.45 26.00 427.80 2542.36
   21:28:56.314.09-Sep-2020 5252.22  302.65 73.45 26.00 428.00 2542.36
   21:28:56.514.09-Sep-2020 5252.22  302.57 73.45 26.00 428.20 2542.36
   21:28:56.714.09-Sep-2020 5252.22  302.57 73.45 26.00 428.40 2542.36
   21:28:56.914.09-Sep-2020 5252.22  303.00 73.45 26.00 428.60 2542.36
   21:28:57.114.09-Sep-2020 5252.22  303.03 73.45 26.00 428.80 2542.36
   21:28:57.314.09-Sep-2020 5252.22  303.22 73.45 26.00 429.00 2542.36
   21:28:57.515.09-Sep-2020 5252.22  303.21 73.45 26.00 429.20 2542.36
   21:28:57.715.09-Sep-2020 5252.22  303.21 73.45 26.00 429.40 2542.36
