~Version Information
 VERS.                  2.0:   CWLS log ASCII Standard -VERSION 2.0
 WRAP.                   NO:   One line per depth step
~Well Information Block
#MNEM.UNIT     VALUE/NAME     DESCRIPTION
#---------     -----------    ---------------------------
 STRT.S             05:36:14 09-Sep-20: START TIME 05:36:14 09-Sep-20
 STOP.S             05:43:10 09-Sep-20: STOP TIME  05:43:10 09-Sep-20
 STEP.S                   0.00: STEP TIME
 NULL.                 -999.25: NULL VALUE
 MDS .        Operator Entered:  MAG DATA SOURCE
 PDAT.          Mean Sea Level:  PERMANENT DATUM
 DCON.         Sperry Drilling:  DIRECTNL CONTR
 RIG .              West Azeri:  RIG NAME
 WELL.           C40 (Slot 20):  WELL NAME
 SRVC.     Turan Drilling Engineering:  CONTRACTOR
 FLD .                     ACG:  FIELD NAME
 CTRY.              Azerbaijan:  COUNTRY NAME
 PROV.                    Baku:  PROVINCE
 STAT.                    Baku:  STATE NAME
 REGN.                   EESSA:  REGION
 BASE.              Azerbaijan:  LOGGING EQUIPMENT BASE LOCATION
 COMP.     BP Exploration (Caspian Sea) Ltd:  COMPANY
 WTYP.                Deviated:  WELL TYPE
 SON .        AZ-XX-0906344804:  JOB NUMBER
 FTOP.          Formation Tops:  FORM TOPS DESC
 ILTD.               Lithology:  INTERP LTH DESC
 SVYD.                  Survey:  SURVEY DESC
 DMOD.             Drill Model:  DRILL MOD DESC
 HPTY.       Minimum Curvature:  HOLE POS TYPE
 NREF.                    Grid:  NORTH REFERENCE
 SPUD.               01-Jan-20:  SPUD DATE
 DATE.      00.59.44 15-Sep-20:  END TIME
 STIM.      12.00.00 12-Jun-20:  START TIME
 DMF .             Drill Floor:  DRILL MEAS FROM
 DFST.                        :  DIST FSL TEXT
 DFWT.                        :  DIST FWL TEXT
 API .                        :  API NUMBER
 CNTY.                        :  COUNTY
 UWI .                        :  UNIQUE WELL IDENTIFIER
 LOC .                        :  LOCATION
 LMF .             Drill Floor:  LOG MEASURED FROM
 VSNS.m                   2.88:  VERT SEC N/S
 VSEW.m                  -3.84:  VERT SEC E/W
 AGAP.m                  43.42:  AIR GAP
 APD .m                  43.42:  DEPTH ABOVE PD
 WDMS.m                 118.27:  WD ELEV
 EGL .m                   0.00:  GROUND ELEVATION
 EPD .m                   0.00:  ELEVATION
 AZTC.deg                 6.23:  AZM TOTAL CORR
 GRDC.deg                 0.20:  GRID CORRECTION
 MDEC.deg                 6.43:  MAGNETIC DECL
 MDIP.deg                59.49:  MAGNETIC DIP
 MFLD.nT              50277.00:  MAGNETIC FIELD
 GVFD.g                   1.00:  GRAVITY FIELD
 VSDR.deg               173.20:  VERT SEC DIRECT
 TDD .m                5790.01:  TOTAL DEPTH (DRILLER)
 SDEP.m                5231.01:  START DEPTH
 DFSL.m                   0.00:  DISTANCE FSL
 DFWL.m                   0.00:  DISTANCE FWL
 UTMY.m             4435808.83:  UTM Y
 UTMX.m              526266.40:  UTM X
 WHEW.m                  -3.84:  WELL HEAD E/W
 WHNS.m                   2.88:  WELL HEAD N/S
 LONG.deg                51.31:  LONGITUDE
 LATI.deg                40.06:  LATITUDE
 TVDS.m                  43.42:  TVDSS CORRECTN
 DEP .m                 430.08:  DEPTH
 EKB .m                  43.42:  KB ELEVATION
 EDF .m                  43.42:  DF ELEVATION
 TDL .m                 559.00:  TOTAL DEPTH (LOGGER)
 MAGU.                 1849381:  MAGUTM CHECKSUM
 VSC .                       0:  VS TO CLOSURE
~Parameter Information Block
#MNEM.UNIT       Value        Description
#---------     -----------    ---------------------------
 AV  .mps                 4.87:  Ann Velocity 
 AVMX.mps                 7.08:  Max Ann Veloc 
 AZIF.deg               108.87:  Azm, Final 
 BHAT.                  Rotary:  BHA Type 
 BROT.°/30m               0.35:  Build Rotating 
 BS  .in                  8.50:  Bit Size 
 BSZ .in                  8.50:  Bit Size 
 BTPL.psig              360.00:  Bit Press Loss 
 CABU.                     Yes:  Customer Abuse 
 COMM.                     ”£|:  Run Comments 1 
 TCS .hr                106.24:  Time Ciculation Ended 
 CV  .mps                 1.77:  Crit Velocity 
 CVMX.mps                 2.03:  Max Crit Veloc 
 DD1 .         Aykhan Agagulov:  Direct Drillr 1 
 DD2 .            Nonso Okofor:  Direct Drillr 2 
 DDSV.               Geo-Pilot:  DD Service 
 DEFF.%                  98.00:  % Det Eff 
 DLRX.°/30m               0.50:  Dogleg Rot Max 
 DLSO.°/30m               0.40:  Dogleg Oriented 
 DLSX.°/30m               0.94:  Dogleg Str Max 
 DRET.      20.30.00 08-Sep-20:  Drill End Time 
 DRST.      22.15.00 06-Sep-20:  Drill Start Tim 
 DTIM.hr                 31.31:  Time Drilling 
 EDEP.m                5790.01:  End Depth 
 ENG1.           Amrah Tahirov:  Engineer 1 
 ENG2.         Dair Mahammadov:  Engineer 2 
 ENG3.           Emil Huseynov:  Engineer 3 
 ETIM.      04.01.04 12-Sep-20:  End Time 
 FLOI.gpm               450.00:  Flow In 
 FLON.gpm               450.00:  Flow In Min 
 FLOS.cptm                2.00:  Fluid Loss 
 FLOX.gpm               450.00:  Flow In Max 
 FTRO.       Formation Presure:  FTWD Run Obj 
 HFLO.                      No:  High Flow 
 HPRE.                      No:  High Pressure 
 HTEM.                      No:  High Temp 
 HYDO.m                   1.80:  Hydro Offset 
 IFIN.deg                72.03:  Inc, Final 
 IMAX.deg                73.72:  Inc Max 
 IMIN.deg                70.94:  Inc Min 
 IMND.m                5508.52:  Inc Min Depth 
 IMXD.m                5253.60:  Inc Max Depth 
 JARR.                      No:  Jarring 
 LETM.      20.30.00 08-Sep-20:  Log End Time 
 LOST.hr                     0:  Lost Rig Time 
 LSTM.      22.15.00 06-Sep-20:  Log Start Time 
 MDCL.ppm             36000.00:  Mud Chlorides 
 MDES.     Inversion Oil/Synthetic:  Mud Desc 
 DFD .sg                  1.44:  Mud Density 
 MDMN.sg                  1.44:  Dens Mud Min 
 MDMX.sg                  1.57:  Dens Mud Max 
 MOIL.                      70:  Run Mud Oil % 
 MOWR.                   70:30:  Run Mud OWR 
 MSND.                       0:  Run Mud Sand % 
 MSOL.                      21:  Run Mud Solids% 
 DFV .spqt               68.00:  Mud Viscosity 
 MWOD.in                  6.75:  MWD Tool OD 
 MWSI.                     Yes:  Serv Intrp, MWD 
 OTIM.hr                174.84:  Time Operating 
 PCON.           Look Like New:  Pad Condition 
 PMAX.psia            10616.93:  Press Op, Max 
 PV  .cP                 50.00:  Mud PV 
 RUN .                     700:  Run Number 
 ROPA.m/hr               14.24:  ROP Avg 
 ROPN.m/hr               10.00:  ROP Min 
 ROPX.m/hr               32.00:  ROP Max 
 RPMA.rpm               120.90:  RPM Surface Avg 
 RPMN.rpm               120.00:  RPM Surface Min 
 RPMX.rpm               140.00:  RPM Surface Max 
 RRUN.                    0700:  Rig Run Number 
 RTIM.hr                  3.20:  Time Reaming 
 SAZI.deg               109.99:  Azm, Start 
 SDEP.m                5231.01:  Start Depth 
 SIDD.                      No:  Serv Intrp, DD 
 SINC.deg                73.72:  Inc, Start 
 SPPA.psig             3051.00:  SPP Avg 
 SPPN.psig             2950.00:  SPP Min 
 SPPX.psig             3250.00:  SPP Max 
 STIM.      08.00.00 05-Sep-20:  Start Time 
 SVCS.                 DD, MWD:  Services 
 SVER.                    9.20:  Sperry Version 
 TDAT.m                 559.00:  Tot Depth Attmp 
 TDDF.                      No:  Trip for DD 
 TDLG.m                 559.00:  Tot Depth Loggd 
 TFF .                      No:  Trip for Fail 
 TQAA.f-kp               26.49:  Torque Abs Avg 
 TQAN.f-kp               25.00:  Torque Abs Min 
 TQAX.f-kp               27.00:  Torque Abs Max 
 TRRT.°/30m               1.50:  Turn Rotating 
 MRT .                    HCIM:  Maximum Recorded Temperature 
 TTMX.degC               90.20:  Max Tool Temp 
 VS01.                90542671:  Virtual Str1 SN 
 VS02.                90545185:  Virtual Str2 SN 
 VS03.                90602015:  Virtual Str3 SN 
 VS04.                90515230:  Virtual Str4 SN 
 WBMN.klb                 5.00:  WOB Min 
 WOBA.klb                14.79:  WOB Avg 
 WOBX.klb                20.00:  WOB Max 
 YP  .lhf2               29.00:  Yield Point 
~Curve Information Block
#MNEM.UNIT                 API CODE     Curve Description
#---------               -----------    ---------------------------
 TIME.HHMMSS            00 000 000 000:  GT Time & Date
 GTDEPTH.m              00 000 000 000:  GT Depth
 GTPQH.psia             00 000 000 000:  GT HR Quartz Pressure
 GTTQ.degC              00 000 000 000:  GT Quartz Temperature
 GTTN.NONE              00 000 000 000:  GT Test Number
 GTET.sec               00 000 000 000:  GT Elapsed Test Time
 GTTVD.m                00 000 000 000:  GT True Vertical Depth
#Other Information
#
#WARRANTY: Halliburton will use its best efforts to furnish customers with 
#accurate information and interpretations that are part of, and incident to, the services 
#provided.  However, Halliburton cannot and does not warrant the accuracy 
#or correctness of such information and interpretations.  Under no circumstances should any 
#such information or interpretation be relied upon as the sole basis for any drilling, 
#completion, production, or financial decision or any procedure involving any risk to the 
#safety of any drilling venture, drilling rig or its crew or any other third party.  The 
#Customer has full responsibility for all drilling, completion and production operation.  
#Halliburton makes no representations or warranties, either expressed or 
#implied, including, but not limited to, the implied warranties of merchantability or fitness 
#for a particular purpose, with respect to the services rendered.  In no event will 
#Halliburton be liable for failure to obtain any particular results or for 
#any damages, including, but not limited to, indirect, special or consequential damages, 
#resulting from the use of any information or interpretation provided by Halliburton.
#
~A           TIME           GTDEPTH  GTPQH  GTTQ  GTTN  GTET   GTTVD  
# ...
   05:38:32.077.09-Sep-2020 5634.01 3689.46 79.96 1.00 137.99 2660.75
   05:38:32.277.09-Sep-2020 5634.01 3689.46 79.96 1.00 138.19 2660.75
   05:38:32.477.09-Sep-2020 5634.01 3689.36 79.96 1.00 138.39 2660.75
   05:38:32.677.09-Sep-2020 5634.01 3689.41 79.96 1.00 138.59 2660.75
   05:38:32.877.09-Sep-2020 5634.01 3689.37 79.96 1.00 138.79 2660.75
   05:38:33.077.09-Sep-2020 5634.01 3689.21 79.96 1.00 138.99 2660.75
   05:38:33.277.09-Sep-2020 5634.01 3689.21 79.96 1.00 139.19 2660.75
   05:38:33.477.09-Sep-2020 5634.01 3689.42 79.96 1.00 139.39 2660.75
   05:38:33.677.09-Sep-2020 5634.01 3689.34 79.96 1.00 139.59 2660.75
   05:38:33.877.09-Sep-2020 5634.01 3689.36 79.96 1.00 139.79 2660.75
   05:38:34.077.09-Sep-2020 5634.01 3689.40 79.96 1.00 139.99 2660.75
   05:38:34.277.09-Sep-2020 5634.01 3689.40 79.96 1.00 140.19 2660.75
   05:38:34.477.09-Sep-2020 5634.01 3689.40 79.96 1.00 140.39 2660.75
   05:38:34.677.09-Sep-2020 5634.01 3689.38 79.96 1.00 140.59 2660.75
   05:38:34.877.09-Sep-2020 5634.01 3689.39 79.96 1.00 140.79 2660.75
   05:38:35.077.09-Sep-2020 5634.01 3689.39 79.96 1.00 140.99 2660.75
   05:38:35.277.09-Sep-2020 5634.01 3689.39 79.96 1.00 141.19 2660.75
   05:38:35.477.09-Sep-2020 5634.01 3689.39 79.96 1.00 141.39 2660.75
   05:38:35.677.09-Sep-2020 5634.01 3689.40 79.96 1.00 141.59 2660.75
   05:38:35.877.09-Sep-2020 5634.01 3689.39 79.95 1.00 141.79 2660.75
   05:38:36.077.09-Sep-2020 5634.01 3689.40 79.95 1.00 141.99 2660.75
   05:38:36.277.09-Sep-2020 5634.01 3689.40 79.95 1.00 142.19 2660.75
   05:38:36.477.09-Sep-2020 5634.01 3689.39 79.95 1.00 142.39 2660.75
   05:38:36.677.09-Sep-2020 5634.01 3689.39 79.95 1.00 142.59 2660.75
   05:38:36.877.09-Sep-2020 5634.01 3689.54 79.95 1.00 142.79 2660.75
   05:38:37.077.09-Sep-2020 5634.01 3689.23 79.95 1.00 142.99 2660.75
   05:38:37.277.09-Sep-2020 5634.01 3689.23 79.95 1.00 143.19 2660.75
   05:38:37.477.09-Sep-2020 5634.01 3689.38 79.95 1.00 143.39 2660.75
   05:38:37.677.09-Sep-2020 5634.01 3689.35 79.95 1.00 143.59 2660.75
   05:38:37.877.09-Sep-2020 5634.01 3689.42 79.95 1.00 143.79 2660.75
   05:38:38.077.09-Sep-2020 5634.01 3689.38 79.95 1.00 143.99 2660.75
   05:38:38.277.09-Sep-2020 5634.01 3689.40 79.95 1.00 144.19 2660.75
   05:38:38.477.09-Sep-2020 5634.01 3689.38 79.95 1.00 144.39 2660.75
   05:38:38.677.09-Sep-2020 5634.01 3689.40 79.95 1.00 144.59 2660.75
   05:38:38.877.09-Sep-2020 5634.01 3689.37 79.95 1.00 144.79 2660.75
   05:38:39.077.09-Sep-2020 5634.01 3689.38 79.95 1.00 144.99 2660.75
   05:38:39.277.09-Sep-2020 5634.01 3689.38 79.95 1.00 145.19 2660.75
   05:38:39.477.09-Sep-2020 5634.01 3689.38 79.95 1.00 145.39 2660.75
   05:38:39.677.09-Sep-2020 5634.01 3689.39 79.95 1.00 145.59 2660.75
   05:38:39.877.09-Sep-2020 5634.01 3689.40 79.95 1.00 145.79 2660.75
   05:38:40.077.09-Sep-2020 5634.01 3689.28 79.95 1.00 145.99 2660.75
   05:38:40.277.09-Sep-2020 5634.01 3689.28 79.95 1.00 146.19 2660.75
   05:38:40.477.09-Sep-2020 5634.01 3689.57 79.95 1.00 146.39 2660.75
   05:38:40.677.09-Sep-2020 5634.01 3672.17 79.95 1.00 146.59 2660.75
   05:38:40.877.09-Sep-2020 5634.01 3606.80 79.95 1.00 146.79 2660.75
   05:38:41.077.09-Sep-2020 5634.01 3597.27 79.95 1.00 146.99 2660.75
   05:38:41.277.09-Sep-2020 5634.01 3597.27 79.95 1.00 147.19 2660.75
   05:38:41.477.09-Sep-2020 5634.01 3598.37 79.95 1.00 147.39 2660.75
   05:38:41.677.09-Sep-2020 5634.01 3601.40 79.95 1.00 147.59 2660.75
   05:38:41.877.09-Sep-2020 5634.01 3595.69 79.95 1.00 147.79 2660.75
   05:38:42.077.09-Sep-2020 5634.01 3595.56 79.95 1.00 147.99 2660.75
   05:38:42.277.09-Sep-2020 5634.01 3596.84 79.95 1.00 148.19 2660.75
   05:38:42.477.09-Sep-2020 5634.01 3597.51 79.95 1.00 148.39 2660.75
   05:38:42.677.09-Sep-2020 5634.01 3596.05 79.95 1.00 148.59 2660.75
   05:38:42.877.09-Sep-2020 5634.01 3598.45 79.95 1.00 148.79 2660.75
   05:38:43.077.09-Sep-2020 5634.01 3596.39 79.95 1.00 148.99 2660.75
   05:38:43.277.09-Sep-2020 5634.01 3596.39 79.95 1.00 149.19 2660.75
   05:38:43.477.09-Sep-2020 5634.01 3595.83 79.95 1.00 149.39 2660.75
   05:38:43.677.09-Sep-2020 5634.01 3596.63 79.95 1.00 149.59 2660.75
   05:38:43.877.09-Sep-2020 5634.01 3594.48 79.95 1.00 149.79 2660.75
   05:38:44.077.09-Sep-2020 5634.01 3592.98 79.95 1.00 149.99 2660.75
   05:38:44.277.09-Sep-2020 5634.01 3592.98 79.95 1.00 150.19 2660.75
   05:38:44.477.09-Sep-2020 5634.01 3595.46 79.95 1.00 150.39 2660.75
   05:38:44.677.09-Sep-2020 5634.01 3597.63 79.95 1.00 150.59 2660.75
   05:38:44.877.09-Sep-2020 5634.01 3595.09 79.95 1.00 150.79 2660.75
   05:38:45.077.09-Sep-2020 5634.01 3591.65 79.95 1.00 150.99 2660.75
   05:38:45.277.09-Sep-2020 5634.01 3591.65 79.95 1.00 151.19 2660.75
   05:38:45.477.09-Sep-2020 5634.01 3593.42 79.95 1.00 151.39 2660.75
   05:38:45.677.09-Sep-2020 5634.01 3593.05 79.95 1.00 151.59 2660.75
   05:38:45.877.09-Sep-2020 5634.01 3588.48 79.95 1.00 151.79 2660.75
   05:38:46.077.09-Sep-2020 5634.01 3586.94 79.95 1.00 151.99 2660.75
   05:38:46.277.09-Sep-2020 5634.01 3596.60 79.95 1.00 152.19 2660.75
   05:38:46.477.09-Sep-2020 5634.01 3597.75 79.95 1.00 152.39 2660.75
   05:38:46.677.09-Sep-2020 5634.01 3596.42 79.95 1.00 152.59 2660.75
   05:38:46.877.09-Sep-2020 5634.01 3592.02 79.95 1.00 152.79 2660.75
   05:38:47.076.09-Sep-2020 5634.01 3591.60 79.95 1.00 152.99 2660.75
   05:38:47.276.09-Sep-2020 5634.01 3591.24 79.95 1.00 153.19 2660.75
   05:38:47.476.09-Sep-2020 5634.01 3592.95 79.95 1.00 153.39 2660.75
   05:38:47.676.09-Sep-2020 5634.01 3583.85 79.95 1.00 153.59 2660.75
   05:38:47.876.09-Sep-2020 5634.01 3587.20 79.95 1.00 153.79 2660.75
   05:38:48.076.09-Sep-2020 5634.01 3583.78 79.95 1.00 153.99 2660.75
   05:38:48.276.09-Sep-2020 5634.01 3583.78 79.95 1.00 154.19 2660.75
   05:38:48.476.09-Sep-2020 5634.01 3579.26 79.95 1.00 154.39 2660.75
   05:38:48.676.09-Sep-2020 5634.01 3583.61 79.95 1.00 154.59 2660.75
   05:38:48.876.09-Sep-2020 5634.01 3584.11 79.95 1.00 154.79 2660.75
   05:38:49.076.09-Sep-2020 5634.01 3584.38 79.95 1.00 154.99 2660.75
   05:38:49.276.09-Sep-2020 5634.01 3584.38 79.95 1.00 155.19 2660.75
   05:38:49.476.09-Sep-2020 5634.01 3580.46 79.95 1.00 155.39 2660.75
   05:38:49.676.09-Sep-2020 5634.01 3578.23 79.95 1.00 155.59 2660.75
   05:38:49.876.09-Sep-2020 5634.01 3583.26 79.95 1.00 155.79 2660.75
   05:38:50.076.09-Sep-2020 5634.01 3580.13 79.95 1.00 155.99 2660.75
   05:38:50.276.09-Sep-2020 5634.01 3576.29 79.95 1.00 156.19 2660.75
   05:38:50.476.09-Sep-2020 5634.01 3580.95 79.95 1.00 156.39 2660.75
   05:38:50.676.09-Sep-2020 5634.01 3580.87 79.95 1.00 156.59 2660.75
   05:38:50.876.09-Sep-2020 5634.01 3650.09 79.95 1.00 156.79 2660.75
   05:38:51.076.09-Sep-2020 5634.01 3685.15 79.95 1.00 156.99 2660.75
   05:38:51.276.09-Sep-2020 5634.01 3685.15 79.95 1.00 157.19 2660.75
   05:38:51.476.09-Sep-2020 5634.01 3686.88 79.95 1.00 157.39 2660.75
   05:38:51.676.09-Sep-2020 5634.01 3687.23 79.95 1.00 157.59 2660.75
   05:38:51.876.09-Sep-2020 5634.01 3687.63 79.95 1.00 157.79 2660.75
   05:38:52.076.09-Sep-2020 5634.01 3687.59 79.95 1.00 157.99 2660.75
   05:38:52.276.09-Sep-2020 5634.01 3687.59 79.95 1.00 158.19 2660.75
   05:38:52.476.09-Sep-2020 5634.01 3687.99 79.95 1.00 158.39 2660.75
   05:38:52.676.09-Sep-2020 5634.01 3688.08 79.95 1.00 158.59 2660.75
   05:38:52.876.09-Sep-2020 5634.01 3688.26 79.95 1.00 158.79 2660.75
   05:38:53.076.09-Sep-2020 5634.01 3688.42 79.95 1.00 158.99 2660.75
   05:38:53.276.09-Sep-2020 5634.01 3688.42 79.95 1.00 159.19 2660.75
   05:38:53.476.09-Sep-2020 5634.01 3688.48 79.95 1.00 159.39 2660.75
   05:38:53.676.09-Sep-2020 5634.01 3688.51 79.95 1.00 159.59 2660.75
   05:38:53.876.09-Sep-2020 5634.01 3688.74 79.95 1.00 159.79 2660.75
   05:38:54.076.09-Sep-2020 5634.01 3688.40 79.95 1.00 159.99 2660.75
   05:38:54.276.09-Sep-2020 5634.01 3688.68 79.95 1.00 160.19 2660.75
   05:38:54.476.09-Sep-2020 5634.01 3688.68 79.95 1.00 160.39 2660.75
   05:38:54.676.09-Sep-2020 5634.01 3688.76 79.95 1.00 160.59 2660.75
   05:38:54.876.09-Sep-2020 5634.01 3688.84 79.95 1.00 160.79 2660.75
