~Version Information
 VERS.                  2.0:   CWLS log ASCII Standard -VERSION 2.0
 WRAP.                   NO:   One line per depth step
~Well Information Block
#MNEM.UNIT     VALUE/NAME     DESCRIPTION
#---------     -----------    ---------------------------
 STRT.S             08:13:58 09-Sep-20: START TIME 08:13:58 09-Sep-20
 STOP.S             08:20:59 09-Sep-20: STOP TIME  08:20:59 09-Sep-20
 STEP.S                   0.00: STEP TIME
 NULL.                 -999.25: NULL VALUE
 MDS .        Operator Entered:  MAG DATA SOURCE
 PDAT.          Mean Sea Level:  PERMANENT DATUM
 DCON.         Sperry Drilling:  DIRECTNL CONTR
 RIG .              West Azeri:  RIG NAME
 WELL.           C40 (Slot 20):  WELL NAME
 SRVC.     Turan Drilling Engineering:  CONTRACTOR
 FLD .                     ACG:  FIELD NAME
 CTRY.              Azerbaijan:  COUNTRY NAME
 PROV.                    Baku:  PROVINCE
 STAT.                    Baku:  STATE NAME
 REGN.                   EESSA:  REGION
 BASE.              Azerbaijan:  LOGGING EQUIPMENT BASE LOCATION
 COMP.     BP Exploration (Caspian Sea) Ltd:  COMPANY
 WTYP.                Deviated:  WELL TYPE
 SON .        AZ-XX-0906344804:  JOB NUMBER
 FTOP.          Formation Tops:  FORM TOPS DESC
 ILTD.               Lithology:  INTERP LTH DESC
 SVYD.                  Survey:  SURVEY DESC
 DMOD.             Drill Model:  DRILL MOD DESC
 HPTY.       Minimum Curvature:  HOLE POS TYPE
 NREF.                    Grid:  NORTH REFERENCE
 SPUD.               01-Jan-20:  SPUD DATE
 DATE.      00.59.44 15-Sep-20:  END TIME
 STIM.      12.00.00 12-Jun-20:  START TIME
 DMF .             Drill Floor:  DRILL MEAS FROM
 DFST.                        :  DIST FSL TEXT
 DFWT.                        :  DIST FWL TEXT
 API .                        :  API NUMBER
 CNTY.                        :  COUNTY
 UWI .                        :  UNIQUE WELL IDENTIFIER
 LOC .                        :  LOCATION
 LMF .             Drill Floor:  LOG MEASURED FROM
 VSNS.m                   2.88:  VERT SEC N/S
 VSEW.m                  -3.84:  VERT SEC E/W
 AGAP.m                  43.42:  AIR GAP
 APD .m                  43.42:  DEPTH ABOVE PD
 WDMS.m                 118.27:  WD ELEV
 EGL .m                   0.00:  GROUND ELEVATION
 EPD .m                   0.00:  ELEVATION
 AZTC.deg                 6.23:  AZM TOTAL CORR
 GRDC.deg                 0.20:  GRID CORRECTION
 MDEC.deg                 6.43:  MAGNETIC DECL
 MDIP.deg                59.49:  MAGNETIC DIP
 MFLD.nT              50277.00:  MAGNETIC FIELD
 GVFD.g                   1.00:  GRAVITY FIELD
 VSDR.deg               173.20:  VERT SEC DIRECT
 TDD .m                5790.01:  TOTAL DEPTH (DRILLER)
 SDEP.m                5231.01:  START DEPTH
 DFSL.m                   0.00:  DISTANCE FSL
 DFWL.m                   0.00:  DISTANCE FWL
 UTMY.m             4435808.83:  UTM Y
 UTMX.m              526266.40:  UTM X
 WHEW.m                  -3.84:  WELL HEAD E/W
 WHNS.m                   2.88:  WELL HEAD N/S
 LONG.deg                51.31:  LONGITUDE
 LATI.deg                40.06:  LATITUDE
 TVDS.m                  43.42:  TVDSS CORRECTN
 DEP .m                 430.08:  DEPTH
 EKB .m                  43.42:  KB ELEVATION
 EDF .m                  43.42:  DF ELEVATION
 TDL .m                 559.00:  TOTAL DEPTH (LOGGER)
 MAGU.                 1849381:  MAGUTM CHECKSUM
 VSC .                       0:  VS TO CLOSURE
~Parameter Information Block
#MNEM.UNIT       Value        Description
#---------     -----------    ---------------------------
 AV  .mps                 4.87:  Ann Velocity 
 AVMX.mps                 7.08:  Max Ann Veloc 
 AZIF.deg               108.87:  Azm, Final 
 BHAT.                  Rotary:  BHA Type 
 BROT.°/30m               0.35:  Build Rotating 
 BS  .in                  8.50:  Bit Size 
 BSZ .in                  8.50:  Bit Size 
 BTPL.psig              360.00:  Bit Press Loss 
 CABU.                     Yes:  Customer Abuse 
 COMM.                     t›a:  Run Comments 1 
 TCS .hr                106.24:  Time Ciculation Ended 
 CV  .mps                 1.77:  Crit Velocity 
 CVMX.mps                 2.03:  Max Crit Veloc 
 DD1 .         Aykhan Agagulov:  Direct Drillr 1 
 DD2 .            Nonso Okofor:  Direct Drillr 2 
 DDSV.               Geo-Pilot:  DD Service 
 DEFF.%                  98.00:  % Det Eff 
 DLRX.°/30m               0.50:  Dogleg Rot Max 
 DLSO.°/30m               0.40:  Dogleg Oriented 
 DLSX.°/30m               0.94:  Dogleg Str Max 
 DRET.      20.30.00 08-Sep-20:  Drill End Time 
 DRST.      22.15.00 06-Sep-20:  Drill Start Tim 
 DTIM.hr                 31.31:  Time Drilling 
 EDEP.m                5790.01:  End Depth 
 ENG1.           Amrah Tahirov:  Engineer 1 
 ENG2.         Dair Mahammadov:  Engineer 2 
 ENG3.           Emil Huseynov:  Engineer 3 
 ETIM.      04.01.04 12-Sep-20:  End Time 
 FLOI.gpm               450.00:  Flow In 
 FLON.gpm               450.00:  Flow In Min 
 FLOS.cptm                2.00:  Fluid Loss 
 FLOX.gpm               450.00:  Flow In Max 
 FTRO.       Formation Presure:  FTWD Run Obj 
 HFLO.                      No:  High Flow 
 HPRE.                      No:  High Pressure 
 HTEM.                      No:  High Temp 
 HYDO.m                   1.80:  Hydro Offset 
 IFIN.deg                72.03:  Inc, Final 
 IMAX.deg                73.72:  Inc Max 
 IMIN.deg                70.94:  Inc Min 
 IMND.m                5508.52:  Inc Min Depth 
 IMXD.m                5253.60:  Inc Max Depth 
 JARR.                      No:  Jarring 
 LETM.      20.30.00 08-Sep-20:  Log End Time 
 LOST.hr                     0:  Lost Rig Time 
 LSTM.      22.15.00 06-Sep-20:  Log Start Time 
 MDCL.ppm             36000.00:  Mud Chlorides 
 MDES.     Inversion Oil/Synthetic:  Mud Desc 
 DFD .sg                  1.44:  Mud Density 
 MDMN.sg                  1.44:  Dens Mud Min 
 MDMX.sg                  1.57:  Dens Mud Max 
 MOIL.                      70:  Run Mud Oil % 
 MOWR.                   70:30:  Run Mud OWR 
 MSND.                       0:  Run Mud Sand % 
 MSOL.                      21:  Run Mud Solids% 
 DFV .spqt               68.00:  Mud Viscosity 
 MWOD.in                  6.75:  MWD Tool OD 
 MWSI.                     Yes:  Serv Intrp, MWD 
 OTIM.hr                174.84:  Time Operating 
 PCON.           Look Like New:  Pad Condition 
 PMAX.psia            10616.93:  Press Op, Max 
 PV  .cP                 50.00:  Mud PV 
 RUN .                     700:  Run Number 
 ROPA.m/hr               14.24:  ROP Avg 
 ROPN.m/hr               10.00:  ROP Min 
 ROPX.m/hr               32.00:  ROP Max 
 RPMA.rpm               120.90:  RPM Surface Avg 
 RPMN.rpm               120.00:  RPM Surface Min 
 RPMX.rpm               140.00:  RPM Surface Max 
 RRUN.                    0700:  Rig Run Number 
 RTIM.hr                  3.20:  Time Reaming 
 SAZI.deg               109.99:  Azm, Start 
 SDEP.m                5231.01:  Start Depth 
 SIDD.                      No:  Serv Intrp, DD 
 SINC.deg                73.72:  Inc, Start 
 SPPA.psig             3051.00:  SPP Avg 
 SPPN.psig             2950.00:  SPP Min 
 SPPX.psig             3250.00:  SPP Max 
 STIM.      08.00.00 05-Sep-20:  Start Time 
 SVCS.                 DD, MWD:  Services 
 SVER.                    9.20:  Sperry Version 
 TDAT.m                 559.00:  Tot Depth Attmp 
 TDDF.                      No:  Trip for DD 
 TDLG.m                 559.00:  Tot Depth Loggd 
 TFF .                      No:  Trip for Fail 
 TQAA.f-kp               26.49:  Torque Abs Avg 
 TQAN.f-kp               25.00:  Torque Abs Min 
 TQAX.f-kp               27.00:  Torque Abs Max 
 TRRT.°/30m               1.50:  Turn Rotating 
 MRT .                    HCIM:  Maximum Recorded Temperature 
 TTMX.degC               90.20:  Max Tool Temp 
 VS01.                90542671:  Virtual Str1 SN 
 VS02.                90545185:  Virtual Str2 SN 
 VS03.                90602015:  Virtual Str3 SN 
 VS04.                90515230:  Virtual Str4 SN 
 WBMN.klb                 5.00:  WOB Min 
 WOBA.klb                14.79:  WOB Avg 
 WOBX.klb                20.00:  WOB Max 
 YP  .lhf2               29.00:  Yield Point 
~Curve Information Block
#MNEM.UNIT                 API CODE     Curve Description
#---------               -----------    ---------------------------
 TIME.HHMMSS            00 000 000 000:  GT Time & Date
 GTDEPTH.m              00 000 000 000:  GT Depth
 GTPQH.psia             00 000 000 000:  GT HR Quartz Pressure
 GTTQ.degC              00 000 000 000:  GT Quartz Temperature
 GTTN.NONE              00 000 000 000:  GT Test Number
 GTET.sec               00 000 000 000:  GT Elapsed Test Time
 GTTVD.m                00 000 000 000:  GT True Vertical Depth
#Other Information
#
#WARRANTY: Halliburton will use its best efforts to furnish customers with 
#accurate information and interpretations that are part of, and incident to, the services 
#provided.  However, Halliburton cannot and does not warrant the accuracy 
#or correctness of such information and interpretations.  Under no circumstances should any 
#such information or interpretation be relied upon as the sole basis for any drilling, 
#completion, production, or financial decision or any procedure involving any risk to the 
#safety of any drilling venture, drilling rig or its crew or any other third party.  The 
#Customer has full responsibility for all drilling, completion and production operation.  
#Halliburton makes no representations or warranties, either expressed or 
#implied, including, but not limited to, the implied warranties of merchantability or fitness 
#for a particular purpose, with respect to the services rendered.  In no event will 
#Halliburton be liable for failure to obtain any particular results or for 
#any damages, including, but not limited to, indirect, special or consequential damages, 
#resulting from the use of any information or interpretation provided by Halliburton.
#
~A           TIME           GTDEPTH  GTPQH  GTTQ  GTTN  GTET   GTTVD  
# ...
   08:19:43.451.09-Sep-2020 5533.01 3703.68 77.99 5.00 345.14 2629.43
   08:19:43.651.09-Sep-2020 5533.01 3703.68 77.99 5.00 345.34 2629.43
   08:19:43.851.09-Sep-2020 5533.01 3703.50 77.99 5.00 345.54 2629.43
   08:19:44.051.09-Sep-2020 5533.01 3703.96 77.99 5.00 345.74 2629.43
   08:19:44.251.09-Sep-2020 5533.01 3703.72 77.99 5.00 345.94 2629.43
   08:19:44.451.09-Sep-2020 5533.01 3703.75 77.99 5.00 346.14 2629.43
   08:19:44.651.09-Sep-2020 5533.01 3703.75 77.99 5.00 346.34 2629.43
   08:19:44.852.09-Sep-2020 5533.01 3703.47 77.99 5.00 346.54 2629.43
   08:19:45.052.09-Sep-2020 5533.01 3704.04 77.99 5.00 346.74 2629.43
   08:19:45.252.09-Sep-2020 5533.01 3703.72 77.99 5.00 346.94 2629.43
   08:19:45.452.09-Sep-2020 5533.01 3703.79 77.99 5.00 347.14 2629.43
   08:19:45.652.09-Sep-2020 5533.01 3703.79 77.99 5.00 347.34 2629.43
   08:19:45.852.09-Sep-2020 5533.01 3703.76 77.99 5.00 347.54 2629.43
   08:19:46.052.09-Sep-2020 5533.01 3703.69 77.99 5.00 347.74 2629.43
   08:19:46.252.09-Sep-2020 5533.01 3703.75 77.99 5.00 347.94 2629.43
   08:19:46.452.09-Sep-2020 5533.01 3703.56 77.99 5.00 348.14 2629.43
   08:19:46.652.09-Sep-2020 5533.01 3703.93 77.99 5.00 348.34 2629.43
   08:19:46.852.09-Sep-2020 5533.01 3703.74 77.99 5.00 348.54 2629.43
   08:19:47.052.09-Sep-2020 5533.01 3703.76 77.99 5.00 348.74 2629.43
   08:19:47.253.09-Sep-2020 5533.01 3703.69 77.99 5.00 348.94 2629.43
   08:19:47.453.09-Sep-2020 5533.01 3703.77 77.99 5.00 349.14 2629.43
   08:19:47.653.09-Sep-2020 5533.01 3703.77 77.99 5.00 349.34 2629.43
   08:19:47.853.09-Sep-2020 5533.01 3703.62 77.99 5.00 349.54 2629.43
   08:19:48.053.09-Sep-2020 5533.01 3703.73 77.99 5.00 349.74 2629.43
   08:19:48.253.09-Sep-2020 5533.01 3703.71 77.99 5.00 349.94 2629.43
   08:19:48.453.09-Sep-2020 5533.01 3703.82 77.99 5.00 350.14 2629.43
   08:19:48.653.09-Sep-2020 5533.01 3703.82 77.99 5.00 350.34 2629.43
   08:19:48.853.09-Sep-2020 5533.01 3703.72 77.99 5.00 350.54 2629.43
   08:19:49.053.09-Sep-2020 5533.01 3703.73 77.99 5.00 350.74 2629.43
   08:19:49.253.09-Sep-2020 5533.01 3703.75 77.99 5.00 350.94 2629.43
   08:19:49.453.09-Sep-2020 5533.01 3703.73 77.99 5.00 351.14 2629.43
   08:19:49.653.09-Sep-2020 5533.01 3703.73 77.99 5.00 351.34 2629.43
   08:19:49.854.09-Sep-2020 5533.01 3703.72 77.99 5.00 351.54 2629.43
   08:19:50.054.09-Sep-2020 5533.01 3703.72 77.99 5.00 351.74 2629.43
   08:19:50.254.09-Sep-2020 5533.01 3703.75 77.99 5.00 351.94 2629.43
   08:19:50.454.09-Sep-2020 5533.01 3703.72 77.99 5.00 352.14 2629.43
   08:19:50.654.09-Sep-2020 5533.01 3703.74 77.99 5.00 352.34 2629.43
   08:19:50.854.09-Sep-2020 5533.01 3703.73 77.99 5.00 352.54 2629.43
   08:19:51.054.09-Sep-2020 5533.01 3703.74 77.99 5.00 352.74 2629.43
   08:19:51.254.09-Sep-2020 5533.01 3703.73 77.99 5.00 352.94 2629.43
   08:19:51.454.09-Sep-2020 5533.01 3703.75 77.99 5.00 353.14 2629.43
   08:19:51.654.09-Sep-2020 5533.01 3703.75 77.99 5.00 353.34 2629.43
   08:19:51.854.09-Sep-2020 5533.01 3703.77 77.99 5.00 353.54 2629.43
   08:19:52.054.09-Sep-2020 5533.01 3703.72 77.99 5.00 353.74 2629.43
   08:19:52.254.09-Sep-2020 5533.01 3703.80 77.99 5.00 353.94 2629.43
   08:19:52.455.09-Sep-2020 5533.01 3703.64 77.99 5.00 354.14 2629.43
   08:19:52.655.09-Sep-2020 5533.01 3703.64 77.99 5.00 354.34 2629.43
   08:19:52.855.09-Sep-2020 5533.01 3703.75 77.99 5.00 354.54 2629.43
   08:19:53.055.09-Sep-2020 5533.01 3703.70 77.99 5.00 354.74 2629.43
   08:19:53.255.09-Sep-2020 5533.01 3703.72 77.99 5.00 354.94 2629.43
   08:19:53.455.09-Sep-2020 5533.01 3703.72 77.99 5.00 355.14 2629.43
   08:19:53.655.09-Sep-2020 5533.01 3703.72 77.99 5.00 355.34 2629.43
   08:19:53.855.09-Sep-2020 5533.01 3703.73 77.99 5.00 355.54 2629.43
   08:19:54.055.09-Sep-2020 5533.01 3703.72 77.99 5.00 355.74 2629.43
   08:19:54.255.09-Sep-2020 5533.01 3703.71 77.99 5.00 355.94 2629.43
   08:19:54.455.09-Sep-2020 5533.01 3703.73 77.99 5.00 356.14 2629.43
   08:19:54.655.09-Sep-2020 5533.01 3703.52 77.99 5.00 356.34 2629.43
   08:19:54.856.09-Sep-2020 5533.01 3703.96 77.99 5.00 356.54 2629.43
   08:19:55.056.09-Sep-2020 5533.01 3703.71 77.99 5.00 356.74 2629.43
   08:19:55.256.09-Sep-2020 5533.01 3703.75 77.99 5.00 356.94 2629.43
   08:19:55.456.09-Sep-2020 5533.01 3703.66 77.99 5.00 357.14 2629.43
   08:19:55.656.09-Sep-2020 5533.01 3703.66 77.99 5.00 357.34 2629.43
   08:19:55.856.09-Sep-2020 5533.01 3703.85 77.99 5.00 357.54 2629.43
   08:19:56.056.09-Sep-2020 5533.01 3703.60 77.99 5.00 357.74 2629.43
   08:19:56.256.09-Sep-2020 5533.01 3703.73 77.99 5.00 357.94 2629.43
   08:19:56.456.09-Sep-2020 5533.01 3703.70 77.99 5.00 358.14 2629.43
   08:19:56.656.09-Sep-2020 5533.01 3703.70 77.99 5.00 358.34 2629.43
   08:19:56.856.09-Sep-2020 5533.01 3703.48 77.99 5.00 358.54 2629.43
   08:19:57.056.09-Sep-2020 5533.01 3703.91 77.99 5.00 358.74 2629.43
   08:19:57.256.09-Sep-2020 5533.01 3703.72 77.99 5.00 358.94 2629.43
   08:19:57.457.09-Sep-2020 5533.01 3703.76 77.98 5.00 359.14 2629.43
   08:19:57.657.09-Sep-2020 5533.01 3703.76 77.98 5.00 359.34 2629.43
   08:19:57.857.09-Sep-2020 5533.01 3703.75 77.98 5.00 359.54 2629.43
   08:19:58.057.09-Sep-2020 5533.01 3703.71 77.99 5.00 359.74 2629.43
   08:19:58.257.09-Sep-2020 5533.01 3703.73 77.98 5.00 359.94 2629.43
   08:19:58.457.09-Sep-2020 5533.01 3703.88 77.98 5.00 360.14 2629.43
   08:19:58.657.09-Sep-2020 5533.01 3703.57 77.98 5.00 360.34 2629.43
   08:19:58.857.09-Sep-2020 5533.01 3703.76 77.98 5.00 360.54 2629.43
   08:19:59.057.09-Sep-2020 5533.01 3703.72 77.98 5.00 360.74 2629.43
   08:19:59.257.09-Sep-2020 5533.01 3703.79 77.98 5.00 360.94 2629.43
   08:19:59.457.09-Sep-2020 5533.01 3703.67 77.98 5.00 361.14 2629.43
   08:19:59.657.09-Sep-2020 5533.01 3703.67 77.98 5.00 361.34 2629.43
   08:19:59.857.09-Sep-2020 5533.01 3703.72 77.98 5.00 361.54 2629.43
   08:20:00.058.09-Sep-2020 5533.01 3703.76 77.98 5.00 361.74 2629.43
   08:20:00.258.09-Sep-2020 5533.01 3703.72 77.98 5.00 361.94 2629.43
   08:20:00.458.09-Sep-2020 5533.01 3703.79 77.98 5.00 362.14 2629.43
   08:20:00.658.09-Sep-2020 5533.01 3703.79 77.98 5.00 362.34 2629.43
   08:20:00.858.09-Sep-2020 5533.01 3703.72 77.98 5.00 362.54 2629.43
   08:20:01.058.09-Sep-2020 5533.01 3703.75 77.98 5.00 362.74 2629.43
   08:20:01.258.09-Sep-2020 5533.01 3703.72 77.98 5.00 362.94 2629.43
   08:20:01.458.09-Sep-2020 5533.01 3703.73 77.98 5.00 363.14 2629.43
   08:20:01.658.09-Sep-2020 5533.01 3703.73 77.98 5.00 363.34 2629.43
   08:20:01.858.09-Sep-2020 5533.01 3703.72 77.98 5.00 363.54 2629.43
   08:20:02.058.09-Sep-2020 5533.01 3703.73 77.98 5.00 363.74 2629.43
   08:20:02.258.09-Sep-2020 5533.01 3703.74 77.98 5.00 363.94 2629.43
   08:20:02.459.09-Sep-2020 5533.01 3703.73 77.98 5.00 364.14 2629.43
   08:20:02.659.09-Sep-2020 5533.01 3703.73 77.98 5.00 364.34 2629.43
   08:20:02.859.09-Sep-2020 5533.01 3703.52 77.98 5.00 364.54 2629.43
   08:20:03.059.09-Sep-2020 5533.01 3710.89 77.98 5.00 364.74 2629.43
   08:20:03.259.09-Sep-2020 5533.01 3775.53 77.98 5.00 364.94 2629.43
   08:20:03.459.09-Sep-2020 5533.01 6313.95 77.98 5.00 365.14 2629.43
   08:20:03.659.09-Sep-2020 5533.01 6313.95 77.98 5.00 365.34 2629.43
   08:20:03.859.09-Sep-2020 5533.01 6472.21 77.98 5.00 365.54 2629.43
   08:20:04.059.09-Sep-2020 5533.01 6470.28 77.99 5.00 365.74 2629.43
   08:20:04.259.09-Sep-2020 5533.01 6469.94 77.99 5.00 365.94 2629.43
   08:20:04.459.09-Sep-2020 5533.01 6470.33 77.99 5.00 366.14 2629.43
   08:20:04.659.09-Sep-2020 5533.01 6470.33 77.99 5.00 366.34 2629.43
   08:20:04.859.09-Sep-2020 5533.01 6472.41 77.99 5.00 366.54 2629.43
   08:20:05.060.09-Sep-2020 5533.01 6471.64 77.99 5.00 366.74 2629.43
   08:20:05.260.09-Sep-2020 5533.01 6471.89 77.99 5.00 366.94 2629.43
   08:20:05.460.09-Sep-2020 5533.01 6472.22 77.99 5.00 367.14 2629.43
   08:20:05.660.09-Sep-2020 5533.01 6472.22 77.99 5.00 367.35 2629.43
   08:20:05.860.09-Sep-2020 5533.01 6473.02 78.00 5.00 367.55 2629.43
   08:20:06.060.09-Sep-2020 5533.01 6473.83 78.00 5.00 367.75 2629.43
   08:20:06.260.09-Sep-2020 5533.01 6473.69 78.00 5.00 367.95 2629.43
