~Version Information
 VERS.                  2.0:   CWLS log ASCII Standard -VERSION 2.0
 WRAP.                   NO:   One line per depth step
~Well Information Block
#MNEM.UNIT     VALUE/NAME     DESCRIPTION
#---------     -----------    ---------------------------
 STRT.S             11:14:18 09-Sep-20: START TIME 11:14:18 09-Sep-20
 STOP.S             11:21:20 09-Sep-20: STOP TIME  11:21:20 09-Sep-20
 STEP.S                   0.00: STEP TIME
 NULL.                 -999.25: NULL VALUE
 MDS .        Operator Entered:  MAG DATA SOURCE
 PDAT.          Mean Sea Level:  PERMANENT DATUM
 DCON.         Sperry Drilling:  DIRECTNL CONTR
 RIG .              West Azeri:  RIG NAME
 WELL.           C40 (Slot 20):  WELL NAME
 SRVC.     Turan Drilling Engineering:  CONTRACTOR
 FLD .                     ACG:  FIELD NAME
 CTRY.              Azerbaijan:  COUNTRY NAME
 PROV.                    Baku:  PROVINCE
 STAT.                    Baku:  STATE NAME
 REGN.                   EESSA:  REGION
 BASE.              Azerbaijan:  LOGGING EQUIPMENT BASE LOCATION
 COMP.     BP Exploration (Caspian Sea) Ltd:  COMPANY
 WTYP.                Deviated:  WELL TYPE
 SON .        AZ-XX-0906344804:  JOB NUMBER
 FTOP.          Formation Tops:  FORM TOPS DESC
 ILTD.               Lithology:  INTERP LTH DESC
 SVYD.                  Survey:  SURVEY DESC
 DMOD.             Drill Model:  DRILL MOD DESC
 HPTY.       Minimum Curvature:  HOLE POS TYPE
 NREF.                    Grid:  NORTH REFERENCE
 SPUD.               01-Jan-20:  SPUD DATE
 DATE.      00.59.44 15-Sep-20:  END TIME
 STIM.      12.00.00 12-Jun-20:  START TIME
 DMF .             Drill Floor:  DRILL MEAS FROM
 DFST.                        :  DIST FSL TEXT
 DFWT.                        :  DIST FWL TEXT
 API .                        :  API NUMBER
 CNTY.                        :  COUNTY
 UWI .                        :  UNIQUE WELL IDENTIFIER
 LOC .                        :  LOCATION
 LMF .             Drill Floor:  LOG MEASURED FROM
 VSNS.m                   2.88:  VERT SEC N/S
 VSEW.m                  -3.84:  VERT SEC E/W
 AGAP.m                  43.42:  AIR GAP
 APD .m                  43.42:  DEPTH ABOVE PD
 WDMS.m                 118.27:  WD ELEV
 EGL .m                   0.00:  GROUND ELEVATION
 EPD .m                   0.00:  ELEVATION
 AZTC.deg                 6.23:  AZM TOTAL CORR
 GRDC.deg                 0.20:  GRID CORRECTION
 MDEC.deg                 6.43:  MAGNETIC DECL
 MDIP.deg                59.49:  MAGNETIC DIP
 MFLD.nT              50277.00:  MAGNETIC FIELD
 GVFD.g                   1.00:  GRAVITY FIELD
 VSDR.deg               173.20:  VERT SEC DIRECT
 TDD .m                5790.01:  TOTAL DEPTH (DRILLER)
 SDEP.m                5231.01:  START DEPTH
 DFSL.m                   0.00:  DISTANCE FSL
 DFWL.m                   0.00:  DISTANCE FWL
 UTMY.m             4435808.83:  UTM Y
 UTMX.m              526266.40:  UTM X
 WHEW.m                  -3.84:  WELL HEAD E/W
 WHNS.m                   2.88:  WELL HEAD N/S
 LONG.deg                51.31:  LONGITUDE
 LATI.deg                40.06:  LATITUDE
 TVDS.m                  43.42:  TVDSS CORRECTN
 DEP .m                 430.08:  DEPTH
 EKB .m                  43.42:  KB ELEVATION
 EDF .m                  43.42:  DF ELEVATION
 TDL .m                 559.00:  TOTAL DEPTH (LOGGER)
 MAGU.                 1849381:  MAGUTM CHECKSUM
 VSC .                       0:  VS TO CLOSURE
~Parameter Information Block
#MNEM.UNIT       Value        Description
#---------     -----------    ---------------------------
 AV  .mps                 4.87:  Ann Velocity 
 AVMX.mps                 7.08:  Max Ann Veloc 
 AZIF.deg               108.87:  Azm, Final 
 BHAT.                  Rotary:  BHA Type 
 BROT.°/30m               0.35:  Build Rotating 
 BS  .in                  8.50:  Bit Size 
 BSZ .in                  8.50:  Bit Size 
 BTPL.psig              360.00:  Bit Press Loss 
 CABU.                     Yes:  Customer Abuse 
 TCS .hr                106.24:  Time Ciculation Ended 
 CV  .mps                 1.77:  Crit Velocity 
 CVMX.mps                 2.03:  Max Crit Veloc 
 DD1 .         Aykhan Agagulov:  Direct Drillr 1 
 DD2 .            Nonso Okofor:  Direct Drillr 2 
 DDSV.               Geo-Pilot:  DD Service 
 DEFF.%                  98.00:  % Det Eff 
 DLRX.°/30m               0.50:  Dogleg Rot Max 
 DLSO.°/30m               0.40:  Dogleg Oriented 
 DLSX.°/30m               0.94:  Dogleg Str Max 
 DRET.      20.30.00 08-Sep-20:  Drill End Time 
 DRST.      22.15.00 06-Sep-20:  Drill Start Tim 
 DTIM.hr                 31.31:  Time Drilling 
 EDEP.m                5790.01:  End Depth 
 ENG1.           Amrah Tahirov:  Engineer 1 
 ENG2.         Dair Mahammadov:  Engineer 2 
 ENG3.           Emil Huseynov:  Engineer 3 
 ETIM.      04.01.04 12-Sep-20:  End Time 
 FLOI.gpm               450.00:  Flow In 
 FLON.gpm               450.00:  Flow In Min 
 FLOS.cptm                2.00:  Fluid Loss 
 FLOX.gpm               450.00:  Flow In Max 
 FTRO.       Formation Presure:  FTWD Run Obj 
 HFLO.                      No:  High Flow 
 HPRE.                      No:  High Pressure 
 HTEM.                      No:  High Temp 
 HYDO.m                   1.80:  Hydro Offset 
 IFIN.deg                72.03:  Inc, Final 
 IMAX.deg                73.72:  Inc Max 
 IMIN.deg                70.94:  Inc Min 
 IMND.m                5508.52:  Inc Min Depth 
 IMXD.m                5253.60:  Inc Max Depth 
 JARR.                      No:  Jarring 
 LETM.      20.30.00 08-Sep-20:  Log End Time 
 LOST.hr                     0:  Lost Rig Time 
 LSTM.      22.15.00 06-Sep-20:  Log Start Time 
 MDCL.ppm             36000.00:  Mud Chlorides 
 MDES.     Inversion Oil/Synthetic:  Mud Desc 
 DFD .sg                  1.44:  Mud Density 
 MDMN.sg                  1.44:  Dens Mud Min 
 MDMX.sg                  1.57:  Dens Mud Max 
 MOIL.                      70:  Run Mud Oil % 
 MOWR.                   70:30:  Run Mud OWR 
 MSND.                       0:  Run Mud Sand % 
 MSOL.                      21:  Run Mud Solids% 
 DFV .spqt               68.00:  Mud Viscosity 
 MWOD.in                  6.75:  MWD Tool OD 
 MWSI.                     Yes:  Serv Intrp, MWD 
 OTIM.hr                174.84:  Time Operating 
 PCON.           Look Like New:  Pad Condition 
 PMAX.psia            10616.93:  Press Op, Max 
 PV  .cP                 50.00:  Mud PV 
 RUN .                     700:  Run Number 
 ROPA.m/hr               14.24:  ROP Avg 
 ROPN.m/hr               10.00:  ROP Min 
 ROPX.m/hr               32.00:  ROP Max 
 RPMA.rpm               120.90:  RPM Surface Avg 
 RPMN.rpm               120.00:  RPM Surface Min 
 RPMX.rpm               140.00:  RPM Surface Max 
 RRUN.                    0700:  Rig Run Number 
 RTIM.hr                  3.20:  Time Reaming 
 SAZI.deg               109.99:  Azm, Start 
 SDEP.m                5231.01:  Start Depth 
 SIDD.                      No:  Serv Intrp, DD 
 SINC.deg                73.72:  Inc, Start 
 SPPA.psig             3051.00:  SPP Avg 
 SPPN.psig             2950.00:  SPP Min 
 SPPX.psig             3250.00:  SPP Max 
 STIM.      08.00.00 05-Sep-20:  Start Time 
 SVCS.                 DD, MWD:  Services 
 SVER.                    9.20:  Sperry Version 
 TDAT.m                 559.00:  Tot Depth Attmp 
 TDDF.                      No:  Trip for DD 
 TDLG.m                 559.00:  Tot Depth Loggd 
 TFF .                      No:  Trip for Fail 
 TQAA.f-kp               26.49:  Torque Abs Avg 
 TQAN.f-kp               25.00:  Torque Abs Min 
 TQAX.f-kp               27.00:  Torque Abs Max 
 TRRT.°/30m               1.50:  Turn Rotating 
 MRT .                    HCIM:  Maximum Recorded Temperature 
 TTMX.degC               90.20:  Max Tool Temp 
 VS01.                90542671:  Virtual Str1 SN 
 VS02.                90545185:  Virtual Str2 SN 
 VS03.                90602015:  Virtual Str3 SN 
 VS04.                90515230:  Virtual Str4 SN 
 WBMN.klb                 5.00:  WOB Min 
 WOBA.klb                14.79:  WOB Avg 
 WOBX.klb                20.00:  WOB Max 
 YP  .lhf2               29.00:  Yield Point 
~Curve Information Block
#MNEM.UNIT                 API CODE     Curve Description
#---------               -----------    ---------------------------
 TIME.HHMMSS            00 000 000 000:  GT Time & Date
 GTDEPTH.m              00 000 000 000:  GT Depth
 GTPQH.psia             00 000 000 000:  GT HR Quartz Pressure
 GTTQ.degC              00 000 000 000:  GT Quartz Temperature
 GTTN.NONE              00 000 000 000:  GT Test Number
 GTET.sec               00 000 000 000:  GT Elapsed Test Time
 GTTVD.m                00 000 000 000:  GT True Vertical Depth
#Other Information
#
#WARRANTY: Halliburton will use its best efforts to furnish customers with 
#accurate information and interpretations that are part of, and incident to, the services 
#provided.  However, Halliburton cannot and does not warrant the accuracy 
#or correctness of such information and interpretations.  Under no circumstances should any 
#such information or interpretation be relied upon as the sole basis for any drilling, 
#completion, production, or financial decision or any procedure involving any risk to the 
#safety of any drilling venture, drilling rig or its crew or any other third party.  The 
#Customer has full responsibility for all drilling, completion and production operation.  
#Halliburton makes no representations or warranties, either expressed or 
#implied, including, but not limited to, the implied warranties of merchantability or fitness 
#for a particular purpose, with respect to the services rendered.  In no event will 
#Halliburton be liable for failure to obtain any particular results or for 
#any damages, including, but not limited to, indirect, special or consequential damages, 
#resulting from the use of any information or interpretation provided by Halliburton.
#
~A           TIME           GTDEPTH  GTPQH  GTTQ  GTTN   GTET   GTTVD  
# ...
   11:16:11.542.09-Sep-2020 5442.01 3582.15 76.12 11.00 113.03 2600.30
   11:16:11.742.09-Sep-2020 5442.01 3582.15 76.12 11.00 113.23 2600.30
   11:16:11.942.09-Sep-2020 5442.01 3582.13 76.12 11.00 113.43 2600.30
   11:16:12.142.09-Sep-2020 5442.01 3582.08 76.12 11.00 113.63 2600.30
   11:16:12.342.09-Sep-2020 5442.01 3582.19 76.12 11.00 113.83 2600.30
   11:16:12.542.09-Sep-2020 5442.01 3582.14 76.12 11.00 114.03 2600.30
   11:16:12.742.09-Sep-2020 5442.01 3582.14 76.12 11.00 114.23 2600.30
   11:16:12.942.09-Sep-2020 5442.01 3582.14 76.12 11.00 114.43 2600.30
   11:16:13.142.09-Sep-2020 5442.01 3582.14 76.12 11.00 114.63 2600.30
   11:16:13.342.09-Sep-2020 5442.01 3582.13 76.12 11.00 114.83 2600.30
   11:16:13.542.09-Sep-2020 5442.01 3582.08 76.12 11.00 115.03 2600.30
   11:16:13.742.09-Sep-2020 5442.01 3582.08 76.12 11.00 115.23 2600.30
   11:16:13.942.09-Sep-2020 5442.01 3582.14 76.12 11.00 115.43 2600.30
   11:16:14.142.09-Sep-2020 5442.01 3582.14 76.12 11.00 115.63 2600.30
   11:16:14.342.09-Sep-2020 5442.01 3582.14 76.12 11.00 115.83 2600.30
   11:16:14.542.09-Sep-2020 5442.01 3582.13 76.12 11.00 116.03 2600.30
   11:16:14.742.09-Sep-2020 5442.01 3582.13 76.12 11.00 116.23 2600.30
   11:16:14.943.09-Sep-2020 5442.01 3582.14 76.12 11.00 116.43 2600.30
   11:16:15.143.09-Sep-2020 5442.01 3582.14 76.12 11.00 116.63 2600.30
   11:16:15.343.09-Sep-2020 5442.01 3582.14 76.12 11.00 116.83 2600.30
   11:16:15.543.09-Sep-2020 5442.01 3582.14 76.12 11.00 117.03 2600.30
   11:16:15.743.09-Sep-2020 5442.01 3582.14 76.12 11.00 117.23 2600.30
   11:16:15.943.09-Sep-2020 5442.01 3582.14 76.12 11.00 117.43 2600.30
   11:16:16.143.09-Sep-2020 5442.01 3582.14 76.12 11.00 117.63 2600.30
   11:16:16.343.09-Sep-2020 5442.01 3582.14 76.12 11.00 117.83 2600.30
   11:16:16.543.09-Sep-2020 5442.01 3582.14 76.12 11.00 118.03 2600.30
   11:16:16.743.09-Sep-2020 5442.01 3582.14 76.12 11.00 118.23 2600.30
   11:16:16.943.09-Sep-2020 5442.01 3582.14 76.12 11.00 118.43 2600.30
   11:16:17.143.09-Sep-2020 5442.01 3582.15 76.12 11.00 118.63 2600.30
   11:16:17.343.09-Sep-2020 5442.01 3582.21 76.12 11.00 118.83 2600.30
   11:16:17.543.09-Sep-2020 5442.01 3582.07 76.12 11.00 119.03 2600.30
   11:16:17.743.09-Sep-2020 5442.01 3582.15 76.12 11.00 119.23 2600.30
   11:16:17.943.09-Sep-2020 5442.01 3582.14 76.12 11.00 119.43 2600.30
   11:16:18.143.09-Sep-2020 5442.01 3582.15 76.12 11.00 119.63 2600.30
   11:16:18.343.09-Sep-2020 5442.01 3582.13 76.12 11.00 119.83 2600.30
   11:16:18.544.09-Sep-2020 5442.01 3582.14 76.12 11.00 120.03 2600.30
   11:16:18.744.09-Sep-2020 5442.01 3582.14 76.12 11.00 120.23 2600.30
   11:16:18.944.09-Sep-2020 5442.01 3582.14 76.12 11.00 120.43 2600.30
   11:16:19.144.09-Sep-2020 5442.01 3582.15 76.12 11.00 120.63 2600.30
   11:16:19.344.09-Sep-2020 5442.01 3582.14 76.12 11.00 120.83 2600.30
   11:16:19.544.09-Sep-2020 5442.01 3582.14 76.12 11.00 121.03 2600.30
   11:16:19.744.09-Sep-2020 5442.01 3582.14 76.12 11.00 121.23 2600.30
   11:16:19.944.09-Sep-2020 5442.01 3582.14 76.12 11.00 121.43 2600.30
   11:16:20.144.09-Sep-2020 5442.01 3582.14 76.12 11.00 121.63 2600.30
   11:16:20.344.09-Sep-2020 5442.01 3582.15 76.12 11.00 121.83 2600.30
   11:16:20.544.09-Sep-2020 5442.01 3582.15 76.12 11.00 122.03 2600.30
   11:16:20.744.09-Sep-2020 5442.01 3582.15 76.12 11.00 122.23 2600.30
   11:16:20.944.09-Sep-2020 5442.01 3582.11 76.12 11.00 122.43 2600.30
   11:16:21.144.09-Sep-2020 5442.01 3582.15 76.12 11.00 122.63 2600.30
   11:16:21.344.09-Sep-2020 5442.01 3582.14 76.12 11.00 122.83 2600.30
   11:16:21.544.09-Sep-2020 5442.01 3582.15 76.12 11.00 123.03 2600.30
   11:16:21.744.09-Sep-2020 5442.01 3582.07 76.12 11.00 123.23 2600.30
   11:16:21.944.09-Sep-2020 5442.01 3582.19 76.12 11.00 123.43 2600.30
   11:16:22.145.09-Sep-2020 5442.01 3582.15 76.12 11.00 123.63 2600.30
   11:16:22.345.09-Sep-2020 5442.01 3582.14 76.12 11.00 123.83 2600.30
   11:16:22.545.09-Sep-2020 5442.01 3582.15 76.12 11.00 124.03 2600.30
   11:16:22.745.09-Sep-2020 5442.01 3582.14 76.12 11.00 124.23 2600.30
   11:16:22.945.09-Sep-2020 5442.01 3582.15 76.12 11.00 124.43 2600.30
   11:16:23.145.09-Sep-2020 5442.01 3582.15 76.12 11.00 124.63 2600.30
   11:16:23.345.09-Sep-2020 5442.01 3582.10 76.12 11.00 124.83 2600.30
   11:16:23.545.09-Sep-2020 5442.01 3582.19 76.12 11.00 125.03 2600.30
   11:16:23.745.09-Sep-2020 5442.01 3582.19 76.12 11.00 125.23 2600.30
   11:16:23.945.09-Sep-2020 5442.01 3582.15 76.12 11.00 125.43 2600.30
   11:16:24.145.09-Sep-2020 5442.01 3582.13 76.12 11.00 125.63 2600.30
   11:16:24.345.09-Sep-2020 5442.01 3582.15 76.12 11.00 125.83 2600.30
   11:16:24.545.09-Sep-2020 5442.01 3582.14 76.12 11.00 126.03 2600.30
   11:16:24.745.09-Sep-2020 5442.01 3582.14 76.12 11.00 126.23 2600.30
   11:16:24.945.09-Sep-2020 5442.01 3582.18 76.12 11.00 126.43 2600.30
   11:16:25.145.09-Sep-2020 5442.01 3582.12 76.12 11.00 126.63 2600.30
   11:16:25.345.09-Sep-2020 5442.01 3582.14 76.12 11.00 126.84 2600.30
   11:16:25.545.09-Sep-2020 5442.01 3582.14 76.12 11.00 127.04 2600.30
   11:16:25.746.09-Sep-2020 5442.01 3582.16 76.12 11.00 127.24 2600.30
   11:16:25.946.09-Sep-2020 5442.01 3582.13 76.12 11.00 127.44 2600.30
   11:16:26.146.09-Sep-2020 5442.01 3582.15 76.12 11.00 127.64 2600.30
   11:16:26.346.09-Sep-2020 5442.01 3582.17 76.12 11.00 127.84 2600.30
   11:16:26.546.09-Sep-2020 5442.01 3582.12 76.12 11.00 128.04 2600.30
   11:16:26.746.09-Sep-2020 5442.01 3582.15 76.12 11.00 128.24 2600.30
   11:16:26.946.09-Sep-2020 5442.01 3582.14 76.12 11.00 128.44 2600.30
   11:16:27.146.09-Sep-2020 5442.01 3582.16 76.12 11.00 128.64 2600.30
   11:16:27.346.09-Sep-2020 5442.01 3582.13 76.12 11.00 128.84 2600.30
   11:16:27.546.09-Sep-2020 5442.01 3582.15 76.12 11.00 129.04 2600.30
   11:16:27.746.09-Sep-2020 5442.01 3582.15 76.12 11.00 129.24 2600.30
   11:16:27.946.09-Sep-2020 5442.01 3582.15 76.12 11.00 129.44 2600.30
   11:16:28.146.09-Sep-2020 5442.01 3582.15 76.12 11.00 129.64 2600.30
   11:16:28.346.09-Sep-2020 5442.01 3582.14 76.12 11.00 129.84 2600.30
   11:16:28.546.09-Sep-2020 5442.01 3582.15 76.12 11.00 130.04 2600.30
   11:16:28.746.09-Sep-2020 5442.01 3582.15 76.12 11.00 130.24 2600.30
   11:16:28.946.09-Sep-2020 5442.01 3582.14 76.12 11.00 130.44 2600.30
   11:16:29.146.09-Sep-2020 5442.01 3582.14 76.12 11.00 130.64 2600.30
   11:16:29.347.09-Sep-2020 5442.01 3582.14 76.12 11.00 130.84 2600.30
   11:16:29.547.09-Sep-2020 5442.01 3582.15 76.12 11.00 131.04 2600.30
   11:16:29.747.09-Sep-2020 5442.01 3582.15 76.12 11.00 131.24 2600.30
   11:16:29.947.09-Sep-2020 5442.01 3582.11 76.12 11.00 131.44 2600.30
   11:16:30.147.09-Sep-2020 5442.01 3582.19 76.12 11.00 131.64 2600.30
   11:16:30.347.09-Sep-2020 5442.01 3582.14 76.12 11.00 131.84 2600.30
   11:16:30.547.09-Sep-2020 5442.01 3582.14 76.12 11.00 132.04 2600.30
   11:16:30.747.09-Sep-2020 5442.01 3582.14 76.12 11.00 132.24 2600.30
   11:16:30.947.09-Sep-2020 5442.01 3582.14 76.12 11.00 132.44 2600.30
   11:16:31.147.09-Sep-2020 5442.01 3582.15 76.12 11.00 132.64 2600.30
   11:16:31.347.09-Sep-2020 5442.01 3582.15 76.12 11.00 132.84 2600.30
   11:16:31.547.09-Sep-2020 5442.01 3582.14 76.12 11.00 133.04 2600.30
   11:16:31.747.09-Sep-2020 5442.01 3582.14 76.12 11.00 133.24 2600.30
   11:16:31.947.09-Sep-2020 5442.01 3582.15 76.12 11.00 133.44 2600.30
   11:16:32.147.09-Sep-2020 5442.01 3582.14 76.12 11.00 133.64 2600.30
   11:16:32.347.09-Sep-2020 5442.01 3582.15 76.12 11.00 133.84 2600.30
   11:16:32.547.09-Sep-2020 5442.01 3582.15 76.12 11.00 134.04 2600.30
   11:16:32.747.09-Sep-2020 5442.01 3582.15 76.12 11.00 134.24 2600.30
   11:16:32.948.09-Sep-2020 5442.01 3582.14 76.12 11.00 134.44 2600.30
   11:16:33.148.09-Sep-2020 5442.01 3582.16 76.12 11.00 134.64 2600.30
   11:16:33.348.09-Sep-2020 5442.01 3582.22 76.12 11.00 134.84 2600.30
   11:16:33.548.09-Sep-2020 5442.01 3582.07 76.12 11.00 135.04 2600.30
   11:16:33.748.09-Sep-2020 5442.01 3582.07 76.12 11.00 135.24 2600.30
   11:16:33.948.09-Sep-2020 5442.01 3582.15 76.12 11.00 135.44 2600.30
