~Version Information
 VERS.                  2.0:   CWLS log ASCII Standard -VERSION 2.0
 WRAP.                   NO:   One line per depth step
~Well Information Block
#MNEM.UNIT     VALUE/NAME     DESCRIPTION
#---------     -----------    ---------------------------
 STRT.S             08:34:18 09-Sep-20: START TIME 08:34:18 09-Sep-20
 STOP.S             08:41:20 09-Sep-20: STOP TIME  08:41:20 09-Sep-20
 STEP.S                   0.00: STEP TIME
 NULL.                 -999.25: NULL VALUE
 MDS .        Operator Entered:  MAG DATA SOURCE
 PDAT.          Mean Sea Level:  PERMANENT DATUM
 DCON.         Sperry Drilling:  DIRECTNL CONTR
 RIG .              West Azeri:  RIG NAME
 WELL.           C40 (Slot 20):  WELL NAME
 SRVC.     Turan Drilling Engineering:  CONTRACTOR
 FLD .                     ACG:  FIELD NAME
 CTRY.              Azerbaijan:  COUNTRY NAME
 PROV.                    Baku:  PROVINCE
 STAT.                    Baku:  STATE NAME
 REGN.                   EESSA:  REGION
 BASE.              Azerbaijan:  LOGGING EQUIPMENT BASE LOCATION
 COMP.     BP Exploration (Caspian Sea) Ltd:  COMPANY
 WTYP.                Deviated:  WELL TYPE
 SON .        AZ-XX-0906344804:  JOB NUMBER
 FTOP.          Formation Tops:  FORM TOPS DESC
 ILTD.               Lithology:  INTERP LTH DESC
 SVYD.                  Survey:  SURVEY DESC
 DMOD.             Drill Model:  DRILL MOD DESC
 HPTY.       Minimum Curvature:  HOLE POS TYPE
 NREF.                    Grid:  NORTH REFERENCE
 SPUD.               01-Jan-20:  SPUD DATE
 DATE.      00.59.44 15-Sep-20:  END TIME
 STIM.      12.00.00 12-Jun-20:  START TIME
 DMF .             Drill Floor:  DRILL MEAS FROM
 DFST.                        :  DIST FSL TEXT
 DFWT.                        :  DIST FWL TEXT
 API .                        :  API NUMBER
 CNTY.                        :  COUNTY
 UWI .                        :  UNIQUE WELL IDENTIFIER
 LOC .                        :  LOCATION
 LMF .             Drill Floor:  LOG MEASURED FROM
 VSNS.m                   2.88:  VERT SEC N/S
 VSEW.m                  -3.84:  VERT SEC E/W
 AGAP.m                  43.42:  AIR GAP
 APD .m                  43.42:  DEPTH ABOVE PD
 WDMS.m                 118.27:  WD ELEV
 EGL .m                   0.00:  GROUND ELEVATION
 EPD .m                   0.00:  ELEVATION
 AZTC.deg                 6.23:  AZM TOTAL CORR
 GRDC.deg                 0.20:  GRID CORRECTION
 MDEC.deg                 6.43:  MAGNETIC DECL
 MDIP.deg                59.49:  MAGNETIC DIP
 MFLD.nT              50277.00:  MAGNETIC FIELD
 GVFD.g                   1.00:  GRAVITY FIELD
 VSDR.deg               173.20:  VERT SEC DIRECT
 TDD .m                5790.01:  TOTAL DEPTH (DRILLER)
 SDEP.m                5231.01:  START DEPTH
 DFSL.m                   0.00:  DISTANCE FSL
 DFWL.m                   0.00:  DISTANCE FWL
 UTMY.m             4435808.83:  UTM Y
 UTMX.m              526266.40:  UTM X
 WHEW.m                  -3.84:  WELL HEAD E/W
 WHNS.m                   2.88:  WELL HEAD N/S
 LONG.deg                51.31:  LONGITUDE
 LATI.deg                40.06:  LATITUDE
 TVDS.m                  43.42:  TVDSS CORRECTN
 DEP .m                 430.08:  DEPTH
 EKB .m                  43.42:  KB ELEVATION
 EDF .m                  43.42:  DF ELEVATION
 TDL .m                 559.00:  TOTAL DEPTH (LOGGER)
 MAGU.                 1849381:  MAGUTM CHECKSUM
 VSC .                       0:  VS TO CLOSURE
~Parameter Information Block
#MNEM.UNIT       Value        Description
#---------     -----------    ---------------------------
 AV  .mps                 4.87:  Ann Velocity 
 AVMX.mps                 7.08:  Max Ann Veloc 
 AZIF.deg               108.87:  Azm, Final 
 BHAT.                  Rotary:  BHA Type 
 BROT.°/30m               0.35:  Build Rotating 
 BS  .in                  8.50:  Bit Size 
 BSZ .in                  8.50:  Bit Size 
 BTPL.psig              360.00:  Bit Press Loss 
 CABU.                     Yes:  Customer Abuse 
 COMM.                     \¸P:  Run Comments 1 
 TCS .hr                106.24:  Time Ciculation Ended 
 CV  .mps                 1.77:  Crit Velocity 
 CVMX.mps                 2.03:  Max Crit Veloc 
 DD1 .         Aykhan Agagulov:  Direct Drillr 1 
 DD2 .            Nonso Okofor:  Direct Drillr 2 
 DDSV.               Geo-Pilot:  DD Service 
 DEFF.%                  98.00:  % Det Eff 
 DLRX.°/30m               0.50:  Dogleg Rot Max 
 DLSO.°/30m               0.40:  Dogleg Oriented 
 DLSX.°/30m               0.94:  Dogleg Str Max 
 DRET.      20.30.00 08-Sep-20:  Drill End Time 
 DRST.      22.15.00 06-Sep-20:  Drill Start Tim 
 DTIM.hr                 31.31:  Time Drilling 
 EDEP.m                5790.01:  End Depth 
 ENG1.           Amrah Tahirov:  Engineer 1 
 ENG2.         Dair Mahammadov:  Engineer 2 
 ENG3.           Emil Huseynov:  Engineer 3 
 ETIM.      04.01.04 12-Sep-20:  End Time 
 FLOI.gpm               450.00:  Flow In 
 FLON.gpm               450.00:  Flow In Min 
 FLOS.cptm                2.00:  Fluid Loss 
 FLOX.gpm               450.00:  Flow In Max 
 FTRO.       Formation Presure:  FTWD Run Obj 
 HFLO.                      No:  High Flow 
 HPRE.                      No:  High Pressure 
 HTEM.                      No:  High Temp 
 HYDO.m                   1.80:  Hydro Offset 
 IFIN.deg                72.03:  Inc, Final 
 IMAX.deg                73.72:  Inc Max 
 IMIN.deg                70.94:  Inc Min 
 IMND.m                5508.52:  Inc Min Depth 
 IMXD.m                5253.60:  Inc Max Depth 
 JARR.                      No:  Jarring 
 LETM.      20.30.00 08-Sep-20:  Log End Time 
 LOST.hr                     0:  Lost Rig Time 
 LSTM.      22.15.00 06-Sep-20:  Log Start Time 
 MDCL.ppm             36000.00:  Mud Chlorides 
 MDES.     Inversion Oil/Synthetic:  Mud Desc 
 DFD .sg                  1.44:  Mud Density 
 MDMN.sg                  1.44:  Dens Mud Min 
 MDMX.sg                  1.57:  Dens Mud Max 
 MOIL.                      70:  Run Mud Oil % 
 MOWR.                   70:30:  Run Mud OWR 
 MSND.                       0:  Run Mud Sand % 
 MSOL.                      21:  Run Mud Solids% 
 DFV .spqt               68.00:  Mud Viscosity 
 MWOD.in                  6.75:  MWD Tool OD 
 MWSI.                     Yes:  Serv Intrp, MWD 
 OTIM.hr                174.84:  Time Operating 
 PCON.           Look Like New:  Pad Condition 
 PMAX.psia            10616.93:  Press Op, Max 
 PV  .cP                 50.00:  Mud PV 
 RUN .                     700:  Run Number 
 ROPA.m/hr               14.24:  ROP Avg 
 ROPN.m/hr               10.00:  ROP Min 
 ROPX.m/hr               32.00:  ROP Max 
 RPMA.rpm               120.90:  RPM Surface Avg 
 RPMN.rpm               120.00:  RPM Surface Min 
 RPMX.rpm               140.00:  RPM Surface Max 
 RRUN.                    0700:  Rig Run Number 
 RTIM.hr                  3.20:  Time Reaming 
 SAZI.deg               109.99:  Azm, Start 
 SDEP.m                5231.01:  Start Depth 
 SIDD.                      No:  Serv Intrp, DD 
 SINC.deg                73.72:  Inc, Start 
 SPPA.psig             3051.00:  SPP Avg 
 SPPN.psig             2950.00:  SPP Min 
 SPPX.psig             3250.00:  SPP Max 
 STIM.      08.00.00 05-Sep-20:  Start Time 
 SVCS.                 DD, MWD:  Services 
 SVER.                    9.20:  Sperry Version 
 TDAT.m                 559.00:  Tot Depth Attmp 
 TDDF.                      No:  Trip for DD 
 TDLG.m                 559.00:  Tot Depth Loggd 
 TFF .                      No:  Trip for Fail 
 TQAA.f-kp               26.49:  Torque Abs Avg 
 TQAN.f-kp               25.00:  Torque Abs Min 
 TQAX.f-kp               27.00:  Torque Abs Max 
 TRRT.°/30m               1.50:  Turn Rotating 
 MRT .                    HCIM:  Maximum Recorded Temperature 
 TTMX.degC               90.20:  Max Tool Temp 
 VS01.                90542671:  Virtual Str1 SN 
 VS02.                90545185:  Virtual Str2 SN 
 VS03.                90602015:  Virtual Str3 SN 
 VS04.                90515230:  Virtual Str4 SN 
 WBMN.klb                 5.00:  WOB Min 
 WOBA.klb                14.79:  WOB Avg 
 WOBX.klb                20.00:  WOB Max 
 YP  .lhf2               29.00:  Yield Point 
~Curve Information Block
#MNEM.UNIT                 API CODE     Curve Description
#---------               -----------    ---------------------------
 TIME.HHMMSS            00 000 000 000:  GT Time & Date
 GTDEPTH.m              00 000 000 000:  GT Depth
 GTPQH.psia             00 000 000 000:  GT HR Quartz Pressure
 GTTQ.degC              00 000 000 000:  GT Quartz Temperature
 GTTN.NONE              00 000 000 000:  GT Test Number
 GTET.sec               00 000 000 000:  GT Elapsed Test Time
 GTTVD.m                00 000 000 000:  GT True Vertical Depth
#Other Information
#
#WARRANTY: Halliburton will use its best efforts to furnish customers with 
#accurate information and interpretations that are part of, and incident to, the services 
#provided.  However, Halliburton cannot and does not warrant the accuracy 
#or correctness of such information and interpretations.  Under no circumstances should any 
#such information or interpretation be relied upon as the sole basis for any drilling, 
#completion, production, or financial decision or any procedure involving any risk to the 
#safety of any drilling venture, drilling rig or its crew or any other third party.  The 
#Customer has full responsibility for all drilling, completion and production operation.  
#Halliburton makes no representations or warranties, either expressed or 
#implied, including, but not limited to, the implied warranties of merchantability or fitness 
#for a particular purpose, with respect to the services rendered.  In no event will 
#Halliburton be liable for failure to obtain any particular results or for 
#any damages, including, but not limited to, indirect, special or consequential damages, 
#resulting from the use of any information or interpretation provided by Halliburton.
#
~A           TIME           GTDEPTH  GTPQH  GTTQ  GTTN  GTET   GTTVD  
# ...
   08:40:49.951.09-Sep-2020 5524.01 6470.73 77.61 6.00 391.15 2626.56
   08:40:50.151.09-Sep-2020 5524.01 6470.73 77.61 6.00 391.35 2626.56
   08:40:50.351.09-Sep-2020 5524.01 6470.27 77.61 6.00 391.55 2626.56
   08:40:50.551.09-Sep-2020 5524.01 6470.56 77.61 6.00 391.75 2626.56
   08:40:50.751.09-Sep-2020 5524.01 6470.42 77.61 6.00 391.95 2626.56
   08:40:50.952.09-Sep-2020 5524.01 6469.78 77.61 6.00 392.15 2626.56
   08:40:51.152.09-Sep-2020 5524.01 6469.67 77.61 6.00 392.35 2626.56
   08:40:51.352.09-Sep-2020 5524.01 6469.51 77.61 6.00 392.56 2626.56
   08:40:51.552.09-Sep-2020 5524.01 6469.52 77.61 6.00 392.76 2626.56
   08:40:51.752.09-Sep-2020 5524.01 6469.71 77.61 6.00 392.96 2626.56
   08:40:51.952.09-Sep-2020 5524.01 6469.88 77.61 6.00 393.16 2626.56
   08:40:52.152.09-Sep-2020 5524.01 6469.88 77.61 6.00 393.36 2626.56
   08:40:52.352.09-Sep-2020 5524.01 6481.86 77.61 6.00 393.56 2626.56
   08:40:52.552.09-Sep-2020 5524.01 6462.92 77.61 6.00 393.76 2626.56
   08:40:52.752.09-Sep-2020 5524.01 6469.75 77.61 6.00 393.96 2626.56
   08:40:52.952.09-Sep-2020 5524.01 6472.32 77.61 6.00 394.16 2626.56
   08:40:53.152.09-Sep-2020 5524.01 6472.32 77.61 6.00 394.36 2626.56
   08:40:53.352.09-Sep-2020 5524.01 6470.60 77.61 6.00 394.56 2626.56
   08:40:53.553.09-Sep-2020 5524.01 6468.77 77.61 6.00 394.76 2626.56
   08:40:53.753.09-Sep-2020 5524.01 6470.35 77.61 6.00 394.96 2626.56
   08:40:53.953.09-Sep-2020 5524.01 6469.38 77.61 6.00 395.16 2626.56
   08:40:54.153.09-Sep-2020 5524.01 6469.38 77.61 6.00 395.36 2626.56
   08:40:54.353.09-Sep-2020 5524.01 6468.71 77.60 6.00 395.56 2626.56
   08:40:54.553.09-Sep-2020 5524.01 6468.49 77.60 6.00 395.76 2626.56
   08:40:54.753.09-Sep-2020 5524.01 6468.27 77.60 6.00 395.96 2626.56
   08:40:54.953.09-Sep-2020 5524.01 6468.45 77.60 6.00 396.16 2626.56
   08:40:55.153.09-Sep-2020 5524.01 6469.25 77.60 6.00 396.36 2626.56
   08:40:55.353.09-Sep-2020 5524.01 6469.46 77.60 6.00 396.56 2626.56
   08:40:55.553.09-Sep-2020 5524.01 6468.88 77.60 6.00 396.76 2626.56
   08:40:55.753.09-Sep-2020 5524.01 6476.46 77.60 6.00 396.96 2626.56
   08:40:55.953.09-Sep-2020 5524.01 6467.43 77.60 6.00 397.16 2626.56
   08:40:56.154.09-Sep-2020 5524.01 6467.43 77.60 6.00 397.36 2626.56
   08:40:56.354.09-Sep-2020 5524.01 6471.26 77.60 6.00 397.56 2626.56
   08:40:56.554.09-Sep-2020 5524.01 6470.78 77.60 6.00 397.76 2626.56
   08:40:56.754.09-Sep-2020 5524.01 6468.69 77.60 6.00 397.96 2626.56
   08:40:56.954.09-Sep-2020 5524.01 6481.25 77.60 6.00 398.16 2626.56
   08:40:57.154.09-Sep-2020 5524.01 6481.25 77.60 6.00 398.36 2626.56
   08:40:57.354.09-Sep-2020 5524.01 6470.15 77.60 6.00 398.56 2626.56
   08:40:57.554.09-Sep-2020 5524.01 6472.10 77.60 6.00 398.76 2626.56
   08:40:57.754.09-Sep-2020 5524.01 6482.21 77.60 6.00 398.96 2626.56
   08:40:57.954.09-Sep-2020 5524.01 6463.84 77.60 6.00 399.16 2626.56
   08:40:58.154.09-Sep-2020 5524.01 6463.84 77.60 6.00 399.36 2626.56
   08:40:58.354.09-Sep-2020 5524.01 6473.55 77.60 6.00 399.56 2626.56
   08:40:58.555.09-Sep-2020 5524.01 6470.88 77.60 6.00 399.76 2626.56
   08:40:58.755.09-Sep-2020 5524.01 6471.38 77.60 6.00 399.96 2626.56
   08:40:58.955.09-Sep-2020 5524.01 6470.14 77.60 6.00 400.16 2626.56
   08:40:59.155.09-Sep-2020 5524.01 6479.00 77.60 6.00 400.36 2626.56
   08:40:59.355.09-Sep-2020 5524.01 6466.39 77.60 6.00 400.56 2626.56
   08:40:59.555.09-Sep-2020 5524.01 6470.12 77.60 6.00 400.76 2626.56
   08:40:59.755.09-Sep-2020 5524.01 6473.09 77.60 6.00 400.96 2626.56
   08:40:59.955.09-Sep-2020 5524.01 6469.70 77.60 6.00 401.16 2626.56
   08:41:00.155.09-Sep-2020 5524.01 6469.70 77.60 6.00 401.36 2626.56
   08:41:00.355.09-Sep-2020 5524.01 6469.62 77.60 6.00 401.56 2626.56
   08:41:00.555.09-Sep-2020 5524.01 6471.87 77.60 6.00 401.76 2626.56
   08:41:00.755.09-Sep-2020 5524.01 6475.68 77.60 6.00 401.96 2626.56
   08:41:00.955.09-Sep-2020 5524.01 6468.72 77.60 6.00 402.16 2626.56
   08:41:01.156.09-Sep-2020 5524.01 6468.72 77.60 6.00 402.36 2626.56
   08:41:01.356.09-Sep-2020 5524.01 6473.85 77.60 6.00 402.56 2626.56
   08:41:01.556.09-Sep-2020 5524.01 6469.76 77.60 6.00 402.76 2626.56
   08:41:01.756.09-Sep-2020 5524.01 6471.19 77.60 6.00 402.96 2626.56
   08:41:01.956.09-Sep-2020 5524.01 6470.60 77.60 6.00 403.16 2626.56
   08:41:02.156.09-Sep-2020 5524.01 6470.60 77.60 6.00 403.36 2626.56
   08:41:02.356.09-Sep-2020 5524.01 6470.15 77.60 6.00 403.56 2626.56
   08:41:02.556.09-Sep-2020 5524.01 6470.31 77.60 6.00 403.76 2626.56
   08:41:02.756.09-Sep-2020 5524.01 6470.32 77.60 6.00 403.96 2626.56
   08:41:02.956.09-Sep-2020 5524.01 6469.69 77.60 6.00 404.16 2626.56
   08:41:03.156.09-Sep-2020 5524.01 6469.64 77.60 6.00 404.36 2626.56
   08:41:03.356.09-Sep-2020 5524.01 6469.54 77.60 6.00 404.56 2626.56
   08:41:03.556.09-Sep-2020 5524.01 6469.75 77.60 6.00 404.76 2626.56
   08:41:03.757.09-Sep-2020 5524.01 6470.07 77.60 6.00 404.96 2626.56
   08:41:03.957.09-Sep-2020 5524.01 6470.29 77.59 6.00 405.16 2626.56
   08:41:04.157.09-Sep-2020 5524.01 6470.29 77.59 6.00 405.36 2626.56
   08:41:04.357.09-Sep-2020 5524.01 6482.89 77.59 6.00 405.56 2626.56
   08:41:04.557.09-Sep-2020 5524.01 6463.73 77.59 6.00 405.76 2626.56
   08:41:04.757.09-Sep-2020 5524.01 6470.77 77.59 6.00 405.96 2626.56
   08:41:04.957.09-Sep-2020 5524.01 6473.62 77.59 6.00 406.16 2626.56
   08:41:05.157.09-Sep-2020 5524.01 6473.62 77.59 6.00 406.36 2626.56
   08:41:05.357.09-Sep-2020 5524.01 6472.11 77.59 6.00 406.56 2626.56
   08:41:05.557.09-Sep-2020 5524.01 6470.42 77.59 6.00 406.76 2626.56
   08:41:05.757.09-Sep-2020 5524.01 6472.23 77.59 6.00 406.96 2626.56
   08:41:05.957.09-Sep-2020 5524.01 6471.16 77.59 6.00 407.16 2626.56
   08:41:06.158.09-Sep-2020 5524.01 6471.16 77.59 6.00 407.36 2626.56
   08:41:06.358.09-Sep-2020 5524.01 6470.39 77.59 6.00 407.56 2626.56
   08:41:06.558.09-Sep-2020 5524.01 6470.08 77.59 6.00 407.76 2626.56
   08:41:06.758.09-Sep-2020 5524.01 6469.73 77.59 6.00 407.96 2626.56
   08:41:06.958.09-Sep-2020 5524.01 6469.79 77.59 6.00 408.16 2626.56
   08:41:07.158.09-Sep-2020 5524.01 6469.79 77.59 6.00 408.36 2626.56
   08:41:07.358.09-Sep-2020 5524.01 6469.73 77.59 6.00 408.56 2626.56
   08:41:07.558.09-Sep-2020 5524.01 6469.31 77.59 6.00 408.76 2626.56
   08:41:07.758.09-Sep-2020 5524.01 6476.47 77.59 6.00 408.96 2626.56
   08:41:07.958.09-Sep-2020 5524.01 6468.23 77.59 6.00 409.16 2626.56
   08:41:08.158.09-Sep-2020 5524.01 6468.23 77.59 6.00 409.36 2626.56
   08:41:08.358.09-Sep-2020 5524.01 6471.52 77.59 6.00 409.56 2626.56
   08:41:08.558.09-Sep-2020 5524.01 6471.33 77.59 6.00 409.76 2626.56
   08:41:08.759.09-Sep-2020 5524.01 6468.93 77.59 6.00 409.96 2626.56
   08:41:08.959.09-Sep-2020 5524.01 6481.61 77.59 6.00 410.16 2626.56
   08:41:09.159.09-Sep-2020 5524.01 6481.61 77.59 6.00 410.36 2626.56
   08:41:09.359.09-Sep-2020 5524.01 6470.07 77.59 6.00 410.56 2626.56
   08:41:09.559.09-Sep-2020 5524.01 6471.78 77.59 6.00 410.76 2626.56
   08:41:09.759.09-Sep-2020 5524.01 6476.62 77.59 6.00 410.96 2626.56
   08:41:09.959.09-Sep-2020 5524.01 6468.94 77.59 6.00 411.16 2626.56
   08:41:10.159.09-Sep-2020 5524.01 6468.94 77.59 6.00 411.36 2626.56
   08:41:10.359.09-Sep-2020 5524.01 6472.29 77.59 6.00 411.56 2626.56
   08:41:10.559.09-Sep-2020 5524.01 6471.48 77.59 6.00 411.76 2626.56
   08:41:10.759.09-Sep-2020 5524.01 6469.15 77.59 6.00 411.96 2626.56
   08:41:10.959.09-Sep-2020 5524.01 6469.92 77.59 6.00 412.16 2626.56
   08:41:11.159.09-Sep-2020 5524.01 6478.19 77.59 6.00 412.36 2626.56
   08:41:11.360.09-Sep-2020 5524.01 6466.51 77.59 6.00 412.56 2626.56
   08:41:11.560.09-Sep-2020 5524.01 6469.97 77.59 6.00 412.76 2626.56
   08:41:11.760.09-Sep-2020 5524.01 6473.29 77.59 6.00 412.96 2626.56
   08:41:11.960.09-Sep-2020 5524.01 6470.40 77.59 6.00 413.16 2626.56
   08:41:12.160.09-Sep-2020 5524.01 6470.40 77.59 6.00 413.36 2626.56
   08:41:12.360.09-Sep-2020 5524.01 6482.98 77.59 6.00 413.56 2626.56
   08:41:12.560.09-Sep-2020 5524.01 6465.66 77.59 6.00 413.76 2626.56
   08:41:12.760.09-Sep-2020 5524.01 6471.48 77.59 6.00 413.96 2626.56
