~Version Information
 VERS.                  2.0:   CWLS log ASCII Standard -VERSION 2.0
 WRAP.                   NO:   One line per depth step
~Well Information Block
#MNEM.UNIT     VALUE/NAME     DESCRIPTION
#---------     -----------    ---------------------------
 STRT.S             09:38:11 09-Sep-20: START TIME 09:38:11 09-Sep-20
 STOP.S             09:45:11 09-Sep-20: STOP TIME  09:45:11 09-Sep-20
 STEP.S                   0.00: STEP TIME
 NULL.                 -999.25: NULL VALUE
 MDS .        Operator Entered:  MAG DATA SOURCE
 PDAT.          Mean Sea Level:  PERMANENT DATUM
 DCON.         Sperry Drilling:  DIRECTNL CONTR
 RIG .              West Azeri:  RIG NAME
 WELL.           C40 (Slot 20):  WELL NAME
 SRVC.     Turan Drilling Engineering:  CONTRACTOR
 FLD .                     ACG:  FIELD NAME
 CTRY.              Azerbaijan:  COUNTRY NAME
 PROV.                    Baku:  PROVINCE
 STAT.                    Baku:  STATE NAME
 REGN.                   EESSA:  REGION
 BASE.              Azerbaijan:  LOGGING EQUIPMENT BASE LOCATION
 COMP.     BP Exploration (Caspian Sea) Ltd:  COMPANY
 WTYP.                Deviated:  WELL TYPE
 SON .        AZ-XX-0906344804:  JOB NUMBER
 FTOP.          Formation Tops:  FORM TOPS DESC
 ILTD.               Lithology:  INTERP LTH DESC
 SVYD.                  Survey:  SURVEY DESC
 DMOD.             Drill Model:  DRILL MOD DESC
 HPTY.       Minimum Curvature:  HOLE POS TYPE
 NREF.                    Grid:  NORTH REFERENCE
 SPUD.               01-Jan-20:  SPUD DATE
 DATE.      00.59.44 15-Sep-20:  END TIME
 STIM.      12.00.00 12-Jun-20:  START TIME
 DMF .             Drill Floor:  DRILL MEAS FROM
 DFST.                        :  DIST FSL TEXT
 DFWT.                        :  DIST FWL TEXT
 API .                        :  API NUMBER
 CNTY.                        :  COUNTY
 UWI .                        :  UNIQUE WELL IDENTIFIER
 LOC .                        :  LOCATION
 LMF .             Drill Floor:  LOG MEASURED FROM
 VSNS.m                   2.88:  VERT SEC N/S
 VSEW.m                  -3.84:  VERT SEC E/W
 AGAP.m                  43.42:  AIR GAP
 APD .m                  43.42:  DEPTH ABOVE PD
 WDMS.m                 118.27:  WD ELEV
 EGL .m                   0.00:  GROUND ELEVATION
 EPD .m                   0.00:  ELEVATION
 AZTC.deg                 6.23:  AZM TOTAL CORR
 GRDC.deg                 0.20:  GRID CORRECTION
 MDEC.deg                 6.43:  MAGNETIC DECL
 MDIP.deg                59.49:  MAGNETIC DIP
 MFLD.nT              50277.00:  MAGNETIC FIELD
 GVFD.g                   1.00:  GRAVITY FIELD
 VSDR.deg               173.20:  VERT SEC DIRECT
 TDD .m                5790.01:  TOTAL DEPTH (DRILLER)
 SDEP.m                5231.01:  START DEPTH
 DFSL.m                   0.00:  DISTANCE FSL
 DFWL.m                   0.00:  DISTANCE FWL
 UTMY.m             4435808.83:  UTM Y
 UTMX.m              526266.40:  UTM X
 WHEW.m                  -3.84:  WELL HEAD E/W
 WHNS.m                   2.88:  WELL HEAD N/S
 LONG.deg                51.31:  LONGITUDE
 LATI.deg                40.06:  LATITUDE
 TVDS.m                  43.42:  TVDSS CORRECTN
 DEP .m                 430.08:  DEPTH
 EKB .m                  43.42:  KB ELEVATION
 EDF .m                  43.42:  DF ELEVATION
 TDL .m                 559.00:  TOTAL DEPTH (LOGGER)
 MAGU.                 1849381:  MAGUTM CHECKSUM
 VSC .                       0:  VS TO CLOSURE
~Parameter Information Block
#MNEM.UNIT       Value        Description
#---------     -----------    ---------------------------
 AV  .mps                 4.87:  Ann Velocity 
 AVMX.mps                 7.08:  Max Ann Veloc 
 AZIF.deg               108.87:  Azm, Final 
 BHAT.                  Rotary:  BHA Type 
 BROT.°/30m               0.35:  Build Rotating 
 BS  .in                  8.50:  Bit Size 
 BSZ .in                  8.50:  Bit Size 
 BTPL.psig              360.00:  Bit Press Loss 
 CABU.                     Yes:  Customer Abuse 
 COMM.                     ”æo:  Run Comments 1 
 TCS .hr                106.24:  Time Ciculation Ended 
 CV  .mps                 1.77:  Crit Velocity 
 CVMX.mps                 2.03:  Max Crit Veloc 
 DD1 .         Aykhan Agagulov:  Direct Drillr 1 
 DD2 .            Nonso Okofor:  Direct Drillr 2 
 DDSV.               Geo-Pilot:  DD Service 
 DEFF.%                  98.00:  % Det Eff 
 DLRX.°/30m               0.50:  Dogleg Rot Max 
 DLSO.°/30m               0.40:  Dogleg Oriented 
 DLSX.°/30m               0.94:  Dogleg Str Max 
 DRET.      20.30.00 08-Sep-20:  Drill End Time 
 DRST.      22.15.00 06-Sep-20:  Drill Start Tim 
 DTIM.hr                 31.31:  Time Drilling 
 EDEP.m                5790.01:  End Depth 
 ENG1.           Amrah Tahirov:  Engineer 1 
 ENG2.         Dair Mahammadov:  Engineer 2 
 ENG3.           Emil Huseynov:  Engineer 3 
 ETIM.      04.01.04 12-Sep-20:  End Time 
 FLOI.gpm               450.00:  Flow In 
 FLON.gpm               450.00:  Flow In Min 
 FLOS.cptm                2.00:  Fluid Loss 
 FLOX.gpm               450.00:  Flow In Max 
 FTRO.       Formation Presure:  FTWD Run Obj 
 HFLO.                      No:  High Flow 
 HPRE.                      No:  High Pressure 
 HTEM.                      No:  High Temp 
 HYDO.m                   1.80:  Hydro Offset 
 IFIN.deg                72.03:  Inc, Final 
 IMAX.deg                73.72:  Inc Max 
 IMIN.deg                70.94:  Inc Min 
 IMND.m                5508.52:  Inc Min Depth 
 IMXD.m                5253.60:  Inc Max Depth 
 JARR.                      No:  Jarring 
 LETM.      20.30.00 08-Sep-20:  Log End Time 
 LOST.hr                     0:  Lost Rig Time 
 LSTM.      22.15.00 06-Sep-20:  Log Start Time 
 MDCL.ppm             36000.00:  Mud Chlorides 
 MDES.     Inversion Oil/Synthetic:  Mud Desc 
 DFD .sg                  1.44:  Mud Density 
 MDMN.sg                  1.44:  Dens Mud Min 
 MDMX.sg                  1.57:  Dens Mud Max 
 MOIL.                      70:  Run Mud Oil % 
 MOWR.                   70:30:  Run Mud OWR 
 MSND.                       0:  Run Mud Sand % 
 MSOL.                      21:  Run Mud Solids% 
 DFV .spqt               68.00:  Mud Viscosity 
 MWOD.in                  6.75:  MWD Tool OD 
 MWSI.                     Yes:  Serv Intrp, MWD 
 OTIM.hr                174.84:  Time Operating 
 PCON.           Look Like New:  Pad Condition 
 PMAX.psia            10616.93:  Press Op, Max 
 PV  .cP                 50.00:  Mud PV 
 RUN .                     700:  Run Number 
 ROPA.m/hr               14.24:  ROP Avg 
 ROPN.m/hr               10.00:  ROP Min 
 ROPX.m/hr               32.00:  ROP Max 
 RPMA.rpm               120.90:  RPM Surface Avg 
 RPMN.rpm               120.00:  RPM Surface Min 
 RPMX.rpm               140.00:  RPM Surface Max 
 RRUN.                    0700:  Rig Run Number 
 RTIM.hr                  3.20:  Time Reaming 
 SAZI.deg               109.99:  Azm, Start 
 SDEP.m                5231.01:  Start Depth 
 SIDD.                      No:  Serv Intrp, DD 
 SINC.deg                73.72:  Inc, Start 
 SPPA.psig             3051.00:  SPP Avg 
 SPPN.psig             2950.00:  SPP Min 
 SPPX.psig             3250.00:  SPP Max 
 STIM.      08.00.00 05-Sep-20:  Start Time 
 SVCS.                 DD, MWD:  Services 
 SVER.                    9.20:  Sperry Version 
 TDAT.m                 559.00:  Tot Depth Attmp 
 TDDF.                      No:  Trip for DD 
 TDLG.m                 559.00:  Tot Depth Loggd 
 TFF .                      No:  Trip for Fail 
 TQAA.f-kp               26.49:  Torque Abs Avg 
 TQAN.f-kp               25.00:  Torque Abs Min 
 TQAX.f-kp               27.00:  Torque Abs Max 
 TRRT.°/30m               1.50:  Turn Rotating 
 MRT .                    HCIM:  Maximum Recorded Temperature 
 TTMX.degC               90.20:  Max Tool Temp 
 VS01.                90542671:  Virtual Str1 SN 
 VS02.                90545185:  Virtual Str2 SN 
 VS03.                90602015:  Virtual Str3 SN 
 VS04.                90515230:  Virtual Str4 SN 
 WBMN.klb                 5.00:  WOB Min 
 WOBA.klb                14.79:  WOB Avg 
 WOBX.klb                20.00:  WOB Max 
 YP  .lhf2               29.00:  Yield Point 
~Curve Information Block
#MNEM.UNIT                 API CODE     Curve Description
#---------               -----------    ---------------------------
 TIME.HHMMSS            00 000 000 000:  GT Time & Date
 GTDEPTH.m              00 000 000 000:  GT Depth
 GTPQH.psia             00 000 000 000:  GT HR Quartz Pressure
 GTTQ.degC              00 000 000 000:  GT Quartz Temperature
 GTTN.NONE              00 000 000 000:  GT Test Number
 GTET.sec               00 000 000 000:  GT Elapsed Test Time
 GTTVD.m                00 000 000 000:  GT True Vertical Depth
#Other Information
#
#WARRANTY: Halliburton will use its best efforts to furnish customers with 
#accurate information and interpretations that are part of, and incident to, the services 
#provided.  However, Halliburton cannot and does not warrant the accuracy 
#or correctness of such information and interpretations.  Under no circumstances should any 
#such information or interpretation be relied upon as the sole basis for any drilling, 
#completion, production, or financial decision or any procedure involving any risk to the 
#safety of any drilling venture, drilling rig or its crew or any other third party.  The 
#Customer has full responsibility for all drilling, completion and production operation.  
#Halliburton makes no representations or warranties, either expressed or 
#implied, including, but not limited to, the implied warranties of merchantability or fitness 
#for a particular purpose, with respect to the services rendered.  In no event will 
#Halliburton be liable for failure to obtain any particular results or for 
#any damages, including, but not limited to, indirect, special or consequential damages, 
#resulting from the use of any information or interpretation provided by Halliburton.
#
~A           TIME           GTDEPTH  GTPQH  GTTQ  GTTN  GTET   GTTVD  
# ...
   09:38:34.000.09-Sep-2020 5484.51 6342.93 77.72 7.00  23.00 2613.78
   09:38:34.200.09-Sep-2020 5484.51 6342.93 77.72 7.00  23.20 2613.78
   09:38:34.400.09-Sep-2020 5484.51 6350.31 77.72 7.00  23.40 2613.78
   09:38:34.600.09-Sep-2020 5484.51 6344.94 77.72 7.00  23.60 2613.78
   09:38:34.800.09-Sep-2020 5484.51 6347.18 77.72 7.00  23.80 2613.78
   09:38:35.000.09-Sep-2020 5484.51 6346.90 77.72 7.00  24.00 2613.78
   09:38:35.200.09-Sep-2020 5484.51 6346.90 77.72 7.00  24.20 2613.78
   09:38:35.400.09-Sep-2020 5484.51 6347.47 77.72 7.00  24.40 2613.78
   09:38:35.600.09-Sep-2020 5484.51 6347.39 77.72 7.00  24.60 2613.78
   09:38:35.800.09-Sep-2020 5484.51 6348.29 77.72 7.00  24.80 2613.78
   09:38:36.000.09-Sep-2020 5484.51 6349.06 77.72 7.00  25.00 2613.78
   09:38:36.200.09-Sep-2020 5484.51 6349.06 77.72 7.00  25.20 2613.78
   09:38:36.400.09-Sep-2020 5484.51 6349.62 77.72 7.00  25.40 2613.78
   09:38:36.600.09-Sep-2020 5484.51 6350.00 77.72 7.00  25.60 2613.78
   09:38:36.800.09-Sep-2020 5484.51 6350.30 77.72 7.00  25.80 2613.78
   09:38:37.000.09-Sep-2020 5484.51 6350.74 77.72 7.00  26.00 2613.78
   09:38:37.200.09-Sep-2020 5484.51 6350.74 77.72 7.00  26.20 2613.78
   09:38:37.400.09-Sep-2020 5484.51 6359.81 77.72 7.00  26.40 2613.78
   09:38:37.600.09-Sep-2020 5484.51 6348.97 77.72 7.00  26.60 2613.78
   09:38:37.800.09-Sep-2020 5484.51 6352.47 77.72 7.00  26.80 2613.78
   09:38:38.000.09-Sep-2020 5484.51 6352.29 77.71 7.00  27.00 2613.78
   09:38:38.200.09-Sep-2020 5484.51 6352.29 77.71 7.00  27.20 2613.78
   09:38:38.400.09-Sep-2020 5484.51 6353.61 77.71 7.00  27.40 2613.78
   09:38:38.600.09-Sep-2020 5484.51 6352.36 77.71 7.00  27.60 2613.78
   09:38:38.800.09-Sep-2020 5484.51 6353.54 77.71 7.00  27.80 2613.78
   09:38:39.000.09-Sep-2020 5484.51 6353.28 77.71 7.00  28.00 2613.78
   09:38:39.200.09-Sep-2020 5484.51 6353.28 77.71 7.00  28.20 2613.78
   09:38:39.400.09-Sep-2020 5484.51 6354.83 77.71 7.00  28.40 2613.78
   09:38:39.600.09-Sep-2020 5484.51 6354.83 77.71 7.00  28.60 2613.78
   09:38:39.800.09-Sep-2020 5484.51 6354.59 77.71 7.00  28.80 2613.78
   09:38:40.000.09-Sep-2020 5484.51 6354.68 77.71 7.00  29.00 2613.78
   09:38:40.200.09-Sep-2020 5484.51 6354.68 77.71 7.00  29.20 2613.78
   09:38:40.400.09-Sep-2020 5484.51 6355.63 77.71 7.00  29.40 2613.78
   09:38:40.600.09-Sep-2020 5484.51 6356.25 77.71 7.00  29.60 2613.78
   09:38:40.800.09-Sep-2020 5484.51 6364.58 77.71 7.00  29.80 2613.78
   09:38:41.000.09-Sep-2020 5484.51 6353.09 77.71 7.00  30.00 2613.78
   09:38:41.200.09-Sep-2020 5484.51 6353.09 77.71 7.00  30.20 2613.78
   09:38:41.400.09-Sep-2020 5484.51 6356.01 77.71 7.00  30.40 2613.78
   09:38:41.600.09-Sep-2020 5484.51 6358.42 77.71 7.00  30.60 2613.78
   09:38:41.800.09-Sep-2020 5484.51 6358.18 77.71 7.00  30.80 2613.78
   09:38:42.000.09-Sep-2020 5484.51 6369.24 77.71 7.00  31.00 2613.78
   09:38:42.200.09-Sep-2020 5484.51 6369.24 77.71 7.00  31.20 2613.78
   09:38:42.400.09-Sep-2020 5484.51 6358.42 77.71 7.00  31.40 2613.78
   09:38:42.600.09-Sep-2020 5484.51 6360.02 77.71 7.00  31.60 2613.78
   09:38:42.800.09-Sep-2020 5484.51 6358.46 77.71 7.00  31.80 2613.78
   09:38:43.000.09-Sep-2020 5484.51 6359.31 77.71 7.00  32.00 2613.78
   09:38:43.200.09-Sep-2020 5484.51 6359.31 77.71 7.00  32.20 2613.78
   09:38:43.400.09-Sep-2020 5484.51 6356.05 77.71 7.00  32.40 2613.78
   09:38:43.600.09-Sep-2020 5484.51 6360.39 77.71 7.00  32.60 2613.78
   09:38:43.800.09-Sep-2020 5484.51 6359.89 77.71 7.00  32.80 2613.78
   09:38:44.000.09-Sep-2020 5484.51 6362.21 77.71 7.00  33.00 2613.78
   09:38:44.200.09-Sep-2020 5484.51 6362.21 77.71 7.00  33.20 2613.78
   09:38:44.400.09-Sep-2020 5484.51 6360.47 77.71 7.00  33.40 2613.78
   09:38:44.600.09-Sep-2020 5484.51 6369.60 77.71 7.00  33.60 2613.78
   09:38:44.800.09-Sep-2020 5484.51 6360.04 77.71 7.00  33.80 2613.78
   09:38:45.000.09-Sep-2020 5484.51 6362.04 77.71 7.00  34.00 2613.78
   09:38:45.200.09-Sep-2020 5484.51 6362.04 77.71 7.00  34.20 2613.78
   09:38:45.400.09-Sep-2020 5484.51 6361.70 77.71 7.00  34.40 2613.78
   09:38:45.600.09-Sep-2020 5484.51 6364.24 77.71 7.00  34.60 2613.78
   09:38:45.800.09-Sep-2020 5484.51 6371.91 77.71 7.00  34.80 2613.78
   09:38:46.000.09-Sep-2020 5484.51 6360.97 77.71 7.00  35.00 2613.78
   09:38:46.200.09-Sep-2020 5484.51 6360.97 77.71 7.00  35.20 2613.78
   09:38:46.400.09-Sep-2020 5484.51 6364.48 77.71 7.00  35.40 2613.78
   09:38:46.600.09-Sep-2020 5484.51 6367.11 77.71 7.00  35.60 2613.78
   09:38:46.800.09-Sep-2020 5484.51 6366.38 77.71 7.00  35.80 2613.78
   09:38:47.000.09-Sep-2020 5484.51 6365.39 77.71 7.00  36.00 2613.78
   09:38:47.200.09-Sep-2020 5484.51 6365.39 77.71 7.00  36.20 2613.78
   09:38:47.400.09-Sep-2020 5484.51 6366.51 77.71 7.00  36.40 2613.78
   09:38:47.600.09-Sep-2020 5484.51 6366.65 77.71 7.00  36.60 2613.78
   09:38:47.800.09-Sep-2020 5484.51 6366.94 77.71 7.00  36.80 2613.78
   09:38:48.000.09-Sep-2020 5484.51 6366.81 77.71 7.00  37.00 2613.78
   09:38:48.200.09-Sep-2020 5484.51 6366.81 77.71 7.00  37.20 2613.78
   09:38:48.400.09-Sep-2020 5484.51 6367.52 77.71 7.00  37.40 2613.78
   09:38:48.600.09-Sep-2020 5484.51 6368.39 77.71 7.00  37.60 2613.78
   09:38:48.800.09-Sep-2020 5484.51 6369.07 77.71 7.00  37.80 2613.78
   09:38:49.000.09-Sep-2020 5484.51 6382.54 77.71 7.00  38.00 2613.78
   09:38:49.200.09-Sep-2020 5484.51 6382.54 77.71 7.00  38.20 2613.78
   09:38:49.400.09-Sep-2020 5484.51 6512.21 77.71 7.00  38.40 2613.78
   09:38:49.600.09-Sep-2020 5484.51 6526.08 77.71 7.00  38.60 2613.78
   09:38:49.800.09-Sep-2020 5484.51 6528.11 77.71 7.00  38.80 2613.78
   09:38:50.000.09-Sep-2020 5484.51 6543.33 77.71 7.00  39.00 2613.78
   09:38:50.200.09-Sep-2020 5484.51 6544.93 77.71 7.00  39.20 2613.78
   09:38:50.400.09-Sep-2020 5484.51 6533.30 77.71 7.00  39.40 2613.78
   09:38:50.600.09-Sep-2020 5484.51 6508.27 77.71 7.00  39.60 2613.78
   09:38:50.800.09-Sep-2020 5484.51 6469.47 77.71 7.00  39.80 2613.78
   09:38:51.000.09-Sep-2020 5484.51 6431.70 77.71 7.00  40.00 2613.78
   09:38:51.200.09-Sep-2020 5484.51 6431.70 77.71 7.00  40.20 2613.78
   09:38:51.400.09-Sep-2020 5484.51 6360.70 77.71 7.00  40.40 2613.78
   09:38:51.600.09-Sep-2020 5484.51 6332.19 77.71 7.00  40.60 2613.78
   09:38:51.800.09-Sep-2020 5484.51 6306.76 77.71 7.00  40.80 2613.78
   09:38:52.000.09-Sep-2020 5484.51 6284.49 77.71 7.00  41.00 2613.78
   09:38:52.200.09-Sep-2020 5484.51 6284.49 77.71 7.00  41.20 2613.78
   09:38:52.400.09-Sep-2020 5484.51 6247.12 77.71 7.00  41.40 2613.78
   09:38:52.600.09-Sep-2020 5484.51 6230.86 77.71 7.00  41.60 2613.78
   09:38:52.800.09-Sep-2020 5484.51 6215.77 77.71 7.00  41.80 2613.78
   09:38:53.000.09-Sep-2020 5484.51 6202.10 77.71 7.00  42.00 2613.78
   09:38:53.200.09-Sep-2020 5484.51 6202.10 77.71 7.00  42.20 2613.78
   09:38:53.400.09-Sep-2020 5484.51 6182.24 77.71 7.00  42.40 2613.78
   09:38:53.600.09-Sep-2020 5484.51 6174.52 77.71 7.00  42.60 2613.78
   09:38:53.800.09-Sep-2020 5484.51 6165.62 77.71 7.00  42.80 2613.78
   09:38:54.000.09-Sep-2020 5484.51 6154.73 77.71 7.00  43.00 2613.78
   09:38:54.200.09-Sep-2020 5484.51 6154.73 77.71 7.00  43.20 2613.78
   09:38:54.400.09-Sep-2020 5484.51 6126.87 77.71 7.00  43.40 2613.78
   09:38:54.600.09-Sep-2020 5484.51 5556.66 77.71 7.00  43.60 2613.78
   09:38:54.800.09-Sep-2020 5484.51 4645.06 77.71 7.00  43.80 2613.78
   09:38:55.000.09-Sep-2020 5484.51 4251.72 77.70 7.00  44.00 2613.78
   09:38:55.200.09-Sep-2020 5484.51 4251.72 77.70 7.00  44.20 2613.78
   09:38:55.400.09-Sep-2020 5484.51 3334.61 77.70 7.00  44.40 2613.78
   09:38:55.600.09-Sep-2020 5484.51 3294.28 77.70 7.00  44.60 2613.78
   09:38:55.800.09-Sep-2020 5484.51 3282.43 77.70 7.00  44.80 2613.78
   09:38:56.000.09-Sep-2020 5484.51 3296.35 77.70 7.00  45.00 2613.78
   09:38:56.200.09-Sep-2020 5484.51 3296.35 77.70 7.00  45.20 2613.78
   09:38:56.400.09-Sep-2020 5484.51 3288.52 77.70 7.00  45.40 2613.78
   09:38:56.600.09-Sep-2020 5484.51 3284.21 77.69 7.00  45.60 2613.78
   09:38:56.800.09-Sep-2020 5484.51 3288.98 77.69 7.00  45.80 2613.78
