~Version Information
 VERS.                  2.0:   CWLS log ASCII Standard -VERSION 2.0
 WRAP.                   NO:   One line per depth step
~Well Information Block
#MNEM.UNIT     VALUE/NAME     DESCRIPTION
#---------     -----------    ---------------------------
 STRT.S             10:55:02 09-Sep-20: START TIME 10:55:02 09-Sep-20
 STOP.S             11:02:04 09-Sep-20: STOP TIME  11:02:04 09-Sep-20
 STEP.S                   0.00: STEP TIME
 NULL.                 -999.25: NULL VALUE
 MDS .        Operator Entered:  MAG DATA SOURCE
 PDAT.          Mean Sea Level:  PERMANENT DATUM
 DCON.         Sperry Drilling:  DIRECTNL CONTR
 RIG .              West Azeri:  RIG NAME
 WELL.           C40 (Slot 20):  WELL NAME
 SRVC.     Turan Drilling Engineering:  CONTRACTOR
 FLD .                     ACG:  FIELD NAME
 CTRY.              Azerbaijan:  COUNTRY NAME
 PROV.                    Baku:  PROVINCE
 STAT.                    Baku:  STATE NAME
 REGN.                   EESSA:  REGION
 BASE.              Azerbaijan:  LOGGING EQUIPMENT BASE LOCATION
 COMP.     BP Exploration (Caspian Sea) Ltd:  COMPANY
 WTYP.                Deviated:  WELL TYPE
 SON .        AZ-XX-0906344804:  JOB NUMBER
 FTOP.          Formation Tops:  FORM TOPS DESC
 ILTD.               Lithology:  INTERP LTH DESC
 SVYD.                  Survey:  SURVEY DESC
 DMOD.             Drill Model:  DRILL MOD DESC
 HPTY.       Minimum Curvature:  HOLE POS TYPE
 NREF.                    Grid:  NORTH REFERENCE
 SPUD.               01-Jan-20:  SPUD DATE
 DATE.      00.59.44 15-Sep-20:  END TIME
 STIM.      12.00.00 12-Jun-20:  START TIME
 DMF .             Drill Floor:  DRILL MEAS FROM
 DFST.                        :  DIST FSL TEXT
 DFWT.                        :  DIST FWL TEXT
 API .                        :  API NUMBER
 CNTY.                        :  COUNTY
 UWI .                        :  UNIQUE WELL IDENTIFIER
 LOC .                        :  LOCATION
 LMF .             Drill Floor:  LOG MEASURED FROM
 VSNS.m                   2.88:  VERT SEC N/S
 VSEW.m                  -3.84:  VERT SEC E/W
 AGAP.m                  43.42:  AIR GAP
 APD .m                  43.42:  DEPTH ABOVE PD
 WDMS.m                 118.27:  WD ELEV
 EGL .m                   0.00:  GROUND ELEVATION
 EPD .m                   0.00:  ELEVATION
 AZTC.deg                 6.23:  AZM TOTAL CORR
 GRDC.deg                 0.20:  GRID CORRECTION
 MDEC.deg                 6.43:  MAGNETIC DECL
 MDIP.deg                59.49:  MAGNETIC DIP
 MFLD.nT              50277.00:  MAGNETIC FIELD
 GVFD.g                   1.00:  GRAVITY FIELD
 VSDR.deg               173.20:  VERT SEC DIRECT
 TDD .m                5790.01:  TOTAL DEPTH (DRILLER)
 SDEP.m                5231.01:  START DEPTH
 DFSL.m                   0.00:  DISTANCE FSL
 DFWL.m                   0.00:  DISTANCE FWL
 UTMY.m             4435808.83:  UTM Y
 UTMX.m              526266.40:  UTM X
 WHEW.m                  -3.84:  WELL HEAD E/W
 WHNS.m                   2.88:  WELL HEAD N/S
 LONG.deg                51.31:  LONGITUDE
 LATI.deg                40.06:  LATITUDE
 TVDS.m                  43.42:  TVDSS CORRECTN
 DEP .m                 430.08:  DEPTH
 EKB .m                  43.42:  KB ELEVATION
 EDF .m                  43.42:  DF ELEVATION
 TDL .m                 559.00:  TOTAL DEPTH (LOGGER)
 MAGU.                 1849381:  MAGUTM CHECKSUM
 VSC .                       0:  VS TO CLOSURE
~Parameter Information Block
#MNEM.UNIT       Value        Description
#---------     -----------    ---------------------------
 AV  .mps                 4.87:  Ann Velocity 
 AVMX.mps                 7.08:  Max Ann Veloc 
 AZIF.deg               108.87:  Azm, Final 
 BHAT.                  Rotary:  BHA Type 
 BROT.°/30m               0.35:  Build Rotating 
 BS  .in                  8.50:  Bit Size 
 BSZ .in                  8.50:  Bit Size 
 BTPL.psig              360.00:  Bit Press Loss 
 CABU.                     Yes:  Customer Abuse 
 COMM.                     ¬Î:  Run Comments 1 
 TCS .hr                106.24:  Time Ciculation Ended 
 CV  .mps                 1.77:  Crit Velocity 
 CVMX.mps                 2.03:  Max Crit Veloc 
 DD1 .         Aykhan Agagulov:  Direct Drillr 1 
 DD2 .            Nonso Okofor:  Direct Drillr 2 
 DDSV.               Geo-Pilot:  DD Service 
 DEFF.%                  98.00:  % Det Eff 
 DLRX.°/30m               0.50:  Dogleg Rot Max 
 DLSO.°/30m               0.40:  Dogleg Oriented 
 DLSX.°/30m               0.94:  Dogleg Str Max 
 DRET.      20.30.00 08-Sep-20:  Drill End Time 
 DRST.      22.15.00 06-Sep-20:  Drill Start Tim 
 DTIM.hr                 31.31:  Time Drilling 
 EDEP.m                5790.01:  End Depth 
 ENG1.           Amrah Tahirov:  Engineer 1 
 ENG2.         Dair Mahammadov:  Engineer 2 
 ENG3.           Emil Huseynov:  Engineer 3 
 ETIM.      04.01.04 12-Sep-20:  End Time 
 FLOI.gpm               450.00:  Flow In 
 FLON.gpm               450.00:  Flow In Min 
 FLOS.cptm                2.00:  Fluid Loss 
 FLOX.gpm               450.00:  Flow In Max 
 FTRO.       Formation Presure:  FTWD Run Obj 
 HFLO.                      No:  High Flow 
 HPRE.                      No:  High Pressure 
 HTEM.                      No:  High Temp 
 HYDO.m                   1.80:  Hydro Offset 
 IFIN.deg                72.03:  Inc, Final 
 IMAX.deg                73.72:  Inc Max 
 IMIN.deg                70.94:  Inc Min 
 IMND.m                5508.52:  Inc Min Depth 
 IMXD.m                5253.60:  Inc Max Depth 
 JARR.                      No:  Jarring 
 LETM.      20.30.00 08-Sep-20:  Log End Time 
 LOST.hr                     0:  Lost Rig Time 
 LSTM.      22.15.00 06-Sep-20:  Log Start Time 
 MDCL.ppm             36000.00:  Mud Chlorides 
 MDES.     Inversion Oil/Synthetic:  Mud Desc 
 DFD .sg                  1.44:  Mud Density 
 MDMN.sg                  1.44:  Dens Mud Min 
 MDMX.sg                  1.57:  Dens Mud Max 
 MOIL.                      70:  Run Mud Oil % 
 MOWR.                   70:30:  Run Mud OWR 
 MSND.                       0:  Run Mud Sand % 
 MSOL.                      21:  Run Mud Solids% 
 DFV .spqt               68.00:  Mud Viscosity 
 MWOD.in                  6.75:  MWD Tool OD 
 MWSI.                     Yes:  Serv Intrp, MWD 
 OTIM.hr                174.84:  Time Operating 
 PCON.           Look Like New:  Pad Condition 
 PMAX.psia            10616.93:  Press Op, Max 
 PV  .cP                 50.00:  Mud PV 
 RUN .                     700:  Run Number 
 ROPA.m/hr               14.24:  ROP Avg 
 ROPN.m/hr               10.00:  ROP Min 
 ROPX.m/hr               32.00:  ROP Max 
 RPMA.rpm               120.90:  RPM Surface Avg 
 RPMN.rpm               120.00:  RPM Surface Min 
 RPMX.rpm               140.00:  RPM Surface Max 
 RRUN.                    0700:  Rig Run Number 
 RTIM.hr                  3.20:  Time Reaming 
 SAZI.deg               109.99:  Azm, Start 
 SDEP.m                5231.01:  Start Depth 
 SIDD.                      No:  Serv Intrp, DD 
 SINC.deg                73.72:  Inc, Start 
 SPPA.psig             3051.00:  SPP Avg 
 SPPN.psig             2950.00:  SPP Min 
 SPPX.psig             3250.00:  SPP Max 
 STIM.      08.00.00 05-Sep-20:  Start Time 
 SVCS.                 DD, MWD:  Services 
 SVER.                    9.20:  Sperry Version 
 TDAT.m                 559.00:  Tot Depth Attmp 
 TDDF.                      No:  Trip for DD 
 TDLG.m                 559.00:  Tot Depth Loggd 
 TFF .                      No:  Trip for Fail 
 TQAA.f-kp               26.49:  Torque Abs Avg 
 TQAN.f-kp               25.00:  Torque Abs Min 
 TQAX.f-kp               27.00:  Torque Abs Max 
 TRRT.°/30m               1.50:  Turn Rotating 
 MRT .                    HCIM:  Maximum Recorded Temperature 
 TTMX.degC               90.20:  Max Tool Temp 
 VS01.                90542671:  Virtual Str1 SN 
 VS02.                90545185:  Virtual Str2 SN 
 VS03.                90602015:  Virtual Str3 SN 
 VS04.                90515230:  Virtual Str4 SN 
 WBMN.klb                 5.00:  WOB Min 
 WOBA.klb                14.79:  WOB Avg 
 WOBX.klb                20.00:  WOB Max 
 YP  .lhf2               29.00:  Yield Point 
~Curve Information Block
#MNEM.UNIT                 API CODE     Curve Description
#---------               -----------    ---------------------------
 TIME.HHMMSS            00 000 000 000:  GT Time & Date
 GTDEPTH.m              00 000 000 000:  GT Depth
 GTPQH.psia             00 000 000 000:  GT HR Quartz Pressure
 GTTQ.degC              00 000 000 000:  GT Quartz Temperature
 GTTN.NONE              00 000 000 000:  GT Test Number
 GTET.sec               00 000 000 000:  GT Elapsed Test Time
 GTTVD.m                00 000 000 000:  GT True Vertical Depth
#Other Information
#
#WARRANTY: Halliburton will use its best efforts to furnish customers with 
#accurate information and interpretations that are part of, and incident to, the services 
#provided.  However, Halliburton cannot and does not warrant the accuracy 
#or correctness of such information and interpretations.  Under no circumstances should any 
#such information or interpretation be relied upon as the sole basis for any drilling, 
#completion, production, or financial decision or any procedure involving any risk to the 
#safety of any drilling venture, drilling rig or its crew or any other third party.  The 
#Customer has full responsibility for all drilling, completion and production operation.  
#Halliburton makes no representations or warranties, either expressed or 
#implied, including, but not limited to, the implied warranties of merchantability or fitness 
#for a particular purpose, with respect to the services rendered.  In no event will 
#Halliburton be liable for failure to obtain any particular results or for 
#any damages, including, but not limited to, indirect, special or consequential damages, 
#resulting from the use of any information or interpretation provided by Halliburton.
#
~A           TIME           GTDEPTH  GTPQH  GTTQ  GTTN   GTET   GTTVD  
   10:55:02.191.09-Sep-2020 5456.01 6292.30 76.43 10.00   0.00 2604.72
   10:55:02.391.09-Sep-2020 5456.01 6292.30 76.43 10.00   0.20 2604.72
   10:55:02.591.09-Sep-2020 5456.01 6292.25 76.43 10.00   0.40 2604.72
   10:55:02.791.09-Sep-2020 5456.01 6292.54 76.43 10.00   0.60 2604.72
   10:55:02.991.09-Sep-2020 5456.01 6292.91 76.43 10.00   0.80 2604.72
   10:55:03.191.09-Sep-2020 5456.01 6292.95 76.43 10.00   1.00 2604.72
   10:55:03.391.09-Sep-2020 5456.01 6292.95 76.43 10.00   1.20 2604.72
   10:55:03.592.09-Sep-2020 5456.01 6294.44 76.43 10.00   1.40 2604.72
   10:55:03.792.09-Sep-2020 5456.01 6294.42 76.43 10.00   1.60 2604.72
   10:55:03.992.09-Sep-2020 5456.01 6294.40 76.43 10.00   1.80 2604.72
   10:55:04.192.09-Sep-2020 5456.01 6308.38 76.43 10.00   2.00 2604.72
   10:55:04.392.09-Sep-2020 5456.01 6308.38 76.43 10.00   2.20 2604.72
   10:55:04.592.09-Sep-2020 5456.01 6295.66 76.43 10.00   2.40 2604.72
   10:55:04.792.09-Sep-2020 5456.01 6297.84 76.43 10.00   2.60 2604.72
   10:55:04.992.09-Sep-2020 5456.01 6296.71 76.43 10.00   2.80 2604.72
   10:55:05.192.09-Sep-2020 5456.01 6297.95 76.43 10.00   3.00 2604.72
   10:55:05.392.09-Sep-2020 5456.01 6297.95 76.43 10.00   3.20 2604.72
   10:55:05.592.09-Sep-2020 5456.01 6296.34 76.43 10.00   3.40 2604.72
   10:55:05.792.09-Sep-2020 5456.01 6297.07 76.43 10.00   3.60 2604.72
   10:55:05.992.09-Sep-2020 5456.01 6298.61 76.43 10.00   3.80 2604.72
   10:55:06.192.09-Sep-2020 5456.01 6297.34 76.43 10.00   4.00 2604.72
   10:55:06.392.09-Sep-2020 5456.01 6297.34 76.43 10.00   4.20 2604.72
   10:55:06.592.09-Sep-2020 5456.01 6302.36 76.43 10.00   4.40 2604.72
   10:55:06.792.09-Sep-2020 5456.01 6296.44 76.43 10.00   4.60 2604.72
   10:55:06.992.09-Sep-2020 5456.01 6296.41 76.43 10.00   4.80 2604.72
   10:55:07.193.09-Sep-2020 5456.01 6297.13 76.43 10.00   5.00 2604.72
   10:55:07.393.09-Sep-2020 5456.01 6297.13 76.43 10.00   5.20 2604.72
   10:55:07.593.09-Sep-2020 5456.01 6297.13 76.43 10.00   5.40 2604.72
   10:55:07.793.09-Sep-2020 5456.01 6294.14 76.43 10.00   5.60 2604.72
   10:55:07.993.09-Sep-2020 5456.01 6296.84 76.43 10.00   5.80 2604.72
   10:55:08.193.09-Sep-2020 5456.01 6296.48 76.43 10.00   6.00 2604.72
   10:55:08.393.09-Sep-2020 5456.01 6297.44 76.43 10.00   6.20 2604.72
   10:55:08.593.09-Sep-2020 5456.01 6297.07 76.43 10.00   6.40 2604.72
   10:55:08.793.09-Sep-2020 5456.01 6304.24 76.43 10.00   6.60 2604.72
   10:55:08.993.09-Sep-2020 5456.01 6299.84 76.43 10.00   6.80 2604.72
   10:55:09.193.09-Sep-2020 5456.01 6299.76 76.43 10.00   7.00 2604.72
   10:55:09.393.09-Sep-2020 5456.01 6299.76 76.43 10.00   7.20 2604.72
   10:55:09.593.09-Sep-2020 5456.01 6308.49 76.43 10.00   7.40 2604.72
   10:55:09.793.09-Sep-2020 5456.01 6304.22 76.43 10.00   7.60 2604.72
   10:55:09.993.09-Sep-2020 5456.01 6304.60 76.43 10.00   7.80 2604.72
   10:55:10.193.09-Sep-2020 5456.01 6306.30 76.43 10.00   8.00 2604.72
   10:55:10.393.09-Sep-2020 5456.01 6306.30 76.43 10.00   8.20 2604.72
   10:55:10.593.09-Sep-2020 5456.01 6319.15 76.43 10.00   8.40 2604.72
   10:55:10.794.09-Sep-2020 5456.01 6300.18 76.43 10.00   8.60 2604.72
   10:55:10.994.09-Sep-2020 5456.01 6306.59 76.43 10.00   8.80 2604.72
   10:55:11.194.09-Sep-2020 5456.01 6309.58 76.43 10.00   9.00 2604.72
   10:55:11.394.09-Sep-2020 5456.01 6309.58 76.43 10.00   9.20 2604.72
   10:55:11.594.09-Sep-2020 5456.01 6309.34 76.43 10.00   9.40 2604.72
   10:55:11.794.09-Sep-2020 5456.01 6308.47 76.43 10.00   9.60 2604.72
   10:55:11.994.09-Sep-2020 5456.01 6309.15 76.43 10.00   9.80 2604.72
   10:55:12.194.09-Sep-2020 5456.01 6309.46 76.43 10.00  10.00 2604.72
   10:55:12.394.09-Sep-2020 5456.01 6309.61 76.43 10.00  10.20 2604.72
   10:55:12.594.09-Sep-2020 5456.01 6309.83 76.43 10.00  10.40 2604.72
   10:55:12.794.09-Sep-2020 5456.01 6310.26 76.43 10.00  10.60 2604.72
   10:55:12.994.09-Sep-2020 5456.01 6310.26 76.43 10.00  10.80 2604.72
   10:55:13.194.09-Sep-2020 5456.01 6310.69 76.43 10.00  11.00 2604.72
   10:55:13.394.09-Sep-2020 5456.01 6310.69 76.43 10.00  11.20 2604.72
   10:55:13.594.09-Sep-2020 5456.01 6311.15 76.43 10.00  11.40 2604.72
   10:55:13.794.09-Sep-2020 5456.01 6311.46 76.43 10.00  11.60 2604.72
   10:55:13.994.09-Sep-2020 5456.01 6311.93 76.43 10.00  11.80 2604.72
   10:55:14.194.09-Sep-2020 5456.01 6312.41 76.43 10.00  12.00 2604.72
   10:55:14.395.09-Sep-2020 5456.01 6312.41 76.43 10.00  12.20 2604.72
   10:55:14.595.09-Sep-2020 5456.01 6312.85 76.43 10.00  12.40 2604.72
   10:55:14.795.09-Sep-2020 5456.01 6311.96 76.43 10.00  12.60 2604.72
   10:55:14.995.09-Sep-2020 5456.01 6314.04 76.43 10.00  12.80 2604.72
   10:55:15.195.09-Sep-2020 5456.01 6313.27 76.43 10.00  13.00 2604.72
   10:55:15.395.09-Sep-2020 5456.01 6314.35 76.43 10.00  13.20 2604.72
   10:55:15.595.09-Sep-2020 5456.01 6314.52 76.43 10.00  13.40 2604.72
   10:55:15.795.09-Sep-2020 5456.01 6314.39 76.43 10.00  13.60 2604.72
   10:55:15.995.09-Sep-2020 5456.01 6314.82 76.43 10.00  13.80 2604.72
   10:55:16.195.09-Sep-2020 5456.01 6314.93 76.43 10.00  14.00 2604.72
   10:55:16.395.09-Sep-2020 5456.01 6315.66 76.43 10.00  14.20 2604.72
   10:55:16.595.09-Sep-2020 5456.01 6316.30 76.43 10.00  14.40 2604.72
   10:55:16.795.09-Sep-2020 5456.01 6316.36 76.43 10.00  14.60 2604.72
   10:55:16.995.09-Sep-2020 5456.01 6316.04 76.43 10.00  14.80 2604.72
   10:55:17.195.09-Sep-2020 5456.01 6316.33 76.43 10.00  15.00 2604.72
   10:55:17.395.09-Sep-2020 5456.01 6316.33 76.43 10.00  15.20 2604.72
   10:55:17.595.09-Sep-2020 5456.01 6317.10 76.43 10.00  15.40 2604.72
   10:55:17.795.09-Sep-2020 5456.01 6317.07 76.43 10.00  15.60 2604.72
   10:55:17.996.09-Sep-2020 5456.01 6323.98 76.43 10.00  15.80 2604.72
   10:55:18.196.09-Sep-2020 5456.01 6318.10 76.43 10.00  16.00 2604.72
   10:55:18.396.09-Sep-2020 5456.01 6318.10 76.43 10.00  16.20 2604.72
   10:55:18.596.09-Sep-2020 5456.01 6320.26 76.43 10.00  16.40 2604.72
   10:55:18.796.09-Sep-2020 5456.01 6319.05 76.43 10.00  16.60 2604.72
   10:55:18.996.09-Sep-2020 5456.01 6319.71 76.43 10.00  16.80 2604.72
   10:55:19.196.09-Sep-2020 5456.01 6316.33 76.43 10.00  17.00 2604.72
   10:55:19.396.09-Sep-2020 5456.01 6328.44 76.43 10.00  17.20 2604.72
   10:55:19.596.09-Sep-2020 5456.01 6328.44 76.43 10.00  17.40 2604.72
   10:55:19.796.09-Sep-2020 5456.01 6328.44 76.43 10.00  17.60 2604.72
   10:55:19.996.09-Sep-2020 5456.01 6320.58 76.43 10.00  17.80 2604.72
   10:55:20.196.09-Sep-2020 5456.01 6321.97 76.43 10.00  18.00 2604.72
   10:55:20.396.09-Sep-2020 5456.01 6334.51 76.43 10.00  18.21 2604.72
   10:55:20.596.09-Sep-2020 5456.01 6316.04 76.43 10.00  18.41 2604.72
   10:55:20.796.09-Sep-2020 5456.01 6322.81 76.43 10.00  18.61 2604.72
   10:55:20.996.09-Sep-2020 5456.01 6324.57 76.43 10.00  18.81 2604.72
   10:55:21.196.09-Sep-2020 5456.01 6323.11 76.43 10.00  19.01 2604.72
   10:55:21.396.09-Sep-2020 5456.01 6323.11 76.43 10.00  19.21 2604.72
   10:55:21.597.09-Sep-2020 5456.01 6337.17 76.43 10.00  19.41 2604.72
   10:55:21.797.09-Sep-2020 5456.01 6318.60 76.43 10.00  19.61 2604.72
   10:55:21.997.09-Sep-2020 5456.01 6325.28 76.43 10.00  19.81 2604.72
   10:55:22.197.09-Sep-2020 5456.01 6327.75 76.43 10.00  20.01 2604.72
   10:55:22.397.09-Sep-2020 5456.01 6327.75 76.43 10.00  20.21 2604.72
   10:55:22.597.09-Sep-2020 5456.01 6328.03 76.43 10.00  20.41 2604.72
   10:55:22.797.09-Sep-2020 5456.01 6326.87 76.43 10.00  20.61 2604.72
   10:55:22.997.09-Sep-2020 5456.01 6328.81 76.43 10.00  20.81 2604.72
   10:55:23.197.09-Sep-2020 5456.01 6329.23 76.43 10.00  21.01 2604.72
   10:55:23.397.09-Sep-2020 5456.01 6329.23 76.43 10.00  21.21 2604.72
   10:55:23.597.09-Sep-2020 5456.01 6337.59 76.43 10.00  21.41 2604.72
   10:55:23.797.09-Sep-2020 5456.01 6331.10 76.43 10.00  21.61 2604.72
   10:55:23.997.09-Sep-2020 5456.01 6331.55 76.43 10.00  21.81 2604.72
   10:55:24.197.09-Sep-2020 5456.01 6333.11 76.43 10.00  22.01 2604.72
   10:55:24.397.09-Sep-2020 5456.01 6333.11 76.43 10.00  22.21 2604.72
   10:55:24.597.09-Sep-2020 5456.01 6332.33 76.43 10.00  22.41 2604.72
