~Version Information
 VERS.                  2.0:   CWLS log ASCII Standard -VERSION 2.0
 WRAP.                   NO:   One line per depth step
~Well Information Block
#MNEM.UNIT     VALUE/NAME     DESCRIPTION
#---------     -----------    ---------------------------
 STRT.S             13:30:41 09-Sep-20: START TIME 13:30:41 09-Sep-20
 STOP.S             13:37:24 09-Sep-20: STOP TIME  13:37:24 09-Sep-20
 STEP.S                   0.00: STEP TIME
 NULL.                 -999.25: NULL VALUE
 MDS .        Operator Entered:  MAG DATA SOURCE
 PDAT.          Mean Sea Level:  PERMANENT DATUM
 DCON.         Sperry Drilling:  DIRECTNL CONTR
 RIG .              West Azeri:  RIG NAME
 WELL.           C40 (Slot 20):  WELL NAME
 SRVC.     Turan Drilling Engineering:  CONTRACTOR
 FLD .                     ACG:  FIELD NAME
 CTRY.              Azerbaijan:  COUNTRY NAME
 PROV.                    Baku:  PROVINCE
 STAT.                    Baku:  STATE NAME
 REGN.                   EESSA:  REGION
 BASE.              Azerbaijan:  LOGGING EQUIPMENT BASE LOCATION
 COMP.     BP Exploration (Caspian Sea) Ltd:  COMPANY
 WTYP.                Deviated:  WELL TYPE
 SON .        AZ-XX-0906344804:  JOB NUMBER
 FTOP.          Formation Tops:  FORM TOPS DESC
 ILTD.               Lithology:  INTERP LTH DESC
 SVYD.                  Survey:  SURVEY DESC
 DMOD.             Drill Model:  DRILL MOD DESC
 HPTY.       Minimum Curvature:  HOLE POS TYPE
 NREF.                    Grid:  NORTH REFERENCE
 SPUD.               01-Jan-20:  SPUD DATE
 DATE.      00.59.44 15-Sep-20:  END TIME
 STIM.      12.00.00 12-Jun-20:  START TIME
 DMF .             Drill Floor:  DRILL MEAS FROM
 DFST.                        :  DIST FSL TEXT
 DFWT.                        :  DIST FWL TEXT
 API .                        :  API NUMBER
 CNTY.                        :  COUNTY
 UWI .                        :  UNIQUE WELL IDENTIFIER
 LOC .                        :  LOCATION
 LMF .             Drill Floor:  LOG MEASURED FROM
 VSNS.m                   2.88:  VERT SEC N/S
 VSEW.m                  -3.84:  VERT SEC E/W
 AGAP.m                  43.42:  AIR GAP
 APD .m                  43.42:  DEPTH ABOVE PD
 WDMS.m                 118.27:  WD ELEV
 EGL .m                   0.00:  GROUND ELEVATION
 EPD .m                   0.00:  ELEVATION
 AZTC.deg                 6.23:  AZM TOTAL CORR
 GRDC.deg                 0.20:  GRID CORRECTION
 MDEC.deg                 6.43:  MAGNETIC DECL
 MDIP.deg                59.49:  MAGNETIC DIP
 MFLD.nT              50277.00:  MAGNETIC FIELD
 GVFD.g                   1.00:  GRAVITY FIELD
 VSDR.deg               173.20:  VERT SEC DIRECT
 TDD .m                5790.01:  TOTAL DEPTH (DRILLER)
 SDEP.m                5231.01:  START DEPTH
 DFSL.m                   0.00:  DISTANCE FSL
 DFWL.m                   0.00:  DISTANCE FWL
 UTMY.m             4435808.83:  UTM Y
 UTMX.m              526266.40:  UTM X
 WHEW.m                  -3.84:  WELL HEAD E/W
 WHNS.m                   2.88:  WELL HEAD N/S
 LONG.deg                51.31:  LONGITUDE
 LATI.deg                40.06:  LATITUDE
 TVDS.m                  43.42:  TVDSS CORRECTN
 DEP .m                 430.08:  DEPTH
 EKB .m                  43.42:  KB ELEVATION
 EDF .m                  43.42:  DF ELEVATION
 TDL .m                 559.00:  TOTAL DEPTH (LOGGER)
 MAGU.                 1849381:  MAGUTM CHECKSUM
 VSC .                       0:  VS TO CLOSURE
~Parameter Information Block
#MNEM.UNIT       Value        Description
#---------     -----------    ---------------------------
 AV  .mps                 4.87:  Ann Velocity 
 AVMX.mps                 7.08:  Max Ann Veloc 
 AZIF.deg               108.87:  Azm, Final 
 BHAT.                  Rotary:  BHA Type 
 BROT.°/30m               0.35:  Build Rotating 
 BS  .in                  8.50:  Bit Size 
 BSZ .in                  8.50:  Bit Size 
 BTPL.psig              360.00:  Bit Press Loss 
 CABU.                     Yes:  Customer Abuse 
 COMM.                     $ñd:  Run Comments 1 
 TCS .hr                106.24:  Time Ciculation Ended 
 CV  .mps                 1.77:  Crit Velocity 
 CVMX.mps                 2.03:  Max Crit Veloc 
 DD1 .         Aykhan Agagulov:  Direct Drillr 1 
 DD2 .            Nonso Okofor:  Direct Drillr 2 
 DDSV.               Geo-Pilot:  DD Service 
 DEFF.%                  98.00:  % Det Eff 
 DLRX.°/30m               0.50:  Dogleg Rot Max 
 DLSO.°/30m               0.40:  Dogleg Oriented 
 DLSX.°/30m               0.94:  Dogleg Str Max 
 DRET.      20.30.00 08-Sep-20:  Drill End Time 
 DRST.      22.15.00 06-Sep-20:  Drill Start Tim 
 DTIM.hr                 31.31:  Time Drilling 
 EDEP.m                5790.01:  End Depth 
 ENG1.           Amrah Tahirov:  Engineer 1 
 ENG2.         Dair Mahammadov:  Engineer 2 
 ENG3.           Emil Huseynov:  Engineer 3 
 ETIM.      04.01.04 12-Sep-20:  End Time 
 FLOI.gpm               450.00:  Flow In 
 FLON.gpm               450.00:  Flow In Min 
 FLOS.cptm                2.00:  Fluid Loss 
 FLOX.gpm               450.00:  Flow In Max 
 FTRO.       Formation Presure:  FTWD Run Obj 
 HFLO.                      No:  High Flow 
 HPRE.                      No:  High Pressure 
 HTEM.                      No:  High Temp 
 HYDO.m                   1.80:  Hydro Offset 
 IFIN.deg                72.03:  Inc, Final 
 IMAX.deg                73.72:  Inc Max 
 IMIN.deg                70.94:  Inc Min 
 IMND.m                5508.52:  Inc Min Depth 
 IMXD.m                5253.60:  Inc Max Depth 
 JARR.                      No:  Jarring 
 LETM.      20.30.00 08-Sep-20:  Log End Time 
 LOST.hr                     0:  Lost Rig Time 
 LSTM.      22.15.00 06-Sep-20:  Log Start Time 
 MDCL.ppm             36000.00:  Mud Chlorides 
 MDES.     Inversion Oil/Synthetic:  Mud Desc 
 DFD .sg                  1.44:  Mud Density 
 MDMN.sg                  1.44:  Dens Mud Min 
 MDMX.sg                  1.57:  Dens Mud Max 
 MOIL.                      70:  Run Mud Oil % 
 MOWR.                   70:30:  Run Mud OWR 
 MSND.                       0:  Run Mud Sand % 
 MSOL.                      21:  Run Mud Solids% 
 DFV .spqt               68.00:  Mud Viscosity 
 MWOD.in                  6.75:  MWD Tool OD 
 MWSI.                     Yes:  Serv Intrp, MWD 
 OTIM.hr                174.84:  Time Operating 
 PCON.           Look Like New:  Pad Condition 
 PMAX.psia            10616.93:  Press Op, Max 
 PV  .cP                 50.00:  Mud PV 
 RUN .                     700:  Run Number 
 ROPA.m/hr               14.24:  ROP Avg 
 ROPN.m/hr               10.00:  ROP Min 
 ROPX.m/hr               32.00:  ROP Max 
 RPMA.rpm               120.90:  RPM Surface Avg 
 RPMN.rpm               120.00:  RPM Surface Min 
 RPMX.rpm               140.00:  RPM Surface Max 
 RRUN.                    0700:  Rig Run Number 
 RTIM.hr                  3.20:  Time Reaming 
 SAZI.deg               109.99:  Azm, Start 
 SDEP.m                5231.01:  Start Depth 
 SIDD.                      No:  Serv Intrp, DD 
 SINC.deg                73.72:  Inc, Start 
 SPPA.psig             3051.00:  SPP Avg 
 SPPN.psig             2950.00:  SPP Min 
 SPPX.psig             3250.00:  SPP Max 
 STIM.      08.00.00 05-Sep-20:  Start Time 
 SVCS.                 DD, MWD:  Services 
 SVER.                    9.20:  Sperry Version 
 TDAT.m                 559.00:  Tot Depth Attmp 
 TDDF.                      No:  Trip for DD 
 TDLG.m                 559.00:  Tot Depth Loggd 
 TFF .                      No:  Trip for Fail 
 TQAA.f-kp               26.49:  Torque Abs Avg 
 TQAN.f-kp               25.00:  Torque Abs Min 
 TQAX.f-kp               27.00:  Torque Abs Max 
 TRRT.°/30m               1.50:  Turn Rotating 
 MRT .                    HCIM:  Maximum Recorded Temperature 
 TTMX.degC               90.20:  Max Tool Temp 
 VS01.                90542671:  Virtual Str1 SN 
 VS02.                90545185:  Virtual Str2 SN 
 VS03.                90602015:  Virtual Str3 SN 
 VS04.                90515230:  Virtual Str4 SN 
 WBMN.klb                 5.00:  WOB Min 
 WOBA.klb                14.79:  WOB Avg 
 WOBX.klb                20.00:  WOB Max 
 YP  .lhf2               29.00:  Yield Point 
~Curve Information Block
#MNEM.UNIT                 API CODE     Curve Description
#---------               -----------    ---------------------------
 TIME.HHMMSS            00 000 000 000:  GT Time & Date
 GTDEPTH.m              00 000 000 000:  GT Depth
 GTPQH.psia             00 000 000 000:  GT HR Quartz Pressure
 GTTQ.degC              00 000 000 000:  GT Quartz Temperature
 GTTN.NONE              00 000 000 000:  GT Test Number
 GTET.sec               00 000 000 000:  GT Elapsed Test Time
 GTTVD.m                00 000 000 000:  GT True Vertical Depth
#Other Information
#
#WARRANTY: Halliburton will use its best efforts to furnish customers with 
#accurate information and interpretations that are part of, and incident to, the services 
#provided.  However, Halliburton cannot and does not warrant the accuracy 
#or correctness of such information and interpretations.  Under no circumstances should any 
#such information or interpretation be relied upon as the sole basis for any drilling, 
#completion, production, or financial decision or any procedure involving any risk to the 
#safety of any drilling venture, drilling rig or its crew or any other third party.  The 
#Customer has full responsibility for all drilling, completion and production operation.  
#Halliburton makes no representations or warranties, either expressed or 
#implied, including, but not limited to, the implied warranties of merchantability or fitness 
#for a particular purpose, with respect to the services rendered.  In no event will 
#Halliburton be liable for failure to obtain any particular results or for 
#any damages, including, but not limited to, indirect, special or consequential damages, 
#resulting from the use of any information or interpretation provided by Halliburton.
#
~A           TIME           GTDEPTH  GTPQH  GTTQ  GTTN   GTET   GTTVD  
# ...
   13:35:58.078.09-Sep-2020 5408.01 3590.31 75.51 15.00 316.59 2589.60
   13:35:58.278.09-Sep-2020 5408.01 3590.41 75.51 15.00 316.79 2589.60
   13:35:58.478.09-Sep-2020 5408.01 3590.27 75.51 15.00 316.99 2589.60
   13:35:58.678.09-Sep-2020 5408.01 3589.08 75.51 15.00 317.19 2589.60
   13:35:58.878.09-Sep-2020 5408.01 3589.08 75.51 15.00 317.39 2589.60
   13:35:59.079.09-Sep-2020 5408.01 3590.13 75.51 15.00 317.59 2589.60
   13:35:59.279.09-Sep-2020 5408.01 3590.11 75.51 15.00 317.79 2589.60
   13:35:59.479.09-Sep-2020 5408.01 3590.14 75.51 15.00 317.99 2589.60
   13:35:59.679.09-Sep-2020 5408.01 3590.59 75.51 15.00 318.19 2589.60
   13:35:59.879.09-Sep-2020 5408.01 3590.59 75.51 15.00 318.39 2589.60
   13:36:00.079.09-Sep-2020 5408.01 3589.09 75.51 15.00 318.59 2589.60
   13:36:00.279.09-Sep-2020 5408.01 3590.66 75.51 15.00 318.79 2589.60
   13:36:00.479.09-Sep-2020 5408.01 3590.48 75.51 15.00 318.99 2589.60
   13:36:00.680.09-Sep-2020 5408.01 3590.40 75.51 15.00 319.20 2589.60
   13:36:00.880.09-Sep-2020 5408.01 3590.40 75.51 15.00 319.40 2589.60
   13:36:01.080.09-Sep-2020 5408.01 3590.51 75.51 15.00 319.60 2589.60
   13:36:01.280.09-Sep-2020 5408.01 3590.28 75.51 15.00 319.80 2589.60
   13:36:01.480.09-Sep-2020 5408.01 3590.31 75.51 15.00 320.00 2589.60
   13:36:01.680.09-Sep-2020 5408.01 3590.37 75.51 15.00 320.20 2589.60
   13:36:01.880.09-Sep-2020 5408.01 3590.37 75.51 15.00 320.40 2589.60
   13:36:02.080.09-Sep-2020 5408.01 3590.41 75.51 15.00 320.60 2589.60
   13:36:02.280.09-Sep-2020 5408.01 3590.46 75.51 15.00 320.80 2589.60
   13:36:02.481.09-Sep-2020 5408.01 3590.53 75.51 15.00 321.00 2589.60
   13:36:02.681.09-Sep-2020 5408.01 3590.58 75.51 15.00 321.20 2589.60
   13:36:02.881.09-Sep-2020 5408.01 3590.58 75.51 15.00 321.40 2589.60
   13:36:03.081.09-Sep-2020 5408.01 3590.49 75.51 15.00 321.60 2589.60
   13:36:03.281.09-Sep-2020 5408.01 3590.53 75.51 15.00 321.80 2589.60
   13:36:03.481.09-Sep-2020 5408.01 3590.60 75.51 15.00 322.00 2589.60
   13:36:03.681.09-Sep-2020 5408.01 3590.58 75.51 15.00 322.20 2589.60
   13:36:03.881.09-Sep-2020 5408.01 3590.58 75.51 15.00 322.40 2589.60
   13:36:04.082.09-Sep-2020 5408.01 3590.30 75.51 15.00 322.60 2589.60
   13:36:04.282.09-Sep-2020 5408.01 3590.44 75.51 15.00 322.80 2589.60
   13:36:04.482.09-Sep-2020 5408.01 3590.34 75.51 15.00 323.00 2589.60
   13:36:04.682.09-Sep-2020 5408.01 3590.65 75.51 15.00 323.20 2589.60
   13:36:04.882.09-Sep-2020 5408.01 3590.65 75.51 15.00 323.40 2589.60
   13:36:05.082.09-Sep-2020 5408.01 3590.42 75.51 15.00 323.60 2589.60
   13:36:05.282.09-Sep-2020 5408.01 3590.35 75.51 15.00 323.80 2589.60
   13:36:05.482.09-Sep-2020 5408.01 3590.46 75.51 15.00 324.00 2589.60
   13:36:05.683.09-Sep-2020 5408.01 3590.47 75.51 15.00 324.20 2589.60
   13:36:05.883.09-Sep-2020 5408.01 3590.47 75.51 15.00 324.40 2589.60
   13:36:06.083.09-Sep-2020 5408.01 3590.32 75.51 15.00 324.60 2589.60
   13:36:06.283.09-Sep-2020 5408.01 3590.31 75.51 15.00 324.80 2589.60
   13:36:06.483.09-Sep-2020 5408.01 3590.36 75.51 15.00 325.00 2589.60
   13:36:06.683.09-Sep-2020 5408.01 3590.41 75.51 15.00 325.20 2589.60
   13:36:06.883.09-Sep-2020 5408.01 3590.41 75.51 15.00 325.40 2589.60
   13:36:07.083.09-Sep-2020 5408.01 3588.95 75.51 15.00 325.60 2589.60
   13:36:07.284.09-Sep-2020 5408.01 3590.70 75.51 15.00 325.80 2589.60
   13:36:07.484.09-Sep-2020 5408.01 3590.48 75.51 15.00 326.00 2589.60
   13:36:07.684.09-Sep-2020 5408.01 3590.59 75.51 15.00 326.20 2589.60
   13:36:07.884.09-Sep-2020 5408.01 3590.59 75.51 15.00 326.40 2589.60
   13:36:08.084.09-Sep-2020 5408.01 3590.59 75.51 15.00 326.60 2589.60
   13:36:08.284.09-Sep-2020 5408.01 3589.10 75.51 15.00 326.80 2589.60
   13:36:08.484.09-Sep-2020 5408.01 3590.86 75.51 15.00 327.00 2589.60
   13:36:08.684.09-Sep-2020 5408.01 3590.66 75.51 15.00 327.20 2589.60
   13:36:08.885.09-Sep-2020 5408.01 3590.66 75.51 15.00 327.40 2589.60
   13:36:09.085.09-Sep-2020 5408.01 3589.39 75.51 15.00 327.60 2589.60
   13:36:09.285.09-Sep-2020 5408.01 3591.03 75.51 15.00 327.80 2589.60
   13:36:09.485.09-Sep-2020 5408.01 3590.60 75.51 15.00 328.00 2589.60
   13:36:09.685.09-Sep-2020 5408.01 3590.60 75.51 15.00 328.20 2589.60
   13:36:09.885.09-Sep-2020 5408.01 3590.60 75.51 15.00 328.40 2589.60
   13:36:10.085.09-Sep-2020 5408.01 3589.75 75.51 15.00 328.60 2589.60
   13:36:10.285.09-Sep-2020 5408.01 3590.31 75.51 15.00 328.80 2589.60
   13:36:10.486.09-Sep-2020 5408.01 3590.51 75.51 15.00 329.00 2589.60
   13:36:10.686.09-Sep-2020 5408.01 3590.51 75.51 15.00 329.20 2589.60
   13:36:10.886.09-Sep-2020 5408.01 3590.51 75.51 15.00 329.40 2589.60
   13:36:11.086.09-Sep-2020 5408.01 3590.54 75.51 15.00 329.60 2589.60
   13:36:11.286.09-Sep-2020 5408.01 3590.09 75.51 15.00 329.80 2589.60
   13:36:11.486.09-Sep-2020 5408.01 3589.96 75.51 15.00 330.00 2589.60
   13:36:11.686.09-Sep-2020 5408.01 3590.70 75.51 15.00 330.20 2589.60
   13:36:11.886.09-Sep-2020 5408.01 3590.70 75.51 15.00 330.40 2589.60
   13:36:12.086.09-Sep-2020 5408.01 3590.56 75.51 15.00 330.60 2589.60
   13:36:12.287.09-Sep-2020 5408.01 3590.79 75.51 15.00 330.80 2589.60
   13:36:12.487.09-Sep-2020 5408.01 3590.42 75.51 15.00 331.00 2589.60
   13:36:12.687.09-Sep-2020 5408.01 3590.46 75.51 15.00 331.20 2589.60
   13:36:12.887.09-Sep-2020 5408.01 3590.46 75.51 15.00 331.40 2589.60
   13:36:13.087.09-Sep-2020 5408.01 3590.59 75.51 15.00 331.60 2589.60
   13:36:13.287.09-Sep-2020 5408.01 3590.57 75.51 15.00 331.80 2589.60
   13:36:13.487.09-Sep-2020 5408.01 3590.60 75.51 15.00 332.00 2589.60
   13:36:13.687.09-Sep-2020 5408.01 3590.65 75.51 15.00 332.20 2589.60
   13:36:13.888.09-Sep-2020 5408.01 3590.65 75.51 15.00 332.40 2589.60
   13:36:14.088.09-Sep-2020 5408.01 3590.75 75.51 15.00 332.60 2589.60
   13:36:14.288.09-Sep-2020 5408.01 3590.72 75.51 15.00 332.80 2589.60
   13:36:14.488.09-Sep-2020 5408.01 3590.72 75.51 15.00 333.00 2589.60
   13:36:14.688.09-Sep-2020 5408.01 3590.74 75.51 15.00 333.20 2589.60
   13:36:14.888.09-Sep-2020 5408.01 3590.74 75.51 15.00 333.40 2589.60
   13:36:15.088.09-Sep-2020 5408.01 3589.39 75.51 15.00 333.60 2589.60
   13:36:15.288.09-Sep-2020 5408.01 3591.13 75.51 15.00 333.80 2589.60
   13:36:15.489.09-Sep-2020 5408.01 3590.75 75.51 15.00 334.00 2589.60
   13:36:15.689.09-Sep-2020 5408.01 3590.81 75.51 15.00 334.20 2589.60
   13:36:15.889.09-Sep-2020 5408.01 3590.81 75.51 15.00 334.40 2589.60
   13:36:16.089.09-Sep-2020 5408.01 3591.02 75.51 15.00 334.60 2589.60
   13:36:16.289.09-Sep-2020 5408.01 3590.71 75.51 15.00 334.80 2589.60
   13:36:16.489.09-Sep-2020 5408.01 3590.66 75.51 15.00 335.00 2589.60
   13:36:16.689.09-Sep-2020 5408.01 3590.57 75.51 15.00 335.20 2589.60
   13:36:16.889.09-Sep-2020 5408.01 3590.57 75.51 15.00 335.40 2589.60
   13:36:17.090.09-Sep-2020 5408.01 3590.65 75.51 15.00 335.61 2589.60
   13:36:17.290.09-Sep-2020 5408.01 3590.55 75.51 15.00 335.81 2589.60
   13:36:17.490.09-Sep-2020 5408.01 3590.50 75.51 15.00 336.01 2589.60
   13:36:17.690.09-Sep-2020 5408.01 3590.53 75.51 15.00 336.21 2589.60
   13:36:17.890.09-Sep-2020 5408.01 3590.53 75.51 15.00 336.41 2589.60
   13:36:18.090.09-Sep-2020 5408.01 3590.73 75.51 15.00 336.61 2589.60
   13:36:18.290.09-Sep-2020 5408.01 3590.71 75.51 15.00 336.81 2589.60
   13:36:18.490.09-Sep-2020 5408.01 3589.78 75.51 15.00 337.01 2589.60
   13:36:18.691.09-Sep-2020 5408.01 3590.55 75.51 15.00 337.21 2589.60
   13:36:18.891.09-Sep-2020 5408.01 3590.55 75.51 15.00 337.41 2589.60
   13:36:19.091.09-Sep-2020 5408.01 3590.55 75.51 15.00 337.61 2589.60
   13:36:19.291.09-Sep-2020 5408.01 3590.86 75.51 15.00 337.81 2589.60
   13:36:19.491.09-Sep-2020 5408.01 3590.16 75.51 15.00 338.01 2589.60
   13:36:19.691.09-Sep-2020 5408.01 3590.03 75.51 15.00 338.21 2589.60
   13:36:19.891.09-Sep-2020 5408.01 3590.03 75.51 15.00 338.41 2589.60
   13:36:20.091.09-Sep-2020 5408.01 3590.78 75.51 15.00 338.61 2589.60
   13:36:20.292.09-Sep-2020 5408.01 3590.65 75.51 15.00 338.81 2589.60
   13:36:20.492.09-Sep-2020 5408.01 3590.03 75.51 15.00 339.01 2589.60
