~Version Information
 VERS.                  2.0:   CWLS log ASCII Standard -VERSION 2.0
 WRAP.                   NO:   One line per depth step
~Well Information Block
#MNEM.UNIT     VALUE/NAME     DESCRIPTION
#---------     -----------    ---------------------------
 STRT.S             07:31:38 09-Sep-20: START TIME 07:31:38 09-Sep-20
 STOP.S             07:38:38 09-Sep-20: STOP TIME  07:38:38 09-Sep-20
 STEP.S                   0.00: STEP TIME
 NULL.                 -999.25: NULL VALUE
 MDS .        Operator Entered:  MAG DATA SOURCE
 PDAT.          Mean Sea Level:  PERMANENT DATUM
 DCON.         Sperry Drilling:  DIRECTNL CONTR
 RIG .              West Azeri:  RIG NAME
 WELL.           C40 (Slot 20):  WELL NAME
 SRVC.     Turan Drilling Engineering:  CONTRACTOR
 FLD .                     ACG:  FIELD NAME
 CTRY.              Azerbaijan:  COUNTRY NAME
 PROV.                    Baku:  PROVINCE
 STAT.                    Baku:  STATE NAME
 REGN.                   EESSA:  REGION
 BASE.              Azerbaijan:  LOGGING EQUIPMENT BASE LOCATION
 COMP.     BP Exploration (Caspian Sea) Ltd:  COMPANY
 WTYP.                Deviated:  WELL TYPE
 SON .        AZ-XX-0906344804:  JOB NUMBER
 FTOP.          Formation Tops:  FORM TOPS DESC
 ILTD.               Lithology:  INTERP LTH DESC
 SVYD.                  Survey:  SURVEY DESC
 DMOD.             Drill Model:  DRILL MOD DESC
 HPTY.       Minimum Curvature:  HOLE POS TYPE
 NREF.                    Grid:  NORTH REFERENCE
 SPUD.               01-Jan-20:  SPUD DATE
 DATE.      00.59.44 15-Sep-20:  END TIME
 STIM.      12.00.00 12-Jun-20:  START TIME
 DMF .             Drill Floor:  DRILL MEAS FROM
 DFST.                        :  DIST FSL TEXT
 DFWT.                        :  DIST FWL TEXT
 API .                        :  API NUMBER
 CNTY.                        :  COUNTY
 UWI .                        :  UNIQUE WELL IDENTIFIER
 LOC .                        :  LOCATION
 LMF .             Drill Floor:  LOG MEASURED FROM
 VSNS.m                   2.88:  VERT SEC N/S
 VSEW.m                  -3.84:  VERT SEC E/W
 AGAP.m                  43.42:  AIR GAP
 APD .m                  43.42:  DEPTH ABOVE PD
 WDMS.m                 118.27:  WD ELEV
 EGL .m                   0.00:  GROUND ELEVATION
 EPD .m                   0.00:  ELEVATION
 AZTC.deg                 6.23:  AZM TOTAL CORR
 GRDC.deg                 0.20:  GRID CORRECTION
 MDEC.deg                 6.43:  MAGNETIC DECL
 MDIP.deg                59.49:  MAGNETIC DIP
 MFLD.nT              50277.00:  MAGNETIC FIELD
 GVFD.g                   1.00:  GRAVITY FIELD
 VSDR.deg               173.20:  VERT SEC DIRECT
 TDD .m                5790.01:  TOTAL DEPTH (DRILLER)
 SDEP.m                5231.01:  START DEPTH
 DFSL.m                   0.00:  DISTANCE FSL
 DFWL.m                   0.00:  DISTANCE FWL
 UTMY.m             4435808.83:  UTM Y
 UTMX.m              526266.40:  UTM X
 WHEW.m                  -3.84:  WELL HEAD E/W
 WHNS.m                   2.88:  WELL HEAD N/S
 LONG.deg                51.31:  LONGITUDE
 LATI.deg                40.06:  LATITUDE
 TVDS.m                  43.42:  TVDSS CORRECTN
 DEP .m                 430.08:  DEPTH
 EKB .m                  43.42:  KB ELEVATION
 EDF .m                  43.42:  DF ELEVATION
 TDL .m                 559.00:  TOTAL DEPTH (LOGGER)
 MAGU.                 1849381:  MAGUTM CHECKSUM
 VSC .                       0:  VS TO CLOSURE
~Parameter Information Block
#MNEM.UNIT       Value        Description
#---------     -----------    ---------------------------
 AV  .mps                 4.87:  Ann Velocity 
 AVMX.mps                 7.08:  Max Ann Veloc 
 AZIF.deg               108.87:  Azm, Final 
 BHAT.                  Rotary:  BHA Type 
 BROT.°/30m               0.35:  Build Rotating 
 BS  .in                  8.50:  Bit Size 
 BSZ .in                  8.50:  Bit Size 
 BTPL.psig              360.00:  Bit Press Loss 
 CABU.                     Yes:  Customer Abuse 
 COMM.                     |L:  Run Comments 1 
 TCS .hr                106.24:  Time Ciculation Ended 
 CV  .mps                 1.77:  Crit Velocity 
 CVMX.mps                 2.03:  Max Crit Veloc 
 DD1 .         Aykhan Agagulov:  Direct Drillr 1 
 DD2 .            Nonso Okofor:  Direct Drillr 2 
 DDSV.               Geo-Pilot:  DD Service 
 DEFF.%                  98.00:  % Det Eff 
 DLRX.°/30m               0.50:  Dogleg Rot Max 
 DLSO.°/30m               0.40:  Dogleg Oriented 
 DLSX.°/30m               0.94:  Dogleg Str Max 
 DRET.      20.30.00 08-Sep-20:  Drill End Time 
 DRST.      22.15.00 06-Sep-20:  Drill Start Tim 
 DTIM.hr                 31.31:  Time Drilling 
 EDEP.m                5790.01:  End Depth 
 ENG1.           Amrah Tahirov:  Engineer 1 
 ENG2.         Dair Mahammadov:  Engineer 2 
 ENG3.           Emil Huseynov:  Engineer 3 
 ETIM.      04.01.04 12-Sep-20:  End Time 
 FLOI.gpm               450.00:  Flow In 
 FLON.gpm               450.00:  Flow In Min 
 FLOS.cptm                2.00:  Fluid Loss 
 FLOX.gpm               450.00:  Flow In Max 
 FTRO.       Formation Presure:  FTWD Run Obj 
 HFLO.                      No:  High Flow 
 HPRE.                      No:  High Pressure 
 HTEM.                      No:  High Temp 
 HYDO.m                   1.80:  Hydro Offset 
 IFIN.deg                72.03:  Inc, Final 
 IMAX.deg                73.72:  Inc Max 
 IMIN.deg                70.94:  Inc Min 
 IMND.m                5508.52:  Inc Min Depth 
 IMXD.m                5253.60:  Inc Max Depth 
 JARR.                      No:  Jarring 
 LETM.      20.30.00 08-Sep-20:  Log End Time 
 LOST.hr                     0:  Lost Rig Time 
 LSTM.      22.15.00 06-Sep-20:  Log Start Time 
 MDCL.ppm             36000.00:  Mud Chlorides 
 MDES.     Inversion Oil/Synthetic:  Mud Desc 
 DFD .sg                  1.44:  Mud Density 
 MDMN.sg                  1.44:  Dens Mud Min 
 MDMX.sg                  1.57:  Dens Mud Max 
 MOIL.                      70:  Run Mud Oil % 
 MOWR.                   70:30:  Run Mud OWR 
 MSND.                       0:  Run Mud Sand % 
 MSOL.                      21:  Run Mud Solids% 
 DFV .spqt               68.00:  Mud Viscosity 
 MWOD.in                  6.75:  MWD Tool OD 
 MWSI.                     Yes:  Serv Intrp, MWD 
 OTIM.hr                174.84:  Time Operating 
 PCON.           Look Like New:  Pad Condition 
 PMAX.psia            10616.93:  Press Op, Max 
 PV  .cP                 50.00:  Mud PV 
 RUN .                     700:  Run Number 
 ROPA.m/hr               14.24:  ROP Avg 
 ROPN.m/hr               10.00:  ROP Min 
 ROPX.m/hr               32.00:  ROP Max 
 RPMA.rpm               120.90:  RPM Surface Avg 
 RPMN.rpm               120.00:  RPM Surface Min 
 RPMX.rpm               140.00:  RPM Surface Max 
 RRUN.                    0700:  Rig Run Number 
 RTIM.hr                  3.20:  Time Reaming 
 SAZI.deg               109.99:  Azm, Start 
 SDEP.m                5231.01:  Start Depth 
 SIDD.                      No:  Serv Intrp, DD 
 SINC.deg                73.72:  Inc, Start 
 SPPA.psig             3051.00:  SPP Avg 
 SPPN.psig             2950.00:  SPP Min 
 SPPX.psig             3250.00:  SPP Max 
 STIM.      08.00.00 05-Sep-20:  Start Time 
 SVCS.                 DD, MWD:  Services 
 SVER.                    9.20:  Sperry Version 
 TDAT.m                 559.00:  Tot Depth Attmp 
 TDDF.                      No:  Trip for DD 
 TDLG.m                 559.00:  Tot Depth Loggd 
 TFF .                      No:  Trip for Fail 
 TQAA.f-kp               26.49:  Torque Abs Avg 
 TQAN.f-kp               25.00:  Torque Abs Min 
 TQAX.f-kp               27.00:  Torque Abs Max 
 TRRT.°/30m               1.50:  Turn Rotating 
 MRT .                    HCIM:  Maximum Recorded Temperature 
 TTMX.degC               90.20:  Max Tool Temp 
 VS01.                90542671:  Virtual Str1 SN 
 VS02.                90545185:  Virtual Str2 SN 
 VS03.                90602015:  Virtual Str3 SN 
 VS04.                90515230:  Virtual Str4 SN 
 WBMN.klb                 5.00:  WOB Min 
 WOBA.klb                14.79:  WOB Avg 
 WOBX.klb                20.00:  WOB Max 
 YP  .lhf2               29.00:  Yield Point 
~Curve Information Block
#MNEM.UNIT                 API CODE     Curve Description
#---------               -----------    ---------------------------
 TIME.HHMMSS            00 000 000 000:  GT Time & Date
 GTDEPTH.m              00 000 000 000:  GT Depth
 GTPQH.psia             00 000 000 000:  GT HR Quartz Pressure
 GTTQ.degC              00 000 000 000:  GT Quartz Temperature
 GTTN.NONE              00 000 000 000:  GT Test Number
 GTET.sec               00 000 000 000:  GT Elapsed Test Time
 GTTVD.m                00 000 000 000:  GT True Vertical Depth
#Other Information
#
#WARRANTY: Halliburton will use its best efforts to furnish customers with 
#accurate information and interpretations that are part of, and incident to, the services 
#provided.  However, Halliburton cannot and does not warrant the accuracy 
#or correctness of such information and interpretations.  Under no circumstances should any 
#such information or interpretation be relied upon as the sole basis for any drilling, 
#completion, production, or financial decision or any procedure involving any risk to the 
#safety of any drilling venture, drilling rig or its crew or any other third party.  The 
#Customer has full responsibility for all drilling, completion and production operation.  
#Halliburton makes no representations or warranties, either expressed or 
#implied, including, but not limited to, the implied warranties of merchantability or fitness 
#for a particular purpose, with respect to the services rendered.  In no event will 
#Halliburton be liable for failure to obtain any particular results or for 
#any damages, including, but not limited to, indirect, special or consequential damages, 
#resulting from the use of any information or interpretation provided by Halliburton.
#
~A           TIME           GTDEPTH  GTPQH  GTTQ  GTTN  GTET   GTTVD  
# ...
   07:37:00.419.09-Sep-2020 5569.01 3533.39 78.51 4.00 322.13 2640.81
   07:37:00.619.09-Sep-2020 5569.01 3533.39 78.51 4.00 322.33 2640.81
   07:37:00.819.09-Sep-2020 5569.01 3533.39 78.51 4.00 322.53 2640.81
   07:37:01.019.09-Sep-2020 5569.01 3533.38 78.51 4.00 322.73 2640.81
   07:37:01.219.09-Sep-2020 5569.01 3533.35 78.51 4.00 322.93 2640.81
   07:37:01.420.09-Sep-2020 5569.01 3533.42 78.51 4.00 323.13 2640.81
   07:37:01.620.09-Sep-2020 5569.01 3533.42 78.51 4.00 323.33 2640.81
   07:37:01.820.09-Sep-2020 5569.01 3533.37 78.51 4.00 323.53 2640.81
   07:37:02.020.09-Sep-2020 5569.01 3533.39 78.51 4.00 323.73 2640.81
   07:37:02.220.09-Sep-2020 5569.01 3533.38 78.51 4.00 323.93 2640.81
   07:37:02.420.09-Sep-2020 5569.01 3533.40 78.51 4.00 324.13 2640.81
   07:37:02.620.09-Sep-2020 5569.01 3533.40 78.51 4.00 324.33 2640.81
   07:37:02.820.09-Sep-2020 5569.01 3533.38 78.51 4.00 324.53 2640.81
   07:37:03.020.09-Sep-2020 5569.01 3533.40 78.51 4.00 324.73 2640.81
   07:37:03.220.09-Sep-2020 5569.01 3533.39 78.51 4.00 324.93 2640.81
   07:37:03.420.09-Sep-2020 5569.01 3533.44 78.51 4.00 325.13 2640.81
   07:37:03.620.09-Sep-2020 5569.01 3533.44 78.51 4.00 325.33 2640.81
   07:37:03.821.09-Sep-2020 5569.01 3533.40 78.51 4.00 325.53 2640.81
   07:37:04.021.09-Sep-2020 5569.01 3533.38 78.51 4.00 325.73 2640.81
   07:37:04.221.09-Sep-2020 5569.01 3533.39 78.51 4.00 325.93 2640.81
   07:37:04.421.09-Sep-2020 5569.01 3533.39 78.51 4.00 326.13 2640.81
   07:37:04.621.09-Sep-2020 5569.01 3533.39 78.51 4.00 326.33 2640.81
   07:37:04.821.09-Sep-2020 5569.01 3533.40 78.51 4.00 326.53 2640.81
   07:37:05.021.09-Sep-2020 5569.01 3533.38 78.51 4.00 326.73 2640.81
   07:37:05.221.09-Sep-2020 5569.01 3533.39 78.51 4.00 326.93 2640.81
   07:37:05.421.09-Sep-2020 5569.01 3533.39 78.51 4.00 327.13 2640.81
   07:37:05.621.09-Sep-2020 5569.01 3533.39 78.51 4.00 327.33 2640.81
   07:37:05.821.09-Sep-2020 5569.01 3533.38 78.51 4.00 327.53 2640.81
   07:37:06.021.09-Sep-2020 5569.01 3533.39 78.51 4.00 327.73 2640.81
   07:37:06.222.09-Sep-2020 5569.01 3533.38 78.51 4.00 327.93 2640.81
   07:37:06.422.09-Sep-2020 5569.01 3533.39 78.51 4.00 328.13 2640.81
   07:37:06.622.09-Sep-2020 5569.01 3533.39 78.51 4.00 328.33 2640.81
   07:37:06.822.09-Sep-2020 5569.01 3533.38 78.51 4.00 328.53 2640.81
   07:37:07.022.09-Sep-2020 5569.01 3533.39 78.51 4.00 328.73 2640.81
   07:37:07.222.09-Sep-2020 5569.01 3533.35 78.51 4.00 328.93 2640.81
   07:37:07.422.09-Sep-2020 5569.01 3533.42 78.51 4.00 329.13 2640.81
   07:37:07.622.09-Sep-2020 5569.01 3533.42 78.51 4.00 329.33 2640.81
   07:37:07.822.09-Sep-2020 5569.01 3533.37 78.51 4.00 329.53 2640.81
   07:37:08.022.09-Sep-2020 5569.01 3533.39 78.51 4.00 329.73 2640.81
   07:37:08.222.09-Sep-2020 5569.01 3533.37 78.51 4.00 329.93 2640.81
   07:37:08.422.09-Sep-2020 5569.01 3533.39 78.51 4.00 330.13 2640.81
   07:37:08.622.09-Sep-2020 5569.01 3533.39 78.51 4.00 330.34 2640.81
   07:37:08.823.09-Sep-2020 5569.01 3533.38 78.51 4.00 330.54 2640.81
   07:37:09.023.09-Sep-2020 5569.01 3533.38 78.51 4.00 330.74 2640.81
   07:37:09.223.09-Sep-2020 5569.01 3533.39 78.51 4.00 330.94 2640.81
   07:37:09.423.09-Sep-2020 5569.01 3533.38 78.51 4.00 331.14 2640.81
   07:37:09.623.09-Sep-2020 5569.01 3533.38 78.51 4.00 331.34 2640.81
   07:37:09.823.09-Sep-2020 5569.01 3533.39 78.51 4.00 331.54 2640.81
   07:37:10.023.09-Sep-2020 5569.01 3533.38 78.51 4.00 331.74 2640.81
   07:37:10.223.09-Sep-2020 5569.01 3533.39 78.51 4.00 331.94 2640.81
   07:37:10.423.09-Sep-2020 5569.01 3533.37 78.51 4.00 332.14 2640.81
   07:37:10.623.09-Sep-2020 5569.01 3533.37 78.51 4.00 332.34 2640.81
   07:37:10.823.09-Sep-2020 5569.01 3533.38 78.51 4.00 332.54 2640.81
   07:37:11.023.09-Sep-2020 5569.01 3533.40 78.51 4.00 332.74 2640.81
   07:37:11.224.09-Sep-2020 5569.01 3533.39 78.51 4.00 332.94 2640.81
   07:37:11.424.09-Sep-2020 5569.01 3533.38 78.51 4.00 333.14 2640.81
   07:37:11.624.09-Sep-2020 5569.01 3533.38 78.51 4.00 333.34 2640.81
   07:37:11.824.09-Sep-2020 5569.01 3533.34 78.51 4.00 333.54 2640.81
   07:37:12.024.09-Sep-2020 5569.01 3533.38 78.51 4.00 333.74 2640.81
   07:37:12.224.09-Sep-2020 5569.01 3533.38 78.51 4.00 333.94 2640.81
   07:37:12.424.09-Sep-2020 5569.01 3533.39 78.51 4.00 334.14 2640.81
   07:37:12.624.09-Sep-2020 5569.01 3533.39 78.51 4.00 334.34 2640.81
   07:37:12.824.09-Sep-2020 5569.01 3533.38 78.51 4.00 334.54 2640.81
   07:37:13.024.09-Sep-2020 5569.01 3533.37 78.51 4.00 334.74 2640.81
   07:37:13.224.09-Sep-2020 5569.01 3533.41 78.51 4.00 334.94 2640.81
   07:37:13.424.09-Sep-2020 5569.01 3533.41 78.51 4.00 335.14 2640.81
   07:37:13.625.09-Sep-2020 5569.01 3533.41 78.51 4.00 335.34 2640.81
   07:37:13.825.09-Sep-2020 5569.01 3533.39 78.51 4.00 335.54 2640.81
   07:37:14.025.09-Sep-2020 5569.01 3533.38 78.51 4.00 335.74 2640.81
   07:37:14.225.09-Sep-2020 5569.01 3533.39 78.51 4.00 335.94 2640.81
   07:37:14.425.09-Sep-2020 5569.01 3533.39 78.51 4.00 336.14 2640.81
   07:37:14.625.09-Sep-2020 5569.01 3533.39 78.51 4.00 336.34 2640.81
   07:37:14.825.09-Sep-2020 5569.01 3533.40 78.51 4.00 336.54 2640.81
   07:37:15.025.09-Sep-2020 5569.01 3533.39 78.51 4.00 336.74 2640.81
   07:37:15.225.09-Sep-2020 5569.01 3533.43 78.51 4.00 336.94 2640.81
   07:37:15.425.09-Sep-2020 5569.01 3533.33 78.51 4.00 337.14 2640.81
   07:37:15.625.09-Sep-2020 5569.01 3533.33 78.51 4.00 337.34 2640.81
   07:37:15.825.09-Sep-2020 5569.01 3533.38 78.51 4.00 337.54 2640.81
   07:37:16.026.09-Sep-2020 5569.01 3533.38 78.51 4.00 337.74 2640.81
   07:37:16.226.09-Sep-2020 5569.01 3533.38 78.51 4.00 337.94 2640.81
   07:37:16.426.09-Sep-2020 5569.01 3533.38 78.51 4.00 338.14 2640.81
   07:37:16.626.09-Sep-2020 5569.01 3533.38 78.51 4.00 338.34 2640.81
   07:37:16.826.09-Sep-2020 5569.01 3533.38 78.51 4.00 338.54 2640.81
   07:37:17.026.09-Sep-2020 5569.01 3533.38 78.51 4.00 338.74 2640.81
   07:37:17.226.09-Sep-2020 5569.01 3533.38 78.51 4.00 338.94 2640.81
   07:37:17.426.09-Sep-2020 5569.01 3533.38 78.51 4.00 339.14 2640.81
   07:37:17.626.09-Sep-2020 5569.01 3533.38 78.51 4.00 339.34 2640.81
   07:37:17.826.09-Sep-2020 5569.01 3533.38 78.51 4.00 339.54 2640.81
   07:37:18.026.09-Sep-2020 5569.01 3533.38 78.51 4.00 339.74 2640.81
   07:37:18.226.09-Sep-2020 5569.01 3533.38 78.51 4.00 339.94 2640.81
   07:37:18.426.09-Sep-2020 5569.01 3533.38 78.51 4.00 340.14 2640.81
   07:37:18.627.09-Sep-2020 5569.01 3533.38 78.51 4.00 340.34 2640.81
   07:37:18.827.09-Sep-2020 5569.01 3533.39 78.51 4.00 340.54 2640.81
   07:37:19.027.09-Sep-2020 5569.01 3533.36 78.51 4.00 340.74 2640.81
   07:37:19.227.09-Sep-2020 5569.01 3533.41 78.51 4.00 340.94 2640.81
   07:37:19.427.09-Sep-2020 5569.01 3533.41 78.51 4.00 341.14 2640.81
   07:37:19.627.09-Sep-2020 5569.01 3533.41 78.51 4.00 341.34 2640.81
   07:37:19.827.09-Sep-2020 5569.01 3533.39 78.51 4.00 341.54 2640.81
   07:37:20.027.09-Sep-2020 5569.01 3533.38 78.51 4.00 341.74 2640.81
   07:37:20.227.09-Sep-2020 5569.01 3533.39 78.50 4.00 341.94 2640.81
   07:37:20.427.09-Sep-2020 5569.01 3533.38 78.51 4.00 342.14 2640.81
   07:37:20.627.09-Sep-2020 5569.01 3533.38 78.51 4.00 342.34 2640.81
   07:37:20.827.09-Sep-2020 5569.01 3533.39 78.50 4.00 342.54 2640.81
   07:37:21.028.09-Sep-2020 5569.01 3533.38 78.50 4.00 342.74 2640.81
   07:37:21.228.09-Sep-2020 5569.01 3533.39 78.50 4.00 342.94 2640.81
   07:37:21.428.09-Sep-2020 5569.01 3533.38 78.50 4.00 343.14 2640.81
   07:37:21.628.09-Sep-2020 5569.01 3533.38 78.50 4.00 343.34 2640.81
   07:37:21.828.09-Sep-2020 5569.01 3533.39 78.50 4.00 343.54 2640.81
   07:37:22.028.09-Sep-2020 5569.01 3533.38 78.50 4.00 343.74 2640.81
   07:37:22.228.09-Sep-2020 5569.01 3533.37 78.50 4.00 343.94 2640.81
   07:37:22.428.09-Sep-2020 5569.01 3533.40 78.50 4.00 344.14 2640.81
   07:37:22.628.09-Sep-2020 5569.01 3533.40 78.50 4.00 344.34 2640.81
   07:37:22.828.09-Sep-2020 5569.01 3533.39 78.50 4.00 344.54 2640.81
   07:37:23.028.09-Sep-2020 5569.01 3533.39 78.50 4.00 344.74 2640.81
   07:37:23.228.09-Sep-2020 5569.01 3533.38 78.50 4.00 344.94 2640.81
