~Version Information
 VERS.                  2.0:   CWLS log ASCII Standard -VERSION 2.0
 WRAP.                   NO:   One line per depth step
~Well Information Block
#MNEM.UNIT     VALUE/NAME     DESCRIPTION
#---------     -----------    ---------------------------
 STRT.S             14:18:02 09-Sep-20: START TIME 14:18:02 09-Sep-20
 STOP.S             14:26:13 09-Sep-20: STOP TIME  14:26:13 09-Sep-20
 STEP.S                   0.00: STEP TIME
 NULL.                 -999.25: NULL VALUE
 MDS .        Operator Entered:  MAG DATA SOURCE
 PDAT.          Mean Sea Level:  PERMANENT DATUM
 DCON.         Sperry Drilling:  DIRECTNL CONTR
 RIG .              West Azeri:  RIG NAME
 WELL.           C40 (Slot 20):  WELL NAME
 SRVC.     Turan Drilling Engineering:  CONTRACTOR
 FLD .                     ACG:  FIELD NAME
 CTRY.              Azerbaijan:  COUNTRY NAME
 PROV.                    Baku:  PROVINCE
 STAT.                    Baku:  STATE NAME
 REGN.                   EESSA:  REGION
 BASE.              Azerbaijan:  LOGGING EQUIPMENT BASE LOCATION
 COMP.     BP Exploration (Caspian Sea) Ltd:  COMPANY
 WTYP.                Deviated:  WELL TYPE
 SON .        AZ-XX-0906344804:  JOB NUMBER
 FTOP.          Formation Tops:  FORM TOPS DESC
 ILTD.               Lithology:  INTERP LTH DESC
 SVYD.                  Survey:  SURVEY DESC
 DMOD.             Drill Model:  DRILL MOD DESC
 HPTY.       Minimum Curvature:  HOLE POS TYPE
 NREF.                    Grid:  NORTH REFERENCE
 SPUD.               01-Jan-20:  SPUD DATE
 DATE.      00.59.44 15-Sep-20:  END TIME
 STIM.      12.00.00 12-Jun-20:  START TIME
 DMF .             Drill Floor:  DRILL MEAS FROM
 DFST.                        :  DIST FSL TEXT
 DFWT.                        :  DIST FWL TEXT
 API .                        :  API NUMBER
 CNTY.                        :  COUNTY
 UWI .                        :  UNIQUE WELL IDENTIFIER
 LOC .                        :  LOCATION
 LMF .             Drill Floor:  LOG MEASURED FROM
 VSNS.m                   2.88:  VERT SEC N/S
 VSEW.m                  -3.84:  VERT SEC E/W
 AGAP.m                  43.42:  AIR GAP
 APD .m                  43.42:  DEPTH ABOVE PD
 WDMS.m                 118.27:  WD ELEV
 EGL .m                   0.00:  GROUND ELEVATION
 EPD .m                   0.00:  ELEVATION
 AZTC.deg                 6.23:  AZM TOTAL CORR
 GRDC.deg                 0.20:  GRID CORRECTION
 MDEC.deg                 6.43:  MAGNETIC DECL
 MDIP.deg                59.49:  MAGNETIC DIP
 MFLD.nT              50277.00:  MAGNETIC FIELD
 GVFD.g                   1.00:  GRAVITY FIELD
 VSDR.deg               173.20:  VERT SEC DIRECT
 TDD .m                5790.01:  TOTAL DEPTH (DRILLER)
 SDEP.m                5231.01:  START DEPTH
 DFSL.m                   0.00:  DISTANCE FSL
 DFWL.m                   0.00:  DISTANCE FWL
 UTMY.m             4435808.83:  UTM Y
 UTMX.m              526266.40:  UTM X
 WHEW.m                  -3.84:  WELL HEAD E/W
 WHNS.m                   2.88:  WELL HEAD N/S
 LONG.deg                51.31:  LONGITUDE
 LATI.deg                40.06:  LATITUDE
 TVDS.m                  43.42:  TVDSS CORRECTN
 DEP .m                 430.08:  DEPTH
 EKB .m                  43.42:  KB ELEVATION
 EDF .m                  43.42:  DF ELEVATION
 TDL .m                 559.00:  TOTAL DEPTH (LOGGER)
 MAGU.                 1849381:  MAGUTM CHECKSUM
 VSC .                       0:  VS TO CLOSURE
~Parameter Information Block
#MNEM.UNIT       Value        Description
#---------     -----------    ---------------------------
 AV  .mps                 4.87:  Ann Velocity 
 AVMX.mps                 7.08:  Max Ann Veloc 
 AZIF.deg               108.87:  Azm, Final 
 BHAT.                  Rotary:  BHA Type 
 BROT.°/30m               0.35:  Build Rotating 
 BS  .in                  8.50:  Bit Size 
 BSZ .in                  8.50:  Bit Size 
 BTPL.psig              360.00:  Bit Press Loss 
 CABU.                     Yes:  Customer Abuse 
 TCS .hr                106.24:  Time Ciculation Ended 
 CV  .mps                 1.77:  Crit Velocity 
 CVMX.mps                 2.03:  Max Crit Veloc 
 DD1 .         Aykhan Agagulov:  Direct Drillr 1 
 DD2 .            Nonso Okofor:  Direct Drillr 2 
 DDSV.               Geo-Pilot:  DD Service 
 DEFF.%                  98.00:  % Det Eff 
 DLRX.°/30m               0.50:  Dogleg Rot Max 
 DLSO.°/30m               0.40:  Dogleg Oriented 
 DLSX.°/30m               0.94:  Dogleg Str Max 
 DRET.      20.30.00 08-Sep-20:  Drill End Time 
 DRST.      22.15.00 06-Sep-20:  Drill Start Tim 
 DTIM.hr                 31.31:  Time Drilling 
 EDEP.m                5790.01:  End Depth 
 ENG1.           Amrah Tahirov:  Engineer 1 
 ENG2.         Dair Mahammadov:  Engineer 2 
 ENG3.           Emil Huseynov:  Engineer 3 
 ETIM.      04.01.04 12-Sep-20:  End Time 
 FLOI.gpm               450.00:  Flow In 
 FLON.gpm               450.00:  Flow In Min 
 FLOS.cptm                2.00:  Fluid Loss 
 FLOX.gpm               450.00:  Flow In Max 
 FTRO.       Formation Presure:  FTWD Run Obj 
 HFLO.                      No:  High Flow 
 HPRE.                      No:  High Pressure 
 HTEM.                      No:  High Temp 
 HYDO.m                   1.80:  Hydro Offset 
 IFIN.deg                72.03:  Inc, Final 
 IMAX.deg                73.72:  Inc Max 
 IMIN.deg                70.94:  Inc Min 
 IMND.m                5508.52:  Inc Min Depth 
 IMXD.m                5253.60:  Inc Max Depth 
 JARR.                      No:  Jarring 
 LETM.      20.30.00 08-Sep-20:  Log End Time 
 LOST.hr                     0:  Lost Rig Time 
 LSTM.      22.15.00 06-Sep-20:  Log Start Time 
 MDCL.ppm             36000.00:  Mud Chlorides 
 MDES.     Inversion Oil/Synthetic:  Mud Desc 
 DFD .sg                  1.44:  Mud Density 
 MDMN.sg                  1.44:  Dens Mud Min 
 MDMX.sg                  1.57:  Dens Mud Max 
 MOIL.                      70:  Run Mud Oil % 
 MOWR.                   70:30:  Run Mud OWR 
 MSND.                       0:  Run Mud Sand % 
 MSOL.                      21:  Run Mud Solids% 
 DFV .spqt               68.00:  Mud Viscosity 
 MWOD.in                  6.75:  MWD Tool OD 
 MWSI.                     Yes:  Serv Intrp, MWD 
 OTIM.hr                174.84:  Time Operating 
 PCON.           Look Like New:  Pad Condition 
 PMAX.psia            10616.93:  Press Op, Max 
 PV  .cP                 50.00:  Mud PV 
 RUN .                     700:  Run Number 
 ROPA.m/hr               14.24:  ROP Avg 
 ROPN.m/hr               10.00:  ROP Min 
 ROPX.m/hr               32.00:  ROP Max 
 RPMA.rpm               120.90:  RPM Surface Avg 
 RPMN.rpm               120.00:  RPM Surface Min 
 RPMX.rpm               140.00:  RPM Surface Max 
 RRUN.                    0700:  Rig Run Number 
 RTIM.hr                  3.20:  Time Reaming 
 SAZI.deg               109.99:  Azm, Start 
 SDEP.m                5231.01:  Start Depth 
 SIDD.                      No:  Serv Intrp, DD 
 SINC.deg                73.72:  Inc, Start 
 SPPA.psig             3051.00:  SPP Avg 
 SPPN.psig             2950.00:  SPP Min 
 SPPX.psig             3250.00:  SPP Max 
 STIM.      08.00.00 05-Sep-20:  Start Time 
 SVCS.                 DD, MWD:  Services 
 SVER.                    9.20:  Sperry Version 
 TDAT.m                 559.00:  Tot Depth Attmp 
 TDDF.                      No:  Trip for DD 
 TDLG.m                 559.00:  Tot Depth Loggd 
 TFF .                      No:  Trip for Fail 
 TQAA.f-kp               26.49:  Torque Abs Avg 
 TQAN.f-kp               25.00:  Torque Abs Min 
 TQAX.f-kp               27.00:  Torque Abs Max 
 TRRT.°/30m               1.50:  Turn Rotating 
 MRT .                    HCIM:  Maximum Recorded Temperature 
 TTMX.degC               90.20:  Max Tool Temp 
 VS01.                90542671:  Virtual Str1 SN 
 VS02.                90545185:  Virtual Str2 SN 
 VS03.                90602015:  Virtual Str3 SN 
 VS04.                90515230:  Virtual Str4 SN 
 WBMN.klb                 5.00:  WOB Min 
 WOBA.klb                14.79:  WOB Avg 
 WOBX.klb                20.00:  WOB Max 
 YP  .lhf2               29.00:  Yield Point 
~Curve Information Block
#MNEM.UNIT                 API CODE     Curve Description
#---------               -----------    ---------------------------
 TIME.HHMMSS            00 000 000 000:  GT Time & Date
 GTDEPTH.m              00 000 000 000:  GT Depth
 GTPQH.psia             00 000 000 000:  GT HR Quartz Pressure
 GTTQ.degC              00 000 000 000:  GT Quartz Temperature
 GTTN.NONE              00 000 000 000:  GT Test Number
 GTET.sec               00 000 000 000:  GT Elapsed Test Time
 GTTVD.m                00 000 000 000:  GT True Vertical Depth
#Other Information
#
#WARRANTY: Halliburton will use its best efforts to furnish customers with 
#accurate information and interpretations that are part of, and incident to, the services 
#provided.  However, Halliburton cannot and does not warrant the accuracy 
#or correctness of such information and interpretations.  Under no circumstances should any 
#such information or interpretation be relied upon as the sole basis for any drilling, 
#completion, production, or financial decision or any procedure involving any risk to the 
#safety of any drilling venture, drilling rig or its crew or any other third party.  The 
#Customer has full responsibility for all drilling, completion and production operation.  
#Halliburton makes no representations or warranties, either expressed or 
#implied, including, but not limited to, the implied warranties of merchantability or fitness 
#for a particular purpose, with respect to the services rendered.  In no event will 
#Halliburton be liable for failure to obtain any particular results or for 
#any damages, including, but not limited to, indirect, special or consequential damages, 
#resulting from the use of any information or interpretation provided by Halliburton.
#
~A           TIME           GTDEPTH  GTPQH  GTTQ  GTTN   GTET   GTTVD  
# ...
   14:23:41.428.09-Sep-2020 5408.01  605.77 75.20 16.00 339.21 2589.60
   14:23:41.628.09-Sep-2020 5408.01  605.77 75.20 16.00 339.41 2589.60
   14:23:41.828.09-Sep-2020 5408.01  606.31 75.20 16.00 339.61 2589.60
   14:23:42.028.09-Sep-2020 5408.01  606.48 75.20 16.00 339.81 2589.60
   14:23:42.228.09-Sep-2020 5408.01  606.56 75.20 16.00 340.01 2589.60
   14:23:42.428.09-Sep-2020 5408.01  606.72 75.20 16.00 340.21 2589.60
   14:23:42.629.09-Sep-2020 5408.01  606.72 75.20 16.00 340.41 2589.60
   14:23:42.829.09-Sep-2020 5408.01  607.09 75.20 16.00 340.61 2589.60
   14:23:43.029.09-Sep-2020 5408.01  607.10 75.20 16.00 340.81 2589.60
   14:23:43.229.09-Sep-2020 5408.01  607.25 75.20 16.00 341.01 2589.60
   14:23:43.429.09-Sep-2020 5408.01  607.42 75.20 16.00 341.21 2589.60
   14:23:43.629.09-Sep-2020 5408.01  607.42 75.20 16.00 341.41 2589.60
   14:23:43.829.09-Sep-2020 5408.01  607.80 75.20 16.00 341.61 2589.60
   14:23:44.029.09-Sep-2020 5408.01  607.97 75.20 16.00 341.81 2589.60
   14:23:44.230.09-Sep-2020 5408.01  608.10 75.20 16.00 342.01 2589.60
   14:23:44.430.09-Sep-2020 5408.01  607.77 75.20 16.00 342.21 2589.60
   14:23:44.630.09-Sep-2020 5408.01  607.77 75.20 16.00 342.41 2589.60
   14:23:44.830.09-Sep-2020 5408.01  608.64 75.20 16.00 342.61 2589.60
   14:23:45.030.09-Sep-2020 5408.01  608.84 75.20 16.00 342.81 2589.60
   14:23:45.230.09-Sep-2020 5408.01  608.99 75.20 16.00 343.01 2589.60
   14:23:45.430.09-Sep-2020 5408.01  609.08 75.20 16.00 343.21 2589.60
   14:23:45.630.09-Sep-2020 5408.01  609.08 75.20 16.00 343.41 2589.60
   14:23:45.831.09-Sep-2020 5408.01  609.45 75.20 16.00 343.61 2589.60
   14:23:46.031.09-Sep-2020 5408.01  609.58 75.20 16.00 343.81 2589.60
   14:23:46.231.09-Sep-2020 5408.01  609.73 75.20 16.00 344.01 2589.60
   14:23:46.431.09-Sep-2020 5408.01  609.72 75.20 16.00 344.21 2589.60
   14:23:46.631.09-Sep-2020 5408.01  609.72 75.20 16.00 344.41 2589.60
   14:23:46.831.09-Sep-2020 5408.01  610.31 75.20 16.00 344.61 2589.60
   14:23:47.031.09-Sep-2020 5408.01  610.57 75.20 16.00 344.81 2589.60
   14:23:47.231.09-Sep-2020 5408.01  610.77 75.20 16.00 345.01 2589.60
   14:23:47.432.09-Sep-2020 5408.01  610.81 75.20 16.00 345.21 2589.60
   14:23:47.632.09-Sep-2020 5408.01  610.81 75.20 16.00 345.41 2589.60
   14:23:47.832.09-Sep-2020 5408.01  610.49 75.20 16.00 345.61 2589.60
   14:23:48.032.09-Sep-2020 5408.01  611.20 75.20 16.00 345.81 2589.60
   14:23:48.232.09-Sep-2020 5408.01  611.53 75.20 16.00 346.01 2589.60
   14:23:48.432.09-Sep-2020 5408.01  611.58 75.20 16.00 346.21 2589.60
   14:23:48.632.09-Sep-2020 5408.01  611.58 75.20 16.00 346.41 2589.60
   14:23:48.832.09-Sep-2020 5408.01  611.65 75.20 16.00 346.61 2589.60
   14:23:49.033.09-Sep-2020 5408.01  611.94 75.20 16.00 346.81 2589.60
   14:23:49.233.09-Sep-2020 5408.01  612.28 75.20 16.00 347.01 2589.60
   14:23:49.433.09-Sep-2020 5408.01  612.51 75.20 16.00 347.21 2589.60
   14:23:49.633.09-Sep-2020 5408.01  612.51 75.20 16.00 347.41 2589.60
   14:23:49.833.09-Sep-2020 5408.01  612.80 75.20 16.00 347.61 2589.60
   14:23:50.033.09-Sep-2020 5408.01  612.88 75.20 16.00 347.81 2589.60
   14:23:50.233.09-Sep-2020 5408.01  613.08 75.20 16.00 348.01 2589.60
   14:23:50.433.09-Sep-2020 5408.01  613.21 75.20 16.00 348.21 2589.60
   14:23:50.634.09-Sep-2020 5408.01  613.29 75.20 16.00 348.41 2589.60
   14:23:50.834.09-Sep-2020 5408.01  613.51 75.20 16.00 348.61 2589.60
   14:23:51.034.09-Sep-2020 5408.01  613.66 75.20 16.00 348.81 2589.60
   14:23:51.234.09-Sep-2020 5408.01  613.74 75.20 16.00 349.01 2589.60
   14:23:51.434.09-Sep-2020 5408.01  613.84 75.20 16.00 349.21 2589.60
   14:23:51.634.09-Sep-2020 5408.01  613.84 75.20 16.00 349.41 2589.60
   14:23:51.834.09-Sep-2020 5408.01  614.18 75.20 16.00 349.61 2589.60
   14:23:52.034.09-Sep-2020 5408.01  614.38 75.20 16.00 349.81 2589.60
   14:23:52.234.09-Sep-2020 5408.01  614.51 75.20 16.00 350.01 2589.60
   14:23:52.435.09-Sep-2020 5408.01  613.79 75.20 16.00 350.21 2589.60
   14:23:52.635.09-Sep-2020 5408.01  613.79 75.20 16.00 350.41 2589.60
   14:23:52.835.09-Sep-2020 5408.01  615.14 75.20 16.00 350.61 2589.60
   14:23:53.035.09-Sep-2020 5408.01  615.28 75.20 16.00 350.81 2589.60
   14:23:53.235.09-Sep-2020 5408.01  615.20 75.20 16.00 351.01 2589.60
   14:23:53.435.09-Sep-2020 5408.01  615.61 75.20 16.00 351.21 2589.60
   14:23:53.635.09-Sep-2020 5408.01  615.61 75.20 16.00 351.41 2589.60
   14:23:53.835.09-Sep-2020 5408.01  615.71 75.20 16.00 351.61 2589.60
   14:23:54.036.09-Sep-2020 5408.01  615.83 75.20 16.00 351.82 2589.60
   14:23:54.236.09-Sep-2020 5408.01  616.00 75.20 16.00 352.02 2589.60
   14:23:54.436.09-Sep-2020 5408.01  616.15 75.20 16.00 352.22 2589.60
   14:23:54.636.09-Sep-2020 5408.01  616.28 75.20 16.00 352.42 2589.60
   14:23:54.836.09-Sep-2020 5408.01  616.41 75.20 16.00 352.62 2589.60
   14:23:55.036.09-Sep-2020 5408.01  616.54 75.20 16.00 352.82 2589.60
   14:23:55.236.09-Sep-2020 5408.01  616.70 75.20 16.00 353.02 2589.60
   14:23:55.436.09-Sep-2020 5408.01  616.88 75.20 16.00 353.22 2589.60
   14:23:55.637.09-Sep-2020 5408.01  616.88 75.20 16.00 353.42 2589.60
   14:23:55.837.09-Sep-2020 5408.01  617.34 75.20 16.00 353.62 2589.60
   14:23:56.037.09-Sep-2020 5408.01  617.48 75.20 16.00 353.82 2589.60
   14:23:56.237.09-Sep-2020 5408.01  617.58 75.20 16.00 354.02 2589.60
   14:23:56.437.09-Sep-2020 5408.01  617.42 75.20 16.00 354.22 2589.60
   14:23:56.637.09-Sep-2020 5408.01  617.42 75.20 16.00 354.42 2589.60
   14:23:56.837.09-Sep-2020 5408.01  617.32 75.20 16.00 354.62 2589.60
   14:23:57.037.09-Sep-2020 5408.01  617.87 75.20 16.00 354.82 2589.60
   14:23:57.238.09-Sep-2020 5408.01  618.19 75.20 16.00 355.02 2589.60
   14:23:57.438.09-Sep-2020 5408.01  618.44 75.20 16.00 355.22 2589.60
   14:23:57.638.09-Sep-2020 5408.01  618.44 75.20 16.00 355.42 2589.60
   14:23:57.838.09-Sep-2020 5408.01  618.15 75.20 16.00 355.62 2589.60
   14:23:58.038.09-Sep-2020 5408.01  618.66 75.20 16.00 355.82 2589.60
   14:23:58.238.09-Sep-2020 5408.01  618.99 75.20 16.00 356.02 2589.60
   14:23:58.438.09-Sep-2020 5408.01  619.20 75.20 16.00 356.22 2589.60
   14:23:58.638.09-Sep-2020 5408.01  619.36 75.20 16.00 356.42 2589.60
   14:23:58.839.09-Sep-2020 5408.01  619.43 75.20 16.00 356.62 2589.60
   14:23:59.039.09-Sep-2020 5408.01  618.58 75.20 16.00 356.82 2589.60
   14:23:59.239.09-Sep-2020 5408.01  619.85 75.20 16.00 357.02 2589.60
   14:23:59.439.09-Sep-2020 5408.01  620.02 75.20 16.00 357.22 2589.60
   14:23:59.639.09-Sep-2020 5408.01  620.02 75.20 16.00 357.42 2589.60
   14:23:59.839.09-Sep-2020 5408.01  620.06 75.20 16.00 357.62 2589.60
   14:24:00.039.09-Sep-2020 5408.01  620.46 75.20 16.00 357.82 2589.60
   14:24:00.239.09-Sep-2020 5408.01  619.86 75.20 16.00 358.02 2589.60
   14:24:00.439.09-Sep-2020 5408.01  620.51 75.20 16.00 358.22 2589.60
   14:24:00.640.09-Sep-2020 5408.01  620.51 75.20 16.00 358.42 2589.60
   14:24:00.840.09-Sep-2020 5408.01  620.89 75.20 16.00 358.62 2589.60
   14:24:01.040.09-Sep-2020 5408.01  621.00 75.20 16.00 358.82 2589.60
   14:24:01.240.09-Sep-2020 5408.01  621.46 75.20 16.00 359.02 2589.60
   14:24:01.440.09-Sep-2020 5408.01  621.38 75.20 16.00 359.22 2589.60
   14:24:01.640.09-Sep-2020 5408.01  621.38 75.20 16.00 359.42 2589.60
   14:24:01.840.09-Sep-2020 5408.01  621.58 75.20 16.00 359.62 2589.60
   14:24:02.040.09-Sep-2020 5408.01  621.77 75.20 16.00 359.82 2589.60
   14:24:02.241.09-Sep-2020 5408.01  621.95 75.20 16.00 360.02 2589.60
   14:24:02.441.09-Sep-2020 5408.01  622.03 75.20 16.00 360.22 2589.60
   14:24:02.641.09-Sep-2020 5408.01  622.03 75.20 16.00 360.42 2589.60
   14:24:02.841.09-Sep-2020 5408.01  622.26 75.20 16.00 360.62 2589.60
   14:24:03.041.09-Sep-2020 5408.01  622.40 75.20 16.00 360.82 2589.60
   14:24:03.241.09-Sep-2020 5408.01  622.60 75.20 16.00 361.02 2589.60
   14:24:03.441.09-Sep-2020 5408.01  622.72 75.20 16.00 361.22 2589.60
   14:24:03.641.09-Sep-2020 5408.01  622.72 75.20 16.00 361.42 2589.60
   14:24:03.842.09-Sep-2020 5408.01  622.99 75.20 16.00 361.62 2589.60
