~Version Information
 VERS.                  2.0:   CWLS log ASCII Standard -VERSION 2.0
 WRAP.                   NO:   One line per depth step
~Well Information Block
#MNEM.UNIT     VALUE/NAME     DESCRIPTION
#---------     -----------    ---------------------------
 STRT.S             08:34:18 09-Sep-20: START TIME 08:34:18 09-Sep-20
 STOP.S             08:41:20 09-Sep-20: STOP TIME  08:41:20 09-Sep-20
 STEP.S                   0.00: STEP TIME
 NULL.                 -999.25: NULL VALUE
 MDS .        Operator Entered:  MAG DATA SOURCE
 PDAT.          Mean Sea Level:  PERMANENT DATUM
 DCON.         Sperry Drilling:  DIRECTNL CONTR
 RIG .              West Azeri:  RIG NAME
 WELL.           C40 (Slot 20):  WELL NAME
 SRVC.     Turan Drilling Engineering:  CONTRACTOR
 FLD .                     ACG:  FIELD NAME
 CTRY.              Azerbaijan:  COUNTRY NAME
 PROV.                    Baku:  PROVINCE
 STAT.                    Baku:  STATE NAME
 REGN.                   EESSA:  REGION
 BASE.              Azerbaijan:  LOGGING EQUIPMENT BASE LOCATION
 COMP.     BP Exploration (Caspian Sea) Ltd:  COMPANY
 WTYP.                Deviated:  WELL TYPE
 SON .        AZ-XX-0906344804:  JOB NUMBER
 FTOP.          Formation Tops:  FORM TOPS DESC
 ILTD.               Lithology:  INTERP LTH DESC
 SVYD.                  Survey:  SURVEY DESC
 DMOD.             Drill Model:  DRILL MOD DESC
 HPTY.       Minimum Curvature:  HOLE POS TYPE
 NREF.                    Grid:  NORTH REFERENCE
 SPUD.               01-Jan-20:  SPUD DATE
 DATE.      00.59.44 15-Sep-20:  END TIME
 STIM.      12.00.00 12-Jun-20:  START TIME
 DMF .             Drill Floor:  DRILL MEAS FROM
 DFST.                        :  DIST FSL TEXT
 DFWT.                        :  DIST FWL TEXT
 API .                        :  API NUMBER
 CNTY.                        :  COUNTY
 UWI .                        :  UNIQUE WELL IDENTIFIER
 LOC .                        :  LOCATION
 LMF .             Drill Floor:  LOG MEASURED FROM
 VSNS.m                   2.88:  VERT SEC N/S
 VSEW.m                  -3.84:  VERT SEC E/W
 AGAP.m                  43.42:  AIR GAP
 APD .m                  43.42:  DEPTH ABOVE PD
 WDMS.m                 118.27:  WD ELEV
 EGL .m                   0.00:  GROUND ELEVATION
 EPD .m                   0.00:  ELEVATION
 AZTC.deg                 6.23:  AZM TOTAL CORR
 GRDC.deg                 0.20:  GRID CORRECTION
 MDEC.deg                 6.43:  MAGNETIC DECL
 MDIP.deg                59.49:  MAGNETIC DIP
 MFLD.nT              50277.00:  MAGNETIC FIELD
 GVFD.g                   1.00:  GRAVITY FIELD
 VSDR.deg               173.20:  VERT SEC DIRECT
 TDD .m                5790.01:  TOTAL DEPTH (DRILLER)
 SDEP.m                5231.01:  START DEPTH
 DFSL.m                   0.00:  DISTANCE FSL
 DFWL.m                   0.00:  DISTANCE FWL
 UTMY.m             4435808.83:  UTM Y
 UTMX.m              526266.40:  UTM X
 WHEW.m                  -3.84:  WELL HEAD E/W
 WHNS.m                   2.88:  WELL HEAD N/S
 LONG.deg                51.31:  LONGITUDE
 LATI.deg                40.06:  LATITUDE
 TVDS.m                  43.42:  TVDSS CORRECTN
 DEP .m                 430.08:  DEPTH
 EKB .m                  43.42:  KB ELEVATION
 EDF .m                  43.42:  DF ELEVATION
 TDL .m                 559.00:  TOTAL DEPTH (LOGGER)
 MAGU.                 1849381:  MAGUTM CHECKSUM
 VSC .                       0:  VS TO CLOSURE
~Parameter Information Block
#MNEM.UNIT       Value        Description
#---------     -----------    ---------------------------
 AV  .mps                 4.87:  Ann Velocity 
 AVMX.mps                 7.08:  Max Ann Veloc 
 AZIF.deg               108.87:  Azm, Final 
 BHAT.                  Rotary:  BHA Type 
 BROT.°/30m               0.35:  Build Rotating 
 BS  .in                  8.50:  Bit Size 
 BSZ .in                  8.50:  Bit Size 
 BTPL.psig              360.00:  Bit Press Loss 
 CABU.                     Yes:  Customer Abuse 
 COMM.                     \¸P:  Run Comments 1 
 TCS .hr                106.24:  Time Ciculation Ended 
 CV  .mps                 1.77:  Crit Velocity 
 CVMX.mps                 2.03:  Max Crit Veloc 
 DD1 .         Aykhan Agagulov:  Direct Drillr 1 
 DD2 .            Nonso Okofor:  Direct Drillr 2 
 DDSV.               Geo-Pilot:  DD Service 
 DEFF.%                  98.00:  % Det Eff 
 DLRX.°/30m               0.50:  Dogleg Rot Max 
 DLSO.°/30m               0.40:  Dogleg Oriented 
 DLSX.°/30m               0.94:  Dogleg Str Max 
 DRET.      20.30.00 08-Sep-20:  Drill End Time 
 DRST.      22.15.00 06-Sep-20:  Drill Start Tim 
 DTIM.hr                 31.31:  Time Drilling 
 EDEP.m                5790.01:  End Depth 
 ENG1.           Amrah Tahirov:  Engineer 1 
 ENG2.         Dair Mahammadov:  Engineer 2 
 ENG3.           Emil Huseynov:  Engineer 3 
 ETIM.      04.01.04 12-Sep-20:  End Time 
 FLOI.gpm               450.00:  Flow In 
 FLON.gpm               450.00:  Flow In Min 
 FLOS.cptm                2.00:  Fluid Loss 
 FLOX.gpm               450.00:  Flow In Max 
 FTRO.       Formation Presure:  FTWD Run Obj 
 HFLO.                      No:  High Flow 
 HPRE.                      No:  High Pressure 
 HTEM.                      No:  High Temp 
 HYDO.m                   1.80:  Hydro Offset 
 IFIN.deg                72.03:  Inc, Final 
 IMAX.deg                73.72:  Inc Max 
 IMIN.deg                70.94:  Inc Min 
 IMND.m                5508.52:  Inc Min Depth 
 IMXD.m                5253.60:  Inc Max Depth 
 JARR.                      No:  Jarring 
 LETM.      20.30.00 08-Sep-20:  Log End Time 
 LOST.hr                     0:  Lost Rig Time 
 LSTM.      22.15.00 06-Sep-20:  Log Start Time 
 MDCL.ppm             36000.00:  Mud Chlorides 
 MDES.     Inversion Oil/Synthetic:  Mud Desc 
 DFD .sg                  1.44:  Mud Density 
 MDMN.sg                  1.44:  Dens Mud Min 
 MDMX.sg                  1.57:  Dens Mud Max 
 MOIL.                      70:  Run Mud Oil % 
 MOWR.                   70:30:  Run Mud OWR 
 MSND.                       0:  Run Mud Sand % 
 MSOL.                      21:  Run Mud Solids% 
 DFV .spqt               68.00:  Mud Viscosity 
 MWOD.in                  6.75:  MWD Tool OD 
 MWSI.                     Yes:  Serv Intrp, MWD 
 OTIM.hr                174.84:  Time Operating 
 PCON.           Look Like New:  Pad Condition 
 PMAX.psia            10616.93:  Press Op, Max 
 PV  .cP                 50.00:  Mud PV 
 RUN .                     700:  Run Number 
 ROPA.m/hr               14.24:  ROP Avg 
 ROPN.m/hr               10.00:  ROP Min 
 ROPX.m/hr               32.00:  ROP Max 
 RPMA.rpm               120.90:  RPM Surface Avg 
 RPMN.rpm               120.00:  RPM Surface Min 
 RPMX.rpm               140.00:  RPM Surface Max 
 RRUN.                    0700:  Rig Run Number 
 RTIM.hr                  3.20:  Time Reaming 
 SAZI.deg               109.99:  Azm, Start 
 SDEP.m                5231.01:  Start Depth 
 SIDD.                      No:  Serv Intrp, DD 
 SINC.deg                73.72:  Inc, Start 
 SPPA.psig             3051.00:  SPP Avg 
 SPPN.psig             2950.00:  SPP Min 
 SPPX.psig             3250.00:  SPP Max 
 STIM.      08.00.00 05-Sep-20:  Start Time 
 SVCS.                 DD, MWD:  Services 
 SVER.                    9.20:  Sperry Version 
 TDAT.m                 559.00:  Tot Depth Attmp 
 TDDF.                      No:  Trip for DD 
 TDLG.m                 559.00:  Tot Depth Loggd 
 TFF .                      No:  Trip for Fail 
 TQAA.f-kp               26.49:  Torque Abs Avg 
 TQAN.f-kp               25.00:  Torque Abs Min 
 TQAX.f-kp               27.00:  Torque Abs Max 
 TRRT.°/30m               1.50:  Turn Rotating 
 MRT .                    HCIM:  Maximum Recorded Temperature 
 TTMX.degC               90.20:  Max Tool Temp 
 VS01.                90542671:  Virtual Str1 SN 
 VS02.                90545185:  Virtual Str2 SN 
 VS03.                90602015:  Virtual Str3 SN 
 VS04.                90515230:  Virtual Str4 SN 
 WBMN.klb                 5.00:  WOB Min 
 WOBA.klb                14.79:  WOB Avg 
 WOBX.klb                20.00:  WOB Max 
 YP  .lhf2               29.00:  Yield Point 
~Curve Information Block
#MNEM.UNIT                 API CODE     Curve Description
#---------               -----------    ---------------------------
 TIME.HHMMSS            00 000 000 000:  GT Time & Date
 GTDEPTH.m              00 000 000 000:  GT Depth
 GTPQH.psia             00 000 000 000:  GT HR Quartz Pressure
 GTTQ.degC              00 000 000 000:  GT Quartz Temperature
 GTTN.NONE              00 000 000 000:  GT Test Number
 GTET.sec               00 000 000 000:  GT Elapsed Test Time
 GTTVD.m                00 000 000 000:  GT True Vertical Depth
#Other Information
#
#WARRANTY: Halliburton will use its best efforts to furnish customers with 
#accurate information and interpretations that are part of, and incident to, the services 
#provided.  However, Halliburton cannot and does not warrant the accuracy 
#or correctness of such information and interpretations.  Under no circumstances should any 
#such information or interpretation be relied upon as the sole basis for any drilling, 
#completion, production, or financial decision or any procedure involving any risk to the 
#safety of any drilling venture, drilling rig or its crew or any other third party.  The 
#Customer has full responsibility for all drilling, completion and production operation.  
#Halliburton makes no representations or warranties, either expressed or 
#implied, including, but not limited to, the implied warranties of merchantability or fitness 
#for a particular purpose, with respect to the services rendered.  In no event will 
#Halliburton be liable for failure to obtain any particular results or for 
#any damages, including, but not limited to, indirect, special or consequential damages, 
#resulting from the use of any information or interpretation provided by Halliburton.
#
~A           TIME           GTDEPTH  GTPQH  GTTQ  GTTN  GTET   GTTVD  
# ...
   08:36:36.851.09-Sep-2020 5524.01 3700.78 77.58 6.00 138.05 2626.56
   08:36:37.051.09-Sep-2020 5524.01 3700.78 77.58 6.00 138.25 2626.56
   08:36:37.251.09-Sep-2020 5524.01 3700.93 77.58 6.00 138.45 2626.56
   08:36:37.451.09-Sep-2020 5524.01 3700.65 77.58 6.00 138.65 2626.56
   08:36:37.651.09-Sep-2020 5524.01 3700.78 77.58 6.00 138.85 2626.56
   08:36:37.852.09-Sep-2020 5524.01 3700.77 77.58 6.00 139.05 2626.56
   08:36:38.052.09-Sep-2020 5524.01 3700.85 77.58 6.00 139.25 2626.56
   08:36:38.252.09-Sep-2020 5524.01 3700.72 77.58 6.00 139.46 2626.56
   08:36:38.452.09-Sep-2020 5524.01 3700.77 77.58 6.00 139.66 2626.56
   08:36:38.652.09-Sep-2020 5524.01 3700.78 77.58 6.00 139.86 2626.56
   08:36:38.852.09-Sep-2020 5524.01 3700.78 77.58 6.00 140.06 2626.56
   08:36:39.052.09-Sep-2020 5524.01 3700.78 77.58 6.00 140.26 2626.56
   08:36:39.252.09-Sep-2020 5524.01 3700.77 77.58 6.00 140.46 2626.56
   08:36:39.452.09-Sep-2020 5524.01 3700.77 77.58 6.00 140.66 2626.56
   08:36:39.652.09-Sep-2020 5524.01 3700.78 77.58 6.00 140.86 2626.56
   08:36:39.852.09-Sep-2020 5524.01 3700.79 77.58 6.00 141.06 2626.56
   08:36:40.052.09-Sep-2020 5524.01 3700.79 77.58 6.00 141.26 2626.56
   08:36:40.253.09-Sep-2020 5524.01 3700.79 77.58 6.00 141.46 2626.56
   08:36:40.453.09-Sep-2020 5524.01 3700.31 77.58 6.00 141.66 2626.56
   08:36:40.653.09-Sep-2020 5524.01 3701.25 77.58 6.00 141.86 2626.56
   08:36:40.853.09-Sep-2020 5524.01 3700.76 77.58 6.00 142.06 2626.56
   08:36:41.053.09-Sep-2020 5524.01 3700.76 77.58 6.00 142.26 2626.56
   08:36:41.253.09-Sep-2020 5524.01 3700.79 77.58 6.00 142.46 2626.56
   08:36:41.453.09-Sep-2020 5524.01 3700.78 77.58 6.00 142.66 2626.56
   08:36:41.653.09-Sep-2020 5524.01 3700.42 77.58 6.00 142.86 2626.56
   08:36:41.853.09-Sep-2020 5524.01 3701.14 77.58 6.00 143.06 2626.56
   08:36:42.053.09-Sep-2020 5524.01 3701.14 77.58 6.00 143.26 2626.56
   08:36:42.253.09-Sep-2020 5524.01 3700.79 77.58 6.00 143.46 2626.56
   08:36:42.453.09-Sep-2020 5524.01 3700.75 77.58 6.00 143.66 2626.56
   08:36:42.653.09-Sep-2020 5524.01 3700.48 77.58 6.00 143.86 2626.56
   08:36:42.854.09-Sep-2020 5524.01 3701.15 77.58 6.00 144.06 2626.56
   08:36:43.054.09-Sep-2020 5524.01 3700.76 77.58 6.00 144.26 2626.56
   08:36:43.254.09-Sep-2020 5524.01 3700.81 77.58 6.00 144.46 2626.56
   08:36:43.454.09-Sep-2020 5524.01 3700.72 77.58 6.00 144.66 2626.56
   08:36:43.654.09-Sep-2020 5524.01 3700.82 77.58 6.00 144.86 2626.56
   08:36:43.854.09-Sep-2020 5524.01 3700.78 77.58 6.00 145.06 2626.56
   08:36:44.054.09-Sep-2020 5524.01 3700.78 77.58 6.00 145.26 2626.56
   08:36:44.254.09-Sep-2020 5524.01 3700.80 77.58 6.00 145.46 2626.56
   08:36:44.454.09-Sep-2020 5524.01 3700.76 77.58 6.00 145.66 2626.56
   08:36:44.654.09-Sep-2020 5524.01 3700.81 77.58 6.00 145.86 2626.56
   08:36:44.854.09-Sep-2020 5524.01 3700.78 77.58 6.00 146.06 2626.56
   08:36:45.054.09-Sep-2020 5524.01 3700.78 77.58 6.00 146.26 2626.56
   08:36:45.254.09-Sep-2020 5524.01 3700.59 77.58 6.00 146.46 2626.56
   08:36:45.455.09-Sep-2020 5524.01 3700.77 77.58 6.00 146.66 2626.56
   08:36:45.655.09-Sep-2020 5524.01 3700.79 77.58 6.00 146.86 2626.56
   08:36:45.855.09-Sep-2020 5524.01 3700.86 77.58 6.00 147.06 2626.56
   08:36:46.055.09-Sep-2020 5524.01 3700.73 77.58 6.00 147.26 2626.56
   08:36:46.255.09-Sep-2020 5524.01 3700.77 77.58 6.00 147.46 2626.56
   08:36:46.455.09-Sep-2020 5524.01 3700.78 77.58 6.00 147.66 2626.56
   08:36:46.655.09-Sep-2020 5524.01 3700.78 77.58 6.00 147.86 2626.56
   08:36:46.855.09-Sep-2020 5524.01 3700.78 77.58 6.00 148.06 2626.56
   08:36:47.055.09-Sep-2020 5524.01 3700.78 77.58 6.00 148.26 2626.56
   08:36:47.255.09-Sep-2020 5524.01 3700.79 77.58 6.00 148.46 2626.56
   08:36:47.455.09-Sep-2020 5524.01 3700.76 77.58 6.00 148.66 2626.56
   08:36:47.655.09-Sep-2020 5524.01 3700.78 77.58 6.00 148.86 2626.56
   08:36:47.856.09-Sep-2020 5524.01 3700.78 77.58 6.00 149.06 2626.56
   08:36:48.056.09-Sep-2020 5524.01 3700.78 77.58 6.00 149.26 2626.56
   08:36:48.256.09-Sep-2020 5524.01 3700.79 77.58 6.00 149.46 2626.56
   08:36:48.456.09-Sep-2020 5524.01 3700.79 77.58 6.00 149.66 2626.56
   08:36:48.656.09-Sep-2020 5524.01 3700.79 77.58 6.00 149.86 2626.56
   08:36:48.856.09-Sep-2020 5524.01 3700.80 77.57 6.00 150.06 2626.56
   08:36:49.056.09-Sep-2020 5524.01 3700.80 77.57 6.00 150.26 2626.56
   08:36:49.256.09-Sep-2020 5524.01 3700.78 77.58 6.00 150.46 2626.56
   08:36:49.456.09-Sep-2020 5524.01 3668.03 77.57 6.00 150.66 2626.56
   08:36:49.656.09-Sep-2020 5524.01 3510.61 77.58 6.00 150.86 2626.56
   08:36:49.856.09-Sep-2020 5524.01 3491.00 77.57 6.00 151.06 2626.56
   08:36:50.056.09-Sep-2020 5524.01 3491.05 77.57 6.00 151.26 2626.56
   08:36:50.256.09-Sep-2020 5524.01 3489.75 77.57 6.00 151.46 2626.56
   08:36:50.457.09-Sep-2020 5524.01 3487.35 77.57 6.00 151.66 2626.56
   08:36:50.657.09-Sep-2020 5524.01 3484.09 77.57 6.00 151.86 2626.56
   08:36:50.857.09-Sep-2020 5524.01 3475.00 77.57 6.00 152.06 2626.56
   08:36:51.057.09-Sep-2020 5524.01 3475.00 77.57 6.00 152.26 2626.56
   08:36:51.257.09-Sep-2020 5524.01 3471.29 77.57 6.00 152.46 2626.56
   08:36:51.457.09-Sep-2020 5524.01 3462.84 77.57 6.00 152.66 2626.56
   08:36:51.657.09-Sep-2020 5524.01 3458.66 77.57 6.00 152.86 2626.56
   08:36:51.857.09-Sep-2020 5524.01 3453.57 77.57 6.00 153.06 2626.56
   08:36:52.057.09-Sep-2020 5524.01 3453.57 77.57 6.00 153.26 2626.56
   08:36:52.257.09-Sep-2020 5524.01 3446.04 77.57 6.00 153.46 2626.56
   08:36:52.457.09-Sep-2020 5524.01 3444.53 77.57 6.00 153.66 2626.56
   08:36:52.657.09-Sep-2020 5524.01 3447.17 77.57 6.00 153.86 2626.56
   08:36:52.857.09-Sep-2020 5524.01 3442.54 77.57 6.00 154.06 2626.56
   08:36:53.058.09-Sep-2020 5524.01 3442.54 77.57 6.00 154.26 2626.56
   08:36:53.258.09-Sep-2020 5524.01 3435.93 77.57 6.00 154.46 2626.56
   08:36:53.458.09-Sep-2020 5524.01 3440.10 77.57 6.00 154.66 2626.56
   08:36:53.658.09-Sep-2020 5524.01 3453.89 77.57 6.00 154.86 2626.56
   08:36:53.858.09-Sep-2020 5524.01 3442.21 77.57 6.00 155.06 2626.56
   08:36:54.058.09-Sep-2020 5524.01 3460.84 77.57 6.00 155.26 2626.56
   08:36:54.258.09-Sep-2020 5524.01 3448.52 77.57 6.00 155.46 2626.56
   08:36:54.458.09-Sep-2020 5524.01 3440.78 77.57 6.00 155.66 2626.56
   08:36:54.658.09-Sep-2020 5524.01 3447.89 77.57 6.00 155.86 2626.56
   08:36:54.858.09-Sep-2020 5524.01 3439.49 77.57 6.00 156.06 2626.56
   08:36:55.058.09-Sep-2020 5524.01 3432.32 77.57 6.00 156.26 2626.56
   08:36:55.258.09-Sep-2020 5524.01 3425.52 77.57 6.00 156.46 2626.56
   08:36:55.459.09-Sep-2020 5524.01 3423.02 77.57 6.00 156.66 2626.56
   08:36:55.659.09-Sep-2020 5524.01 3424.35 77.57 6.00 156.86 2626.56
   08:36:55.859.09-Sep-2020 5524.01 3431.89 77.57 6.00 157.06 2626.56
   08:36:56.059.09-Sep-2020 5524.01 3431.89 77.57 6.00 157.26 2626.56
   08:36:56.259.09-Sep-2020 5524.01 3424.40 77.57 6.00 157.46 2626.56
   08:36:56.459.09-Sep-2020 5524.01 3423.29 77.57 6.00 157.66 2626.56
   08:36:56.659.09-Sep-2020 5524.01 3434.66 77.57 6.00 157.86 2626.56
   08:36:56.859.09-Sep-2020 5524.01 3434.77 77.57 6.00 158.06 2626.56
   08:36:57.059.09-Sep-2020 5524.01 3434.77 77.57 6.00 158.26 2626.56
   08:36:57.259.09-Sep-2020 5524.01 3419.33 77.57 6.00 158.46 2626.56
   08:36:57.459.09-Sep-2020 5524.01 3416.43 77.57 6.00 158.66 2626.56
   08:36:57.659.09-Sep-2020 5524.01 3416.27 77.57 6.00 158.86 2626.56
   08:36:57.859.09-Sep-2020 5524.01 3423.49 77.57 6.00 159.06 2626.56
   08:36:58.060.09-Sep-2020 5524.01 3416.36 77.57 6.00 159.26 2626.56
   08:36:58.260.09-Sep-2020 5524.01 3411.51 77.57 6.00 159.46 2626.56
   08:36:58.460.09-Sep-2020 5524.01 3411.18 77.57 6.00 159.66 2626.56
   08:36:58.660.09-Sep-2020 5524.01 3417.28 77.57 6.00 159.86 2626.56
   08:36:58.860.09-Sep-2020 5524.01 3415.45 77.57 6.00 160.06 2626.56
   08:36:59.060.09-Sep-2020 5524.01 3407.29 77.57 6.00 160.26 2626.56
   08:36:59.260.09-Sep-2020 5524.01 3404.60 77.57 6.00 160.46 2626.56
   08:36:59.460.09-Sep-2020 5524.01 3413.96 77.57 6.00 160.66 2626.56
   08:36:59.660.09-Sep-2020 5524.01 3533.55 77.57 6.00 160.86 2626.56
