~Version Information
 VERS.                  2.0:   CWLS log ASCII Standard -VERSION 2.0
 WRAP.                   NO:   One line per depth step
~Well Information Block
#MNEM.UNIT     VALUE/NAME     DESCRIPTION
#---------     -----------    ---------------------------
 STRT.S             08:34:18 09-Sep-20: START TIME 08:34:18 09-Sep-20
 STOP.S             08:41:20 09-Sep-20: STOP TIME  08:41:20 09-Sep-20
 STEP.S                   0.00: STEP TIME
 NULL.                 -999.25: NULL VALUE
 MDS .        Operator Entered:  MAG DATA SOURCE
 PDAT.          Mean Sea Level:  PERMANENT DATUM
 DCON.         Sperry Drilling:  DIRECTNL CONTR
 RIG .              West Azeri:  RIG NAME
 WELL.           C40 (Slot 20):  WELL NAME
 SRVC.     Turan Drilling Engineering:  CONTRACTOR
 FLD .                     ACG:  FIELD NAME
 CTRY.              Azerbaijan:  COUNTRY NAME
 PROV.                    Baku:  PROVINCE
 STAT.                    Baku:  STATE NAME
 REGN.                   EESSA:  REGION
 BASE.              Azerbaijan:  LOGGING EQUIPMENT BASE LOCATION
 COMP.     BP Exploration (Caspian Sea) Ltd:  COMPANY
 WTYP.                Deviated:  WELL TYPE
 SON .        AZ-XX-0906344804:  JOB NUMBER
 FTOP.          Formation Tops:  FORM TOPS DESC
 ILTD.               Lithology:  INTERP LTH DESC
 SVYD.                  Survey:  SURVEY DESC
 DMOD.             Drill Model:  DRILL MOD DESC
 HPTY.       Minimum Curvature:  HOLE POS TYPE
 NREF.                    Grid:  NORTH REFERENCE
 SPUD.               01-Jan-20:  SPUD DATE
 DATE.      00.59.44 15-Sep-20:  END TIME
 STIM.      12.00.00 12-Jun-20:  START TIME
 DMF .             Drill Floor:  DRILL MEAS FROM
 DFST.                        :  DIST FSL TEXT
 DFWT.                        :  DIST FWL TEXT
 API .                        :  API NUMBER
 CNTY.                        :  COUNTY
 UWI .                        :  UNIQUE WELL IDENTIFIER
 LOC .                        :  LOCATION
 LMF .             Drill Floor:  LOG MEASURED FROM
 VSNS.m                   2.88:  VERT SEC N/S
 VSEW.m                  -3.84:  VERT SEC E/W
 AGAP.m                  43.42:  AIR GAP
 APD .m                  43.42:  DEPTH ABOVE PD
 WDMS.m                 118.27:  WD ELEV
 EGL .m                   0.00:  GROUND ELEVATION
 EPD .m                   0.00:  ELEVATION
 AZTC.deg                 6.23:  AZM TOTAL CORR
 GRDC.deg                 0.20:  GRID CORRECTION
 MDEC.deg                 6.43:  MAGNETIC DECL
 MDIP.deg                59.49:  MAGNETIC DIP
 MFLD.nT              50277.00:  MAGNETIC FIELD
 GVFD.g                   1.00:  GRAVITY FIELD
 VSDR.deg               173.20:  VERT SEC DIRECT
 TDD .m                5790.01:  TOTAL DEPTH (DRILLER)
 SDEP.m                5231.01:  START DEPTH
 DFSL.m                   0.00:  DISTANCE FSL
 DFWL.m                   0.00:  DISTANCE FWL
 UTMY.m             4435808.83:  UTM Y
 UTMX.m              526266.40:  UTM X
 WHEW.m                  -3.84:  WELL HEAD E/W
 WHNS.m                   2.88:  WELL HEAD N/S
 LONG.deg                51.31:  LONGITUDE
 LATI.deg                40.06:  LATITUDE
 TVDS.m                  43.42:  TVDSS CORRECTN
 DEP .m                 430.08:  DEPTH
 EKB .m                  43.42:  KB ELEVATION
 EDF .m                  43.42:  DF ELEVATION
 TDL .m                 559.00:  TOTAL DEPTH (LOGGER)
 MAGU.                 1849381:  MAGUTM CHECKSUM
 VSC .                       0:  VS TO CLOSURE
~Parameter Information Block
#MNEM.UNIT       Value        Description
#---------     -----------    ---------------------------
 AV  .mps                 4.87:  Ann Velocity 
 AVMX.mps                 7.08:  Max Ann Veloc 
 AZIF.deg               108.87:  Azm, Final 
 BHAT.                  Rotary:  BHA Type 
 BROT.°/30m               0.35:  Build Rotating 
 BS  .in                  8.50:  Bit Size 
 BSZ .in                  8.50:  Bit Size 
 BTPL.psig              360.00:  Bit Press Loss 
 CABU.                     Yes:  Customer Abuse 
 COMM.                     \¸P:  Run Comments 1 
 TCS .hr                106.24:  Time Ciculation Ended 
 CV  .mps                 1.77:  Crit Velocity 
 CVMX.mps                 2.03:  Max Crit Veloc 
 DD1 .         Aykhan Agagulov:  Direct Drillr 1 
 DD2 .            Nonso Okofor:  Direct Drillr 2 
 DDSV.               Geo-Pilot:  DD Service 
 DEFF.%                  98.00:  % Det Eff 
 DLRX.°/30m               0.50:  Dogleg Rot Max 
 DLSO.°/30m               0.40:  Dogleg Oriented 
 DLSX.°/30m               0.94:  Dogleg Str Max 
 DRET.      20.30.00 08-Sep-20:  Drill End Time 
 DRST.      22.15.00 06-Sep-20:  Drill Start Tim 
 DTIM.hr                 31.31:  Time Drilling 
 EDEP.m                5790.01:  End Depth 
 ENG1.           Amrah Tahirov:  Engineer 1 
 ENG2.         Dair Mahammadov:  Engineer 2 
 ENG3.           Emil Huseynov:  Engineer 3 
 ETIM.      04.01.04 12-Sep-20:  End Time 
 FLOI.gpm               450.00:  Flow In 
 FLON.gpm               450.00:  Flow In Min 
 FLOS.cptm                2.00:  Fluid Loss 
 FLOX.gpm               450.00:  Flow In Max 
 FTRO.       Formation Presure:  FTWD Run Obj 
 HFLO.                      No:  High Flow 
 HPRE.                      No:  High Pressure 
 HTEM.                      No:  High Temp 
 HYDO.m                   1.80:  Hydro Offset 
 IFIN.deg                72.03:  Inc, Final 
 IMAX.deg                73.72:  Inc Max 
 IMIN.deg                70.94:  Inc Min 
 IMND.m                5508.52:  Inc Min Depth 
 IMXD.m                5253.60:  Inc Max Depth 
 JARR.                      No:  Jarring 
 LETM.      20.30.00 08-Sep-20:  Log End Time 
 LOST.hr                     0:  Lost Rig Time 
 LSTM.      22.15.00 06-Sep-20:  Log Start Time 
 MDCL.ppm             36000.00:  Mud Chlorides 
 MDES.     Inversion Oil/Synthetic:  Mud Desc 
 DFD .sg                  1.44:  Mud Density 
 MDMN.sg                  1.44:  Dens Mud Min 
 MDMX.sg                  1.57:  Dens Mud Max 
 MOIL.                      70:  Run Mud Oil % 
 MOWR.                   70:30:  Run Mud OWR 
 MSND.                       0:  Run Mud Sand % 
 MSOL.                      21:  Run Mud Solids% 
 DFV .spqt               68.00:  Mud Viscosity 
 MWOD.in                  6.75:  MWD Tool OD 
 MWSI.                     Yes:  Serv Intrp, MWD 
 OTIM.hr                174.84:  Time Operating 
 PCON.           Look Like New:  Pad Condition 
 PMAX.psia            10616.93:  Press Op, Max 
 PV  .cP                 50.00:  Mud PV 
 RUN .                     700:  Run Number 
 ROPA.m/hr               14.24:  ROP Avg 
 ROPN.m/hr               10.00:  ROP Min 
 ROPX.m/hr               32.00:  ROP Max 
 RPMA.rpm               120.90:  RPM Surface Avg 
 RPMN.rpm               120.00:  RPM Surface Min 
 RPMX.rpm               140.00:  RPM Surface Max 
 RRUN.                    0700:  Rig Run Number 
 RTIM.hr                  3.20:  Time Reaming 
 SAZI.deg               109.99:  Azm, Start 
 SDEP.m                5231.01:  Start Depth 
 SIDD.                      No:  Serv Intrp, DD 
 SINC.deg                73.72:  Inc, Start 
 SPPA.psig             3051.00:  SPP Avg 
 SPPN.psig             2950.00:  SPP Min 
 SPPX.psig             3250.00:  SPP Max 
 STIM.      08.00.00 05-Sep-20:  Start Time 
 SVCS.                 DD, MWD:  Services 
 SVER.                    9.20:  Sperry Version 
 TDAT.m                 559.00:  Tot Depth Attmp 
 TDDF.                      No:  Trip for DD 
 TDLG.m                 559.00:  Tot Depth Loggd 
 TFF .                      No:  Trip for Fail 
 TQAA.f-kp               26.49:  Torque Abs Avg 
 TQAN.f-kp               25.00:  Torque Abs Min 
 TQAX.f-kp               27.00:  Torque Abs Max 
 TRRT.°/30m               1.50:  Turn Rotating 
 MRT .                    HCIM:  Maximum Recorded Temperature 
 TTMX.degC               90.20:  Max Tool Temp 
 VS01.                90542671:  Virtual Str1 SN 
 VS02.                90545185:  Virtual Str2 SN 
 VS03.                90602015:  Virtual Str3 SN 
 VS04.                90515230:  Virtual Str4 SN 
 WBMN.klb                 5.00:  WOB Min 
 WOBA.klb                14.79:  WOB Avg 
 WOBX.klb                20.00:  WOB Max 
 YP  .lhf2               29.00:  Yield Point 
~Curve Information Block
#MNEM.UNIT                 API CODE     Curve Description
#---------               -----------    ---------------------------
 TIME.HHMMSS            00 000 000 000:  GT Time & Date
 GTDEPTH.m              00 000 000 000:  GT Depth
 GTPQH.psia             00 000 000 000:  GT HR Quartz Pressure
 GTTQ.degC              00 000 000 000:  GT Quartz Temperature
 GTTN.NONE              00 000 000 000:  GT Test Number
 GTET.sec               00 000 000 000:  GT Elapsed Test Time
 GTTVD.m                00 000 000 000:  GT True Vertical Depth
#Other Information
#
#WARRANTY: Halliburton will use its best efforts to furnish customers with 
#accurate information and interpretations that are part of, and incident to, the services 
#provided.  However, Halliburton cannot and does not warrant the accuracy 
#or correctness of such information and interpretations.  Under no circumstances should any 
#such information or interpretation be relied upon as the sole basis for any drilling, 
#completion, production, or financial decision or any procedure involving any risk to the 
#safety of any drilling venture, drilling rig or its crew or any other third party.  The 
#Customer has full responsibility for all drilling, completion and production operation.  
#Halliburton makes no representations or warranties, either expressed or 
#implied, including, but not limited to, the implied warranties of merchantability or fitness 
#for a particular purpose, with respect to the services rendered.  In no event will 
#Halliburton be liable for failure to obtain any particular results or for 
#any damages, including, but not limited to, indirect, special or consequential damages, 
#resulting from the use of any information or interpretation provided by Halliburton.
#
~A           TIME           GTDEPTH  GTPQH  GTTQ  GTTN  GTET   GTTVD  
# ...
   08:35:27.824.09-Sep-2020 5524.01 3699.96 77.57 6.00  69.03 2626.56
   08:35:28.024.09-Sep-2020 5524.01 3699.96 77.57 6.00  69.23 2626.56
   08:35:28.224.09-Sep-2020 5524.01 3700.43 77.57 6.00  69.43 2626.56
   08:35:28.424.09-Sep-2020 5524.01 3700.46 77.57 6.00  69.63 2626.56
   08:35:28.624.09-Sep-2020 5524.01 3700.42 77.57 6.00  69.83 2626.56
   08:35:28.824.09-Sep-2020 5524.01 3700.49 77.57 6.00  70.03 2626.56
   08:35:29.024.09-Sep-2020 5524.01 3700.49 77.57 6.00  70.23 2626.56
   08:35:29.224.09-Sep-2020 5524.01 3700.46 77.57 6.00  70.43 2626.56
   08:35:29.425.09-Sep-2020 5524.01 3700.47 77.57 6.00  70.63 2626.56
   08:35:29.625.09-Sep-2020 5524.01 3700.45 77.57 6.00  70.83 2626.56
   08:35:29.825.09-Sep-2020 5524.01 3700.49 77.57 6.00  71.03 2626.56
   08:35:30.025.09-Sep-2020 5524.01 3700.48 77.57 6.00  71.23 2626.56
   08:35:30.225.09-Sep-2020 5524.01 3700.49 77.57 6.00  71.43 2626.56
   08:35:30.425.09-Sep-2020 5524.01 3700.47 77.57 6.00  71.63 2626.56
   08:35:30.625.09-Sep-2020 5524.01 3700.49 77.58 6.00  71.83 2626.56
   08:35:30.825.09-Sep-2020 5524.01 3700.48 77.58 6.00  72.03 2626.56
   08:35:31.025.09-Sep-2020 5524.01 3700.48 77.58 6.00  72.23 2626.56
   08:35:31.225.09-Sep-2020 5524.01 3700.66 77.58 6.00  72.43 2626.56
   08:35:31.425.09-Sep-2020 5524.01 3700.35 77.58 6.00  72.63 2626.56
   08:35:31.625.09-Sep-2020 5524.01 3700.53 77.58 6.00  72.83 2626.56
   08:35:31.825.09-Sep-2020 5524.01 3700.47 77.58 6.00  73.03 2626.56
   08:35:32.026.09-Sep-2020 5524.01 3700.47 77.58 6.00  73.23 2626.56
   08:35:32.226.09-Sep-2020 5524.01 3700.37 77.58 6.00  73.43 2626.56
   08:35:32.426.09-Sep-2020 5524.01 3700.57 77.58 6.00  73.63 2626.56
   08:35:32.626.09-Sep-2020 5524.01 3700.54 77.58 6.00  73.83 2626.56
   08:35:32.826.09-Sep-2020 5524.01 3700.55 77.58 6.00  74.03 2626.56
   08:35:33.026.09-Sep-2020 5524.01 3700.55 77.58 6.00  74.23 2626.56
   08:35:33.226.09-Sep-2020 5524.01 3700.54 77.58 6.00  74.43 2626.56
   08:35:33.426.09-Sep-2020 5524.01 3700.51 77.58 6.00  74.63 2626.56
   08:35:33.626.09-Sep-2020 5524.01 3700.55 77.58 6.00  74.83 2626.56
   08:35:33.826.09-Sep-2020 5524.01 3700.58 77.58 6.00  75.03 2626.56
   08:35:34.026.09-Sep-2020 5524.01 3700.55 77.58 6.00  75.23 2626.56
   08:35:34.226.09-Sep-2020 5524.01 3700.61 77.58 6.00  75.43 2626.56
   08:35:34.427.09-Sep-2020 5524.01 3700.45 77.58 6.00  75.63 2626.56
   08:35:34.627.09-Sep-2020 5524.01 3700.55 77.58 6.00  75.83 2626.56
   08:35:34.827.09-Sep-2020 5524.01 3700.26 77.58 6.00  76.03 2626.56
   08:35:35.027.09-Sep-2020 5524.01 3700.86 77.58 6.00  76.23 2626.56
   08:35:35.227.09-Sep-2020 5524.01 3700.56 77.58 6.00  76.43 2626.56
   08:35:35.427.09-Sep-2020 5524.01 3700.58 77.58 6.00  76.63 2626.56
   08:35:35.627.09-Sep-2020 5524.01 3700.05 77.58 6.00  76.83 2626.56
   08:35:35.827.09-Sep-2020 5524.01 3701.13 77.58 6.00  77.03 2626.56
   08:35:36.027.09-Sep-2020 5524.01 3701.13 77.58 6.00  77.23 2626.56
   08:35:36.227.09-Sep-2020 5524.01 3700.61 77.58 6.00  77.43 2626.56
   08:35:36.427.09-Sep-2020 5524.01 3700.56 77.58 6.00  77.63 2626.56
   08:35:36.627.09-Sep-2020 5524.01 3700.59 77.58 6.00  77.83 2626.56
   08:35:36.827.09-Sep-2020 5524.01 3700.59 77.58 6.00  78.03 2626.56
   08:35:37.028.09-Sep-2020 5524.01 3700.59 77.58 6.00  78.23 2626.56
   08:35:37.228.09-Sep-2020 5524.01 3700.60 77.58 6.00  78.43 2626.56
   08:35:37.428.09-Sep-2020 5524.01 3700.57 77.58 6.00  78.63 2626.56
   08:35:37.628.09-Sep-2020 5524.01 3700.62 77.58 6.00  78.83 2626.56
   08:35:37.828.09-Sep-2020 5524.01 3700.60 77.58 6.00  79.03 2626.56
   08:35:38.028.09-Sep-2020 5524.01 3700.60 77.58 6.00  79.23 2626.56
   08:35:38.228.09-Sep-2020 5524.01 3700.60 77.58 6.00  79.43 2626.56
   08:35:38.428.09-Sep-2020 5524.01 3700.60 77.58 6.00  79.63 2626.56
   08:35:38.628.09-Sep-2020 5524.01 3700.61 77.58 6.00  79.83 2626.56
   08:35:38.828.09-Sep-2020 5524.01 3700.62 77.58 6.00  80.03 2626.56
   08:35:39.028.09-Sep-2020 5524.01 3700.62 77.58 6.00  80.23 2626.56
   08:35:39.228.09-Sep-2020 5524.01 3700.62 77.58 6.00  80.43 2626.56
   08:35:39.428.09-Sep-2020 5524.01 3700.31 77.58 6.00  80.63 2626.56
   08:35:39.629.09-Sep-2020 5524.01 3700.96 77.58 6.00  80.83 2626.56
   08:35:39.829.09-Sep-2020 5524.01 3700.62 77.58 6.00  81.03 2626.56
   08:35:40.029.09-Sep-2020 5524.01 3700.62 77.58 6.00  81.23 2626.56
   08:35:40.229.09-Sep-2020 5524.01 3700.56 77.58 6.00  81.43 2626.56
   08:35:40.429.09-Sep-2020 5524.01 3700.66 77.58 6.00  81.63 2626.56
   08:35:40.629.09-Sep-2020 5524.01 3700.62 77.58 6.00  81.83 2626.56
   08:35:40.829.09-Sep-2020 5524.01 3700.62 77.58 6.00  82.03 2626.56
   08:35:41.029.09-Sep-2020 5524.01 3700.62 77.58 6.00  82.23 2626.56
   08:35:41.229.09-Sep-2020 5524.01 3700.62 77.58 6.00  82.43 2626.56
   08:35:41.429.09-Sep-2020 5524.01 3700.63 77.58 6.00  82.63 2626.56
   08:35:41.629.09-Sep-2020 5524.01 3700.62 77.58 6.00  82.83 2626.56
   08:35:41.829.09-Sep-2020 5524.01 3700.62 77.58 6.00  83.03 2626.56
   08:35:42.030.09-Sep-2020 5524.01 3700.62 77.58 6.00  83.23 2626.56
   08:35:42.230.09-Sep-2020 5524.01 3700.65 77.58 6.00  83.43 2626.56
   08:35:42.430.09-Sep-2020 5524.01 3700.65 77.58 6.00  83.63 2626.56
   08:35:42.630.09-Sep-2020 5524.01 3700.60 77.58 6.00  83.83 2626.56
   08:35:42.830.09-Sep-2020 5524.01 3700.67 77.58 6.00  84.03 2626.56
   08:35:43.030.09-Sep-2020 5524.01 3700.66 77.58 6.00  84.23 2626.56
   08:35:43.230.09-Sep-2020 5524.01 3700.68 77.58 6.00  84.43 2626.56
   08:35:43.430.09-Sep-2020 5524.01 3700.66 77.58 6.00  84.63 2626.56
   08:35:43.630.09-Sep-2020 5524.01 3700.71 77.58 6.00  84.83 2626.56
   08:35:43.830.09-Sep-2020 5524.01 3700.10 77.58 6.00  85.03 2626.56
   08:35:44.030.09-Sep-2020 5524.01 3700.10 77.58 6.00  85.23 2626.56
   08:35:44.230.09-Sep-2020 5524.01 3700.66 77.58 6.00  85.43 2626.56
   08:35:44.430.09-Sep-2020 5524.01 3700.68 77.58 6.00  85.63 2626.56
   08:35:44.631.09-Sep-2020 5524.01 3700.66 77.58 6.00  85.83 2626.56
   08:35:44.831.09-Sep-2020 5524.01 3700.22 77.58 6.00  86.03 2626.56
   08:35:45.031.09-Sep-2020 5524.01 3700.22 77.58 6.00  86.23 2626.56
   08:35:45.231.09-Sep-2020 5524.01 3700.64 77.58 6.00  86.43 2626.56
   08:35:45.431.09-Sep-2020 5524.01 3700.68 77.58 6.00  86.63 2626.56
   08:35:45.631.09-Sep-2020 5524.01 3700.64 77.58 6.00  86.83 2626.56
   08:35:45.831.09-Sep-2020 5524.01 3700.70 77.58 6.00  87.03 2626.56
   08:35:46.031.09-Sep-2020 5524.01 3700.70 77.58 6.00  87.23 2626.56
   08:35:46.231.09-Sep-2020 5524.01 3700.68 77.58 6.00  87.43 2626.56
   08:35:46.431.09-Sep-2020 5524.01 3700.83 77.58 6.00  87.63 2626.56
   08:35:46.631.09-Sep-2020 5524.01 3700.52 77.58 6.00  87.83 2626.56
   08:35:46.831.09-Sep-2020 5524.01 3700.69 77.58 6.00  88.03 2626.56
   08:35:47.031.09-Sep-2020 5524.01 3700.69 77.58 6.00  88.23 2626.56
   08:35:47.232.09-Sep-2020 5524.01 3700.42 77.58 6.00  88.43 2626.56
   08:35:47.432.09-Sep-2020 5524.01 3701.03 77.58 6.00  88.63 2626.56
   08:35:47.632.09-Sep-2020 5524.01 3700.68 77.58 6.00  88.84 2626.56
   08:35:47.832.09-Sep-2020 5524.01 3700.69 77.58 6.00  89.04 2626.56
   08:35:48.032.09-Sep-2020 5524.01 3700.69 77.58 6.00  89.24 2626.56
   08:35:48.232.09-Sep-2020 5524.01 3700.72 77.58 6.00  89.44 2626.56
   08:35:48.432.09-Sep-2020 5524.01 3700.68 77.58 6.00  89.64 2626.56
   08:35:48.632.09-Sep-2020 5524.01 3700.69 77.58 6.00  89.84 2626.56
   08:35:48.832.09-Sep-2020 5524.01 3700.69 77.58 6.00  90.04 2626.56
   08:35:49.032.09-Sep-2020 5524.01 3700.69 77.58 6.00  90.24 2626.56
   08:35:49.232.09-Sep-2020 5524.01 3700.70 77.58 6.00  90.44 2626.56
   08:35:49.432.09-Sep-2020 5524.01 3700.70 77.58 6.00  90.64 2626.56
   08:35:49.633.09-Sep-2020 5524.01 3700.68 77.58 6.00  90.84 2626.56
   08:35:49.833.09-Sep-2020 5524.01 3700.69 77.58 6.00  91.04 2626.56
   08:35:50.033.09-Sep-2020 5524.01 3700.68 77.58 6.00  91.24 2626.56
   08:35:50.233.09-Sep-2020 5524.01 3700.70 77.58 6.00  91.44 2626.56
   08:35:50.433.09-Sep-2020 5524.01 3700.70 77.58 6.00  91.64 2626.56
   08:35:50.633.09-Sep-2020 5524.01 3700.71 77.58 6.00  91.84 2626.56
