~Version Information
 VERS.                  2.0:   CWLS log ASCII Standard -VERSION 2.0
 WRAP.                   NO:   One line per depth step
~Well Information Block
#MNEM.UNIT     VALUE/NAME     DESCRIPTION
#---------     -----------    ---------------------------
 STRT.S             14:18:02 09-Sep-20: START TIME 14:18:02 09-Sep-20
 STOP.S             14:26:13 09-Sep-20: STOP TIME  14:26:13 09-Sep-20
 STEP.S                   0.00: STEP TIME
 NULL.                 -999.25: NULL VALUE
 MDS .        Operator Entered:  MAG DATA SOURCE
 PDAT.          Mean Sea Level:  PERMANENT DATUM
 DCON.         Sperry Drilling:  DIRECTNL CONTR
 RIG .              West Azeri:  RIG NAME
 WELL.           C40 (Slot 20):  WELL NAME
 SRVC.     Turan Drilling Engineering:  CONTRACTOR
 FLD .                     ACG:  FIELD NAME
 CTRY.              Azerbaijan:  COUNTRY NAME
 PROV.                    Baku:  PROVINCE
 STAT.                    Baku:  STATE NAME
 REGN.                   EESSA:  REGION
 BASE.              Azerbaijan:  LOGGING EQUIPMENT BASE LOCATION
 COMP.     BP Exploration (Caspian Sea) Ltd:  COMPANY
 WTYP.                Deviated:  WELL TYPE
 SON .        AZ-XX-0906344804:  JOB NUMBER
 FTOP.          Formation Tops:  FORM TOPS DESC
 ILTD.               Lithology:  INTERP LTH DESC
 SVYD.                  Survey:  SURVEY DESC
 DMOD.             Drill Model:  DRILL MOD DESC
 HPTY.       Minimum Curvature:  HOLE POS TYPE
 NREF.                    Grid:  NORTH REFERENCE
 SPUD.               01-Jan-20:  SPUD DATE
 DATE.      00.59.44 15-Sep-20:  END TIME
 STIM.      12.00.00 12-Jun-20:  START TIME
 DMF .             Drill Floor:  DRILL MEAS FROM
 DFST.                        :  DIST FSL TEXT
 DFWT.                        :  DIST FWL TEXT
 API .                        :  API NUMBER
 CNTY.                        :  COUNTY
 UWI .                        :  UNIQUE WELL IDENTIFIER
 LOC .                        :  LOCATION
 LMF .             Drill Floor:  LOG MEASURED FROM
 VSNS.m                   2.88:  VERT SEC N/S
 VSEW.m                  -3.84:  VERT SEC E/W
 AGAP.m                  43.42:  AIR GAP
 APD .m                  43.42:  DEPTH ABOVE PD
 WDMS.m                 118.27:  WD ELEV
 EGL .m                   0.00:  GROUND ELEVATION
 EPD .m                   0.00:  ELEVATION
 AZTC.deg                 6.23:  AZM TOTAL CORR
 GRDC.deg                 0.20:  GRID CORRECTION
 MDEC.deg                 6.43:  MAGNETIC DECL
 MDIP.deg                59.49:  MAGNETIC DIP
 MFLD.nT              50277.00:  MAGNETIC FIELD
 GVFD.g                   1.00:  GRAVITY FIELD
 VSDR.deg               173.20:  VERT SEC DIRECT
 TDD .m                5790.01:  TOTAL DEPTH (DRILLER)
 SDEP.m                5231.01:  START DEPTH
 DFSL.m                   0.00:  DISTANCE FSL
 DFWL.m                   0.00:  DISTANCE FWL
 UTMY.m             4435808.83:  UTM Y
 UTMX.m              526266.40:  UTM X
 WHEW.m                  -3.84:  WELL HEAD E/W
 WHNS.m                   2.88:  WELL HEAD N/S
 LONG.deg                51.31:  LONGITUDE
 LATI.deg                40.06:  LATITUDE
 TVDS.m                  43.42:  TVDSS CORRECTN
 DEP .m                 430.08:  DEPTH
 EKB .m                  43.42:  KB ELEVATION
 EDF .m                  43.42:  DF ELEVATION
 TDL .m                 559.00:  TOTAL DEPTH (LOGGER)
 MAGU.                 1849381:  MAGUTM CHECKSUM
 VSC .                       0:  VS TO CLOSURE
~Parameter Information Block
#MNEM.UNIT       Value        Description
#---------     -----------    ---------------------------
 AV  .mps                 4.87:  Ann Velocity 
 AVMX.mps                 7.08:  Max Ann Veloc 
 AZIF.deg               108.87:  Azm, Final 
 BHAT.                  Rotary:  BHA Type 
 BROT.°/30m               0.35:  Build Rotating 
 BS  .in                  8.50:  Bit Size 
 BSZ .in                  8.50:  Bit Size 
 BTPL.psig              360.00:  Bit Press Loss 
 CABU.                     Yes:  Customer Abuse 
 TCS .hr                106.24:  Time Ciculation Ended 
 CV  .mps                 1.77:  Crit Velocity 
 CVMX.mps                 2.03:  Max Crit Veloc 
 DD1 .         Aykhan Agagulov:  Direct Drillr 1 
 DD2 .            Nonso Okofor:  Direct Drillr 2 
 DDSV.               Geo-Pilot:  DD Service 
 DEFF.%                  98.00:  % Det Eff 
 DLRX.°/30m               0.50:  Dogleg Rot Max 
 DLSO.°/30m               0.40:  Dogleg Oriented 
 DLSX.°/30m               0.94:  Dogleg Str Max 
 DRET.      20.30.00 08-Sep-20:  Drill End Time 
 DRST.      22.15.00 06-Sep-20:  Drill Start Tim 
 DTIM.hr                 31.31:  Time Drilling 
 EDEP.m                5790.01:  End Depth 
 ENG1.           Amrah Tahirov:  Engineer 1 
 ENG2.         Dair Mahammadov:  Engineer 2 
 ENG3.           Emil Huseynov:  Engineer 3 
 ETIM.      04.01.04 12-Sep-20:  End Time 
 FLOI.gpm               450.00:  Flow In 
 FLON.gpm               450.00:  Flow In Min 
 FLOS.cptm                2.00:  Fluid Loss 
 FLOX.gpm               450.00:  Flow In Max 
 FTRO.       Formation Presure:  FTWD Run Obj 
 HFLO.                      No:  High Flow 
 HPRE.                      No:  High Pressure 
 HTEM.                      No:  High Temp 
 HYDO.m                   1.80:  Hydro Offset 
 IFIN.deg                72.03:  Inc, Final 
 IMAX.deg                73.72:  Inc Max 
 IMIN.deg                70.94:  Inc Min 
 IMND.m                5508.52:  Inc Min Depth 
 IMXD.m                5253.60:  Inc Max Depth 
 JARR.                      No:  Jarring 
 LETM.      20.30.00 08-Sep-20:  Log End Time 
 LOST.hr                     0:  Lost Rig Time 
 LSTM.      22.15.00 06-Sep-20:  Log Start Time 
 MDCL.ppm             36000.00:  Mud Chlorides 
 MDES.     Inversion Oil/Synthetic:  Mud Desc 
 DFD .sg                  1.44:  Mud Density 
 MDMN.sg                  1.44:  Dens Mud Min 
 MDMX.sg                  1.57:  Dens Mud Max 
 MOIL.                      70:  Run Mud Oil % 
 MOWR.                   70:30:  Run Mud OWR 
 MSND.                       0:  Run Mud Sand % 
 MSOL.                      21:  Run Mud Solids% 
 DFV .spqt               68.00:  Mud Viscosity 
 MWOD.in                  6.75:  MWD Tool OD 
 MWSI.                     Yes:  Serv Intrp, MWD 
 OTIM.hr                174.84:  Time Operating 
 PCON.           Look Like New:  Pad Condition 
 PMAX.psia            10616.93:  Press Op, Max 
 PV  .cP                 50.00:  Mud PV 
 RUN .                     700:  Run Number 
 ROPA.m/hr               14.24:  ROP Avg 
 ROPN.m/hr               10.00:  ROP Min 
 ROPX.m/hr               32.00:  ROP Max 
 RPMA.rpm               120.90:  RPM Surface Avg 
 RPMN.rpm               120.00:  RPM Surface Min 
 RPMX.rpm               140.00:  RPM Surface Max 
 RRUN.                    0700:  Rig Run Number 
 RTIM.hr                  3.20:  Time Reaming 
 SAZI.deg               109.99:  Azm, Start 
 SDEP.m                5231.01:  Start Depth 
 SIDD.                      No:  Serv Intrp, DD 
 SINC.deg                73.72:  Inc, Start 
 SPPA.psig             3051.00:  SPP Avg 
 SPPN.psig             2950.00:  SPP Min 
 SPPX.psig             3250.00:  SPP Max 
 STIM.      08.00.00 05-Sep-20:  Start Time 
 SVCS.                 DD, MWD:  Services 
 SVER.                    9.20:  Sperry Version 
 TDAT.m                 559.00:  Tot Depth Attmp 
 TDDF.                      No:  Trip for DD 
 TDLG.m                 559.00:  Tot Depth Loggd 
 TFF .                      No:  Trip for Fail 
 TQAA.f-kp               26.49:  Torque Abs Avg 
 TQAN.f-kp               25.00:  Torque Abs Min 
 TQAX.f-kp               27.00:  Torque Abs Max 
 TRRT.°/30m               1.50:  Turn Rotating 
 MRT .                    HCIM:  Maximum Recorded Temperature 
 TTMX.degC               90.20:  Max Tool Temp 
 VS01.                90542671:  Virtual Str1 SN 
 VS02.                90545185:  Virtual Str2 SN 
 VS03.                90602015:  Virtual Str3 SN 
 VS04.                90515230:  Virtual Str4 SN 
 WBMN.klb                 5.00:  WOB Min 
 WOBA.klb                14.79:  WOB Avg 
 WOBX.klb                20.00:  WOB Max 
 YP  .lhf2               29.00:  Yield Point 
~Curve Information Block
#MNEM.UNIT                 API CODE     Curve Description
#---------               -----------    ---------------------------
 TIME.HHMMSS            00 000 000 000:  GT Time & Date
 GTDEPTH.m              00 000 000 000:  GT Depth
 GTPQH.psia             00 000 000 000:  GT HR Quartz Pressure
 GTTQ.degC              00 000 000 000:  GT Quartz Temperature
 GTTN.NONE              00 000 000 000:  GT Test Number
 GTET.sec               00 000 000 000:  GT Elapsed Test Time
 GTTVD.m                00 000 000 000:  GT True Vertical Depth
#Other Information
#
#WARRANTY: Halliburton will use its best efforts to furnish customers with 
#accurate information and interpretations that are part of, and incident to, the services 
#provided.  However, Halliburton cannot and does not warrant the accuracy 
#or correctness of such information and interpretations.  Under no circumstances should any 
#such information or interpretation be relied upon as the sole basis for any drilling, 
#completion, production, or financial decision or any procedure involving any risk to the 
#safety of any drilling venture, drilling rig or its crew or any other third party.  The 
#Customer has full responsibility for all drilling, completion and production operation.  
#Halliburton makes no representations or warranties, either expressed or 
#implied, including, but not limited to, the implied warranties of merchantability or fitness 
#for a particular purpose, with respect to the services rendered.  In no event will 
#Halliburton be liable for failure to obtain any particular results or for 
#any damages, including, but not limited to, indirect, special or consequential damages, 
#resulting from the use of any information or interpretation provided by Halliburton.
#
~A           TIME           GTDEPTH  GTPQH  GTTQ  GTTN   GTET   GTTVD  
# ...
   14:23:18.814.09-Sep-2020 5408.01  742.97 75.21 16.00 316.59 2589.60
   14:23:19.014.09-Sep-2020 5408.01  743.02 75.21 16.00 316.79 2589.60
   14:23:19.214.09-Sep-2020 5408.01  743.12 75.21 16.00 316.99 2589.60
   14:23:19.414.09-Sep-2020 5408.01  743.26 75.21 16.00 317.19 2589.60
   14:23:19.615.09-Sep-2020 5408.01  743.26 75.21 16.00 317.39 2589.60
   14:23:19.815.09-Sep-2020 5408.01  743.54 75.21 16.00 317.59 2589.60
   14:23:20.015.09-Sep-2020 5408.01  740.97 75.21 16.00 317.79 2589.60
   14:23:20.215.09-Sep-2020 5408.01  720.73 75.21 16.00 317.99 2589.60
   14:23:20.415.09-Sep-2020 5408.01  666.02 75.21 16.00 318.19 2589.60
   14:23:20.615.09-Sep-2020 5408.01  666.02 75.21 16.00 318.39 2589.60
   14:23:20.815.09-Sep-2020 5408.01  621.34 75.21 16.00 318.59 2589.60
   14:23:21.015.09-Sep-2020 5408.01  618.74 75.21 16.00 318.79 2589.60
   14:23:21.216.09-Sep-2020 5408.01  618.55 75.21 16.00 318.99 2589.60
   14:23:21.416.09-Sep-2020 5408.01  618.60 75.21 16.00 319.20 2589.60
   14:23:21.616.09-Sep-2020 5408.01  618.60 75.21 16.00 319.40 2589.60
   14:23:21.816.09-Sep-2020 5408.01  618.28 75.21 16.00 319.60 2589.60
   14:23:22.016.09-Sep-2020 5408.01  613.12 75.21 16.00 319.80 2589.60
   14:23:22.216.09-Sep-2020 5408.01  609.23 75.21 16.00 320.00 2589.60
   14:23:22.416.09-Sep-2020 5408.01  609.36 75.21 16.00 320.20 2589.60
   14:23:22.616.09-Sep-2020 5408.01  609.36 75.21 16.00 320.40 2589.60
   14:23:22.817.09-Sep-2020 5408.01  609.73 75.21 16.00 320.60 2589.60
   14:23:23.017.09-Sep-2020 5408.01  610.31 75.21 16.00 320.80 2589.60
   14:23:23.217.09-Sep-2020 5408.01  609.77 75.21 16.00 321.00 2589.60
   14:23:23.417.09-Sep-2020 5408.01  609.34 75.21 16.00 321.20 2589.60
   14:23:23.617.09-Sep-2020 5408.01  609.34 75.21 16.00 321.40 2589.60
   14:23:23.817.09-Sep-2020 5408.01  609.17 75.20 16.00 321.60 2589.60
   14:23:24.017.09-Sep-2020 5408.01  609.58 75.20 16.00 321.80 2589.60
   14:23:24.217.09-Sep-2020 5408.01  609.38 75.20 16.00 322.00 2589.60
   14:23:24.417.09-Sep-2020 5408.01  609.70 75.20 16.00 322.20 2589.60
   14:23:24.618.09-Sep-2020 5408.01  609.70 75.20 16.00 322.40 2589.60
   14:23:24.818.09-Sep-2020 5408.01  607.38 75.20 16.00 322.60 2589.60
   14:23:25.018.09-Sep-2020 5408.01  604.07 75.20 16.00 322.80 2589.60
   14:23:25.218.09-Sep-2020 5408.01  604.45 75.20 16.00 323.00 2589.60
   14:23:25.418.09-Sep-2020 5408.01  604.21 75.20 16.00 323.20 2589.60
   14:23:25.618.09-Sep-2020 5408.01  604.21 75.20 16.00 323.40 2589.60
   14:23:25.818.09-Sep-2020 5408.01  604.81 75.20 16.00 323.60 2589.60
   14:23:26.018.09-Sep-2020 5408.01  603.79 75.20 16.00 323.80 2589.60
   14:23:26.219.09-Sep-2020 5408.01  602.83 75.20 16.00 324.00 2589.60
   14:23:26.419.09-Sep-2020 5408.01  602.82 75.20 16.00 324.20 2589.60
   14:23:26.619.09-Sep-2020 5408.01  603.17 75.20 16.00 324.40 2589.60
   14:23:26.819.09-Sep-2020 5408.01  603.01 75.20 16.00 324.60 2589.60
   14:23:27.019.09-Sep-2020 5408.01  603.57 75.20 16.00 324.80 2589.60
   14:23:27.219.09-Sep-2020 5408.01  603.59 75.20 16.00 325.00 2589.60
   14:23:27.419.09-Sep-2020 5408.01  603.93 75.20 16.00 325.20 2589.60
   14:23:27.619.09-Sep-2020 5408.01  603.93 75.20 16.00 325.40 2589.60
   14:23:27.820.09-Sep-2020 5408.01  604.19 75.20 16.00 325.60 2589.60
   14:23:28.020.09-Sep-2020 5408.01  604.39 75.20 16.00 325.80 2589.60
   14:23:28.220.09-Sep-2020 5408.01  604.57 75.20 16.00 326.00 2589.60
   14:23:28.420.09-Sep-2020 5408.01  604.78 75.20 16.00 326.20 2589.60
   14:23:28.620.09-Sep-2020 5408.01  604.78 75.20 16.00 326.40 2589.60
   14:23:28.820.09-Sep-2020 5408.01  603.89 75.20 16.00 326.60 2589.60
   14:23:29.020.09-Sep-2020 5408.01  603.91 75.20 16.00 326.80 2589.60
   14:23:29.220.09-Sep-2020 5408.01  604.09 75.20 16.00 327.00 2589.60
   14:23:29.421.09-Sep-2020 5408.01  604.24 75.20 16.00 327.20 2589.60
   14:23:29.621.09-Sep-2020 5408.01  604.24 75.20 16.00 327.40 2589.60
   14:23:29.821.09-Sep-2020 5408.01  596.84 75.20 16.00 327.60 2589.60
   14:23:30.021.09-Sep-2020 5408.01  591.37 75.20 16.00 327.80 2589.60
   14:23:30.221.09-Sep-2020 5408.01  591.64 75.20 16.00 328.00 2589.60
   14:23:30.421.09-Sep-2020 5408.01  591.68 75.20 16.00 328.20 2589.60
   14:23:30.621.09-Sep-2020 5408.01  594.40 75.20 16.00 328.40 2589.60
   14:23:30.821.09-Sep-2020 5408.01  594.85 75.20 16.00 328.60 2589.60
   14:23:31.022.09-Sep-2020 5408.01  594.99 75.20 16.00 328.80 2589.60
   14:23:31.222.09-Sep-2020 5408.01  595.18 75.20 16.00 329.00 2589.60
   14:23:31.422.09-Sep-2020 5408.01  595.46 75.20 16.00 329.20 2589.60
   14:23:31.622.09-Sep-2020 5408.01  595.46 75.20 16.00 329.40 2589.60
   14:23:31.822.09-Sep-2020 5408.01  595.92 75.20 16.00 329.60 2589.60
   14:23:32.022.09-Sep-2020 5408.01  596.09 75.20 16.00 329.80 2589.60
   14:23:32.222.09-Sep-2020 5408.01  596.24 75.20 16.00 330.00 2589.60
   14:23:32.422.09-Sep-2020 5408.01  596.45 75.20 16.00 330.20 2589.60
   14:23:32.622.09-Sep-2020 5408.01  596.45 75.20 16.00 330.40 2589.60
   14:23:32.823.09-Sep-2020 5408.01  596.34 75.20 16.00 330.60 2589.60
   14:23:33.023.09-Sep-2020 5408.01  597.85 75.20 16.00 330.80 2589.60
   14:23:33.223.09-Sep-2020 5408.01  598.30 75.20 16.00 331.00 2589.60
   14:23:33.423.09-Sep-2020 5408.01  598.35 75.20 16.00 331.20 2589.60
   14:23:33.623.09-Sep-2020 5408.01  598.35 75.20 16.00 331.40 2589.60
   14:23:33.823.09-Sep-2020 5408.01  598.94 75.20 16.00 331.60 2589.60
   14:23:34.023.09-Sep-2020 5408.01  598.09 75.20 16.00 331.80 2589.60
   14:23:34.223.09-Sep-2020 5408.01  599.41 75.20 16.00 332.00 2589.60
   14:23:34.424.09-Sep-2020 5408.01  599.62 75.20 16.00 332.20 2589.60
   14:23:34.624.09-Sep-2020 5408.01  599.79 75.20 16.00 332.40 2589.60
   14:23:34.824.09-Sep-2020 5408.01  599.70 75.20 16.00 332.60 2589.60
   14:23:35.024.09-Sep-2020 5408.01  599.21 75.20 16.00 332.80 2589.60
   14:23:35.224.09-Sep-2020 5408.01  600.47 75.20 16.00 333.00 2589.60
   14:23:35.424.09-Sep-2020 5408.01  600.64 75.20 16.00 333.20 2589.60
   14:23:35.624.09-Sep-2020 5408.01  600.64 75.20 16.00 333.40 2589.60
   14:23:35.824.09-Sep-2020 5408.01  600.76 75.20 16.00 333.60 2589.60
   14:23:36.025.09-Sep-2020 5408.01  601.22 75.20 16.00 333.80 2589.60
   14:23:36.225.09-Sep-2020 5408.01  600.62 75.20 16.00 334.00 2589.60
   14:23:36.425.09-Sep-2020 5408.01  601.43 75.20 16.00 334.20 2589.60
   14:23:36.625.09-Sep-2020 5408.01  601.43 75.20 16.00 334.40 2589.60
   14:23:36.825.09-Sep-2020 5408.01  601.89 75.20 16.00 334.60 2589.60
   14:23:37.025.09-Sep-2020 5408.01  602.00 75.20 16.00 334.80 2589.60
   14:23:37.225.09-Sep-2020 5408.01  602.46 75.20 16.00 335.00 2589.60
   14:23:37.425.09-Sep-2020 5408.01  602.45 75.20 16.00 335.20 2589.60
   14:23:37.626.09-Sep-2020 5408.01  602.45 75.20 16.00 335.40 2589.60
   14:23:37.826.09-Sep-2020 5408.01  602.81 75.20 16.00 335.61 2589.60
   14:23:38.026.09-Sep-2020 5408.01  602.99 75.20 16.00 335.81 2589.60
   14:23:38.226.09-Sep-2020 5408.01  603.21 75.20 16.00 336.01 2589.60
   14:23:38.426.09-Sep-2020 5408.01  603.63 75.20 16.00 336.21 2589.60
   14:23:38.626.09-Sep-2020 5408.01  603.53 75.20 16.00 336.41 2589.60
   14:23:38.826.09-Sep-2020 5408.01  603.68 75.20 16.00 336.61 2589.60
   14:23:39.026.09-Sep-2020 5408.01  603.86 75.20 16.00 336.81 2589.60
   14:23:39.227.09-Sep-2020 5408.01  604.07 75.20 16.00 337.01 2589.60
   14:23:39.427.09-Sep-2020 5408.01  604.26 75.20 16.00 337.21 2589.60
   14:23:39.627.09-Sep-2020 5408.01  604.26 75.20 16.00 337.41 2589.60
   14:23:39.827.09-Sep-2020 5408.01  604.54 75.20 16.00 337.61 2589.60
   14:23:40.027.09-Sep-2020 5408.01  604.67 75.20 16.00 337.81 2589.60
   14:23:40.227.09-Sep-2020 5408.01  604.84 75.20 16.00 338.01 2589.60
   14:23:40.427.09-Sep-2020 5408.01  605.05 75.20 16.00 338.21 2589.60
   14:23:40.627.09-Sep-2020 5408.01  605.05 75.20 16.00 338.41 2589.60
   14:23:40.828.09-Sep-2020 5408.01  605.40 75.20 16.00 338.61 2589.60
   14:23:41.028.09-Sep-2020 5408.01  605.58 75.20 16.00 338.81 2589.60
   14:23:41.228.09-Sep-2020 5408.01  605.27 75.20 16.00 339.01 2589.60
