~Version Information
 VERS.                  2.0:   CWLS log ASCII Standard -VERSION 2.0
 WRAP.                   NO:   One line per depth step
~Well Information Block
#MNEM.UNIT     VALUE/NAME     DESCRIPTION
#---------     -----------    ---------------------------
 STRT.S             17:25:53 09-Sep-20: START TIME 17:25:53 09-Sep-20
 STOP.S             17:34:04 09-Sep-20: STOP TIME  17:34:04 09-Sep-20
 STEP.S                   0.00: STEP TIME
 NULL.                 -999.25: NULL VALUE
 MDS .        Operator Entered:  MAG DATA SOURCE
 PDAT.          Mean Sea Level:  PERMANENT DATUM
 DCON.         Sperry Drilling:  DIRECTNL CONTR
 RIG .              West Azeri:  RIG NAME
 WELL.           C40 (Slot 20):  WELL NAME
 SRVC.     Turan Drilling Engineering:  CONTRACTOR
 FLD .                     ACG:  FIELD NAME
 CTRY.              Azerbaijan:  COUNTRY NAME
 PROV.                    Baku:  PROVINCE
 STAT.                    Baku:  STATE NAME
 REGN.                   EESSA:  REGION
 BASE.              Azerbaijan:  LOGGING EQUIPMENT BASE LOCATION
 COMP.     BP Exploration (Caspian Sea) Ltd:  COMPANY
 WTYP.                Deviated:  WELL TYPE
 SON .        AZ-XX-0906344804:  JOB NUMBER
 FTOP.          Formation Tops:  FORM TOPS DESC
 ILTD.               Lithology:  INTERP LTH DESC
 SVYD.                  Survey:  SURVEY DESC
 DMOD.             Drill Model:  DRILL MOD DESC
 HPTY.       Minimum Curvature:  HOLE POS TYPE
 NREF.                    Grid:  NORTH REFERENCE
 SPUD.               01-Jan-20:  SPUD DATE
 DATE.      00.59.44 15-Sep-20:  END TIME
 STIM.      12.00.00 12-Jun-20:  START TIME
 DMF .             Drill Floor:  DRILL MEAS FROM
 DFST.                        :  DIST FSL TEXT
 DFWT.                        :  DIST FWL TEXT
 API .                        :  API NUMBER
 CNTY.                        :  COUNTY
 UWI .                        :  UNIQUE WELL IDENTIFIER
 LOC .                        :  LOCATION
 LMF .             Drill Floor:  LOG MEASURED FROM
 VSNS.m                   2.88:  VERT SEC N/S
 VSEW.m                  -3.84:  VERT SEC E/W
 AGAP.m                  43.42:  AIR GAP
 APD .m                  43.42:  DEPTH ABOVE PD
 WDMS.m                 118.27:  WD ELEV
 EGL .m                   0.00:  GROUND ELEVATION
 EPD .m                   0.00:  ELEVATION
 AZTC.deg                 6.23:  AZM TOTAL CORR
 GRDC.deg                 0.20:  GRID CORRECTION
 MDEC.deg                 6.43:  MAGNETIC DECL
 MDIP.deg                59.49:  MAGNETIC DIP
 MFLD.nT              50277.00:  MAGNETIC FIELD
 GVFD.g                   1.00:  GRAVITY FIELD
 VSDR.deg               173.20:  VERT SEC DIRECT
 TDD .m                5790.01:  TOTAL DEPTH (DRILLER)
 SDEP.m                5231.01:  START DEPTH
 DFSL.m                   0.00:  DISTANCE FSL
 DFWL.m                   0.00:  DISTANCE FWL
 UTMY.m             4435808.83:  UTM Y
 UTMX.m              526266.40:  UTM X
 WHEW.m                  -3.84:  WELL HEAD E/W
 WHNS.m                   2.88:  WELL HEAD N/S
 LONG.deg                51.31:  LONGITUDE
 LATI.deg                40.06:  LATITUDE
 TVDS.m                  43.42:  TVDSS CORRECTN
 DEP .m                 430.08:  DEPTH
 EKB .m                  43.42:  KB ELEVATION
 EDF .m                  43.42:  DF ELEVATION
 TDL .m                 559.00:  TOTAL DEPTH (LOGGER)
 MAGU.                 1849381:  MAGUTM CHECKSUM
 VSC .                       0:  VS TO CLOSURE
~Parameter Information Block
#MNEM.UNIT       Value        Description
#---------     -----------    ---------------------------
 AV  .mps                 4.87:  Ann Velocity 
 AVMX.mps                 7.08:  Max Ann Veloc 
 AZIF.deg               108.87:  Azm, Final 
 BHAT.                  Rotary:  BHA Type 
 BROT.°/30m               0.35:  Build Rotating 
 BS  .in                  8.50:  Bit Size 
 BSZ .in                  8.50:  Bit Size 
 BTPL.psig              360.00:  Bit Press Loss 
 CABU.                     Yes:  Customer Abuse 
 COMM.                     ô¸n:  Run Comments 1 
 TCS .hr                106.24:  Time Ciculation Ended 
 CV  .mps                 1.77:  Crit Velocity 
 CVMX.mps                 2.03:  Max Crit Veloc 
 DD1 .         Aykhan Agagulov:  Direct Drillr 1 
 DD2 .            Nonso Okofor:  Direct Drillr 2 
 DDSV.               Geo-Pilot:  DD Service 
 DEFF.%                  98.00:  % Det Eff 
 DLRX.°/30m               0.50:  Dogleg Rot Max 
 DLSO.°/30m               0.40:  Dogleg Oriented 
 DLSX.°/30m               0.94:  Dogleg Str Max 
 DRET.      20.30.00 08-Sep-20:  Drill End Time 
 DRST.      22.15.00 06-Sep-20:  Drill Start Tim 
 DTIM.hr                 31.31:  Time Drilling 
 EDEP.m                5790.01:  End Depth 
 ENG1.           Amrah Tahirov:  Engineer 1 
 ENG2.         Dair Mahammadov:  Engineer 2 
 ENG3.           Emil Huseynov:  Engineer 3 
 ETIM.      04.01.04 12-Sep-20:  End Time 
 FLOI.gpm               450.00:  Flow In 
 FLON.gpm               450.00:  Flow In Min 
 FLOS.cptm                2.00:  Fluid Loss 
 FLOX.gpm               450.00:  Flow In Max 
 FTRO.       Formation Presure:  FTWD Run Obj 
 HFLO.                      No:  High Flow 
 HPRE.                      No:  High Pressure 
 HTEM.                      No:  High Temp 
 HYDO.m                   1.80:  Hydro Offset 
 IFIN.deg                72.03:  Inc, Final 
 IMAX.deg                73.72:  Inc Max 
 IMIN.deg                70.94:  Inc Min 
 IMND.m                5508.52:  Inc Min Depth 
 IMXD.m                5253.60:  Inc Max Depth 
 JARR.                      No:  Jarring 
 LETM.      20.30.00 08-Sep-20:  Log End Time 
 LOST.hr                     0:  Lost Rig Time 
 LSTM.      22.15.00 06-Sep-20:  Log Start Time 
 MDCL.ppm             36000.00:  Mud Chlorides 
 MDES.     Inversion Oil/Synthetic:  Mud Desc 
 DFD .sg                  1.44:  Mud Density 
 MDMN.sg                  1.44:  Dens Mud Min 
 MDMX.sg                  1.57:  Dens Mud Max 
 MOIL.                      70:  Run Mud Oil % 
 MOWR.                   70:30:  Run Mud OWR 
 MSND.                       0:  Run Mud Sand % 
 MSOL.                      21:  Run Mud Solids% 
 DFV .spqt               68.00:  Mud Viscosity 
 MWOD.in                  6.75:  MWD Tool OD 
 MWSI.                     Yes:  Serv Intrp, MWD 
 OTIM.hr                174.84:  Time Operating 
 PCON.           Look Like New:  Pad Condition 
 PMAX.psia            10616.93:  Press Op, Max 
 PV  .cP                 50.00:  Mud PV 
 RUN .                     700:  Run Number 
 ROPA.m/hr               14.24:  ROP Avg 
 ROPN.m/hr               10.00:  ROP Min 
 ROPX.m/hr               32.00:  ROP Max 
 RPMA.rpm               120.90:  RPM Surface Avg 
 RPMN.rpm               120.00:  RPM Surface Min 
 RPMX.rpm               140.00:  RPM Surface Max 
 RRUN.                    0700:  Rig Run Number 
 RTIM.hr                  3.20:  Time Reaming 
 SAZI.deg               109.99:  Azm, Start 
 SDEP.m                5231.01:  Start Depth 
 SIDD.                      No:  Serv Intrp, DD 
 SINC.deg                73.72:  Inc, Start 
 SPPA.psig             3051.00:  SPP Avg 
 SPPN.psig             2950.00:  SPP Min 
 SPPX.psig             3250.00:  SPP Max 
 STIM.      08.00.00 05-Sep-20:  Start Time 
 SVCS.                 DD, MWD:  Services 
 SVER.                    9.20:  Sperry Version 
 TDAT.m                 559.00:  Tot Depth Attmp 
 TDDF.                      No:  Trip for DD 
 TDLG.m                 559.00:  Tot Depth Loggd 
 TFF .                      No:  Trip for Fail 
 TQAA.f-kp               26.49:  Torque Abs Avg 
 TQAN.f-kp               25.00:  Torque Abs Min 
 TQAX.f-kp               27.00:  Torque Abs Max 
 TRRT.°/30m               1.50:  Turn Rotating 
 MRT .                    HCIM:  Maximum Recorded Temperature 
 TTMX.degC               90.20:  Max Tool Temp 
 VS01.                90542671:  Virtual Str1 SN 
 VS02.                90545185:  Virtual Str2 SN 
 VS03.                90602015:  Virtual Str3 SN 
 VS04.                90515230:  Virtual Str4 SN 
 WBMN.klb                 5.00:  WOB Min 
 WOBA.klb                14.79:  WOB Avg 
 WOBX.klb                20.00:  WOB Max 
 YP  .lhf2               29.00:  Yield Point 
~Curve Information Block
#MNEM.UNIT                 API CODE     Curve Description
#---------               -----------    ---------------------------
 TIME.HHMMSS            00 000 000 000:  GT Time & Date
 GTDEPTH.m              00 000 000 000:  GT Depth
 GTPQH.psia             00 000 000 000:  GT HR Quartz Pressure
 GTTQ.degC              00 000 000 000:  GT Quartz Temperature
 GTTN.NONE              00 000 000 000:  GT Test Number
 GTET.sec               00 000 000 000:  GT Elapsed Test Time
 GTTVD.m                00 000 000 000:  GT True Vertical Depth
#Other Information
#
#WARRANTY: Halliburton will use its best efforts to furnish customers with 
#accurate information and interpretations that are part of, and incident to, the services 
#provided.  However, Halliburton cannot and does not warrant the accuracy 
#or correctness of such information and interpretations.  Under no circumstances should any 
#such information or interpretation be relied upon as the sole basis for any drilling, 
#completion, production, or financial decision or any procedure involving any risk to the 
#safety of any drilling venture, drilling rig or its crew or any other third party.  The 
#Customer has full responsibility for all drilling, completion and production operation.  
#Halliburton makes no representations or warranties, either expressed or 
#implied, including, but not limited to, the implied warranties of merchantability or fitness 
#for a particular purpose, with respect to the services rendered.  In no event will 
#Halliburton be liable for failure to obtain any particular results or for 
#any damages, including, but not limited to, indirect, special or consequential damages, 
#resulting from the use of any information or interpretation provided by Halliburton.
#
~A           TIME           GTDEPTH  GTPQH  GTTQ  GTTN   GTET   GTTVD  
# ...
   17:33:47.936.09-Sep-2020 5302.51 6331.44 74.71 20.00 474.83 2556.93
   17:33:48.136.09-Sep-2020 5302.51 6331.59 74.71 20.00 475.03 2556.93
   17:33:48.336.09-Sep-2020 5302.51 6331.57 74.71 20.00 475.23 2556.93
   17:33:48.536.09-Sep-2020 5302.51 6331.57 74.71 20.00 475.43 2556.93
   17:33:48.737.09-Sep-2020 5302.51 6334.95 74.71 20.00 475.63 2556.93
   17:33:48.937.09-Sep-2020 5302.51 6334.31 74.71 20.00 475.83 2556.93
   17:33:49.137.09-Sep-2020 5302.51 6330.75 74.71 20.00 476.03 2556.93
   17:33:49.337.09-Sep-2020 5302.51 6332.16 74.71 20.00 476.23 2556.93
   17:33:49.537.09-Sep-2020 5302.51 6331.63 74.71 20.00 476.43 2556.93
   17:33:49.737.09-Sep-2020 5302.51 6332.74 74.71 20.00 476.63 2556.93
   17:33:49.937.09-Sep-2020 5302.51 6332.56 74.71 20.00 476.83 2556.93
   17:33:50.137.09-Sep-2020 5302.51 6332.01 74.71 20.00 477.03 2556.93
   17:33:50.337.09-Sep-2020 5302.51 6331.13 74.71 20.00 477.23 2556.93
   17:33:50.537.09-Sep-2020 5302.51 6331.13 74.71 20.00 477.43 2556.93
   17:33:50.738.09-Sep-2020 5302.51 6331.58 74.71 20.00 477.63 2556.93
   17:33:50.938.09-Sep-2020 5302.51 6331.25 74.71 20.00 477.83 2556.93
   17:33:51.138.09-Sep-2020 5302.51 6330.44 74.70 20.00 478.03 2556.93
   17:33:51.338.09-Sep-2020 5302.51 6330.44 74.70 20.00 478.23 2556.93
   17:33:51.538.09-Sep-2020 5302.51 6330.44 74.70 20.00 478.43 2556.93
   17:33:51.738.09-Sep-2020 5302.51 6330.25 74.70 20.00 478.63 2556.93
   17:33:51.938.09-Sep-2020 5302.51 6330.37 74.70 20.00 478.83 2556.93
   17:33:52.138.09-Sep-2020 5302.51 6334.20 74.70 20.00 479.03 2556.93
   17:33:52.338.09-Sep-2020 5302.51 6333.68 74.70 20.00 479.23 2556.93
   17:33:52.538.09-Sep-2020 5302.51 6333.68 74.70 20.00 479.43 2556.93
   17:33:52.739.09-Sep-2020 5302.51 6330.75 74.70 20.00 479.63 2556.93
   17:33:52.939.09-Sep-2020 5302.51 6330.21 74.70 20.00 479.83 2556.93
   17:33:53.139.09-Sep-2020 5302.51 6331.75 74.70 20.00 480.03 2556.93
   17:33:53.339.09-Sep-2020 5302.51 6341.62 74.70 20.00 480.23 2556.93
   17:33:53.539.09-Sep-2020 5302.51 6341.62 74.70 20.00 480.43 2556.93
   17:33:53.739.09-Sep-2020 5302.51 6328.58 74.70 20.00 480.63 2556.93
   17:33:53.939.09-Sep-2020 5302.51 6330.05 74.70 20.00 480.83 2556.93
   17:33:54.139.09-Sep-2020 5302.51 6330.69 74.70 20.00 481.03 2556.93
   17:33:54.339.09-Sep-2020 5302.51 6332.11 74.70 20.00 481.23 2556.93
   17:33:54.539.09-Sep-2020 5302.51 6332.11 74.70 20.00 481.43 2556.93
   17:33:54.739.09-Sep-2020 5302.51 6332.63 74.70 20.00 481.63 2556.93
   17:33:54.940.09-Sep-2020 5302.51 6337.54 74.70 20.00 481.83 2556.93
   17:33:55.140.09-Sep-2020 5302.51 6331.31 74.70 20.00 482.03 2556.93
   17:33:55.340.09-Sep-2020 5302.51 6332.93 74.70 20.00 482.23 2556.93
   17:33:55.540.09-Sep-2020 5302.51 6332.93 74.70 20.00 482.43 2556.93
   17:33:55.740.09-Sep-2020 5302.51 6332.10 74.70 20.00 482.63 2556.93
   17:33:55.940.09-Sep-2020 5302.51 6342.87 74.69 20.00 482.83 2556.93
   17:33:56.140.09-Sep-2020 5302.51 6331.79 74.69 20.00 483.03 2556.93
   17:33:56.340.09-Sep-2020 5302.51 6330.13 74.69 20.00 483.23 2556.93
   17:33:56.540.09-Sep-2020 5302.51 6330.13 74.69 20.00 483.43 2556.93
   17:33:56.740.09-Sep-2020 5302.51 6332.08 74.69 20.00 483.63 2556.93
   17:33:56.941.09-Sep-2020 5302.51 6333.95 74.69 20.00 483.83 2556.93
   17:33:57.141.09-Sep-2020 5302.51 6334.81 74.69 20.00 484.03 2556.93
   17:33:57.341.09-Sep-2020 5302.51 6333.41 74.69 20.00 484.23 2556.93
   17:33:57.541.09-Sep-2020 5302.51 6333.41 74.69 20.00 484.43 2556.93
   17:33:57.741.09-Sep-2020 5302.51 6332.70 74.69 20.00 484.63 2556.93
   17:33:57.941.09-Sep-2020 5302.51 6334.23 74.69 20.00 484.83 2556.93
   17:33:58.141.09-Sep-2020 5302.51 6332.51 74.69 20.00 485.03 2556.93
   17:33:58.341.09-Sep-2020 5302.51 6333.52 74.69 20.00 485.23 2556.93
   17:33:58.541.09-Sep-2020 5302.51 6333.52 74.69 20.00 485.43 2556.93
   17:33:58.741.09-Sep-2020 5302.51 6334.15 74.69 20.00 485.63 2556.93
   17:33:58.941.09-Sep-2020 5302.51 6332.05 74.69 20.00 485.83 2556.93
   17:33:59.142.09-Sep-2020 5302.51 6332.01 74.69 20.00 486.03 2556.93
   17:33:59.342.09-Sep-2020 5302.51 6332.28 74.69 20.00 486.23 2556.93
   17:33:59.542.09-Sep-2020 5302.51 6332.28 74.69 20.00 486.43 2556.93
   17:33:59.742.09-Sep-2020 5302.51 6332.36 74.69 20.00 486.63 2556.93
   17:33:59.942.09-Sep-2020 5302.51 6332.19 74.69 20.00 486.83 2556.93
   17:34:00.142.09-Sep-2020 5302.51 6332.21 74.69 20.00 487.03 2556.93
   17:34:00.342.09-Sep-2020 5302.51 6332.12 74.69 20.00 487.23 2556.93
   17:34:00.542.09-Sep-2020 5302.51 6332.12 74.69 20.00 487.43 2556.93
   17:34:00.742.09-Sep-2020 5302.51 6332.00 74.69 20.00 487.63 2556.93
   17:34:00.942.09-Sep-2020 5302.51 6331.94 74.69 20.00 487.83 2556.93
   17:34:01.143.09-Sep-2020 5302.51 6340.45 74.69 20.00 488.03 2556.93
   17:34:01.343.09-Sep-2020 5302.51 6329.81 74.69 20.00 488.23 2556.93
   17:34:01.543.09-Sep-2020 5302.51 6329.81 74.69 20.00 488.43 2556.93
   17:34:01.743.09-Sep-2020 5302.51 6331.72 74.69 20.00 488.63 2556.93
   17:34:01.943.09-Sep-2020 5302.51 6331.63 74.68 20.00 488.83 2556.93
   17:34:02.143.09-Sep-2020 5302.51 6332.52 74.68 20.00 489.03 2556.93
   17:34:02.343.09-Sep-2020 5302.51 6332.84 74.68 20.00 489.23 2556.93
   17:34:02.543.09-Sep-2020 5302.51 6332.84 74.68 20.00 489.43 2556.93
   17:34:02.743.09-Sep-2020 5302.51 6331.04 74.68 20.00 489.63 2556.93
   17:34:02.943.09-Sep-2020 5302.51 6331.02 74.68 20.00 489.83 2556.93
   17:34:03.143.09-Sep-2020 5302.51 6331.68 74.68 20.00 490.03 2556.93
   17:34:03.344.09-Sep-2020 5302.51 6330.76 74.68 20.00 490.23 2556.93
   17:34:03.544.09-Sep-2020 5302.51 6330.76 74.68 20.00 490.44 2556.93
   17:34:03.744.09-Sep-2020 5302.51 6330.20 74.68 20.00 490.64 2556.93
   17:34:03.944.09-Sep-2020 5302.51 6330.13 74.68 20.00 490.84 2556.93
   17:34:04.144.09-Sep-2020 5302.51 6330.20 74.68 20.00 491.04 2556.93
