~Version Information
 VERS.                  2.0:   CWLS log ASCII Standard -VERSION 2.0
 WRAP.                   NO:   One line per depth step
~Well Information Block
#MNEM.UNIT     VALUE/NAME     DESCRIPTION
#---------     -----------    ---------------------------
 STRT.S             11:14:18 09-Sep-20: START TIME 11:14:18 09-Sep-20
 STOP.S             11:21:20 09-Sep-20: STOP TIME  11:21:20 09-Sep-20
 STEP.S                   0.00: STEP TIME
 NULL.                 -999.25: NULL VALUE
 MDS .        Operator Entered:  MAG DATA SOURCE
 PDAT.          Mean Sea Level:  PERMANENT DATUM
 DCON.         Sperry Drilling:  DIRECTNL CONTR
 RIG .              West Azeri:  RIG NAME
 WELL.           C40 (Slot 20):  WELL NAME
 SRVC.     Turan Drilling Engineering:  CONTRACTOR
 FLD .                     ACG:  FIELD NAME
 CTRY.              Azerbaijan:  COUNTRY NAME
 PROV.                    Baku:  PROVINCE
 STAT.                    Baku:  STATE NAME
 REGN.                   EESSA:  REGION
 BASE.              Azerbaijan:  LOGGING EQUIPMENT BASE LOCATION
 COMP.     BP Exploration (Caspian Sea) Ltd:  COMPANY
 WTYP.                Deviated:  WELL TYPE
 SON .        AZ-XX-0906344804:  JOB NUMBER
 FTOP.          Formation Tops:  FORM TOPS DESC
 ILTD.               Lithology:  INTERP LTH DESC
 SVYD.                  Survey:  SURVEY DESC
 DMOD.             Drill Model:  DRILL MOD DESC
 HPTY.       Minimum Curvature:  HOLE POS TYPE
 NREF.                    Grid:  NORTH REFERENCE
 SPUD.               01-Jan-20:  SPUD DATE
 DATE.      00.59.44 15-Sep-20:  END TIME
 STIM.      12.00.00 12-Jun-20:  START TIME
 DMF .             Drill Floor:  DRILL MEAS FROM
 DFST.                        :  DIST FSL TEXT
 DFWT.                        :  DIST FWL TEXT
 API .                        :  API NUMBER
 CNTY.                        :  COUNTY
 UWI .                        :  UNIQUE WELL IDENTIFIER
 LOC .                        :  LOCATION
 LMF .             Drill Floor:  LOG MEASURED FROM
 VSNS.m                   2.88:  VERT SEC N/S
 VSEW.m                  -3.84:  VERT SEC E/W
 AGAP.m                  43.42:  AIR GAP
 APD .m                  43.42:  DEPTH ABOVE PD
 WDMS.m                 118.27:  WD ELEV
 EGL .m                   0.00:  GROUND ELEVATION
 EPD .m                   0.00:  ELEVATION
 AZTC.deg                 6.23:  AZM TOTAL CORR
 GRDC.deg                 0.20:  GRID CORRECTION
 MDEC.deg                 6.43:  MAGNETIC DECL
 MDIP.deg                59.49:  MAGNETIC DIP
 MFLD.nT              50277.00:  MAGNETIC FIELD
 GVFD.g                   1.00:  GRAVITY FIELD
 VSDR.deg               173.20:  VERT SEC DIRECT
 TDD .m                5790.01:  TOTAL DEPTH (DRILLER)
 SDEP.m                5231.01:  START DEPTH
 DFSL.m                   0.00:  DISTANCE FSL
 DFWL.m                   0.00:  DISTANCE FWL
 UTMY.m             4435808.83:  UTM Y
 UTMX.m              526266.40:  UTM X
 WHEW.m                  -3.84:  WELL HEAD E/W
 WHNS.m                   2.88:  WELL HEAD N/S
 LONG.deg                51.31:  LONGITUDE
 LATI.deg                40.06:  LATITUDE
 TVDS.m                  43.42:  TVDSS CORRECTN
 DEP .m                 430.08:  DEPTH
 EKB .m                  43.42:  KB ELEVATION
 EDF .m                  43.42:  DF ELEVATION
 TDL .m                 559.00:  TOTAL DEPTH (LOGGER)
 MAGU.                 1849381:  MAGUTM CHECKSUM
 VSC .                       0:  VS TO CLOSURE
~Parameter Information Block
#MNEM.UNIT       Value        Description
#---------     -----------    ---------------------------
 AV  .mps                 4.87:  Ann Velocity 
 AVMX.mps                 7.08:  Max Ann Veloc 
 AZIF.deg               108.87:  Azm, Final 
 BHAT.                  Rotary:  BHA Type 
 BROT.°/30m               0.35:  Build Rotating 
 BS  .in                  8.50:  Bit Size 
 BSZ .in                  8.50:  Bit Size 
 BTPL.psig              360.00:  Bit Press Loss 
 CABU.                     Yes:  Customer Abuse 
 TCS .hr                106.24:  Time Ciculation Ended 
 CV  .mps                 1.77:  Crit Velocity 
 CVMX.mps                 2.03:  Max Crit Veloc 
 DD1 .         Aykhan Agagulov:  Direct Drillr 1 
 DD2 .            Nonso Okofor:  Direct Drillr 2 
 DDSV.               Geo-Pilot:  DD Service 
 DEFF.%                  98.00:  % Det Eff 
 DLRX.°/30m               0.50:  Dogleg Rot Max 
 DLSO.°/30m               0.40:  Dogleg Oriented 
 DLSX.°/30m               0.94:  Dogleg Str Max 
 DRET.      20.30.00 08-Sep-20:  Drill End Time 
 DRST.      22.15.00 06-Sep-20:  Drill Start Tim 
 DTIM.hr                 31.31:  Time Drilling 
 EDEP.m                5790.01:  End Depth 
 ENG1.           Amrah Tahirov:  Engineer 1 
 ENG2.         Dair Mahammadov:  Engineer 2 
 ENG3.           Emil Huseynov:  Engineer 3 
 ETIM.      04.01.04 12-Sep-20:  End Time 
 FLOI.gpm               450.00:  Flow In 
 FLON.gpm               450.00:  Flow In Min 
 FLOS.cptm                2.00:  Fluid Loss 
 FLOX.gpm               450.00:  Flow In Max 
 FTRO.       Formation Presure:  FTWD Run Obj 
 HFLO.                      No:  High Flow 
 HPRE.                      No:  High Pressure 
 HTEM.                      No:  High Temp 
 HYDO.m                   1.80:  Hydro Offset 
 IFIN.deg                72.03:  Inc, Final 
 IMAX.deg                73.72:  Inc Max 
 IMIN.deg                70.94:  Inc Min 
 IMND.m                5508.52:  Inc Min Depth 
 IMXD.m                5253.60:  Inc Max Depth 
 JARR.                      No:  Jarring 
 LETM.      20.30.00 08-Sep-20:  Log End Time 
 LOST.hr                     0:  Lost Rig Time 
 LSTM.      22.15.00 06-Sep-20:  Log Start Time 
 MDCL.ppm             36000.00:  Mud Chlorides 
 MDES.     Inversion Oil/Synthetic:  Mud Desc 
 DFD .sg                  1.44:  Mud Density 
 MDMN.sg                  1.44:  Dens Mud Min 
 MDMX.sg                  1.57:  Dens Mud Max 
 MOIL.                      70:  Run Mud Oil % 
 MOWR.                   70:30:  Run Mud OWR 
 MSND.                       0:  Run Mud Sand % 
 MSOL.                      21:  Run Mud Solids% 
 DFV .spqt               68.00:  Mud Viscosity 
 MWOD.in                  6.75:  MWD Tool OD 
 MWSI.                     Yes:  Serv Intrp, MWD 
 OTIM.hr                174.84:  Time Operating 
 PCON.           Look Like New:  Pad Condition 
 PMAX.psia            10616.93:  Press Op, Max 
 PV  .cP                 50.00:  Mud PV 
 RUN .                     700:  Run Number 
 ROPA.m/hr               14.24:  ROP Avg 
 ROPN.m/hr               10.00:  ROP Min 
 ROPX.m/hr               32.00:  ROP Max 
 RPMA.rpm               120.90:  RPM Surface Avg 
 RPMN.rpm               120.00:  RPM Surface Min 
 RPMX.rpm               140.00:  RPM Surface Max 
 RRUN.                    0700:  Rig Run Number 
 RTIM.hr                  3.20:  Time Reaming 
 SAZI.deg               109.99:  Azm, Start 
 SDEP.m                5231.01:  Start Depth 
 SIDD.                      No:  Serv Intrp, DD 
 SINC.deg                73.72:  Inc, Start 
 SPPA.psig             3051.00:  SPP Avg 
 SPPN.psig             2950.00:  SPP Min 
 SPPX.psig             3250.00:  SPP Max 
 STIM.      08.00.00 05-Sep-20:  Start Time 
 SVCS.                 DD, MWD:  Services 
 SVER.                    9.20:  Sperry Version 
 TDAT.m                 559.00:  Tot Depth Attmp 
 TDDF.                      No:  Trip for DD 
 TDLG.m                 559.00:  Tot Depth Loggd 
 TFF .                      No:  Trip for Fail 
 TQAA.f-kp               26.49:  Torque Abs Avg 
 TQAN.f-kp               25.00:  Torque Abs Min 
 TQAX.f-kp               27.00:  Torque Abs Max 
 TRRT.°/30m               1.50:  Turn Rotating 
 MRT .                    HCIM:  Maximum Recorded Temperature 
 TTMX.degC               90.20:  Max Tool Temp 
 VS01.                90542671:  Virtual Str1 SN 
 VS02.                90545185:  Virtual Str2 SN 
 VS03.                90602015:  Virtual Str3 SN 
 VS04.                90515230:  Virtual Str4 SN 
 WBMN.klb                 5.00:  WOB Min 
 WOBA.klb                14.79:  WOB Avg 
 WOBX.klb                20.00:  WOB Max 
 YP  .lhf2               29.00:  Yield Point 
~Curve Information Block
#MNEM.UNIT                 API CODE     Curve Description
#---------               -----------    ---------------------------
 TIME.HHMMSS            00 000 000 000:  GT Time & Date
 GTDEPTH.m              00 000 000 000:  GT Depth
 GTPQH.psia             00 000 000 000:  GT HR Quartz Pressure
 GTTQ.degC              00 000 000 000:  GT Quartz Temperature
 GTTN.NONE              00 000 000 000:  GT Test Number
 GTET.sec               00 000 000 000:  GT Elapsed Test Time
 GTTVD.m                00 000 000 000:  GT True Vertical Depth
#Other Information
#
#WARRANTY: Halliburton will use its best efforts to furnish customers with 
#accurate information and interpretations that are part of, and incident to, the services 
#provided.  However, Halliburton cannot and does not warrant the accuracy 
#or correctness of such information and interpretations.  Under no circumstances should any 
#such information or interpretation be relied upon as the sole basis for any drilling, 
#completion, production, or financial decision or any procedure involving any risk to the 
#safety of any drilling venture, drilling rig or its crew or any other third party.  The 
#Customer has full responsibility for all drilling, completion and production operation.  
#Halliburton makes no representations or warranties, either expressed or 
#implied, including, but not limited to, the implied warranties of merchantability or fitness 
#for a particular purpose, with respect to the services rendered.  In no event will 
#Halliburton be liable for failure to obtain any particular results or for 
#any damages, including, but not limited to, indirect, special or consequential damages, 
#resulting from the use of any information or interpretation provided by Halliburton.
#
~A           TIME           GTDEPTH  GTPQH  GTTQ  GTTN   GTET   GTTVD  
# ...
   11:15:48.935.09-Sep-2020 5442.01 3582.05 76.12 11.00  90.42 2600.30
   11:15:49.135.09-Sep-2020 5442.01 3582.07 76.12 11.00  90.63 2600.30
   11:15:49.335.09-Sep-2020 5442.01 3582.05 76.12 11.00  90.83 2600.30
   11:15:49.536.09-Sep-2020 5442.01 3582.05 76.12 11.00  91.03 2600.30
   11:15:49.736.09-Sep-2020 5442.01 3582.05 76.12 11.00  91.23 2600.30
   11:15:49.936.09-Sep-2020 5442.01 3582.06 76.12 11.00  91.43 2600.30
   11:15:50.136.09-Sep-2020 5442.01 3582.07 76.12 11.00  91.63 2600.30
   11:15:50.336.09-Sep-2020 5442.01 3582.06 76.12 11.00  91.83 2600.30
   11:15:50.536.09-Sep-2020 5442.01 3582.08 76.12 11.00  92.03 2600.30
   11:15:50.736.09-Sep-2020 5442.01 3582.07 76.12 11.00  92.23 2600.30
   11:15:50.936.09-Sep-2020 5442.01 3582.07 76.12 11.00  92.43 2600.30
   11:15:51.136.09-Sep-2020 5442.01 3582.07 76.12 11.00  92.63 2600.30
   11:15:51.336.09-Sep-2020 5442.01 3582.07 76.12 11.00  92.83 2600.30
   11:15:51.536.09-Sep-2020 5442.01 3582.08 76.12 11.00  93.03 2600.30
   11:15:51.736.09-Sep-2020 5442.01 3582.08 76.12 11.00  93.23 2600.30
   11:15:51.936.09-Sep-2020 5442.01 3582.01 76.12 11.00  93.43 2600.30
   11:15:52.136.09-Sep-2020 5442.01 3582.13 76.12 11.00  93.63 2600.30
   11:15:52.336.09-Sep-2020 5442.01 3582.08 76.12 11.00  93.83 2600.30
   11:15:52.536.09-Sep-2020 5442.01 3582.07 76.12 11.00  94.03 2600.30
   11:15:52.736.09-Sep-2020 5442.01 3582.07 76.12 11.00  94.23 2600.30
   11:15:52.936.09-Sep-2020 5442.01 3582.07 76.12 11.00  94.43 2600.30
   11:15:53.137.09-Sep-2020 5442.01 3582.08 76.12 11.00  94.63 2600.30
   11:15:53.337.09-Sep-2020 5442.01 3582.08 76.12 11.00  94.83 2600.30
   11:15:53.537.09-Sep-2020 5442.01 3582.08 76.12 11.00  95.03 2600.30
   11:15:53.737.09-Sep-2020 5442.01 3582.08 76.12 11.00  95.23 2600.30
   11:15:53.937.09-Sep-2020 5442.01 3582.08 76.12 11.00  95.43 2600.30
   11:15:54.137.09-Sep-2020 5442.01 3582.09 76.12 11.00  95.63 2600.30
   11:15:54.337.09-Sep-2020 5442.01 3582.08 76.12 11.00  95.83 2600.30
   11:15:54.537.09-Sep-2020 5442.01 3582.08 76.12 11.00  96.03 2600.30
   11:15:54.737.09-Sep-2020 5442.01 3582.08 76.12 11.00  96.23 2600.30
   11:15:54.937.09-Sep-2020 5442.01 3582.08 76.12 11.00  96.43 2600.30
   11:15:55.137.09-Sep-2020 5442.01 3582.09 76.12 11.00  96.63 2600.30
   11:15:55.337.09-Sep-2020 5442.01 3582.06 76.12 11.00  96.83 2600.30
   11:15:55.537.09-Sep-2020 5442.01 3582.13 76.12 11.00  97.03 2600.30
   11:15:55.737.09-Sep-2020 5442.01 3582.13 76.12 11.00  97.23 2600.30
   11:15:55.937.09-Sep-2020 5442.01 3582.09 76.12 11.00  97.43 2600.30
   11:15:56.137.09-Sep-2020 5442.01 3582.08 76.12 11.00  97.63 2600.30
   11:15:56.337.09-Sep-2020 5442.01 3582.09 76.12 11.00  97.83 2600.30
   11:15:56.537.09-Sep-2020 5442.01 3582.15 76.12 11.00  98.03 2600.30
   11:15:56.738.09-Sep-2020 5442.01 3582.15 76.12 11.00  98.23 2600.30
   11:15:56.938.09-Sep-2020 5442.01 3582.09 76.12 11.00  98.43 2600.30
   11:15:57.138.09-Sep-2020 5442.01 3582.08 76.12 11.00  98.63 2600.30
   11:15:57.338.09-Sep-2020 5442.01 3582.11 76.12 11.00  98.83 2600.30
   11:15:57.538.09-Sep-2020 5442.01 3582.08 76.12 11.00  99.03 2600.30
   11:15:57.738.09-Sep-2020 5442.01 3582.10 76.12 11.00  99.23 2600.30
   11:15:57.938.09-Sep-2020 5442.01 3582.09 76.12 11.00  99.43 2600.30
   11:15:58.138.09-Sep-2020 5442.01 3582.12 76.12 11.00  99.63 2600.30
   11:15:58.338.09-Sep-2020 5442.01 3582.08 76.12 11.00  99.83 2600.30
   11:15:58.538.09-Sep-2020 5442.01 3582.10 76.12 11.00 100.03 2600.30
   11:15:58.738.09-Sep-2020 5442.01 3582.09 76.12 11.00 100.23 2600.30
   11:15:58.938.09-Sep-2020 5442.01 3582.12 76.12 11.00 100.43 2600.30
   11:15:59.138.09-Sep-2020 5442.01 3582.08 76.12 11.00 100.63 2600.30
   11:15:59.338.09-Sep-2020 5442.01 3582.10 76.12 11.00 100.83 2600.30
   11:15:59.538.09-Sep-2020 5442.01 3582.08 76.12 11.00 101.03 2600.30
   11:15:59.738.09-Sep-2020 5442.01 3582.08 76.12 11.00 101.23 2600.30
   11:15:59.938.09-Sep-2020 5442.01 3582.09 76.12 11.00 101.43 2600.30
   11:16:00.138.09-Sep-2020 5442.01 3582.11 76.12 11.00 101.63 2600.30
   11:16:00.339.09-Sep-2020 5442.01 3582.09 76.12 11.00 101.83 2600.30
   11:16:00.539.09-Sep-2020 5442.01 3582.11 76.12 11.00 102.03 2600.30
   11:16:00.739.09-Sep-2020 5442.01 3582.11 76.12 11.00 102.23 2600.30
   11:16:00.939.09-Sep-2020 5442.01 3582.08 76.12 11.00 102.43 2600.30
   11:16:01.139.09-Sep-2020 5442.01 3582.14 76.13 11.00 102.63 2600.30
   11:16:01.339.09-Sep-2020 5442.01 3582.10 76.12 11.00 102.83 2600.30
   11:16:01.539.09-Sep-2020 5442.01 3582.11 76.12 11.00 103.03 2600.30
   11:16:01.739.09-Sep-2020 5442.01 3582.10 76.12 11.00 103.23 2600.30
   11:16:01.939.09-Sep-2020 5442.01 3582.12 76.13 11.00 103.43 2600.30
   11:16:02.139.09-Sep-2020 5442.01 3582.11 76.12 11.00 103.63 2600.30
   11:16:02.339.09-Sep-2020 5442.01 3582.12 76.12 11.00 103.83 2600.30
   11:16:02.539.09-Sep-2020 5442.01 3582.12 76.12 11.00 104.03 2600.30
   11:16:02.739.09-Sep-2020 5442.01 3582.12 76.12 11.00 104.23 2600.30
   11:16:02.939.09-Sep-2020 5442.01 3582.12 76.12 11.00 104.43 2600.30
   11:16:03.139.09-Sep-2020 5442.01 3582.12 76.12 11.00 104.63 2600.30
   11:16:03.339.09-Sep-2020 5442.01 3582.13 76.13 11.00 104.83 2600.30
   11:16:03.539.09-Sep-2020 5442.01 3582.12 76.12 11.00 105.03 2600.30
   11:16:03.739.09-Sep-2020 5442.01 3582.12 76.12 11.00 105.23 2600.30
   11:16:03.940.09-Sep-2020 5442.01 3582.12 76.13 11.00 105.43 2600.30
   11:16:04.140.09-Sep-2020 5442.01 3582.13 76.12 11.00 105.63 2600.30
   11:16:04.340.09-Sep-2020 5442.01 3582.12 76.12 11.00 105.83 2600.30
   11:16:04.540.09-Sep-2020 5442.01 3582.13 76.12 11.00 106.03 2600.30
   11:16:04.740.09-Sep-2020 5442.01 3582.13 76.12 11.00 106.23 2600.30
   11:16:04.940.09-Sep-2020 5442.01 3582.10 76.12 11.00 106.43 2600.30
   11:16:05.140.09-Sep-2020 5442.01 3582.13 76.12 11.00 106.63 2600.30
   11:16:05.340.09-Sep-2020 5442.01 3582.12 76.12 11.00 106.83 2600.30
   11:16:05.540.09-Sep-2020 5442.01 3582.14 76.13 11.00 107.03 2600.30
   11:16:05.740.09-Sep-2020 5442.01 3582.11 76.12 11.00 107.23 2600.30
   11:16:05.940.09-Sep-2020 5442.01 3582.12 76.13 11.00 107.43 2600.30
   11:16:06.140.09-Sep-2020 5442.01 3582.13 76.12 11.00 107.63 2600.30
   11:16:06.340.09-Sep-2020 5442.01 3582.13 76.12 11.00 107.83 2600.30
   11:16:06.540.09-Sep-2020 5442.01 3582.13 76.13 11.00 108.03 2600.30
   11:16:06.740.09-Sep-2020 5442.01 3582.13 76.12 11.00 108.23 2600.30
   11:16:06.940.09-Sep-2020 5442.01 3582.12 76.12 11.00 108.43 2600.30
   11:16:07.140.09-Sep-2020 5442.01 3582.13 76.12 11.00 108.63 2600.30
   11:16:07.340.09-Sep-2020 5442.01 3582.13 76.13 11.00 108.83 2600.30
   11:16:07.541.09-Sep-2020 5442.01 3582.14 76.12 11.00 109.03 2600.30
   11:16:07.741.09-Sep-2020 5442.01 3582.14 76.12 11.00 109.23 2600.30
   11:16:07.941.09-Sep-2020 5442.01 3582.08 76.13 11.00 109.43 2600.30
   11:16:08.141.09-Sep-2020 5442.01 3582.18 76.12 11.00 109.63 2600.30
   11:16:08.341.09-Sep-2020 5442.01 3582.14 76.12 11.00 109.83 2600.30
   11:16:08.541.09-Sep-2020 5442.01 3582.14 76.12 11.00 110.03 2600.30
   11:16:08.741.09-Sep-2020 5442.01 3582.14 76.12 11.00 110.23 2600.30
   11:16:08.941.09-Sep-2020 5442.01 3582.12 76.12 11.00 110.43 2600.30
   11:16:09.141.09-Sep-2020 5442.01 3582.10 76.13 11.00 110.63 2600.30
   11:16:09.341.09-Sep-2020 5442.01 3582.16 76.12 11.00 110.83 2600.30
   11:16:09.541.09-Sep-2020 5442.01 3582.13 76.12 11.00 111.03 2600.30
   11:16:09.741.09-Sep-2020 5442.01 3582.13 76.12 11.00 111.23 2600.30
   11:16:09.941.09-Sep-2020 5442.01 3582.12 76.12 11.00 111.43 2600.30
   11:16:10.141.09-Sep-2020 5442.01 3582.14 76.12 11.00 111.63 2600.30
   11:16:10.341.09-Sep-2020 5442.01 3582.13 76.13 11.00 111.83 2600.30
   11:16:10.541.09-Sep-2020 5442.01 3582.14 76.12 11.00 112.03 2600.30
   11:16:10.741.09-Sep-2020 5442.01 3582.19 76.12 11.00 112.23 2600.30
   11:16:10.941.09-Sep-2020 5442.01 3582.07 76.12 11.00 112.43 2600.30
   11:16:11.142.09-Sep-2020 5442.01 3582.14 76.12 11.00 112.63 2600.30
   11:16:11.342.09-Sep-2020 5442.01 3582.13 76.12 11.00 112.83 2600.30
