~Version Information
 VERS.                  2.0:   CWLS log ASCII Standard -VERSION 2.0
 WRAP.                   NO:   One line per depth step
~Well Information Block
#MNEM.UNIT     VALUE/NAME     DESCRIPTION
#---------     -----------    ---------------------------
 STRT.S             12:11:10 09-Sep-20: START TIME 12:11:10 09-Sep-20
 STOP.S             12:17:44 09-Sep-20: STOP TIME  12:17:44 09-Sep-20
 STEP.S                   0.00: STEP TIME
 NULL.                 -999.25: NULL VALUE
 MDS .        Operator Entered:  MAG DATA SOURCE
 PDAT.          Mean Sea Level:  PERMANENT DATUM
 DCON.         Sperry Drilling:  DIRECTNL CONTR
 RIG .              West Azeri:  RIG NAME
 WELL.           C40 (Slot 20):  WELL NAME
 SRVC.     Turan Drilling Engineering:  CONTRACTOR
 FLD .                     ACG:  FIELD NAME
 CTRY.              Azerbaijan:  COUNTRY NAME
 PROV.                    Baku:  PROVINCE
 STAT.                    Baku:  STATE NAME
 REGN.                   EESSA:  REGION
 BASE.              Azerbaijan:  LOGGING EQUIPMENT BASE LOCATION
 COMP.     BP Exploration (Caspian Sea) Ltd:  COMPANY
 WTYP.                Deviated:  WELL TYPE
 SON .        AZ-XX-0906344804:  JOB NUMBER
 FTOP.          Formation Tops:  FORM TOPS DESC
 ILTD.               Lithology:  INTERP LTH DESC
 SVYD.                  Survey:  SURVEY DESC
 DMOD.             Drill Model:  DRILL MOD DESC
 HPTY.       Minimum Curvature:  HOLE POS TYPE
 NREF.                    Grid:  NORTH REFERENCE
 SPUD.               01-Jan-20:  SPUD DATE
 DATE.      00.59.44 15-Sep-20:  END TIME
 STIM.      12.00.00 12-Jun-20:  START TIME
 DMF .             Drill Floor:  DRILL MEAS FROM
 DFST.                        :  DIST FSL TEXT
 DFWT.                        :  DIST FWL TEXT
 API .                        :  API NUMBER
 CNTY.                        :  COUNTY
 UWI .                        :  UNIQUE WELL IDENTIFIER
 LOC .                        :  LOCATION
 LMF .             Drill Floor:  LOG MEASURED FROM
 VSNS.m                   2.88:  VERT SEC N/S
 VSEW.m                  -3.84:  VERT SEC E/W
 AGAP.m                  43.42:  AIR GAP
 APD .m                  43.42:  DEPTH ABOVE PD
 WDMS.m                 118.27:  WD ELEV
 EGL .m                   0.00:  GROUND ELEVATION
 EPD .m                   0.00:  ELEVATION
 AZTC.deg                 6.23:  AZM TOTAL CORR
 GRDC.deg                 0.20:  GRID CORRECTION
 MDEC.deg                 6.43:  MAGNETIC DECL
 MDIP.deg                59.49:  MAGNETIC DIP
 MFLD.nT              50277.00:  MAGNETIC FIELD
 GVFD.g                   1.00:  GRAVITY FIELD
 VSDR.deg               173.20:  VERT SEC DIRECT
 TDD .m                5790.01:  TOTAL DEPTH (DRILLER)
 SDEP.m                5231.01:  START DEPTH
 DFSL.m                   0.00:  DISTANCE FSL
 DFWL.m                   0.00:  DISTANCE FWL
 UTMY.m             4435808.83:  UTM Y
 UTMX.m              526266.40:  UTM X
 WHEW.m                  -3.84:  WELL HEAD E/W
 WHNS.m                   2.88:  WELL HEAD N/S
 LONG.deg                51.31:  LONGITUDE
 LATI.deg                40.06:  LATITUDE
 TVDS.m                  43.42:  TVDSS CORRECTN
 DEP .m                 430.08:  DEPTH
 EKB .m                  43.42:  KB ELEVATION
 EDF .m                  43.42:  DF ELEVATION
 TDL .m                 559.00:  TOTAL DEPTH (LOGGER)
 MAGU.                 1849381:  MAGUTM CHECKSUM
 VSC .                       0:  VS TO CLOSURE
~Parameter Information Block
#MNEM.UNIT       Value        Description
#---------     -----------    ---------------------------
 AV  .mps                 4.87:  Ann Velocity 
 AVMX.mps                 7.08:  Max Ann Veloc 
 AZIF.deg               108.87:  Azm, Final 
 BHAT.                  Rotary:  BHA Type 
 BROT.°/30m               0.35:  Build Rotating 
 BS  .in                  8.50:  Bit Size 
 BSZ .in                  8.50:  Bit Size 
 BTPL.psig              360.00:  Bit Press Loss 
 CABU.                     Yes:  Customer Abuse 
 COMM.                     œ-L:  Run Comments 1 
 TCS .hr                106.24:  Time Ciculation Ended 
 CV  .mps                 1.77:  Crit Velocity 
 CVMX.mps                 2.03:  Max Crit Veloc 
 DD1 .         Aykhan Agagulov:  Direct Drillr 1 
 DD2 .            Nonso Okofor:  Direct Drillr 2 
 DDSV.               Geo-Pilot:  DD Service 
 DEFF.%                  98.00:  % Det Eff 
 DLRX.°/30m               0.50:  Dogleg Rot Max 
 DLSO.°/30m               0.40:  Dogleg Oriented 
 DLSX.°/30m               0.94:  Dogleg Str Max 
 DRET.      20.30.00 08-Sep-20:  Drill End Time 
 DRST.      22.15.00 06-Sep-20:  Drill Start Tim 
 DTIM.hr                 31.31:  Time Drilling 
 EDEP.m                5790.01:  End Depth 
 ENG1.           Amrah Tahirov:  Engineer 1 
 ENG2.         Dair Mahammadov:  Engineer 2 
 ENG3.           Emil Huseynov:  Engineer 3 
 ETIM.      04.01.04 12-Sep-20:  End Time 
 FLOI.gpm               450.00:  Flow In 
 FLON.gpm               450.00:  Flow In Min 
 FLOS.cptm                2.00:  Fluid Loss 
 FLOX.gpm               450.00:  Flow In Max 
 FTRO.       Formation Presure:  FTWD Run Obj 
 HFLO.                      No:  High Flow 
 HPRE.                      No:  High Pressure 
 HTEM.                      No:  High Temp 
 HYDO.m                   1.80:  Hydro Offset 
 IFIN.deg                72.03:  Inc, Final 
 IMAX.deg                73.72:  Inc Max 
 IMIN.deg                70.94:  Inc Min 
 IMND.m                5508.52:  Inc Min Depth 
 IMXD.m                5253.60:  Inc Max Depth 
 JARR.                      No:  Jarring 
 LETM.      20.30.00 08-Sep-20:  Log End Time 
 LOST.hr                     0:  Lost Rig Time 
 LSTM.      22.15.00 06-Sep-20:  Log Start Time 
 MDCL.ppm             36000.00:  Mud Chlorides 
 MDES.     Inversion Oil/Synthetic:  Mud Desc 
 DFD .sg                  1.44:  Mud Density 
 MDMN.sg                  1.44:  Dens Mud Min 
 MDMX.sg                  1.57:  Dens Mud Max 
 MOIL.                      70:  Run Mud Oil % 
 MOWR.                   70:30:  Run Mud OWR 
 MSND.                       0:  Run Mud Sand % 
 MSOL.                      21:  Run Mud Solids% 
 DFV .spqt               68.00:  Mud Viscosity 
 MWOD.in                  6.75:  MWD Tool OD 
 MWSI.                     Yes:  Serv Intrp, MWD 
 OTIM.hr                174.84:  Time Operating 
 PCON.           Look Like New:  Pad Condition 
 PMAX.psia            10616.93:  Press Op, Max 
 PV  .cP                 50.00:  Mud PV 
 RUN .                     700:  Run Number 
 ROPA.m/hr               14.24:  ROP Avg 
 ROPN.m/hr               10.00:  ROP Min 
 ROPX.m/hr               32.00:  ROP Max 
 RPMA.rpm               120.90:  RPM Surface Avg 
 RPMN.rpm               120.00:  RPM Surface Min 
 RPMX.rpm               140.00:  RPM Surface Max 
 RRUN.                    0700:  Rig Run Number 
 RTIM.hr                  3.20:  Time Reaming 
 SAZI.deg               109.99:  Azm, Start 
 SDEP.m                5231.01:  Start Depth 
 SIDD.                      No:  Serv Intrp, DD 
 SINC.deg                73.72:  Inc, Start 
 SPPA.psig             3051.00:  SPP Avg 
 SPPN.psig             2950.00:  SPP Min 
 SPPX.psig             3250.00:  SPP Max 
 STIM.      08.00.00 05-Sep-20:  Start Time 
 SVCS.                 DD, MWD:  Services 
 SVER.                    9.20:  Sperry Version 
 TDAT.m                 559.00:  Tot Depth Attmp 
 TDDF.                      No:  Trip for DD 
 TDLG.m                 559.00:  Tot Depth Loggd 
 TFF .                      No:  Trip for Fail 
 TQAA.f-kp               26.49:  Torque Abs Avg 
 TQAN.f-kp               25.00:  Torque Abs Min 
 TQAX.f-kp               27.00:  Torque Abs Max 
 TRRT.°/30m               1.50:  Turn Rotating 
 MRT .                    HCIM:  Maximum Recorded Temperature 
 TTMX.degC               90.20:  Max Tool Temp 
 VS01.                90542671:  Virtual Str1 SN 
 VS02.                90545185:  Virtual Str2 SN 
 VS03.                90602015:  Virtual Str3 SN 
 VS04.                90515230:  Virtual Str4 SN 
 WBMN.klb                 5.00:  WOB Min 
 WOBA.klb                14.79:  WOB Avg 
 WOBX.klb                20.00:  WOB Max 
 YP  .lhf2               29.00:  Yield Point 
~Curve Information Block
#MNEM.UNIT                 API CODE     Curve Description
#---------               -----------    ---------------------------
 TIME.HHMMSS            00 000 000 000:  GT Time & Date
 GTDEPTH.m              00 000 000 000:  GT Depth
 GTPQH.psia             00 000 000 000:  GT HR Quartz Pressure
 GTTQ.degC              00 000 000 000:  GT Quartz Temperature
 GTTN.NONE              00 000 000 000:  GT Test Number
 GTET.sec               00 000 000 000:  GT Elapsed Test Time
 GTTVD.m                00 000 000 000:  GT True Vertical Depth
#Other Information
#
#WARRANTY: Halliburton will use its best efforts to furnish customers with 
#accurate information and interpretations that are part of, and incident to, the services 
#provided.  However, Halliburton cannot and does not warrant the accuracy 
#or correctness of such information and interpretations.  Under no circumstances should any 
#such information or interpretation be relied upon as the sole basis for any drilling, 
#completion, production, or financial decision or any procedure involving any risk to the 
#safety of any drilling venture, drilling rig or its crew or any other third party.  The 
#Customer has full responsibility for all drilling, completion and production operation.  
#Halliburton makes no representations or warranties, either expressed or 
#implied, including, but not limited to, the implied warranties of merchantability or fitness 
#for a particular purpose, with respect to the services rendered.  In no event will 
#Halliburton be liable for failure to obtain any particular results or for 
#any damages, including, but not limited to, indirect, special or consequential damages, 
#resulting from the use of any information or interpretation provided by Halliburton.
#
~A           TIME           GTDEPTH  GTPQH  GTTQ  GTTN   GTET   GTTVD  
# ...
   12:15:41.200.09-Sep-2020 5424.01  572.06 75.70 13.00 271.20 2594.63
   12:15:41.400.09-Sep-2020 5424.01  572.62 75.70 13.00 271.40 2594.63
   12:15:41.600.09-Sep-2020 5424.01  574.29 75.70 13.00 271.60 2594.63
   12:15:41.800.09-Sep-2020 5424.01  574.93 75.70 13.00 271.80 2594.63
   12:15:42.000.09-Sep-2020 5424.01  575.61 75.70 13.00 272.00 2594.63
   12:15:42.200.09-Sep-2020 5424.01  575.61 75.70 13.00 272.20 2594.63
   12:15:42.400.09-Sep-2020 5424.01  577.20 75.70 13.00 272.40 2594.63
   12:15:42.600.09-Sep-2020 5424.01  577.85 75.70 13.00 272.60 2594.63
   12:15:42.800.09-Sep-2020 5424.01  577.76 75.70 13.00 272.80 2594.63
   12:15:43.000.09-Sep-2020 5424.01  579.22 75.70 13.00 273.00 2594.63
   12:15:43.200.09-Sep-2020 5424.01  579.22 75.70 13.00 273.20 2594.63
   12:15:43.400.09-Sep-2020 5424.01  580.61 75.70 13.00 273.40 2594.63
   12:15:43.600.09-Sep-2020 5424.01  581.49 75.70 13.00 273.60 2594.63
   12:15:43.800.09-Sep-2020 5424.01  582.02 75.70 13.00 273.80 2594.63
   12:15:44.000.09-Sep-2020 5424.01  582.76 75.70 13.00 274.00 2594.63
   12:15:44.200.09-Sep-2020 5424.01  583.46 75.70 13.00 274.20 2594.63
   12:15:44.400.09-Sep-2020 5424.01  584.19 75.70 13.00 274.40 2594.63
   12:15:44.600.09-Sep-2020 5424.01  584.89 75.70 13.00 274.60 2594.63
   12:15:44.800.09-Sep-2020 5424.01  585.62 75.70 13.00 274.80 2594.63
   12:15:45.000.09-Sep-2020 5424.01  586.30 75.70 13.00 275.00 2594.63
   12:15:45.200.09-Sep-2020 5424.01  586.30 75.70 13.00 275.20 2594.63
   12:15:45.400.09-Sep-2020 5424.01  587.68 75.70 13.00 275.40 2594.63
   12:15:45.600.09-Sep-2020 5424.01  588.38 75.70 13.00 275.60 2594.63
   12:15:45.800.09-Sep-2020 5424.01  589.12 75.70 13.00 275.80 2594.63
   12:15:46.000.09-Sep-2020 5424.01  589.83 75.70 13.00 276.00 2594.63
   12:15:46.200.09-Sep-2020 5424.01  589.83 75.70 13.00 276.20 2594.63
   12:15:46.400.09-Sep-2020 5424.01  590.29 75.70 13.00 276.40 2594.63
   12:15:46.600.09-Sep-2020 5424.01  591.94 75.70 13.00 276.60 2594.63
   12:15:46.800.09-Sep-2020 5424.01  592.52 75.70 13.00 276.80 2594.63
   12:15:47.000.09-Sep-2020 5424.01  593.17 75.70 13.00 277.00 2594.63
   12:15:47.200.09-Sep-2020 5424.01  593.17 75.70 13.00 277.20 2594.63
   12:15:47.400.09-Sep-2020 5424.01  594.65 75.70 13.00 277.40 2594.63
   12:15:47.600.09-Sep-2020 5424.01  595.27 75.70 13.00 277.60 2594.63
   12:15:47.800.09-Sep-2020 5424.01  595.95 75.70 13.00 277.80 2594.63
   12:15:48.000.09-Sep-2020 5424.01  596.65 75.70 13.00 278.00 2594.63
   12:15:48.200.09-Sep-2020 5424.01  597.30 75.70 13.00 278.20 2594.63
   12:15:48.400.09-Sep-2020 5424.01  597.96 75.70 13.00 278.40 2594.63
   12:15:48.600.09-Sep-2020 5424.01  598.65 75.70 13.00 278.60 2594.63
   12:15:48.800.09-Sep-2020 5424.01  599.33 75.70 13.00 278.80 2594.63
   12:15:49.000.09-Sep-2020 5424.01  600.04 75.70 13.00 279.00 2594.63
   12:15:49.200.09-Sep-2020 5424.01  600.04 75.70 13.00 279.20 2594.63
   12:15:49.400.09-Sep-2020 5424.01  601.40 75.70 13.00 279.40 2594.63
   12:15:49.600.09-Sep-2020 5424.01  601.12 75.70 13.00 279.60 2594.63
   12:15:49.800.09-Sep-2020 5424.01  602.75 75.70 13.00 279.80 2594.63
   12:15:50.000.09-Sep-2020 5424.01  603.33 75.70 13.00 280.00 2594.63
   12:15:50.200.09-Sep-2020 5424.01  603.33 75.70 13.00 280.20 2594.63
   12:15:50.400.09-Sep-2020 5424.01  604.65 75.70 13.00 280.40 2594.63
   12:15:50.600.09-Sep-2020 5424.01  605.40 75.70 13.00 280.60 2594.63
   12:15:50.800.09-Sep-2020 5424.01  605.19 75.70 13.00 280.80 2594.63
   12:15:51.000.09-Sep-2020 5424.01  606.58 75.70 13.00 281.00 2594.63
   12:15:51.200.09-Sep-2020 5424.01  606.58 75.70 13.00 281.20 2594.63
   12:15:51.400.09-Sep-2020 5424.01  607.88 75.70 13.00 281.40 2594.63
   12:15:51.600.09-Sep-2020 5424.01  608.70 75.70 13.00 281.60 2594.63
   12:15:51.800.09-Sep-2020 5424.01  608.32 75.70 13.00 281.80 2594.63
   12:15:52.000.09-Sep-2020 5424.01  609.98 75.70 13.00 282.00 2594.63
   12:15:52.200.09-Sep-2020 5424.01  610.54 75.70 13.00 282.20 2594.63
   12:15:52.400.09-Sep-2020 5424.01  611.20 75.70 13.00 282.40 2594.63
   12:15:52.600.09-Sep-2020 5424.01  611.87 75.70 13.00 282.60 2594.63
   12:15:52.800.09-Sep-2020 5424.01  612.60 75.70 13.00 282.80 2594.63
   12:15:53.000.09-Sep-2020 5424.01  612.37 75.70 13.00 283.00 2594.63
   12:15:53.200.09-Sep-2020 5424.01  612.37 75.70 13.00 283.20 2594.63
   12:15:53.400.09-Sep-2020 5424.01  614.41 75.70 13.00 283.40 2594.63
   12:15:53.600.09-Sep-2020 5424.01  615.04 75.70 13.00 283.60 2594.63
   12:15:53.800.09-Sep-2020 5424.01  615.14 75.70 13.00 283.80 2594.63
   12:15:54.000.09-Sep-2020 5424.01  616.31 75.70 13.00 284.00 2594.63
   12:15:54.200.09-Sep-2020 5424.01  616.31 75.70 13.00 284.20 2594.63
   12:15:54.400.09-Sep-2020 5424.01  617.61 75.70 13.00 284.40 2594.63
   12:15:54.600.09-Sep-2020 5424.01  618.46 75.70 13.00 284.60 2594.63
   12:15:54.800.09-Sep-2020 5424.01  618.92 75.70 13.00 284.80 2594.63
   12:15:55.000.09-Sep-2020 5424.01  619.63 75.70 13.00 285.00 2594.63
   12:15:55.200.09-Sep-2020 5424.01  619.63 75.70 13.00 285.20 2594.63
   12:15:55.400.09-Sep-2020 5424.01  620.96 75.70 13.00 285.40 2594.63
   12:15:55.600.09-Sep-2020 5424.01  621.58 75.70 13.00 285.60 2594.63
   12:15:55.800.09-Sep-2020 5424.01  622.26 75.70 13.00 285.80 2594.63
   12:15:56.000.09-Sep-2020 5424.01  622.92 75.70 13.00 286.00 2594.63
   12:15:56.200.09-Sep-2020 5424.01  623.57 75.70 13.00 286.20 2594.63
   12:15:56.400.09-Sep-2020 5424.01  624.20 75.70 13.00 286.40 2594.63
   12:15:56.600.09-Sep-2020 5424.01  624.83 75.70 13.00 286.60 2594.63
   12:15:56.800.09-Sep-2020 5424.01  625.49 75.70 13.00 286.80 2594.63
   12:15:57.000.09-Sep-2020 5424.01  626.17 75.70 13.00 287.00 2594.63
   12:15:57.200.09-Sep-2020 5424.01  626.17 75.70 13.00 287.20 2594.63
   12:15:57.400.09-Sep-2020 5424.01  626.57 75.70 13.00 287.40 2594.63
   12:15:57.600.09-Sep-2020 5424.01  628.22 75.70 13.00 287.60 2594.63
   12:15:57.800.09-Sep-2020 5424.01  628.73 75.70 13.00 287.80 2594.63
   12:15:58.000.09-Sep-2020 5424.01  629.33 75.70 13.00 288.00 2594.63
   12:15:58.200.09-Sep-2020 5424.01  629.33 75.70 13.00 288.20 2594.63
   12:15:58.400.09-Sep-2020 5424.01  630.73 75.70 13.00 288.40 2594.63
   12:15:58.600.09-Sep-2020 5424.01  631.30 75.70 13.00 288.60 2594.63
   12:15:58.800.09-Sep-2020 5424.01  631.93 75.70 13.00 288.80 2594.63
   12:15:59.000.09-Sep-2020 5424.01  632.59 75.70 13.00 289.00 2594.63
   12:15:59.200.09-Sep-2020 5424.01  632.59 75.70 13.00 289.20 2594.63
   12:15:59.400.09-Sep-2020 5424.01  633.90 75.70 13.00 289.40 2594.63
   12:15:59.600.09-Sep-2020 5424.01  634.52 75.70 13.00 289.60 2594.63
   12:15:59.800.09-Sep-2020 5424.01  635.14 75.70 13.00 289.80 2594.63
   12:16:00.000.09-Sep-2020 5424.01  635.76 75.70 13.00 290.00 2594.63
   12:16:00.200.09-Sep-2020 5424.01  635.76 75.70 13.00 290.20 2594.63
   12:16:00.400.09-Sep-2020 5424.01  637.10 75.70 13.00 290.40 2594.63
   12:16:00.600.09-Sep-2020 5424.01  636.81 75.70 13.00 290.60 2594.63
   12:16:00.800.09-Sep-2020 5424.01  638.41 75.70 13.00 290.80 2594.63
   12:16:01.000.09-Sep-2020 5424.01  638.88 75.70 13.00 291.00 2594.63
   12:16:01.200.09-Sep-2020 5424.01  638.88 75.70 13.00 291.20 2594.63
   12:16:01.400.09-Sep-2020 5424.01  640.19 75.70 13.00 291.40 2594.63
   12:16:01.600.09-Sep-2020 5424.01  640.91 75.70 13.00 291.60 2594.63
   12:16:01.800.09-Sep-2020 5424.01  640.66 75.70 13.00 291.80 2594.63
   12:16:02.000.09-Sep-2020 5424.01  641.95 75.70 13.00 292.00 2594.63
   12:16:02.200.09-Sep-2020 5424.01  641.95 75.70 13.00 292.20 2594.63
   12:16:02.400.09-Sep-2020 5424.01  643.19 75.70 13.00 292.40 2594.63
   12:16:02.600.09-Sep-2020 5424.01  642.99 75.70 13.00 292.60 2594.63
   12:16:02.800.09-Sep-2020 5424.01  644.82 75.70 13.00 292.80 2594.63
   12:16:03.000.09-Sep-2020 5424.01  645.14 75.70 13.00 293.00 2594.63
   12:16:03.200.09-Sep-2020 5424.01  645.14 75.70 13.00 293.20 2594.63
   12:16:03.400.09-Sep-2020 5424.01  646.34 75.70 13.00 293.40 2594.63
   12:16:03.600.09-Sep-2020 5424.01  647.16 75.70 13.00 293.60 2594.63
