~Version Information
 VERS.                  2.0:   CWLS log ASCII Standard -VERSION 2.0
 WRAP.                   NO:   One line per depth step
~Well Information Block
#MNEM.UNIT     VALUE/NAME     DESCRIPTION
#---------     -----------    ---------------------------
 STRT.S             05:36:14 09-Sep-20: START TIME 05:36:14 09-Sep-20
 STOP.S             05:43:10 09-Sep-20: STOP TIME  05:43:10 09-Sep-20
 STEP.S                   0.00: STEP TIME
 NULL.                 -999.25: NULL VALUE
 MDS .        Operator Entered:  MAG DATA SOURCE
 PDAT.          Mean Sea Level:  PERMANENT DATUM
 DCON.         Sperry Drilling:  DIRECTNL CONTR
 RIG .              West Azeri:  RIG NAME
 WELL.           C40 (Slot 20):  WELL NAME
 SRVC.     Turan Drilling Engineering:  CONTRACTOR
 FLD .                     ACG:  FIELD NAME
 CTRY.              Azerbaijan:  COUNTRY NAME
 PROV.                    Baku:  PROVINCE
 STAT.                    Baku:  STATE NAME
 REGN.                   EESSA:  REGION
 BASE.              Azerbaijan:  LOGGING EQUIPMENT BASE LOCATION
 COMP.     BP Exploration (Caspian Sea) Ltd:  COMPANY
 WTYP.                Deviated:  WELL TYPE
 SON .        AZ-XX-0906344804:  JOB NUMBER
 FTOP.          Formation Tops:  FORM TOPS DESC
 ILTD.               Lithology:  INTERP LTH DESC
 SVYD.                  Survey:  SURVEY DESC
 DMOD.             Drill Model:  DRILL MOD DESC
 HPTY.       Minimum Curvature:  HOLE POS TYPE
 NREF.                    Grid:  NORTH REFERENCE
 SPUD.               01-Jan-20:  SPUD DATE
 DATE.      00.59.44 15-Sep-20:  END TIME
 STIM.      12.00.00 12-Jun-20:  START TIME
 DMF .             Drill Floor:  DRILL MEAS FROM
 DFST.                        :  DIST FSL TEXT
 DFWT.                        :  DIST FWL TEXT
 API .                        :  API NUMBER
 CNTY.                        :  COUNTY
 UWI .                        :  UNIQUE WELL IDENTIFIER
 LOC .                        :  LOCATION
 LMF .             Drill Floor:  LOG MEASURED FROM
 VSNS.m                   2.88:  VERT SEC N/S
 VSEW.m                  -3.84:  VERT SEC E/W
 AGAP.m                  43.42:  AIR GAP
 APD .m                  43.42:  DEPTH ABOVE PD
 WDMS.m                 118.27:  WD ELEV
 EGL .m                   0.00:  GROUND ELEVATION
 EPD .m                   0.00:  ELEVATION
 AZTC.deg                 6.23:  AZM TOTAL CORR
 GRDC.deg                 0.20:  GRID CORRECTION
 MDEC.deg                 6.43:  MAGNETIC DECL
 MDIP.deg                59.49:  MAGNETIC DIP
 MFLD.nT              50277.00:  MAGNETIC FIELD
 GVFD.g                   1.00:  GRAVITY FIELD
 VSDR.deg               173.20:  VERT SEC DIRECT
 TDD .m                5790.01:  TOTAL DEPTH (DRILLER)
 SDEP.m                5231.01:  START DEPTH
 DFSL.m                   0.00:  DISTANCE FSL
 DFWL.m                   0.00:  DISTANCE FWL
 UTMY.m             4435808.83:  UTM Y
 UTMX.m              526266.40:  UTM X
 WHEW.m                  -3.84:  WELL HEAD E/W
 WHNS.m                   2.88:  WELL HEAD N/S
 LONG.deg                51.31:  LONGITUDE
 LATI.deg                40.06:  LATITUDE
 TVDS.m                  43.42:  TVDSS CORRECTN
 DEP .m                 430.08:  DEPTH
 EKB .m                  43.42:  KB ELEVATION
 EDF .m                  43.42:  DF ELEVATION
 TDL .m                 559.00:  TOTAL DEPTH (LOGGER)
 MAGU.                 1849381:  MAGUTM CHECKSUM
 VSC .                       0:  VS TO CLOSURE
~Parameter Information Block
#MNEM.UNIT       Value        Description
#---------     -----------    ---------------------------
 AV  .mps                 4.87:  Ann Velocity 
 AVMX.mps                 7.08:  Max Ann Veloc 
 AZIF.deg               108.87:  Azm, Final 
 BHAT.                  Rotary:  BHA Type 
 BROT.°/30m               0.35:  Build Rotating 
 BS  .in                  8.50:  Bit Size 
 BSZ .in                  8.50:  Bit Size 
 BTPL.psig              360.00:  Bit Press Loss 
 CABU.                     Yes:  Customer Abuse 
 COMM.                     ”£|:  Run Comments 1 
 TCS .hr                106.24:  Time Ciculation Ended 
 CV  .mps                 1.77:  Crit Velocity 
 CVMX.mps                 2.03:  Max Crit Veloc 
 DD1 .         Aykhan Agagulov:  Direct Drillr 1 
 DD2 .            Nonso Okofor:  Direct Drillr 2 
 DDSV.               Geo-Pilot:  DD Service 
 DEFF.%                  98.00:  % Det Eff 
 DLRX.°/30m               0.50:  Dogleg Rot Max 
 DLSO.°/30m               0.40:  Dogleg Oriented 
 DLSX.°/30m               0.94:  Dogleg Str Max 
 DRET.      20.30.00 08-Sep-20:  Drill End Time 
 DRST.      22.15.00 06-Sep-20:  Drill Start Tim 
 DTIM.hr                 31.31:  Time Drilling 
 EDEP.m                5790.01:  End Depth 
 ENG1.           Amrah Tahirov:  Engineer 1 
 ENG2.         Dair Mahammadov:  Engineer 2 
 ENG3.           Emil Huseynov:  Engineer 3 
 ETIM.      04.01.04 12-Sep-20:  End Time 
 FLOI.gpm               450.00:  Flow In 
 FLON.gpm               450.00:  Flow In Min 
 FLOS.cptm                2.00:  Fluid Loss 
 FLOX.gpm               450.00:  Flow In Max 
 FTRO.       Formation Presure:  FTWD Run Obj 
 HFLO.                      No:  High Flow 
 HPRE.                      No:  High Pressure 
 HTEM.                      No:  High Temp 
 HYDO.m                   1.80:  Hydro Offset 
 IFIN.deg                72.03:  Inc, Final 
 IMAX.deg                73.72:  Inc Max 
 IMIN.deg                70.94:  Inc Min 
 IMND.m                5508.52:  Inc Min Depth 
 IMXD.m                5253.60:  Inc Max Depth 
 JARR.                      No:  Jarring 
 LETM.      20.30.00 08-Sep-20:  Log End Time 
 LOST.hr                     0:  Lost Rig Time 
 LSTM.      22.15.00 06-Sep-20:  Log Start Time 
 MDCL.ppm             36000.00:  Mud Chlorides 
 MDES.     Inversion Oil/Synthetic:  Mud Desc 
 DFD .sg                  1.44:  Mud Density 
 MDMN.sg                  1.44:  Dens Mud Min 
 MDMX.sg                  1.57:  Dens Mud Max 
 MOIL.                      70:  Run Mud Oil % 
 MOWR.                   70:30:  Run Mud OWR 
 MSND.                       0:  Run Mud Sand % 
 MSOL.                      21:  Run Mud Solids% 
 DFV .spqt               68.00:  Mud Viscosity 
 MWOD.in                  6.75:  MWD Tool OD 
 MWSI.                     Yes:  Serv Intrp, MWD 
 OTIM.hr                174.84:  Time Operating 
 PCON.           Look Like New:  Pad Condition 
 PMAX.psia            10616.93:  Press Op, Max 
 PV  .cP                 50.00:  Mud PV 
 RUN .                     700:  Run Number 
 ROPA.m/hr               14.24:  ROP Avg 
 ROPN.m/hr               10.00:  ROP Min 
 ROPX.m/hr               32.00:  ROP Max 
 RPMA.rpm               120.90:  RPM Surface Avg 
 RPMN.rpm               120.00:  RPM Surface Min 
 RPMX.rpm               140.00:  RPM Surface Max 
 RRUN.                    0700:  Rig Run Number 
 RTIM.hr                  3.20:  Time Reaming 
 SAZI.deg               109.99:  Azm, Start 
 SDEP.m                5231.01:  Start Depth 
 SIDD.                      No:  Serv Intrp, DD 
 SINC.deg                73.72:  Inc, Start 
 SPPA.psig             3051.00:  SPP Avg 
 SPPN.psig             2950.00:  SPP Min 
 SPPX.psig             3250.00:  SPP Max 
 STIM.      08.00.00 05-Sep-20:  Start Time 
 SVCS.                 DD, MWD:  Services 
 SVER.                    9.20:  Sperry Version 
 TDAT.m                 559.00:  Tot Depth Attmp 
 TDDF.                      No:  Trip for DD 
 TDLG.m                 559.00:  Tot Depth Loggd 
 TFF .                      No:  Trip for Fail 
 TQAA.f-kp               26.49:  Torque Abs Avg 
 TQAN.f-kp               25.00:  Torque Abs Min 
 TQAX.f-kp               27.00:  Torque Abs Max 
 TRRT.°/30m               1.50:  Turn Rotating 
 MRT .                    HCIM:  Maximum Recorded Temperature 
 TTMX.degC               90.20:  Max Tool Temp 
 VS01.                90542671:  Virtual Str1 SN 
 VS02.                90545185:  Virtual Str2 SN 
 VS03.                90602015:  Virtual Str3 SN 
 VS04.                90515230:  Virtual Str4 SN 
 WBMN.klb                 5.00:  WOB Min 
 WOBA.klb                14.79:  WOB Avg 
 WOBX.klb                20.00:  WOB Max 
 YP  .lhf2               29.00:  Yield Point 
~Curve Information Block
#MNEM.UNIT                 API CODE     Curve Description
#---------               -----------    ---------------------------
 TIME.HHMMSS            00 000 000 000:  GT Time & Date
 GTDEPTH.m              00 000 000 000:  GT Depth
 GTPQH.psia             00 000 000 000:  GT HR Quartz Pressure
 GTTQ.degC              00 000 000 000:  GT Quartz Temperature
 GTTN.NONE              00 000 000 000:  GT Test Number
 GTET.sec               00 000 000 000:  GT Elapsed Test Time
 GTTVD.m                00 000 000 000:  GT True Vertical Depth
#Other Information
#
#WARRANTY: Halliburton will use its best efforts to furnish customers with 
#accurate information and interpretations that are part of, and incident to, the services 
#provided.  However, Halliburton cannot and does not warrant the accuracy 
#or correctness of such information and interpretations.  Under no circumstances should any 
#such information or interpretation be relied upon as the sole basis for any drilling, 
#completion, production, or financial decision or any procedure involving any risk to the 
#safety of any drilling venture, drilling rig or its crew or any other third party.  The 
#Customer has full responsibility for all drilling, completion and production operation.  
#Halliburton makes no representations or warranties, either expressed or 
#implied, including, but not limited to, the implied warranties of merchantability or fitness 
#for a particular purpose, with respect to the services rendered.  In no event will 
#Halliburton be liable for failure to obtain any particular results or for 
#any damages, including, but not limited to, indirect, special or consequential damages, 
#resulting from the use of any information or interpretation provided by Halliburton.
#
~A           TIME           GTDEPTH  GTPQH  GTTQ  GTTN  GTET   GTTVD  
# ...
   05:39:18.075.09-Sep-2020 5634.01 3689.25 79.95 1.00 183.99 2660.75
   05:39:18.275.09-Sep-2020 5634.01 3689.25 79.95 1.00 184.19 2660.75
   05:39:18.475.09-Sep-2020 5634.01 3689.26 79.95 1.00 184.39 2660.75
   05:39:18.675.09-Sep-2020 5634.01 3689.30 79.95 1.00 184.59 2660.75
   05:39:18.875.09-Sep-2020 5634.01 3689.28 79.94 1.00 184.79 2660.75
   05:39:19.075.09-Sep-2020 5634.01 3689.10 79.94 1.00 184.99 2660.75
   05:39:19.275.09-Sep-2020 5634.01 3689.10 79.94 1.00 185.19 2660.75
   05:39:19.475.09-Sep-2020 5634.01 3689.31 79.94 1.00 185.39 2660.75
   05:39:19.675.09-Sep-2020 5634.01 3689.24 79.94 1.00 185.59 2660.75
   05:39:19.875.09-Sep-2020 5634.01 3689.25 79.94 1.00 185.79 2660.75
   05:39:20.075.09-Sep-2020 5634.01 3689.30 79.94 1.00 185.99 2660.75
   05:39:20.275.09-Sep-2020 5634.01 3689.30 79.94 1.00 186.19 2660.75
   05:39:20.475.09-Sep-2020 5634.01 3689.29 79.94 1.00 186.39 2660.75
   05:39:20.675.09-Sep-2020 5634.01 3689.29 79.94 1.00 186.59 2660.75
   05:39:20.875.09-Sep-2020 5634.01 3689.28 79.94 1.00 186.79 2660.75
   05:39:21.075.09-Sep-2020 5634.01 3689.30 79.94 1.00 186.99 2660.75
   05:39:21.275.09-Sep-2020 5634.01 3689.30 79.94 1.00 187.19 2660.75
   05:39:21.475.09-Sep-2020 5634.01 3689.29 79.94 1.00 187.39 2660.75
   05:39:21.675.09-Sep-2020 5634.01 3689.29 79.94 1.00 187.59 2660.75
   05:39:21.875.09-Sep-2020 5634.01 3689.29 79.94 1.00 187.79 2660.75
   05:39:22.075.09-Sep-2020 5634.01 3689.29 79.94 1.00 187.99 2660.75
   05:39:22.275.09-Sep-2020 5634.01 3689.29 79.94 1.00 188.19 2660.75
   05:39:22.475.09-Sep-2020 5634.01 3689.29 79.94 1.00 188.39 2660.75
   05:39:22.675.09-Sep-2020 5634.01 3689.30 79.94 1.00 188.59 2660.75
   05:39:22.875.09-Sep-2020 5634.01 3689.30 79.94 1.00 188.79 2660.75
   05:39:23.075.09-Sep-2020 5634.01 3689.27 79.94 1.00 188.99 2660.75
   05:39:23.275.09-Sep-2020 5634.01 3689.27 79.94 1.00 189.19 2660.75
   05:39:23.475.09-Sep-2020 5634.01 3689.28 79.94 1.00 189.39 2660.75
   05:39:23.675.09-Sep-2020 5634.01 3689.25 79.94 1.00 189.59 2660.75
   05:39:23.875.09-Sep-2020 5634.01 3689.33 79.94 1.00 189.79 2660.75
   05:39:24.075.09-Sep-2020 5634.01 3689.28 79.94 1.00 189.99 2660.75
   05:39:24.275.09-Sep-2020 5634.01 3689.28 79.94 1.00 190.19 2660.75
   05:39:24.475.09-Sep-2020 5634.01 3689.28 79.94 1.00 190.39 2660.75
   05:39:24.675.09-Sep-2020 5634.01 3689.29 79.94 1.00 190.59 2660.75
   05:39:24.875.09-Sep-2020 5634.01 3689.29 79.94 1.00 190.79 2660.75
   05:39:25.075.09-Sep-2020 5634.01 3689.28 79.94 1.00 190.99 2660.75
   05:39:25.275.09-Sep-2020 5634.01 3689.28 79.94 1.00 191.19 2660.75
   05:39:25.475.09-Sep-2020 5634.01 3689.29 79.94 1.00 191.39 2660.75
   05:39:25.675.09-Sep-2020 5634.01 3689.30 79.94 1.00 191.59 2660.75
   05:39:25.875.09-Sep-2020 5634.01 3689.29 79.94 1.00 191.79 2660.75
   05:39:26.075.09-Sep-2020 5634.01 3689.30 79.94 1.00 191.99 2660.75
   05:39:26.275.09-Sep-2020 5634.01 3689.30 79.94 1.00 192.19 2660.75
   05:39:26.475.09-Sep-2020 5634.01 3689.35 79.94 1.00 192.39 2660.75
   05:39:26.675.09-Sep-2020 5634.01 3689.28 79.94 1.00 192.59 2660.75
   05:39:26.875.09-Sep-2020 5634.01 3689.32 79.94 1.00 192.79 2660.75
   05:39:27.075.09-Sep-2020 5634.01 3689.29 79.94 1.00 192.99 2660.75
   05:39:27.275.09-Sep-2020 5634.01 3689.10 79.94 1.00 193.19 2660.75
   05:39:27.475.09-Sep-2020 5634.01 3689.48 79.94 1.00 193.39 2660.75
   05:39:27.675.09-Sep-2020 5634.01 3689.34 79.94 1.00 193.59 2660.75
   05:39:27.875.09-Sep-2020 5634.01 3689.25 79.94 1.00 193.79 2660.75
   05:39:28.075.09-Sep-2020 5634.01 3689.28 79.94 1.00 193.99 2660.75
   05:39:28.275.09-Sep-2020 5634.01 3689.28 79.94 1.00 194.19 2660.75
   05:39:28.475.09-Sep-2020 5634.01 3689.45 79.94 1.00 194.39 2660.75
   05:39:28.675.09-Sep-2020 5634.01 3689.14 79.94 1.00 194.59 2660.75
   05:39:28.875.09-Sep-2020 5634.01 3689.32 79.94 1.00 194.79 2660.75
   05:39:29.075.09-Sep-2020 5634.01 3689.28 79.94 1.00 194.99 2660.75
   05:39:29.275.09-Sep-2020 5634.01 3689.28 79.94 1.00 195.19 2660.75
   05:39:29.475.09-Sep-2020 5634.01 3689.26 79.94 1.00 195.39 2660.75
   05:39:29.675.09-Sep-2020 5634.01 3689.30 79.94 1.00 195.59 2660.75
   05:39:29.875.09-Sep-2020 5634.01 3689.29 79.94 1.00 195.79 2660.75
   05:39:30.075.09-Sep-2020 5634.01 3689.32 79.94 1.00 195.99 2660.75
   05:39:30.275.09-Sep-2020 5634.01 3689.32 79.94 1.00 196.19 2660.75
   05:39:30.475.09-Sep-2020 5634.01 3689.27 79.94 1.00 196.39 2660.75
   05:39:30.675.09-Sep-2020 5634.01 3689.33 79.94 1.00 196.59 2660.75
   05:39:30.875.09-Sep-2020 5634.01 3689.45 79.94 1.00 196.79 2660.75
   05:39:31.075.09-Sep-2020 5634.01 3689.14 79.94 1.00 196.99 2660.75
   05:39:31.275.09-Sep-2020 5634.01 3689.14 79.94 1.00 197.19 2660.75
   05:39:31.475.09-Sep-2020 5634.01 3689.29 79.94 1.00 197.39 2660.75
   05:39:31.675.09-Sep-2020 5634.01 3689.34 79.94 1.00 197.59 2660.75
   05:39:31.875.09-Sep-2020 5634.01 3689.27 79.94 1.00 197.79 2660.75
   05:39:32.075.09-Sep-2020 5634.01 3689.31 79.94 1.00 197.99 2660.75
   05:39:32.275.09-Sep-2020 5634.01 3689.31 79.94 1.00 198.19 2660.75
   05:39:32.475.09-Sep-2020 5634.01 3689.31 79.94 1.00 198.39 2660.75
   05:39:32.675.09-Sep-2020 5634.01 3689.30 79.94 1.00 198.59 2660.75
   05:39:32.875.09-Sep-2020 5634.01 3689.30 79.94 1.00 198.79 2660.75
   05:39:33.075.09-Sep-2020 5634.01 3689.31 79.94 1.00 198.99 2660.75
   05:39:33.275.09-Sep-2020 5634.01 3689.31 79.94 1.00 199.19 2660.75
   05:39:33.475.09-Sep-2020 5634.01 3689.30 79.94 1.00 199.39 2660.75
   05:39:33.675.09-Sep-2020 5634.01 3689.30 79.94 1.00 199.59 2660.75
   05:39:33.875.09-Sep-2020 5634.01 3689.30 79.94 1.00 199.79 2660.75
   05:39:34.075.09-Sep-2020 5634.01 3689.31 79.94 1.00 199.99 2660.75
   05:39:34.274.09-Sep-2020 5634.01 3689.31 79.94 1.00 200.19 2660.75
   05:39:34.474.09-Sep-2020 5634.01 3689.31 79.94 1.00 200.39 2660.75
   05:39:34.674.09-Sep-2020 5634.01 3689.26 79.94 1.00 200.59 2660.75
   05:39:34.874.09-Sep-2020 5634.01 3689.36 79.94 1.00 200.79 2660.75
   05:39:35.074.09-Sep-2020 5634.01 3689.30 79.94 1.00 200.99 2660.75
   05:39:35.274.09-Sep-2020 5634.01 3689.30 79.94 1.00 201.19 2660.75
   05:39:35.474.09-Sep-2020 5634.01 3689.31 79.94 1.00 201.39 2660.75
   05:39:35.674.09-Sep-2020 5634.01 3689.29 79.94 1.00 201.59 2660.75
   05:39:35.874.09-Sep-2020 5634.01 3689.32 79.94 1.00 201.79 2660.75
   05:39:36.074.09-Sep-2020 5634.01 3689.32 79.94 1.00 201.99 2660.75
   05:39:36.274.09-Sep-2020 5634.01 3689.32 79.94 1.00 202.19 2660.75
   05:39:36.474.09-Sep-2020 5634.01 3689.31 79.94 1.00 202.39 2660.75
   05:39:36.674.09-Sep-2020 5634.01 3689.30 79.94 1.00 202.59 2660.75
   05:39:36.874.09-Sep-2020 5634.01 3689.31 79.94 1.00 202.79 2660.75
   05:39:37.074.09-Sep-2020 5634.01 3689.31 79.94 1.00 202.99 2660.75
   05:39:37.274.09-Sep-2020 5634.01 3689.31 79.94 1.00 203.19 2660.75
   05:39:37.474.09-Sep-2020 5634.01 3689.32 79.94 1.00 203.39 2660.75
   05:39:37.674.09-Sep-2020 5634.01 3689.31 79.94 1.00 203.59 2660.75
   05:39:37.874.09-Sep-2020 5634.01 3689.30 79.94 1.00 203.79 2660.75
   05:39:38.074.09-Sep-2020 5634.01 3689.30 79.94 1.00 203.99 2660.75
   05:39:38.274.09-Sep-2020 5634.01 3689.30 79.94 1.00 204.19 2660.75
   05:39:38.474.09-Sep-2020 5634.01 3689.30 79.94 1.00 204.39 2660.75
   05:39:38.674.09-Sep-2020 5634.01 3689.27 79.94 1.00 204.59 2660.75
   05:39:38.874.09-Sep-2020 5634.01 3689.34 79.94 1.00 204.79 2660.75
   05:39:39.074.09-Sep-2020 5634.01 3689.48 79.94 1.00 204.99 2660.75
   05:39:39.274.09-Sep-2020 5634.01 3689.48 79.94 1.00 205.19 2660.75
   05:39:39.474.09-Sep-2020 5634.01 3689.33 79.94 1.00 205.39 2660.75
   05:39:39.674.09-Sep-2020 5634.01 3689.30 79.94 1.00 205.59 2660.75
   05:39:39.874.09-Sep-2020 5634.01 3689.34 79.94 1.00 205.79 2660.75
   05:39:40.074.09-Sep-2020 5634.01 3689.10 79.94 1.00 205.99 2660.75
   05:39:40.274.09-Sep-2020 5634.01 3689.10 79.94 1.00 206.19 2660.75
   05:39:40.474.09-Sep-2020 5634.01 3689.34 79.94 1.00 206.39 2660.75
   05:39:40.674.09-Sep-2020 5634.01 3689.27 79.94 1.00 206.59 2660.75
   05:39:40.874.09-Sep-2020 5634.01 3689.29 79.94 1.00 206.79 2660.75
