~Version Information
 VERS.                  2.0:   CWLS log ASCII Standard -VERSION 2.0
 WRAP.                   NO:   One line per depth step
~Well Information Block
#MNEM.UNIT     VALUE/NAME     DESCRIPTION
#---------     -----------    ---------------------------
 STRT.S             15:34:19 09-Sep-20: START TIME 15:34:19 09-Sep-20
 STOP.S             15:42:34 09-Sep-20: STOP TIME  15:42:34 09-Sep-20
 STEP.S                   0.00: STEP TIME
 NULL.                 -999.25: NULL VALUE
 MDS .        Operator Entered:  MAG DATA SOURCE
 PDAT.          Mean Sea Level:  PERMANENT DATUM
 DCON.         Sperry Drilling:  DIRECTNL CONTR
 RIG .              West Azeri:  RIG NAME
 WELL.           C40 (Slot 20):  WELL NAME
 SRVC.     Turan Drilling Engineering:  CONTRACTOR
 FLD .                     ACG:  FIELD NAME
 CTRY.              Azerbaijan:  COUNTRY NAME
 PROV.                    Baku:  PROVINCE
 STAT.                    Baku:  STATE NAME
 REGN.                   EESSA:  REGION
 BASE.              Azerbaijan:  LOGGING EQUIPMENT BASE LOCATION
 COMP.     BP Exploration (Caspian Sea) Ltd:  COMPANY
 WTYP.                Deviated:  WELL TYPE
 SON .        AZ-XX-0906344804:  JOB NUMBER
 FTOP.          Formation Tops:  FORM TOPS DESC
 ILTD.               Lithology:  INTERP LTH DESC
 SVYD.                  Survey:  SURVEY DESC
 DMOD.             Drill Model:  DRILL MOD DESC
 HPTY.       Minimum Curvature:  HOLE POS TYPE
 NREF.                    Grid:  NORTH REFERENCE
 SPUD.               01-Jan-20:  SPUD DATE
 DATE.      00.59.44 15-Sep-20:  END TIME
 STIM.      12.00.00 12-Jun-20:  START TIME
 DMF .             Drill Floor:  DRILL MEAS FROM
 DFST.                        :  DIST FSL TEXT
 DFWT.                        :  DIST FWL TEXT
 API .                        :  API NUMBER
 CNTY.                        :  COUNTY
 UWI .                        :  UNIQUE WELL IDENTIFIER
 LOC .                        :  LOCATION
 LMF .             Drill Floor:  LOG MEASURED FROM
 VSNS.m                   2.88:  VERT SEC N/S
 VSEW.m                  -3.84:  VERT SEC E/W
 AGAP.m                  43.42:  AIR GAP
 APD .m                  43.42:  DEPTH ABOVE PD
 WDMS.m                 118.27:  WD ELEV
 EGL .m                   0.00:  GROUND ELEVATION
 EPD .m                   0.00:  ELEVATION
 AZTC.deg                 6.23:  AZM TOTAL CORR
 GRDC.deg                 0.20:  GRID CORRECTION
 MDEC.deg                 6.43:  MAGNETIC DECL
 MDIP.deg                59.49:  MAGNETIC DIP
 MFLD.nT              50277.00:  MAGNETIC FIELD
 GVFD.g                   1.00:  GRAVITY FIELD
 VSDR.deg               173.20:  VERT SEC DIRECT
 TDD .m                5790.01:  TOTAL DEPTH (DRILLER)
 SDEP.m                5231.01:  START DEPTH
 DFSL.m                   0.00:  DISTANCE FSL
 DFWL.m                   0.00:  DISTANCE FWL
 UTMY.m             4435808.83:  UTM Y
 UTMX.m              526266.40:  UTM X
 WHEW.m                  -3.84:  WELL HEAD E/W
 WHNS.m                   2.88:  WELL HEAD N/S
 LONG.deg                51.31:  LONGITUDE
 LATI.deg                40.06:  LATITUDE
 TVDS.m                  43.42:  TVDSS CORRECTN
 DEP .m                 430.08:  DEPTH
 EKB .m                  43.42:  KB ELEVATION
 EDF .m                  43.42:  DF ELEVATION
 TDL .m                 559.00:  TOTAL DEPTH (LOGGER)
 MAGU.                 1849381:  MAGUTM CHECKSUM
 VSC .                       0:  VS TO CLOSURE
~Parameter Information Block
#MNEM.UNIT       Value        Description
#---------     -----------    ---------------------------
 AV  .mps                 4.87:  Ann Velocity 
 AVMX.mps                 7.08:  Max Ann Veloc 
 AZIF.deg               108.87:  Azm, Final 
 BHAT.                  Rotary:  BHA Type 
 BROT.°/30m               0.35:  Build Rotating 
 BS  .in                  8.50:  Bit Size 
 BSZ .in                  8.50:  Bit Size 
 BTPL.psig              360.00:  Bit Press Loss 
 CABU.                     Yes:  Customer Abuse 
 COMM.                     ¼m:  Run Comments 1 
 TCS .hr                106.24:  Time Ciculation Ended 
 CV  .mps                 1.77:  Crit Velocity 
 CVMX.mps                 2.03:  Max Crit Veloc 
 DD1 .         Aykhan Agagulov:  Direct Drillr 1 
 DD2 .            Nonso Okofor:  Direct Drillr 2 
 DDSV.               Geo-Pilot:  DD Service 
 DEFF.%                  98.00:  % Det Eff 
 DLRX.°/30m               0.50:  Dogleg Rot Max 
 DLSO.°/30m               0.40:  Dogleg Oriented 
 DLSX.°/30m               0.94:  Dogleg Str Max 
 DRET.      20.30.00 08-Sep-20:  Drill End Time 
 DRST.      22.15.00 06-Sep-20:  Drill Start Tim 
 DTIM.hr                 31.31:  Time Drilling 
 EDEP.m                5790.01:  End Depth 
 ENG1.           Amrah Tahirov:  Engineer 1 
 ENG2.         Dair Mahammadov:  Engineer 2 
 ENG3.           Emil Huseynov:  Engineer 3 
 ETIM.      04.01.04 12-Sep-20:  End Time 
 FLOI.gpm               450.00:  Flow In 
 FLON.gpm               450.00:  Flow In Min 
 FLOS.cptm                2.00:  Fluid Loss 
 FLOX.gpm               450.00:  Flow In Max 
 FTRO.       Formation Presure:  FTWD Run Obj 
 HFLO.                      No:  High Flow 
 HPRE.                      No:  High Pressure 
 HTEM.                      No:  High Temp 
 HYDO.m                   1.80:  Hydro Offset 
 IFIN.deg                72.03:  Inc, Final 
 IMAX.deg                73.72:  Inc Max 
 IMIN.deg                70.94:  Inc Min 
 IMND.m                5508.52:  Inc Min Depth 
 IMXD.m                5253.60:  Inc Max Depth 
 JARR.                      No:  Jarring 
 LETM.      20.30.00 08-Sep-20:  Log End Time 
 LOST.hr                     0:  Lost Rig Time 
 LSTM.      22.15.00 06-Sep-20:  Log Start Time 
 MDCL.ppm             36000.00:  Mud Chlorides 
 MDES.     Inversion Oil/Synthetic:  Mud Desc 
 DFD .sg                  1.44:  Mud Density 
 MDMN.sg                  1.44:  Dens Mud Min 
 MDMX.sg                  1.57:  Dens Mud Max 
 MOIL.                      70:  Run Mud Oil % 
 MOWR.                   70:30:  Run Mud OWR 
 MSND.                       0:  Run Mud Sand % 
 MSOL.                      21:  Run Mud Solids% 
 DFV .spqt               68.00:  Mud Viscosity 
 MWOD.in                  6.75:  MWD Tool OD 
 MWSI.                     Yes:  Serv Intrp, MWD 
 OTIM.hr                174.84:  Time Operating 
 PCON.           Look Like New:  Pad Condition 
 PMAX.psia            10616.93:  Press Op, Max 
 PV  .cP                 50.00:  Mud PV 
 RUN .                     700:  Run Number 
 ROPA.m/hr               14.24:  ROP Avg 
 ROPN.m/hr               10.00:  ROP Min 
 ROPX.m/hr               32.00:  ROP Max 
 RPMA.rpm               120.90:  RPM Surface Avg 
 RPMN.rpm               120.00:  RPM Surface Min 
 RPMX.rpm               140.00:  RPM Surface Max 
 RRUN.                    0700:  Rig Run Number 
 RTIM.hr                  3.20:  Time Reaming 
 SAZI.deg               109.99:  Azm, Start 
 SDEP.m                5231.01:  Start Depth 
 SIDD.                      No:  Serv Intrp, DD 
 SINC.deg                73.72:  Inc, Start 
 SPPA.psig             3051.00:  SPP Avg 
 SPPN.psig             2950.00:  SPP Min 
 SPPX.psig             3250.00:  SPP Max 
 STIM.      08.00.00 05-Sep-20:  Start Time 
 SVCS.                 DD, MWD:  Services 
 SVER.                    9.20:  Sperry Version 
 TDAT.m                 559.00:  Tot Depth Attmp 
 TDDF.                      No:  Trip for DD 
 TDLG.m                 559.00:  Tot Depth Loggd 
 TFF .                      No:  Trip for Fail 
 TQAA.f-kp               26.49:  Torque Abs Avg 
 TQAN.f-kp               25.00:  Torque Abs Min 
 TQAX.f-kp               27.00:  Torque Abs Max 
 TRRT.°/30m               1.50:  Turn Rotating 
 MRT .                    HCIM:  Maximum Recorded Temperature 
 TTMX.degC               90.20:  Max Tool Temp 
 VS01.                90542671:  Virtual Str1 SN 
 VS02.                90545185:  Virtual Str2 SN 
 VS03.                90602015:  Virtual Str3 SN 
 VS04.                90515230:  Virtual Str4 SN 
 WBMN.klb                 5.00:  WOB Min 
 WOBA.klb                14.79:  WOB Avg 
 WOBX.klb                20.00:  WOB Max 
 YP  .lhf2               29.00:  Yield Point 
~Curve Information Block
#MNEM.UNIT                 API CODE     Curve Description
#---------               -----------    ---------------------------
 TIME.HHMMSS            00 000 000 000:  GT Time & Date
 GTDEPTH.m              00 000 000 000:  GT Depth
 GTPQH.psia             00 000 000 000:  GT HR Quartz Pressure
 GTTQ.degC              00 000 000 000:  GT Quartz Temperature
 GTTN.NONE              00 000 000 000:  GT Test Number
 GTET.sec               00 000 000 000:  GT Elapsed Test Time
 GTTVD.m                00 000 000 000:  GT True Vertical Depth
#Other Information
#
#WARRANTY: Halliburton will use its best efforts to furnish customers with 
#accurate information and interpretations that are part of, and incident to, the services 
#provided.  However, Halliburton cannot and does not warrant the accuracy 
#or correctness of such information and interpretations.  Under no circumstances should any 
#such information or interpretation be relied upon as the sole basis for any drilling, 
#completion, production, or financial decision or any procedure involving any risk to the 
#safety of any drilling venture, drilling rig or its crew or any other third party.  The 
#Customer has full responsibility for all drilling, completion and production operation.  
#Halliburton makes no representations or warranties, either expressed or 
#implied, including, but not limited to, the implied warranties of merchantability or fitness 
#for a particular purpose, with respect to the services rendered.  In no event will 
#Halliburton be liable for failure to obtain any particular results or for 
#any damages, including, but not limited to, indirect, special or consequential damages, 
#resulting from the use of any information or interpretation provided by Halliburton.
#
~A           TIME           GTDEPTH  GTPQH  GTTQ  GTTN   GTET   GTTVD  
# ...
   15:42:13.600.09-Sep-2020 5351.51 6370.58 75.31 17.00 474.60 2571.85
   15:42:13.800.09-Sep-2020 5351.51 6370.79 75.31 17.00 474.80 2571.85
   15:42:14.000.09-Sep-2020 5351.51 6377.60 75.31 17.00 475.00 2571.85
   15:42:14.200.09-Sep-2020 5351.51 6369.28 75.31 17.00 475.20 2571.85
   15:42:14.400.09-Sep-2020 5351.51 6371.95 75.31 17.00 475.40 2571.85
   15:42:14.600.09-Sep-2020 5351.51 6369.89 75.31 17.00 475.60 2571.85
   15:42:14.800.09-Sep-2020 5351.51 6370.39 75.31 17.00 475.80 2571.85
   15:42:15.000.09-Sep-2020 5351.51 6373.84 75.31 17.00 476.00 2571.85
   15:42:15.200.09-Sep-2020 5351.51 6380.68 75.31 17.00 476.20 2571.85
   15:42:15.400.09-Sep-2020 5351.51 6366.96 75.31 17.00 476.40 2571.85
   15:42:15.600.09-Sep-2020 5351.51 6371.68 75.31 17.00 476.60 2571.85
   15:42:15.800.09-Sep-2020 5351.51 6370.41 75.31 17.00 476.80 2571.85
   15:42:16.000.09-Sep-2020 5351.51 6370.72 75.31 17.00 477.00 2571.85
   15:42:16.200.09-Sep-2020 5351.51 6370.72 75.31 17.00 477.20 2571.85
   15:42:16.400.09-Sep-2020 5351.51 6370.94 75.31 17.00 477.40 2571.85
   15:42:16.600.09-Sep-2020 5351.51 6378.51 75.31 17.00 477.60 2571.85
   15:42:16.800.09-Sep-2020 5351.51 6370.38 75.31 17.00 477.80 2571.85
   15:42:17.000.09-Sep-2020 5351.51 6372.82 75.31 17.00 478.00 2571.85
   15:42:17.200.09-Sep-2020 5351.51 6372.82 75.31 17.00 478.20 2571.85
   15:42:17.400.09-Sep-2020 5351.51 6370.98 75.31 17.00 478.40 2571.85
   15:42:17.600.09-Sep-2020 5351.51 6374.94 75.31 17.00 478.60 2571.85
   15:42:17.800.09-Sep-2020 5351.51 6371.58 75.31 17.00 478.80 2571.85
   15:42:18.000.09-Sep-2020 5351.51 6380.40 75.31 17.00 479.00 2571.85
   15:42:18.200.09-Sep-2020 5351.51 6380.40 75.31 17.00 479.20 2571.85
   15:42:18.400.09-Sep-2020 5351.51 6371.85 75.31 17.00 479.40 2571.85
   15:42:18.600.09-Sep-2020 5351.51 6372.45 75.31 17.00 479.60 2571.85
   15:42:18.800.09-Sep-2020 5351.51 6371.92 75.31 17.00 479.80 2571.85
   15:42:19.000.09-Sep-2020 5351.51 6375.39 75.31 17.00 480.00 2571.85
   15:42:19.200.09-Sep-2020 5351.51 6375.39 75.31 17.00 480.20 2571.85
   15:42:19.400.09-Sep-2020 5351.51 6376.55 75.30 17.00 480.40 2571.85
   15:42:19.600.09-Sep-2020 5351.51 6374.28 75.30 17.00 480.60 2571.85
   15:42:19.800.09-Sep-2020 5351.51 6372.52 75.30 17.00 480.80 2571.85
   15:42:20.000.09-Sep-2020 5351.51 6372.39 75.30 17.00 481.00 2571.85
   15:42:20.200.09-Sep-2020 5351.51 6372.39 75.30 17.00 481.20 2571.85
   15:42:20.400.09-Sep-2020 5351.51 6375.16 75.30 17.00 481.40 2571.85
   15:42:20.600.09-Sep-2020 5351.51 6374.58 75.30 17.00 481.60 2571.85
   15:42:20.800.09-Sep-2020 5351.51 6372.50 75.30 17.00 481.80 2571.85
   15:42:21.000.09-Sep-2020 5351.51 6372.99 75.30 17.00 482.00 2571.85
   15:42:21.200.09-Sep-2020 5351.51 6372.99 75.30 17.00 482.20 2571.85
   15:42:21.400.09-Sep-2020 5351.51 6373.61 75.30 17.00 482.40 2571.85
   15:42:21.600.09-Sep-2020 5351.51 6373.95 75.30 17.00 482.60 2571.85
   15:42:21.800.09-Sep-2020 5351.51 6374.19 75.30 17.00 482.80 2571.85
   15:42:22.000.09-Sep-2020 5351.51 6373.83 75.30 17.00 483.00 2571.85
   15:42:22.200.09-Sep-2020 5351.51 6373.83 75.30 17.00 483.20 2571.85
   15:42:22.400.09-Sep-2020 5351.51 6373.51 75.30 17.00 483.40 2571.85
   15:42:22.600.09-Sep-2020 5351.51 6373.36 75.30 17.00 483.60 2571.85
   15:42:22.800.09-Sep-2020 5351.51 6373.29 75.30 17.00 483.80 2571.85
   15:42:23.000.09-Sep-2020 5351.51 6383.59 75.30 17.00 484.00 2571.85
   15:42:23.200.09-Sep-2020 5351.51 6383.59 75.30 17.00 484.20 2571.85
   15:42:23.400.09-Sep-2020 5351.51 6373.81 75.30 17.00 484.40 2571.85
   15:42:23.600.09-Sep-2020 5351.51 6372.89 75.30 17.00 484.60 2571.85
   15:42:23.800.09-Sep-2020 5351.51 6372.48 75.30 17.00 484.80 2571.85
   15:42:24.000.09-Sep-2020 5351.51 6376.12 75.30 17.00 485.00 2571.85
   15:42:24.200.09-Sep-2020 5351.51 6376.12 75.30 17.00 485.20 2571.85
   15:42:24.400.09-Sep-2020 5351.51 6372.26 75.30 17.00 485.40 2571.85
   15:42:24.600.09-Sep-2020 5351.51 6371.93 75.30 17.00 485.60 2571.85
   15:42:24.800.09-Sep-2020 5351.51 6372.25 75.30 17.00 485.80 2571.85
   15:42:25.000.09-Sep-2020 5351.51 6371.84 75.30 17.00 486.00 2571.85
   15:42:25.200.09-Sep-2020 5351.51 6371.84 75.30 17.00 486.20 2571.85
   15:42:25.400.09-Sep-2020 5351.51 6370.70 75.30 17.00 486.40 2571.85
   15:42:25.600.09-Sep-2020 5351.51 6370.83 75.30 17.00 486.60 2571.85
   15:42:25.800.09-Sep-2020 5351.51 6370.49 75.30 17.00 486.80 2571.85
   15:42:26.000.09-Sep-2020 5351.51 6370.39 75.30 17.00 487.00 2571.85
   15:42:26.200.09-Sep-2020 5351.51 6370.64 75.30 17.00 487.20 2571.85
   15:42:26.400.09-Sep-2020 5351.51 6381.23 75.30 17.00 487.40 2571.85
   15:42:26.600.09-Sep-2020 5351.51 6365.83 75.30 17.00 487.60 2571.85
   15:42:26.800.09-Sep-2020 5351.51 6370.84 75.30 17.00 487.80 2571.85
   15:42:27.000.09-Sep-2020 5351.51 6370.12 75.30 17.00 488.00 2571.85
   15:42:27.200.09-Sep-2020 5351.51 6370.12 75.30 17.00 488.20 2571.85
   15:42:27.400.09-Sep-2020 5351.51 6374.08 75.30 17.00 488.40 2571.85
   15:42:27.600.09-Sep-2020 5351.51 6378.47 75.30 17.00 488.60 2571.85
   15:42:27.800.09-Sep-2020 5351.51 6369.37 75.30 17.00 488.80 2571.85
   15:42:28.000.09-Sep-2020 5351.51 6370.50 75.30 17.00 489.00 2571.85
   15:42:28.200.09-Sep-2020 5351.51 6370.50 75.30 17.00 489.20 2571.85
   15:42:28.400.09-Sep-2020 5351.51 6370.59 75.30 17.00 489.40 2571.85
   15:42:28.600.09-Sep-2020 5351.51 6374.36 75.30 17.00 489.60 2571.85
   15:42:28.800.09-Sep-2020 5351.51 6371.92 75.30 17.00 489.80 2571.85
   15:42:29.000.09-Sep-2020 5351.51 6381.54 75.30 17.00 490.00 2571.85
   15:42:29.200.09-Sep-2020 5351.51 6381.54 75.30 17.00 490.20 2571.85
   15:42:29.400.09-Sep-2020 5351.51 6372.05 75.29 17.00 490.40 2571.85
   15:42:29.600.09-Sep-2020 5351.51 6370.73 75.29 17.00 490.60 2571.85
   15:42:29.800.09-Sep-2020 5351.51 6370.97 75.29 17.00 490.80 2571.85
   15:42:30.000.09-Sep-2020 5351.51 6375.24 75.29 17.00 491.00 2571.85
   15:42:30.200.09-Sep-2020 5351.51 6382.09 75.29 17.00 491.20 2571.85
   15:42:30.400.09-Sep-2020 5351.51 6367.45 75.29 17.00 491.40 2571.85
   15:42:30.600.09-Sep-2020 5351.51 6372.61 75.29 17.00 491.60 2571.85
   15:42:30.800.09-Sep-2020 5351.51 6372.09 75.29 17.00 491.80 2571.85
   15:42:31.000.09-Sep-2020 5351.51 6371.75 75.29 17.00 492.00 2571.85
   15:42:31.200.09-Sep-2020 5351.51 6376.09 75.29 17.00 492.20 2571.85
   15:42:31.400.09-Sep-2020 5351.51 6372.26 75.29 17.00 492.40 2571.85
   15:42:31.600.09-Sep-2020 5351.51 6372.82 75.29 17.00 492.60 2571.85
   15:42:31.800.09-Sep-2020 5351.51 6380.63 75.29 17.00 492.80 2571.85
   15:42:32.000.09-Sep-2020 5351.51 6371.14 75.29 17.00 493.00 2571.85
   15:42:32.200.09-Sep-2020 5351.51 6371.14 75.29 17.00 493.20 2571.85
   15:42:32.400.09-Sep-2020 5351.51 6372.54 75.29 17.00 493.40 2571.85
   15:42:32.600.09-Sep-2020 5351.51 6372.61 75.29 17.00 493.60 2571.85
   15:42:32.800.09-Sep-2020 5351.51 6375.88 75.29 17.00 493.80 2571.85
   15:42:33.000.09-Sep-2020 5351.51 6373.06 75.29 17.00 494.00 2571.85
   15:42:33.200.09-Sep-2020 5351.51 6373.06 75.29 17.00 494.20 2571.85
   15:42:33.400.09-Sep-2020 5351.51 6371.90 75.29 17.00 494.40 2571.85
   15:42:33.600.09-Sep-2020 5351.51 6372.70 75.29 17.00 494.60 2571.85
   15:42:33.800.09-Sep-2020 5351.51 6372.10 75.29 17.00 494.80 2571.85
   15:42:34.000.09-Sep-2020 5351.51 6372.24 75.29 17.00 495.00 2571.85
   15:42:34.200.09-Sep-2020 5351.51 6372.24 75.29 17.00 495.20 2571.85
   15:42:34.400.09-Sep-2020 5351.51 6372.09 75.29 17.00 495.40 2571.85
   15:42:34.600.09-Sep-2020 5351.51 6371.81 75.29 17.00 495.60 2571.85
   15:42:34.800.09-Sep-2020 5351.51 6371.97 75.29 17.00 495.80 2571.85
