~Version Information
 VERS.                  2.0:   CWLS log ASCII Standard -VERSION 2.0
 WRAP.                   NO:   One line per depth step
~Well Information Block
#MNEM.UNIT     VALUE/NAME     DESCRIPTION
#---------     -----------    ---------------------------
 STRT.S             08:13:58 09-Sep-20: START TIME 08:13:58 09-Sep-20
 STOP.S             08:20:59 09-Sep-20: STOP TIME  08:20:59 09-Sep-20
 STEP.S                   0.00: STEP TIME
 NULL.                 -999.25: NULL VALUE
 MDS .        Operator Entered:  MAG DATA SOURCE
 PDAT.          Mean Sea Level:  PERMANENT DATUM
 DCON.         Sperry Drilling:  DIRECTNL CONTR
 RIG .              West Azeri:  RIG NAME
 WELL.           C40 (Slot 20):  WELL NAME
 SRVC.     Turan Drilling Engineering:  CONTRACTOR
 FLD .                     ACG:  FIELD NAME
 CTRY.              Azerbaijan:  COUNTRY NAME
 PROV.                    Baku:  PROVINCE
 STAT.                    Baku:  STATE NAME
 REGN.                   EESSA:  REGION
 BASE.              Azerbaijan:  LOGGING EQUIPMENT BASE LOCATION
 COMP.     BP Exploration (Caspian Sea) Ltd:  COMPANY
 WTYP.                Deviated:  WELL TYPE
 SON .        AZ-XX-0906344804:  JOB NUMBER
 FTOP.          Formation Tops:  FORM TOPS DESC
 ILTD.               Lithology:  INTERP LTH DESC
 SVYD.                  Survey:  SURVEY DESC
 DMOD.             Drill Model:  DRILL MOD DESC
 HPTY.       Minimum Curvature:  HOLE POS TYPE
 NREF.                    Grid:  NORTH REFERENCE
 SPUD.               01-Jan-20:  SPUD DATE
 DATE.      00.59.44 15-Sep-20:  END TIME
 STIM.      12.00.00 12-Jun-20:  START TIME
 DMF .             Drill Floor:  DRILL MEAS FROM
 DFST.                        :  DIST FSL TEXT
 DFWT.                        :  DIST FWL TEXT
 API .                        :  API NUMBER
 CNTY.                        :  COUNTY
 UWI .                        :  UNIQUE WELL IDENTIFIER
 LOC .                        :  LOCATION
 LMF .             Drill Floor:  LOG MEASURED FROM
 VSNS.m                   2.88:  VERT SEC N/S
 VSEW.m                  -3.84:  VERT SEC E/W
 AGAP.m                  43.42:  AIR GAP
 APD .m                  43.42:  DEPTH ABOVE PD
 WDMS.m                 118.27:  WD ELEV
 EGL .m                   0.00:  GROUND ELEVATION
 EPD .m                   0.00:  ELEVATION
 AZTC.deg                 6.23:  AZM TOTAL CORR
 GRDC.deg                 0.20:  GRID CORRECTION
 MDEC.deg                 6.43:  MAGNETIC DECL
 MDIP.deg                59.49:  MAGNETIC DIP
 MFLD.nT              50277.00:  MAGNETIC FIELD
 GVFD.g                   1.00:  GRAVITY FIELD
 VSDR.deg               173.20:  VERT SEC DIRECT
 TDD .m                5790.01:  TOTAL DEPTH (DRILLER)
 SDEP.m                5231.01:  START DEPTH
 DFSL.m                   0.00:  DISTANCE FSL
 DFWL.m                   0.00:  DISTANCE FWL
 UTMY.m             4435808.83:  UTM Y
 UTMX.m              526266.40:  UTM X
 WHEW.m                  -3.84:  WELL HEAD E/W
 WHNS.m                   2.88:  WELL HEAD N/S
 LONG.deg                51.31:  LONGITUDE
 LATI.deg                40.06:  LATITUDE
 TVDS.m                  43.42:  TVDSS CORRECTN
 DEP .m                 430.08:  DEPTH
 EKB .m                  43.42:  KB ELEVATION
 EDF .m                  43.42:  DF ELEVATION
 TDL .m                 559.00:  TOTAL DEPTH (LOGGER)
 MAGU.                 1849381:  MAGUTM CHECKSUM
 VSC .                       0:  VS TO CLOSURE
~Parameter Information Block
#MNEM.UNIT       Value        Description
#---------     -----------    ---------------------------
 AV  .mps                 4.87:  Ann Velocity 
 AVMX.mps                 7.08:  Max Ann Veloc 
 AZIF.deg               108.87:  Azm, Final 
 BHAT.                  Rotary:  BHA Type 
 BROT.°/30m               0.35:  Build Rotating 
 BS  .in                  8.50:  Bit Size 
 BSZ .in                  8.50:  Bit Size 
 BTPL.psig              360.00:  Bit Press Loss 
 CABU.                     Yes:  Customer Abuse 
 COMM.                     t›a:  Run Comments 1 
 TCS .hr                106.24:  Time Ciculation Ended 
 CV  .mps                 1.77:  Crit Velocity 
 CVMX.mps                 2.03:  Max Crit Veloc 
 DD1 .         Aykhan Agagulov:  Direct Drillr 1 
 DD2 .            Nonso Okofor:  Direct Drillr 2 
 DDSV.               Geo-Pilot:  DD Service 
 DEFF.%                  98.00:  % Det Eff 
 DLRX.°/30m               0.50:  Dogleg Rot Max 
 DLSO.°/30m               0.40:  Dogleg Oriented 
 DLSX.°/30m               0.94:  Dogleg Str Max 
 DRET.      20.30.00 08-Sep-20:  Drill End Time 
 DRST.      22.15.00 06-Sep-20:  Drill Start Tim 
 DTIM.hr                 31.31:  Time Drilling 
 EDEP.m                5790.01:  End Depth 
 ENG1.           Amrah Tahirov:  Engineer 1 
 ENG2.         Dair Mahammadov:  Engineer 2 
 ENG3.           Emil Huseynov:  Engineer 3 
 ETIM.      04.01.04 12-Sep-20:  End Time 
 FLOI.gpm               450.00:  Flow In 
 FLON.gpm               450.00:  Flow In Min 
 FLOS.cptm                2.00:  Fluid Loss 
 FLOX.gpm               450.00:  Flow In Max 
 FTRO.       Formation Presure:  FTWD Run Obj 
 HFLO.                      No:  High Flow 
 HPRE.                      No:  High Pressure 
 HTEM.                      No:  High Temp 
 HYDO.m                   1.80:  Hydro Offset 
 IFIN.deg                72.03:  Inc, Final 
 IMAX.deg                73.72:  Inc Max 
 IMIN.deg                70.94:  Inc Min 
 IMND.m                5508.52:  Inc Min Depth 
 IMXD.m                5253.60:  Inc Max Depth 
 JARR.                      No:  Jarring 
 LETM.      20.30.00 08-Sep-20:  Log End Time 
 LOST.hr                     0:  Lost Rig Time 
 LSTM.      22.15.00 06-Sep-20:  Log Start Time 
 MDCL.ppm             36000.00:  Mud Chlorides 
 MDES.     Inversion Oil/Synthetic:  Mud Desc 
 DFD .sg                  1.44:  Mud Density 
 MDMN.sg                  1.44:  Dens Mud Min 
 MDMX.sg                  1.57:  Dens Mud Max 
 MOIL.                      70:  Run Mud Oil % 
 MOWR.                   70:30:  Run Mud OWR 
 MSND.                       0:  Run Mud Sand % 
 MSOL.                      21:  Run Mud Solids% 
 DFV .spqt               68.00:  Mud Viscosity 
 MWOD.in                  6.75:  MWD Tool OD 
 MWSI.                     Yes:  Serv Intrp, MWD 
 OTIM.hr                174.84:  Time Operating 
 PCON.           Look Like New:  Pad Condition 
 PMAX.psia            10616.93:  Press Op, Max 
 PV  .cP                 50.00:  Mud PV 
 RUN .                     700:  Run Number 
 ROPA.m/hr               14.24:  ROP Avg 
 ROPN.m/hr               10.00:  ROP Min 
 ROPX.m/hr               32.00:  ROP Max 
 RPMA.rpm               120.90:  RPM Surface Avg 
 RPMN.rpm               120.00:  RPM Surface Min 
 RPMX.rpm               140.00:  RPM Surface Max 
 RRUN.                    0700:  Rig Run Number 
 RTIM.hr                  3.20:  Time Reaming 
 SAZI.deg               109.99:  Azm, Start 
 SDEP.m                5231.01:  Start Depth 
 SIDD.                      No:  Serv Intrp, DD 
 SINC.deg                73.72:  Inc, Start 
 SPPA.psig             3051.00:  SPP Avg 
 SPPN.psig             2950.00:  SPP Min 
 SPPX.psig             3250.00:  SPP Max 
 STIM.      08.00.00 05-Sep-20:  Start Time 
 SVCS.                 DD, MWD:  Services 
 SVER.                    9.20:  Sperry Version 
 TDAT.m                 559.00:  Tot Depth Attmp 
 TDDF.                      No:  Trip for DD 
 TDLG.m                 559.00:  Tot Depth Loggd 
 TFF .                      No:  Trip for Fail 
 TQAA.f-kp               26.49:  Torque Abs Avg 
 TQAN.f-kp               25.00:  Torque Abs Min 
 TQAX.f-kp               27.00:  Torque Abs Max 
 TRRT.°/30m               1.50:  Turn Rotating 
 MRT .                    HCIM:  Maximum Recorded Temperature 
 TTMX.degC               90.20:  Max Tool Temp 
 VS01.                90542671:  Virtual Str1 SN 
 VS02.                90545185:  Virtual Str2 SN 
 VS03.                90602015:  Virtual Str3 SN 
 VS04.                90515230:  Virtual Str4 SN 
 WBMN.klb                 5.00:  WOB Min 
 WOBA.klb                14.79:  WOB Avg 
 WOBX.klb                20.00:  WOB Max 
 YP  .lhf2               29.00:  Yield Point 
~Curve Information Block
#MNEM.UNIT                 API CODE     Curve Description
#---------               -----------    ---------------------------
 TIME.HHMMSS            00 000 000 000:  GT Time & Date
 GTDEPTH.m              00 000 000 000:  GT Depth
 GTPQH.psia             00 000 000 000:  GT HR Quartz Pressure
 GTTQ.degC              00 000 000 000:  GT Quartz Temperature
 GTTN.NONE              00 000 000 000:  GT Test Number
 GTET.sec               00 000 000 000:  GT Elapsed Test Time
 GTTVD.m                00 000 000 000:  GT True Vertical Depth
#Other Information
#
#WARRANTY: Halliburton will use its best efforts to furnish customers with 
#accurate information and interpretations that are part of, and incident to, the services 
#provided.  However, Halliburton cannot and does not warrant the accuracy 
#or correctness of such information and interpretations.  Under no circumstances should any 
#such information or interpretation be relied upon as the sole basis for any drilling, 
#completion, production, or financial decision or any procedure involving any risk to the 
#safety of any drilling venture, drilling rig or its crew or any other third party.  The 
#Customer has full responsibility for all drilling, completion and production operation.  
#Halliburton makes no representations or warranties, either expressed or 
#implied, including, but not limited to, the implied warranties of merchantability or fitness 
#for a particular purpose, with respect to the services rendered.  In no event will 
#Halliburton be liable for failure to obtain any particular results or for 
#any damages, including, but not limited to, indirect, special or consequential damages, 
#resulting from the use of any information or interpretation provided by Halliburton.
#
~A           TIME           GTDEPTH  GTPQH  GTTQ  GTTN  GTET   GTTVD  
# ...
   08:18:11.415.09-Sep-2020 5533.01 3703.79 78.00 5.00 253.10 2629.43
   08:18:11.615.09-Sep-2020 5533.01 3703.79 78.00 5.00 253.30 2629.43
   08:18:11.815.09-Sep-2020 5533.01 3703.77 78.00 5.00 253.50 2629.43
   08:18:12.015.09-Sep-2020 5533.01 3703.84 78.00 5.00 253.70 2629.43
   08:18:12.215.09-Sep-2020 5533.01 3703.33 78.00 5.00 253.90 2629.43
   08:18:12.415.09-Sep-2020 5533.01 3704.23 78.00 5.00 254.10 2629.43
   08:18:12.615.09-Sep-2020 5533.01 3704.23 78.00 5.00 254.30 2629.43
   08:18:12.815.09-Sep-2020 5533.01 3703.81 78.00 5.00 254.50 2629.43
   08:18:13.015.09-Sep-2020 5533.01 3703.74 78.00 5.00 254.70 2629.43
   08:18:13.215.09-Sep-2020 5533.01 3703.81 78.00 5.00 254.90 2629.43
   08:18:13.415.09-Sep-2020 5533.01 3703.77 78.00 5.00 255.10 2629.43
   08:18:13.616.09-Sep-2020 5533.01 3703.77 78.00 5.00 255.30 2629.43
   08:18:13.816.09-Sep-2020 5533.01 3703.78 78.00 5.00 255.50 2629.43
   08:18:14.016.09-Sep-2020 5533.01 3703.77 78.00 5.00 255.70 2629.43
   08:18:14.216.09-Sep-2020 5533.01 3703.78 78.00 5.00 255.90 2629.43
   08:18:14.416.09-Sep-2020 5533.01 3703.78 78.00 5.00 256.10 2629.43
   08:18:14.616.09-Sep-2020 5533.01 3703.78 78.00 5.00 256.30 2629.43
   08:18:14.816.09-Sep-2020 5533.01 3703.78 78.00 5.00 256.50 2629.43
   08:18:15.016.09-Sep-2020 5533.01 3703.79 78.00 5.00 256.70 2629.43
   08:18:15.216.09-Sep-2020 5533.01 3703.79 78.00 5.00 256.90 2629.43
   08:18:15.416.09-Sep-2020 5533.01 3703.78 78.00 5.00 257.10 2629.43
   08:18:15.616.09-Sep-2020 5533.01 3703.78 78.00 5.00 257.30 2629.43
   08:18:15.816.09-Sep-2020 5533.01 3628.89 78.00 5.00 257.50 2629.43
   08:18:16.016.09-Sep-2020 5533.01 3529.03 78.00 5.00 257.70 2629.43
   08:18:16.217.09-Sep-2020 5533.01 3509.28 78.00 5.00 257.90 2629.43
   08:18:16.417.09-Sep-2020 5533.01 3513.22 78.00 5.00 258.10 2629.43
   08:18:16.617.09-Sep-2020 5533.01 3513.22 78.00 5.00 258.30 2629.43
   08:18:16.817.09-Sep-2020 5533.01 3510.88 78.00 5.00 258.50 2629.43
   08:18:17.017.09-Sep-2020 5533.01 3510.00 78.00 5.00 258.70 2629.43
   08:18:17.217.09-Sep-2020 5533.01 3509.85 78.00 5.00 258.90 2629.43
   08:18:17.417.09-Sep-2020 5533.01 3509.38 78.00 5.00 259.10 2629.43
   08:18:17.617.09-Sep-2020 5533.01 3509.38 78.00 5.00 259.30 2629.43
   08:18:17.817.09-Sep-2020 5533.01 3508.62 78.00 5.00 259.50 2629.43
   08:18:18.017.09-Sep-2020 5533.01 3509.31 78.00 5.00 259.70 2629.43
   08:18:18.217.09-Sep-2020 5533.01 3511.30 78.00 5.00 259.90 2629.43
   08:18:18.417.09-Sep-2020 5533.01 3507.09 78.00 5.00 260.10 2629.43
   08:18:18.618.09-Sep-2020 5533.01 3506.97 78.00 5.00 260.30 2629.43
   08:18:18.818.09-Sep-2020 5533.01 3505.28 78.00 5.00 260.50 2629.43
   08:18:19.018.09-Sep-2020 5533.01 3508.54 78.00 5.00 260.70 2629.43
   08:18:19.218.09-Sep-2020 5533.01 3505.62 78.00 5.00 260.90 2629.43
   08:18:19.418.09-Sep-2020 5533.01 3503.49 78.00 5.00 261.10 2629.43
   08:18:19.618.09-Sep-2020 5533.01 3503.49 78.00 5.00 261.30 2629.43
   08:18:19.818.09-Sep-2020 5533.01 3508.34 78.00 5.00 261.50 2629.43
   08:18:20.018.09-Sep-2020 5533.01 3507.44 78.00 5.00 261.70 2629.43
   08:18:20.218.09-Sep-2020 5533.01 3504.98 78.00 5.00 261.90 2629.43
   08:18:20.418.09-Sep-2020 5533.01 3504.44 78.00 5.00 262.10 2629.43
   08:18:20.618.09-Sep-2020 5533.01 3504.44 78.00 5.00 262.30 2629.43
   08:18:20.818.09-Sep-2020 5533.01 3507.42 78.00 5.00 262.50 2629.43
   08:18:21.018.09-Sep-2020 5533.01 3507.72 78.00 5.00 262.70 2629.43
   08:18:21.219.09-Sep-2020 5533.01 3503.93 78.00 5.00 262.90 2629.43
   08:18:21.419.09-Sep-2020 5533.01 3504.26 78.00 5.00 263.10 2629.43
   08:18:21.619.09-Sep-2020 5533.01 3504.26 78.00 5.00 263.30 2629.43
   08:18:21.819.09-Sep-2020 5533.01 3503.94 78.00 5.00 263.50 2629.43
   08:18:22.019.09-Sep-2020 5533.01 3506.12 78.00 5.00 263.70 2629.43
   08:18:22.219.09-Sep-2020 5533.01 3501.23 78.00 5.00 263.90 2629.43
   08:18:22.419.09-Sep-2020 5533.01 3499.50 78.00 5.00 264.10 2629.43
   08:18:22.619.09-Sep-2020 5533.01 3499.50 78.00 5.00 264.30 2629.43
   08:18:22.819.09-Sep-2020 5533.01 3501.37 78.00 5.00 264.50 2629.43
   08:18:23.019.09-Sep-2020 5533.01 3497.83 78.00 5.00 264.70 2629.43
   08:18:23.219.09-Sep-2020 5533.01 3497.39 78.00 5.00 264.90 2629.43
   08:18:23.419.09-Sep-2020 5533.01 3501.78 78.00 5.00 265.10 2629.43
   08:18:23.619.09-Sep-2020 5533.01 3501.78 78.00 5.00 265.30 2629.43
   08:18:23.820.09-Sep-2020 5533.01 3500.46 78.00 5.00 265.50 2629.43
   08:18:24.020.09-Sep-2020 5533.01 3500.46 78.00 5.00 265.70 2629.43
   08:18:24.220.09-Sep-2020 5533.01 3497.44 78.00 5.00 265.90 2629.43
   08:18:24.420.09-Sep-2020 5533.01 3493.78 78.00 5.00 266.11 2629.43
   08:18:24.620.09-Sep-2020 5533.01 3493.78 78.00 5.00 266.31 2629.43
   08:18:24.820.09-Sep-2020 5533.01 3497.40 78.00 5.00 266.51 2629.43
   08:18:25.020.09-Sep-2020 5533.01 3495.79 78.00 5.00 266.71 2629.43
   08:18:25.220.09-Sep-2020 5533.01 3505.20 78.00 5.00 266.91 2629.43
   08:18:25.420.09-Sep-2020 5533.01 3502.40 78.00 5.00 267.11 2629.43
   08:18:25.620.09-Sep-2020 5533.01 3502.40 78.00 5.00 267.31 2629.43
   08:18:25.820.09-Sep-2020 5533.01 3493.49 78.00 5.00 267.51 2629.43
   08:18:26.020.09-Sep-2020 5533.01 3636.95 78.00 5.00 267.71 2629.43
   08:18:26.221.09-Sep-2020 5533.01 3696.72 78.00 5.00 267.91 2629.43
   08:18:26.421.09-Sep-2020 5533.01 3702.39 78.00 5.00 268.11 2629.43
   08:18:26.621.09-Sep-2020 5533.01 3702.72 78.00 5.00 268.31 2629.43
   08:18:26.821.09-Sep-2020 5533.01 3702.83 78.00 5.00 268.51 2629.43
   08:18:27.021.09-Sep-2020 5533.01 3702.93 78.00 5.00 268.71 2629.43
   08:18:27.221.09-Sep-2020 5533.01 3703.01 78.00 5.00 268.91 2629.43
   08:18:27.421.09-Sep-2020 5533.01 3703.09 78.00 5.00 269.11 2629.43
   08:18:27.621.09-Sep-2020 5533.01 3703.09 78.00 5.00 269.31 2629.43
   08:18:27.821.09-Sep-2020 5533.01 3703.09 78.00 5.00 269.51 2629.43
   08:18:28.021.09-Sep-2020 5533.01 3703.49 78.00 5.00 269.71 2629.43
   08:18:28.221.09-Sep-2020 5533.01 3703.33 78.00 5.00 269.91 2629.43
   08:18:28.421.09-Sep-2020 5533.01 3703.41 78.00 5.00 270.11 2629.43
   08:18:28.621.09-Sep-2020 5533.01 3703.41 78.00 5.00 270.31 2629.43
   08:18:28.822.09-Sep-2020 5533.01 3703.52 78.00 5.00 270.51 2629.43
   08:18:29.022.09-Sep-2020 5533.01 3703.40 78.00 5.00 270.71 2629.43
   08:18:29.222.09-Sep-2020 5533.01 3703.52 78.00 5.00 270.91 2629.43
   08:18:29.422.09-Sep-2020 5533.01 3703.53 78.00 5.00 271.11 2629.43
   08:18:29.622.09-Sep-2020 5533.01 3703.53 78.00 5.00 271.31 2629.43
   08:18:29.822.09-Sep-2020 5533.01 3703.55 78.00 5.00 271.51 2629.43
   08:18:30.022.09-Sep-2020 5533.01 3703.59 78.00 5.00 271.71 2629.43
   08:18:30.222.09-Sep-2020 5533.01 3703.61 78.00 5.00 271.91 2629.43
   08:18:30.422.09-Sep-2020 5533.01 3703.61 78.00 5.00 272.11 2629.43
   08:18:30.622.09-Sep-2020 5533.01 3703.63 78.00 5.00 272.31 2629.43
   08:18:30.822.09-Sep-2020 5533.01 3703.61 78.00 5.00 272.51 2629.43
   08:18:31.022.09-Sep-2020 5533.01 3703.64 78.00 5.00 272.71 2629.43
   08:18:31.222.09-Sep-2020 5533.01 3703.29 78.00 5.00 272.91 2629.43
   08:18:31.423.09-Sep-2020 5533.01 3704.01 78.00 5.00 273.11 2629.43
   08:18:31.623.09-Sep-2020 5533.01 3704.01 78.00 5.00 273.31 2629.43
   08:18:31.823.09-Sep-2020 5533.01 3703.70 78.00 5.00 273.51 2629.43
   08:18:32.023.09-Sep-2020 5533.01 3703.61 78.00 5.00 273.71 2629.43
   08:18:32.223.09-Sep-2020 5533.01 3703.71 78.00 5.00 273.91 2629.43
   08:18:32.423.09-Sep-2020 5533.01 3703.62 78.00 5.00 274.11 2629.43
   08:18:32.623.09-Sep-2020 5533.01 3703.62 78.00 5.00 274.31 2629.43
   08:18:32.823.09-Sep-2020 5533.01 3703.68 78.00 5.00 274.51 2629.43
   08:18:33.023.09-Sep-2020 5533.01 3703.71 78.00 5.00 274.71 2629.43
   08:18:33.223.09-Sep-2020 5533.01 3703.67 78.00 5.00 274.91 2629.43
   08:18:33.423.09-Sep-2020 5533.01 3703.70 78.00 5.00 275.11 2629.43
   08:18:33.623.09-Sep-2020 5533.01 3703.70 78.00 5.00 275.31 2629.43
   08:18:33.824.09-Sep-2020 5533.01 3703.38 78.00 5.00 275.51 2629.43
   08:18:34.024.09-Sep-2020 5533.01 3704.06 78.00 5.00 275.71 2629.43
   08:18:34.224.09-Sep-2020 5533.01 3703.66 78.00 5.00 275.91 2629.43
