~Version Information
 VERS.                  2.0:   CWLS log ASCII Standard -VERSION 2.0
 WRAP.                   NO:   One line per depth step
~Well Information Block
#MNEM.UNIT     VALUE/NAME     DESCRIPTION
#---------     -----------    ---------------------------
 STRT.S             08:13:58 09-Sep-20: START TIME 08:13:58 09-Sep-20
 STOP.S             08:20:59 09-Sep-20: STOP TIME  08:20:59 09-Sep-20
 STEP.S                   0.00: STEP TIME
 NULL.                 -999.25: NULL VALUE
 MDS .        Operator Entered:  MAG DATA SOURCE
 PDAT.          Mean Sea Level:  PERMANENT DATUM
 DCON.         Sperry Drilling:  DIRECTNL CONTR
 RIG .              West Azeri:  RIG NAME
 WELL.           C40 (Slot 20):  WELL NAME
 SRVC.     Turan Drilling Engineering:  CONTRACTOR
 FLD .                     ACG:  FIELD NAME
 CTRY.              Azerbaijan:  COUNTRY NAME
 PROV.                    Baku:  PROVINCE
 STAT.                    Baku:  STATE NAME
 REGN.                   EESSA:  REGION
 BASE.              Azerbaijan:  LOGGING EQUIPMENT BASE LOCATION
 COMP.     BP Exploration (Caspian Sea) Ltd:  COMPANY
 WTYP.                Deviated:  WELL TYPE
 SON .        AZ-XX-0906344804:  JOB NUMBER
 FTOP.          Formation Tops:  FORM TOPS DESC
 ILTD.               Lithology:  INTERP LTH DESC
 SVYD.                  Survey:  SURVEY DESC
 DMOD.             Drill Model:  DRILL MOD DESC
 HPTY.       Minimum Curvature:  HOLE POS TYPE
 NREF.                    Grid:  NORTH REFERENCE
 SPUD.               01-Jan-20:  SPUD DATE
 DATE.      00.59.44 15-Sep-20:  END TIME
 STIM.      12.00.00 12-Jun-20:  START TIME
 DMF .             Drill Floor:  DRILL MEAS FROM
 DFST.                        :  DIST FSL TEXT
 DFWT.                        :  DIST FWL TEXT
 API .                        :  API NUMBER
 CNTY.                        :  COUNTY
 UWI .                        :  UNIQUE WELL IDENTIFIER
 LOC .                        :  LOCATION
 LMF .             Drill Floor:  LOG MEASURED FROM
 VSNS.m                   2.88:  VERT SEC N/S
 VSEW.m                  -3.84:  VERT SEC E/W
 AGAP.m                  43.42:  AIR GAP
 APD .m                  43.42:  DEPTH ABOVE PD
 WDMS.m                 118.27:  WD ELEV
 EGL .m                   0.00:  GROUND ELEVATION
 EPD .m                   0.00:  ELEVATION
 AZTC.deg                 6.23:  AZM TOTAL CORR
 GRDC.deg                 0.20:  GRID CORRECTION
 MDEC.deg                 6.43:  MAGNETIC DECL
 MDIP.deg                59.49:  MAGNETIC DIP
 MFLD.nT              50277.00:  MAGNETIC FIELD
 GVFD.g                   1.00:  GRAVITY FIELD
 VSDR.deg               173.20:  VERT SEC DIRECT
 TDD .m                5790.01:  TOTAL DEPTH (DRILLER)
 SDEP.m                5231.01:  START DEPTH
 DFSL.m                   0.00:  DISTANCE FSL
 DFWL.m                   0.00:  DISTANCE FWL
 UTMY.m             4435808.83:  UTM Y
 UTMX.m              526266.40:  UTM X
 WHEW.m                  -3.84:  WELL HEAD E/W
 WHNS.m                   2.88:  WELL HEAD N/S
 LONG.deg                51.31:  LONGITUDE
 LATI.deg                40.06:  LATITUDE
 TVDS.m                  43.42:  TVDSS CORRECTN
 DEP .m                 430.08:  DEPTH
 EKB .m                  43.42:  KB ELEVATION
 EDF .m                  43.42:  DF ELEVATION
 TDL .m                 559.00:  TOTAL DEPTH (LOGGER)
 MAGU.                 1849381:  MAGUTM CHECKSUM
 VSC .                       0:  VS TO CLOSURE
~Parameter Information Block
#MNEM.UNIT       Value        Description
#---------     -----------    ---------------------------
 AV  .mps                 4.87:  Ann Velocity 
 AVMX.mps                 7.08:  Max Ann Veloc 
 AZIF.deg               108.87:  Azm, Final 
 BHAT.                  Rotary:  BHA Type 
 BROT.°/30m               0.35:  Build Rotating 
 BS  .in                  8.50:  Bit Size 
 BSZ .in                  8.50:  Bit Size 
 BTPL.psig              360.00:  Bit Press Loss 
 CABU.                     Yes:  Customer Abuse 
 COMM.                     t›a:  Run Comments 1 
 TCS .hr                106.24:  Time Ciculation Ended 
 CV  .mps                 1.77:  Crit Velocity 
 CVMX.mps                 2.03:  Max Crit Veloc 
 DD1 .         Aykhan Agagulov:  Direct Drillr 1 
 DD2 .            Nonso Okofor:  Direct Drillr 2 
 DDSV.               Geo-Pilot:  DD Service 
 DEFF.%                  98.00:  % Det Eff 
 DLRX.°/30m               0.50:  Dogleg Rot Max 
 DLSO.°/30m               0.40:  Dogleg Oriented 
 DLSX.°/30m               0.94:  Dogleg Str Max 
 DRET.      20.30.00 08-Sep-20:  Drill End Time 
 DRST.      22.15.00 06-Sep-20:  Drill Start Tim 
 DTIM.hr                 31.31:  Time Drilling 
 EDEP.m                5790.01:  End Depth 
 ENG1.           Amrah Tahirov:  Engineer 1 
 ENG2.         Dair Mahammadov:  Engineer 2 
 ENG3.           Emil Huseynov:  Engineer 3 
 ETIM.      04.01.04 12-Sep-20:  End Time 
 FLOI.gpm               450.00:  Flow In 
 FLON.gpm               450.00:  Flow In Min 
 FLOS.cptm                2.00:  Fluid Loss 
 FLOX.gpm               450.00:  Flow In Max 
 FTRO.       Formation Presure:  FTWD Run Obj 
 HFLO.                      No:  High Flow 
 HPRE.                      No:  High Pressure 
 HTEM.                      No:  High Temp 
 HYDO.m                   1.80:  Hydro Offset 
 IFIN.deg                72.03:  Inc, Final 
 IMAX.deg                73.72:  Inc Max 
 IMIN.deg                70.94:  Inc Min 
 IMND.m                5508.52:  Inc Min Depth 
 IMXD.m                5253.60:  Inc Max Depth 
 JARR.                      No:  Jarring 
 LETM.      20.30.00 08-Sep-20:  Log End Time 
 LOST.hr                     0:  Lost Rig Time 
 LSTM.      22.15.00 06-Sep-20:  Log Start Time 
 MDCL.ppm             36000.00:  Mud Chlorides 
 MDES.     Inversion Oil/Synthetic:  Mud Desc 
 DFD .sg                  1.44:  Mud Density 
 MDMN.sg                  1.44:  Dens Mud Min 
 MDMX.sg                  1.57:  Dens Mud Max 
 MOIL.                      70:  Run Mud Oil % 
 MOWR.                   70:30:  Run Mud OWR 
 MSND.                       0:  Run Mud Sand % 
 MSOL.                      21:  Run Mud Solids% 
 DFV .spqt               68.00:  Mud Viscosity 
 MWOD.in                  6.75:  MWD Tool OD 
 MWSI.                     Yes:  Serv Intrp, MWD 
 OTIM.hr                174.84:  Time Operating 
 PCON.           Look Like New:  Pad Condition 
 PMAX.psia            10616.93:  Press Op, Max 
 PV  .cP                 50.00:  Mud PV 
 RUN .                     700:  Run Number 
 ROPA.m/hr               14.24:  ROP Avg 
 ROPN.m/hr               10.00:  ROP Min 
 ROPX.m/hr               32.00:  ROP Max 
 RPMA.rpm               120.90:  RPM Surface Avg 
 RPMN.rpm               120.00:  RPM Surface Min 
 RPMX.rpm               140.00:  RPM Surface Max 
 RRUN.                    0700:  Rig Run Number 
 RTIM.hr                  3.20:  Time Reaming 
 SAZI.deg               109.99:  Azm, Start 
 SDEP.m                5231.01:  Start Depth 
 SIDD.                      No:  Serv Intrp, DD 
 SINC.deg                73.72:  Inc, Start 
 SPPA.psig             3051.00:  SPP Avg 
 SPPN.psig             2950.00:  SPP Min 
 SPPX.psig             3250.00:  SPP Max 
 STIM.      08.00.00 05-Sep-20:  Start Time 
 SVCS.                 DD, MWD:  Services 
 SVER.                    9.20:  Sperry Version 
 TDAT.m                 559.00:  Tot Depth Attmp 
 TDDF.                      No:  Trip for DD 
 TDLG.m                 559.00:  Tot Depth Loggd 
 TFF .                      No:  Trip for Fail 
 TQAA.f-kp               26.49:  Torque Abs Avg 
 TQAN.f-kp               25.00:  Torque Abs Min 
 TQAX.f-kp               27.00:  Torque Abs Max 
 TRRT.°/30m               1.50:  Turn Rotating 
 MRT .                    HCIM:  Maximum Recorded Temperature 
 TTMX.degC               90.20:  Max Tool Temp 
 VS01.                90542671:  Virtual Str1 SN 
 VS02.                90545185:  Virtual Str2 SN 
 VS03.                90602015:  Virtual Str3 SN 
 VS04.                90515230:  Virtual Str4 SN 
 WBMN.klb                 5.00:  WOB Min 
 WOBA.klb                14.79:  WOB Avg 
 WOBX.klb                20.00:  WOB Max 
 YP  .lhf2               29.00:  Yield Point 
~Curve Information Block
#MNEM.UNIT                 API CODE     Curve Description
#---------               -----------    ---------------------------
 TIME.HHMMSS            00 000 000 000:  GT Time & Date
 GTDEPTH.m              00 000 000 000:  GT Depth
 GTPQH.psia             00 000 000 000:  GT HR Quartz Pressure
 GTTQ.degC              00 000 000 000:  GT Quartz Temperature
 GTTN.NONE              00 000 000 000:  GT Test Number
 GTET.sec               00 000 000 000:  GT Elapsed Test Time
 GTTVD.m                00 000 000 000:  GT True Vertical Depth
#Other Information
#
#WARRANTY: Halliburton will use its best efforts to furnish customers with 
#accurate information and interpretations that are part of, and incident to, the services 
#provided.  However, Halliburton cannot and does not warrant the accuracy 
#or correctness of such information and interpretations.  Under no circumstances should any 
#such information or interpretation be relied upon as the sole basis for any drilling, 
#completion, production, or financial decision or any procedure involving any risk to the 
#safety of any drilling venture, drilling rig or its crew or any other third party.  The 
#Customer has full responsibility for all drilling, completion and production operation.  
#Halliburton makes no representations or warranties, either expressed or 
#implied, including, but not limited to, the implied warranties of merchantability or fitness 
#for a particular purpose, with respect to the services rendered.  In no event will 
#Halliburton be liable for failure to obtain any particular results or for 
#any damages, including, but not limited to, indirect, special or consequential damages, 
#resulting from the use of any information or interpretation provided by Halliburton.
#
~A           TIME           GTDEPTH  GTPQH  GTTQ  GTTN  GTET   GTTVD  
# ...
   08:18:34.424.09-Sep-2020 5533.01 3703.77 78.00 5.00 276.11 2629.43
   08:18:34.624.09-Sep-2020 5533.01 3703.65 78.00 5.00 276.31 2629.43
   08:18:34.824.09-Sep-2020 5533.01 3703.62 78.00 5.00 276.51 2629.43
   08:18:35.024.09-Sep-2020 5533.01 3703.81 78.00 5.00 276.71 2629.43
   08:18:35.224.09-Sep-2020 5533.01 3703.74 78.00 5.00 276.91 2629.43
   08:18:35.424.09-Sep-2020 5533.01 3703.76 78.00 5.00 277.11 2629.43
   08:18:35.624.09-Sep-2020 5533.01 3703.76 78.00 5.00 277.31 2629.43
   08:18:35.824.09-Sep-2020 5533.01 3703.47 78.00 5.00 277.51 2629.43
   08:18:36.024.09-Sep-2020 5533.01 3704.04 78.00 5.00 277.71 2629.43
   08:18:36.224.09-Sep-2020 5533.01 3703.69 78.00 5.00 277.91 2629.43
   08:18:36.425.09-Sep-2020 5533.01 3703.78 78.00 5.00 278.11 2629.43
   08:18:36.625.09-Sep-2020 5533.01 3703.78 78.00 5.00 278.31 2629.43
   08:18:36.825.09-Sep-2020 5533.01 3703.75 78.00 5.00 278.51 2629.43
   08:18:37.025.09-Sep-2020 5533.01 3703.71 78.00 5.00 278.71 2629.43
   08:18:37.225.09-Sep-2020 5533.01 3703.75 78.00 5.00 278.91 2629.43
   08:18:37.425.09-Sep-2020 5533.01 3703.74 78.00 5.00 279.11 2629.43
   08:18:37.625.09-Sep-2020 5533.01 3703.74 78.00 5.00 279.31 2629.43
   08:18:37.825.09-Sep-2020 5533.01 3703.76 78.00 5.00 279.51 2629.43
   08:18:38.025.09-Sep-2020 5533.01 3703.74 78.00 5.00 279.71 2629.43
   08:18:38.225.09-Sep-2020 5533.01 3703.73 78.00 5.00 279.91 2629.43
   08:18:38.425.09-Sep-2020 5533.01 3703.74 78.00 5.00 280.11 2629.43
   08:18:38.625.09-Sep-2020 5533.01 3703.73 78.00 5.00 280.31 2629.43
   08:18:38.825.09-Sep-2020 5533.01 3703.76 78.00 5.00 280.51 2629.43
   08:18:39.026.09-Sep-2020 5533.01 3703.75 78.00 5.00 280.71 2629.43
   08:18:39.226.09-Sep-2020 5533.01 3703.76 78.00 5.00 280.91 2629.43
   08:18:39.426.09-Sep-2020 5533.01 3703.75 78.00 5.00 281.11 2629.43
   08:18:39.626.09-Sep-2020 5533.01 3703.75 78.00 5.00 281.31 2629.43
   08:18:39.826.09-Sep-2020 5533.01 3703.81 78.00 5.00 281.51 2629.43
   08:18:40.026.09-Sep-2020 5533.01 3703.73 78.00 5.00 281.71 2629.43
   08:18:40.226.09-Sep-2020 5533.01 3703.77 78.00 5.00 281.91 2629.43
   08:18:40.426.09-Sep-2020 5533.01 3703.70 78.00 5.00 282.11 2629.43
   08:18:40.626.09-Sep-2020 5533.01 3703.70 78.00 5.00 282.31 2629.43
   08:18:40.826.09-Sep-2020 5533.01 3703.74 78.00 5.00 282.51 2629.43
   08:18:41.026.09-Sep-2020 5533.01 3703.76 78.00 5.00 282.71 2629.43
   08:18:41.226.09-Sep-2020 5533.01 3703.74 78.00 5.00 282.91 2629.43
   08:18:41.427.09-Sep-2020 5533.01 3703.74 78.00 5.00 283.11 2629.43
   08:18:41.627.09-Sep-2020 5533.01 3703.74 78.00 5.00 283.31 2629.43
   08:18:41.827.09-Sep-2020 5533.01 3703.76 78.00 5.00 283.51 2629.43
   08:18:42.027.09-Sep-2020 5533.01 3703.74 78.00 5.00 283.71 2629.43
   08:18:42.227.09-Sep-2020 5533.01 3703.76 78.00 5.00 283.91 2629.43
   08:18:42.427.09-Sep-2020 5533.01 3703.75 78.00 5.00 284.11 2629.43
   08:18:42.627.09-Sep-2020 5533.01 3703.75 78.00 5.00 284.31 2629.43
   08:18:42.827.09-Sep-2020 5533.01 3703.63 78.00 5.00 284.51 2629.43
   08:18:43.027.09-Sep-2020 5533.01 3703.84 78.00 5.00 284.71 2629.43
   08:18:43.227.09-Sep-2020 5533.01 3703.76 78.00 5.00 284.91 2629.43
   08:18:43.427.09-Sep-2020 5533.01 3703.79 78.00 5.00 285.11 2629.43
   08:18:43.627.09-Sep-2020 5533.01 3703.79 78.00 5.00 285.31 2629.43
   08:18:43.827.09-Sep-2020 5533.01 3703.81 78.00 5.00 285.51 2629.43
   08:18:44.028.09-Sep-2020 5533.01 3703.35 78.00 5.00 285.71 2629.43
   08:18:44.228.09-Sep-2020 5533.01 3704.12 78.00 5.00 285.91 2629.43
   08:18:44.428.09-Sep-2020 5533.01 3703.71 78.00 5.00 286.11 2629.43
   08:18:44.628.09-Sep-2020 5533.01 3703.71 78.00 5.00 286.31 2629.43
   08:18:44.828.09-Sep-2020 5533.01 3703.71 78.00 5.00 286.51 2629.43
   08:18:45.028.09-Sep-2020 5533.01 3703.67 78.00 5.00 286.71 2629.43
   08:18:45.228.09-Sep-2020 5533.01 3703.81 78.00 5.00 286.91 2629.43
   08:18:45.428.09-Sep-2020 5533.01 3703.76 78.00 5.00 287.11 2629.43
   08:18:45.628.09-Sep-2020 5533.01 3703.76 78.00 5.00 287.31 2629.43
   08:18:45.828.09-Sep-2020 5533.01 3703.73 78.00 5.00 287.51 2629.43
   08:18:46.028.09-Sep-2020 5533.01 3703.82 78.00 5.00 287.71 2629.43
   08:18:46.228.09-Sep-2020 5533.01 3703.66 78.00 5.00 287.91 2629.43
   08:18:46.428.09-Sep-2020 5533.01 3703.75 78.00 5.00 288.11 2629.43
   08:18:46.629.09-Sep-2020 5533.01 3703.45 78.00 5.00 288.31 2629.43
   08:18:46.829.09-Sep-2020 5533.01 3704.12 78.00 5.00 288.51 2629.43
   08:18:47.029.09-Sep-2020 5533.01 3703.72 78.00 5.00 288.71 2629.43
   08:18:47.229.09-Sep-2020 5533.01 3703.81 78.00 5.00 288.91 2629.43
   08:18:47.429.09-Sep-2020 5533.01 3703.71 78.00 5.00 289.11 2629.43
   08:18:47.629.09-Sep-2020 5533.01 3703.71 78.00 5.00 289.31 2629.43
   08:18:47.829.09-Sep-2020 5533.01 3703.66 78.00 5.00 289.51 2629.43
   08:18:48.029.09-Sep-2020 5533.01 3703.87 78.00 5.00 289.71 2629.43
   08:18:48.229.09-Sep-2020 5533.01 3703.73 78.00 5.00 289.91 2629.43
   08:18:48.429.09-Sep-2020 5533.01 3703.77 78.00 5.00 290.11 2629.43
   08:18:48.629.09-Sep-2020 5533.01 3703.77 78.00 5.00 290.31 2629.43
   08:18:48.829.09-Sep-2020 5533.01 3703.79 78.00 5.00 290.51 2629.43
   08:18:49.030.09-Sep-2020 5533.01 3703.74 78.00 5.00 290.71 2629.43
   08:18:49.230.09-Sep-2020 5533.01 3703.77 78.00 5.00 290.91 2629.43
   08:18:49.430.09-Sep-2020 5533.01 3703.75 78.00 5.00 291.11 2629.43
   08:18:49.630.09-Sep-2020 5533.01 3703.75 78.00 5.00 291.32 2629.43
   08:18:49.830.09-Sep-2020 5533.01 3703.75 78.00 5.00 291.52 2629.43
   08:18:50.030.09-Sep-2020 5533.01 3703.75 78.00 5.00 291.72 2629.43
   08:18:50.230.09-Sep-2020 5533.01 3703.74 78.00 5.00 291.92 2629.43
   08:18:50.430.09-Sep-2020 5533.01 3703.76 78.00 5.00 292.12 2629.43
   08:18:50.630.09-Sep-2020 5533.01 3703.75 78.00 5.00 292.32 2629.43
   08:18:50.830.09-Sep-2020 5533.01 3703.76 78.00 5.00 292.52 2629.43
   08:18:51.030.09-Sep-2020 5533.01 3703.75 78.00 5.00 292.72 2629.43
   08:18:51.230.09-Sep-2020 5533.01 3703.75 78.00 5.00 292.92 2629.43
   08:18:51.430.09-Sep-2020 5533.01 3703.75 78.00 5.00 293.12 2629.43
   08:18:51.631.09-Sep-2020 5533.01 3703.75 78.00 5.00 293.32 2629.43
   08:18:51.831.09-Sep-2020 5533.01 3703.61 78.00 5.00 293.52 2629.43
   08:18:52.031.09-Sep-2020 5533.01 3703.76 78.00 5.00 293.72 2629.43
   08:18:52.231.09-Sep-2020 5533.01 3703.73 78.00 5.00 293.92 2629.43
   08:18:52.431.09-Sep-2020 5533.01 3703.84 78.00 5.00 294.12 2629.43
   08:18:52.631.09-Sep-2020 5533.01 3703.84 78.00 5.00 294.32 2629.43
   08:18:52.831.09-Sep-2020 5533.01 3703.75 78.00 5.00 294.52 2629.43
   08:18:53.031.09-Sep-2020 5533.01 3703.75 78.00 5.00 294.72 2629.43
   08:18:53.231.09-Sep-2020 5533.01 3703.73 78.00 5.00 294.92 2629.43
   08:18:53.431.09-Sep-2020 5533.01 3703.74 78.00 5.00 295.12 2629.43
   08:18:53.631.09-Sep-2020 5533.01 3703.74 78.00 5.00 295.32 2629.43
   08:18:53.831.09-Sep-2020 5533.01 3703.74 78.00 5.00 295.52 2629.43
   08:18:54.031.09-Sep-2020 5533.01 3703.75 78.00 5.00 295.72 2629.43
   08:18:54.232.09-Sep-2020 5533.01 3703.74 78.00 5.00 295.92 2629.43
   08:18:54.432.09-Sep-2020 5533.01 3703.74 78.00 5.00 296.12 2629.43
   08:18:54.632.09-Sep-2020 5533.01 3703.74 78.00 5.00 296.32 2629.43
   08:18:54.832.09-Sep-2020 5533.01 3703.41 78.00 5.00 296.52 2629.43
   08:18:55.032.09-Sep-2020 5533.01 3704.12 78.00 5.00 296.72 2629.43
   08:18:55.232.09-Sep-2020 5533.01 3703.72 78.00 5.00 296.92 2629.43
   08:18:55.432.09-Sep-2020 5533.01 3703.78 78.00 5.00 297.12 2629.43
   08:18:55.632.09-Sep-2020 5533.01 3703.78 78.00 5.00 297.32 2629.43
   08:18:55.832.09-Sep-2020 5533.01 3703.77 78.00 5.00 297.52 2629.43
   08:18:56.032.09-Sep-2020 5533.01 3703.62 78.00 5.00 297.72 2629.43
   08:18:56.232.09-Sep-2020 5533.01 3703.89 78.00 5.00 297.92 2629.43
   08:18:56.432.09-Sep-2020 5533.01 3703.74 78.00 5.00 298.12 2629.43
   08:18:56.633.09-Sep-2020 5533.01 3703.74 78.00 5.00 298.32 2629.43
   08:18:56.833.09-Sep-2020 5533.01 3703.71 78.00 5.00 298.52 2629.43
   08:18:57.033.09-Sep-2020 5533.01 3703.47 78.00 5.00 298.72 2629.43
   08:18:57.233.09-Sep-2020 5533.01 3704.07 78.00 5.00 298.92 2629.43
