~Version Information
 VERS.                  2.0:   CWLS log ASCII Standard -VERSION 2.0
 WRAP.                   NO:   One line per depth step
~Well Information Block
#MNEM.UNIT     VALUE/NAME     DESCRIPTION
#---------     -----------    ---------------------------
 STRT.S             08:34:18 09-Sep-20: START TIME 08:34:18 09-Sep-20
 STOP.S             08:41:20 09-Sep-20: STOP TIME  08:41:20 09-Sep-20
 STEP.S                   0.00: STEP TIME
 NULL.                 -999.25: NULL VALUE
 MDS .        Operator Entered:  MAG DATA SOURCE
 PDAT.          Mean Sea Level:  PERMANENT DATUM
 DCON.         Sperry Drilling:  DIRECTNL CONTR
 RIG .              West Azeri:  RIG NAME
 WELL.           C40 (Slot 20):  WELL NAME
 SRVC.     Turan Drilling Engineering:  CONTRACTOR
 FLD .                     ACG:  FIELD NAME
 CTRY.              Azerbaijan:  COUNTRY NAME
 PROV.                    Baku:  PROVINCE
 STAT.                    Baku:  STATE NAME
 REGN.                   EESSA:  REGION
 BASE.              Azerbaijan:  LOGGING EQUIPMENT BASE LOCATION
 COMP.     BP Exploration (Caspian Sea) Ltd:  COMPANY
 WTYP.                Deviated:  WELL TYPE
 SON .        AZ-XX-0906344804:  JOB NUMBER
 FTOP.          Formation Tops:  FORM TOPS DESC
 ILTD.               Lithology:  INTERP LTH DESC
 SVYD.                  Survey:  SURVEY DESC
 DMOD.             Drill Model:  DRILL MOD DESC
 HPTY.       Minimum Curvature:  HOLE POS TYPE
 NREF.                    Grid:  NORTH REFERENCE
 SPUD.               01-Jan-20:  SPUD DATE
 DATE.      00.59.44 15-Sep-20:  END TIME
 STIM.      12.00.00 12-Jun-20:  START TIME
 DMF .             Drill Floor:  DRILL MEAS FROM
 DFST.                        :  DIST FSL TEXT
 DFWT.                        :  DIST FWL TEXT
 API .                        :  API NUMBER
 CNTY.                        :  COUNTY
 UWI .                        :  UNIQUE WELL IDENTIFIER
 LOC .                        :  LOCATION
 LMF .             Drill Floor:  LOG MEASURED FROM
 VSNS.m                   2.88:  VERT SEC N/S
 VSEW.m                  -3.84:  VERT SEC E/W
 AGAP.m                  43.42:  AIR GAP
 APD .m                  43.42:  DEPTH ABOVE PD
 WDMS.m                 118.27:  WD ELEV
 EGL .m                   0.00:  GROUND ELEVATION
 EPD .m                   0.00:  ELEVATION
 AZTC.deg                 6.23:  AZM TOTAL CORR
 GRDC.deg                 0.20:  GRID CORRECTION
 MDEC.deg                 6.43:  MAGNETIC DECL
 MDIP.deg                59.49:  MAGNETIC DIP
 MFLD.nT              50277.00:  MAGNETIC FIELD
 GVFD.g                   1.00:  GRAVITY FIELD
 VSDR.deg               173.20:  VERT SEC DIRECT
 TDD .m                5790.01:  TOTAL DEPTH (DRILLER)
 SDEP.m                5231.01:  START DEPTH
 DFSL.m                   0.00:  DISTANCE FSL
 DFWL.m                   0.00:  DISTANCE FWL
 UTMY.m             4435808.83:  UTM Y
 UTMX.m              526266.40:  UTM X
 WHEW.m                  -3.84:  WELL HEAD E/W
 WHNS.m                   2.88:  WELL HEAD N/S
 LONG.deg                51.31:  LONGITUDE
 LATI.deg                40.06:  LATITUDE
 TVDS.m                  43.42:  TVDSS CORRECTN
 DEP .m                 430.08:  DEPTH
 EKB .m                  43.42:  KB ELEVATION
 EDF .m                  43.42:  DF ELEVATION
 TDL .m                 559.00:  TOTAL DEPTH (LOGGER)
 MAGU.                 1849381:  MAGUTM CHECKSUM
 VSC .                       0:  VS TO CLOSURE
~Parameter Information Block
#MNEM.UNIT       Value        Description
#---------     -----------    ---------------------------
 AV  .mps                 4.87:  Ann Velocity 
 AVMX.mps                 7.08:  Max Ann Veloc 
 AZIF.deg               108.87:  Azm, Final 
 BHAT.                  Rotary:  BHA Type 
 BROT.°/30m               0.35:  Build Rotating 
 BS  .in                  8.50:  Bit Size 
 BSZ .in                  8.50:  Bit Size 
 BTPL.psig              360.00:  Bit Press Loss 
 CABU.                     Yes:  Customer Abuse 
 COMM.                     \¸P:  Run Comments 1 
 TCS .hr                106.24:  Time Ciculation Ended 
 CV  .mps                 1.77:  Crit Velocity 
 CVMX.mps                 2.03:  Max Crit Veloc 
 DD1 .         Aykhan Agagulov:  Direct Drillr 1 
 DD2 .            Nonso Okofor:  Direct Drillr 2 
 DDSV.               Geo-Pilot:  DD Service 
 DEFF.%                  98.00:  % Det Eff 
 DLRX.°/30m               0.50:  Dogleg Rot Max 
 DLSO.°/30m               0.40:  Dogleg Oriented 
 DLSX.°/30m               0.94:  Dogleg Str Max 
 DRET.      20.30.00 08-Sep-20:  Drill End Time 
 DRST.      22.15.00 06-Sep-20:  Drill Start Tim 
 DTIM.hr                 31.31:  Time Drilling 
 EDEP.m                5790.01:  End Depth 
 ENG1.           Amrah Tahirov:  Engineer 1 
 ENG2.         Dair Mahammadov:  Engineer 2 
 ENG3.           Emil Huseynov:  Engineer 3 
 ETIM.      04.01.04 12-Sep-20:  End Time 
 FLOI.gpm               450.00:  Flow In 
 FLON.gpm               450.00:  Flow In Min 
 FLOS.cptm                2.00:  Fluid Loss 
 FLOX.gpm               450.00:  Flow In Max 
 FTRO.       Formation Presure:  FTWD Run Obj 
 HFLO.                      No:  High Flow 
 HPRE.                      No:  High Pressure 
 HTEM.                      No:  High Temp 
 HYDO.m                   1.80:  Hydro Offset 
 IFIN.deg                72.03:  Inc, Final 
 IMAX.deg                73.72:  Inc Max 
 IMIN.deg                70.94:  Inc Min 
 IMND.m                5508.52:  Inc Min Depth 
 IMXD.m                5253.60:  Inc Max Depth 
 JARR.                      No:  Jarring 
 LETM.      20.30.00 08-Sep-20:  Log End Time 
 LOST.hr                     0:  Lost Rig Time 
 LSTM.      22.15.00 06-Sep-20:  Log Start Time 
 MDCL.ppm             36000.00:  Mud Chlorides 
 MDES.     Inversion Oil/Synthetic:  Mud Desc 
 DFD .sg                  1.44:  Mud Density 
 MDMN.sg                  1.44:  Dens Mud Min 
 MDMX.sg                  1.57:  Dens Mud Max 
 MOIL.                      70:  Run Mud Oil % 
 MOWR.                   70:30:  Run Mud OWR 
 MSND.                       0:  Run Mud Sand % 
 MSOL.                      21:  Run Mud Solids% 
 DFV .spqt               68.00:  Mud Viscosity 
 MWOD.in                  6.75:  MWD Tool OD 
 MWSI.                     Yes:  Serv Intrp, MWD 
 OTIM.hr                174.84:  Time Operating 
 PCON.           Look Like New:  Pad Condition 
 PMAX.psia            10616.93:  Press Op, Max 
 PV  .cP                 50.00:  Mud PV 
 RUN .                     700:  Run Number 
 ROPA.m/hr               14.24:  ROP Avg 
 ROPN.m/hr               10.00:  ROP Min 
 ROPX.m/hr               32.00:  ROP Max 
 RPMA.rpm               120.90:  RPM Surface Avg 
 RPMN.rpm               120.00:  RPM Surface Min 
 RPMX.rpm               140.00:  RPM Surface Max 
 RRUN.                    0700:  Rig Run Number 
 RTIM.hr                  3.20:  Time Reaming 
 SAZI.deg               109.99:  Azm, Start 
 SDEP.m                5231.01:  Start Depth 
 SIDD.                      No:  Serv Intrp, DD 
 SINC.deg                73.72:  Inc, Start 
 SPPA.psig             3051.00:  SPP Avg 
 SPPN.psig             2950.00:  SPP Min 
 SPPX.psig             3250.00:  SPP Max 
 STIM.      08.00.00 05-Sep-20:  Start Time 
 SVCS.                 DD, MWD:  Services 
 SVER.                    9.20:  Sperry Version 
 TDAT.m                 559.00:  Tot Depth Attmp 
 TDDF.                      No:  Trip for DD 
 TDLG.m                 559.00:  Tot Depth Loggd 
 TFF .                      No:  Trip for Fail 
 TQAA.f-kp               26.49:  Torque Abs Avg 
 TQAN.f-kp               25.00:  Torque Abs Min 
 TQAX.f-kp               27.00:  Torque Abs Max 
 TRRT.°/30m               1.50:  Turn Rotating 
 MRT .                    HCIM:  Maximum Recorded Temperature 
 TTMX.degC               90.20:  Max Tool Temp 
 VS01.                90542671:  Virtual Str1 SN 
 VS02.                90545185:  Virtual Str2 SN 
 VS03.                90602015:  Virtual Str3 SN 
 VS04.                90515230:  Virtual Str4 SN 
 WBMN.klb                 5.00:  WOB Min 
 WOBA.klb                14.79:  WOB Avg 
 WOBX.klb                20.00:  WOB Max 
 YP  .lhf2               29.00:  Yield Point 
~Curve Information Block
#MNEM.UNIT                 API CODE     Curve Description
#---------               -----------    ---------------------------
 TIME.HHMMSS            00 000 000 000:  GT Time & Date
 GTDEPTH.m              00 000 000 000:  GT Depth
 GTPQH.psia             00 000 000 000:  GT HR Quartz Pressure
 GTTQ.degC              00 000 000 000:  GT Quartz Temperature
 GTTN.NONE              00 000 000 000:  GT Test Number
 GTET.sec               00 000 000 000:  GT Elapsed Test Time
 GTTVD.m                00 000 000 000:  GT True Vertical Depth
#Other Information
#
#WARRANTY: Halliburton will use its best efforts to furnish customers with 
#accurate information and interpretations that are part of, and incident to, the services 
#provided.  However, Halliburton cannot and does not warrant the accuracy 
#or correctness of such information and interpretations.  Under no circumstances should any 
#such information or interpretation be relied upon as the sole basis for any drilling, 
#completion, production, or financial decision or any procedure involving any risk to the 
#safety of any drilling venture, drilling rig or its crew or any other third party.  The 
#Customer has full responsibility for all drilling, completion and production operation.  
#Halliburton makes no representations or warranties, either expressed or 
#implied, including, but not limited to, the implied warranties of merchantability or fitness 
#for a particular purpose, with respect to the services rendered.  In no event will 
#Halliburton be liable for failure to obtain any particular results or for 
#any damages, including, but not limited to, indirect, special or consequential damages, 
#resulting from the use of any information or interpretation provided by Halliburton.
#
~A           TIME           GTDEPTH  GTPQH  GTTQ  GTTN  GTET   GTTVD  
# ...
   08:38:31.897.09-Sep-2020 5524.01 3700.71 77.56 6.00 253.10 2626.56
   08:38:32.097.09-Sep-2020 5524.01 3700.71 77.56 6.00 253.30 2626.56
   08:38:32.297.09-Sep-2020 5524.01 3700.73 77.56 6.00 253.50 2626.56
   08:38:32.497.09-Sep-2020 5524.01 3700.72 77.56 6.00 253.70 2626.56
   08:38:32.697.09-Sep-2020 5524.01 3700.72 77.56 6.00 253.90 2626.56
   08:38:32.897.09-Sep-2020 5524.01 3700.34 77.56 6.00 254.10 2626.56
   08:38:33.097.09-Sep-2020 5524.01 3700.34 77.56 6.00 254.30 2626.56
   08:38:33.297.09-Sep-2020 5524.01 3700.70 77.56 6.00 254.50 2626.56
   08:38:33.497.09-Sep-2020 5524.01 3700.75 77.56 6.00 254.70 2626.56
   08:38:33.697.09-Sep-2020 5524.01 3700.67 77.56 6.00 254.90 2626.56
   08:38:33.897.09-Sep-2020 5524.01 3700.73 77.56 6.00 255.10 2626.56
   08:38:34.097.09-Sep-2020 5524.01 3700.70 77.56 6.00 255.30 2626.56
   08:38:34.298.09-Sep-2020 5524.01 3700.72 77.56 6.00 255.50 2626.56
   08:38:34.498.09-Sep-2020 5524.01 3700.73 77.56 6.00 255.70 2626.56
   08:38:34.698.09-Sep-2020 5524.01 3700.69 77.56 6.00 255.90 2626.56
   08:38:34.898.09-Sep-2020 5524.01 3700.73 77.56 6.00 256.10 2626.56
   08:38:35.098.09-Sep-2020 5524.01 3700.70 77.56 6.00 256.30 2626.56
   08:38:35.298.09-Sep-2020 5524.01 3700.71 77.56 6.00 256.50 2626.56
   08:38:35.498.09-Sep-2020 5524.01 3700.72 77.56 6.00 256.70 2626.56
   08:38:35.698.09-Sep-2020 5524.01 3700.72 77.56 6.00 256.90 2626.56
   08:38:35.898.09-Sep-2020 5524.01 3700.73 77.56 6.00 257.10 2626.56
   08:38:36.098.09-Sep-2020 5524.01 3700.73 77.56 6.00 257.30 2626.56
   08:38:36.298.09-Sep-2020 5524.01 3700.80 77.56 6.00 257.50 2626.56
   08:38:36.498.09-Sep-2020 5524.01 3678.17 77.56 6.00 257.70 2626.56
   08:38:36.698.09-Sep-2020 5524.01 3531.76 77.56 6.00 257.90 2626.56
   08:38:36.899.09-Sep-2020 5524.01 3489.24 77.56 6.00 258.10 2626.56
   08:38:37.099.09-Sep-2020 5524.01 3489.24 77.56 6.00 258.30 2626.56
   08:38:37.299.09-Sep-2020 5524.01 3480.05 77.56 6.00 258.50 2626.56
   08:38:37.499.09-Sep-2020 5524.01 3476.42 77.56 6.00 258.70 2626.56
   08:38:37.699.09-Sep-2020 5524.01 3471.34 77.56 6.00 258.90 2626.56
   08:38:37.899.09-Sep-2020 5524.01 3467.24 77.56 6.00 259.10 2626.56
   08:38:38.099.09-Sep-2020 5524.01 3469.99 77.56 6.00 259.30 2626.56
   08:38:38.299.09-Sep-2020 5524.01 3465.99 77.56 6.00 259.50 2626.56
   08:38:38.499.09-Sep-2020 5524.01 3460.91 77.56 6.00 259.70 2626.56
   08:38:38.699.09-Sep-2020 5524.01 3463.46 77.56 6.00 259.90 2626.56
   08:38:38.899.09-Sep-2020 5524.01 3461.59 77.56 6.00 260.10 2626.56
   08:38:39.099.09-Sep-2020 5524.01 3457.20 77.56 6.00 260.30 2626.56
   08:38:39.300.09-Sep-2020 5524.01 3450.73 77.56 6.00 260.50 2626.56
   08:38:39.500.09-Sep-2020 5524.01 3446.06 77.56 6.00 260.70 2626.56
   08:38:39.700.09-Sep-2020 5524.01 3443.87 77.55 6.00 260.90 2626.56
   08:38:39.900.09-Sep-2020 5524.01 3442.77 77.55 6.00 261.10 2626.56
   08:38:40.100.09-Sep-2020 5524.01 3442.77 77.55 6.00 261.30 2626.56
   08:38:40.300.09-Sep-2020 5524.01 3438.64 77.55 6.00 261.50 2626.56
   08:38:40.500.09-Sep-2020 5524.01 3439.23 77.55 6.00 261.70 2626.56
   08:38:40.700.09-Sep-2020 5524.01 3437.32 77.55 6.00 261.90 2626.56
   08:38:40.900.09-Sep-2020 5524.01 3447.07 77.55 6.00 262.10 2626.56
   08:38:41.100.09-Sep-2020 5524.01 3447.07 77.55 6.00 262.30 2626.56
   08:38:41.300.09-Sep-2020 5524.01 3456.17 77.55 6.00 262.50 2626.56
   08:38:41.500.09-Sep-2020 5524.01 3457.94 77.55 6.00 262.70 2626.56
   08:38:41.700.09-Sep-2020 5524.01 3449.04 77.55 6.00 262.90 2626.56
   08:38:41.901.09-Sep-2020 5524.01 3447.76 77.55 6.00 263.10 2626.56
   08:38:42.101.09-Sep-2020 5524.01 3447.76 77.55 6.00 263.30 2626.56
   08:38:42.301.09-Sep-2020 5524.01 3440.09 77.55 6.00 263.50 2626.56
   08:38:42.501.09-Sep-2020 5524.01 3439.35 77.55 6.00 263.70 2626.56
   08:38:42.701.09-Sep-2020 5524.01 3437.17 77.55 6.00 263.90 2626.56
   08:38:42.901.09-Sep-2020 5524.01 3433.36 77.55 6.00 264.10 2626.56
   08:38:43.101.09-Sep-2020 5524.01 3430.03 77.55 6.00 264.30 2626.56
   08:38:43.301.09-Sep-2020 5524.01 3427.99 77.55 6.00 264.50 2626.56
   08:38:43.501.09-Sep-2020 5524.01 3428.37 77.55 6.00 264.70 2626.56
   08:38:43.701.09-Sep-2020 5524.01 3424.31 77.55 6.00 264.90 2626.56
   08:38:43.901.09-Sep-2020 5524.01 3420.70 77.55 6.00 265.10 2626.56
   08:38:44.101.09-Sep-2020 5524.01 3420.70 77.55 6.00 265.30 2626.56
   08:38:44.301.09-Sep-2020 5524.01 3429.79 77.55 6.00 265.50 2626.56
   08:38:44.502.09-Sep-2020 5524.01 3427.36 77.55 6.00 265.70 2626.56
   08:38:44.702.09-Sep-2020 5524.01 3426.49 77.55 6.00 265.90 2626.56
   08:38:44.902.09-Sep-2020 5524.01 3425.05 77.55 6.00 266.11 2626.56
   08:38:45.102.09-Sep-2020 5524.01 3425.05 77.55 6.00 266.31 2626.56
   08:38:45.302.09-Sep-2020 5524.01 3423.62 77.55 6.00 266.51 2626.56
   08:38:45.502.09-Sep-2020 5524.01 3418.14 77.55 6.00 266.71 2626.56
   08:38:45.702.09-Sep-2020 5524.01 3417.91 77.55 6.00 266.91 2626.56
   08:38:45.902.09-Sep-2020 5524.01 3416.67 77.55 6.00 267.11 2626.56
   08:38:46.102.09-Sep-2020 5524.01 3414.72 77.55 6.00 267.31 2626.56
   08:38:46.302.09-Sep-2020 5524.01 3415.21 77.55 6.00 267.51 2626.56
   08:38:46.502.09-Sep-2020 5524.01 3411.02 77.55 6.00 267.71 2626.56
   08:38:46.702.09-Sep-2020 5524.01 3520.41 77.55 6.00 267.91 2626.56
   08:38:46.903.09-Sep-2020 5524.01 3668.59 77.55 6.00 268.11 2626.56
   08:38:47.103.09-Sep-2020 5524.01 3695.47 77.55 6.00 268.31 2626.56
   08:38:47.303.09-Sep-2020 5524.01 3699.06 77.55 6.00 268.51 2626.56
   08:38:47.503.09-Sep-2020 5524.01 3699.48 77.55 6.00 268.71 2626.56
   08:38:47.703.09-Sep-2020 5524.01 3699.35 77.55 6.00 268.91 2626.56
   08:38:47.903.09-Sep-2020 5524.01 3699.93 77.55 6.00 269.11 2626.56
   08:38:48.103.09-Sep-2020 5524.01 3699.93 77.55 6.00 269.31 2626.56
   08:38:48.303.09-Sep-2020 5524.01 3699.96 77.55 6.00 269.51 2626.56
   08:38:48.503.09-Sep-2020 5524.01 3700.06 77.55 6.00 269.71 2626.56
   08:38:48.703.09-Sep-2020 5524.01 3700.11 77.55 6.00 269.91 2626.56
   08:38:48.903.09-Sep-2020 5524.01 3699.70 77.55 6.00 270.11 2626.56
   08:38:49.103.09-Sep-2020 5524.01 3699.70 77.55 6.00 270.31 2626.56
   08:38:49.303.09-Sep-2020 5524.01 3700.26 77.55 6.00 270.51 2626.56
   08:38:49.504.09-Sep-2020 5524.01 3700.36 77.55 6.00 270.71 2626.56
   08:38:49.704.09-Sep-2020 5524.01 3700.32 77.55 6.00 270.91 2626.56
   08:38:49.904.09-Sep-2020 5524.01 3700.42 77.55 6.00 271.11 2626.56
   08:38:50.104.09-Sep-2020 5524.01 3700.40 77.55 6.00 271.31 2626.56
   08:38:50.304.09-Sep-2020 5524.01 3700.56 77.55 6.00 271.51 2626.56
   08:38:50.504.09-Sep-2020 5524.01 3700.34 77.55 6.00 271.71 2626.56
   08:38:50.704.09-Sep-2020 5524.01 3700.50 77.55 6.00 271.91 2626.56
   08:38:50.904.09-Sep-2020 5524.01 3700.52 77.55 6.00 272.11 2626.56
   08:38:51.104.09-Sep-2020 5524.01 3700.52 77.55 6.00 272.31 2626.56
   08:38:51.304.09-Sep-2020 5524.01 3700.57 77.55 6.00 272.51 2626.56
   08:38:51.504.09-Sep-2020 5524.01 3700.40 77.55 6.00 272.71 2626.56
   08:38:51.704.09-Sep-2020 5524.01 3700.58 77.55 6.00 272.91 2626.56
   08:38:51.904.09-Sep-2020 5524.01 3700.57 77.55 6.00 273.11 2626.56
   08:38:52.105.09-Sep-2020 5524.01 3700.57 77.55 6.00 273.31 2626.56
   08:38:52.305.09-Sep-2020 5524.01 3700.50 77.55 6.00 273.51 2626.56
   08:38:52.505.09-Sep-2020 5524.01 3700.57 77.55 6.00 273.71 2626.56
   08:38:52.705.09-Sep-2020 5524.01 3700.74 77.55 6.00 273.91 2626.56
   08:38:52.905.09-Sep-2020 5524.01 3700.45 77.55 6.00 274.11 2626.56
   08:38:53.105.09-Sep-2020 5524.01 3700.45 77.55 6.00 274.31 2626.56
   08:38:53.305.09-Sep-2020 5524.01 3700.60 77.55 6.00 274.51 2626.56
   08:38:53.505.09-Sep-2020 5524.01 3700.71 77.55 6.00 274.71 2626.56
   08:38:53.705.09-Sep-2020 5524.01 3700.54 77.55 6.00 274.91 2626.56
   08:38:53.905.09-Sep-2020 5524.01 3700.60 77.55 6.00 275.11 2626.56
   08:38:54.105.09-Sep-2020 5524.01 3700.62 77.55 6.00 275.31 2626.56
   08:38:54.305.09-Sep-2020 5524.01 3700.64 77.55 6.00 275.51 2626.56
   08:38:54.506.09-Sep-2020 5524.01 3700.63 77.55 6.00 275.71 2626.56
   08:38:54.706.09-Sep-2020 5524.01 3700.61 77.55 6.00 275.91 2626.56
