~Version Information
 VERS.                  2.0:   CWLS log ASCII Standard -VERSION 2.0
 WRAP.                   NO:   One line per depth step
~Well Information Block
#MNEM.UNIT     VALUE/NAME     DESCRIPTION
#---------     -----------    ---------------------------
 STRT.S             11:14:18 09-Sep-20: START TIME 11:14:18 09-Sep-20
 STOP.S             11:21:20 09-Sep-20: STOP TIME  11:21:20 09-Sep-20
 STEP.S                   0.00: STEP TIME
 NULL.                 -999.25: NULL VALUE
 MDS .        Operator Entered:  MAG DATA SOURCE
 PDAT.          Mean Sea Level:  PERMANENT DATUM
 DCON.         Sperry Drilling:  DIRECTNL CONTR
 RIG .              West Azeri:  RIG NAME
 WELL.           C40 (Slot 20):  WELL NAME
 SRVC.     Turan Drilling Engineering:  CONTRACTOR
 FLD .                     ACG:  FIELD NAME
 CTRY.              Azerbaijan:  COUNTRY NAME
 PROV.                    Baku:  PROVINCE
 STAT.                    Baku:  STATE NAME
 REGN.                   EESSA:  REGION
 BASE.              Azerbaijan:  LOGGING EQUIPMENT BASE LOCATION
 COMP.     BP Exploration (Caspian Sea) Ltd:  COMPANY
 WTYP.                Deviated:  WELL TYPE
 SON .        AZ-XX-0906344804:  JOB NUMBER
 FTOP.          Formation Tops:  FORM TOPS DESC
 ILTD.               Lithology:  INTERP LTH DESC
 SVYD.                  Survey:  SURVEY DESC
 DMOD.             Drill Model:  DRILL MOD DESC
 HPTY.       Minimum Curvature:  HOLE POS TYPE
 NREF.                    Grid:  NORTH REFERENCE
 SPUD.               01-Jan-20:  SPUD DATE
 DATE.      00.59.44 15-Sep-20:  END TIME
 STIM.      12.00.00 12-Jun-20:  START TIME
 DMF .             Drill Floor:  DRILL MEAS FROM
 DFST.                        :  DIST FSL TEXT
 DFWT.                        :  DIST FWL TEXT
 API .                        :  API NUMBER
 CNTY.                        :  COUNTY
 UWI .                        :  UNIQUE WELL IDENTIFIER
 LOC .                        :  LOCATION
 LMF .             Drill Floor:  LOG MEASURED FROM
 VSNS.m                   2.88:  VERT SEC N/S
 VSEW.m                  -3.84:  VERT SEC E/W
 AGAP.m                  43.42:  AIR GAP
 APD .m                  43.42:  DEPTH ABOVE PD
 WDMS.m                 118.27:  WD ELEV
 EGL .m                   0.00:  GROUND ELEVATION
 EPD .m                   0.00:  ELEVATION
 AZTC.deg                 6.23:  AZM TOTAL CORR
 GRDC.deg                 0.20:  GRID CORRECTION
 MDEC.deg                 6.43:  MAGNETIC DECL
 MDIP.deg                59.49:  MAGNETIC DIP
 MFLD.nT              50277.00:  MAGNETIC FIELD
 GVFD.g                   1.00:  GRAVITY FIELD
 VSDR.deg               173.20:  VERT SEC DIRECT
 TDD .m                5790.01:  TOTAL DEPTH (DRILLER)
 SDEP.m                5231.01:  START DEPTH
 DFSL.m                   0.00:  DISTANCE FSL
 DFWL.m                   0.00:  DISTANCE FWL
 UTMY.m             4435808.83:  UTM Y
 UTMX.m              526266.40:  UTM X
 WHEW.m                  -3.84:  WELL HEAD E/W
 WHNS.m                   2.88:  WELL HEAD N/S
 LONG.deg                51.31:  LONGITUDE
 LATI.deg                40.06:  LATITUDE
 TVDS.m                  43.42:  TVDSS CORRECTN
 DEP .m                 430.08:  DEPTH
 EKB .m                  43.42:  KB ELEVATION
 EDF .m                  43.42:  DF ELEVATION
 TDL .m                 559.00:  TOTAL DEPTH (LOGGER)
 MAGU.                 1849381:  MAGUTM CHECKSUM
 VSC .                       0:  VS TO CLOSURE
~Parameter Information Block
#MNEM.UNIT       Value        Description
#---------     -----------    ---------------------------
 AV  .mps                 4.87:  Ann Velocity 
 AVMX.mps                 7.08:  Max Ann Veloc 
 AZIF.deg               108.87:  Azm, Final 
 BHAT.                  Rotary:  BHA Type 
 BROT.°/30m               0.35:  Build Rotating 
 BS  .in                  8.50:  Bit Size 
 BSZ .in                  8.50:  Bit Size 
 BTPL.psig              360.00:  Bit Press Loss 
 CABU.                     Yes:  Customer Abuse 
 TCS .hr                106.24:  Time Ciculation Ended 
 CV  .mps                 1.77:  Crit Velocity 
 CVMX.mps                 2.03:  Max Crit Veloc 
 DD1 .         Aykhan Agagulov:  Direct Drillr 1 
 DD2 .            Nonso Okofor:  Direct Drillr 2 
 DDSV.               Geo-Pilot:  DD Service 
 DEFF.%                  98.00:  % Det Eff 
 DLRX.°/30m               0.50:  Dogleg Rot Max 
 DLSO.°/30m               0.40:  Dogleg Oriented 
 DLSX.°/30m               0.94:  Dogleg Str Max 
 DRET.      20.30.00 08-Sep-20:  Drill End Time 
 DRST.      22.15.00 06-Sep-20:  Drill Start Tim 
 DTIM.hr                 31.31:  Time Drilling 
 EDEP.m                5790.01:  End Depth 
 ENG1.           Amrah Tahirov:  Engineer 1 
 ENG2.         Dair Mahammadov:  Engineer 2 
 ENG3.           Emil Huseynov:  Engineer 3 
 ETIM.      04.01.04 12-Sep-20:  End Time 
 FLOI.gpm               450.00:  Flow In 
 FLON.gpm               450.00:  Flow In Min 
 FLOS.cptm                2.00:  Fluid Loss 
 FLOX.gpm               450.00:  Flow In Max 
 FTRO.       Formation Presure:  FTWD Run Obj 
 HFLO.                      No:  High Flow 
 HPRE.                      No:  High Pressure 
 HTEM.                      No:  High Temp 
 HYDO.m                   1.80:  Hydro Offset 
 IFIN.deg                72.03:  Inc, Final 
 IMAX.deg                73.72:  Inc Max 
 IMIN.deg                70.94:  Inc Min 
 IMND.m                5508.52:  Inc Min Depth 
 IMXD.m                5253.60:  Inc Max Depth 
 JARR.                      No:  Jarring 
 LETM.      20.30.00 08-Sep-20:  Log End Time 
 LOST.hr                     0:  Lost Rig Time 
 LSTM.      22.15.00 06-Sep-20:  Log Start Time 
 MDCL.ppm             36000.00:  Mud Chlorides 
 MDES.     Inversion Oil/Synthetic:  Mud Desc 
 DFD .sg                  1.44:  Mud Density 
 MDMN.sg                  1.44:  Dens Mud Min 
 MDMX.sg                  1.57:  Dens Mud Max 
 MOIL.                      70:  Run Mud Oil % 
 MOWR.                   70:30:  Run Mud OWR 
 MSND.                       0:  Run Mud Sand % 
 MSOL.                      21:  Run Mud Solids% 
 DFV .spqt               68.00:  Mud Viscosity 
 MWOD.in                  6.75:  MWD Tool OD 
 MWSI.                     Yes:  Serv Intrp, MWD 
 OTIM.hr                174.84:  Time Operating 
 PCON.           Look Like New:  Pad Condition 
 PMAX.psia            10616.93:  Press Op, Max 
 PV  .cP                 50.00:  Mud PV 
 RUN .                     700:  Run Number 
 ROPA.m/hr               14.24:  ROP Avg 
 ROPN.m/hr               10.00:  ROP Min 
 ROPX.m/hr               32.00:  ROP Max 
 RPMA.rpm               120.90:  RPM Surface Avg 
 RPMN.rpm               120.00:  RPM Surface Min 
 RPMX.rpm               140.00:  RPM Surface Max 
 RRUN.                    0700:  Rig Run Number 
 RTIM.hr                  3.20:  Time Reaming 
 SAZI.deg               109.99:  Azm, Start 
 SDEP.m                5231.01:  Start Depth 
 SIDD.                      No:  Serv Intrp, DD 
 SINC.deg                73.72:  Inc, Start 
 SPPA.psig             3051.00:  SPP Avg 
 SPPN.psig             2950.00:  SPP Min 
 SPPX.psig             3250.00:  SPP Max 
 STIM.      08.00.00 05-Sep-20:  Start Time 
 SVCS.                 DD, MWD:  Services 
 SVER.                    9.20:  Sperry Version 
 TDAT.m                 559.00:  Tot Depth Attmp 
 TDDF.                      No:  Trip for DD 
 TDLG.m                 559.00:  Tot Depth Loggd 
 TFF .                      No:  Trip for Fail 
 TQAA.f-kp               26.49:  Torque Abs Avg 
 TQAN.f-kp               25.00:  Torque Abs Min 
 TQAX.f-kp               27.00:  Torque Abs Max 
 TRRT.°/30m               1.50:  Turn Rotating 
 MRT .                    HCIM:  Maximum Recorded Temperature 
 TTMX.degC               90.20:  Max Tool Temp 
 VS01.                90542671:  Virtual Str1 SN 
 VS02.                90545185:  Virtual Str2 SN 
 VS03.                90602015:  Virtual Str3 SN 
 VS04.                90515230:  Virtual Str4 SN 
 WBMN.klb                 5.00:  WOB Min 
 WOBA.klb                14.79:  WOB Avg 
 WOBX.klb                20.00:  WOB Max 
 YP  .lhf2               29.00:  Yield Point 
~Curve Information Block
#MNEM.UNIT                 API CODE     Curve Description
#---------               -----------    ---------------------------
 TIME.HHMMSS            00 000 000 000:  GT Time & Date
 GTDEPTH.m              00 000 000 000:  GT Depth
 GTPQH.psia             00 000 000 000:  GT HR Quartz Pressure
 GTTQ.degC              00 000 000 000:  GT Quartz Temperature
 GTTN.NONE              00 000 000 000:  GT Test Number
 GTET.sec               00 000 000 000:  GT Elapsed Test Time
 GTTVD.m                00 000 000 000:  GT True Vertical Depth
#Other Information
#
#WARRANTY: Halliburton will use its best efforts to furnish customers with 
#accurate information and interpretations that are part of, and incident to, the services 
#provided.  However, Halliburton cannot and does not warrant the accuracy 
#or correctness of such information and interpretations.  Under no circumstances should any 
#such information or interpretation be relied upon as the sole basis for any drilling, 
#completion, production, or financial decision or any procedure involving any risk to the 
#safety of any drilling venture, drilling rig or its crew or any other third party.  The 
#Customer has full responsibility for all drilling, completion and production operation.  
#Halliburton makes no representations or warranties, either expressed or 
#implied, including, but not limited to, the implied warranties of merchantability or fitness 
#for a particular purpose, with respect to the services rendered.  In no event will 
#Halliburton be liable for failure to obtain any particular results or for 
#any damages, including, but not limited to, indirect, special or consequential damages, 
#resulting from the use of any information or interpretation provided by Halliburton.
#
~A           TIME           GTDEPTH  GTPQH  GTTQ  GTTN   GTET   GTTVD  
# ...
   11:16:56.754.09-Sep-2020 5442.01 3434.94 76.12 11.00 158.24 2600.30
   11:16:56.954.09-Sep-2020 5442.01 3429.40 76.12 11.00 158.44 2600.30
   11:16:57.154.09-Sep-2020 5442.01 3428.44 76.12 11.00 158.64 2600.30
   11:16:57.354.09-Sep-2020 5442.01 3429.27 76.12 11.00 158.84 2600.30
   11:16:57.554.09-Sep-2020 5442.01 3426.12 76.12 11.00 159.04 2600.30
   11:16:57.754.09-Sep-2020 5442.01 3425.79 76.12 11.00 159.24 2600.30
   11:16:57.954.09-Sep-2020 5442.01 3428.50 76.12 11.00 159.44 2600.30
   11:16:58.154.09-Sep-2020 5442.01 3429.03 76.12 11.00 159.64 2600.30
   11:16:58.355.09-Sep-2020 5442.01 3424.99 76.12 11.00 159.84 2600.30
   11:16:58.555.09-Sep-2020 5442.01 3423.01 76.12 11.00 160.04 2600.30
   11:16:58.755.09-Sep-2020 5442.01 3441.44 76.12 11.00 160.24 2600.30
   11:16:58.955.09-Sep-2020 5442.01 3448.23 76.12 11.00 160.44 2600.30
   11:16:59.155.09-Sep-2020 5442.01 3444.49 76.12 11.00 160.64 2600.30
   11:16:59.355.09-Sep-2020 5442.01 3511.08 76.12 11.00 160.84 2600.30
   11:16:59.555.09-Sep-2020 5442.01 3581.14 76.12 11.00 161.04 2600.30
   11:16:59.755.09-Sep-2020 5442.01 3581.14 76.12 11.00 161.24 2600.30
   11:16:59.955.09-Sep-2020 5442.01 3581.72 76.12 11.00 161.44 2600.30
   11:17:00.155.09-Sep-2020 5442.01 3581.67 76.12 11.00 161.64 2600.30
   11:17:00.355.09-Sep-2020 5442.01 3581.71 76.12 11.00 161.84 2600.30
   11:17:00.555.09-Sep-2020 5442.01 3581.74 76.12 11.00 162.04 2600.30
   11:17:00.755.09-Sep-2020 5442.01 3581.74 76.12 11.00 162.24 2600.30
   11:17:00.955.09-Sep-2020 5442.01 3581.82 76.12 11.00 162.44 2600.30
   11:17:01.155.09-Sep-2020 5442.01 3581.85 76.12 11.00 162.64 2600.30
   11:17:01.355.09-Sep-2020 5442.01 3581.94 76.12 11.00 162.84 2600.30
   11:17:01.555.09-Sep-2020 5442.01 3581.87 76.12 11.00 163.05 2600.30
   11:17:01.755.09-Sep-2020 5442.01 3581.87 76.12 11.00 163.25 2600.30
   11:17:01.956.09-Sep-2020 5442.01 3581.97 76.12 11.00 163.45 2600.30
   11:17:02.156.09-Sep-2020 5442.01 3581.98 76.12 11.00 163.65 2600.30
   11:17:02.356.09-Sep-2020 5442.01 3582.00 76.12 11.00 163.85 2600.30
   11:17:02.556.09-Sep-2020 5442.01 3582.00 76.12 11.00 164.05 2600.30
   11:17:02.756.09-Sep-2020 5442.01 3581.98 76.12 11.00 164.25 2600.30
   11:17:02.956.09-Sep-2020 5442.01 3582.07 76.12 11.00 164.45 2600.30
   11:17:03.156.09-Sep-2020 5442.01 3582.06 76.12 11.00 164.65 2600.30
   11:17:03.356.09-Sep-2020 5442.01 3582.05 76.12 11.00 164.85 2600.30
   11:17:03.556.09-Sep-2020 5442.01 3582.06 76.12 11.00 165.05 2600.30
   11:17:03.756.09-Sep-2020 5442.01 3582.06 76.12 11.00 165.25 2600.30
   11:17:03.956.09-Sep-2020 5442.01 3582.07 76.12 11.00 165.45 2600.30
   11:17:04.156.09-Sep-2020 5442.01 3582.02 76.12 11.00 165.65 2600.30
   11:17:04.356.09-Sep-2020 5442.01 3582.12 76.12 11.00 165.85 2600.30
   11:17:04.556.09-Sep-2020 5442.01 3582.10 76.12 11.00 166.05 2600.30
   11:17:04.756.09-Sep-2020 5442.01 3582.10 76.12 11.00 166.25 2600.30
   11:17:04.956.09-Sep-2020 5442.01 3582.09 76.12 11.00 166.45 2600.30
   11:17:05.156.09-Sep-2020 5442.01 3582.09 76.12 11.00 166.65 2600.30
   11:17:05.356.09-Sep-2020 5442.01 3582.09 76.12 11.00 166.85 2600.30
   11:17:05.557.09-Sep-2020 5442.01 3582.09 76.12 11.00 167.05 2600.30
   11:17:05.757.09-Sep-2020 5442.01 3582.10 76.12 11.00 167.25 2600.30
   11:17:05.957.09-Sep-2020 5442.01 3582.10 76.12 11.00 167.45 2600.30
   11:17:06.157.09-Sep-2020 5442.01 3582.10 76.12 11.00 167.65 2600.30
   11:17:06.357.09-Sep-2020 5442.01 3582.10 76.12 11.00 167.85 2600.30
   11:17:06.557.09-Sep-2020 5442.01 3582.10 76.12 11.00 168.05 2600.30
   11:17:06.757.09-Sep-2020 5442.01 3582.10 76.12 11.00 168.25 2600.30
   11:17:06.957.09-Sep-2020 5442.01 3582.10 76.12 11.00 168.45 2600.30
   11:17:07.157.09-Sep-2020 5442.01 3582.10 76.12 11.00 168.65 2600.30
   11:17:07.357.09-Sep-2020 5442.01 3582.10 76.12 11.00 168.85 2600.30
   11:17:07.557.09-Sep-2020 5442.01 3582.10 76.12 11.00 169.05 2600.30
   11:17:07.757.09-Sep-2020 5442.01 3582.10 76.12 11.00 169.25 2600.30
   11:17:07.957.09-Sep-2020 5442.01 3582.16 76.12 11.00 169.45 2600.30
   11:17:08.157.09-Sep-2020 5442.01 3582.06 76.12 11.00 169.65 2600.30
   11:17:08.357.09-Sep-2020 5442.01 3582.11 76.12 11.00 169.85 2600.30
   11:17:08.557.09-Sep-2020 5442.01 3582.11 76.12 11.00 170.05 2600.30
   11:17:08.757.09-Sep-2020 5442.01 3582.11 76.12 11.00 170.25 2600.30
   11:17:08.957.09-Sep-2020 5442.01 3582.12 76.12 11.00 170.45 2600.30
   11:17:09.158.09-Sep-2020 5442.01 3582.11 76.12 11.00 170.65 2600.30
   11:17:09.358.09-Sep-2020 5442.01 3582.11 76.12 11.00 170.85 2600.30
   11:17:09.558.09-Sep-2020 5442.01 3582.11 76.12 11.00 171.05 2600.30
   11:17:09.758.09-Sep-2020 5442.01 3582.11 76.12 11.00 171.25 2600.30
   11:17:09.958.09-Sep-2020 5442.01 3582.11 76.12 11.00 171.45 2600.30
   11:17:10.158.09-Sep-2020 5442.01 3582.11 76.12 11.00 171.65 2600.30
   11:17:10.358.09-Sep-2020 5442.01 3582.11 76.12 11.00 171.85 2600.30
   11:17:10.558.09-Sep-2020 5442.01 3582.12 76.12 11.00 172.05 2600.30
   11:17:10.758.09-Sep-2020 5442.01 3582.11 76.12 11.00 172.25 2600.30
   11:17:10.958.09-Sep-2020 5442.01 3582.11 76.12 11.00 172.45 2600.30
   11:17:11.158.09-Sep-2020 5442.01 3582.12 76.12 11.00 172.65 2600.30
   11:17:11.358.09-Sep-2020 5442.01 3582.13 76.12 11.00 172.85 2600.30
   11:17:11.558.09-Sep-2020 5442.01 3582.11 76.12 11.00 173.05 2600.30
   11:17:11.758.09-Sep-2020 5442.01 3582.11 76.12 11.00 173.25 2600.30
   11:17:11.958.09-Sep-2020 5442.01 3582.12 76.12 11.00 173.45 2600.30
   11:17:12.158.09-Sep-2020 5442.01 3582.13 76.12 11.00 173.65 2600.30
   11:17:12.358.09-Sep-2020 5442.01 3582.06 76.12 11.00 173.85 2600.30
   11:17:12.558.09-Sep-2020 5442.01 3582.16 76.12 11.00 174.05 2600.30
   11:17:12.759.09-Sep-2020 5442.01 3582.16 76.12 11.00 174.25 2600.30
   11:17:12.959.09-Sep-2020 5442.01 3582.13 76.12 11.00 174.45 2600.30
   11:17:13.159.09-Sep-2020 5442.01 3582.11 76.12 11.00 174.65 2600.30
   11:17:13.359.09-Sep-2020 5442.01 3582.12 76.12 11.00 174.85 2600.30
   11:17:13.559.09-Sep-2020 5442.01 3582.12 76.12 11.00 175.05 2600.30
   11:17:13.759.09-Sep-2020 5442.01 3582.12 76.12 11.00 175.25 2600.30
   11:17:13.959.09-Sep-2020 5442.01 3582.16 76.12 11.00 175.45 2600.30
   11:17:14.159.09-Sep-2020 5442.01 3582.08 76.12 11.00 175.65 2600.30
   11:17:14.359.09-Sep-2020 5442.01 3582.12 76.12 11.00 175.85 2600.30
   11:17:14.559.09-Sep-2020 5442.01 3582.11 76.12 11.00 176.05 2600.30
   11:17:14.759.09-Sep-2020 5442.01 3582.11 76.12 11.00 176.25 2600.30
   11:17:14.959.09-Sep-2020 5442.01 3582.12 76.12 11.00 176.45 2600.30
   11:17:15.159.09-Sep-2020 5442.01 3582.12 76.12 11.00 176.65 2600.30
   11:17:15.359.09-Sep-2020 5442.01 3582.11 76.12 11.00 176.85 2600.30
   11:17:15.559.09-Sep-2020 5442.01 3582.14 76.12 11.00 177.05 2600.30
   11:17:15.759.09-Sep-2020 5442.01 3582.14 76.12 11.00 177.25 2600.30
   11:17:15.959.09-Sep-2020 5442.01 3582.12 76.12 11.00 177.45 2600.30
   11:17:16.159.09-Sep-2020 5442.01 3582.12 76.12 11.00 177.65 2600.30
   11:17:16.360.09-Sep-2020 5442.01 3582.14 76.12 11.00 177.85 2600.30
   11:17:16.560.09-Sep-2020 5442.01 3582.10 76.12 11.00 178.05 2600.30
   11:17:16.760.09-Sep-2020 5442.01 3582.10 76.12 11.00 178.25 2600.30
   11:17:16.960.09-Sep-2020 5442.01 3582.15 76.12 11.00 178.45 2600.30
   11:17:17.160.09-Sep-2020 5442.01 3582.11 76.12 11.00 178.65 2600.30
   11:17:17.360.09-Sep-2020 5442.01 3582.12 76.12 11.00 178.85 2600.30
   11:17:17.560.09-Sep-2020 5442.01 3582.11 76.12 11.00 179.05 2600.30
   11:17:17.760.09-Sep-2020 5442.01 3582.13 76.12 11.00 179.25 2600.30
   11:17:17.960.09-Sep-2020 5442.01 3582.12 76.12 11.00 179.45 2600.30
   11:17:18.160.09-Sep-2020 5442.01 3582.12 76.12 11.00 179.65 2600.30
   11:17:18.360.09-Sep-2020 5442.01 3582.12 76.12 11.00 179.85 2600.30
   11:17:18.560.09-Sep-2020 5442.01 3582.11 76.12 11.00 180.05 2600.30
   11:17:18.760.09-Sep-2020 5442.01 3582.12 76.12 11.00 180.25 2600.30
   11:17:18.960.09-Sep-2020 5442.01 3582.12 76.12 11.00 180.45 2600.30
   11:17:19.160.09-Sep-2020 5442.01 3582.12 76.12 11.00 180.65 2600.30
