~Version Information
 VERS.                  2.0:   CWLS log ASCII Standard -VERSION 2.0
 WRAP.                   NO:   One line per depth step
~Well Information Block
#MNEM.UNIT     VALUE/NAME     DESCRIPTION
#---------     -----------    ---------------------------
 STRT.S             11:14:18 09-Sep-20: START TIME 11:14:18 09-Sep-20
 STOP.S             11:21:20 09-Sep-20: STOP TIME  11:21:20 09-Sep-20
 STEP.S                   0.00: STEP TIME
 NULL.                 -999.25: NULL VALUE
 MDS .        Operator Entered:  MAG DATA SOURCE
 PDAT.          Mean Sea Level:  PERMANENT DATUM
 DCON.         Sperry Drilling:  DIRECTNL CONTR
 RIG .              West Azeri:  RIG NAME
 WELL.           C40 (Slot 20):  WELL NAME
 SRVC.     Turan Drilling Engineering:  CONTRACTOR
 FLD .                     ACG:  FIELD NAME
 CTRY.              Azerbaijan:  COUNTRY NAME
 PROV.                    Baku:  PROVINCE
 STAT.                    Baku:  STATE NAME
 REGN.                   EESSA:  REGION
 BASE.              Azerbaijan:  LOGGING EQUIPMENT BASE LOCATION
 COMP.     BP Exploration (Caspian Sea) Ltd:  COMPANY
 WTYP.                Deviated:  WELL TYPE
 SON .        AZ-XX-0906344804:  JOB NUMBER
 FTOP.          Formation Tops:  FORM TOPS DESC
 ILTD.               Lithology:  INTERP LTH DESC
 SVYD.                  Survey:  SURVEY DESC
 DMOD.             Drill Model:  DRILL MOD DESC
 HPTY.       Minimum Curvature:  HOLE POS TYPE
 NREF.                    Grid:  NORTH REFERENCE
 SPUD.               01-Jan-20:  SPUD DATE
 DATE.      00.59.44 15-Sep-20:  END TIME
 STIM.      12.00.00 12-Jun-20:  START TIME
 DMF .             Drill Floor:  DRILL MEAS FROM
 DFST.                        :  DIST FSL TEXT
 DFWT.                        :  DIST FWL TEXT
 API .                        :  API NUMBER
 CNTY.                        :  COUNTY
 UWI .                        :  UNIQUE WELL IDENTIFIER
 LOC .                        :  LOCATION
 LMF .             Drill Floor:  LOG MEASURED FROM
 VSNS.m                   2.88:  VERT SEC N/S
 VSEW.m                  -3.84:  VERT SEC E/W
 AGAP.m                  43.42:  AIR GAP
 APD .m                  43.42:  DEPTH ABOVE PD
 WDMS.m                 118.27:  WD ELEV
 EGL .m                   0.00:  GROUND ELEVATION
 EPD .m                   0.00:  ELEVATION
 AZTC.deg                 6.23:  AZM TOTAL CORR
 GRDC.deg                 0.20:  GRID CORRECTION
 MDEC.deg                 6.43:  MAGNETIC DECL
 MDIP.deg                59.49:  MAGNETIC DIP
 MFLD.nT              50277.00:  MAGNETIC FIELD
 GVFD.g                   1.00:  GRAVITY FIELD
 VSDR.deg               173.20:  VERT SEC DIRECT
 TDD .m                5790.01:  TOTAL DEPTH (DRILLER)
 SDEP.m                5231.01:  START DEPTH
 DFSL.m                   0.00:  DISTANCE FSL
 DFWL.m                   0.00:  DISTANCE FWL
 UTMY.m             4435808.83:  UTM Y
 UTMX.m              526266.40:  UTM X
 WHEW.m                  -3.84:  WELL HEAD E/W
 WHNS.m                   2.88:  WELL HEAD N/S
 LONG.deg                51.31:  LONGITUDE
 LATI.deg                40.06:  LATITUDE
 TVDS.m                  43.42:  TVDSS CORRECTN
 DEP .m                 430.08:  DEPTH
 EKB .m                  43.42:  KB ELEVATION
 EDF .m                  43.42:  DF ELEVATION
 TDL .m                 559.00:  TOTAL DEPTH (LOGGER)
 MAGU.                 1849381:  MAGUTM CHECKSUM
 VSC .                       0:  VS TO CLOSURE
~Parameter Information Block
#MNEM.UNIT       Value        Description
#---------     -----------    ---------------------------
 AV  .mps                 4.87:  Ann Velocity 
 AVMX.mps                 7.08:  Max Ann Veloc 
 AZIF.deg               108.87:  Azm, Final 
 BHAT.                  Rotary:  BHA Type 
 BROT.°/30m               0.35:  Build Rotating 
 BS  .in                  8.50:  Bit Size 
 BSZ .in                  8.50:  Bit Size 
 BTPL.psig              360.00:  Bit Press Loss 
 CABU.                     Yes:  Customer Abuse 
 TCS .hr                106.24:  Time Ciculation Ended 
 CV  .mps                 1.77:  Crit Velocity 
 CVMX.mps                 2.03:  Max Crit Veloc 
 DD1 .         Aykhan Agagulov:  Direct Drillr 1 
 DD2 .            Nonso Okofor:  Direct Drillr 2 
 DDSV.               Geo-Pilot:  DD Service 
 DEFF.%                  98.00:  % Det Eff 
 DLRX.°/30m               0.50:  Dogleg Rot Max 
 DLSO.°/30m               0.40:  Dogleg Oriented 
 DLSX.°/30m               0.94:  Dogleg Str Max 
 DRET.      20.30.00 08-Sep-20:  Drill End Time 
 DRST.      22.15.00 06-Sep-20:  Drill Start Tim 
 DTIM.hr                 31.31:  Time Drilling 
 EDEP.m                5790.01:  End Depth 
 ENG1.           Amrah Tahirov:  Engineer 1 
 ENG2.         Dair Mahammadov:  Engineer 2 
 ENG3.           Emil Huseynov:  Engineer 3 
 ETIM.      04.01.04 12-Sep-20:  End Time 
 FLOI.gpm               450.00:  Flow In 
 FLON.gpm               450.00:  Flow In Min 
 FLOS.cptm                2.00:  Fluid Loss 
 FLOX.gpm               450.00:  Flow In Max 
 FTRO.       Formation Presure:  FTWD Run Obj 
 HFLO.                      No:  High Flow 
 HPRE.                      No:  High Pressure 
 HTEM.                      No:  High Temp 
 HYDO.m                   1.80:  Hydro Offset 
 IFIN.deg                72.03:  Inc, Final 
 IMAX.deg                73.72:  Inc Max 
 IMIN.deg                70.94:  Inc Min 
 IMND.m                5508.52:  Inc Min Depth 
 IMXD.m                5253.60:  Inc Max Depth 
 JARR.                      No:  Jarring 
 LETM.      20.30.00 08-Sep-20:  Log End Time 
 LOST.hr                     0:  Lost Rig Time 
 LSTM.      22.15.00 06-Sep-20:  Log Start Time 
 MDCL.ppm             36000.00:  Mud Chlorides 
 MDES.     Inversion Oil/Synthetic:  Mud Desc 
 DFD .sg                  1.44:  Mud Density 
 MDMN.sg                  1.44:  Dens Mud Min 
 MDMX.sg                  1.57:  Dens Mud Max 
 MOIL.                      70:  Run Mud Oil % 
 MOWR.                   70:30:  Run Mud OWR 
 MSND.                       0:  Run Mud Sand % 
 MSOL.                      21:  Run Mud Solids% 
 DFV .spqt               68.00:  Mud Viscosity 
 MWOD.in                  6.75:  MWD Tool OD 
 MWSI.                     Yes:  Serv Intrp, MWD 
 OTIM.hr                174.84:  Time Operating 
 PCON.           Look Like New:  Pad Condition 
 PMAX.psia            10616.93:  Press Op, Max 
 PV  .cP                 50.00:  Mud PV 
 RUN .                     700:  Run Number 
 ROPA.m/hr               14.24:  ROP Avg 
 ROPN.m/hr               10.00:  ROP Min 
 ROPX.m/hr               32.00:  ROP Max 
 RPMA.rpm               120.90:  RPM Surface Avg 
 RPMN.rpm               120.00:  RPM Surface Min 
 RPMX.rpm               140.00:  RPM Surface Max 
 RRUN.                    0700:  Rig Run Number 
 RTIM.hr                  3.20:  Time Reaming 
 SAZI.deg               109.99:  Azm, Start 
 SDEP.m                5231.01:  Start Depth 
 SIDD.                      No:  Serv Intrp, DD 
 SINC.deg                73.72:  Inc, Start 
 SPPA.psig             3051.00:  SPP Avg 
 SPPN.psig             2950.00:  SPP Min 
 SPPX.psig             3250.00:  SPP Max 
 STIM.      08.00.00 05-Sep-20:  Start Time 
 SVCS.                 DD, MWD:  Services 
 SVER.                    9.20:  Sperry Version 
 TDAT.m                 559.00:  Tot Depth Attmp 
 TDDF.                      No:  Trip for DD 
 TDLG.m                 559.00:  Tot Depth Loggd 
 TFF .                      No:  Trip for Fail 
 TQAA.f-kp               26.49:  Torque Abs Avg 
 TQAN.f-kp               25.00:  Torque Abs Min 
 TQAX.f-kp               27.00:  Torque Abs Max 
 TRRT.°/30m               1.50:  Turn Rotating 
 MRT .                    HCIM:  Maximum Recorded Temperature 
 TTMX.degC               90.20:  Max Tool Temp 
 VS01.                90542671:  Virtual Str1 SN 
 VS02.                90545185:  Virtual Str2 SN 
 VS03.                90602015:  Virtual Str3 SN 
 VS04.                90515230:  Virtual Str4 SN 
 WBMN.klb                 5.00:  WOB Min 
 WOBA.klb                14.79:  WOB Avg 
 WOBX.klb                20.00:  WOB Max 
 YP  .lhf2               29.00:  Yield Point 
~Curve Information Block
#MNEM.UNIT                 API CODE     Curve Description
#---------               -----------    ---------------------------
 TIME.HHMMSS            00 000 000 000:  GT Time & Date
 GTDEPTH.m              00 000 000 000:  GT Depth
 GTPQH.psia             00 000 000 000:  GT HR Quartz Pressure
 GTTQ.degC              00 000 000 000:  GT Quartz Temperature
 GTTN.NONE              00 000 000 000:  GT Test Number
 GTET.sec               00 000 000 000:  GT Elapsed Test Time
 GTTVD.m                00 000 000 000:  GT True Vertical Depth
#Other Information
#
#WARRANTY: Halliburton will use its best efforts to furnish customers with 
#accurate information and interpretations that are part of, and incident to, the services 
#provided.  However, Halliburton cannot and does not warrant the accuracy 
#or correctness of such information and interpretations.  Under no circumstances should any 
#such information or interpretation be relied upon as the sole basis for any drilling, 
#completion, production, or financial decision or any procedure involving any risk to the 
#safety of any drilling venture, drilling rig or its crew or any other third party.  The 
#Customer has full responsibility for all drilling, completion and production operation.  
#Halliburton makes no representations or warranties, either expressed or 
#implied, including, but not limited to, the implied warranties of merchantability or fitness 
#for a particular purpose, with respect to the services rendered.  In no event will 
#Halliburton be liable for failure to obtain any particular results or for 
#any damages, including, but not limited to, indirect, special or consequential damages, 
#resulting from the use of any information or interpretation provided by Halliburton.
#
~A           TIME           GTDEPTH  GTPQH  GTTQ  GTTN   GTET   GTTVD  
   11:14:18.510.09-Sep-2020 5442.01 6280.10 76.23 11.00   0.00 2600.30
   11:14:18.710.09-Sep-2020 5442.01 6280.10 76.23 11.00   0.20 2600.30
   11:14:18.911.09-Sep-2020 5442.01 6281.81 76.23 11.00   0.40 2600.30
   11:14:19.111.09-Sep-2020 5442.01 6282.43 76.23 11.00   0.60 2600.30
   11:14:19.311.09-Sep-2020 5442.01 6281.20 76.23 11.00   0.80 2600.30
   11:14:19.511.09-Sep-2020 5442.01 6287.18 76.23 11.00   1.00 2600.30
   11:14:19.711.09-Sep-2020 5442.01 6287.18 76.23 11.00   1.20 2600.30
   11:14:19.911.09-Sep-2020 5442.01 6283.48 76.23 11.00   1.40 2600.30
   11:14:20.111.09-Sep-2020 5442.01 6284.38 76.23 11.00   1.60 2600.30
   11:14:20.311.09-Sep-2020 5442.01 6284.96 76.23 11.00   1.80 2600.30
   11:14:20.511.09-Sep-2020 5442.01 6285.56 76.23 11.00   2.00 2600.30
   11:14:20.711.09-Sep-2020 5442.01 6285.56 76.23 11.00   2.20 2600.30
   11:14:20.911.09-Sep-2020 5442.01 6286.97 76.23 11.00   2.40 2600.30
   11:14:21.111.09-Sep-2020 5442.01 6285.96 76.23 11.00   2.60 2600.30
   11:14:21.311.09-Sep-2020 5442.01 6287.95 76.23 11.00   2.80 2600.30
   11:14:21.511.09-Sep-2020 5442.01 6287.13 76.23 11.00   3.00 2600.30
   11:14:21.711.09-Sep-2020 5442.01 6287.34 76.23 11.00   3.20 2600.30
   11:14:21.911.09-Sep-2020 5442.01 6286.99 76.23 11.00   3.40 2600.30
   11:14:22.111.09-Sep-2020 5442.01 6287.34 76.23 11.00   3.60 2600.30
   11:14:22.311.09-Sep-2020 5442.01 6286.79 76.23 11.00   3.80 2600.30
   11:14:22.512.09-Sep-2020 5442.01 6286.62 76.23 11.00   4.00 2600.30
   11:14:22.712.09-Sep-2020 5442.01 6285.97 76.23 11.00   4.20 2600.30
   11:14:22.912.09-Sep-2020 5442.01 6285.77 76.23 11.00   4.40 2600.30
   11:14:23.112.09-Sep-2020 5442.01 6285.14 76.23 11.00   4.60 2600.30
   11:14:23.312.09-Sep-2020 5442.01 6284.23 76.23 11.00   4.80 2600.30
   11:14:23.512.09-Sep-2020 5442.01 6284.32 76.23 11.00   5.00 2600.30
   11:14:23.712.09-Sep-2020 5442.01 6284.32 76.23 11.00   5.20 2600.30
   11:14:23.912.09-Sep-2020 5442.01 6284.28 76.23 11.00   5.40 2600.30
   11:14:24.112.09-Sep-2020 5442.01 6284.63 76.23 11.00   5.60 2600.30
   11:14:24.312.09-Sep-2020 5442.01 6284.85 76.23 11.00   5.80 2600.30
   11:14:24.512.09-Sep-2020 5442.01 6294.24 76.23 11.00   6.00 2600.30
   11:14:24.712.09-Sep-2020 5442.01 6294.24 76.23 11.00   6.20 2600.30
   11:14:24.912.09-Sep-2020 5442.01 6286.13 76.23 11.00   6.40 2600.30
   11:14:25.112.09-Sep-2020 5442.01 6289.12 76.23 11.00   6.60 2600.30
   11:14:25.312.09-Sep-2020 5442.01 6289.92 76.23 11.00   6.80 2600.30
   11:14:25.512.09-Sep-2020 5442.01 6291.12 76.23 11.00   7.00 2600.30
   11:14:25.712.09-Sep-2020 5442.01 6290.37 76.23 11.00   7.20 2600.30
   11:14:25.912.09-Sep-2020 5442.01 6291.94 76.23 11.00   7.40 2600.30
   11:14:26.113.09-Sep-2020 5442.01 6292.82 76.23 11.00   7.60 2600.30
   11:14:26.313.09-Sep-2020 5442.01 6293.51 76.23 11.00   7.80 2600.30
   11:14:26.513.09-Sep-2020 5442.01 6294.25 76.23 11.00   8.00 2600.30
   11:14:26.713.09-Sep-2020 5442.01 6294.55 76.23 11.00   8.20 2600.30
   11:14:26.913.09-Sep-2020 5442.01 6294.68 76.23 11.00   8.40 2600.30
   11:14:27.113.09-Sep-2020 5442.01 6295.10 76.23 11.00   8.60 2600.30
   11:14:27.313.09-Sep-2020 5442.01 6295.53 76.23 11.00   8.80 2600.30
   11:14:27.513.09-Sep-2020 5442.01 6295.61 76.23 11.00   9.00 2600.30
   11:14:27.713.09-Sep-2020 5442.01 6295.61 76.23 11.00   9.20 2600.30
   11:14:27.913.09-Sep-2020 5442.01 6295.61 76.23 11.00   9.40 2600.30
   11:14:28.113.09-Sep-2020 5442.01 6305.77 76.23 11.00   9.60 2600.30
   11:14:28.313.09-Sep-2020 5442.01 6292.36 76.23 11.00   9.80 2600.30
   11:14:28.513.09-Sep-2020 5442.01 6295.50 76.23 11.00  10.00 2600.30
   11:14:28.713.09-Sep-2020 5442.01 6295.50 76.23 11.00  10.20 2600.30
   11:14:28.913.09-Sep-2020 5442.01 6297.04 76.23 11.00  10.40 2600.30
   11:14:29.113.09-Sep-2020 5442.01 6297.65 76.23 11.00  10.60 2600.30
   11:14:29.313.09-Sep-2020 5442.01 6307.14 76.23 11.00  10.80 2600.30
   11:14:29.513.09-Sep-2020 5442.01 6293.47 76.23 11.00  11.00 2600.30
   11:14:29.714.09-Sep-2020 5442.01 6293.47 76.23 11.00  11.20 2600.30
   11:14:29.914.09-Sep-2020 5442.01 6299.89 76.23 11.00  11.40 2600.30
   11:14:30.114.09-Sep-2020 5442.01 6298.51 76.23 11.00  11.60 2600.30
   11:14:30.314.09-Sep-2020 5442.01 6299.42 76.22 11.00  11.80 2600.30
   11:14:30.514.09-Sep-2020 5442.01 6301.84 76.23 11.00  12.00 2600.30
   11:14:30.714.09-Sep-2020 5442.01 6301.69 76.22 11.00  12.20 2600.30
   11:14:30.914.09-Sep-2020 5442.01 6300.41 76.22 11.00  12.40 2600.30
   11:14:31.114.09-Sep-2020 5442.01 6302.30 76.22 11.00  12.60 2600.30
   11:14:31.314.09-Sep-2020 5442.01 6300.94 76.22 11.00  12.80 2600.30
   11:14:31.514.09-Sep-2020 5442.01 6301.03 76.22 11.00  13.00 2600.30
   11:14:31.714.09-Sep-2020 5442.01 6301.03 76.22 11.00  13.20 2600.30
   11:14:31.914.09-Sep-2020 5442.01 6303.80 76.22 11.00  13.40 2600.30
   11:14:32.114.09-Sep-2020 5442.01 6302.27 76.22 11.00  13.60 2600.30
   11:14:32.314.09-Sep-2020 5442.01 6304.91 76.22 11.00  13.80 2600.30
   11:14:32.514.09-Sep-2020 5442.01 6303.59 76.22 11.00  14.00 2600.30
   11:14:32.714.09-Sep-2020 5442.01 6303.59 76.22 11.00  14.20 2600.30
   11:14:32.914.09-Sep-2020 5442.01 6304.48 76.22 11.00  14.40 2600.30
   11:14:33.114.09-Sep-2020 5442.01 6304.86 76.22 11.00  14.60 2600.30
   11:14:33.314.09-Sep-2020 5442.01 6305.56 76.22 11.00  14.80 2600.30
   11:14:33.515.09-Sep-2020 5442.01 6305.77 76.22 11.00  15.00 2600.30
   11:14:33.715.09-Sep-2020 5442.01 6305.77 76.22 11.00  15.20 2600.30
   11:14:33.915.09-Sep-2020 5442.01 6310.75 76.22 11.00  15.40 2600.30
   11:14:34.115.09-Sep-2020 5442.01 6306.50 76.22 11.00  15.60 2600.30
   11:14:34.315.09-Sep-2020 5442.01 6306.74 76.22 11.00  15.80 2600.30
   11:14:34.515.09-Sep-2020 5442.01 6307.51 76.22 11.00  16.00 2600.30
   11:14:34.715.09-Sep-2020 5442.01 6307.51 76.22 11.00  16.20 2600.30
   11:14:34.915.09-Sep-2020 5442.01 6307.42 76.22 11.00  16.40 2600.30
   11:14:35.115.09-Sep-2020 5442.01 6306.81 76.22 11.00  16.60 2600.30
   11:14:35.315.09-Sep-2020 5442.01 6307.02 76.22 11.00  16.80 2600.30
   11:14:35.515.09-Sep-2020 5442.01 6307.57 76.22 11.00  17.00 2600.30
   11:14:35.715.09-Sep-2020 5442.01 6307.57 76.22 11.00  17.20 2600.30
   11:14:35.915.09-Sep-2020 5442.01 6309.01 76.22 11.00  17.40 2600.30
   11:14:36.115.09-Sep-2020 5442.01 6309.77 76.22 11.00  17.60 2600.30
   11:14:36.315.09-Sep-2020 5442.01 6310.13 76.22 11.00  17.80 2600.30
   11:14:36.515.09-Sep-2020 5442.01 6310.72 76.22 11.00  18.00 2600.30
   11:14:36.715.09-Sep-2020 5442.01 6310.72 76.22 11.00  18.21 2600.30
   11:14:36.915.09-Sep-2020 5442.01 6311.77 76.22 11.00  18.41 2600.30
   11:14:37.116.09-Sep-2020 5442.01 6312.19 76.22 11.00  18.61 2600.30
   11:14:37.316.09-Sep-2020 5442.01 6312.64 76.22 11.00  18.81 2600.30
   11:14:37.516.09-Sep-2020 5442.01 6323.10 76.22 11.00  19.01 2600.30
   11:14:37.716.09-Sep-2020 5442.01 6308.63 76.22 11.00  19.21 2600.30
   11:14:37.916.09-Sep-2020 5442.01 6313.21 76.22 11.00  19.41 2600.30
   11:14:38.116.09-Sep-2020 5442.01 6316.13 76.22 11.00  19.61 2600.30
   11:14:38.316.09-Sep-2020 5442.01 6314.74 76.22 11.00  19.81 2600.30
   11:14:38.516.09-Sep-2020 5442.01 6315.38 76.22 11.00  20.01 2600.30
   11:14:38.716.09-Sep-2020 5442.01 6314.02 76.22 11.00  20.21 2600.30
   11:14:38.916.09-Sep-2020 5442.01 6315.16 76.22 11.00  20.41 2600.30
   11:14:39.116.09-Sep-2020 5442.01 6315.42 76.22 11.00  20.61 2600.30
   11:14:39.316.09-Sep-2020 5442.01 6316.39 76.22 11.00  20.81 2600.30
   11:14:39.516.09-Sep-2020 5442.01 6316.95 76.22 11.00  21.01 2600.30
   11:14:39.716.09-Sep-2020 5442.01 6316.95 76.22 11.00  21.21 2600.30
   11:14:39.916.09-Sep-2020 5442.01 6316.97 76.22 11.00  21.41 2600.30
   11:14:40.116.09-Sep-2020 5442.01 6317.39 76.22 11.00  21.61 2600.30
   11:14:40.316.09-Sep-2020 5442.01 6317.93 76.22 11.00  21.81 2600.30
   11:14:40.516.09-Sep-2020 5442.01 6318.56 76.22 11.00  22.01 2600.30
   11:14:40.717.09-Sep-2020 5442.01 6318.56 76.22 11.00  22.21 2600.30
   11:14:40.917.09-Sep-2020 5442.01 6329.15 76.22 11.00  22.41 2600.30
