~Version Information
 VERS.                  2.0:   CWLS log ASCII Standard -VERSION 2.0
 WRAP.                   NO:   One line per depth step
~Well Information Block
#MNEM.UNIT     VALUE/NAME     DESCRIPTION
#---------     -----------    ---------------------------
 STRT.S             10:55:02 09-Sep-20: START TIME 10:55:02 09-Sep-20
 STOP.S             11:02:04 09-Sep-20: STOP TIME  11:02:04 09-Sep-20
 STEP.S                   0.00: STEP TIME
 NULL.                 -999.25: NULL VALUE
 MDS .        Operator Entered:  MAG DATA SOURCE
 PDAT.          Mean Sea Level:  PERMANENT DATUM
 DCON.         Sperry Drilling:  DIRECTNL CONTR
 RIG .              West Azeri:  RIG NAME
 WELL.           C40 (Slot 20):  WELL NAME
 SRVC.     Turan Drilling Engineering:  CONTRACTOR
 FLD .                     ACG:  FIELD NAME
 CTRY.              Azerbaijan:  COUNTRY NAME
 PROV.                    Baku:  PROVINCE
 STAT.                    Baku:  STATE NAME
 REGN.                   EESSA:  REGION
 BASE.              Azerbaijan:  LOGGING EQUIPMENT BASE LOCATION
 COMP.     BP Exploration (Caspian Sea) Ltd:  COMPANY
 WTYP.                Deviated:  WELL TYPE
 SON .        AZ-XX-0906344804:  JOB NUMBER
 FTOP.          Formation Tops:  FORM TOPS DESC
 ILTD.               Lithology:  INTERP LTH DESC
 SVYD.                  Survey:  SURVEY DESC
 DMOD.             Drill Model:  DRILL MOD DESC
 HPTY.       Minimum Curvature:  HOLE POS TYPE
 NREF.                    Grid:  NORTH REFERENCE
 SPUD.               01-Jan-20:  SPUD DATE
 DATE.      00.59.44 15-Sep-20:  END TIME
 STIM.      12.00.00 12-Jun-20:  START TIME
 DMF .             Drill Floor:  DRILL MEAS FROM
 DFST.                        :  DIST FSL TEXT
 DFWT.                        :  DIST FWL TEXT
 API .                        :  API NUMBER
 CNTY.                        :  COUNTY
 UWI .                        :  UNIQUE WELL IDENTIFIER
 LOC .                        :  LOCATION
 LMF .             Drill Floor:  LOG MEASURED FROM
 VSNS.m                   2.88:  VERT SEC N/S
 VSEW.m                  -3.84:  VERT SEC E/W
 AGAP.m                  43.42:  AIR GAP
 APD .m                  43.42:  DEPTH ABOVE PD
 WDMS.m                 118.27:  WD ELEV
 EGL .m                   0.00:  GROUND ELEVATION
 EPD .m                   0.00:  ELEVATION
 AZTC.deg                 6.23:  AZM TOTAL CORR
 GRDC.deg                 0.20:  GRID CORRECTION
 MDEC.deg                 6.43:  MAGNETIC DECL
 MDIP.deg                59.49:  MAGNETIC DIP
 MFLD.nT              50277.00:  MAGNETIC FIELD
 GVFD.g                   1.00:  GRAVITY FIELD
 VSDR.deg               173.20:  VERT SEC DIRECT
 TDD .m                5790.01:  TOTAL DEPTH (DRILLER)
 SDEP.m                5231.01:  START DEPTH
 DFSL.m                   0.00:  DISTANCE FSL
 DFWL.m                   0.00:  DISTANCE FWL
 UTMY.m             4435808.83:  UTM Y
 UTMX.m              526266.40:  UTM X
 WHEW.m                  -3.84:  WELL HEAD E/W
 WHNS.m                   2.88:  WELL HEAD N/S
 LONG.deg                51.31:  LONGITUDE
 LATI.deg                40.06:  LATITUDE
 TVDS.m                  43.42:  TVDSS CORRECTN
 DEP .m                 430.08:  DEPTH
 EKB .m                  43.42:  KB ELEVATION
 EDF .m                  43.42:  DF ELEVATION
 TDL .m                 559.00:  TOTAL DEPTH (LOGGER)
 MAGU.                 1849381:  MAGUTM CHECKSUM
 VSC .                       0:  VS TO CLOSURE
~Parameter Information Block
#MNEM.UNIT       Value        Description
#---------     -----------    ---------------------------
 AV  .mps                 4.87:  Ann Velocity 
 AVMX.mps                 7.08:  Max Ann Veloc 
 AZIF.deg               108.87:  Azm, Final 
 BHAT.                  Rotary:  BHA Type 
 BROT.°/30m               0.35:  Build Rotating 
 BS  .in                  8.50:  Bit Size 
 BSZ .in                  8.50:  Bit Size 
 BTPL.psig              360.00:  Bit Press Loss 
 CABU.                     Yes:  Customer Abuse 
 COMM.                     ¬Î:  Run Comments 1 
 TCS .hr                106.24:  Time Ciculation Ended 
 CV  .mps                 1.77:  Crit Velocity 
 CVMX.mps                 2.03:  Max Crit Veloc 
 DD1 .         Aykhan Agagulov:  Direct Drillr 1 
 DD2 .            Nonso Okofor:  Direct Drillr 2 
 DDSV.               Geo-Pilot:  DD Service 
 DEFF.%                  98.00:  % Det Eff 
 DLRX.°/30m               0.50:  Dogleg Rot Max 
 DLSO.°/30m               0.40:  Dogleg Oriented 
 DLSX.°/30m               0.94:  Dogleg Str Max 
 DRET.      20.30.00 08-Sep-20:  Drill End Time 
 DRST.      22.15.00 06-Sep-20:  Drill Start Tim 
 DTIM.hr                 31.31:  Time Drilling 
 EDEP.m                5790.01:  End Depth 
 ENG1.           Amrah Tahirov:  Engineer 1 
 ENG2.         Dair Mahammadov:  Engineer 2 
 ENG3.           Emil Huseynov:  Engineer 3 
 ETIM.      04.01.04 12-Sep-20:  End Time 
 FLOI.gpm               450.00:  Flow In 
 FLON.gpm               450.00:  Flow In Min 
 FLOS.cptm                2.00:  Fluid Loss 
 FLOX.gpm               450.00:  Flow In Max 
 FTRO.       Formation Presure:  FTWD Run Obj 
 HFLO.                      No:  High Flow 
 HPRE.                      No:  High Pressure 
 HTEM.                      No:  High Temp 
 HYDO.m                   1.80:  Hydro Offset 
 IFIN.deg                72.03:  Inc, Final 
 IMAX.deg                73.72:  Inc Max 
 IMIN.deg                70.94:  Inc Min 
 IMND.m                5508.52:  Inc Min Depth 
 IMXD.m                5253.60:  Inc Max Depth 
 JARR.                      No:  Jarring 
 LETM.      20.30.00 08-Sep-20:  Log End Time 
 LOST.hr                     0:  Lost Rig Time 
 LSTM.      22.15.00 06-Sep-20:  Log Start Time 
 MDCL.ppm             36000.00:  Mud Chlorides 
 MDES.     Inversion Oil/Synthetic:  Mud Desc 
 DFD .sg                  1.44:  Mud Density 
 MDMN.sg                  1.44:  Dens Mud Min 
 MDMX.sg                  1.57:  Dens Mud Max 
 MOIL.                      70:  Run Mud Oil % 
 MOWR.                   70:30:  Run Mud OWR 
 MSND.                       0:  Run Mud Sand % 
 MSOL.                      21:  Run Mud Solids% 
 DFV .spqt               68.00:  Mud Viscosity 
 MWOD.in                  6.75:  MWD Tool OD 
 MWSI.                     Yes:  Serv Intrp, MWD 
 OTIM.hr                174.84:  Time Operating 
 PCON.           Look Like New:  Pad Condition 
 PMAX.psia            10616.93:  Press Op, Max 
 PV  .cP                 50.00:  Mud PV 
 RUN .                     700:  Run Number 
 ROPA.m/hr               14.24:  ROP Avg 
 ROPN.m/hr               10.00:  ROP Min 
 ROPX.m/hr               32.00:  ROP Max 
 RPMA.rpm               120.90:  RPM Surface Avg 
 RPMN.rpm               120.00:  RPM Surface Min 
 RPMX.rpm               140.00:  RPM Surface Max 
 RRUN.                    0700:  Rig Run Number 
 RTIM.hr                  3.20:  Time Reaming 
 SAZI.deg               109.99:  Azm, Start 
 SDEP.m                5231.01:  Start Depth 
 SIDD.                      No:  Serv Intrp, DD 
 SINC.deg                73.72:  Inc, Start 
 SPPA.psig             3051.00:  SPP Avg 
 SPPN.psig             2950.00:  SPP Min 
 SPPX.psig             3250.00:  SPP Max 
 STIM.      08.00.00 05-Sep-20:  Start Time 
 SVCS.                 DD, MWD:  Services 
 SVER.                    9.20:  Sperry Version 
 TDAT.m                 559.00:  Tot Depth Attmp 
 TDDF.                      No:  Trip for DD 
 TDLG.m                 559.00:  Tot Depth Loggd 
 TFF .                      No:  Trip for Fail 
 TQAA.f-kp               26.49:  Torque Abs Avg 
 TQAN.f-kp               25.00:  Torque Abs Min 
 TQAX.f-kp               27.00:  Torque Abs Max 
 TRRT.°/30m               1.50:  Turn Rotating 
 MRT .                    HCIM:  Maximum Recorded Temperature 
 TTMX.degC               90.20:  Max Tool Temp 
 VS01.                90542671:  Virtual Str1 SN 
 VS02.                90545185:  Virtual Str2 SN 
 VS03.                90602015:  Virtual Str3 SN 
 VS04.                90515230:  Virtual Str4 SN 
 WBMN.klb                 5.00:  WOB Min 
 WOBA.klb                14.79:  WOB Avg 
 WOBX.klb                20.00:  WOB Max 
 YP  .lhf2               29.00:  Yield Point 
~Curve Information Block
#MNEM.UNIT                 API CODE     Curve Description
#---------               -----------    ---------------------------
 TIME.HHMMSS            00 000 000 000:  GT Time & Date
 GTDEPTH.m              00 000 000 000:  GT Depth
 GTPQH.psia             00 000 000 000:  GT HR Quartz Pressure
 GTTQ.degC              00 000 000 000:  GT Quartz Temperature
 GTTN.NONE              00 000 000 000:  GT Test Number
 GTET.sec               00 000 000 000:  GT Elapsed Test Time
 GTTVD.m                00 000 000 000:  GT True Vertical Depth
#Other Information
#
#WARRANTY: Halliburton will use its best efforts to furnish customers with 
#accurate information and interpretations that are part of, and incident to, the services 
#provided.  However, Halliburton cannot and does not warrant the accuracy 
#or correctness of such information and interpretations.  Under no circumstances should any 
#such information or interpretation be relied upon as the sole basis for any drilling, 
#completion, production, or financial decision or any procedure involving any risk to the 
#safety of any drilling venture, drilling rig or its crew or any other third party.  The 
#Customer has full responsibility for all drilling, completion and production operation.  
#Halliburton makes no representations or warranties, either expressed or 
#implied, including, but not limited to, the implied warranties of merchantability or fitness 
#for a particular purpose, with respect to the services rendered.  In no event will 
#Halliburton be liable for failure to obtain any particular results or for 
#any damages, including, but not limited to, indirect, special or consequential damages, 
#resulting from the use of any information or interpretation provided by Halliburton.
#
~A           TIME           GTDEPTH  GTPQH  GTTQ  GTTN   GTET   GTTVD  
# ...
   11:01:26.497.09-Sep-2020 5456.01 6436.03 76.47 10.00 384.31 2604.72
   11:01:26.697.09-Sep-2020 5456.01 6437.47 76.47 10.00 384.51 2604.72
   11:01:26.897.09-Sep-2020 5456.01 6437.88 76.47 10.00 384.71 2604.72
   11:01:27.097.09-Sep-2020 5456.01 6436.64 76.47 10.00 384.91 2604.72
   11:01:27.297.09-Sep-2020 5456.01 6436.51 76.47 10.00 385.11 2604.72
   11:01:27.498.09-Sep-2020 5456.01 6436.51 76.47 10.00 385.31 2604.72
   11:01:27.698.09-Sep-2020 5456.01 6436.00 76.47 10.00 385.51 2604.72
   11:01:27.898.09-Sep-2020 5456.01 6436.41 76.47 10.00 385.71 2604.72
   11:01:28.098.09-Sep-2020 5456.01 6436.42 76.47 10.00 385.91 2604.72
   11:01:28.298.09-Sep-2020 5456.01 6435.43 76.47 10.00 386.11 2604.72
   11:01:28.498.09-Sep-2020 5456.01 6435.17 76.47 10.00 386.31 2604.72
   11:01:28.698.09-Sep-2020 5456.01 6435.28 76.47 10.00 386.51 2604.72
   11:01:28.898.09-Sep-2020 5456.01 6435.22 76.47 10.00 386.71 2604.72
   11:01:29.098.09-Sep-2020 5456.01 6435.51 76.47 10.00 386.91 2604.72
   11:01:29.298.09-Sep-2020 5456.01 6435.87 76.47 10.00 387.11 2604.72
   11:01:29.498.09-Sep-2020 5456.01 6435.87 76.47 10.00 387.31 2604.72
   11:01:29.698.09-Sep-2020 5456.01 6436.87 76.47 10.00 387.51 2604.72
   11:01:29.898.09-Sep-2020 5456.01 6436.27 76.47 10.00 387.71 2604.72
   11:01:30.098.09-Sep-2020 5456.01 6437.02 76.47 10.00 387.91 2604.72
   11:01:30.298.09-Sep-2020 5456.01 6437.31 76.47 10.00 388.11 2604.72
   11:01:30.498.09-Sep-2020 5456.01 6437.31 76.47 10.00 388.31 2604.72
   11:01:30.698.09-Sep-2020 5456.01 6435.25 76.47 10.00 388.51 2604.72
   11:01:30.898.09-Sep-2020 5456.01 6435.92 76.47 10.00 388.71 2604.72
   11:01:31.099.09-Sep-2020 5456.01 6435.27 76.47 10.00 388.91 2604.72
   11:01:31.299.09-Sep-2020 5456.01 6435.44 76.47 10.00 389.11 2604.72
   11:01:31.499.09-Sep-2020 5456.01 6435.12 76.47 10.00 389.31 2604.72
   11:01:31.699.09-Sep-2020 5456.01 6434.16 76.47 10.00 389.51 2604.72
   11:01:31.899.09-Sep-2020 5456.01 6433.96 76.46 10.00 389.71 2604.72
   11:01:32.099.09-Sep-2020 5456.01 6433.70 76.46 10.00 389.91 2604.72
   11:01:32.299.09-Sep-2020 5456.01 6433.96 76.46 10.00 390.11 2604.72
   11:01:32.499.09-Sep-2020 5456.01 6434.48 76.46 10.00 390.31 2604.72
   11:01:32.699.09-Sep-2020 5456.01 6434.60 76.46 10.00 390.51 2604.72
   11:01:32.899.09-Sep-2020 5456.01 6434.06 76.46 10.00 390.71 2604.72
   11:01:33.099.09-Sep-2020 5456.01 6441.42 76.46 10.00 390.91 2604.72
   11:01:33.299.09-Sep-2020 5456.01 6434.90 76.46 10.00 391.11 2604.72
   11:01:33.499.09-Sep-2020 5456.01 6434.90 76.46 10.00 391.31 2604.72
   11:01:33.699.09-Sep-2020 5456.01 6436.99 76.46 10.00 391.51 2604.72
   11:01:33.899.09-Sep-2020 5456.01 6434.24 76.46 10.00 391.71 2604.72
   11:01:34.099.09-Sep-2020 5456.01 6440.90 76.46 10.00 391.91 2604.72
   11:01:34.299.09-Sep-2020 5456.01 6436.14 76.46 10.00 392.11 2604.72
   11:01:34.499.09-Sep-2020 5456.01 6436.14 76.46 10.00 392.31 2604.72
   11:01:34.700.09-Sep-2020 5456.01 6435.65 76.46 10.00 392.51 2604.72
   11:01:34.900.09-Sep-2020 5456.01 6435.70 76.46 10.00 392.71 2604.72
   11:01:35.100.09-Sep-2020 5456.01 6440.55 76.46 10.00 392.91 2604.72
   11:01:35.300.09-Sep-2020 5456.01 6434.85 76.46 10.00 393.11 2604.72
   11:01:35.500.09-Sep-2020 5456.01 6434.85 76.46 10.00 393.31 2604.72
   11:01:35.700.09-Sep-2020 5456.01 6436.12 76.46 10.00 393.51 2604.72
   11:01:35.900.09-Sep-2020 5456.01 6436.67 76.46 10.00 393.71 2604.72
   11:01:36.100.09-Sep-2020 5456.01 6445.67 76.46 10.00 393.91 2604.72
   11:01:36.300.09-Sep-2020 5456.01 6431.38 76.46 10.00 394.11 2604.72
   11:01:36.500.09-Sep-2020 5456.01 6434.92 76.46 10.00 394.31 2604.72
   11:01:36.700.09-Sep-2020 5456.01 6436.80 76.46 10.00 394.51 2604.72
   11:01:36.900.09-Sep-2020 5456.01 6435.29 76.46 10.00 394.71 2604.72
   11:01:37.100.09-Sep-2020 5456.01 6436.47 76.46 10.00 394.91 2604.72
   11:01:37.300.09-Sep-2020 5456.01 6435.14 76.46 10.00 395.11 2604.72
   11:01:37.500.09-Sep-2020 5456.01 6435.14 76.46 10.00 395.31 2604.72
   11:01:37.700.09-Sep-2020 5456.01 6430.31 76.46 10.00 395.51 2604.72
   11:01:37.900.09-Sep-2020 5456.01 6435.15 76.46 10.00 395.71 2604.72
   11:01:38.100.09-Sep-2020 5456.01 6437.78 76.46 10.00 395.91 2604.72
   11:01:38.301.09-Sep-2020 5456.01 6436.66 76.46 10.00 396.11 2604.72
   11:01:38.501.09-Sep-2020 5456.01 6436.66 76.46 10.00 396.31 2604.72
   11:01:38.701.09-Sep-2020 5456.01 6436.31 76.46 10.00 396.51 2604.72
   11:01:38.901.09-Sep-2020 5456.01 6437.24 76.46 10.00 396.71 2604.72
   11:01:39.101.09-Sep-2020 5456.01 6437.25 76.46 10.00 396.91 2604.72
   11:01:39.301.09-Sep-2020 5456.01 6436.84 76.46 10.00 397.11 2604.72
   11:01:39.501.09-Sep-2020 5456.01 6436.84 76.46 10.00 397.31 2604.72
   11:01:39.701.09-Sep-2020 5456.01 6437.18 76.46 10.00 397.51 2604.72
   11:01:39.901.09-Sep-2020 5456.01 6436.38 76.46 10.00 397.71 2604.72
   11:01:40.101.09-Sep-2020 5456.01 6436.21 76.46 10.00 397.91 2604.72
   11:01:40.301.09-Sep-2020 5456.01 6436.27 76.46 10.00 398.11 2604.72
   11:01:40.501.09-Sep-2020 5456.01 6436.15 76.46 10.00 398.31 2604.72
   11:01:40.701.09-Sep-2020 5456.01 6436.20 76.45 10.00 398.51 2604.72
   11:01:40.901.09-Sep-2020 5456.01 6436.29 76.45 10.00 398.71 2604.72
   11:01:41.101.09-Sep-2020 5456.01 6436.22 76.45 10.00 398.91 2604.72
   11:01:41.301.09-Sep-2020 5456.01 6443.64 76.45 10.00 399.11 2604.72
   11:01:41.501.09-Sep-2020 5456.01 6443.64 76.45 10.00 399.31 2604.72
   11:01:41.701.09-Sep-2020 5456.01 6436.37 76.45 10.00 399.51 2604.72
   11:01:41.902.09-Sep-2020 5456.01 6438.55 76.45 10.00 399.71 2604.72
   11:01:42.102.09-Sep-2020 5456.01 6436.20 76.45 10.00 399.91 2604.72
   11:01:42.302.09-Sep-2020 5456.01 6436.50 76.45 10.00 400.11 2604.72
   11:01:42.502.09-Sep-2020 5456.01 6436.50 76.45 10.00 400.31 2604.72
   11:01:42.702.09-Sep-2020 5456.01 6435.77 76.45 10.00 400.51 2604.72
   11:01:42.902.09-Sep-2020 5456.01 6436.59 76.45 10.00 400.71 2604.72
   11:01:43.102.09-Sep-2020 5456.01 6435.84 76.45 10.00 400.91 2604.72
   11:01:43.302.09-Sep-2020 5456.01 6435.04 76.45 10.00 401.11 2604.72
   11:01:43.502.09-Sep-2020 5456.01 6435.04 76.45 10.00 401.31 2604.72
   11:01:43.702.09-Sep-2020 5456.01 6434.65 76.45 10.00 401.51 2604.72
   11:01:43.902.09-Sep-2020 5456.01 6434.73 76.45 10.00 401.71 2604.72
   11:01:44.102.09-Sep-2020 5456.01 6435.22 76.45 10.00 401.91 2604.72
   11:01:44.302.09-Sep-2020 5456.01 6435.28 76.45 10.00 402.11 2604.72
   11:01:44.502.09-Sep-2020 5456.01 6435.28 76.45 10.00 402.31 2604.72
   11:01:44.702.09-Sep-2020 5456.01 6445.29 76.45 10.00 402.51 2604.72
   11:01:44.902.09-Sep-2020 5456.01 6432.02 76.45 10.00 402.71 2604.72
   11:01:45.102.09-Sep-2020 5456.01 6434.39 76.45 10.00 402.91 2604.72
   11:01:45.302.09-Sep-2020 5456.01 6437.01 76.45 10.00 403.11 2604.72
   11:01:45.503.09-Sep-2020 5456.01 6437.01 76.45 10.00 403.31 2604.72
   11:01:45.703.09-Sep-2020 5456.01 6435.36 76.45 10.00 403.51 2604.72
   11:01:45.903.09-Sep-2020 5456.01 6442.00 76.45 10.00 403.71 2604.72
   11:01:46.103.09-Sep-2020 5456.01 6435.28 76.45 10.00 403.91 2604.72
   11:01:46.303.09-Sep-2020 5456.01 6435.05 76.45 10.00 404.11 2604.72
   11:01:46.503.09-Sep-2020 5456.01 6435.05 76.45 10.00 404.31 2604.72
   11:01:46.703.09-Sep-2020 5456.01 6434.23 76.45 10.00 404.51 2604.72
   11:01:46.903.09-Sep-2020 5456.01 6445.65 76.45 10.00 404.71 2604.72
   11:01:47.103.09-Sep-2020 5456.01 6432.34 76.45 10.00 404.91 2604.72
   11:01:47.303.09-Sep-2020 5456.01 6433.97 76.45 10.00 405.11 2604.72
   11:01:47.503.09-Sep-2020 5456.01 6433.97 76.45 10.00 405.31 2604.72
   11:01:47.703.09-Sep-2020 5456.01 6448.37 76.45 10.00 405.51 2604.72
   11:01:47.903.09-Sep-2020 5456.01 6429.73 76.45 10.00 405.71 2604.72
   11:01:48.103.09-Sep-2020 5456.01 6434.77 76.45 10.00 405.91 2604.72
   11:01:48.303.09-Sep-2020 5456.01 6437.02 76.45 10.00 406.11 2604.72
   11:01:48.503.09-Sep-2020 5456.01 6436.25 76.45 10.00 406.31 2604.72
   11:01:48.703.09-Sep-2020 5456.01 6436.17 76.45 10.00 406.51 2604.72
   11:01:48.903.09-Sep-2020 5456.01 6434.79 76.45 10.00 406.71 2604.72
