~Version Information
 VERS.                  2.0:   CWLS log ASCII Standard -VERSION 2.0
 WRAP.                   NO:   One line per depth step
~Well Information Block
#MNEM.UNIT     VALUE/NAME     DESCRIPTION
#---------     -----------    ---------------------------
 STRT.S             08:34:18 09-Sep-20: START TIME 08:34:18 09-Sep-20
 STOP.S             08:41:20 09-Sep-20: STOP TIME  08:41:20 09-Sep-20
 STEP.S                   0.00: STEP TIME
 NULL.                 -999.25: NULL VALUE
 MDS .        Operator Entered:  MAG DATA SOURCE
 PDAT.          Mean Sea Level:  PERMANENT DATUM
 DCON.         Sperry Drilling:  DIRECTNL CONTR
 RIG .              West Azeri:  RIG NAME
 WELL.           C40 (Slot 20):  WELL NAME
 SRVC.     Turan Drilling Engineering:  CONTRACTOR
 FLD .                     ACG:  FIELD NAME
 CTRY.              Azerbaijan:  COUNTRY NAME
 PROV.                    Baku:  PROVINCE
 STAT.                    Baku:  STATE NAME
 REGN.                   EESSA:  REGION
 BASE.              Azerbaijan:  LOGGING EQUIPMENT BASE LOCATION
 COMP.     BP Exploration (Caspian Sea) Ltd:  COMPANY
 WTYP.                Deviated:  WELL TYPE
 SON .        AZ-XX-0906344804:  JOB NUMBER
 FTOP.          Formation Tops:  FORM TOPS DESC
 ILTD.               Lithology:  INTERP LTH DESC
 SVYD.                  Survey:  SURVEY DESC
 DMOD.             Drill Model:  DRILL MOD DESC
 HPTY.       Minimum Curvature:  HOLE POS TYPE
 NREF.                    Grid:  NORTH REFERENCE
 SPUD.               01-Jan-20:  SPUD DATE
 DATE.      00.59.44 15-Sep-20:  END TIME
 STIM.      12.00.00 12-Jun-20:  START TIME
 DMF .             Drill Floor:  DRILL MEAS FROM
 DFST.                        :  DIST FSL TEXT
 DFWT.                        :  DIST FWL TEXT
 API .                        :  API NUMBER
 CNTY.                        :  COUNTY
 UWI .                        :  UNIQUE WELL IDENTIFIER
 LOC .                        :  LOCATION
 LMF .             Drill Floor:  LOG MEASURED FROM
 VSNS.m                   2.88:  VERT SEC N/S
 VSEW.m                  -3.84:  VERT SEC E/W
 AGAP.m                  43.42:  AIR GAP
 APD .m                  43.42:  DEPTH ABOVE PD
 WDMS.m                 118.27:  WD ELEV
 EGL .m                   0.00:  GROUND ELEVATION
 EPD .m                   0.00:  ELEVATION
 AZTC.deg                 6.23:  AZM TOTAL CORR
 GRDC.deg                 0.20:  GRID CORRECTION
 MDEC.deg                 6.43:  MAGNETIC DECL
 MDIP.deg                59.49:  MAGNETIC DIP
 MFLD.nT              50277.00:  MAGNETIC FIELD
 GVFD.g                   1.00:  GRAVITY FIELD
 VSDR.deg               173.20:  VERT SEC DIRECT
 TDD .m                5790.01:  TOTAL DEPTH (DRILLER)
 SDEP.m                5231.01:  START DEPTH
 DFSL.m                   0.00:  DISTANCE FSL
 DFWL.m                   0.00:  DISTANCE FWL
 UTMY.m             4435808.83:  UTM Y
 UTMX.m              526266.40:  UTM X
 WHEW.m                  -3.84:  WELL HEAD E/W
 WHNS.m                   2.88:  WELL HEAD N/S
 LONG.deg                51.31:  LONGITUDE
 LATI.deg                40.06:  LATITUDE
 TVDS.m                  43.42:  TVDSS CORRECTN
 DEP .m                 430.08:  DEPTH
 EKB .m                  43.42:  KB ELEVATION
 EDF .m                  43.42:  DF ELEVATION
 TDL .m                 559.00:  TOTAL DEPTH (LOGGER)
 MAGU.                 1849381:  MAGUTM CHECKSUM
 VSC .                       0:  VS TO CLOSURE
~Parameter Information Block
#MNEM.UNIT       Value        Description
#---------     -----------    ---------------------------
 AV  .mps                 4.87:  Ann Velocity 
 AVMX.mps                 7.08:  Max Ann Veloc 
 AZIF.deg               108.87:  Azm, Final 
 BHAT.                  Rotary:  BHA Type 
 BROT.°/30m               0.35:  Build Rotating 
 BS  .in                  8.50:  Bit Size 
 BSZ .in                  8.50:  Bit Size 
 BTPL.psig              360.00:  Bit Press Loss 
 CABU.                     Yes:  Customer Abuse 
 COMM.                     \¸P:  Run Comments 1 
 TCS .hr                106.24:  Time Ciculation Ended 
 CV  .mps                 1.77:  Crit Velocity 
 CVMX.mps                 2.03:  Max Crit Veloc 
 DD1 .         Aykhan Agagulov:  Direct Drillr 1 
 DD2 .            Nonso Okofor:  Direct Drillr 2 
 DDSV.               Geo-Pilot:  DD Service 
 DEFF.%                  98.00:  % Det Eff 
 DLRX.°/30m               0.50:  Dogleg Rot Max 
 DLSO.°/30m               0.40:  Dogleg Oriented 
 DLSX.°/30m               0.94:  Dogleg Str Max 
 DRET.      20.30.00 08-Sep-20:  Drill End Time 
 DRST.      22.15.00 06-Sep-20:  Drill Start Tim 
 DTIM.hr                 31.31:  Time Drilling 
 EDEP.m                5790.01:  End Depth 
 ENG1.           Amrah Tahirov:  Engineer 1 
 ENG2.         Dair Mahammadov:  Engineer 2 
 ENG3.           Emil Huseynov:  Engineer 3 
 ETIM.      04.01.04 12-Sep-20:  End Time 
 FLOI.gpm               450.00:  Flow In 
 FLON.gpm               450.00:  Flow In Min 
 FLOS.cptm                2.00:  Fluid Loss 
 FLOX.gpm               450.00:  Flow In Max 
 FTRO.       Formation Presure:  FTWD Run Obj 
 HFLO.                      No:  High Flow 
 HPRE.                      No:  High Pressure 
 HTEM.                      No:  High Temp 
 HYDO.m                   1.80:  Hydro Offset 
 IFIN.deg                72.03:  Inc, Final 
 IMAX.deg                73.72:  Inc Max 
 IMIN.deg                70.94:  Inc Min 
 IMND.m                5508.52:  Inc Min Depth 
 IMXD.m                5253.60:  Inc Max Depth 
 JARR.                      No:  Jarring 
 LETM.      20.30.00 08-Sep-20:  Log End Time 
 LOST.hr                     0:  Lost Rig Time 
 LSTM.      22.15.00 06-Sep-20:  Log Start Time 
 MDCL.ppm             36000.00:  Mud Chlorides 
 MDES.     Inversion Oil/Synthetic:  Mud Desc 
 DFD .sg                  1.44:  Mud Density 
 MDMN.sg                  1.44:  Dens Mud Min 
 MDMX.sg                  1.57:  Dens Mud Max 
 MOIL.                      70:  Run Mud Oil % 
 MOWR.                   70:30:  Run Mud OWR 
 MSND.                       0:  Run Mud Sand % 
 MSOL.                      21:  Run Mud Solids% 
 DFV .spqt               68.00:  Mud Viscosity 
 MWOD.in                  6.75:  MWD Tool OD 
 MWSI.                     Yes:  Serv Intrp, MWD 
 OTIM.hr                174.84:  Time Operating 
 PCON.           Look Like New:  Pad Condition 
 PMAX.psia            10616.93:  Press Op, Max 
 PV  .cP                 50.00:  Mud PV 
 RUN .                     700:  Run Number 
 ROPA.m/hr               14.24:  ROP Avg 
 ROPN.m/hr               10.00:  ROP Min 
 ROPX.m/hr               32.00:  ROP Max 
 RPMA.rpm               120.90:  RPM Surface Avg 
 RPMN.rpm               120.00:  RPM Surface Min 
 RPMX.rpm               140.00:  RPM Surface Max 
 RRUN.                    0700:  Rig Run Number 
 RTIM.hr                  3.20:  Time Reaming 
 SAZI.deg               109.99:  Azm, Start 
 SDEP.m                5231.01:  Start Depth 
 SIDD.                      No:  Serv Intrp, DD 
 SINC.deg                73.72:  Inc, Start 
 SPPA.psig             3051.00:  SPP Avg 
 SPPN.psig             2950.00:  SPP Min 
 SPPX.psig             3250.00:  SPP Max 
 STIM.      08.00.00 05-Sep-20:  Start Time 
 SVCS.                 DD, MWD:  Services 
 SVER.                    9.20:  Sperry Version 
 TDAT.m                 559.00:  Tot Depth Attmp 
 TDDF.                      No:  Trip for DD 
 TDLG.m                 559.00:  Tot Depth Loggd 
 TFF .                      No:  Trip for Fail 
 TQAA.f-kp               26.49:  Torque Abs Avg 
 TQAN.f-kp               25.00:  Torque Abs Min 
 TQAX.f-kp               27.00:  Torque Abs Max 
 TRRT.°/30m               1.50:  Turn Rotating 
 MRT .                    HCIM:  Maximum Recorded Temperature 
 TTMX.degC               90.20:  Max Tool Temp 
 VS01.                90542671:  Virtual Str1 SN 
 VS02.                90545185:  Virtual Str2 SN 
 VS03.                90602015:  Virtual Str3 SN 
 VS04.                90515230:  Virtual Str4 SN 
 WBMN.klb                 5.00:  WOB Min 
 WOBA.klb                14.79:  WOB Avg 
 WOBX.klb                20.00:  WOB Max 
 YP  .lhf2               29.00:  Yield Point 
~Curve Information Block
#MNEM.UNIT                 API CODE     Curve Description
#---------               -----------    ---------------------------
 TIME.HHMMSS            00 000 000 000:  GT Time & Date
 GTDEPTH.m              00 000 000 000:  GT Depth
 GTPQH.psia             00 000 000 000:  GT HR Quartz Pressure
 GTTQ.degC              00 000 000 000:  GT Quartz Temperature
 GTTN.NONE              00 000 000 000:  GT Test Number
 GTET.sec               00 000 000 000:  GT Elapsed Test Time
 GTTVD.m                00 000 000 000:  GT True Vertical Depth
#Other Information
#
#WARRANTY: Halliburton will use its best efforts to furnish customers with 
#accurate information and interpretations that are part of, and incident to, the services 
#provided.  However, Halliburton cannot and does not warrant the accuracy 
#or correctness of such information and interpretations.  Under no circumstances should any 
#such information or interpretation be relied upon as the sole basis for any drilling, 
#completion, production, or financial decision or any procedure involving any risk to the 
#safety of any drilling venture, drilling rig or its crew or any other third party.  The 
#Customer has full responsibility for all drilling, completion and production operation.  
#Halliburton makes no representations or warranties, either expressed or 
#implied, including, but not limited to, the implied warranties of merchantability or fitness 
#for a particular purpose, with respect to the services rendered.  In no event will 
#Halliburton be liable for failure to obtain any particular results or for 
#any damages, including, but not limited to, indirect, special or consequential damages, 
#resulting from the use of any information or interpretation provided by Halliburton.
#
~A           TIME           GTDEPTH  GTPQH  GTTQ  GTTN  GTET   GTTVD  
# ...
   08:36:59.860.09-Sep-2020 5524.01 3678.85 77.57 6.00 161.06 2626.56
   08:37:00.060.09-Sep-2020 5524.01 3678.85 77.57 6.00 161.26 2626.56
   08:37:00.260.09-Sep-2020 5524.01 3699.21 77.57 6.00 161.46 2626.56
   08:37:00.460.09-Sep-2020 5524.01 3700.00 77.57 6.00 161.66 2626.56
   08:37:00.661.09-Sep-2020 5524.01 3699.71 77.57 6.00 161.86 2626.56
   08:37:00.861.09-Sep-2020 5524.01 3699.85 77.57 6.00 162.06 2626.56
   08:37:01.061.09-Sep-2020 5524.01 3699.85 77.57 6.00 162.26 2626.56
   08:37:01.261.09-Sep-2020 5524.01 3700.03 77.57 6.00 162.46 2626.56
   08:37:01.461.09-Sep-2020 5524.01 3700.10 77.57 6.00 162.66 2626.56
   08:37:01.661.09-Sep-2020 5524.01 3700.17 77.57 6.00 162.86 2626.56
   08:37:01.861.09-Sep-2020 5524.01 3700.24 77.57 6.00 163.06 2626.56
   08:37:02.061.09-Sep-2020 5524.01 3700.24 77.57 6.00 163.26 2626.56
   08:37:02.261.09-Sep-2020 5524.01 3700.36 77.57 6.00 163.46 2626.56
   08:37:02.461.09-Sep-2020 5524.01 3700.38 77.57 6.00 163.66 2626.56
   08:37:02.661.09-Sep-2020 5524.01 3700.43 77.57 6.00 163.86 2626.56
   08:37:02.861.09-Sep-2020 5524.01 3700.46 77.57 6.00 164.06 2626.56
   08:37:03.062.09-Sep-2020 5524.01 3700.51 77.57 6.00 164.26 2626.56
   08:37:03.262.09-Sep-2020 5524.01 3700.52 77.57 6.00 164.46 2626.56
   08:37:03.462.09-Sep-2020 5524.01 3700.53 77.57 6.00 164.67 2626.56
   08:37:03.662.09-Sep-2020 5524.01 3700.62 77.57 6.00 164.87 2626.56
   08:37:03.862.09-Sep-2020 5524.01 3700.47 77.57 6.00 165.07 2626.56
   08:37:04.062.09-Sep-2020 5524.01 3700.47 77.57 6.00 165.27 2626.56
   08:37:04.262.09-Sep-2020 5524.01 3700.60 77.57 6.00 165.47 2626.56
   08:37:04.462.09-Sep-2020 5524.01 3700.68 77.57 6.00 165.67 2626.56
   08:37:04.662.09-Sep-2020 5524.01 3700.57 77.57 6.00 165.87 2626.56
   08:37:04.862.09-Sep-2020 5524.01 3700.64 77.57 6.00 166.07 2626.56
   08:37:05.062.09-Sep-2020 5524.01 3700.64 77.57 6.00 166.27 2626.56
   08:37:05.262.09-Sep-2020 5524.01 3700.67 77.57 6.00 166.47 2626.56
   08:37:05.462.09-Sep-2020 5524.01 3700.66 77.57 6.00 166.67 2626.56
   08:37:05.663.09-Sep-2020 5524.01 3700.76 77.57 6.00 166.87 2626.56
   08:37:05.863.09-Sep-2020 5524.01 3700.62 77.57 6.00 167.07 2626.56
   08:37:06.063.09-Sep-2020 5524.01 3700.63 77.57 6.00 167.27 2626.56
   08:37:06.263.09-Sep-2020 5524.01 3700.70 77.57 6.00 167.47 2626.56
   08:37:06.463.09-Sep-2020 5524.01 3700.68 77.57 6.00 167.67 2626.56
   08:37:06.663.09-Sep-2020 5524.01 3700.79 77.57 6.00 167.87 2626.56
   08:37:06.863.09-Sep-2020 5524.01 3700.60 77.57 6.00 168.07 2626.56
   08:37:07.063.09-Sep-2020 5524.01 3700.60 77.57 6.00 168.27 2626.56
   08:37:07.263.09-Sep-2020 5524.01 3700.74 77.57 6.00 168.47 2626.56
   08:37:07.463.09-Sep-2020 5524.01 3700.68 77.57 6.00 168.67 2626.56
   08:37:07.663.09-Sep-2020 5524.01 3700.72 77.57 6.00 168.87 2626.56
   08:37:07.863.09-Sep-2020 5524.01 3700.71 77.57 6.00 169.07 2626.56
   08:37:08.063.09-Sep-2020 5524.01 3700.71 77.57 6.00 169.27 2626.56
   08:37:08.264.09-Sep-2020 5524.01 3700.32 77.57 6.00 169.47 2626.56
   08:37:08.464.09-Sep-2020 5524.01 3701.05 77.57 6.00 169.67 2626.56
   08:37:08.664.09-Sep-2020 5524.01 3700.71 77.57 6.00 169.87 2626.56
   08:37:08.864.09-Sep-2020 5524.01 3700.76 77.57 6.00 170.07 2626.56
   08:37:09.064.09-Sep-2020 5524.01 3700.76 77.57 6.00 170.27 2626.56
   08:37:09.264.09-Sep-2020 5524.01 3700.76 77.57 6.00 170.47 2626.56
   08:37:09.464.09-Sep-2020 5524.01 3700.73 77.57 6.00 170.67 2626.56
   08:37:09.664.09-Sep-2020 5524.01 3700.72 77.57 6.00 170.87 2626.56
   08:37:09.864.09-Sep-2020 5524.01 3700.73 77.57 6.00 171.07 2626.56
   08:37:10.064.09-Sep-2020 5524.01 3700.73 77.57 6.00 171.27 2626.56
   08:37:10.264.09-Sep-2020 5524.01 3700.74 77.57 6.00 171.47 2626.56
   08:37:10.464.09-Sep-2020 5524.01 3700.73 77.57 6.00 171.67 2626.56
   08:37:10.665.09-Sep-2020 5524.01 3700.73 77.57 6.00 171.87 2626.56
   08:37:10.865.09-Sep-2020 5524.01 3700.74 77.57 6.00 172.07 2626.56
   08:37:11.065.09-Sep-2020 5524.01 3700.74 77.57 6.00 172.27 2626.56
   08:37:11.265.09-Sep-2020 5524.01 3700.74 77.57 6.00 172.47 2626.56
   08:37:11.465.09-Sep-2020 5524.01 3700.75 77.57 6.00 172.67 2626.56
   08:37:11.665.09-Sep-2020 5524.01 3700.75 77.57 6.00 172.87 2626.56
   08:37:11.865.09-Sep-2020 5524.01 3700.74 77.57 6.00 173.07 2626.56
   08:37:12.065.09-Sep-2020 5524.01 3700.74 77.57 6.00 173.27 2626.56
   08:37:12.265.09-Sep-2020 5524.01 3700.66 77.57 6.00 173.47 2626.56
   08:37:12.465.09-Sep-2020 5524.01 3700.74 77.57 6.00 173.67 2626.56
   08:37:12.665.09-Sep-2020 5524.01 3700.74 77.57 6.00 173.87 2626.56
   08:37:12.865.09-Sep-2020 5524.01 3700.80 77.57 6.00 174.07 2626.56
   08:37:13.065.09-Sep-2020 5524.01 3700.80 77.57 6.00 174.27 2626.56
   08:37:13.266.09-Sep-2020 5524.01 3700.74 77.57 6.00 174.47 2626.56
   08:37:13.466.09-Sep-2020 5524.01 3700.76 77.57 6.00 174.67 2626.56
   08:37:13.666.09-Sep-2020 5524.01 3700.76 77.57 6.00 174.87 2626.56
   08:37:13.866.09-Sep-2020 5524.01 3700.73 77.57 6.00 175.07 2626.56
   08:37:14.066.09-Sep-2020 5524.01 3700.74 77.57 6.00 175.27 2626.56
   08:37:14.266.09-Sep-2020 5524.01 3700.75 77.57 6.00 175.47 2626.56
   08:37:14.466.09-Sep-2020 5524.01 3700.76 77.57 6.00 175.67 2626.56
   08:37:14.666.09-Sep-2020 5524.01 3700.76 77.57 6.00 175.87 2626.56
   08:37:14.866.09-Sep-2020 5524.01 3700.76 77.57 6.00 176.07 2626.56
   08:37:15.066.09-Sep-2020 5524.01 3700.73 77.57 6.00 176.27 2626.56
   08:37:15.266.09-Sep-2020 5524.01 3700.38 77.57 6.00 176.47 2626.56
   08:37:15.466.09-Sep-2020 5524.01 3701.12 77.57 6.00 176.67 2626.56
   08:37:15.666.09-Sep-2020 5524.01 3700.76 77.57 6.00 176.87 2626.56
   08:37:15.867.09-Sep-2020 5524.01 3700.78 77.57 6.00 177.07 2626.56
   08:37:16.067.09-Sep-2020 5524.01 3700.78 77.57 6.00 177.27 2626.56
   08:37:16.267.09-Sep-2020 5524.01 3700.75 77.57 6.00 177.47 2626.56
   08:37:16.467.09-Sep-2020 5524.01 3700.40 77.57 6.00 177.67 2626.56
   08:37:16.667.09-Sep-2020 5524.01 3701.09 77.57 6.00 177.87 2626.56
   08:37:16.867.09-Sep-2020 5524.01 3700.76 77.57 6.00 178.07 2626.56
   08:37:17.067.09-Sep-2020 5524.01 3700.76 77.57 6.00 178.27 2626.56
   08:37:17.267.09-Sep-2020 5524.01 3700.71 77.57 6.00 178.47 2626.56
   08:37:17.467.09-Sep-2020 5524.01 3700.47 77.57 6.00 178.67 2626.56
   08:37:17.667.09-Sep-2020 5524.01 3701.06 77.57 6.00 178.87 2626.56
   08:37:17.867.09-Sep-2020 5524.01 3700.74 77.57 6.00 179.07 2626.56
   08:37:18.067.09-Sep-2020 5524.01 3700.79 77.57 6.00 179.27 2626.56
   08:37:18.268.09-Sep-2020 5524.01 3700.71 77.57 6.00 179.47 2626.56
   08:37:18.468.09-Sep-2020 5524.01 3700.79 77.57 6.00 179.67 2626.56
   08:37:18.668.09-Sep-2020 5524.01 3700.74 77.57 6.00 179.87 2626.56
   08:37:18.868.09-Sep-2020 5524.01 3700.76 77.57 6.00 180.07 2626.56
   08:37:19.068.09-Sep-2020 5524.01 3700.79 77.57 6.00 180.27 2626.56
   08:37:19.268.09-Sep-2020 5524.01 3700.71 77.57 6.00 180.47 2626.56
   08:37:19.468.09-Sep-2020 5524.01 3700.79 77.57 6.00 180.67 2626.56
   08:37:19.668.09-Sep-2020 5524.01 3700.76 77.57 6.00 180.87 2626.56
   08:37:19.868.09-Sep-2020 5524.01 3700.90 77.57 6.00 181.07 2626.56
   08:37:20.068.09-Sep-2020 5524.01 3700.90 77.57 6.00 181.27 2626.56
   08:37:20.268.09-Sep-2020 5524.01 3700.75 77.57 6.00 181.47 2626.56
   08:37:20.468.09-Sep-2020 5524.01 3700.77 77.57 6.00 181.67 2626.56
   08:37:20.668.09-Sep-2020 5524.01 3700.80 77.57 6.00 181.87 2626.56
   08:37:20.869.09-Sep-2020 5524.01 3700.73 77.57 6.00 182.07 2626.56
   08:37:21.069.09-Sep-2020 5524.01 3700.73 77.57 6.00 182.27 2626.56
   08:37:21.269.09-Sep-2020 5524.01 3700.75 77.57 6.00 182.47 2626.56
   08:37:21.469.09-Sep-2020 5524.01 3700.77 77.57 6.00 182.67 2626.56
   08:37:21.669.09-Sep-2020 5524.01 3700.76 77.57 6.00 182.87 2626.56
   08:37:21.869.09-Sep-2020 5524.01 3700.76 77.57 6.00 183.07 2626.56
   08:37:22.069.09-Sep-2020 5524.01 3700.76 77.57 6.00 183.27 2626.56
   08:37:22.269.09-Sep-2020 5524.01 3700.75 77.57 6.00 183.47 2626.56
   08:37:22.469.09-Sep-2020 5524.01 3700.74 77.57 6.00 183.67 2626.56
   08:37:22.669.09-Sep-2020 5524.01 3700.75 77.57 6.00 183.87 2626.56
