~Version Information
 VERS.                  2.0:   CWLS log ASCII Standard -VERSION 2.0
 WRAP.                   NO:   One line per depth step
~Well Information Block
#MNEM.UNIT     VALUE/NAME     DESCRIPTION
#---------     -----------    ---------------------------
 STRT.S             16:28:49 09-Sep-20: START TIME 16:28:49 09-Sep-20
 STOP.S             16:37:06 09-Sep-20: STOP TIME  16:37:06 09-Sep-20
 STEP.S                   0.00: STEP TIME
 NULL.                 -999.25: NULL VALUE
 MDS .        Operator Entered:  MAG DATA SOURCE
 PDAT.          Mean Sea Level:  PERMANENT DATUM
 DCON.         Sperry Drilling:  DIRECTNL CONTR
 RIG .              West Azeri:  RIG NAME
 WELL.           C40 (Slot 20):  WELL NAME
 SRVC.     Turan Drilling Engineering:  CONTRACTOR
 FLD .                     ACG:  FIELD NAME
 CTRY.              Azerbaijan:  COUNTRY NAME
 PROV.                    Baku:  PROVINCE
 STAT.                    Baku:  STATE NAME
 REGN.                   EESSA:  REGION
 BASE.              Azerbaijan:  LOGGING EQUIPMENT BASE LOCATION
 COMP.     BP Exploration (Caspian Sea) Ltd:  COMPANY
 WTYP.                Deviated:  WELL TYPE
 SON .        AZ-XX-0906344804:  JOB NUMBER
 FTOP.          Formation Tops:  FORM TOPS DESC
 ILTD.               Lithology:  INTERP LTH DESC
 SVYD.                  Survey:  SURVEY DESC
 DMOD.             Drill Model:  DRILL MOD DESC
 HPTY.       Minimum Curvature:  HOLE POS TYPE
 NREF.                    Grid:  NORTH REFERENCE
 SPUD.               01-Jan-20:  SPUD DATE
 DATE.      00.59.44 15-Sep-20:  END TIME
 STIM.      12.00.00 12-Jun-20:  START TIME
 DMF .             Drill Floor:  DRILL MEAS FROM
 DFST.                        :  DIST FSL TEXT
 DFWT.                        :  DIST FWL TEXT
 API .                        :  API NUMBER
 CNTY.                        :  COUNTY
 UWI .                        :  UNIQUE WELL IDENTIFIER
 LOC .                        :  LOCATION
 LMF .             Drill Floor:  LOG MEASURED FROM
 VSNS.m                   2.88:  VERT SEC N/S
 VSEW.m                  -3.84:  VERT SEC E/W
 AGAP.m                  43.42:  AIR GAP
 APD .m                  43.42:  DEPTH ABOVE PD
 WDMS.m                 118.27:  WD ELEV
 EGL .m                   0.00:  GROUND ELEVATION
 EPD .m                   0.00:  ELEVATION
 AZTC.deg                 6.23:  AZM TOTAL CORR
 GRDC.deg                 0.20:  GRID CORRECTION
 MDEC.deg                 6.43:  MAGNETIC DECL
 MDIP.deg                59.49:  MAGNETIC DIP
 MFLD.nT              50277.00:  MAGNETIC FIELD
 GVFD.g                   1.00:  GRAVITY FIELD
 VSDR.deg               173.20:  VERT SEC DIRECT
 TDD .m                5790.01:  TOTAL DEPTH (DRILLER)
 SDEP.m                5231.01:  START DEPTH
 DFSL.m                   0.00:  DISTANCE FSL
 DFWL.m                   0.00:  DISTANCE FWL
 UTMY.m             4435808.83:  UTM Y
 UTMX.m              526266.40:  UTM X
 WHEW.m                  -3.84:  WELL HEAD E/W
 WHNS.m                   2.88:  WELL HEAD N/S
 LONG.deg                51.31:  LONGITUDE
 LATI.deg                40.06:  LATITUDE
 TVDS.m                  43.42:  TVDSS CORRECTN
 DEP .m                 430.08:  DEPTH
 EKB .m                  43.42:  KB ELEVATION
 EDF .m                  43.42:  DF ELEVATION
 TDL .m                 559.00:  TOTAL DEPTH (LOGGER)
 MAGU.                 1849381:  MAGUTM CHECKSUM
 VSC .                       0:  VS TO CLOSURE
~Parameter Information Block
#MNEM.UNIT       Value        Description
#---------     -----------    ---------------------------
 AV  .mps                 4.87:  Ann Velocity 
 AVMX.mps                 7.08:  Max Ann Veloc 
 AZIF.deg               108.87:  Azm, Final 
 BHAT.                  Rotary:  BHA Type 
 BROT.°/30m               0.35:  Build Rotating 
 BS  .in                  8.50:  Bit Size 
 BSZ .in                  8.50:  Bit Size 
 BTPL.psig              360.00:  Bit Press Loss 
 CABU.                     Yes:  Customer Abuse 
 TCS .hr                106.24:  Time Ciculation Ended 
 CV  .mps                 1.77:  Crit Velocity 
 CVMX.mps                 2.03:  Max Crit Veloc 
 DD1 .         Aykhan Agagulov:  Direct Drillr 1 
 DD2 .            Nonso Okofor:  Direct Drillr 2 
 DDSV.               Geo-Pilot:  DD Service 
 DEFF.%                  98.00:  % Det Eff 
 DLRX.°/30m               0.50:  Dogleg Rot Max 
 DLSO.°/30m               0.40:  Dogleg Oriented 
 DLSX.°/30m               0.94:  Dogleg Str Max 
 DRET.      20.30.00 08-Sep-20:  Drill End Time 
 DRST.      22.15.00 06-Sep-20:  Drill Start Tim 
 DTIM.hr                 31.31:  Time Drilling 
 EDEP.m                5790.01:  End Depth 
 ENG1.           Amrah Tahirov:  Engineer 1 
 ENG2.         Dair Mahammadov:  Engineer 2 
 ENG3.           Emil Huseynov:  Engineer 3 
 ETIM.      04.01.04 12-Sep-20:  End Time 
 FLOI.gpm               450.00:  Flow In 
 FLON.gpm               450.00:  Flow In Min 
 FLOS.cptm                2.00:  Fluid Loss 
 FLOX.gpm               450.00:  Flow In Max 
 FTRO.       Formation Presure:  FTWD Run Obj 
 HFLO.                      No:  High Flow 
 HPRE.                      No:  High Pressure 
 HTEM.                      No:  High Temp 
 HYDO.m                   1.80:  Hydro Offset 
 IFIN.deg                72.03:  Inc, Final 
 IMAX.deg                73.72:  Inc Max 
 IMIN.deg                70.94:  Inc Min 
 IMND.m                5508.52:  Inc Min Depth 
 IMXD.m                5253.60:  Inc Max Depth 
 JARR.                      No:  Jarring 
 LETM.      20.30.00 08-Sep-20:  Log End Time 
 LOST.hr                     0:  Lost Rig Time 
 LSTM.      22.15.00 06-Sep-20:  Log Start Time 
 MDCL.ppm             36000.00:  Mud Chlorides 
 MDES.     Inversion Oil/Synthetic:  Mud Desc 
 DFD .sg                  1.44:  Mud Density 
 MDMN.sg                  1.44:  Dens Mud Min 
 MDMX.sg                  1.57:  Dens Mud Max 
 MOIL.                      70:  Run Mud Oil % 
 MOWR.                   70:30:  Run Mud OWR 
 MSND.                       0:  Run Mud Sand % 
 MSOL.                      21:  Run Mud Solids% 
 DFV .spqt               68.00:  Mud Viscosity 
 MWOD.in                  6.75:  MWD Tool OD 
 MWSI.                     Yes:  Serv Intrp, MWD 
 OTIM.hr                174.84:  Time Operating 
 PCON.           Look Like New:  Pad Condition 
 PMAX.psia            10616.93:  Press Op, Max 
 PV  .cP                 50.00:  Mud PV 
 RUN .                     700:  Run Number 
 ROPA.m/hr               14.24:  ROP Avg 
 ROPN.m/hr               10.00:  ROP Min 
 ROPX.m/hr               32.00:  ROP Max 
 RPMA.rpm               120.90:  RPM Surface Avg 
 RPMN.rpm               120.00:  RPM Surface Min 
 RPMX.rpm               140.00:  RPM Surface Max 
 RRUN.                    0700:  Rig Run Number 
 RTIM.hr                  3.20:  Time Reaming 
 SAZI.deg               109.99:  Azm, Start 
 SDEP.m                5231.01:  Start Depth 
 SIDD.                      No:  Serv Intrp, DD 
 SINC.deg                73.72:  Inc, Start 
 SPPA.psig             3051.00:  SPP Avg 
 SPPN.psig             2950.00:  SPP Min 
 SPPX.psig             3250.00:  SPP Max 
 STIM.      08.00.00 05-Sep-20:  Start Time 
 SVCS.                 DD, MWD:  Services 
 SVER.                    9.20:  Sperry Version 
 TDAT.m                 559.00:  Tot Depth Attmp 
 TDDF.                      No:  Trip for DD 
 TDLG.m                 559.00:  Tot Depth Loggd 
 TFF .                      No:  Trip for Fail 
 TQAA.f-kp               26.49:  Torque Abs Avg 
 TQAN.f-kp               25.00:  Torque Abs Min 
 TQAX.f-kp               27.00:  Torque Abs Max 
 TRRT.°/30m               1.50:  Turn Rotating 
 MRT .                    HCIM:  Maximum Recorded Temperature 
 TTMX.degC               90.20:  Max Tool Temp 
 VS01.                90542671:  Virtual Str1 SN 
 VS02.                90545185:  Virtual Str2 SN 
 VS03.                90602015:  Virtual Str3 SN 
 VS04.                90515230:  Virtual Str4 SN 
 WBMN.klb                 5.00:  WOB Min 
 WOBA.klb                14.79:  WOB Avg 
 WOBX.klb                20.00:  WOB Max 
 YP  .lhf2               29.00:  Yield Point 
~Curve Information Block
#MNEM.UNIT                 API CODE     Curve Description
#---------               -----------    ---------------------------
 TIME.HHMMSS            00 000 000 000:  GT Time & Date
 GTDEPTH.m              00 000 000 000:  GT Depth
 GTPQH.psia             00 000 000 000:  GT HR Quartz Pressure
 GTTQ.degC              00 000 000 000:  GT Quartz Temperature
 GTTN.NONE              00 000 000 000:  GT Test Number
 GTET.sec               00 000 000 000:  GT Elapsed Test Time
 GTTVD.m                00 000 000 000:  GT True Vertical Depth
#Other Information
#
#WARRANTY: Halliburton will use its best efforts to furnish customers with 
#accurate information and interpretations that are part of, and incident to, the services 
#provided.  However, Halliburton cannot and does not warrant the accuracy 
#or correctness of such information and interpretations.  Under no circumstances should any 
#such information or interpretation be relied upon as the sole basis for any drilling, 
#completion, production, or financial decision or any procedure involving any risk to the 
#safety of any drilling venture, drilling rig or its crew or any other third party.  The 
#Customer has full responsibility for all drilling, completion and production operation.  
#Halliburton makes no representations or warranties, either expressed or 
#implied, including, but not limited to, the implied warranties of merchantability or fitness 
#for a particular purpose, with respect to the services rendered.  In no event will 
#Halliburton be liable for failure to obtain any particular results or for 
#any damages, including, but not limited to, indirect, special or consequential damages, 
#resulting from the use of any information or interpretation provided by Halliburton.
#
~A           TIME           GTDEPTH  GTPQH  GTTQ  GTTN   GTET   GTTVD  
# ...
   16:31:27.744.09-Sep-2020 5323.01 3919.75 74.91 18.00 158.28 2563.11
   16:31:27.944.09-Sep-2020 5323.01 3919.66 74.91 18.00 158.48 2563.11
   16:31:28.144.09-Sep-2020 5323.01 3919.65 74.91 18.00 158.68 2563.11
   16:31:28.344.09-Sep-2020 5323.01 3919.69 74.91 18.00 158.88 2563.11
   16:31:28.544.09-Sep-2020 5323.01 3919.65 74.91 18.00 159.08 2563.11
   16:31:28.744.09-Sep-2020 5323.01 3919.65 74.91 18.00 159.28 2563.11
   16:31:28.944.09-Sep-2020 5323.01 3919.66 74.91 18.00 159.48 2563.11
   16:31:29.144.09-Sep-2020 5323.01 3919.65 74.91 18.00 159.68 2563.11
   16:31:29.345.09-Sep-2020 5323.01 3919.67 74.91 18.00 159.88 2563.11
   16:31:29.545.09-Sep-2020 5323.01 3919.66 74.91 18.00 160.08 2563.11
   16:31:29.745.09-Sep-2020 5323.01 3919.66 74.91 18.00 160.28 2563.11
   16:31:29.945.09-Sep-2020 5323.01 3919.63 74.91 18.00 160.48 2563.11
   16:31:30.145.09-Sep-2020 5323.01 3919.65 74.91 18.00 160.68 2563.11
   16:31:30.345.09-Sep-2020 5323.01 3919.65 74.91 18.00 160.88 2563.11
   16:31:30.545.09-Sep-2020 5323.01 3919.69 74.91 18.00 161.08 2563.11
   16:31:30.745.09-Sep-2020 5323.01 3919.61 74.91 18.00 161.28 2563.11
   16:31:30.945.09-Sep-2020 5323.01 3919.66 74.91 18.00 161.48 2563.11
   16:31:31.145.09-Sep-2020 5323.01 3919.69 74.91 18.00 161.68 2563.11
   16:31:31.346.09-Sep-2020 5323.01 3919.66 74.91 18.00 161.88 2563.11
   16:31:31.546.09-Sep-2020 5323.01 3919.66 74.91 18.00 162.08 2563.11
   16:31:31.746.09-Sep-2020 5323.01 3919.67 74.91 18.00 162.28 2563.11
   16:31:31.946.09-Sep-2020 5323.01 3919.65 74.91 18.00 162.48 2563.11
   16:31:32.146.09-Sep-2020 5323.01 3919.67 74.91 18.00 162.68 2563.11
   16:31:32.346.09-Sep-2020 5323.01 3919.67 74.91 18.00 162.88 2563.11
   16:31:32.546.09-Sep-2020 5323.01 3919.67 74.91 18.00 163.08 2563.11
   16:31:32.746.09-Sep-2020 5323.01 3919.67 74.91 18.00 163.28 2563.11
   16:31:32.946.09-Sep-2020 5323.01 3919.66 74.91 18.00 163.48 2563.11
   16:31:33.146.09-Sep-2020 5323.01 3919.66 74.91 18.00 163.68 2563.11
   16:31:33.346.09-Sep-2020 5323.01 3919.66 74.91 18.00 163.88 2563.11
   16:31:33.547.09-Sep-2020 5323.01 3919.67 74.91 18.00 164.08 2563.11
   16:31:33.747.09-Sep-2020 5323.01 3919.67 74.91 18.00 164.28 2563.11
   16:31:33.947.09-Sep-2020 5323.01 3919.66 74.91 18.00 164.48 2563.11
   16:31:34.147.09-Sep-2020 5323.01 3919.67 74.91 18.00 164.68 2563.11
   16:31:34.347.09-Sep-2020 5323.01 3919.66 74.91 18.00 164.88 2563.11
   16:31:34.547.09-Sep-2020 5323.01 3919.60 74.91 18.00 165.08 2563.11
   16:31:34.747.09-Sep-2020 5323.01 3919.60 74.91 18.00 165.28 2563.11
   16:31:34.947.09-Sep-2020 5323.01 3919.65 74.91 18.00 165.48 2563.11
   16:31:35.147.09-Sep-2020 5323.01 3919.66 74.91 18.00 165.68 2563.11
   16:31:35.347.09-Sep-2020 5323.01 3919.65 74.91 18.00 165.88 2563.11
   16:31:35.548.09-Sep-2020 5323.01 3919.69 74.91 18.00 166.08 2563.11
   16:31:35.748.09-Sep-2020 5323.01 3919.69 74.91 18.00 166.28 2563.11
   16:31:35.948.09-Sep-2020 5323.01 3919.66 74.91 18.00 166.48 2563.11
   16:31:36.148.09-Sep-2020 5323.01 3919.65 74.91 18.00 166.68 2563.11
   16:31:36.348.09-Sep-2020 5323.01 3919.66 74.91 18.00 166.88 2563.11
   16:31:36.548.09-Sep-2020 5323.01 3919.67 74.91 18.00 167.08 2563.11
   16:31:36.748.09-Sep-2020 5323.01 3919.67 74.91 18.00 167.28 2563.11
   16:31:36.948.09-Sep-2020 5323.01 3919.66 74.91 18.00 167.48 2563.11
   16:31:37.148.09-Sep-2020 5323.01 3919.66 74.91 18.00 167.68 2563.11
   16:31:37.348.09-Sep-2020 5323.01 3919.67 74.91 18.00 167.88 2563.11
   16:31:37.548.09-Sep-2020 5323.01 3919.66 74.91 18.00 168.08 2563.11
   16:31:37.749.09-Sep-2020 5323.01 3919.66 74.91 18.00 168.28 2563.11
   16:31:37.949.09-Sep-2020 5323.01 3919.67 74.91 18.00 168.48 2563.11
   16:31:38.149.09-Sep-2020 5323.01 3919.66 74.91 18.00 168.68 2563.11
   16:31:38.349.09-Sep-2020 5323.01 3919.66 74.91 18.00 168.88 2563.11
   16:31:38.549.09-Sep-2020 5323.01 3919.66 74.91 18.00 169.08 2563.11
   16:31:38.749.09-Sep-2020 5323.01 3919.66 74.91 18.00 169.28 2563.11
   16:31:38.949.09-Sep-2020 5323.01 3919.67 74.91 18.00 169.48 2563.11
   16:31:39.149.09-Sep-2020 5323.01 3919.73 74.91 18.00 169.68 2563.11
   16:31:39.349.09-Sep-2020 5323.01 3919.61 74.91 18.00 169.88 2563.11
   16:31:39.549.09-Sep-2020 5323.01 3919.65 74.91 18.00 170.08 2563.11
   16:31:39.750.09-Sep-2020 5323.01 3919.65 74.91 18.00 170.28 2563.11
   16:31:39.950.09-Sep-2020 5323.01 3919.68 74.91 18.00 170.48 2563.11
   16:31:40.150.09-Sep-2020 5323.01 3919.62 74.91 18.00 170.68 2563.11
   16:31:40.350.09-Sep-2020 5323.01 3919.69 74.91 18.00 170.88 2563.11
   16:31:40.550.09-Sep-2020 5323.01 3919.65 74.91 18.00 171.08 2563.11
   16:31:40.750.09-Sep-2020 5323.01 3919.65 74.91 18.00 171.28 2563.11
   16:31:40.950.09-Sep-2020 5323.01 3919.65 74.91 18.00 171.48 2563.11
   16:31:41.150.09-Sep-2020 5323.01 3919.65 74.91 18.00 171.68 2563.11
   16:31:41.350.09-Sep-2020 5323.01 3919.59 74.91 18.00 171.88 2563.11
   16:31:41.550.09-Sep-2020 5323.01 3919.75 74.91 18.00 172.08 2563.11
   16:31:41.750.09-Sep-2020 5323.01 3919.75 74.91 18.00 172.28 2563.11
   16:31:41.951.09-Sep-2020 5323.01 3919.66 74.91 18.00 172.48 2563.11
   16:31:42.151.09-Sep-2020 5323.01 3919.64 74.91 18.00 172.68 2563.11
   16:31:42.351.09-Sep-2020 5323.01 3919.67 74.91 18.00 172.88 2563.11
   16:31:42.551.09-Sep-2020 5323.01 3919.66 74.91 18.00 173.08 2563.11
   16:31:42.751.09-Sep-2020 5323.01 3919.66 74.91 18.00 173.28 2563.11
   16:31:42.951.09-Sep-2020 5323.01 3919.65 74.91 18.00 173.48 2563.11
   16:31:43.151.09-Sep-2020 5323.01 3919.66 74.91 18.00 173.68 2563.11
   16:31:43.351.09-Sep-2020 5323.01 3919.66 74.91 18.00 173.88 2563.11
   16:31:43.551.09-Sep-2020 5323.01 3919.66 74.91 18.00 174.08 2563.11
   16:31:43.751.09-Sep-2020 5323.01 3919.66 74.91 18.00 174.28 2563.11
   16:31:43.952.09-Sep-2020 5323.01 3919.66 74.91 18.00 174.48 2563.11
   16:31:44.152.09-Sep-2020 5323.01 3919.67 74.91 18.00 174.68 2563.11
   16:31:44.352.09-Sep-2020 5323.01 3919.66 74.91 18.00 174.88 2563.11
   16:31:44.552.09-Sep-2020 5323.01 3919.66 74.91 18.00 175.08 2563.11
   16:31:44.752.09-Sep-2020 5323.01 3919.66 74.91 18.00 175.28 2563.11
   16:31:44.952.09-Sep-2020 5323.01 3919.66 74.91 18.00 175.48 2563.11
   16:31:45.152.09-Sep-2020 5323.01 3919.67 74.91 18.00 175.68 2563.11
   16:31:45.352.09-Sep-2020 5323.01 3913.19 74.91 18.00 175.88 2563.11
   16:31:45.552.09-Sep-2020 5323.01 3900.02 74.91 18.00 176.08 2563.11
   16:31:45.752.09-Sep-2020 5323.01 3900.02 74.91 18.00 176.28 2563.11
   16:31:45.953.09-Sep-2020 5323.01 3896.89 74.91 18.00 176.48 2563.11
   16:31:46.153.09-Sep-2020 5323.01 3895.64 74.91 18.00 176.68 2563.11
   16:31:46.353.09-Sep-2020 5323.01 3893.81 74.91 18.00 176.88 2563.11
   16:31:46.553.09-Sep-2020 5323.01 3895.49 74.91 18.00 177.08 2563.11
   16:31:46.753.09-Sep-2020 5323.01 3895.49 74.91 18.00 177.28 2563.11
   16:31:46.953.09-Sep-2020 5323.01 3885.60 74.91 18.00 177.49 2563.11
   16:31:47.153.09-Sep-2020 5323.01 3883.71 74.91 18.00 177.69 2563.11
   16:31:47.353.09-Sep-2020 5323.01 3896.73 74.91 18.00 177.89 2563.11
   16:31:47.553.09-Sep-2020 5323.01 3899.52 74.91 18.00 178.09 2563.11
   16:31:47.753.09-Sep-2020 5323.01 3899.52 74.91 18.00 178.29 2563.11
   16:31:47.953.09-Sep-2020 5323.01 3896.37 74.91 18.00 178.49 2563.11
   16:31:48.154.09-Sep-2020 5323.01 3892.73 74.91 18.00 178.69 2563.11
   16:31:48.354.09-Sep-2020 5323.01 3891.25 74.91 18.00 178.89 2563.11
   16:31:48.554.09-Sep-2020 5323.01 3889.43 74.91 18.00 179.09 2563.11
   16:31:48.754.09-Sep-2020 5323.01 3889.43 74.91 18.00 179.29 2563.11
   16:31:48.954.09-Sep-2020 5323.01 3886.49 74.91 18.00 179.49 2563.11
   16:31:49.154.09-Sep-2020 5323.01 3888.02 74.91 18.00 179.69 2563.11
   16:31:49.354.09-Sep-2020 5323.01 3886.43 74.91 18.00 179.89 2563.11
   16:31:49.554.09-Sep-2020 5323.01 3884.58 74.91 18.00 180.09 2563.11
   16:31:49.754.09-Sep-2020 5323.01 3884.58 74.91 18.00 180.29 2563.11
   16:31:49.954.09-Sep-2020 5323.01 3890.03 74.91 18.00 180.49 2563.11
   16:31:50.155.09-Sep-2020 5323.01 3888.95 74.91 18.00 180.69 2563.11
