~Version Information
 VERS.                  2.0:   CWLS log ASCII Standard -VERSION 2.0
 WRAP.                   NO:   One line per depth step
~Well Information Block
#MNEM.UNIT     VALUE/NAME     DESCRIPTION
#---------     -----------    ---------------------------
 STRT.S             18:49:58 09-Sep-20: START TIME 18:49:58 09-Sep-20
 STOP.S             18:58:03 09-Sep-20: STOP TIME  18:58:03 09-Sep-20
 STEP.S                   0.00: STEP TIME
 NULL.                 -999.25: NULL VALUE
 MDS .        Operator Entered:  MAG DATA SOURCE
 PDAT.          Mean Sea Level:  PERMANENT DATUM
 DCON.         Sperry Drilling:  DIRECTNL CONTR
 RIG .              West Azeri:  RIG NAME
 WELL.           C40 (Slot 20):  WELL NAME
 SRVC.     Turan Drilling Engineering:  CONTRACTOR
 FLD .                     ACG:  FIELD NAME
 CTRY.              Azerbaijan:  COUNTRY NAME
 PROV.                    Baku:  PROVINCE
 STAT.                    Baku:  STATE NAME
 REGN.                   EESSA:  REGION
 BASE.              Azerbaijan:  LOGGING EQUIPMENT BASE LOCATION
 COMP.     BP Exploration (Caspian Sea) Ltd:  COMPANY
 WTYP.                Deviated:  WELL TYPE
 SON .        AZ-XX-0906344804:  JOB NUMBER
 FTOP.          Formation Tops:  FORM TOPS DESC
 ILTD.               Lithology:  INTERP LTH DESC
 SVYD.                  Survey:  SURVEY DESC
 DMOD.             Drill Model:  DRILL MOD DESC
 HPTY.       Minimum Curvature:  HOLE POS TYPE
 NREF.                    Grid:  NORTH REFERENCE
 SPUD.               01-Jan-20:  SPUD DATE
 DATE.      00.59.44 15-Sep-20:  END TIME
 STIM.      12.00.00 12-Jun-20:  START TIME
 DMF .             Drill Floor:  DRILL MEAS FROM
 DFST.                        :  DIST FSL TEXT
 DFWT.                        :  DIST FWL TEXT
 API .                        :  API NUMBER
 CNTY.                        :  COUNTY
 UWI .                        :  UNIQUE WELL IDENTIFIER
 LOC .                        :  LOCATION
 LMF .             Drill Floor:  LOG MEASURED FROM
 VSNS.m                   2.88:  VERT SEC N/S
 VSEW.m                  -3.84:  VERT SEC E/W
 AGAP.m                  43.42:  AIR GAP
 APD .m                  43.42:  DEPTH ABOVE PD
 WDMS.m                 118.27:  WD ELEV
 EGL .m                   0.00:  GROUND ELEVATION
 EPD .m                   0.00:  ELEVATION
 AZTC.deg                 6.23:  AZM TOTAL CORR
 GRDC.deg                 0.20:  GRID CORRECTION
 MDEC.deg                 6.43:  MAGNETIC DECL
 MDIP.deg                59.49:  MAGNETIC DIP
 MFLD.nT              50277.00:  MAGNETIC FIELD
 GVFD.g                   1.00:  GRAVITY FIELD
 VSDR.deg               173.20:  VERT SEC DIRECT
 TDD .m                5790.01:  TOTAL DEPTH (DRILLER)
 SDEP.m                5231.01:  START DEPTH
 DFSL.m                   0.00:  DISTANCE FSL
 DFWL.m                   0.00:  DISTANCE FWL
 UTMY.m             4435808.83:  UTM Y
 UTMX.m              526266.40:  UTM X
 WHEW.m                  -3.84:  WELL HEAD E/W
 WHNS.m                   2.88:  WELL HEAD N/S
 LONG.deg                51.31:  LONGITUDE
 LATI.deg                40.06:  LATITUDE
 TVDS.m                  43.42:  TVDSS CORRECTN
 DEP .m                 430.08:  DEPTH
 EKB .m                  43.42:  KB ELEVATION
 EDF .m                  43.42:  DF ELEVATION
 TDL .m                 559.00:  TOTAL DEPTH (LOGGER)
 MAGU.                 1849381:  MAGUTM CHECKSUM
 VSC .                       0:  VS TO CLOSURE
~Parameter Information Block
#MNEM.UNIT       Value        Description
#---------     -----------    ---------------------------
 AV  .mps                 4.87:  Ann Velocity 
 AVMX.mps                 7.08:  Max Ann Veloc 
 AZIF.deg               108.87:  Azm, Final 
 BHAT.                  Rotary:  BHA Type 
 BROT.°/30m               0.35:  Build Rotating 
 BS  .in                  8.50:  Bit Size 
 BSZ .in                  8.50:  Bit Size 
 BTPL.psig              360.00:  Bit Press Loss 
 CABU.                     Yes:  Customer Abuse 
 COMM.                     „T:  Run Comments 1 
 TCS .hr                106.24:  Time Ciculation Ended 
 CV  .mps                 1.77:  Crit Velocity 
 CVMX.mps                 2.03:  Max Crit Veloc 
 DD1 .         Aykhan Agagulov:  Direct Drillr 1 
 DD2 .            Nonso Okofor:  Direct Drillr 2 
 DDSV.               Geo-Pilot:  DD Service 
 DEFF.%                  98.00:  % Det Eff 
 DLRX.°/30m               0.50:  Dogleg Rot Max 
 DLSO.°/30m               0.40:  Dogleg Oriented 
 DLSX.°/30m               0.94:  Dogleg Str Max 
 DRET.      20.30.00 08-Sep-20:  Drill End Time 
 DRST.      22.15.00 06-Sep-20:  Drill Start Tim 
 DTIM.hr                 31.31:  Time Drilling 
 EDEP.m                5790.01:  End Depth 
 ENG1.           Amrah Tahirov:  Engineer 1 
 ENG2.         Dair Mahammadov:  Engineer 2 
 ENG3.           Emil Huseynov:  Engineer 3 
 ETIM.      04.01.04 12-Sep-20:  End Time 
 FLOI.gpm               450.00:  Flow In 
 FLON.gpm               450.00:  Flow In Min 
 FLOS.cptm                2.00:  Fluid Loss 
 FLOX.gpm               450.00:  Flow In Max 
 FTRO.       Formation Presure:  FTWD Run Obj 
 HFLO.                      No:  High Flow 
 HPRE.                      No:  High Pressure 
 HTEM.                      No:  High Temp 
 HYDO.m                   1.80:  Hydro Offset 
 IFIN.deg                72.03:  Inc, Final 
 IMAX.deg                73.72:  Inc Max 
 IMIN.deg                70.94:  Inc Min 
 IMND.m                5508.52:  Inc Min Depth 
 IMXD.m                5253.60:  Inc Max Depth 
 JARR.                      No:  Jarring 
 LETM.      20.30.00 08-Sep-20:  Log End Time 
 LOST.hr                     0:  Lost Rig Time 
 LSTM.      22.15.00 06-Sep-20:  Log Start Time 
 MDCL.ppm             36000.00:  Mud Chlorides 
 MDES.     Inversion Oil/Synthetic:  Mud Desc 
 DFD .sg                  1.44:  Mud Density 
 MDMN.sg                  1.44:  Dens Mud Min 
 MDMX.sg                  1.57:  Dens Mud Max 
 MOIL.                      70:  Run Mud Oil % 
 MOWR.                   70:30:  Run Mud OWR 
 MSND.                       0:  Run Mud Sand % 
 MSOL.                      21:  Run Mud Solids% 
 DFV .spqt               68.00:  Mud Viscosity 
 MWOD.in                  6.75:  MWD Tool OD 
 MWSI.                     Yes:  Serv Intrp, MWD 
 OTIM.hr                174.84:  Time Operating 
 PCON.           Look Like New:  Pad Condition 
 PMAX.psia            10616.93:  Press Op, Max 
 PV  .cP                 50.00:  Mud PV 
 RUN .                     700:  Run Number 
 ROPA.m/hr               14.24:  ROP Avg 
 ROPN.m/hr               10.00:  ROP Min 
 ROPX.m/hr               32.00:  ROP Max 
 RPMA.rpm               120.90:  RPM Surface Avg 
 RPMN.rpm               120.00:  RPM Surface Min 
 RPMX.rpm               140.00:  RPM Surface Max 
 RRUN.                    0700:  Rig Run Number 
 RTIM.hr                  3.20:  Time Reaming 
 SAZI.deg               109.99:  Azm, Start 
 SDEP.m                5231.01:  Start Depth 
 SIDD.                      No:  Serv Intrp, DD 
 SINC.deg                73.72:  Inc, Start 
 SPPA.psig             3051.00:  SPP Avg 
 SPPN.psig             2950.00:  SPP Min 
 SPPX.psig             3250.00:  SPP Max 
 STIM.      08.00.00 05-Sep-20:  Start Time 
 SVCS.                 DD, MWD:  Services 
 SVER.                    9.20:  Sperry Version 
 TDAT.m                 559.00:  Tot Depth Attmp 
 TDDF.                      No:  Trip for DD 
 TDLG.m                 559.00:  Tot Depth Loggd 
 TFF .                      No:  Trip for Fail 
 TQAA.f-kp               26.49:  Torque Abs Avg 
 TQAN.f-kp               25.00:  Torque Abs Min 
 TQAX.f-kp               27.00:  Torque Abs Max 
 TRRT.°/30m               1.50:  Turn Rotating 
 MRT .                    HCIM:  Maximum Recorded Temperature 
 TTMX.degC               90.20:  Max Tool Temp 
 VS01.                90542671:  Virtual Str1 SN 
 VS02.                90545185:  Virtual Str2 SN 
 VS03.                90602015:  Virtual Str3 SN 
 VS04.                90515230:  Virtual Str4 SN 
 WBMN.klb                 5.00:  WOB Min 
 WOBA.klb                14.79:  WOB Avg 
 WOBX.klb                20.00:  WOB Max 
 YP  .lhf2               29.00:  Yield Point 
~Curve Information Block
#MNEM.UNIT                 API CODE     Curve Description
#---------               -----------    ---------------------------
 TIME.HHMMSS            00 000 000 000:  GT Time & Date
 GTDEPTH.m              00 000 000 000:  GT Depth
 GTPQH.psia             00 000 000 000:  GT HR Quartz Pressure
 GTTQ.degC              00 000 000 000:  GT Quartz Temperature
 GTTN.NONE              00 000 000 000:  GT Test Number
 GTET.sec               00 000 000 000:  GT Elapsed Test Time
 GTTVD.m                00 000 000 000:  GT True Vertical Depth
#Other Information
#
#WARRANTY: Halliburton will use its best efforts to furnish customers with 
#accurate information and interpretations that are part of, and incident to, the services 
#provided.  However, Halliburton cannot and does not warrant the accuracy 
#or correctness of such information and interpretations.  Under no circumstances should any 
#such information or interpretation be relied upon as the sole basis for any drilling, 
#completion, production, or financial decision or any procedure involving any risk to the 
#safety of any drilling venture, drilling rig or its crew or any other third party.  The 
#Customer has full responsibility for all drilling, completion and production operation.  
#Halliburton makes no representations or warranties, either expressed or 
#implied, including, but not limited to, the implied warranties of merchantability or fitness 
#for a particular purpose, with respect to the services rendered.  In no event will 
#Halliburton be liable for failure to obtain any particular results or for 
#any damages, including, but not limited to, indirect, special or consequential damages, 
#resulting from the use of any information or interpretation provided by Halliburton.
#
~A           TIME           GTDEPTH  GTPQH  GTTQ  GTTN   GTET   GTTVD  
# ...
   18:55:14.652.09-Sep-2020 5280.51  496.76 74.30 22.00 316.15 2550.44
   18:55:14.852.09-Sep-2020 5280.51  495.24 74.30 22.00 316.35 2550.44
   18:55:15.051.09-Sep-2020 5280.51  493.53 74.30 22.00 316.55 2550.44
   18:55:15.251.09-Sep-2020 5280.51  493.21 74.30 22.00 316.75 2550.44
   18:55:15.451.09-Sep-2020 5280.51  493.21 74.30 22.00 316.95 2550.44
   18:55:15.651.09-Sep-2020 5280.51  491.54 74.30 22.00 317.15 2550.44
   18:55:15.851.09-Sep-2020 5280.51  489.84 74.30 22.00 317.35 2550.44
   18:55:16.051.09-Sep-2020 5280.51  489.73 74.30 22.00 317.55 2550.44
   18:55:16.251.09-Sep-2020 5280.51  489.49 74.30 22.00 317.75 2550.44
   18:55:16.450.09-Sep-2020 5280.51  489.37 74.30 22.00 317.95 2550.44
   18:55:16.650.09-Sep-2020 5280.51  489.02 74.30 22.00 318.15 2550.44
   18:55:16.850.09-Sep-2020 5280.51  489.00 74.30 22.00 318.35 2550.44
   18:55:17.050.09-Sep-2020 5280.51  488.54 74.30 22.00 318.55 2550.44
   18:55:17.250.09-Sep-2020 5280.51  488.40 74.30 22.00 318.75 2550.44
   18:55:17.450.09-Sep-2020 5280.51  488.40 74.30 22.00 318.95 2550.44
   18:55:17.649.09-Sep-2020 5280.51  488.16 74.30 22.00 319.15 2550.44
   18:55:17.849.09-Sep-2020 5280.51  488.00 74.30 22.00 319.35 2550.44
   18:55:18.049.09-Sep-2020 5280.51  487.98 74.30 22.00 319.55 2550.44
   18:55:18.249.09-Sep-2020 5280.51  487.71 74.30 22.00 319.75 2550.44
   18:55:18.449.09-Sep-2020 5280.51  487.71 74.30 22.00 319.95 2550.44
   18:55:18.649.09-Sep-2020 5280.51  487.66 74.30 22.00 320.15 2550.44
   18:55:18.848.09-Sep-2020 5280.51  487.54 74.30 22.00 320.35 2550.44
   18:55:19.048.09-Sep-2020 5280.51  487.50 74.30 22.00 320.55 2550.44
   18:55:19.248.09-Sep-2020 5280.51  486.33 74.30 22.00 320.75 2550.44
   18:55:19.448.09-Sep-2020 5280.51  486.33 74.30 22.00 320.95 2550.44
   18:55:19.648.09-Sep-2020 5280.51  484.67 74.30 22.00 321.15 2550.44
   18:55:19.848.09-Sep-2020 5280.51  484.22 74.30 22.00 321.35 2550.44
   18:55:20.048.09-Sep-2020 5280.51  484.26 74.30 22.00 321.55 2550.44
   18:55:20.247.09-Sep-2020 5280.51  483.98 74.30 22.00 321.75 2550.44
   18:55:20.447.09-Sep-2020 5280.51  483.84 74.30 22.00 321.95 2550.44
   18:55:20.647.09-Sep-2020 5280.51  483.56 74.30 22.00 322.15 2550.44
   18:55:20.847.09-Sep-2020 5280.51  483.39 74.30 22.00 322.35 2550.44
   18:55:21.047.09-Sep-2020 5280.51  483.45 74.30 22.00 322.55 2550.44
   18:55:21.247.09-Sep-2020 5280.51  483.56 74.30 22.00 322.75 2550.44
   18:55:21.446.09-Sep-2020 5280.51  483.56 74.30 22.00 322.95 2550.44
   18:55:21.646.09-Sep-2020 5280.51  483.53 74.30 22.00 323.15 2550.44
   18:55:21.846.09-Sep-2020 5280.51  483.71 74.30 22.00 323.35 2550.44
   18:55:22.046.09-Sep-2020 5280.51  483.97 74.30 22.00 323.55 2550.44
   18:55:22.246.09-Sep-2020 5280.51  485.77 74.30 22.00 323.75 2550.44
   18:55:22.446.09-Sep-2020 5280.51  485.77 74.30 22.00 323.95 2550.44
   18:55:22.646.09-Sep-2020 5280.51  486.21 74.30 22.00 324.15 2550.44
   18:55:22.845.09-Sep-2020 5280.51  486.48 74.30 22.00 324.35 2550.44
   18:55:23.045.09-Sep-2020 5280.51  486.66 74.30 22.00 324.55 2550.44
   18:55:23.245.09-Sep-2020 5280.51  487.05 74.30 22.00 324.75 2550.44
   18:55:23.445.09-Sep-2020 5280.51  487.05 74.30 22.00 324.95 2550.44
   18:55:23.645.09-Sep-2020 5280.51  486.55 74.30 22.00 325.14 2550.44
   18:55:23.845.09-Sep-2020 5280.51  486.59 74.30 22.00 325.34 2550.44
   18:55:24.044.09-Sep-2020 5280.51  486.83 74.30 22.00 325.54 2550.44
   18:55:24.244.09-Sep-2020 5280.51  487.02 74.30 22.00 325.74 2550.44
   18:55:24.444.09-Sep-2020 5280.51  486.96 74.30 22.00 325.94 2550.44
   18:55:24.644.09-Sep-2020 5280.51  486.84 74.30 22.00 326.14 2550.44
   18:55:24.844.09-Sep-2020 5280.51  487.00 74.30 22.00 326.34 2550.44
   18:55:25.044.09-Sep-2020 5280.51  487.19 74.30 22.00 326.54 2550.44
   18:55:25.243.09-Sep-2020 5280.51  486.93 74.30 22.00 326.74 2550.44
   18:55:25.443.09-Sep-2020 5280.51  486.93 74.30 22.00 326.94 2550.44
   18:55:25.643.09-Sep-2020 5280.51  487.23 74.30 22.00 327.14 2550.44
   18:55:25.843.09-Sep-2020 5280.51  487.43 74.30 22.00 327.34 2550.44
   18:55:26.043.09-Sep-2020 5280.51  487.59 74.30 22.00 327.54 2550.44
   18:55:26.243.09-Sep-2020 5280.51  487.91 74.30 22.00 327.74 2550.44
   18:55:26.443.09-Sep-2020 5280.51  487.91 74.30 22.00 327.94 2550.44
   18:55:26.642.09-Sep-2020 5280.51  487.36 74.30 22.00 328.14 2550.44
   18:55:26.842.09-Sep-2020 5280.51  488.11 74.30 22.00 328.34 2550.44
   18:55:27.042.09-Sep-2020 5280.51  488.15 74.30 22.00 328.54 2550.44
   18:55:27.242.09-Sep-2020 5280.51  488.29 74.30 22.00 328.74 2550.44
   18:55:27.442.09-Sep-2020 5280.51  488.29 74.30 22.00 328.94 2550.44
   18:55:27.642.09-Sep-2020 5280.51  488.84 74.30 22.00 329.14 2550.44
   18:55:27.841.09-Sep-2020 5280.51  488.94 74.30 22.00 329.34 2550.44
   18:55:28.041.09-Sep-2020 5280.51  489.09 74.30 22.00 329.54 2550.44
   18:55:28.241.09-Sep-2020 5280.51  489.30 74.30 22.00 329.74 2550.44
   18:55:28.441.09-Sep-2020 5280.51  489.46 74.30 22.00 329.94 2550.44
   18:55:28.641.09-Sep-2020 5280.51  489.73 74.30 22.00 330.14 2550.44
   18:55:28.841.09-Sep-2020 5280.51  489.89 74.30 22.00 330.34 2550.44
   18:55:29.040.09-Sep-2020 5280.51  490.04 74.30 22.00 330.54 2550.44
   18:55:29.240.09-Sep-2020 5280.51  490.21 74.30 22.00 330.74 2550.44
   18:55:29.440.09-Sep-2020 5280.51  490.40 74.30 22.00 330.94 2550.44
   18:55:29.640.09-Sep-2020 5280.51  490.62 74.30 22.00 331.14 2550.44
   18:55:29.840.09-Sep-2020 5280.51  490.82 74.30 22.00 331.34 2550.44
   18:55:30.040.09-Sep-2020 5280.51  491.00 74.30 22.00 331.54 2550.44
   18:55:30.240.09-Sep-2020 5280.51  490.32 74.30 22.00 331.74 2550.44
   18:55:30.439.09-Sep-2020 5280.51  490.32 74.30 22.00 331.94 2550.44
   18:55:30.639.09-Sep-2020 5280.51  491.15 74.30 22.00 332.14 2550.44
   18:55:30.839.09-Sep-2020 5280.51  491.28 74.30 22.00 332.34 2550.44
   18:55:31.039.09-Sep-2020 5280.51  491.47 74.30 22.00 332.54 2550.44
   18:55:31.239.09-Sep-2020 5280.51  491.78 74.30 22.00 332.74 2550.44
   18:55:31.439.09-Sep-2020 5280.51  491.78 74.30 22.00 332.94 2550.44
   18:55:31.638.09-Sep-2020 5280.51  492.02 74.30 22.00 333.14 2550.44
   18:55:31.838.09-Sep-2020 5280.51  492.24 74.30 22.00 333.34 2550.44
   18:55:32.038.09-Sep-2020 5280.51  492.42 74.30 22.00 333.54 2550.44
   18:55:32.238.09-Sep-2020 5280.51  492.59 74.30 22.00 333.74 2550.44
   18:55:32.438.09-Sep-2020 5280.51  492.74 74.30 22.00 333.94 2550.44
   18:55:32.638.09-Sep-2020 5280.51  492.93 74.30 22.00 334.14 2550.44
   18:55:32.838.09-Sep-2020 5280.51  493.14 74.30 22.00 334.34 2550.44
   18:55:33.037.09-Sep-2020 5280.51  493.33 74.30 22.00 334.54 2550.44
   18:55:33.237.09-Sep-2020 5280.51  493.50 74.30 22.00 334.74 2550.44
   18:55:33.437.09-Sep-2020 5280.51  493.50 74.30 22.00 334.94 2550.44
   18:55:33.637.09-Sep-2020 5280.51  493.79 74.30 22.00 335.14 2550.44
   18:55:33.837.09-Sep-2020 5280.51  493.58 74.30 22.00 335.34 2550.44
   18:55:34.037.09-Sep-2020 5280.51  493.80 74.30 22.00 335.54 2550.44
   18:55:34.236.09-Sep-2020 5280.51  493.91 74.30 22.00 335.74 2550.44
   18:55:34.436.09-Sep-2020 5280.51  493.91 74.30 22.00 335.94 2550.44
   18:55:34.636.09-Sep-2020 5280.51  493.45 74.30 22.00 336.14 2550.44
   18:55:34.836.09-Sep-2020 5280.51  494.35 74.30 22.00 336.34 2550.44
   18:55:35.036.09-Sep-2020 5280.51  494.40 74.30 22.00 336.54 2550.44
   18:55:35.236.09-Sep-2020 5280.51  494.47 74.30 22.00 336.74 2550.44
   18:55:35.435.09-Sep-2020 5280.51  494.47 74.30 22.00 336.94 2550.44
   18:55:35.635.09-Sep-2020 5280.51  495.00 74.30 22.00 337.14 2550.44
   18:55:35.835.09-Sep-2020 5280.51  495.10 74.30 22.00 337.34 2550.44
   18:55:36.035.09-Sep-2020 5280.51  494.30 74.30 22.00 337.54 2550.44
   18:55:36.235.09-Sep-2020 5280.51  495.56 74.30 22.00 337.74 2550.44
   18:55:36.435.09-Sep-2020 5280.51  495.30 74.30 22.00 337.93 2550.44
   18:55:36.635.09-Sep-2020 5280.51  495.48 74.30 22.00 338.13 2550.44
   18:55:36.834.09-Sep-2020 5280.51  495.55 74.30 22.00 338.33 2550.44
   18:55:37.034.09-Sep-2020 5280.51  495.96 74.30 22.00 338.53 2550.44
