~Version Information
 VERS.                  2.0:   CWLS log ASCII Standard -VERSION 2.0
 WRAP.                   NO:   One line per depth step
~Well Information Block
#MNEM.UNIT     VALUE/NAME     DESCRIPTION
#---------     -----------    ---------------------------
 STRT.S             13:30:41 09-Sep-20: START TIME 13:30:41 09-Sep-20
 STOP.S             13:37:24 09-Sep-20: STOP TIME  13:37:24 09-Sep-20
 STEP.S                   0.00: STEP TIME
 NULL.                 -999.25: NULL VALUE
 MDS .        Operator Entered:  MAG DATA SOURCE
 PDAT.          Mean Sea Level:  PERMANENT DATUM
 DCON.         Sperry Drilling:  DIRECTNL CONTR
 RIG .              West Azeri:  RIG NAME
 WELL.           C40 (Slot 20):  WELL NAME
 SRVC.     Turan Drilling Engineering:  CONTRACTOR
 FLD .                     ACG:  FIELD NAME
 CTRY.              Azerbaijan:  COUNTRY NAME
 PROV.                    Baku:  PROVINCE
 STAT.                    Baku:  STATE NAME
 REGN.                   EESSA:  REGION
 BASE.              Azerbaijan:  LOGGING EQUIPMENT BASE LOCATION
 COMP.     BP Exploration (Caspian Sea) Ltd:  COMPANY
 WTYP.                Deviated:  WELL TYPE
 SON .        AZ-XX-0906344804:  JOB NUMBER
 FTOP.          Formation Tops:  FORM TOPS DESC
 ILTD.               Lithology:  INTERP LTH DESC
 SVYD.                  Survey:  SURVEY DESC
 DMOD.             Drill Model:  DRILL MOD DESC
 HPTY.       Minimum Curvature:  HOLE POS TYPE
 NREF.                    Grid:  NORTH REFERENCE
 SPUD.               01-Jan-20:  SPUD DATE
 DATE.      00.59.44 15-Sep-20:  END TIME
 STIM.      12.00.00 12-Jun-20:  START TIME
 DMF .             Drill Floor:  DRILL MEAS FROM
 DFST.                        :  DIST FSL TEXT
 DFWT.                        :  DIST FWL TEXT
 API .                        :  API NUMBER
 CNTY.                        :  COUNTY
 UWI .                        :  UNIQUE WELL IDENTIFIER
 LOC .                        :  LOCATION
 LMF .             Drill Floor:  LOG MEASURED FROM
 VSNS.m                   2.88:  VERT SEC N/S
 VSEW.m                  -3.84:  VERT SEC E/W
 AGAP.m                  43.42:  AIR GAP
 APD .m                  43.42:  DEPTH ABOVE PD
 WDMS.m                 118.27:  WD ELEV
 EGL .m                   0.00:  GROUND ELEVATION
 EPD .m                   0.00:  ELEVATION
 AZTC.deg                 6.23:  AZM TOTAL CORR
 GRDC.deg                 0.20:  GRID CORRECTION
 MDEC.deg                 6.43:  MAGNETIC DECL
 MDIP.deg                59.49:  MAGNETIC DIP
 MFLD.nT              50277.00:  MAGNETIC FIELD
 GVFD.g                   1.00:  GRAVITY FIELD
 VSDR.deg               173.20:  VERT SEC DIRECT
 TDD .m                5790.01:  TOTAL DEPTH (DRILLER)
 SDEP.m                5231.01:  START DEPTH
 DFSL.m                   0.00:  DISTANCE FSL
 DFWL.m                   0.00:  DISTANCE FWL
 UTMY.m             4435808.83:  UTM Y
 UTMX.m              526266.40:  UTM X
 WHEW.m                  -3.84:  WELL HEAD E/W
 WHNS.m                   2.88:  WELL HEAD N/S
 LONG.deg                51.31:  LONGITUDE
 LATI.deg                40.06:  LATITUDE
 TVDS.m                  43.42:  TVDSS CORRECTN
 DEP .m                 430.08:  DEPTH
 EKB .m                  43.42:  KB ELEVATION
 EDF .m                  43.42:  DF ELEVATION
 TDL .m                 559.00:  TOTAL DEPTH (LOGGER)
 MAGU.                 1849381:  MAGUTM CHECKSUM
 VSC .                       0:  VS TO CLOSURE
~Parameter Information Block
#MNEM.UNIT       Value        Description
#---------     -----------    ---------------------------
 AV  .mps                 4.87:  Ann Velocity 
 AVMX.mps                 7.08:  Max Ann Veloc 
 AZIF.deg               108.87:  Azm, Final 
 BHAT.                  Rotary:  BHA Type 
 BROT.°/30m               0.35:  Build Rotating 
 BS  .in                  8.50:  Bit Size 
 BSZ .in                  8.50:  Bit Size 
 BTPL.psig              360.00:  Bit Press Loss 
 CABU.                     Yes:  Customer Abuse 
 COMM.                     $ñd:  Run Comments 1 
 TCS .hr                106.24:  Time Ciculation Ended 
 CV  .mps                 1.77:  Crit Velocity 
 CVMX.mps                 2.03:  Max Crit Veloc 
 DD1 .         Aykhan Agagulov:  Direct Drillr 1 
 DD2 .            Nonso Okofor:  Direct Drillr 2 
 DDSV.               Geo-Pilot:  DD Service 
 DEFF.%                  98.00:  % Det Eff 
 DLRX.°/30m               0.50:  Dogleg Rot Max 
 DLSO.°/30m               0.40:  Dogleg Oriented 
 DLSX.°/30m               0.94:  Dogleg Str Max 
 DRET.      20.30.00 08-Sep-20:  Drill End Time 
 DRST.      22.15.00 06-Sep-20:  Drill Start Tim 
 DTIM.hr                 31.31:  Time Drilling 
 EDEP.m                5790.01:  End Depth 
 ENG1.           Amrah Tahirov:  Engineer 1 
 ENG2.         Dair Mahammadov:  Engineer 2 
 ENG3.           Emil Huseynov:  Engineer 3 
 ETIM.      04.01.04 12-Sep-20:  End Time 
 FLOI.gpm               450.00:  Flow In 
 FLON.gpm               450.00:  Flow In Min 
 FLOS.cptm                2.00:  Fluid Loss 
 FLOX.gpm               450.00:  Flow In Max 
 FTRO.       Formation Presure:  FTWD Run Obj 
 HFLO.                      No:  High Flow 
 HPRE.                      No:  High Pressure 
 HTEM.                      No:  High Temp 
 HYDO.m                   1.80:  Hydro Offset 
 IFIN.deg                72.03:  Inc, Final 
 IMAX.deg                73.72:  Inc Max 
 IMIN.deg                70.94:  Inc Min 
 IMND.m                5508.52:  Inc Min Depth 
 IMXD.m                5253.60:  Inc Max Depth 
 JARR.                      No:  Jarring 
 LETM.      20.30.00 08-Sep-20:  Log End Time 
 LOST.hr                     0:  Lost Rig Time 
 LSTM.      22.15.00 06-Sep-20:  Log Start Time 
 MDCL.ppm             36000.00:  Mud Chlorides 
 MDES.     Inversion Oil/Synthetic:  Mud Desc 
 DFD .sg                  1.44:  Mud Density 
 MDMN.sg                  1.44:  Dens Mud Min 
 MDMX.sg                  1.57:  Dens Mud Max 
 MOIL.                      70:  Run Mud Oil % 
 MOWR.                   70:30:  Run Mud OWR 
 MSND.                       0:  Run Mud Sand % 
 MSOL.                      21:  Run Mud Solids% 
 DFV .spqt               68.00:  Mud Viscosity 
 MWOD.in                  6.75:  MWD Tool OD 
 MWSI.                     Yes:  Serv Intrp, MWD 
 OTIM.hr                174.84:  Time Operating 
 PCON.           Look Like New:  Pad Condition 
 PMAX.psia            10616.93:  Press Op, Max 
 PV  .cP                 50.00:  Mud PV 
 RUN .                     700:  Run Number 
 ROPA.m/hr               14.24:  ROP Avg 
 ROPN.m/hr               10.00:  ROP Min 
 ROPX.m/hr               32.00:  ROP Max 
 RPMA.rpm               120.90:  RPM Surface Avg 
 RPMN.rpm               120.00:  RPM Surface Min 
 RPMX.rpm               140.00:  RPM Surface Max 
 RRUN.                    0700:  Rig Run Number 
 RTIM.hr                  3.20:  Time Reaming 
 SAZI.deg               109.99:  Azm, Start 
 SDEP.m                5231.01:  Start Depth 
 SIDD.                      No:  Serv Intrp, DD 
 SINC.deg                73.72:  Inc, Start 
 SPPA.psig             3051.00:  SPP Avg 
 SPPN.psig             2950.00:  SPP Min 
 SPPX.psig             3250.00:  SPP Max 
 STIM.      08.00.00 05-Sep-20:  Start Time 
 SVCS.                 DD, MWD:  Services 
 SVER.                    9.20:  Sperry Version 
 TDAT.m                 559.00:  Tot Depth Attmp 
 TDDF.                      No:  Trip for DD 
 TDLG.m                 559.00:  Tot Depth Loggd 
 TFF .                      No:  Trip for Fail 
 TQAA.f-kp               26.49:  Torque Abs Avg 
 TQAN.f-kp               25.00:  Torque Abs Min 
 TQAX.f-kp               27.00:  Torque Abs Max 
 TRRT.°/30m               1.50:  Turn Rotating 
 MRT .                    HCIM:  Maximum Recorded Temperature 
 TTMX.degC               90.20:  Max Tool Temp 
 VS01.                90542671:  Virtual Str1 SN 
 VS02.                90545185:  Virtual Str2 SN 
 VS03.                90602015:  Virtual Str3 SN 
 VS04.                90515230:  Virtual Str4 SN 
 WBMN.klb                 5.00:  WOB Min 
 WOBA.klb                14.79:  WOB Avg 
 WOBX.klb                20.00:  WOB Max 
 YP  .lhf2               29.00:  Yield Point 
~Curve Information Block
#MNEM.UNIT                 API CODE     Curve Description
#---------               -----------    ---------------------------
 TIME.HHMMSS            00 000 000 000:  GT Time & Date
 GTDEPTH.m              00 000 000 000:  GT Depth
 GTPQH.psia             00 000 000 000:  GT HR Quartz Pressure
 GTTQ.degC              00 000 000 000:  GT Quartz Temperature
 GTTN.NONE              00 000 000 000:  GT Test Number
 GTET.sec               00 000 000 000:  GT Elapsed Test Time
 GTTVD.m                00 000 000 000:  GT True Vertical Depth
#Other Information
#
#WARRANTY: Halliburton will use its best efforts to furnish customers with 
#accurate information and interpretations that are part of, and incident to, the services 
#provided.  However, Halliburton cannot and does not warrant the accuracy 
#or correctness of such information and interpretations.  Under no circumstances should any 
#such information or interpretation be relied upon as the sole basis for any drilling, 
#completion, production, or financial decision or any procedure involving any risk to the 
#safety of any drilling venture, drilling rig or its crew or any other third party.  The 
#Customer has full responsibility for all drilling, completion and production operation.  
#Halliburton makes no representations or warranties, either expressed or 
#implied, including, but not limited to, the implied warranties of merchantability or fitness 
#for a particular purpose, with respect to the services rendered.  In no event will 
#Halliburton be liable for failure to obtain any particular results or for 
#any damages, including, but not limited to, indirect, special or consequential damages, 
#resulting from the use of any information or interpretation provided by Halliburton.
#
~A           TIME           GTDEPTH  GTPQH  GTTQ  GTTN   GTET   GTTVD  
# ...
   13:34:50.236.09-Sep-2020 5408.01 3591.65 75.50 15.00 248.75 2589.60
   13:34:50.437.09-Sep-2020 5408.01 3591.66 75.50 15.00 248.95 2589.60
   13:34:50.637.09-Sep-2020 5408.01 3592.17 75.50 15.00 249.15 2589.60
   13:34:50.837.09-Sep-2020 5408.01 3592.17 75.50 15.00 249.35 2589.60
   13:34:51.037.09-Sep-2020 5408.01 3592.16 75.50 15.00 249.55 2589.60
   13:34:51.237.09-Sep-2020 5408.01 3592.49 75.50 15.00 249.75 2589.60
   13:34:51.437.09-Sep-2020 5408.01 3592.28 75.50 15.00 249.95 2589.60
   13:34:51.637.09-Sep-2020 5408.01 3592.31 75.50 15.00 250.15 2589.60
   13:34:51.837.09-Sep-2020 5408.01 3592.31 75.50 15.00 250.35 2589.60
   13:34:52.038.09-Sep-2020 5408.01 3592.38 75.50 15.00 250.55 2589.60
   13:34:52.238.09-Sep-2020 5408.01 3592.39 75.50 15.00 250.75 2589.60
   13:34:52.438.09-Sep-2020 5408.01 3592.38 75.50 15.00 250.95 2589.60
   13:34:52.638.09-Sep-2020 5408.01 3592.36 75.50 15.00 251.15 2589.60
   13:34:52.838.09-Sep-2020 5408.01 3592.36 75.50 15.00 251.35 2589.60
   13:34:53.038.09-Sep-2020 5408.01 3592.42 75.50 15.00 251.55 2589.60
   13:34:53.238.09-Sep-2020 5408.01 3592.35 75.50 15.00 251.75 2589.60
   13:34:53.438.09-Sep-2020 5408.01 3592.31 75.50 15.00 251.95 2589.60
   13:34:53.639.09-Sep-2020 5408.01 3592.27 75.50 15.00 252.15 2589.60
   13:34:53.839.09-Sep-2020 5408.01 3592.31 75.50 15.00 252.35 2589.60
   13:34:54.039.09-Sep-2020 5408.01 3590.97 75.50 15.00 252.55 2589.60
   13:34:54.239.09-Sep-2020 5408.01 3592.85 75.50 15.00 252.75 2589.60
   13:34:54.439.09-Sep-2020 5408.01 3592.48 75.50 15.00 252.95 2589.60
   13:34:54.639.09-Sep-2020 5408.01 3592.55 75.50 15.00 253.15 2589.60
   13:34:54.839.09-Sep-2020 5408.01 3592.55 75.50 15.00 253.35 2589.60
   13:34:55.039.09-Sep-2020 5408.01 3592.89 75.50 15.00 253.55 2589.60
   13:34:55.240.09-Sep-2020 5408.01 3592.57 75.50 15.00 253.76 2589.60
   13:34:55.440.09-Sep-2020 5408.01 3592.51 75.50 15.00 253.96 2589.60
   13:34:55.640.09-Sep-2020 5408.01 3592.39 75.50 15.00 254.16 2589.60
   13:34:55.840.09-Sep-2020 5408.01 3592.39 75.50 15.00 254.36 2589.60
   13:34:56.040.09-Sep-2020 5408.01 3592.42 75.50 15.00 254.56 2589.60
   13:34:56.240.09-Sep-2020 5408.01 3592.36 75.50 15.00 254.76 2589.60
   13:34:56.440.09-Sep-2020 5408.01 3592.26 75.50 15.00 254.96 2589.60
   13:34:56.640.09-Sep-2020 5408.01 3592.14 75.50 15.00 255.16 2589.60
   13:34:56.841.09-Sep-2020 5408.01 3592.14 75.50 15.00 255.36 2589.60
   13:34:57.041.09-Sep-2020 5408.01 2710.23 75.50 15.00 255.56 2589.60
   13:34:57.241.09-Sep-2020 5408.01 1913.25 75.50 15.00 255.76 2589.60
   13:34:57.441.09-Sep-2020 5408.01 1256.69 75.50 15.00 255.96 2589.60
   13:34:57.641.09-Sep-2020 5408.01  829.03 75.50 15.00 256.16 2589.60
   13:34:57.841.09-Sep-2020 5408.01  829.03 75.50 15.00 256.36 2589.60
   13:34:58.041.09-Sep-2020 5408.01  719.85 75.50 15.00 256.56 2589.60
   13:34:58.241.09-Sep-2020 5408.01  719.46 75.50 15.00 256.76 2589.60
   13:34:58.441.09-Sep-2020 5408.01  716.56 75.50 15.00 256.96 2589.60
   13:34:58.642.09-Sep-2020 5408.01  717.01 75.50 15.00 257.16 2589.60
   13:34:58.842.09-Sep-2020 5408.01  717.01 75.50 15.00 257.36 2589.60
   13:34:59.042.09-Sep-2020 5408.01  704.66 75.49 15.00 257.56 2589.60
   13:34:59.242.09-Sep-2020 5408.01  704.70 75.49 15.00 257.76 2589.60
   13:34:59.442.09-Sep-2020 5408.01  720.55 75.49 15.00 257.96 2589.60
   13:34:59.642.09-Sep-2020 5408.01  735.06 75.49 15.00 258.16 2589.60
   13:34:59.842.09-Sep-2020 5408.01  735.06 75.49 15.00 258.36 2589.60
   13:35:00.042.09-Sep-2020 5408.01  758.75 75.48 15.00 258.56 2589.60
   13:35:00.243.09-Sep-2020 5408.01  750.28 75.48 15.00 258.76 2589.60
   13:35:00.443.09-Sep-2020 5408.01  753.96 75.48 15.00 258.96 2589.60
   13:35:00.643.09-Sep-2020 5408.01  752.94 75.48 15.00 259.16 2589.60
   13:35:00.843.09-Sep-2020 5408.01  752.94 75.48 15.00 259.36 2589.60
   13:35:01.043.09-Sep-2020 5408.01  747.80 75.47 15.00 259.56 2589.60
   13:35:01.243.09-Sep-2020 5408.01  738.56 75.47 15.00 259.76 2589.60
   13:35:01.443.09-Sep-2020 5408.01  746.57 75.47 15.00 259.96 2589.60
   13:35:01.643.09-Sep-2020 5408.01  747.41 75.46 15.00 260.16 2589.60
   13:35:01.844.09-Sep-2020 5408.01  747.41 75.46 15.00 260.36 2589.60
   13:35:02.044.09-Sep-2020 5408.01  772.92 75.46 15.00 260.56 2589.60
   13:35:02.244.09-Sep-2020 5408.01  803.65 75.46 15.00 260.76 2589.60
   13:35:02.444.09-Sep-2020 5408.01  794.95 75.45 15.00 260.96 2589.60
   13:35:02.644.09-Sep-2020 5408.01  832.64 75.45 15.00 261.16 2589.60
   13:35:02.844.09-Sep-2020 5408.01  832.64 75.45 15.00 261.36 2589.60
   13:35:03.044.09-Sep-2020 5408.01  824.80 75.45 15.00 261.56 2589.60
   13:35:03.244.09-Sep-2020 5408.01  799.63 75.45 15.00 261.76 2589.60
   13:35:03.445.09-Sep-2020 5408.01  809.36 75.44 15.00 261.96 2589.60
   13:35:03.645.09-Sep-2020 5408.01  805.31 75.44 15.00 262.16 2589.60
   13:35:03.845.09-Sep-2020 5408.01  805.31 75.44 15.00 262.36 2589.60
   13:35:04.045.09-Sep-2020 5408.01  787.98 75.44 15.00 262.56 2589.60
   13:35:04.245.09-Sep-2020 5408.01  803.88 75.44 15.00 262.76 2589.60
   13:35:04.445.09-Sep-2020 5408.01  816.09 75.43 15.00 262.96 2589.60
   13:35:04.645.09-Sep-2020 5408.01  802.81 75.43 15.00 263.16 2589.60
   13:35:04.845.09-Sep-2020 5408.01  802.81 75.43 15.00 263.36 2589.60
   13:35:05.046.09-Sep-2020 5408.01  798.83 75.43 15.00 263.56 2589.60
   13:35:05.246.09-Sep-2020 5408.01  779.11 75.43 15.00 263.76 2589.60
   13:35:05.446.09-Sep-2020 5408.01  757.70 75.43 15.00 263.96 2589.60
   13:35:05.646.09-Sep-2020 5408.01  769.84 75.43 15.00 264.16 2589.60
   13:35:05.846.09-Sep-2020 5408.01  769.84 75.43 15.00 264.36 2589.60
   13:35:06.046.09-Sep-2020 5408.01  836.81 75.42 15.00 264.56 2589.60
   13:35:06.246.09-Sep-2020 5408.01  832.26 75.42 15.00 264.76 2589.60
   13:35:06.446.09-Sep-2020 5408.01  846.24 75.42 15.00 264.96 2589.60
   13:35:06.646.09-Sep-2020 5408.01  838.30 75.42 15.00 265.16 2589.60
   13:35:06.847.09-Sep-2020 5408.01  838.30 75.42 15.00 265.36 2589.60
   13:35:07.047.09-Sep-2020 5408.01  931.13 75.42 15.00 265.56 2589.60
   13:35:07.247.09-Sep-2020 5408.01 1148.93 75.42 15.00 265.76 2589.60
   13:35:07.447.09-Sep-2020 5408.01 1349.49 75.42 15.00 265.96 2589.60
   13:35:07.647.09-Sep-2020 5408.01 1537.50 75.42 15.00 266.16 2589.60
   13:35:07.847.09-Sep-2020 5408.01 1537.50 75.42 15.00 266.36 2589.60
   13:35:08.047.09-Sep-2020 5408.01 1860.00 75.42 15.00 266.56 2589.60
   13:35:08.247.09-Sep-2020 5408.01 1997.00 75.42 15.00 266.76 2589.60
   13:35:08.448.09-Sep-2020 5408.01 2125.69 75.42 15.00 266.96 2589.60
   13:35:08.648.09-Sep-2020 5408.01 2242.03 75.42 15.00 267.16 2589.60
   13:35:08.848.09-Sep-2020 5408.01 2242.03 75.42 15.00 267.36 2589.60
   13:35:09.048.09-Sep-2020 5408.01 2447.04 75.42 15.00 267.56 2589.60
   13:35:09.248.09-Sep-2020 5408.01 2536.80 75.42 15.00 267.76 2589.60
   13:35:09.448.09-Sep-2020 5408.01 2617.62 75.42 15.00 267.96 2589.60
   13:35:09.648.09-Sep-2020 5408.01 2695.71 75.42 15.00 268.16 2589.60
   13:35:09.848.09-Sep-2020 5408.01 2695.71 75.42 15.00 268.36 2589.60
   13:35:10.049.09-Sep-2020 5408.01 2831.37 75.42 15.00 268.56 2589.60
   13:35:10.249.09-Sep-2020 5408.01 2890.70 75.42 15.00 268.76 2589.60
   13:35:10.449.09-Sep-2020 5408.01 2944.61 75.42 15.00 268.96 2589.60
   13:35:10.649.09-Sep-2020 5408.01 2994.99 75.43 15.00 269.16 2589.60
   13:35:10.849.09-Sep-2020 5408.01 2994.99 75.43 15.00 269.36 2589.60
   13:35:11.049.09-Sep-2020 5408.01 3087.45 75.43 15.00 269.56 2589.60
   13:35:11.249.09-Sep-2020 5408.01 3127.35 75.43 15.00 269.76 2589.60
   13:35:11.449.09-Sep-2020 5408.01 3164.18 75.43 15.00 269.96 2589.60
   13:35:11.650.09-Sep-2020 5408.01 3197.62 75.43 15.00 270.17 2589.60
   13:35:11.850.09-Sep-2020 5408.01 3197.62 75.43 15.00 270.37 2589.60
   13:35:12.050.09-Sep-2020 5408.01 3255.61 75.44 15.00 270.57 2589.60
   13:35:12.250.09-Sep-2020 5408.01 3283.34 75.44 15.00 270.77 2589.60
   13:35:12.450.09-Sep-2020 5408.01 3307.59 75.44 15.00 270.97 2589.60
   13:35:12.650.09-Sep-2020 5408.01 3330.00 75.44 15.00 271.17 2589.60
