~Version Information
 VERS.                  2.0:   CWLS log ASCII Standard -VERSION 2.0
 WRAP.                   NO:   One line per depth step
~Well Information Block
#MNEM.UNIT     VALUE/NAME     DESCRIPTION
#---------     -----------    ---------------------------
 STRT.S             11:14:18 09-Sep-20: START TIME 11:14:18 09-Sep-20
 STOP.S             11:21:20 09-Sep-20: STOP TIME  11:21:20 09-Sep-20
 STEP.S                   0.00: STEP TIME
 NULL.                 -999.25: NULL VALUE
 MDS .        Operator Entered:  MAG DATA SOURCE
 PDAT.          Mean Sea Level:  PERMANENT DATUM
 DCON.         Sperry Drilling:  DIRECTNL CONTR
 RIG .              West Azeri:  RIG NAME
 WELL.           C40 (Slot 20):  WELL NAME
 SRVC.     Turan Drilling Engineering:  CONTRACTOR
 FLD .                     ACG:  FIELD NAME
 CTRY.              Azerbaijan:  COUNTRY NAME
 PROV.                    Baku:  PROVINCE
 STAT.                    Baku:  STATE NAME
 REGN.                   EESSA:  REGION
 BASE.              Azerbaijan:  LOGGING EQUIPMENT BASE LOCATION
 COMP.     BP Exploration (Caspian Sea) Ltd:  COMPANY
 WTYP.                Deviated:  WELL TYPE
 SON .        AZ-XX-0906344804:  JOB NUMBER
 FTOP.          Formation Tops:  FORM TOPS DESC
 ILTD.               Lithology:  INTERP LTH DESC
 SVYD.                  Survey:  SURVEY DESC
 DMOD.             Drill Model:  DRILL MOD DESC
 HPTY.       Minimum Curvature:  HOLE POS TYPE
 NREF.                    Grid:  NORTH REFERENCE
 SPUD.               01-Jan-20:  SPUD DATE
 DATE.      00.59.44 15-Sep-20:  END TIME
 STIM.      12.00.00 12-Jun-20:  START TIME
 DMF .             Drill Floor:  DRILL MEAS FROM
 DFST.                        :  DIST FSL TEXT
 DFWT.                        :  DIST FWL TEXT
 API .                        :  API NUMBER
 CNTY.                        :  COUNTY
 UWI .                        :  UNIQUE WELL IDENTIFIER
 LOC .                        :  LOCATION
 LMF .             Drill Floor:  LOG MEASURED FROM
 VSNS.m                   2.88:  VERT SEC N/S
 VSEW.m                  -3.84:  VERT SEC E/W
 AGAP.m                  43.42:  AIR GAP
 APD .m                  43.42:  DEPTH ABOVE PD
 WDMS.m                 118.27:  WD ELEV
 EGL .m                   0.00:  GROUND ELEVATION
 EPD .m                   0.00:  ELEVATION
 AZTC.deg                 6.23:  AZM TOTAL CORR
 GRDC.deg                 0.20:  GRID CORRECTION
 MDEC.deg                 6.43:  MAGNETIC DECL
 MDIP.deg                59.49:  MAGNETIC DIP
 MFLD.nT              50277.00:  MAGNETIC FIELD
 GVFD.g                   1.00:  GRAVITY FIELD
 VSDR.deg               173.20:  VERT SEC DIRECT
 TDD .m                5790.01:  TOTAL DEPTH (DRILLER)
 SDEP.m                5231.01:  START DEPTH
 DFSL.m                   0.00:  DISTANCE FSL
 DFWL.m                   0.00:  DISTANCE FWL
 UTMY.m             4435808.83:  UTM Y
 UTMX.m              526266.40:  UTM X
 WHEW.m                  -3.84:  WELL HEAD E/W
 WHNS.m                   2.88:  WELL HEAD N/S
 LONG.deg                51.31:  LONGITUDE
 LATI.deg                40.06:  LATITUDE
 TVDS.m                  43.42:  TVDSS CORRECTN
 DEP .m                 430.08:  DEPTH
 EKB .m                  43.42:  KB ELEVATION
 EDF .m                  43.42:  DF ELEVATION
 TDL .m                 559.00:  TOTAL DEPTH (LOGGER)
 MAGU.                 1849381:  MAGUTM CHECKSUM
 VSC .                       0:  VS TO CLOSURE
~Parameter Information Block
#MNEM.UNIT       Value        Description
#---------     -----------    ---------------------------
 AV  .mps                 4.87:  Ann Velocity 
 AVMX.mps                 7.08:  Max Ann Veloc 
 AZIF.deg               108.87:  Azm, Final 
 BHAT.                  Rotary:  BHA Type 
 BROT.°/30m               0.35:  Build Rotating 
 BS  .in                  8.50:  Bit Size 
 BSZ .in                  8.50:  Bit Size 
 BTPL.psig              360.00:  Bit Press Loss 
 CABU.                     Yes:  Customer Abuse 
 TCS .hr                106.24:  Time Ciculation Ended 
 CV  .mps                 1.77:  Crit Velocity 
 CVMX.mps                 2.03:  Max Crit Veloc 
 DD1 .         Aykhan Agagulov:  Direct Drillr 1 
 DD2 .            Nonso Okofor:  Direct Drillr 2 
 DDSV.               Geo-Pilot:  DD Service 
 DEFF.%                  98.00:  % Det Eff 
 DLRX.°/30m               0.50:  Dogleg Rot Max 
 DLSO.°/30m               0.40:  Dogleg Oriented 
 DLSX.°/30m               0.94:  Dogleg Str Max 
 DRET.      20.30.00 08-Sep-20:  Drill End Time 
 DRST.      22.15.00 06-Sep-20:  Drill Start Tim 
 DTIM.hr                 31.31:  Time Drilling 
 EDEP.m                5790.01:  End Depth 
 ENG1.           Amrah Tahirov:  Engineer 1 
 ENG2.         Dair Mahammadov:  Engineer 2 
 ENG3.           Emil Huseynov:  Engineer 3 
 ETIM.      04.01.04 12-Sep-20:  End Time 
 FLOI.gpm               450.00:  Flow In 
 FLON.gpm               450.00:  Flow In Min 
 FLOS.cptm                2.00:  Fluid Loss 
 FLOX.gpm               450.00:  Flow In Max 
 FTRO.       Formation Presure:  FTWD Run Obj 
 HFLO.                      No:  High Flow 
 HPRE.                      No:  High Pressure 
 HTEM.                      No:  High Temp 
 HYDO.m                   1.80:  Hydro Offset 
 IFIN.deg                72.03:  Inc, Final 
 IMAX.deg                73.72:  Inc Max 
 IMIN.deg                70.94:  Inc Min 
 IMND.m                5508.52:  Inc Min Depth 
 IMXD.m                5253.60:  Inc Max Depth 
 JARR.                      No:  Jarring 
 LETM.      20.30.00 08-Sep-20:  Log End Time 
 LOST.hr                     0:  Lost Rig Time 
 LSTM.      22.15.00 06-Sep-20:  Log Start Time 
 MDCL.ppm             36000.00:  Mud Chlorides 
 MDES.     Inversion Oil/Synthetic:  Mud Desc 
 DFD .sg                  1.44:  Mud Density 
 MDMN.sg                  1.44:  Dens Mud Min 
 MDMX.sg                  1.57:  Dens Mud Max 
 MOIL.                      70:  Run Mud Oil % 
 MOWR.                   70:30:  Run Mud OWR 
 MSND.                       0:  Run Mud Sand % 
 MSOL.                      21:  Run Mud Solids% 
 DFV .spqt               68.00:  Mud Viscosity 
 MWOD.in                  6.75:  MWD Tool OD 
 MWSI.                     Yes:  Serv Intrp, MWD 
 OTIM.hr                174.84:  Time Operating 
 PCON.           Look Like New:  Pad Condition 
 PMAX.psia            10616.93:  Press Op, Max 
 PV  .cP                 50.00:  Mud PV 
 RUN .                     700:  Run Number 
 ROPA.m/hr               14.24:  ROP Avg 
 ROPN.m/hr               10.00:  ROP Min 
 ROPX.m/hr               32.00:  ROP Max 
 RPMA.rpm               120.90:  RPM Surface Avg 
 RPMN.rpm               120.00:  RPM Surface Min 
 RPMX.rpm               140.00:  RPM Surface Max 
 RRUN.                    0700:  Rig Run Number 
 RTIM.hr                  3.20:  Time Reaming 
 SAZI.deg               109.99:  Azm, Start 
 SDEP.m                5231.01:  Start Depth 
 SIDD.                      No:  Serv Intrp, DD 
 SINC.deg                73.72:  Inc, Start 
 SPPA.psig             3051.00:  SPP Avg 
 SPPN.psig             2950.00:  SPP Min 
 SPPX.psig             3250.00:  SPP Max 
 STIM.      08.00.00 05-Sep-20:  Start Time 
 SVCS.                 DD, MWD:  Services 
 SVER.                    9.20:  Sperry Version 
 TDAT.m                 559.00:  Tot Depth Attmp 
 TDDF.                      No:  Trip for DD 
 TDLG.m                 559.00:  Tot Depth Loggd 
 TFF .                      No:  Trip for Fail 
 TQAA.f-kp               26.49:  Torque Abs Avg 
 TQAN.f-kp               25.00:  Torque Abs Min 
 TQAX.f-kp               27.00:  Torque Abs Max 
 TRRT.°/30m               1.50:  Turn Rotating 
 MRT .                    HCIM:  Maximum Recorded Temperature 
 TTMX.degC               90.20:  Max Tool Temp 
 VS01.                90542671:  Virtual Str1 SN 
 VS02.                90545185:  Virtual Str2 SN 
 VS03.                90602015:  Virtual Str3 SN 
 VS04.                90515230:  Virtual Str4 SN 
 WBMN.klb                 5.00:  WOB Min 
 WOBA.klb                14.79:  WOB Avg 
 WOBX.klb                20.00:  WOB Max 
 YP  .lhf2               29.00:  Yield Point 
~Curve Information Block
#MNEM.UNIT                 API CODE     Curve Description
#---------               -----------    ---------------------------
 TIME.HHMMSS            00 000 000 000:  GT Time & Date
 GTDEPTH.m              00 000 000 000:  GT Depth
 GTPQH.psia             00 000 000 000:  GT HR Quartz Pressure
 GTTQ.degC              00 000 000 000:  GT Quartz Temperature
 GTTN.NONE              00 000 000 000:  GT Test Number
 GTET.sec               00 000 000 000:  GT Elapsed Test Time
 GTTVD.m                00 000 000 000:  GT True Vertical Depth
#Other Information
#
#WARRANTY: Halliburton will use its best efforts to furnish customers with 
#accurate information and interpretations that are part of, and incident to, the services 
#provided.  However, Halliburton cannot and does not warrant the accuracy 
#or correctness of such information and interpretations.  Under no circumstances should any 
#such information or interpretation be relied upon as the sole basis for any drilling, 
#completion, production, or financial decision or any procedure involving any risk to the 
#safety of any drilling venture, drilling rig or its crew or any other third party.  The 
#Customer has full responsibility for all drilling, completion and production operation.  
#Halliburton makes no representations or warranties, either expressed or 
#implied, including, but not limited to, the implied warranties of merchantability or fitness 
#for a particular purpose, with respect to the services rendered.  In no event will 
#Halliburton be liable for failure to obtain any particular results or for 
#any damages, including, but not limited to, indirect, special or consequential damages, 
#resulting from the use of any information or interpretation provided by Halliburton.
#
~A           TIME           GTDEPTH  GTPQH  GTTQ  GTTN   GTET   GTTVD  
# ...
   11:20:20.210.09-Sep-2020 5442.01 3581.99 76.09 11.00 361.70 2600.30
   11:20:20.410.09-Sep-2020 5442.01 3581.98 76.09 11.00 361.90 2600.30
   11:20:20.610.09-Sep-2020 5442.01 3581.99 76.09 11.00 362.10 2600.30
   11:20:20.810.09-Sep-2020 5442.01 3581.99 76.09 11.00 362.30 2600.30
   11:20:21.010.09-Sep-2020 5442.01 3582.03 76.09 11.00 362.50 2600.30
   11:20:21.211.09-Sep-2020 5442.01 3581.99 76.09 11.00 362.70 2600.30
   11:20:21.411.09-Sep-2020 5442.01 3581.99 76.09 11.00 362.90 2600.30
   11:20:21.611.09-Sep-2020 5442.01 3582.00 76.09 11.00 363.10 2600.30
   11:20:21.811.09-Sep-2020 5442.01 3582.00 76.09 11.00 363.30 2600.30
   11:20:22.011.09-Sep-2020 5442.01 3582.00 76.09 11.00 363.50 2600.30
   11:20:22.211.09-Sep-2020 5442.01 3581.99 76.09 11.00 363.70 2600.30
   11:20:22.411.09-Sep-2020 5442.01 3581.99 76.09 11.00 363.90 2600.30
   11:20:22.611.09-Sep-2020 5442.01 3581.99 76.09 11.00 364.10 2600.30
   11:20:22.811.09-Sep-2020 5442.01 3581.99 76.09 11.00 364.30 2600.30
   11:20:23.011.09-Sep-2020 5442.01 3581.99 76.09 11.00 364.50 2600.30
   11:20:23.211.09-Sep-2020 5442.01 3581.96 76.09 11.00 364.70 2600.30
   11:20:23.411.09-Sep-2020 5442.01 3581.96 76.09 11.00 364.90 2600.30
   11:20:23.611.09-Sep-2020 5442.01 3587.02 76.09 11.00 365.10 2600.30
   11:20:23.811.09-Sep-2020 5442.01 3587.02 76.09 11.00 365.30 2600.30
   11:20:24.011.09-Sep-2020 5442.01 6421.08 76.09 11.00 365.50 2600.30
   11:20:24.211.09-Sep-2020 5442.01 6419.70 76.09 11.00 365.70 2600.30
   11:20:24.411.09-Sep-2020 5442.01 6419.25 76.09 11.00 365.90 2600.30
   11:20:24.611.09-Sep-2020 5442.01 6418.94 76.10 11.00 366.10 2600.30
   11:20:24.812.09-Sep-2020 5442.01 6418.94 76.10 11.00 366.30 2600.30
   11:20:25.012.09-Sep-2020 5442.01 6423.29 76.10 11.00 366.50 2600.30
   11:20:25.212.09-Sep-2020 5442.01 6422.89 76.10 11.00 366.70 2600.30
   11:20:25.412.09-Sep-2020 5442.01 6420.84 76.10 11.00 366.90 2600.30
   11:20:25.612.09-Sep-2020 5442.01 6423.68 76.10 11.00 367.10 2600.30
   11:20:25.812.09-Sep-2020 5442.01 6423.68 76.10 11.00 367.30 2600.30
   11:20:26.012.09-Sep-2020 5442.01 6423.75 76.11 11.00 367.50 2600.30
   11:20:26.212.09-Sep-2020 5442.01 6423.67 76.11 11.00 367.70 2600.30
   11:20:26.412.09-Sep-2020 5442.01 6435.60 76.11 11.00 367.90 2600.30
   11:20:26.612.09-Sep-2020 5442.01 6420.11 76.11 11.00 368.10 2600.30
   11:20:26.812.09-Sep-2020 5442.01 6424.70 76.11 11.00 368.30 2600.30
   11:20:27.012.09-Sep-2020 5442.01 6426.47 76.12 11.00 368.50 2600.30
   11:20:27.212.09-Sep-2020 5442.01 6426.77 76.12 11.00 368.70 2600.30
   11:20:27.412.09-Sep-2020 5442.01 6427.88 76.12 11.00 368.90 2600.30
   11:20:27.612.09-Sep-2020 5442.01 6425.97 76.12 11.00 369.10 2600.30
   11:20:27.812.09-Sep-2020 5442.01 6425.97 76.12 11.00 369.30 2600.30
   11:20:28.012.09-Sep-2020 5442.01 6426.21 76.13 11.00 369.50 2600.30
   11:20:28.212.09-Sep-2020 5442.01 6425.80 76.13 11.00 369.70 2600.30
   11:20:28.413.09-Sep-2020 5442.01 6426.16 76.13 11.00 369.90 2600.30
   11:20:28.613.09-Sep-2020 5442.01 6426.53 76.14 11.00 370.10 2600.30
   11:20:28.813.09-Sep-2020 5442.01 6426.53 76.14 11.00 370.30 2600.30
   11:20:29.013.09-Sep-2020 5442.01 6427.00 76.14 11.00 370.50 2600.30
   11:20:29.213.09-Sep-2020 5442.01 6427.27 76.14 11.00 370.70 2600.30
   11:20:29.413.09-Sep-2020 5442.01 6427.54 76.15 11.00 370.90 2600.30
   11:20:29.613.09-Sep-2020 5442.01 6427.64 76.15 11.00 371.10 2600.30
   11:20:29.813.09-Sep-2020 5442.01 6427.64 76.15 11.00 371.30 2600.30
   11:20:30.013.09-Sep-2020 5442.01 6430.79 76.15 11.00 371.50 2600.30
   11:20:30.213.09-Sep-2020 5442.01 6429.92 76.15 11.00 371.70 2600.30
   11:20:30.413.09-Sep-2020 5442.01 6427.58 76.16 11.00 371.90 2600.30
   11:20:30.613.09-Sep-2020 5442.01 6429.79 76.16 11.00 372.10 2600.30
   11:20:30.813.09-Sep-2020 5442.01 6429.31 76.16 11.00 372.30 2600.30
   11:20:31.013.09-Sep-2020 5442.01 6428.44 76.16 11.00 372.50 2600.30
   11:20:31.213.09-Sep-2020 5442.01 6427.29 76.16 11.00 372.70 2600.30
   11:20:31.413.09-Sep-2020 5442.01 6428.22 76.16 11.00 372.90 2600.30
   11:20:31.613.09-Sep-2020 5442.01 6427.23 76.16 11.00 373.10 2600.30
   11:20:31.813.09-Sep-2020 5442.01 6427.23 76.16 11.00 373.30 2600.30
   11:20:32.014.09-Sep-2020 5442.01 6427.69 76.17 11.00 373.50 2600.30
   11:20:32.214.09-Sep-2020 5442.01 6427.48 76.17 11.00 373.70 2600.30
   11:20:32.414.09-Sep-2020 5442.01 6427.43 76.17 11.00 373.90 2600.30
   11:20:32.614.09-Sep-2020 5442.01 6426.73 76.17 11.00 374.10 2600.30
   11:20:32.814.09-Sep-2020 5442.01 6426.73 76.17 11.00 374.30 2600.30
   11:20:33.014.09-Sep-2020 5442.01 6426.59 76.17 11.00 374.50 2600.30
   11:20:33.214.09-Sep-2020 5442.01 6426.55 76.17 11.00 374.70 2600.30
   11:20:33.414.09-Sep-2020 5442.01 6437.34 76.17 11.00 374.90 2600.30
   11:20:33.614.09-Sep-2020 5442.01 6422.27 76.17 11.00 375.10 2600.30
   11:20:33.814.09-Sep-2020 5442.01 6422.27 76.17 11.00 375.30 2600.30
   11:20:34.014.09-Sep-2020 5442.01 6428.41 76.17 11.00 375.50 2600.30
   11:20:34.214.09-Sep-2020 5442.01 6427.58 76.18 11.00 375.70 2600.30
   11:20:34.414.09-Sep-2020 5442.01 6427.71 76.18 11.00 375.90 2600.30
   11:20:34.614.09-Sep-2020 5442.01 6436.69 76.18 11.00 376.10 2600.30
   11:20:34.814.09-Sep-2020 5442.01 6436.69 76.18 11.00 376.30 2600.30
   11:20:35.014.09-Sep-2020 5442.01 6427.08 76.18 11.00 376.50 2600.30
   11:20:35.214.09-Sep-2020 5442.01 6428.70 76.18 11.00 376.70 2600.30
   11:20:35.414.09-Sep-2020 5442.01 6428.02 76.18 11.00 376.90 2600.30
   11:20:35.615.09-Sep-2020 5442.01 6428.38 76.18 11.00 377.10 2600.30
   11:20:35.815.09-Sep-2020 5442.01 6428.38 76.18 11.00 377.30 2600.30
   11:20:36.015.09-Sep-2020 5442.01 6430.15 76.18 11.00 377.50 2600.30
   11:20:36.215.09-Sep-2020 5442.01 6429.70 76.18 11.00 377.70 2600.30
   11:20:36.415.09-Sep-2020 5442.01 6427.11 76.18 11.00 377.90 2600.30
   11:20:36.615.09-Sep-2020 5442.01 6428.66 76.18 11.00 378.10 2600.30
   11:20:36.815.09-Sep-2020 5442.01 6428.66 76.18 11.00 378.30 2600.30
   11:20:37.015.09-Sep-2020 5442.01 6427.66 76.18 11.00 378.50 2600.30
   11:20:37.215.09-Sep-2020 5442.01 6426.79 76.18 11.00 378.70 2600.30
   11:20:37.415.09-Sep-2020 5442.01 6427.54 76.18 11.00 378.90 2600.30
   11:20:37.615.09-Sep-2020 5442.01 6437.39 76.18 11.00 379.10 2600.30
   11:20:37.815.09-Sep-2020 5442.01 6437.39 76.18 11.00 379.30 2600.30
   11:20:38.015.09-Sep-2020 5442.01 6426.63 76.18 11.00 379.50 2600.30
   11:20:38.215.09-Sep-2020 5442.01 6429.40 76.18 11.00 379.70 2600.30
   11:20:38.415.09-Sep-2020 5442.01 6428.79 76.18 11.00 379.90 2600.30
   11:20:38.615.09-Sep-2020 5442.01 6428.72 76.18 11.00 380.10 2600.30
   11:20:38.815.09-Sep-2020 5442.01 6427.15 76.18 11.00 380.30 2600.30
   11:20:39.015.09-Sep-2020 5442.01 6434.17 76.18 11.00 380.51 2600.30
   11:20:39.216.09-Sep-2020 5442.01 6428.00 76.18 11.00 380.71 2600.30
   11:20:39.416.09-Sep-2020 5442.01 6428.19 76.18 11.00 380.91 2600.30
   11:20:39.616.09-Sep-2020 5442.01 6429.28 76.18 11.00 381.11 2600.30
   11:20:39.816.09-Sep-2020 5442.01 6429.28 76.18 11.00 381.31 2600.30
   11:20:40.016.09-Sep-2020 5442.01 6429.50 76.18 11.00 381.51 2600.30
   11:20:40.216.09-Sep-2020 5442.01 6428.83 76.18 11.00 381.71 2600.30
   11:20:40.416.09-Sep-2020 5442.01 6427.88 76.18 11.00 381.91 2600.30
   11:20:40.616.09-Sep-2020 5442.01 6428.03 76.18 11.00 382.11 2600.30
   11:20:40.816.09-Sep-2020 5442.01 6428.03 76.18 11.00 382.31 2600.30
   11:20:41.016.09-Sep-2020 5442.01 6427.80 76.18 11.00 382.51 2600.30
   11:20:41.216.09-Sep-2020 5442.01 6428.38 76.18 11.00 382.71 2600.30
   11:20:41.416.09-Sep-2020 5442.01 6428.35 76.18 11.00 382.91 2600.30
   11:20:41.616.09-Sep-2020 5442.01 6428.42 76.18 11.00 383.11 2600.30
   11:20:41.816.09-Sep-2020 5442.01 6428.42 76.18 11.00 383.31 2600.30
   11:20:42.016.09-Sep-2020 5442.01 6428.14 76.18 11.00 383.51 2600.30
   11:20:42.216.09-Sep-2020 5442.01 6428.06 76.18 11.00 383.71 2600.30
   11:20:42.416.09-Sep-2020 5442.01 6428.03 76.18 11.00 383.91 2600.30
   11:20:42.616.09-Sep-2020 5442.01 6438.10 76.18 11.00 384.11 2600.30
