~Version Information
 VERS.                  2.0:   CWLS log ASCII Standard -VERSION 2.0
 WRAP.                   NO:   One line per depth step
~Well Information Block
#MNEM.UNIT     VALUE/NAME     DESCRIPTION
#---------     -----------    ---------------------------
 STRT.S             20:20:33 09-Sep-20: START TIME 20:20:33 09-Sep-20
 STOP.S             20:28:41 09-Sep-20: STOP TIME  20:28:41 09-Sep-20
 STEP.S                   0.00: STEP TIME
 NULL.                 -999.25: NULL VALUE
 MDS .        Operator Entered:  MAG DATA SOURCE
 PDAT.          Mean Sea Level:  PERMANENT DATUM
 DCON.         Sperry Drilling:  DIRECTNL CONTR
 RIG .              West Azeri:  RIG NAME
 WELL.           C40 (Slot 20):  WELL NAME
 SRVC.     Turan Drilling Engineering:  CONTRACTOR
 FLD .                     ACG:  FIELD NAME
 CTRY.              Azerbaijan:  COUNTRY NAME
 PROV.                    Baku:  PROVINCE
 STAT.                    Baku:  STATE NAME
 REGN.                   EESSA:  REGION
 BASE.              Azerbaijan:  LOGGING EQUIPMENT BASE LOCATION
 COMP.     BP Exploration (Caspian Sea) Ltd:  COMPANY
 WTYP.                Deviated:  WELL TYPE
 SON .        AZ-XX-0906344804:  JOB NUMBER
 FTOP.          Formation Tops:  FORM TOPS DESC
 ILTD.               Lithology:  INTERP LTH DESC
 SVYD.                  Survey:  SURVEY DESC
 DMOD.             Drill Model:  DRILL MOD DESC
 HPTY.       Minimum Curvature:  HOLE POS TYPE
 NREF.                    Grid:  NORTH REFERENCE
 SPUD.               01-Jan-20:  SPUD DATE
 DATE.      00.59.44 15-Sep-20:  END TIME
 STIM.      12.00.00 12-Jun-20:  START TIME
 DMF .             Drill Floor:  DRILL MEAS FROM
 DFST.                        :  DIST FSL TEXT
 DFWT.                        :  DIST FWL TEXT
 API .                        :  API NUMBER
 CNTY.                        :  COUNTY
 UWI .                        :  UNIQUE WELL IDENTIFIER
 LOC .                        :  LOCATION
 LMF .             Drill Floor:  LOG MEASURED FROM
 VSNS.m                   2.88:  VERT SEC N/S
 VSEW.m                  -3.84:  VERT SEC E/W
 AGAP.m                  43.42:  AIR GAP
 APD .m                  43.42:  DEPTH ABOVE PD
 WDMS.m                 118.27:  WD ELEV
 EGL .m                   0.00:  GROUND ELEVATION
 EPD .m                   0.00:  ELEVATION
 AZTC.deg                 6.23:  AZM TOTAL CORR
 GRDC.deg                 0.20:  GRID CORRECTION
 MDEC.deg                 6.43:  MAGNETIC DECL
 MDIP.deg                59.49:  MAGNETIC DIP
 MFLD.nT              50277.00:  MAGNETIC FIELD
 GVFD.g                   1.00:  GRAVITY FIELD
 VSDR.deg               173.20:  VERT SEC DIRECT
 TDD .m                5790.01:  TOTAL DEPTH (DRILLER)
 SDEP.m                5231.01:  START DEPTH
 DFSL.m                   0.00:  DISTANCE FSL
 DFWL.m                   0.00:  DISTANCE FWL
 UTMY.m             4435808.83:  UTM Y
 UTMX.m              526266.40:  UTM X
 WHEW.m                  -3.84:  WELL HEAD E/W
 WHNS.m                   2.88:  WELL HEAD N/S
 LONG.deg                51.31:  LONGITUDE
 LATI.deg                40.06:  LATITUDE
 TVDS.m                  43.42:  TVDSS CORRECTN
 DEP .m                 430.08:  DEPTH
 EKB .m                  43.42:  KB ELEVATION
 EDF .m                  43.42:  DF ELEVATION
 TDL .m                 559.00:  TOTAL DEPTH (LOGGER)
 MAGU.                 1849381:  MAGUTM CHECKSUM
 VSC .                       0:  VS TO CLOSURE
~Parameter Information Block
#MNEM.UNIT       Value        Description
#---------     -----------    ---------------------------
 AV  .mps                 4.87:  Ann Velocity 
 AVMX.mps                 7.08:  Max Ann Veloc 
 AZIF.deg               108.87:  Azm, Final 
 BHAT.                  Rotary:  BHA Type 
 BROT.°/30m               0.35:  Build Rotating 
 BS  .in                  8.50:  Bit Size 
 BSZ .in                  8.50:  Bit Size 
 BTPL.psig              360.00:  Bit Press Loss 
 CABU.                     Yes:  Customer Abuse 
 COMM.                     ÄìU:  Run Comments 1 
 TCS .hr                106.24:  Time Ciculation Ended 
 CV  .mps                 1.77:  Crit Velocity 
 CVMX.mps                 2.03:  Max Crit Veloc 
 DD1 .         Aykhan Agagulov:  Direct Drillr 1 
 DD2 .            Nonso Okofor:  Direct Drillr 2 
 DDSV.               Geo-Pilot:  DD Service 
 DEFF.%                  98.00:  % Det Eff 
 DLRX.°/30m               0.50:  Dogleg Rot Max 
 DLSO.°/30m               0.40:  Dogleg Oriented 
 DLSX.°/30m               0.94:  Dogleg Str Max 
 DRET.      20.30.00 08-Sep-20:  Drill End Time 
 DRST.      22.15.00 06-Sep-20:  Drill Start Tim 
 DTIM.hr                 31.31:  Time Drilling 
 EDEP.m                5790.01:  End Depth 
 ENG1.           Amrah Tahirov:  Engineer 1 
 ENG2.         Dair Mahammadov:  Engineer 2 
 ENG3.           Emil Huseynov:  Engineer 3 
 ETIM.      04.01.04 12-Sep-20:  End Time 
 FLOI.gpm               450.00:  Flow In 
 FLON.gpm               450.00:  Flow In Min 
 FLOS.cptm                2.00:  Fluid Loss 
 FLOX.gpm               450.00:  Flow In Max 
 FTRO.       Formation Presure:  FTWD Run Obj 
 HFLO.                      No:  High Flow 
 HPRE.                      No:  High Pressure 
 HTEM.                      No:  High Temp 
 HYDO.m                   1.80:  Hydro Offset 
 IFIN.deg                72.03:  Inc, Final 
 IMAX.deg                73.72:  Inc Max 
 IMIN.deg                70.94:  Inc Min 
 IMND.m                5508.52:  Inc Min Depth 
 IMXD.m                5253.60:  Inc Max Depth 
 JARR.                      No:  Jarring 
 LETM.      20.30.00 08-Sep-20:  Log End Time 
 LOST.hr                     0:  Lost Rig Time 
 LSTM.      22.15.00 06-Sep-20:  Log Start Time 
 MDCL.ppm             36000.00:  Mud Chlorides 
 MDES.     Inversion Oil/Synthetic:  Mud Desc 
 DFD .sg                  1.44:  Mud Density 
 MDMN.sg                  1.44:  Dens Mud Min 
 MDMX.sg                  1.57:  Dens Mud Max 
 MOIL.                      70:  Run Mud Oil % 
 MOWR.                   70:30:  Run Mud OWR 
 MSND.                       0:  Run Mud Sand % 
 MSOL.                      21:  Run Mud Solids% 
 DFV .spqt               68.00:  Mud Viscosity 
 MWOD.in                  6.75:  MWD Tool OD 
 MWSI.                     Yes:  Serv Intrp, MWD 
 OTIM.hr                174.84:  Time Operating 
 PCON.           Look Like New:  Pad Condition 
 PMAX.psia            10616.93:  Press Op, Max 
 PV  .cP                 50.00:  Mud PV 
 RUN .                     700:  Run Number 
 ROPA.m/hr               14.24:  ROP Avg 
 ROPN.m/hr               10.00:  ROP Min 
 ROPX.m/hr               32.00:  ROP Max 
 RPMA.rpm               120.90:  RPM Surface Avg 
 RPMN.rpm               120.00:  RPM Surface Min 
 RPMX.rpm               140.00:  RPM Surface Max 
 RRUN.                    0700:  Rig Run Number 
 RTIM.hr                  3.20:  Time Reaming 
 SAZI.deg               109.99:  Azm, Start 
 SDEP.m                5231.01:  Start Depth 
 SIDD.                      No:  Serv Intrp, DD 
 SINC.deg                73.72:  Inc, Start 
 SPPA.psig             3051.00:  SPP Avg 
 SPPN.psig             2950.00:  SPP Min 
 SPPX.psig             3250.00:  SPP Max 
 STIM.      08.00.00 05-Sep-20:  Start Time 
 SVCS.                 DD, MWD:  Services 
 SVER.                    9.20:  Sperry Version 
 TDAT.m                 559.00:  Tot Depth Attmp 
 TDDF.                      No:  Trip for DD 
 TDLG.m                 559.00:  Tot Depth Loggd 
 TFF .                      No:  Trip for Fail 
 TQAA.f-kp               26.49:  Torque Abs Avg 
 TQAN.f-kp               25.00:  Torque Abs Min 
 TQAX.f-kp               27.00:  Torque Abs Max 
 TRRT.°/30m               1.50:  Turn Rotating 
 MRT .                    HCIM:  Maximum Recorded Temperature 
 TTMX.degC               90.20:  Max Tool Temp 
 VS01.                90542671:  Virtual Str1 SN 
 VS02.                90545185:  Virtual Str2 SN 
 VS03.                90602015:  Virtual Str3 SN 
 VS04.                90515230:  Virtual Str4 SN 
 WBMN.klb                 5.00:  WOB Min 
 WOBA.klb                14.79:  WOB Avg 
 WOBX.klb                20.00:  WOB Max 
 YP  .lhf2               29.00:  Yield Point 
~Curve Information Block
#MNEM.UNIT                 API CODE     Curve Description
#---------               -----------    ---------------------------
 TIME.HHMMSS            00 000 000 000:  GT Time & Date
 GTDEPTH.m              00 000 000 000:  GT Depth
 GTPQH.psia             00 000 000 000:  GT HR Quartz Pressure
 GTTQ.degC              00 000 000 000:  GT Quartz Temperature
 GTTN.NONE              00 000 000 000:  GT Test Number
 GTET.sec               00 000 000 000:  GT Elapsed Test Time
 GTTVD.m                00 000 000 000:  GT True Vertical Depth
#Other Information
#
#WARRANTY: Halliburton will use its best efforts to furnish customers with 
#accurate information and interpretations that are part of, and incident to, the services 
#provided.  However, Halliburton cannot and does not warrant the accuracy 
#or correctness of such information and interpretations.  Under no circumstances should any 
#such information or interpretation be relied upon as the sole basis for any drilling, 
#completion, production, or financial decision or any procedure involving any risk to the 
#safety of any drilling venture, drilling rig or its crew or any other third party.  The 
#Customer has full responsibility for all drilling, completion and production operation.  
#Halliburton makes no representations or warranties, either expressed or 
#implied, including, but not limited to, the implied warranties of merchantability or fitness 
#for a particular purpose, with respect to the services rendered.  In no event will 
#Halliburton be liable for failure to obtain any particular results or for 
#any damages, including, but not limited to, indirect, special or consequential damages, 
#resulting from the use of any information or interpretation provided by Halliburton.
#
~A           TIME           GTDEPTH  GTPQH  GTTQ  GTTN   GTET   GTTVD  
# ...
   20:26:58.000.09-Sep-2020 5252.51  490.53 74.00 25.00 384.38 2542.44
   20:26:58.200.09-Sep-2020 5252.51  490.59 74.00 25.00 384.58 2542.44
   20:26:58.400.09-Sep-2020 5252.51  490.59 74.00 25.00 384.78 2542.44
   20:26:58.601.09-Sep-2020 5252.51  490.69 74.00 25.00 384.98 2542.44
   20:26:58.801.09-Sep-2020 5252.51  490.73 74.00 25.00 385.18 2542.44
   20:26:59.001.09-Sep-2020 5252.51  490.76 74.00 25.00 385.38 2542.44
   20:26:59.201.09-Sep-2020 5252.51  490.77 74.00 25.00 385.58 2542.44
   20:26:59.401.09-Sep-2020 5252.51  490.80 74.00 25.00 385.78 2542.44
   20:26:59.601.09-Sep-2020 5252.51  490.83 74.00 25.00 385.98 2542.44
   20:26:59.801.09-Sep-2020 5252.51  490.87 74.00 25.00 386.18 2542.44
   20:27:00.001.09-Sep-2020 5252.51  490.89 74.00 25.00 386.38 2542.44
   20:27:00.201.09-Sep-2020 5252.51  490.37 74.00 25.00 386.58 2542.44
   20:27:00.401.09-Sep-2020 5252.51  490.83 74.00 25.00 386.78 2542.44
   20:27:00.601.09-Sep-2020 5252.51  491.02 74.00 25.00 386.98 2542.44
   20:27:00.802.09-Sep-2020 5252.51  490.97 74.00 25.00 387.18 2542.44
   20:27:01.002.09-Sep-2020 5252.51  491.19 74.00 25.00 387.38 2542.44
   20:27:01.202.09-Sep-2020 5252.51  491.01 74.00 25.00 387.58 2542.44
   20:27:01.402.09-Sep-2020 5252.51  491.12 74.00 25.00 387.78 2542.44
   20:27:01.602.09-Sep-2020 5252.51  491.12 74.00 25.00 387.98 2542.44
   20:27:01.802.09-Sep-2020 5252.51  491.18 74.00 25.00 388.18 2542.44
   20:27:02.002.09-Sep-2020 5252.51  491.20 74.00 25.00 388.38 2542.44
   20:27:02.202.09-Sep-2020 5252.51  491.25 74.00 25.00 388.58 2542.44
   20:27:02.402.09-Sep-2020 5252.51  491.21 74.00 25.00 388.78 2542.44
   20:27:02.602.09-Sep-2020 5252.51  491.25 74.00 25.00 388.98 2542.44
   20:27:02.802.09-Sep-2020 5252.51  491.30 74.00 25.00 389.18 2542.44
   20:27:03.003.09-Sep-2020 5252.51  491.33 74.00 25.00 389.38 2542.44
   20:27:03.203.09-Sep-2020 5252.51  491.39 74.00 25.00 389.58 2542.44
   20:27:03.403.09-Sep-2020 5252.51  490.60 74.00 25.00 389.78 2542.44
   20:27:03.603.09-Sep-2020 5252.51  491.61 74.00 25.00 389.98 2542.44
   20:27:03.803.09-Sep-2020 5252.51  491.43 74.00 25.00 390.18 2542.44
   20:27:04.003.09-Sep-2020 5252.51  491.40 74.00 25.00 390.38 2542.44
   20:27:04.203.09-Sep-2020 5252.51  491.47 74.00 25.00 390.58 2542.44
   20:27:04.403.09-Sep-2020 5252.51  491.62 74.00 25.00 390.78 2542.44
   20:27:04.603.09-Sep-2020 5252.51  491.11 74.00 25.00 390.98 2542.44
   20:27:04.803.09-Sep-2020 5252.51  491.53 74.00 25.00 391.18 2542.44
   20:27:05.003.09-Sep-2020 5252.51  491.71 74.00 25.00 391.38 2542.44
   20:27:05.204.09-Sep-2020 5252.51  491.56 74.00 25.00 391.58 2542.44
   20:27:05.404.09-Sep-2020 5252.51  491.80 74.00 25.00 391.78 2542.44
   20:27:05.604.09-Sep-2020 5252.51  491.68 74.00 25.00 391.98 2542.44
   20:27:05.804.09-Sep-2020 5252.51  491.85 74.00 25.00 392.18 2542.44
   20:27:06.004.09-Sep-2020 5252.51  491.85 74.00 25.00 392.38 2542.44
   20:27:06.204.09-Sep-2020 5252.51  492.12 74.00 25.00 392.58 2542.44
   20:27:06.404.09-Sep-2020 5252.51  491.80 74.00 25.00 392.78 2542.44
   20:27:06.604.09-Sep-2020 5252.51  491.86 74.00 25.00 392.98 2542.44
   20:27:06.804.09-Sep-2020 5252.51  491.82 74.00 25.00 393.18 2542.44
   20:27:07.004.09-Sep-2020 5252.51  492.09 74.00 25.00 393.38 2542.44
   20:27:07.204.09-Sep-2020 5252.51  491.69 74.00 25.00 393.58 2542.44
   20:27:07.405.09-Sep-2020 5252.51  491.69 74.00 25.00 393.78 2542.44
   20:27:07.605.09-Sep-2020 5252.51  492.09 74.00 25.00 393.98 2542.44
   20:27:07.805.09-Sep-2020 5252.51  492.07 74.00 25.00 394.18 2542.44
   20:27:08.005.09-Sep-2020 5252.51  491.78 74.00 25.00 394.38 2542.44
   20:27:08.205.09-Sep-2020 5252.51  491.95 74.00 25.00 394.58 2542.44
   20:27:08.405.09-Sep-2020 5252.51  492.22 74.00 25.00 394.78 2542.44
   20:27:08.605.09-Sep-2020 5252.51  492.30 74.00 25.00 394.98 2542.44
   20:27:08.805.09-Sep-2020 5252.51  492.26 74.00 25.00 395.18 2542.44
   20:27:09.005.09-Sep-2020 5252.51  492.26 74.00 25.00 395.38 2542.44
   20:27:09.205.09-Sep-2020 5252.51  492.31 74.00 25.00 395.58 2542.44
   20:27:09.405.09-Sep-2020 5252.51  492.43 74.00 25.00 395.78 2542.44
   20:27:09.606.09-Sep-2020 5252.51  492.43 74.00 25.00 395.98 2542.44
   20:27:09.806.09-Sep-2020 5252.51  492.45 74.00 25.00 396.18 2542.44
   20:27:10.006.09-Sep-2020 5252.51  492.45 74.00 25.00 396.38 2542.44
   20:27:10.206.09-Sep-2020 5252.51  492.47 74.00 25.00 396.58 2542.44
   20:27:10.406.09-Sep-2020 5252.51  492.51 74.00 25.00 396.78 2542.44
   20:27:10.606.09-Sep-2020 5252.51  492.55 74.01 25.00 396.98 2542.44
   20:27:10.806.09-Sep-2020 5252.51  492.61 74.00 25.00 397.18 2542.44
   20:27:11.006.09-Sep-2020 5252.51  492.63 74.01 25.00 397.38 2542.44
   20:27:11.206.09-Sep-2020 5252.51  492.66 74.01 25.00 397.58 2542.44
   20:27:11.406.09-Sep-2020 5252.51  492.68 74.01 25.00 397.78 2542.44
   20:27:11.607.09-Sep-2020 5252.51  492.38 74.01 25.00 397.98 2542.44
   20:27:11.807.09-Sep-2020 5252.51  492.37 74.01 25.00 398.18 2542.44
   20:27:12.007.09-Sep-2020 5252.51  492.37 74.01 25.00 398.38 2542.44
   20:27:12.207.09-Sep-2020 5252.51  492.81 74.01 25.00 398.58 2542.44
   20:27:12.407.09-Sep-2020 5252.51  492.80 74.01 25.00 398.78 2542.44
   20:27:12.607.09-Sep-2020 5252.51  492.97 74.01 25.00 398.98 2542.44
   20:27:12.807.09-Sep-2020 5252.51  492.88 74.01 25.00 399.18 2542.44
   20:27:13.007.09-Sep-2020 5252.51  492.88 74.01 25.00 399.38 2542.44
   20:27:13.207.09-Sep-2020 5252.51  492.91 74.01 25.00 399.58 2542.44
   20:27:13.407.09-Sep-2020 5252.51  492.92 74.01 25.00 399.78 2542.44
   20:27:13.607.09-Sep-2020 5252.51  492.96 74.01 25.00 399.98 2542.44
   20:27:13.808.09-Sep-2020 5252.51  493.03 74.01 25.00 400.18 2542.44
   20:27:14.008.09-Sep-2020 5252.51  493.03 74.01 25.00 400.38 2542.44
   20:27:14.208.09-Sep-2020 5252.51  493.07 74.01 25.00 400.58 2542.44
   20:27:14.408.09-Sep-2020 5252.51  493.05 74.01 25.00 400.78 2542.44
   20:27:14.608.09-Sep-2020 5252.51  493.09 74.01 25.00 400.98 2542.44
   20:27:14.808.09-Sep-2020 5252.51  493.13 74.01 25.00 401.18 2542.44
   20:27:15.008.09-Sep-2020 5252.51  492.64 74.01 25.00 401.38 2542.44
   20:27:15.208.09-Sep-2020 5252.51  493.15 74.01 25.00 401.59 2542.44
   20:27:15.408.09-Sep-2020 5252.51  493.36 74.01 25.00 401.79 2542.44
   20:27:15.608.09-Sep-2020 5252.51  493.30 74.01 25.00 401.99 2542.44
   20:27:15.808.09-Sep-2020 5252.51  493.47 74.01 25.00 402.19 2542.44
   20:27:16.009.09-Sep-2020 5252.51  493.01 74.01 25.00 402.39 2542.44
   20:27:16.209.09-Sep-2020 5252.51  493.11 74.01 25.00 402.59 2542.44
   20:27:16.409.09-Sep-2020 5252.51  493.50 74.01 25.00 402.79 2542.44
   20:27:16.609.09-Sep-2020 5252.51  493.57 74.01 25.00 402.99 2542.44
   20:27:16.809.09-Sep-2020 5252.51  493.53 74.01 25.00 403.19 2542.44
   20:27:17.009.09-Sep-2020 5252.51  493.69 74.01 25.00 403.39 2542.44
   20:27:17.209.09-Sep-2020 5252.51  493.53 74.01 25.00 403.59 2542.44
   20:27:17.409.09-Sep-2020 5252.51  493.64 74.01 25.00 403.79 2542.44
   20:27:17.609.09-Sep-2020 5252.51  492.75 74.01 25.00 403.99 2542.44
   20:27:17.809.09-Sep-2020 5252.51  493.91 74.01 25.00 404.19 2542.44
   20:27:18.009.09-Sep-2020 5252.51  493.67 74.01 25.00 404.39 2542.44
   20:27:18.210.09-Sep-2020 5252.51  493.72 74.01 25.00 404.59 2542.44
   20:27:18.410.09-Sep-2020 5252.51  493.69 74.01 25.00 404.79 2542.44
   20:27:18.610.09-Sep-2020 5252.51  493.92 74.01 25.00 404.99 2542.44
   20:27:18.810.09-Sep-2020 5252.51  493.55 74.01 25.00 405.19 2542.44
   20:27:19.010.09-Sep-2020 5252.51  493.51 74.01 25.00 405.39 2542.44
   20:27:19.210.09-Sep-2020 5252.51  493.93 74.01 25.00 405.59 2542.44
   20:27:19.410.09-Sep-2020 5252.51  493.92 74.01 25.00 405.79 2542.44
   20:27:19.610.09-Sep-2020 5252.51  493.93 74.01 25.00 405.99 2542.44
   20:27:19.810.09-Sep-2020 5252.51  493.79 74.01 25.00 406.19 2542.44
   20:27:20.010.09-Sep-2020 5252.51  493.64 74.01 25.00 406.39 2542.44
   20:27:20.210.09-Sep-2020 5252.51  494.14 74.01 25.00 406.59 2542.44
   20:27:20.411.09-Sep-2020 5252.51  494.12 74.01 25.00 406.79 2542.44
