~Version Information
 VERS.                  2.0:   CWLS log ASCII Standard -VERSION 2.0
 WRAP.                   NO:   One line per depth step
~Well Information Block
#MNEM.UNIT     VALUE/NAME     DESCRIPTION
#---------     -----------    ---------------------------
 STRT.S             13:30:41 09-Sep-20: START TIME 13:30:41 09-Sep-20
 STOP.S             13:37:24 09-Sep-20: STOP TIME  13:37:24 09-Sep-20
 STEP.S                   0.00: STEP TIME
 NULL.                 -999.25: NULL VALUE
 MDS .        Operator Entered:  MAG DATA SOURCE
 PDAT.          Mean Sea Level:  PERMANENT DATUM
 DCON.         Sperry Drilling:  DIRECTNL CONTR
 RIG .              West Azeri:  RIG NAME
 WELL.           C40 (Slot 20):  WELL NAME
 SRVC.     Turan Drilling Engineering:  CONTRACTOR
 FLD .                     ACG:  FIELD NAME
 CTRY.              Azerbaijan:  COUNTRY NAME
 PROV.                    Baku:  PROVINCE
 STAT.                    Baku:  STATE NAME
 REGN.                   EESSA:  REGION
 BASE.              Azerbaijan:  LOGGING EQUIPMENT BASE LOCATION
 COMP.     BP Exploration (Caspian Sea) Ltd:  COMPANY
 WTYP.                Deviated:  WELL TYPE
 SON .        AZ-XX-0906344804:  JOB NUMBER
 FTOP.          Formation Tops:  FORM TOPS DESC
 ILTD.               Lithology:  INTERP LTH DESC
 SVYD.                  Survey:  SURVEY DESC
 DMOD.             Drill Model:  DRILL MOD DESC
 HPTY.       Minimum Curvature:  HOLE POS TYPE
 NREF.                    Grid:  NORTH REFERENCE
 SPUD.               01-Jan-20:  SPUD DATE
 DATE.      00.59.44 15-Sep-20:  END TIME
 STIM.      12.00.00 12-Jun-20:  START TIME
 DMF .             Drill Floor:  DRILL MEAS FROM
 DFST.                        :  DIST FSL TEXT
 DFWT.                        :  DIST FWL TEXT
 API .                        :  API NUMBER
 CNTY.                        :  COUNTY
 UWI .                        :  UNIQUE WELL IDENTIFIER
 LOC .                        :  LOCATION
 LMF .             Drill Floor:  LOG MEASURED FROM
 VSNS.m                   2.88:  VERT SEC N/S
 VSEW.m                  -3.84:  VERT SEC E/W
 AGAP.m                  43.42:  AIR GAP
 APD .m                  43.42:  DEPTH ABOVE PD
 WDMS.m                 118.27:  WD ELEV
 EGL .m                   0.00:  GROUND ELEVATION
 EPD .m                   0.00:  ELEVATION
 AZTC.deg                 6.23:  AZM TOTAL CORR
 GRDC.deg                 0.20:  GRID CORRECTION
 MDEC.deg                 6.43:  MAGNETIC DECL
 MDIP.deg                59.49:  MAGNETIC DIP
 MFLD.nT              50277.00:  MAGNETIC FIELD
 GVFD.g                   1.00:  GRAVITY FIELD
 VSDR.deg               173.20:  VERT SEC DIRECT
 TDD .m                5790.01:  TOTAL DEPTH (DRILLER)
 SDEP.m                5231.01:  START DEPTH
 DFSL.m                   0.00:  DISTANCE FSL
 DFWL.m                   0.00:  DISTANCE FWL
 UTMY.m             4435808.83:  UTM Y
 UTMX.m              526266.40:  UTM X
 WHEW.m                  -3.84:  WELL HEAD E/W
 WHNS.m                   2.88:  WELL HEAD N/S
 LONG.deg                51.31:  LONGITUDE
 LATI.deg                40.06:  LATITUDE
 TVDS.m                  43.42:  TVDSS CORRECTN
 DEP .m                 430.08:  DEPTH
 EKB .m                  43.42:  KB ELEVATION
 EDF .m                  43.42:  DF ELEVATION
 TDL .m                 559.00:  TOTAL DEPTH (LOGGER)
 MAGU.                 1849381:  MAGUTM CHECKSUM
 VSC .                       0:  VS TO CLOSURE
~Parameter Information Block
#MNEM.UNIT       Value        Description
#---------     -----------    ---------------------------
 AV  .mps                 4.87:  Ann Velocity 
 AVMX.mps                 7.08:  Max Ann Veloc 
 AZIF.deg               108.87:  Azm, Final 
 BHAT.                  Rotary:  BHA Type 
 BROT.°/30m               0.35:  Build Rotating 
 BS  .in                  8.50:  Bit Size 
 BSZ .in                  8.50:  Bit Size 
 BTPL.psig              360.00:  Bit Press Loss 
 CABU.                     Yes:  Customer Abuse 
 COMM.                     $ñd:  Run Comments 1 
 TCS .hr                106.24:  Time Ciculation Ended 
 CV  .mps                 1.77:  Crit Velocity 
 CVMX.mps                 2.03:  Max Crit Veloc 
 DD1 .         Aykhan Agagulov:  Direct Drillr 1 
 DD2 .            Nonso Okofor:  Direct Drillr 2 
 DDSV.               Geo-Pilot:  DD Service 
 DEFF.%                  98.00:  % Det Eff 
 DLRX.°/30m               0.50:  Dogleg Rot Max 
 DLSO.°/30m               0.40:  Dogleg Oriented 
 DLSX.°/30m               0.94:  Dogleg Str Max 
 DRET.      20.30.00 08-Sep-20:  Drill End Time 
 DRST.      22.15.00 06-Sep-20:  Drill Start Tim 
 DTIM.hr                 31.31:  Time Drilling 
 EDEP.m                5790.01:  End Depth 
 ENG1.           Amrah Tahirov:  Engineer 1 
 ENG2.         Dair Mahammadov:  Engineer 2 
 ENG3.           Emil Huseynov:  Engineer 3 
 ETIM.      04.01.04 12-Sep-20:  End Time 
 FLOI.gpm               450.00:  Flow In 
 FLON.gpm               450.00:  Flow In Min 
 FLOS.cptm                2.00:  Fluid Loss 
 FLOX.gpm               450.00:  Flow In Max 
 FTRO.       Formation Presure:  FTWD Run Obj 
 HFLO.                      No:  High Flow 
 HPRE.                      No:  High Pressure 
 HTEM.                      No:  High Temp 
 HYDO.m                   1.80:  Hydro Offset 
 IFIN.deg                72.03:  Inc, Final 
 IMAX.deg                73.72:  Inc Max 
 IMIN.deg                70.94:  Inc Min 
 IMND.m                5508.52:  Inc Min Depth 
 IMXD.m                5253.60:  Inc Max Depth 
 JARR.                      No:  Jarring 
 LETM.      20.30.00 08-Sep-20:  Log End Time 
 LOST.hr                     0:  Lost Rig Time 
 LSTM.      22.15.00 06-Sep-20:  Log Start Time 
 MDCL.ppm             36000.00:  Mud Chlorides 
 MDES.     Inversion Oil/Synthetic:  Mud Desc 
 DFD .sg                  1.44:  Mud Density 
 MDMN.sg                  1.44:  Dens Mud Min 
 MDMX.sg                  1.57:  Dens Mud Max 
 MOIL.                      70:  Run Mud Oil % 
 MOWR.                   70:30:  Run Mud OWR 
 MSND.                       0:  Run Mud Sand % 
 MSOL.                      21:  Run Mud Solids% 
 DFV .spqt               68.00:  Mud Viscosity 
 MWOD.in                  6.75:  MWD Tool OD 
 MWSI.                     Yes:  Serv Intrp, MWD 
 OTIM.hr                174.84:  Time Operating 
 PCON.           Look Like New:  Pad Condition 
 PMAX.psia            10616.93:  Press Op, Max 
 PV  .cP                 50.00:  Mud PV 
 RUN .                     700:  Run Number 
 ROPA.m/hr               14.24:  ROP Avg 
 ROPN.m/hr               10.00:  ROP Min 
 ROPX.m/hr               32.00:  ROP Max 
 RPMA.rpm               120.90:  RPM Surface Avg 
 RPMN.rpm               120.00:  RPM Surface Min 
 RPMX.rpm               140.00:  RPM Surface Max 
 RRUN.                    0700:  Rig Run Number 
 RTIM.hr                  3.20:  Time Reaming 
 SAZI.deg               109.99:  Azm, Start 
 SDEP.m                5231.01:  Start Depth 
 SIDD.                      No:  Serv Intrp, DD 
 SINC.deg                73.72:  Inc, Start 
 SPPA.psig             3051.00:  SPP Avg 
 SPPN.psig             2950.00:  SPP Min 
 SPPX.psig             3250.00:  SPP Max 
 STIM.      08.00.00 05-Sep-20:  Start Time 
 SVCS.                 DD, MWD:  Services 
 SVER.                    9.20:  Sperry Version 
 TDAT.m                 559.00:  Tot Depth Attmp 
 TDDF.                      No:  Trip for DD 
 TDLG.m                 559.00:  Tot Depth Loggd 
 TFF .                      No:  Trip for Fail 
 TQAA.f-kp               26.49:  Torque Abs Avg 
 TQAN.f-kp               25.00:  Torque Abs Min 
 TQAX.f-kp               27.00:  Torque Abs Max 
 TRRT.°/30m               1.50:  Turn Rotating 
 MRT .                    HCIM:  Maximum Recorded Temperature 
 TTMX.degC               90.20:  Max Tool Temp 
 VS01.                90542671:  Virtual Str1 SN 
 VS02.                90545185:  Virtual Str2 SN 
 VS03.                90602015:  Virtual Str3 SN 
 VS04.                90515230:  Virtual Str4 SN 
 WBMN.klb                 5.00:  WOB Min 
 WOBA.klb                14.79:  WOB Avg 
 WOBX.klb                20.00:  WOB Max 
 YP  .lhf2               29.00:  Yield Point 
~Curve Information Block
#MNEM.UNIT                 API CODE     Curve Description
#---------               -----------    ---------------------------
 TIME.HHMMSS            00 000 000 000:  GT Time & Date
 GTDEPTH.m              00 000 000 000:  GT Depth
 GTPQH.psia             00 000 000 000:  GT HR Quartz Pressure
 GTTQ.degC              00 000 000 000:  GT Quartz Temperature
 GTTN.NONE              00 000 000 000:  GT Test Number
 GTET.sec               00 000 000 000:  GT Elapsed Test Time
 GTTVD.m                00 000 000 000:  GT True Vertical Depth
#Other Information
#
#WARRANTY: Halliburton will use its best efforts to furnish customers with 
#accurate information and interpretations that are part of, and incident to, the services 
#provided.  However, Halliburton cannot and does not warrant the accuracy 
#or correctness of such information and interpretations.  Under no circumstances should any 
#such information or interpretation be relied upon as the sole basis for any drilling, 
#completion, production, or financial decision or any procedure involving any risk to the 
#safety of any drilling venture, drilling rig or its crew or any other third party.  The 
#Customer has full responsibility for all drilling, completion and production operation.  
#Halliburton makes no representations or warranties, either expressed or 
#implied, including, but not limited to, the implied warranties of merchantability or fitness 
#for a particular purpose, with respect to the services rendered.  In no event will 
#Halliburton be liable for failure to obtain any particular results or for 
#any damages, including, but not limited to, indirect, special or consequential damages, 
#resulting from the use of any information or interpretation provided by Halliburton.
#
~A           TIME           GTDEPTH  GTPQH  GTTQ  GTTN   GTET   GTTVD  
# ...
   13:33:42.395.09-Sep-2020 5408.01 3558.42 75.51 15.00 180.91 2589.60
   13:33:42.595.09-Sep-2020 5408.01 3559.48 75.51 15.00 181.11 2589.60
   13:33:42.795.09-Sep-2020 5408.01 3559.48 75.51 15.00 181.31 2589.60
   13:33:42.995.09-Sep-2020 5408.01 3561.39 75.51 15.00 181.51 2589.60
   13:33:43.195.09-Sep-2020 5408.01 3562.42 75.51 15.00 181.71 2589.60
   13:33:43.396.09-Sep-2020 5408.01 3563.40 75.51 15.00 181.91 2589.60
   13:33:43.596.09-Sep-2020 5408.01 3564.36 75.51 15.00 182.11 2589.60
   13:33:43.796.09-Sep-2020 5408.01 3564.36 75.51 15.00 182.31 2589.60
   13:33:43.996.09-Sep-2020 5408.01 3565.97 75.51 15.00 182.51 2589.60
   13:33:44.196.09-Sep-2020 5408.01 3565.16 75.51 15.00 182.71 2589.60
   13:33:44.396.09-Sep-2020 5408.01 3568.00 75.51 15.00 182.91 2589.60
   13:33:44.596.09-Sep-2020 5408.01 3568.37 75.51 15.00 183.11 2589.60
   13:33:44.796.09-Sep-2020 5408.01 3568.37 75.51 15.00 183.31 2589.60
   13:33:44.997.09-Sep-2020 5408.01 3569.77 75.51 15.00 183.51 2589.60
   13:33:45.197.09-Sep-2020 5408.01 3570.76 75.51 15.00 183.71 2589.60
   13:33:45.397.09-Sep-2020 5408.01 3571.22 75.51 15.00 183.91 2589.60
   13:33:45.597.09-Sep-2020 5408.01 3571.92 75.51 15.00 184.11 2589.60
   13:33:45.797.09-Sep-2020 5408.01 3572.49 75.51 15.00 184.31 2589.60
   13:33:45.997.09-Sep-2020 5408.01 3572.96 75.51 15.00 184.51 2589.60
   13:33:46.197.09-Sep-2020 5408.01 3573.45 75.51 15.00 184.71 2589.60
   13:33:46.397.09-Sep-2020 5408.01 3573.99 75.51 15.00 184.91 2589.60
   13:33:46.598.09-Sep-2020 5408.01 3574.55 75.51 15.00 185.11 2589.60
   13:33:46.798.09-Sep-2020 5408.01 3574.55 75.51 15.00 185.31 2589.60
   13:33:46.998.09-Sep-2020 5408.01 3575.44 75.51 15.00 185.51 2589.60
   13:33:47.198.09-Sep-2020 5408.01 3575.94 75.51 15.00 185.71 2589.60
   13:33:47.398.09-Sep-2020 5408.01 3576.37 75.51 15.00 185.91 2589.60
   13:33:47.598.09-Sep-2020 5408.01 3575.67 75.51 15.00 186.11 2589.60
   13:33:47.798.09-Sep-2020 5408.01 3575.67 75.51 15.00 186.31 2589.60
   13:33:47.998.09-Sep-2020 5408.01 3577.79 75.51 15.00 186.51 2589.60
   13:33:48.199.09-Sep-2020 5408.01 3578.06 75.51 15.00 186.71 2589.60
   13:33:48.399.09-Sep-2020 5408.01 3578.61 75.51 15.00 186.91 2589.60
   13:33:48.599.09-Sep-2020 5408.01 3579.06 75.51 15.00 187.11 2589.60
   13:33:48.799.09-Sep-2020 5408.01 3579.06 75.51 15.00 187.31 2589.60
   13:33:48.999.09-Sep-2020 5408.01 3579.69 75.51 15.00 187.51 2589.60
   13:33:49.199.09-Sep-2020 5408.01 3580.14 75.51 15.00 187.71 2589.60
   13:33:49.399.09-Sep-2020 5408.01 3580.33 75.51 15.00 187.91 2589.60
   13:33:49.599.09-Sep-2020 5408.01 3580.93 75.51 15.00 188.11 2589.60
   13:33:49.800.09-Sep-2020 5408.01 3580.93 75.51 15.00 188.32 2589.60
   13:33:50.000.09-Sep-2020 5408.01 3581.36 75.51 15.00 188.52 2589.60
   13:33:50.200.09-Sep-2020 5408.01 3580.12 75.51 15.00 188.72 2589.60
   13:33:50.400.09-Sep-2020 5408.01 3582.49 75.51 15.00 188.92 2589.60
   13:33:50.600.09-Sep-2020 5408.01 3582.26 75.51 15.00 189.12 2589.60
   13:33:50.800.09-Sep-2020 5408.01 3582.26 75.51 15.00 189.32 2589.60
   13:33:51.000.09-Sep-2020 5408.01 3582.76 75.51 15.00 189.52 2589.60
   13:33:51.200.09-Sep-2020 5408.01 3581.86 75.51 15.00 189.72 2589.60
   13:33:51.401.09-Sep-2020 5408.01 3583.94 75.51 15.00 189.92 2589.60
   13:33:51.601.09-Sep-2020 5408.01 3583.78 75.51 15.00 190.12 2589.60
   13:33:51.801.09-Sep-2020 5408.01 3583.78 75.51 15.00 190.32 2589.60
   13:33:52.001.09-Sep-2020 5408.01 3584.10 75.51 15.00 190.52 2589.60
   13:33:52.201.09-Sep-2020 5408.01 3584.66 75.51 15.00 190.72 2589.60
   13:33:52.401.09-Sep-2020 5408.01 3584.64 75.51 15.00 190.92 2589.60
   13:33:52.601.09-Sep-2020 5408.01 3583.91 75.51 15.00 191.12 2589.60
   13:33:52.801.09-Sep-2020 5408.01 3583.91 75.51 15.00 191.32 2589.60
   13:33:53.001.09-Sep-2020 5408.01 3585.21 75.51 15.00 191.52 2589.60
   13:33:53.202.09-Sep-2020 5408.01 3585.47 75.51 15.00 191.72 2589.60
   13:33:53.402.09-Sep-2020 5408.01 3585.60 75.51 15.00 191.92 2589.60
   13:33:53.602.09-Sep-2020 5408.01 3586.07 75.51 15.00 192.12 2589.60
   13:33:53.802.09-Sep-2020 5408.01 3586.02 75.51 15.00 192.32 2589.60
   13:33:54.002.09-Sep-2020 5408.01 3586.16 75.51 15.00 192.52 2589.60
   13:33:54.202.09-Sep-2020 5408.01 3586.22 75.51 15.00 192.72 2589.60
   13:33:54.402.09-Sep-2020 5408.01 3586.29 75.51 15.00 192.92 2589.60
   13:33:54.602.09-Sep-2020 5408.01 3586.46 75.51 15.00 193.12 2589.60
   13:33:54.803.09-Sep-2020 5408.01 3586.46 75.51 15.00 193.32 2589.60
   13:33:55.003.09-Sep-2020 5408.01 3586.92 75.51 15.00 193.52 2589.60
   13:33:55.203.09-Sep-2020 5408.01 3587.10 75.51 15.00 193.72 2589.60
   13:33:55.403.09-Sep-2020 5408.01 3587.26 75.51 15.00 193.92 2589.60
   13:33:55.603.09-Sep-2020 5408.01 3587.35 75.51 15.00 194.12 2589.60
   13:33:55.803.09-Sep-2020 5408.01 3587.35 75.51 15.00 194.32 2589.60
   13:33:56.003.09-Sep-2020 5408.01 3587.46 75.51 15.00 194.52 2589.60
   13:33:56.203.09-Sep-2020 5408.01 3587.53 75.51 15.00 194.72 2589.60
   13:33:56.404.09-Sep-2020 5408.01 3586.41 75.51 15.00 194.92 2589.60
   13:33:56.604.09-Sep-2020 5408.01 3587.84 75.51 15.00 195.12 2589.60
   13:33:56.804.09-Sep-2020 5408.01 3587.84 75.51 15.00 195.32 2589.60
   13:33:57.004.09-Sep-2020 5408.01 3587.95 75.51 15.00 195.52 2589.60
   13:33:57.204.09-Sep-2020 5408.01 3588.16 75.51 15.00 195.72 2589.60
   13:33:57.404.09-Sep-2020 5408.01 3588.31 75.51 15.00 195.92 2589.60
   13:33:57.604.09-Sep-2020 5408.01 3588.26 75.51 15.00 196.12 2589.60
   13:33:57.804.09-Sep-2020 5408.01 3588.30 75.51 15.00 196.32 2589.60
   13:33:58.005.09-Sep-2020 5408.01 3588.31 75.51 15.00 196.52 2589.60
   13:33:58.205.09-Sep-2020 5408.01 3588.31 75.51 15.00 196.72 2589.60
   13:33:58.405.09-Sep-2020 5408.01 3588.43 75.51 15.00 196.92 2589.60
   13:33:58.605.09-Sep-2020 5408.01 3588.52 75.51 15.00 197.12 2589.60
   13:33:58.805.09-Sep-2020 5408.01 3588.52 75.51 15.00 197.32 2589.60
   13:33:59.005.09-Sep-2020 5408.01 3588.64 75.51 15.00 197.52 2589.60
   13:33:59.205.09-Sep-2020 5408.01 3588.71 75.51 15.00 197.72 2589.60
   13:33:59.405.09-Sep-2020 5408.01 3588.74 75.51 15.00 197.92 2589.60
   13:33:59.606.09-Sep-2020 5408.01 3588.84 75.51 15.00 198.12 2589.60
   13:33:59.806.09-Sep-2020 5408.01 3588.84 75.51 15.00 198.32 2589.60
   13:34:00.006.09-Sep-2020 5408.01 3589.07 75.51 15.00 198.52 2589.60
   13:34:00.206.09-Sep-2020 5408.01 3589.14 75.51 15.00 198.72 2589.60
   13:34:00.406.09-Sep-2020 5408.01 3589.00 75.51 15.00 198.92 2589.60
   13:34:00.606.09-Sep-2020 5408.01 3589.33 75.51 15.00 199.12 2589.60
   13:34:00.806.09-Sep-2020 5408.01 3589.33 75.51 15.00 199.32 2589.60
   13:34:01.006.09-Sep-2020 5408.01 3589.13 75.51 15.00 199.52 2589.60
   13:34:01.207.09-Sep-2020 5408.01 3589.45 75.51 15.00 199.72 2589.60
   13:34:01.407.09-Sep-2020 5408.01 3589.40 75.51 15.00 199.92 2589.60
   13:34:01.607.09-Sep-2020 5408.01 3589.25 75.51 15.00 200.12 2589.60
   13:34:01.807.09-Sep-2020 5408.01 3589.62 75.51 15.00 200.32 2589.60
   13:34:02.007.09-Sep-2020 5408.01 3589.43 75.51 15.00 200.52 2589.60
   13:34:02.207.09-Sep-2020 5408.01 3589.53 75.51 15.00 200.72 2589.60
   13:34:02.407.09-Sep-2020 5408.01 3588.39 75.51 15.00 200.92 2589.60
   13:34:02.607.09-Sep-2020 5408.01 3589.80 75.51 15.00 201.12 2589.60
   13:34:02.807.09-Sep-2020 5408.01 3589.80 75.51 15.00 201.32 2589.60
   13:34:03.008.09-Sep-2020 5408.01 3589.78 75.51 15.00 201.52 2589.60
   13:34:03.208.09-Sep-2020 5408.01 3590.01 75.51 15.00 201.72 2589.60
   13:34:03.408.09-Sep-2020 5408.01 3590.12 75.51 15.00 201.92 2589.60
   13:34:03.608.09-Sep-2020 5408.01 3589.96 75.51 15.00 202.12 2589.60
   13:34:03.808.09-Sep-2020 5408.01 3589.96 75.51 15.00 202.32 2589.60
   13:34:04.008.09-Sep-2020 5408.01 3589.59 75.51 15.00 202.52 2589.60
   13:34:04.208.09-Sep-2020 5408.01 3589.95 75.51 15.00 202.72 2589.60
   13:34:04.408.09-Sep-2020 5408.01 3590.05 75.51 15.00 202.92 2589.60
   13:34:04.609.09-Sep-2020 5408.01 3590.05 75.51 15.00 203.12 2589.60
   13:34:04.809.09-Sep-2020 5408.01 3590.05 75.51 15.00 203.32 2589.60
