~Version Information
 VERS.                  2.0:   CWLS log ASCII Standard -VERSION 2.0
 WRAP.                   NO:   One line per depth step
~Well Information Block
#MNEM.UNIT     VALUE/NAME     DESCRIPTION
#---------     -----------    ---------------------------
 STRT.S             20:20:33 09-Sep-20: START TIME 20:20:33 09-Sep-20
 STOP.S             20:28:41 09-Sep-20: STOP TIME  20:28:41 09-Sep-20
 STEP.S                   0.00: STEP TIME
 NULL.                 -999.25: NULL VALUE
 MDS .        Operator Entered:  MAG DATA SOURCE
 PDAT.          Mean Sea Level:  PERMANENT DATUM
 DCON.         Sperry Drilling:  DIRECTNL CONTR
 RIG .              West Azeri:  RIG NAME
 WELL.           C40 (Slot 20):  WELL NAME
 SRVC.     Turan Drilling Engineering:  CONTRACTOR
 FLD .                     ACG:  FIELD NAME
 CTRY.              Azerbaijan:  COUNTRY NAME
 PROV.                    Baku:  PROVINCE
 STAT.                    Baku:  STATE NAME
 REGN.                   EESSA:  REGION
 BASE.              Azerbaijan:  LOGGING EQUIPMENT BASE LOCATION
 COMP.     BP Exploration (Caspian Sea) Ltd:  COMPANY
 WTYP.                Deviated:  WELL TYPE
 SON .        AZ-XX-0906344804:  JOB NUMBER
 FTOP.          Formation Tops:  FORM TOPS DESC
 ILTD.               Lithology:  INTERP LTH DESC
 SVYD.                  Survey:  SURVEY DESC
 DMOD.             Drill Model:  DRILL MOD DESC
 HPTY.       Minimum Curvature:  HOLE POS TYPE
 NREF.                    Grid:  NORTH REFERENCE
 SPUD.               01-Jan-20:  SPUD DATE
 DATE.      00.59.44 15-Sep-20:  END TIME
 STIM.      12.00.00 12-Jun-20:  START TIME
 DMF .             Drill Floor:  DRILL MEAS FROM
 DFST.                        :  DIST FSL TEXT
 DFWT.                        :  DIST FWL TEXT
 API .                        :  API NUMBER
 CNTY.                        :  COUNTY
 UWI .                        :  UNIQUE WELL IDENTIFIER
 LOC .                        :  LOCATION
 LMF .             Drill Floor:  LOG MEASURED FROM
 VSNS.m                   2.88:  VERT SEC N/S
 VSEW.m                  -3.84:  VERT SEC E/W
 AGAP.m                  43.42:  AIR GAP
 APD .m                  43.42:  DEPTH ABOVE PD
 WDMS.m                 118.27:  WD ELEV
 EGL .m                   0.00:  GROUND ELEVATION
 EPD .m                   0.00:  ELEVATION
 AZTC.deg                 6.23:  AZM TOTAL CORR
 GRDC.deg                 0.20:  GRID CORRECTION
 MDEC.deg                 6.43:  MAGNETIC DECL
 MDIP.deg                59.49:  MAGNETIC DIP
 MFLD.nT              50277.00:  MAGNETIC FIELD
 GVFD.g                   1.00:  GRAVITY FIELD
 VSDR.deg               173.20:  VERT SEC DIRECT
 TDD .m                5790.01:  TOTAL DEPTH (DRILLER)
 SDEP.m                5231.01:  START DEPTH
 DFSL.m                   0.00:  DISTANCE FSL
 DFWL.m                   0.00:  DISTANCE FWL
 UTMY.m             4435808.83:  UTM Y
 UTMX.m              526266.40:  UTM X
 WHEW.m                  -3.84:  WELL HEAD E/W
 WHNS.m                   2.88:  WELL HEAD N/S
 LONG.deg                51.31:  LONGITUDE
 LATI.deg                40.06:  LATITUDE
 TVDS.m                  43.42:  TVDSS CORRECTN
 DEP .m                 430.08:  DEPTH
 EKB .m                  43.42:  KB ELEVATION
 EDF .m                  43.42:  DF ELEVATION
 TDL .m                 559.00:  TOTAL DEPTH (LOGGER)
 MAGU.                 1849381:  MAGUTM CHECKSUM
 VSC .                       0:  VS TO CLOSURE
~Parameter Information Block
#MNEM.UNIT       Value        Description
#---------     -----------    ---------------------------
 AV  .mps                 4.87:  Ann Velocity 
 AVMX.mps                 7.08:  Max Ann Veloc 
 AZIF.deg               108.87:  Azm, Final 
 BHAT.                  Rotary:  BHA Type 
 BROT.°/30m               0.35:  Build Rotating 
 BS  .in                  8.50:  Bit Size 
 BSZ .in                  8.50:  Bit Size 
 BTPL.psig              360.00:  Bit Press Loss 
 CABU.                     Yes:  Customer Abuse 
 COMM.                     ÄìU:  Run Comments 1 
 TCS .hr                106.24:  Time Ciculation Ended 
 CV  .mps                 1.77:  Crit Velocity 
 CVMX.mps                 2.03:  Max Crit Veloc 
 DD1 .         Aykhan Agagulov:  Direct Drillr 1 
 DD2 .            Nonso Okofor:  Direct Drillr 2 
 DDSV.               Geo-Pilot:  DD Service 
 DEFF.%                  98.00:  % Det Eff 
 DLRX.°/30m               0.50:  Dogleg Rot Max 
 DLSO.°/30m               0.40:  Dogleg Oriented 
 DLSX.°/30m               0.94:  Dogleg Str Max 
 DRET.      20.30.00 08-Sep-20:  Drill End Time 
 DRST.      22.15.00 06-Sep-20:  Drill Start Tim 
 DTIM.hr                 31.31:  Time Drilling 
 EDEP.m                5790.01:  End Depth 
 ENG1.           Amrah Tahirov:  Engineer 1 
 ENG2.         Dair Mahammadov:  Engineer 2 
 ENG3.           Emil Huseynov:  Engineer 3 
 ETIM.      04.01.04 12-Sep-20:  End Time 
 FLOI.gpm               450.00:  Flow In 
 FLON.gpm               450.00:  Flow In Min 
 FLOS.cptm                2.00:  Fluid Loss 
 FLOX.gpm               450.00:  Flow In Max 
 FTRO.       Formation Presure:  FTWD Run Obj 
 HFLO.                      No:  High Flow 
 HPRE.                      No:  High Pressure 
 HTEM.                      No:  High Temp 
 HYDO.m                   1.80:  Hydro Offset 
 IFIN.deg                72.03:  Inc, Final 
 IMAX.deg                73.72:  Inc Max 
 IMIN.deg                70.94:  Inc Min 
 IMND.m                5508.52:  Inc Min Depth 
 IMXD.m                5253.60:  Inc Max Depth 
 JARR.                      No:  Jarring 
 LETM.      20.30.00 08-Sep-20:  Log End Time 
 LOST.hr                     0:  Lost Rig Time 
 LSTM.      22.15.00 06-Sep-20:  Log Start Time 
 MDCL.ppm             36000.00:  Mud Chlorides 
 MDES.     Inversion Oil/Synthetic:  Mud Desc 
 DFD .sg                  1.44:  Mud Density 
 MDMN.sg                  1.44:  Dens Mud Min 
 MDMX.sg                  1.57:  Dens Mud Max 
 MOIL.                      70:  Run Mud Oil % 
 MOWR.                   70:30:  Run Mud OWR 
 MSND.                       0:  Run Mud Sand % 
 MSOL.                      21:  Run Mud Solids% 
 DFV .spqt               68.00:  Mud Viscosity 
 MWOD.in                  6.75:  MWD Tool OD 
 MWSI.                     Yes:  Serv Intrp, MWD 
 OTIM.hr                174.84:  Time Operating 
 PCON.           Look Like New:  Pad Condition 
 PMAX.psia            10616.93:  Press Op, Max 
 PV  .cP                 50.00:  Mud PV 
 RUN .                     700:  Run Number 
 ROPA.m/hr               14.24:  ROP Avg 
 ROPN.m/hr               10.00:  ROP Min 
 ROPX.m/hr               32.00:  ROP Max 
 RPMA.rpm               120.90:  RPM Surface Avg 
 RPMN.rpm               120.00:  RPM Surface Min 
 RPMX.rpm               140.00:  RPM Surface Max 
 RRUN.                    0700:  Rig Run Number 
 RTIM.hr                  3.20:  Time Reaming 
 SAZI.deg               109.99:  Azm, Start 
 SDEP.m                5231.01:  Start Depth 
 SIDD.                      No:  Serv Intrp, DD 
 SINC.deg                73.72:  Inc, Start 
 SPPA.psig             3051.00:  SPP Avg 
 SPPN.psig             2950.00:  SPP Min 
 SPPX.psig             3250.00:  SPP Max 
 STIM.      08.00.00 05-Sep-20:  Start Time 
 SVCS.                 DD, MWD:  Services 
 SVER.                    9.20:  Sperry Version 
 TDAT.m                 559.00:  Tot Depth Attmp 
 TDDF.                      No:  Trip for DD 
 TDLG.m                 559.00:  Tot Depth Loggd 
 TFF .                      No:  Trip for Fail 
 TQAA.f-kp               26.49:  Torque Abs Avg 
 TQAN.f-kp               25.00:  Torque Abs Min 
 TQAX.f-kp               27.00:  Torque Abs Max 
 TRRT.°/30m               1.50:  Turn Rotating 
 MRT .                    HCIM:  Maximum Recorded Temperature 
 TTMX.degC               90.20:  Max Tool Temp 
 VS01.                90542671:  Virtual Str1 SN 
 VS02.                90545185:  Virtual Str2 SN 
 VS03.                90602015:  Virtual Str3 SN 
 VS04.                90515230:  Virtual Str4 SN 
 WBMN.klb                 5.00:  WOB Min 
 WOBA.klb                14.79:  WOB Avg 
 WOBX.klb                20.00:  WOB Max 
 YP  .lhf2               29.00:  Yield Point 
~Curve Information Block
#MNEM.UNIT                 API CODE     Curve Description
#---------               -----------    ---------------------------
 TIME.HHMMSS            00 000 000 000:  GT Time & Date
 GTDEPTH.m              00 000 000 000:  GT Depth
 GTPQH.psia             00 000 000 000:  GT HR Quartz Pressure
 GTTQ.degC              00 000 000 000:  GT Quartz Temperature
 GTTN.NONE              00 000 000 000:  GT Test Number
 GTET.sec               00 000 000 000:  GT Elapsed Test Time
 GTTVD.m                00 000 000 000:  GT True Vertical Depth
#Other Information
#
#WARRANTY: Halliburton will use its best efforts to furnish customers with 
#accurate information and interpretations that are part of, and incident to, the services 
#provided.  However, Halliburton cannot and does not warrant the accuracy 
#or correctness of such information and interpretations.  Under no circumstances should any 
#such information or interpretation be relied upon as the sole basis for any drilling, 
#completion, production, or financial decision or any procedure involving any risk to the 
#safety of any drilling venture, drilling rig or its crew or any other third party.  The 
#Customer has full responsibility for all drilling, completion and production operation.  
#Halliburton makes no representations or warranties, either expressed or 
#implied, including, but not limited to, the implied warranties of merchantability or fitness 
#for a particular purpose, with respect to the services rendered.  In no event will 
#Halliburton be liable for failure to obtain any particular results or for 
#any damages, including, but not limited to, indirect, special or consequential damages, 
#resulting from the use of any information or interpretation provided by Halliburton.
#
~A           TIME           GTDEPTH  GTPQH  GTTQ  GTTN   GTET   GTTVD  
# ...
   20:22:04.065.09-Sep-2020 5252.51  583.41 73.92 25.00  90.44 2542.44
   20:22:04.265.09-Sep-2020 5252.51  583.71 73.92 25.00  90.64 2542.44
   20:22:04.465.09-Sep-2020 5252.51  584.02 73.92 25.00  90.84 2542.44
   20:22:04.665.09-Sep-2020 5252.51  584.30 73.92 25.00  91.04 2542.44
   20:22:04.865.09-Sep-2020 5252.51  584.30 73.92 25.00  91.24 2542.44
   20:22:05.065.09-Sep-2020 5252.51  584.92 73.92 25.00  91.44 2542.44
   20:22:05.265.09-Sep-2020 5252.51  585.24 73.92 25.00  91.64 2542.44
   20:22:05.465.09-Sep-2020 5252.51  585.55 73.92 25.00  91.84 2542.44
   20:22:05.666.09-Sep-2020 5252.51  585.82 73.92 25.00  92.04 2542.44
   20:22:05.866.09-Sep-2020 5252.51  585.82 73.92 25.00  92.24 2542.44
   20:22:06.066.09-Sep-2020 5252.51  585.59 73.92 25.00  92.44 2542.44
   20:22:06.266.09-Sep-2020 5252.51  587.06 73.92 25.00  92.64 2542.44
   20:22:06.466.09-Sep-2020 5252.51  587.18 73.92 25.00  92.84 2542.44
   20:22:06.666.09-Sep-2020 5252.51  587.45 73.92 25.00  93.04 2542.44
   20:22:06.866.09-Sep-2020 5252.51  587.45 73.92 25.00  93.24 2542.44
   20:22:07.066.09-Sep-2020 5252.51  588.12 73.92 25.00  93.44 2542.44
   20:22:07.266.09-Sep-2020 5252.51  588.32 73.92 25.00  93.64 2542.44
   20:22:07.466.09-Sep-2020 5252.51  588.60 73.93 25.00  93.84 2542.44
   20:22:07.666.09-Sep-2020 5252.51  588.83 73.93 25.00  94.04 2542.44
   20:22:07.867.09-Sep-2020 5252.51  588.83 73.93 25.00  94.24 2542.44
   20:22:08.067.09-Sep-2020 5252.51  589.37 73.93 25.00  94.44 2542.44
   20:22:08.267.09-Sep-2020 5252.51  589.64 73.93 25.00  94.64 2542.44
   20:22:08.467.09-Sep-2020 5252.51  589.95 73.93 25.00  94.84 2542.44
   20:22:08.667.09-Sep-2020 5252.51  590.23 73.93 25.00  95.04 2542.44
   20:22:08.867.09-Sep-2020 5252.51  590.23 73.93 25.00  95.24 2542.44
   20:22:09.067.09-Sep-2020 5252.51  590.69 73.93 25.00  95.44 2542.44
   20:22:09.267.09-Sep-2020 5252.51  590.13 73.93 25.00  95.64 2542.44
   20:22:09.467.09-Sep-2020 5252.51  591.61 73.93 25.00  95.84 2542.44
   20:22:09.667.09-Sep-2020 5252.51  591.68 73.93 25.00  96.04 2542.44
   20:22:09.867.09-Sep-2020 5252.51  591.91 73.93 25.00  96.24 2542.44
   20:22:10.068.09-Sep-2020 5252.51  592.10 73.93 25.00  96.44 2542.44
   20:22:10.268.09-Sep-2020 5252.51  592.55 73.93 25.00  96.64 2542.44
   20:22:10.468.09-Sep-2020 5252.51  591.94 73.93 25.00  96.84 2542.44
   20:22:10.668.09-Sep-2020 5252.51  593.33 73.93 25.00  97.04 2542.44
   20:22:10.868.09-Sep-2020 5252.51  593.33 73.93 25.00  97.24 2542.44
   20:22:11.068.09-Sep-2020 5252.51  593.88 73.93 25.00  97.44 2542.44
   20:22:11.268.09-Sep-2020 5252.51  594.16 73.93 25.00  97.65 2542.44
   20:22:11.468.09-Sep-2020 5252.51  594.31 73.93 25.00  97.85 2542.44
   20:22:11.668.09-Sep-2020 5252.51  594.70 73.93 25.00  98.05 2542.44
   20:22:11.868.09-Sep-2020 5252.51  595.45 73.93 25.00  98.25 2542.44
   20:22:12.068.09-Sep-2020 5252.51  595.73 73.93 25.00  98.45 2542.44
   20:22:12.269.09-Sep-2020 5252.51  595.90 73.93 25.00  98.65 2542.44
   20:22:12.469.09-Sep-2020 5252.51  596.35 73.93 25.00  98.85 2542.44
   20:22:12.669.09-Sep-2020 5252.51  595.77 73.93 25.00  99.05 2542.44
   20:22:12.869.09-Sep-2020 5252.51  595.77 73.93 25.00  99.25 2542.44
   20:22:13.069.09-Sep-2020 5252.51  597.68 73.93 25.00  99.45 2542.44
   20:22:13.269.09-Sep-2020 5252.51  597.94 73.93 25.00  99.65 2542.44
   20:22:13.469.09-Sep-2020 5252.51  598.13 73.93 25.00  99.85 2542.44
   20:22:13.669.09-Sep-2020 5252.51  598.60 73.93 25.00 100.05 2542.44
   20:22:13.869.09-Sep-2020 5252.51  598.60 73.93 25.00 100.25 2542.44
   20:22:14.069.09-Sep-2020 5252.51  598.16 73.93 25.00 100.45 2542.44
   20:22:14.269.09-Sep-2020 5252.51  599.56 73.93 25.00 100.65 2542.44
   20:22:14.470.09-Sep-2020 5252.51  599.61 73.93 25.00 100.85 2542.44
   20:22:14.670.09-Sep-2020 5252.51  599.89 73.93 25.00 101.05 2542.44
   20:22:14.870.09-Sep-2020 5252.51  599.89 73.93 25.00 101.25 2542.44
   20:22:15.070.09-Sep-2020 5252.51  600.52 73.93 25.00 101.45 2542.44
   20:22:15.270.09-Sep-2020 5252.51  600.65 73.93 25.00 101.65 2542.44
   20:22:15.470.09-Sep-2020 5252.51  600.92 73.93 25.00 101.85 2542.44
   20:22:15.670.09-Sep-2020 5252.51  601.17 73.93 25.00 102.05 2542.44
   20:22:15.870.09-Sep-2020 5252.51  601.35 73.93 25.00 102.25 2542.44
   20:22:16.070.09-Sep-2020 5252.51  601.59 73.93 25.00 102.45 2542.44
   20:22:16.270.09-Sep-2020 5252.51  601.84 73.93 25.00 102.65 2542.44
   20:22:16.470.09-Sep-2020 5252.51  602.09 73.93 25.00 102.85 2542.44
   20:22:16.671.09-Sep-2020 5252.51  602.32 73.93 25.00 103.05 2542.44
   20:22:16.871.09-Sep-2020 5252.51  602.32 73.93 25.00 103.25 2542.44
   20:22:17.071.09-Sep-2020 5252.51  602.78 73.93 25.00 103.45 2542.44
   20:22:17.271.09-Sep-2020 5252.51  603.01 73.93 25.00 103.65 2542.44
   20:22:17.471.09-Sep-2020 5252.51  603.24 73.93 25.00 103.85 2542.44
   20:22:17.671.09-Sep-2020 5252.51  603.21 73.93 25.00 104.05 2542.44
   20:22:17.871.09-Sep-2020 5252.51  603.21 73.93 25.00 104.25 2542.44
   20:22:18.071.09-Sep-2020 5252.51  604.05 73.93 25.00 104.45 2542.44
   20:22:18.271.09-Sep-2020 5252.51  604.26 73.93 25.00 104.65 2542.44
   20:22:18.471.09-Sep-2020 5252.51  604.44 73.93 25.00 104.85 2542.44
   20:22:18.671.09-Sep-2020 5252.51  604.82 73.93 25.00 105.05 2542.44
   20:22:18.872.09-Sep-2020 5252.51  604.82 73.93 25.00 105.25 2542.44
   20:22:19.072.09-Sep-2020 5252.51  605.09 73.94 25.00 105.45 2542.44
   20:22:19.272.09-Sep-2020 5252.51  605.24 73.94 25.00 105.65 2542.44
   20:22:19.472.09-Sep-2020 5252.51  605.44 73.94 25.00 105.85 2542.44
   20:22:19.672.09-Sep-2020 5252.51  605.51 73.94 25.00 106.05 2542.44
   20:22:19.872.09-Sep-2020 5252.51  605.75 73.94 25.00 106.25 2542.44
   20:22:20.072.09-Sep-2020 5252.51  605.94 73.94 25.00 106.45 2542.44
   20:22:20.272.09-Sep-2020 5252.51  606.07 73.94 25.00 106.65 2542.44
   20:22:20.472.09-Sep-2020 5252.51  606.24 73.94 25.00 106.85 2542.44
   20:22:20.672.09-Sep-2020 5252.51  606.41 73.94 25.00 107.05 2542.44
   20:22:20.873.09-Sep-2020 5252.51  606.41 73.94 25.00 107.25 2542.44
   20:22:21.073.09-Sep-2020 5252.51  606.20 73.94 25.00 107.45 2542.44
   20:22:21.273.09-Sep-2020 5252.51  606.83 73.94 25.00 107.65 2542.44
   20:22:21.473.09-Sep-2020 5252.51  606.93 73.94 25.00 107.85 2542.44
   20:22:21.673.09-Sep-2020 5252.51  607.06 73.94 25.00 108.05 2542.44
   20:22:21.873.09-Sep-2020 5252.51  607.06 73.94 25.00 108.25 2542.44
   20:22:22.073.09-Sep-2020 5252.51  606.67 73.94 25.00 108.45 2542.44
   20:22:22.273.09-Sep-2020 5252.51  608.13 73.94 25.00 108.65 2542.44
   20:22:22.473.09-Sep-2020 5252.51  608.05 73.94 25.00 108.85 2542.44
   20:22:22.673.09-Sep-2020 5252.51  608.19 73.94 25.00 109.05 2542.44
   20:22:22.873.09-Sep-2020 5252.51  608.19 73.94 25.00 109.25 2542.44
   20:22:23.074.09-Sep-2020 5252.51  608.99 73.94 25.00 109.45 2542.44
   20:22:23.274.09-Sep-2020 5252.51  608.99 73.94 25.00 109.65 2542.44
   20:22:23.474.09-Sep-2020 5252.51  609.20 73.94 25.00 109.85 2542.44
   20:22:23.674.09-Sep-2020 5252.51  609.31 73.94 25.00 110.05 2542.44
   20:22:23.874.09-Sep-2020 5252.51  609.62 73.94 25.00 110.25 2542.44
   20:22:24.074.09-Sep-2020 5252.51  609.68 73.94 25.00 110.45 2542.44
   20:22:24.274.09-Sep-2020 5252.51  609.61 73.94 25.00 110.65 2542.44
   20:22:24.474.09-Sep-2020 5252.51  609.69 73.94 25.00 110.85 2542.44
   20:22:24.674.09-Sep-2020 5252.51  610.36 73.94 25.00 111.05 2542.44
   20:22:24.874.09-Sep-2020 5252.51  610.36 73.94 25.00 111.25 2542.44
   20:22:25.074.09-Sep-2020 5252.51  610.44 73.94 25.00 111.45 2542.44
   20:22:25.275.09-Sep-2020 5252.51  610.61 73.94 25.00 111.65 2542.44
   20:22:25.475.09-Sep-2020 5252.51  611.09 73.94 25.00 111.85 2542.44
   20:22:25.675.09-Sep-2020 5252.51  611.33 73.94 25.00 112.05 2542.44
   20:22:25.875.09-Sep-2020 5252.51  611.33 73.94 25.00 112.25 2542.44
   20:22:26.075.09-Sep-2020 5252.51  611.80 73.94 25.00 112.45 2542.44
   20:22:26.275.09-Sep-2020 5252.51  611.80 73.94 25.00 112.65 2542.44
   20:22:26.475.09-Sep-2020 5252.51  612.06 73.94 25.00 112.85 2542.44
