~Version Information
 VERS.                  2.0:   CWLS log ASCII Standard -VERSION 2.0
 WRAP.                   NO:   One line per depth step
~Well Information Block
#MNEM.UNIT     VALUE/NAME     DESCRIPTION
#---------     -----------    ---------------------------
 STRT.S             06:25:59 09-Sep-20: START TIME 06:25:59 09-Sep-20
 STOP.S             06:32:43 09-Sep-20: STOP TIME  06:32:43 09-Sep-20
 STEP.S                   0.00: STEP TIME
 NULL.                 -999.25: NULL VALUE
 MDS .        Operator Entered:  MAG DATA SOURCE
 PDAT.          Mean Sea Level:  PERMANENT DATUM
 DCON.         Sperry Drilling:  DIRECTNL CONTR
 RIG .              West Azeri:  RIG NAME
 WELL.           C40 (Slot 20):  WELL NAME
 SRVC.     Turan Drilling Engineering:  CONTRACTOR
 FLD .                     ACG:  FIELD NAME
 CTRY.              Azerbaijan:  COUNTRY NAME
 PROV.                    Baku:  PROVINCE
 STAT.                    Baku:  STATE NAME
 REGN.                   EESSA:  REGION
 BASE.              Azerbaijan:  LOGGING EQUIPMENT BASE LOCATION
 COMP.     BP Exploration (Caspian Sea) Ltd:  COMPANY
 WTYP.                Deviated:  WELL TYPE
 SON .        AZ-XX-0906344804:  JOB NUMBER
 FTOP.          Formation Tops:  FORM TOPS DESC
 ILTD.               Lithology:  INTERP LTH DESC
 SVYD.                  Survey:  SURVEY DESC
 DMOD.             Drill Model:  DRILL MOD DESC
 HPTY.       Minimum Curvature:  HOLE POS TYPE
 NREF.                    Grid:  NORTH REFERENCE
 SPUD.               01-Jan-20:  SPUD DATE
 DATE.      00.59.44 15-Sep-20:  END TIME
 STIM.      12.00.00 12-Jun-20:  START TIME
 DMF .             Drill Floor:  DRILL MEAS FROM
 DFST.                        :  DIST FSL TEXT
 DFWT.                        :  DIST FWL TEXT
 API .                        :  API NUMBER
 CNTY.                        :  COUNTY
 UWI .                        :  UNIQUE WELL IDENTIFIER
 LOC .                        :  LOCATION
 LMF .             Drill Floor:  LOG MEASURED FROM
 VSNS.m                   2.88:  VERT SEC N/S
 VSEW.m                  -3.84:  VERT SEC E/W
 AGAP.m                  43.42:  AIR GAP
 APD .m                  43.42:  DEPTH ABOVE PD
 WDMS.m                 118.27:  WD ELEV
 EGL .m                   0.00:  GROUND ELEVATION
 EPD .m                   0.00:  ELEVATION
 AZTC.deg                 6.23:  AZM TOTAL CORR
 GRDC.deg                 0.20:  GRID CORRECTION
 MDEC.deg                 6.43:  MAGNETIC DECL
 MDIP.deg                59.49:  MAGNETIC DIP
 MFLD.nT              50277.00:  MAGNETIC FIELD
 GVFD.g                   1.00:  GRAVITY FIELD
 VSDR.deg               173.20:  VERT SEC DIRECT
 TDD .m                5790.01:  TOTAL DEPTH (DRILLER)
 SDEP.m                5231.01:  START DEPTH
 DFSL.m                   0.00:  DISTANCE FSL
 DFWL.m                   0.00:  DISTANCE FWL
 UTMY.m             4435808.83:  UTM Y
 UTMX.m              526266.40:  UTM X
 WHEW.m                  -3.84:  WELL HEAD E/W
 WHNS.m                   2.88:  WELL HEAD N/S
 LONG.deg                51.31:  LONGITUDE
 LATI.deg                40.06:  LATITUDE
 TVDS.m                  43.42:  TVDSS CORRECTN
 DEP .m                 430.08:  DEPTH
 EKB .m                  43.42:  KB ELEVATION
 EDF .m                  43.42:  DF ELEVATION
 TDL .m                 559.00:  TOTAL DEPTH (LOGGER)
 MAGU.                 1849381:  MAGUTM CHECKSUM
 VSC .                       0:  VS TO CLOSURE
~Parameter Information Block
#MNEM.UNIT       Value        Description
#---------     -----------    ---------------------------
 AV  .mps                 4.87:  Ann Velocity 
 AVMX.mps                 7.08:  Max Ann Veloc 
 AZIF.deg               108.87:  Azm, Final 
 BHAT.                  Rotary:  BHA Type 
 BROT.°/30m               0.35:  Build Rotating 
 BS  .in                  8.50:  Bit Size 
 BSZ .in                  8.50:  Bit Size 
 BTPL.psig              360.00:  Bit Press Loss 
 CABU.                     Yes:  Customer Abuse 
 COMM.                     ìOW:  Run Comments 1 
 TCS .hr                106.24:  Time Ciculation Ended 
 CV  .mps                 1.77:  Crit Velocity 
 CVMX.mps                 2.03:  Max Crit Veloc 
 DD1 .         Aykhan Agagulov:  Direct Drillr 1 
 DD2 .            Nonso Okofor:  Direct Drillr 2 
 DDSV.               Geo-Pilot:  DD Service 
 DEFF.%                  98.00:  % Det Eff 
 DLRX.°/30m               0.50:  Dogleg Rot Max 
 DLSO.°/30m               0.40:  Dogleg Oriented 
 DLSX.°/30m               0.94:  Dogleg Str Max 
 DRET.      20.30.00 08-Sep-20:  Drill End Time 
 DRST.      22.15.00 06-Sep-20:  Drill Start Tim 
 DTIM.hr                 31.31:  Time Drilling 
 EDEP.m                5790.01:  End Depth 
 ENG1.           Amrah Tahirov:  Engineer 1 
 ENG2.         Dair Mahammadov:  Engineer 2 
 ENG3.           Emil Huseynov:  Engineer 3 
 ETIM.      04.01.04 12-Sep-20:  End Time 
 FLOI.gpm               450.00:  Flow In 
 FLON.gpm               450.00:  Flow In Min 
 FLOS.cptm                2.00:  Fluid Loss 
 FLOX.gpm               450.00:  Flow In Max 
 FTRO.       Formation Presure:  FTWD Run Obj 
 HFLO.                      No:  High Flow 
 HPRE.                      No:  High Pressure 
 HTEM.                      No:  High Temp 
 HYDO.m                   1.80:  Hydro Offset 
 IFIN.deg                72.03:  Inc, Final 
 IMAX.deg                73.72:  Inc Max 
 IMIN.deg                70.94:  Inc Min 
 IMND.m                5508.52:  Inc Min Depth 
 IMXD.m                5253.60:  Inc Max Depth 
 JARR.                      No:  Jarring 
 LETM.      20.30.00 08-Sep-20:  Log End Time 
 LOST.hr                     0:  Lost Rig Time 
 LSTM.      22.15.00 06-Sep-20:  Log Start Time 
 MDCL.ppm             36000.00:  Mud Chlorides 
 MDES.     Inversion Oil/Synthetic:  Mud Desc 
 DFD .sg                  1.44:  Mud Density 
 MDMN.sg                  1.44:  Dens Mud Min 
 MDMX.sg                  1.57:  Dens Mud Max 
 MOIL.                      70:  Run Mud Oil % 
 MOWR.                   70:30:  Run Mud OWR 
 MSND.                       0:  Run Mud Sand % 
 MSOL.                      21:  Run Mud Solids% 
 DFV .spqt               68.00:  Mud Viscosity 
 MWOD.in                  6.75:  MWD Tool OD 
 MWSI.                     Yes:  Serv Intrp, MWD 
 OTIM.hr                174.84:  Time Operating 
 PCON.           Look Like New:  Pad Condition 
 PMAX.psia            10616.93:  Press Op, Max 
 PV  .cP                 50.00:  Mud PV 
 RUN .                     700:  Run Number 
 ROPA.m/hr               14.24:  ROP Avg 
 ROPN.m/hr               10.00:  ROP Min 
 ROPX.m/hr               32.00:  ROP Max 
 RPMA.rpm               120.90:  RPM Surface Avg 
 RPMN.rpm               120.00:  RPM Surface Min 
 RPMX.rpm               140.00:  RPM Surface Max 
 RRUN.                    0700:  Rig Run Number 
 RTIM.hr                  3.20:  Time Reaming 
 SAZI.deg               109.99:  Azm, Start 
 SDEP.m                5231.01:  Start Depth 
 SIDD.                      No:  Serv Intrp, DD 
 SINC.deg                73.72:  Inc, Start 
 SPPA.psig             3051.00:  SPP Avg 
 SPPN.psig             2950.00:  SPP Min 
 SPPX.psig             3250.00:  SPP Max 
 STIM.      08.00.00 05-Sep-20:  Start Time 
 SVCS.                 DD, MWD:  Services 
 SVER.                    9.20:  Sperry Version 
 TDAT.m                 559.00:  Tot Depth Attmp 
 TDDF.                      No:  Trip for DD 
 TDLG.m                 559.00:  Tot Depth Loggd 
 TFF .                      No:  Trip for Fail 
 TQAA.f-kp               26.49:  Torque Abs Avg 
 TQAN.f-kp               25.00:  Torque Abs Min 
 TQAX.f-kp               27.00:  Torque Abs Max 
 TRRT.°/30m               1.50:  Turn Rotating 
 MRT .                    HCIM:  Maximum Recorded Temperature 
 TTMX.degC               90.20:  Max Tool Temp 
 VS01.                90542671:  Virtual Str1 SN 
 VS02.                90545185:  Virtual Str2 SN 
 VS03.                90602015:  Virtual Str3 SN 
 VS04.                90515230:  Virtual Str4 SN 
 WBMN.klb                 5.00:  WOB Min 
 WOBA.klb                14.79:  WOB Avg 
 WOBX.klb                20.00:  WOB Max 
 YP  .lhf2               29.00:  Yield Point 
~Curve Information Block
#MNEM.UNIT                 API CODE     Curve Description
#---------               -----------    ---------------------------
 TIME.HHMMSS            00 000 000 000:  GT Time & Date
 GTDEPTH.m              00 000 000 000:  GT Depth
 GTPQH.psia             00 000 000 000:  GT HR Quartz Pressure
 GTTQ.degC              00 000 000 000:  GT Quartz Temperature
 GTTN.NONE              00 000 000 000:  GT Test Number
 GTET.sec               00 000 000 000:  GT Elapsed Test Time
 GTTVD.m                00 000 000 000:  GT True Vertical Depth
#Other Information
#
#WARRANTY: Halliburton will use its best efforts to furnish customers with 
#accurate information and interpretations that are part of, and incident to, the services 
#provided.  However, Halliburton cannot and does not warrant the accuracy 
#or correctness of such information and interpretations.  Under no circumstances should any 
#such information or interpretation be relied upon as the sole basis for any drilling, 
#completion, production, or financial decision or any procedure involving any risk to the 
#safety of any drilling venture, drilling rig or its crew or any other third party.  The 
#Customer has full responsibility for all drilling, completion and production operation.  
#Halliburton makes no representations or warranties, either expressed or 
#implied, including, but not limited to, the implied warranties of merchantability or fitness 
#for a particular purpose, with respect to the services rendered.  In no event will 
#Halliburton be liable for failure to obtain any particular results or for 
#any damages, including, but not limited to, indirect, special or consequential damages, 
#resulting from the use of any information or interpretation provided by Halliburton.
#
~A           TIME           GTDEPTH  GTPQH  GTTQ  GTTN  GTET   GTTVD  
# ...
   06:26:45.000.09-Sep-2020 5602.01 3272.99 79.61 2.00  46.00 2651.01
   06:26:45.200.09-Sep-2020 5602.01 3272.99 79.61 2.00  46.20 2651.01
   06:26:45.400.09-Sep-2020 5602.01 3187.41 79.61 2.00  46.40 2651.01
   06:26:45.600.09-Sep-2020 5602.01 3192.02 79.60 2.00  46.60 2651.01
   06:26:45.800.09-Sep-2020 5602.01 3192.02 79.60 2.00  46.80 2651.01
   06:26:46.000.09-Sep-2020 5602.01 3161.36 79.60 2.00  47.00 2651.01
   06:26:46.200.09-Sep-2020 5602.01 3161.36 79.60 2.00  47.20 2651.01
   06:26:46.400.09-Sep-2020 5602.01 3248.05 79.60 2.00  47.40 2651.01
   06:26:46.600.09-Sep-2020 5602.01 3185.52 79.59 2.00  47.60 2651.01
   06:26:46.800.09-Sep-2020 5602.01 3133.86 79.59 2.00  47.80 2651.01
   06:26:47.000.09-Sep-2020 5602.01 3095.34 79.59 2.00  48.00 2651.01
   06:26:47.200.09-Sep-2020 5602.01 3068.61 79.58 2.00  48.20 2651.01
   06:26:47.400.09-Sep-2020 5602.01 3016.57 79.58 2.00  48.40 2651.01
   06:26:47.600.09-Sep-2020 5602.01 2898.03 79.58 2.00  48.60 2651.01
   06:26:47.800.09-Sep-2020 5602.01 2832.25 79.58 2.00  48.80 2651.01
   06:26:48.000.09-Sep-2020 5602.01 2813.25 79.57 2.00  49.00 2651.01
   06:26:48.200.09-Sep-2020 5602.01 2813.25 79.57 2.00  49.20 2651.01
   06:26:48.400.09-Sep-2020 5602.01 2613.82 79.57 2.00  49.40 2651.01
   06:26:48.600.09-Sep-2020 5602.01 2396.79 79.56 2.00  49.60 2651.01
   06:26:48.800.09-Sep-2020 5602.01 2100.91 79.56 2.00  49.80 2651.01
   06:26:49.000.09-Sep-2020 5602.01 1782.77 79.56 2.00  50.00 2651.01
   06:26:49.200.09-Sep-2020 5602.01 1782.77 79.56 2.00  50.20 2651.01
   06:26:49.400.09-Sep-2020 5602.01 1196.19 79.55 2.00  50.40 2651.01
   06:26:49.600.09-Sep-2020 5602.01  953.97 79.55 2.00  50.60 2651.01
   06:26:49.800.09-Sep-2020 5602.01  830.99 79.55 2.00  50.80 2651.01
   06:26:50.000.09-Sep-2020 5602.01  771.06 79.54 2.00  51.00 2651.01
   06:26:50.200.09-Sep-2020 5602.01  731.29 79.54 2.00  51.20 2651.01
   06:26:50.400.09-Sep-2020 5602.01  719.22 79.54 2.00  51.40 2651.01
   06:26:50.600.09-Sep-2020 5602.01  712.19 79.53 2.00  51.60 2651.01
   06:26:50.800.09-Sep-2020 5602.01  702.23 79.53 2.00  51.80 2651.01
   06:26:51.000.09-Sep-2020 5602.01  698.22 79.52 2.00  52.00 2651.01
   06:26:51.200.09-Sep-2020 5602.01  698.22 79.52 2.00  52.20 2651.01
   06:26:51.400.09-Sep-2020 5602.01  669.75 79.52 2.00  52.40 2651.01
   06:26:51.600.09-Sep-2020 5602.01  677.82 79.51 2.00  52.60 2651.01
   06:26:51.800.09-Sep-2020 5602.01  678.90 79.51 2.00  52.80 2651.01
   06:26:52.000.09-Sep-2020 5602.01  665.46 79.51 2.00  53.00 2651.01
   06:26:52.200.09-Sep-2020 5602.01  665.46 79.51 2.00  53.20 2651.01
   06:26:52.400.09-Sep-2020 5602.01  652.43 79.50 2.00  53.40 2651.01
   06:26:52.600.09-Sep-2020 5602.01  648.43 79.49 2.00  53.60 2651.01
   06:26:52.800.09-Sep-2020 5602.01  655.23 79.49 2.00  53.80 2651.01
   06:26:53.000.09-Sep-2020 5602.01  663.37 79.49 2.00  54.00 2651.01
   06:26:53.200.09-Sep-2020 5602.01  663.37 79.48 2.00  54.20 2651.01
   06:26:53.400.09-Sep-2020 5602.01  649.93 79.48 2.00  54.40 2651.01
   06:26:53.600.09-Sep-2020 5602.01  660.66 79.48 2.00  54.60 2651.01
   06:26:53.800.09-Sep-2020 5602.01  701.17 79.48 2.00  54.80 2651.01
   06:26:54.000.09-Sep-2020 5602.01  740.88 79.47 2.00  55.00 2651.01
   06:26:54.200.09-Sep-2020 5602.01  778.43 79.47 2.00  55.20 2651.01
   06:26:54.400.09-Sep-2020 5602.01  811.96 79.47 2.00  55.40 2651.01
   06:26:54.600.09-Sep-2020 5602.01  842.75 79.46 2.00  55.60 2651.01
   06:26:54.800.09-Sep-2020 5602.01  874.66 79.46 2.00  55.80 2651.01
   06:26:55.000.09-Sep-2020 5602.01  906.48 79.46 2.00  56.00 2651.01
   06:26:55.200.09-Sep-2020 5602.01  906.48 79.46 2.00  56.20 2651.01
   06:26:55.400.09-Sep-2020 5602.01  964.74 79.45 2.00  56.40 2651.01
   06:26:55.600.09-Sep-2020 5602.01  991.29 79.45 2.00  56.60 2651.01
   06:26:55.800.09-Sep-2020 5602.01 1019.25 79.45 2.00  56.80 2651.01
   06:26:56.000.09-Sep-2020 5602.01 1046.06 79.45 2.00  57.00 2651.01
   06:26:56.200.09-Sep-2020 5602.01 1046.06 79.45 2.00  57.20 2651.01
   06:26:56.400.09-Sep-2020 5602.01 1094.96 79.45 2.00  57.40 2651.01
   06:26:56.600.09-Sep-2020 5602.01 1117.20 79.44 2.00  57.60 2651.01
   06:26:56.800.09-Sep-2020 5602.01 1139.30 79.44 2.00  57.80 2651.01
   06:26:57.000.09-Sep-2020 5602.01 1161.22 79.44 2.00  58.00 2651.01
   06:26:57.200.09-Sep-2020 5602.01 1161.22 79.44 2.00  58.20 2651.01
   06:26:57.400.09-Sep-2020 5602.01 1201.08 79.44 2.00  58.40 2651.01
   06:26:57.600.09-Sep-2020 5602.01 1219.38 79.44 2.00  58.60 2651.01
   06:26:57.800.09-Sep-2020 5602.01 1237.24 79.44 2.00  58.80 2651.01
   06:26:58.000.09-Sep-2020 5602.01 1254.83 79.44 2.00  59.00 2651.01
   06:26:58.200.09-Sep-2020 5602.01 1271.52 79.44 2.00  59.20 2651.01
   06:26:58.400.09-Sep-2020 5602.01 1287.73 79.44 2.00  59.40 2651.01
   06:26:58.600.09-Sep-2020 5602.01 1304.13 79.44 2.00  59.60 2651.01
   06:26:58.800.09-Sep-2020 5602.01 1320.16 79.43 2.00  59.80 2651.01
   06:26:59.000.09-Sep-2020 5602.01 1335.39 79.43 2.00  60.00 2651.01
   06:26:59.200.09-Sep-2020 5602.01 1335.39 79.43 2.00  60.20 2651.01
   06:26:59.400.09-Sep-2020 5602.01 1367.04 79.43 2.00  60.40 2651.01
   06:26:59.600.09-Sep-2020 5602.01 1381.37 79.43 2.00  60.60 2651.01
   06:26:59.800.09-Sep-2020 5602.01 1398.81 79.43 2.00  60.80 2651.01
   06:27:00.000.09-Sep-2020 5602.01 1418.11 79.43 2.00  61.00 2651.01
   06:27:00.200.09-Sep-2020 5602.01 1418.11 79.43 2.00  61.20 2651.01
   06:27:00.400.09-Sep-2020 5602.01 1453.51 79.43 2.00  61.40 2651.01
   06:27:00.600.09-Sep-2020 5602.01 1469.59 79.43 2.00  61.60 2651.01
   06:27:00.800.09-Sep-2020 5602.01 1483.64 79.44 2.00  61.80 2651.01
   06:27:01.000.09-Sep-2020 5602.01 1499.98 79.44 2.00  62.00 2651.01
   06:27:01.200.09-Sep-2020 5602.01 1499.98 79.44 2.00  62.20 2651.01
   06:27:01.400.09-Sep-2020 5602.01 1530.69 79.44 2.00  62.40 2651.01
   06:27:01.600.09-Sep-2020 5602.01 1544.40 79.44 2.00  62.60 2651.01
   06:27:01.800.09-Sep-2020 5602.01 1557.52 79.44 2.00  62.80 2651.01
   06:27:02.000.09-Sep-2020 5602.01 1570.11 79.44 2.00  63.00 2651.01
   06:27:02.200.09-Sep-2020 5602.01 1570.11 79.44 2.00  63.20 2651.01
   06:27:02.400.09-Sep-2020 5602.01 1597.57 79.44 2.00  63.40 2651.01
   06:27:02.600.09-Sep-2020 5602.01 1615.99 79.44 2.00  63.60 2651.01
   06:27:02.800.09-Sep-2020 5602.01 1631.18 79.44 2.00  63.80 2651.01
   06:27:03.000.09-Sep-2020 5602.01 1646.20 79.44 2.00  64.00 2651.01
   06:27:03.200.09-Sep-2020 5602.01 1646.20 79.44 2.00  64.20 2651.01
   06:27:03.400.09-Sep-2020 5602.01 1673.40 79.44 2.00  64.40 2651.01
   06:27:03.600.09-Sep-2020 5602.01 1686.29 79.44 2.00  64.60 2651.01
   06:27:03.800.09-Sep-2020 5602.01 1701.18 79.44 2.00  64.80 2651.01
   06:27:04.000.09-Sep-2020 5602.01 1718.19 79.44 2.00  65.00 2651.01
   06:27:04.200.09-Sep-2020 5602.01 1718.19 79.44 2.00  65.20 2651.01
   06:27:04.400.09-Sep-2020 5602.01 1745.49 79.45 2.00  65.40 2651.01
   06:27:04.600.09-Sep-2020 5602.01 1759.74 79.45 2.00  65.60 2651.01
   06:27:04.800.09-Sep-2020 5602.01 1772.37 79.45 2.00  65.80 2651.01
   06:27:05.000.09-Sep-2020 5602.01 1784.63 79.45 2.00  66.00 2651.01
   06:27:05.200.09-Sep-2020 5602.01 1784.63 79.45 2.00  66.20 2651.01
   06:27:05.400.09-Sep-2020 5602.01 1811.71 79.45 2.00  66.40 2651.01
   06:27:05.600.09-Sep-2020 5602.01 1824.43 79.45 2.00  66.60 2651.01
   06:27:05.800.09-Sep-2020 5602.01 1836.89 79.45 2.00  66.80 2651.01
   06:27:06.000.09-Sep-2020 5602.01 1850.01 79.45 2.00  67.00 2651.01
   06:27:06.200.09-Sep-2020 5602.01 1861.54 79.45 2.00  67.20 2651.01
   06:27:06.400.09-Sep-2020 5602.01 1872.04 79.45 2.00  67.40 2651.01
   06:27:06.600.09-Sep-2020 5602.01 1882.66 79.45 2.00  67.60 2651.01
   06:27:06.800.09-Sep-2020 5602.01 1893.48 79.46 2.00  67.80 2651.01
   06:27:07.000.09-Sep-2020 5602.01 1903.87 79.46 2.00  68.00 2651.01
   06:27:07.200.09-Sep-2020 5602.01 1903.87 79.46 2.00  68.20 2651.01
   06:27:07.400.09-Sep-2020 5602.01 1922.51 79.46 2.00  68.40 2651.01
   06:27:07.600.09-Sep-2020 5602.01 1931.75 79.46 2.00  68.60 2651.01
   06:27:07.800.09-Sep-2020 5602.01 1940.97 79.46 2.00  68.80 2651.01
