~Version Information
 VERS.                  2.0:   CWLS log ASCII Standard -VERSION 2.0
 WRAP.                   NO:   One line per depth step
~Well Information Block
#MNEM.UNIT     VALUE/NAME     DESCRIPTION
#---------     -----------    ---------------------------
 STRT.S             21:21:48 09-Sep-20: START TIME 21:21:48 09-Sep-20
 STOP.S             21:29:57 09-Sep-20: STOP TIME  21:29:57 09-Sep-20
 STEP.S                   0.00: STEP TIME
 NULL.                 -999.25: NULL VALUE
 MDS .        Operator Entered:  MAG DATA SOURCE
 PDAT.          Mean Sea Level:  PERMANENT DATUM
 DCON.         Sperry Drilling:  DIRECTNL CONTR
 RIG .              West Azeri:  RIG NAME
 WELL.           C40 (Slot 20):  WELL NAME
 SRVC.     Turan Drilling Engineering:  CONTRACTOR
 FLD .                     ACG:  FIELD NAME
 CTRY.              Azerbaijan:  COUNTRY NAME
 PROV.                    Baku:  PROVINCE
 STAT.                    Baku:  STATE NAME
 REGN.                   EESSA:  REGION
 BASE.              Azerbaijan:  LOGGING EQUIPMENT BASE LOCATION
 COMP.     BP Exploration (Caspian Sea) Ltd:  COMPANY
 WTYP.                Deviated:  WELL TYPE
 SON .        AZ-XX-0906344804:  JOB NUMBER
 FTOP.          Formation Tops:  FORM TOPS DESC
 ILTD.               Lithology:  INTERP LTH DESC
 SVYD.                  Survey:  SURVEY DESC
 DMOD.             Drill Model:  DRILL MOD DESC
 HPTY.       Minimum Curvature:  HOLE POS TYPE
 NREF.                    Grid:  NORTH REFERENCE
 SPUD.               01-Jan-20:  SPUD DATE
 DATE.      00.59.44 15-Sep-20:  END TIME
 STIM.      12.00.00 12-Jun-20:  START TIME
 DMF .             Drill Floor:  DRILL MEAS FROM
 DFST.                        :  DIST FSL TEXT
 DFWT.                        :  DIST FWL TEXT
 API .                        :  API NUMBER
 CNTY.                        :  COUNTY
 UWI .                        :  UNIQUE WELL IDENTIFIER
 LOC .                        :  LOCATION
 LMF .             Drill Floor:  LOG MEASURED FROM
 VSNS.m                   2.88:  VERT SEC N/S
 VSEW.m                  -3.84:  VERT SEC E/W
 AGAP.m                  43.42:  AIR GAP
 APD .m                  43.42:  DEPTH ABOVE PD
 WDMS.m                 118.27:  WD ELEV
 EGL .m                   0.00:  GROUND ELEVATION
 EPD .m                   0.00:  ELEVATION
 AZTC.deg                 6.23:  AZM TOTAL CORR
 GRDC.deg                 0.20:  GRID CORRECTION
 MDEC.deg                 6.43:  MAGNETIC DECL
 MDIP.deg                59.49:  MAGNETIC DIP
 MFLD.nT              50277.00:  MAGNETIC FIELD
 GVFD.g                   1.00:  GRAVITY FIELD
 VSDR.deg               173.20:  VERT SEC DIRECT
 TDD .m                5790.01:  TOTAL DEPTH (DRILLER)
 SDEP.m                5231.01:  START DEPTH
 DFSL.m                   0.00:  DISTANCE FSL
 DFWL.m                   0.00:  DISTANCE FWL
 UTMY.m             4435808.83:  UTM Y
 UTMX.m              526266.40:  UTM X
 WHEW.m                  -3.84:  WELL HEAD E/W
 WHNS.m                   2.88:  WELL HEAD N/S
 LONG.deg                51.31:  LONGITUDE
 LATI.deg                40.06:  LATITUDE
 TVDS.m                  43.42:  TVDSS CORRECTN
 DEP .m                 430.08:  DEPTH
 EKB .m                  43.42:  KB ELEVATION
 EDF .m                  43.42:  DF ELEVATION
 TDL .m                 559.00:  TOTAL DEPTH (LOGGER)
 MAGU.                 1849381:  MAGUTM CHECKSUM
 VSC .                       0:  VS TO CLOSURE
~Parameter Information Block
#MNEM.UNIT       Value        Description
#---------     -----------    ---------------------------
 AV  .mps                 4.87:  Ann Velocity 
 AVMX.mps                 7.08:  Max Ann Veloc 
 AZIF.deg               108.87:  Azm, Final 
 BHAT.                  Rotary:  BHA Type 
 BROT.°/30m               0.35:  Build Rotating 
 BS  .in                  8.50:  Bit Size 
 BSZ .in                  8.50:  Bit Size 
 BTPL.psig              360.00:  Bit Press Loss 
 CABU.                     Yes:  Customer Abuse 
 COMM.                     ¼¥|:  Run Comments 1 
 TCS .hr                106.24:  Time Ciculation Ended 
 CV  .mps                 1.77:  Crit Velocity 
 CVMX.mps                 2.03:  Max Crit Veloc 
 DD1 .         Aykhan Agagulov:  Direct Drillr 1 
 DD2 .            Nonso Okofor:  Direct Drillr 2 
 DDSV.               Geo-Pilot:  DD Service 
 DEFF.%                  98.00:  % Det Eff 
 DLRX.°/30m               0.50:  Dogleg Rot Max 
 DLSO.°/30m               0.40:  Dogleg Oriented 
 DLSX.°/30m               0.94:  Dogleg Str Max 
 DRET.      20.30.00 08-Sep-20:  Drill End Time 
 DRST.      22.15.00 06-Sep-20:  Drill Start Tim 
 DTIM.hr                 31.31:  Time Drilling 
 EDEP.m                5790.01:  End Depth 
 ENG1.           Amrah Tahirov:  Engineer 1 
 ENG2.         Dair Mahammadov:  Engineer 2 
 ENG3.           Emil Huseynov:  Engineer 3 
 ETIM.      04.01.04 12-Sep-20:  End Time 
 FLOI.gpm               450.00:  Flow In 
 FLON.gpm               450.00:  Flow In Min 
 FLOS.cptm                2.00:  Fluid Loss 
 FLOX.gpm               450.00:  Flow In Max 
 FTRO.       Formation Presure:  FTWD Run Obj 
 HFLO.                      No:  High Flow 
 HPRE.                      No:  High Pressure 
 HTEM.                      No:  High Temp 
 HYDO.m                   1.80:  Hydro Offset 
 IFIN.deg                72.03:  Inc, Final 
 IMAX.deg                73.72:  Inc Max 
 IMIN.deg                70.94:  Inc Min 
 IMND.m                5508.52:  Inc Min Depth 
 IMXD.m                5253.60:  Inc Max Depth 
 JARR.                      No:  Jarring 
 LETM.      20.30.00 08-Sep-20:  Log End Time 
 LOST.hr                     0:  Lost Rig Time 
 LSTM.      22.15.00 06-Sep-20:  Log Start Time 
 MDCL.ppm             36000.00:  Mud Chlorides 
 MDES.     Inversion Oil/Synthetic:  Mud Desc 
 DFD .sg                  1.44:  Mud Density 
 MDMN.sg                  1.44:  Dens Mud Min 
 MDMX.sg                  1.57:  Dens Mud Max 
 MOIL.                      70:  Run Mud Oil % 
 MOWR.                   70:30:  Run Mud OWR 
 MSND.                       0:  Run Mud Sand % 
 MSOL.                      21:  Run Mud Solids% 
 DFV .spqt               68.00:  Mud Viscosity 
 MWOD.in                  6.75:  MWD Tool OD 
 MWSI.                     Yes:  Serv Intrp, MWD 
 OTIM.hr                174.84:  Time Operating 
 PCON.           Look Like New:  Pad Condition 
 PMAX.psia            10616.93:  Press Op, Max 
 PV  .cP                 50.00:  Mud PV 
 RUN .                     700:  Run Number 
 ROPA.m/hr               14.24:  ROP Avg 
 ROPN.m/hr               10.00:  ROP Min 
 ROPX.m/hr               32.00:  ROP Max 
 RPMA.rpm               120.90:  RPM Surface Avg 
 RPMN.rpm               120.00:  RPM Surface Min 
 RPMX.rpm               140.00:  RPM Surface Max 
 RRUN.                    0700:  Rig Run Number 
 RTIM.hr                  3.20:  Time Reaming 
 SAZI.deg               109.99:  Azm, Start 
 SDEP.m                5231.01:  Start Depth 
 SIDD.                      No:  Serv Intrp, DD 
 SINC.deg                73.72:  Inc, Start 
 SPPA.psig             3051.00:  SPP Avg 
 SPPN.psig             2950.00:  SPP Min 
 SPPX.psig             3250.00:  SPP Max 
 STIM.      08.00.00 05-Sep-20:  Start Time 
 SVCS.                 DD, MWD:  Services 
 SVER.                    9.20:  Sperry Version 
 TDAT.m                 559.00:  Tot Depth Attmp 
 TDDF.                      No:  Trip for DD 
 TDLG.m                 559.00:  Tot Depth Loggd 
 TFF .                      No:  Trip for Fail 
 TQAA.f-kp               26.49:  Torque Abs Avg 
 TQAN.f-kp               25.00:  Torque Abs Min 
 TQAX.f-kp               27.00:  Torque Abs Max 
 TRRT.°/30m               1.50:  Turn Rotating 
 MRT .                    HCIM:  Maximum Recorded Temperature 
 TTMX.degC               90.20:  Max Tool Temp 
 VS01.                90542671:  Virtual Str1 SN 
 VS02.                90545185:  Virtual Str2 SN 
 VS03.                90602015:  Virtual Str3 SN 
 VS04.                90515230:  Virtual Str4 SN 
 WBMN.klb                 5.00:  WOB Min 
 WOBA.klb                14.79:  WOB Avg 
 WOBX.klb                20.00:  WOB Max 
 YP  .lhf2               29.00:  Yield Point 
~Curve Information Block
#MNEM.UNIT                 API CODE     Curve Description
#---------               -----------    ---------------------------
 TIME.HHMMSS            00 000 000 000:  GT Time & Date
 GTDEPTH.m              00 000 000 000:  GT Depth
 GTPQH.psia             00 000 000 000:  GT HR Quartz Pressure
 GTTQ.degC              00 000 000 000:  GT Quartz Temperature
 GTTN.NONE              00 000 000 000:  GT Test Number
 GTET.sec               00 000 000 000:  GT Elapsed Test Time
 GTTVD.m                00 000 000 000:  GT True Vertical Depth
#Other Information
#
#WARRANTY: Halliburton will use its best efforts to furnish customers with 
#accurate information and interpretations that are part of, and incident to, the services 
#provided.  However, Halliburton cannot and does not warrant the accuracy 
#or correctness of such information and interpretations.  Under no circumstances should any 
#such information or interpretation be relied upon as the sole basis for any drilling, 
#completion, production, or financial decision or any procedure involving any risk to the 
#safety of any drilling venture, drilling rig or its crew or any other third party.  The 
#Customer has full responsibility for all drilling, completion and production operation.  
#Halliburton makes no representations or warranties, either expressed or 
#implied, including, but not limited to, the implied warranties of merchantability or fitness 
#for a particular purpose, with respect to the services rendered.  In no event will 
#Halliburton be liable for failure to obtain any particular results or for 
#any damages, including, but not limited to, indirect, special or consequential damages, 
#resulting from the use of any information or interpretation provided by Halliburton.
#
~A           TIME           GTDEPTH  GTPQH  GTTQ  GTTN   GTET   GTTVD  
# ...
   21:27:27.473.09-Sep-2020 5252.22  249.95 73.46 26.00 339.16 2542.36
   21:27:27.673.09-Sep-2020 5252.22  250.05 73.46 26.00 339.36 2542.36
   21:27:27.873.09-Sep-2020 5252.22  250.01 73.46 26.00 339.56 2542.36
   21:27:28.073.09-Sep-2020 5252.22  250.44 73.46 26.00 339.76 2542.36
   21:27:28.273.09-Sep-2020 5252.22  250.67 73.46 26.00 339.96 2542.36
   21:27:28.474.09-Sep-2020 5252.22  250.80 73.46 26.00 340.16 2542.36
   21:27:28.674.09-Sep-2020 5252.22  251.10 73.46 26.00 340.36 2542.36
   21:27:28.874.09-Sep-2020 5252.22  251.21 73.46 26.00 340.56 2542.36
   21:27:29.074.09-Sep-2020 5252.22  251.44 73.46 26.00 340.76 2542.36
   21:27:29.274.09-Sep-2020 5252.22  251.61 73.46 26.00 340.96 2542.36
   21:27:29.474.09-Sep-2020 5252.22  251.76 73.46 26.00 341.16 2542.36
   21:27:29.674.09-Sep-2020 5252.22  251.76 73.46 26.00 341.36 2542.36
   21:27:29.874.09-Sep-2020 5252.22  252.11 73.46 26.00 341.56 2542.36
   21:27:30.074.09-Sep-2020 5252.22  252.29 73.46 26.00 341.76 2542.36
   21:27:30.274.09-Sep-2020 5252.22  252.50 73.46 26.00 341.96 2542.36
   21:27:30.474.09-Sep-2020 5252.22  252.66 73.46 26.00 342.16 2542.36
   21:27:30.675.09-Sep-2020 5252.22  252.84 73.46 26.00 342.36 2542.36
   21:27:30.875.09-Sep-2020 5252.22  253.00 73.46 26.00 342.56 2542.36
   21:27:31.075.09-Sep-2020 5252.22  253.18 73.46 26.00 342.76 2542.36
   21:27:31.275.09-Sep-2020 5252.22  253.35 73.46 26.00 342.96 2542.36
   21:27:31.475.09-Sep-2020 5252.22  253.23 73.46 26.00 343.16 2542.36
   21:27:31.675.09-Sep-2020 5252.22  253.64 73.46 26.00 343.36 2542.36
   21:27:31.875.09-Sep-2020 5252.22  253.82 73.46 26.00 343.56 2542.36
   21:27:32.075.09-Sep-2020 5252.22  253.95 73.46 26.00 343.76 2542.36
   21:27:32.275.09-Sep-2020 5252.22  254.22 73.46 26.00 343.96 2542.36
   21:27:32.475.09-Sep-2020 5252.22  254.30 73.46 26.00 344.16 2542.36
   21:27:32.675.09-Sep-2020 5252.22  254.30 73.46 26.00 344.36 2542.36
   21:27:32.876.09-Sep-2020 5252.22  254.63 73.46 26.00 344.56 2542.36
   21:27:33.076.09-Sep-2020 5252.22  254.79 73.46 26.00 344.76 2542.36
   21:27:33.276.09-Sep-2020 5252.22  254.96 73.46 26.00 344.96 2542.36
   21:27:33.476.09-Sep-2020 5252.22  255.15 73.46 26.00 345.16 2542.36
   21:27:33.676.09-Sep-2020 5252.22  255.15 73.46 26.00 345.36 2542.36
   21:27:33.876.09-Sep-2020 5252.22  255.46 73.46 26.00 345.56 2542.36
   21:27:34.076.09-Sep-2020 5252.22  255.60 73.46 26.00 345.76 2542.36
   21:27:34.276.09-Sep-2020 5252.22  255.76 73.46 26.00 345.96 2542.36
   21:27:34.476.09-Sep-2020 5252.22  255.92 73.46 26.00 346.16 2542.36
   21:27:34.676.09-Sep-2020 5252.22  255.80 73.46 26.00 346.36 2542.36
   21:27:34.876.09-Sep-2020 5252.22  256.22 73.46 26.00 346.56 2542.36
   21:27:35.077.09-Sep-2020 5252.22  256.37 73.46 26.00 346.76 2542.36
   21:27:35.277.09-Sep-2020 5252.22  256.48 73.46 26.00 346.96 2542.36
   21:27:35.477.09-Sep-2020 5252.22  256.71 73.46 26.00 347.16 2542.36
   21:27:35.677.09-Sep-2020 5252.22  256.55 73.46 26.00 347.36 2542.36
   21:27:35.877.09-Sep-2020 5252.22  256.94 73.46 26.00 347.56 2542.36
   21:27:36.077.09-Sep-2020 5252.22  257.17 73.46 26.00 347.76 2542.36
   21:27:36.277.09-Sep-2020 5252.22  257.34 73.46 26.00 347.96 2542.36
   21:27:36.477.09-Sep-2020 5252.22  257.45 73.46 26.00 348.16 2542.36
   21:27:36.677.09-Sep-2020 5252.22  257.65 73.46 26.00 348.36 2542.36
   21:27:36.877.09-Sep-2020 5252.22  257.74 73.46 26.00 348.56 2542.36
   21:27:37.077.09-Sep-2020 5252.22  257.92 73.46 26.00 348.76 2542.36
   21:27:37.278.09-Sep-2020 5252.22  257.80 73.46 26.00 348.96 2542.36
   21:27:37.478.09-Sep-2020 5252.22  258.23 73.46 26.00 349.16 2542.36
   21:27:37.678.09-Sep-2020 5252.22  258.40 73.46 26.00 349.36 2542.36
   21:27:37.878.09-Sep-2020 5252.22  258.51 73.46 26.00 349.56 2542.36
   21:27:38.078.09-Sep-2020 5252.22  258.75 73.46 26.00 349.76 2542.36
   21:27:38.278.09-Sep-2020 5252.22  258.84 73.46 26.00 349.96 2542.36
   21:27:38.478.09-Sep-2020 5252.22  259.03 73.46 26.00 350.16 2542.36
   21:27:38.678.09-Sep-2020 5252.22  258.71 73.46 26.00 350.36 2542.36
   21:27:38.878.09-Sep-2020 5252.22  259.51 73.46 26.00 350.56 2542.36
   21:27:39.078.09-Sep-2020 5252.22  259.49 73.46 26.00 350.76 2542.36
   21:27:39.279.09-Sep-2020 5252.22  259.64 73.46 26.00 350.96 2542.36
   21:27:39.479.09-Sep-2020 5252.22  259.75 73.46 26.00 351.16 2542.36
   21:27:39.679.09-Sep-2020 5252.22  259.66 73.46 26.00 351.36 2542.36
   21:27:39.879.09-Sep-2020 5252.22  260.15 73.46 26.00 351.56 2542.36
   21:27:40.079.09-Sep-2020 5252.22  260.27 73.46 26.00 351.76 2542.36
   21:27:40.279.09-Sep-2020 5252.22  260.40 73.46 26.00 351.96 2542.36
   21:27:40.479.09-Sep-2020 5252.22  260.57 73.46 26.00 352.16 2542.36
   21:27:40.679.09-Sep-2020 5252.22  260.79 73.46 26.00 352.36 2542.36
   21:27:40.879.09-Sep-2020 5252.22  260.94 73.46 26.00 352.56 2542.36
   21:27:41.079.09-Sep-2020 5252.22  261.07 73.46 26.00 352.76 2542.36
   21:27:41.279.09-Sep-2020 5252.22  261.21 73.46 26.00 352.96 2542.36
   21:27:41.480.09-Sep-2020 5252.22  261.33 73.46 26.00 353.16 2542.36
   21:27:41.680.09-Sep-2020 5252.22  261.49 73.46 26.00 353.36 2542.36
   21:27:41.880.09-Sep-2020 5252.22  261.64 73.46 26.00 353.56 2542.36
   21:27:42.080.09-Sep-2020 5252.22  261.80 73.46 26.00 353.76 2542.36
   21:27:42.280.09-Sep-2020 5252.22  261.95 73.46 26.00 353.96 2542.36
   21:27:42.480.09-Sep-2020 5252.22  262.11 73.46 26.00 354.16 2542.36
   21:27:42.680.09-Sep-2020 5252.22  262.25 73.46 26.00 354.36 2542.36
   21:27:42.880.09-Sep-2020 5252.22  262.38 73.46 26.00 354.56 2542.36
   21:27:43.080.09-Sep-2020 5252.22  262.53 73.46 26.00 354.76 2542.36
   21:27:43.280.09-Sep-2020 5252.22  262.32 73.46 26.00 354.96 2542.36
   21:27:43.480.09-Sep-2020 5252.22  262.85 73.46 26.00 355.16 2542.36
   21:27:43.681.09-Sep-2020 5252.22  262.96 73.46 26.00 355.36 2542.36
   21:27:43.881.09-Sep-2020 5252.22  263.05 73.46 26.00 355.56 2542.36
   21:27:44.081.09-Sep-2020 5252.22  263.22 73.46 26.00 355.76 2542.36
   21:27:44.281.09-Sep-2020 5252.22  263.41 73.46 26.00 355.96 2542.36
   21:27:44.481.09-Sep-2020 5252.22  263.51 73.46 26.00 356.16 2542.36
   21:27:44.681.09-Sep-2020 5252.22  263.61 73.46 26.00 356.36 2542.36
   21:27:44.881.09-Sep-2020 5252.22  263.76 73.46 26.00 356.56 2542.36
   21:27:45.081.09-Sep-2020 5252.22  263.88 73.46 26.00 356.76 2542.36
   21:27:45.281.09-Sep-2020 5252.22  264.05 73.46 26.00 356.96 2542.36
   21:27:45.481.09-Sep-2020 5252.22  264.20 73.46 26.00 357.16 2542.36
   21:27:45.681.09-Sep-2020 5252.22  264.31 73.46 26.00 357.36 2542.36
   21:27:45.882.09-Sep-2020 5252.22  264.45 73.46 26.00 357.56 2542.36
   21:27:46.082.09-Sep-2020 5252.22  264.56 73.46 26.00 357.76 2542.36
   21:27:46.282.09-Sep-2020 5252.22  264.71 73.46 26.00 357.96 2542.36
   21:27:46.482.09-Sep-2020 5252.22  264.39 73.46 26.00 358.17 2542.36
   21:27:46.682.09-Sep-2020 5252.22  264.39 73.46 26.00 358.37 2542.36
   21:27:46.882.09-Sep-2020 5252.22  265.11 73.46 26.00 358.57 2542.36
   21:27:47.082.09-Sep-2020 5252.22  265.23 73.46 26.00 358.77 2542.36
   21:27:47.282.09-Sep-2020 5252.22  265.30 73.46 26.00 358.97 2542.36
   21:27:47.482.09-Sep-2020 5252.22  265.56 73.46 26.00 359.17 2542.36
   21:27:47.682.09-Sep-2020 5252.22  265.27 73.46 26.00 359.37 2542.36
   21:27:47.882.09-Sep-2020 5252.22  265.81 73.46 26.00 359.57 2542.36
   21:27:48.083.09-Sep-2020 5252.22  265.92 73.46 26.00 359.77 2542.36
   21:27:48.283.09-Sep-2020 5252.22  266.01 73.46 26.00 359.97 2542.36
   21:27:48.483.09-Sep-2020 5252.22  265.82 73.46 26.00 360.17 2542.36
   21:27:48.683.09-Sep-2020 5252.22  265.82 73.46 26.00 360.37 2542.36
   21:27:48.883.09-Sep-2020 5252.22  266.48 73.46 26.00 360.57 2542.36
   21:27:49.083.09-Sep-2020 5252.22  266.59 73.46 26.00 360.77 2542.36
   21:27:49.283.09-Sep-2020 5252.22  266.29 73.46 26.00 360.97 2542.36
   21:27:49.483.09-Sep-2020 5252.22  267.12 73.46 26.00 361.17 2542.36
   21:27:49.683.09-Sep-2020 5252.22  267.12 73.46 26.00 361.37 2542.36
   21:27:49.883.09-Sep-2020 5252.22  267.22 73.46 26.00 361.57 2542.36
