~Version Information
 VERS.                  2.0:   CWLS log ASCII Standard -VERSION 2.0
 WRAP.                   NO:   One line per depth step
~Well Information Block
#MNEM.UNIT     VALUE/NAME     DESCRIPTION
#---------     -----------    ---------------------------
 STRT.S             14:18:02 09-Sep-20: START TIME 14:18:02 09-Sep-20
 STOP.S             14:26:13 09-Sep-20: STOP TIME  14:26:13 09-Sep-20
 STEP.S                   0.00: STEP TIME
 NULL.                 -999.25: NULL VALUE
 MDS .        Operator Entered:  MAG DATA SOURCE
 PDAT.          Mean Sea Level:  PERMANENT DATUM
 DCON.         Sperry Drilling:  DIRECTNL CONTR
 RIG .              West Azeri:  RIG NAME
 WELL.           C40 (Slot 20):  WELL NAME
 SRVC.     Turan Drilling Engineering:  CONTRACTOR
 FLD .                     ACG:  FIELD NAME
 CTRY.              Azerbaijan:  COUNTRY NAME
 PROV.                    Baku:  PROVINCE
 STAT.                    Baku:  STATE NAME
 REGN.                   EESSA:  REGION
 BASE.              Azerbaijan:  LOGGING EQUIPMENT BASE LOCATION
 COMP.     BP Exploration (Caspian Sea) Ltd:  COMPANY
 WTYP.                Deviated:  WELL TYPE
 SON .        AZ-XX-0906344804:  JOB NUMBER
 FTOP.          Formation Tops:  FORM TOPS DESC
 ILTD.               Lithology:  INTERP LTH DESC
 SVYD.                  Survey:  SURVEY DESC
 DMOD.             Drill Model:  DRILL MOD DESC
 HPTY.       Minimum Curvature:  HOLE POS TYPE
 NREF.                    Grid:  NORTH REFERENCE
 SPUD.               01-Jan-20:  SPUD DATE
 DATE.      00.59.44 15-Sep-20:  END TIME
 STIM.      12.00.00 12-Jun-20:  START TIME
 DMF .             Drill Floor:  DRILL MEAS FROM
 DFST.                        :  DIST FSL TEXT
 DFWT.                        :  DIST FWL TEXT
 API .                        :  API NUMBER
 CNTY.                        :  COUNTY
 UWI .                        :  UNIQUE WELL IDENTIFIER
 LOC .                        :  LOCATION
 LMF .             Drill Floor:  LOG MEASURED FROM
 VSNS.m                   2.88:  VERT SEC N/S
 VSEW.m                  -3.84:  VERT SEC E/W
 AGAP.m                  43.42:  AIR GAP
 APD .m                  43.42:  DEPTH ABOVE PD
 WDMS.m                 118.27:  WD ELEV
 EGL .m                   0.00:  GROUND ELEVATION
 EPD .m                   0.00:  ELEVATION
 AZTC.deg                 6.23:  AZM TOTAL CORR
 GRDC.deg                 0.20:  GRID CORRECTION
 MDEC.deg                 6.43:  MAGNETIC DECL
 MDIP.deg                59.49:  MAGNETIC DIP
 MFLD.nT              50277.00:  MAGNETIC FIELD
 GVFD.g                   1.00:  GRAVITY FIELD
 VSDR.deg               173.20:  VERT SEC DIRECT
 TDD .m                5790.01:  TOTAL DEPTH (DRILLER)
 SDEP.m                5231.01:  START DEPTH
 DFSL.m                   0.00:  DISTANCE FSL
 DFWL.m                   0.00:  DISTANCE FWL
 UTMY.m             4435808.83:  UTM Y
 UTMX.m              526266.40:  UTM X
 WHEW.m                  -3.84:  WELL HEAD E/W
 WHNS.m                   2.88:  WELL HEAD N/S
 LONG.deg                51.31:  LONGITUDE
 LATI.deg                40.06:  LATITUDE
 TVDS.m                  43.42:  TVDSS CORRECTN
 DEP .m                 430.08:  DEPTH
 EKB .m                  43.42:  KB ELEVATION
 EDF .m                  43.42:  DF ELEVATION
 TDL .m                 559.00:  TOTAL DEPTH (LOGGER)
 MAGU.                 1849381:  MAGUTM CHECKSUM
 VSC .                       0:  VS TO CLOSURE
~Parameter Information Block
#MNEM.UNIT       Value        Description
#---------     -----------    ---------------------------
 AV  .mps                 4.87:  Ann Velocity 
 AVMX.mps                 7.08:  Max Ann Veloc 
 AZIF.deg               108.87:  Azm, Final 
 BHAT.                  Rotary:  BHA Type 
 BROT.°/30m               0.35:  Build Rotating 
 BS  .in                  8.50:  Bit Size 
 BSZ .in                  8.50:  Bit Size 
 BTPL.psig              360.00:  Bit Press Loss 
 CABU.                     Yes:  Customer Abuse 
 TCS .hr                106.24:  Time Ciculation Ended 
 CV  .mps                 1.77:  Crit Velocity 
 CVMX.mps                 2.03:  Max Crit Veloc 
 DD1 .         Aykhan Agagulov:  Direct Drillr 1 
 DD2 .            Nonso Okofor:  Direct Drillr 2 
 DDSV.               Geo-Pilot:  DD Service 
 DEFF.%                  98.00:  % Det Eff 
 DLRX.°/30m               0.50:  Dogleg Rot Max 
 DLSO.°/30m               0.40:  Dogleg Oriented 
 DLSX.°/30m               0.94:  Dogleg Str Max 
 DRET.      20.30.00 08-Sep-20:  Drill End Time 
 DRST.      22.15.00 06-Sep-20:  Drill Start Tim 
 DTIM.hr                 31.31:  Time Drilling 
 EDEP.m                5790.01:  End Depth 
 ENG1.           Amrah Tahirov:  Engineer 1 
 ENG2.         Dair Mahammadov:  Engineer 2 
 ENG3.           Emil Huseynov:  Engineer 3 
 ETIM.      04.01.04 12-Sep-20:  End Time 
 FLOI.gpm               450.00:  Flow In 
 FLON.gpm               450.00:  Flow In Min 
 FLOS.cptm                2.00:  Fluid Loss 
 FLOX.gpm               450.00:  Flow In Max 
 FTRO.       Formation Presure:  FTWD Run Obj 
 HFLO.                      No:  High Flow 
 HPRE.                      No:  High Pressure 
 HTEM.                      No:  High Temp 
 HYDO.m                   1.80:  Hydro Offset 
 IFIN.deg                72.03:  Inc, Final 
 IMAX.deg                73.72:  Inc Max 
 IMIN.deg                70.94:  Inc Min 
 IMND.m                5508.52:  Inc Min Depth 
 IMXD.m                5253.60:  Inc Max Depth 
 JARR.                      No:  Jarring 
 LETM.      20.30.00 08-Sep-20:  Log End Time 
 LOST.hr                     0:  Lost Rig Time 
 LSTM.      22.15.00 06-Sep-20:  Log Start Time 
 MDCL.ppm             36000.00:  Mud Chlorides 
 MDES.     Inversion Oil/Synthetic:  Mud Desc 
 DFD .sg                  1.44:  Mud Density 
 MDMN.sg                  1.44:  Dens Mud Min 
 MDMX.sg                  1.57:  Dens Mud Max 
 MOIL.                      70:  Run Mud Oil % 
 MOWR.                   70:30:  Run Mud OWR 
 MSND.                       0:  Run Mud Sand % 
 MSOL.                      21:  Run Mud Solids% 
 DFV .spqt               68.00:  Mud Viscosity 
 MWOD.in                  6.75:  MWD Tool OD 
 MWSI.                     Yes:  Serv Intrp, MWD 
 OTIM.hr                174.84:  Time Operating 
 PCON.           Look Like New:  Pad Condition 
 PMAX.psia            10616.93:  Press Op, Max 
 PV  .cP                 50.00:  Mud PV 
 RUN .                     700:  Run Number 
 ROPA.m/hr               14.24:  ROP Avg 
 ROPN.m/hr               10.00:  ROP Min 
 ROPX.m/hr               32.00:  ROP Max 
 RPMA.rpm               120.90:  RPM Surface Avg 
 RPMN.rpm               120.00:  RPM Surface Min 
 RPMX.rpm               140.00:  RPM Surface Max 
 RRUN.                    0700:  Rig Run Number 
 RTIM.hr                  3.20:  Time Reaming 
 SAZI.deg               109.99:  Azm, Start 
 SDEP.m                5231.01:  Start Depth 
 SIDD.                      No:  Serv Intrp, DD 
 SINC.deg                73.72:  Inc, Start 
 SPPA.psig             3051.00:  SPP Avg 
 SPPN.psig             2950.00:  SPP Min 
 SPPX.psig             3250.00:  SPP Max 
 STIM.      08.00.00 05-Sep-20:  Start Time 
 SVCS.                 DD, MWD:  Services 
 SVER.                    9.20:  Sperry Version 
 TDAT.m                 559.00:  Tot Depth Attmp 
 TDDF.                      No:  Trip for DD 
 TDLG.m                 559.00:  Tot Depth Loggd 
 TFF .                      No:  Trip for Fail 
 TQAA.f-kp               26.49:  Torque Abs Avg 
 TQAN.f-kp               25.00:  Torque Abs Min 
 TQAX.f-kp               27.00:  Torque Abs Max 
 TRRT.°/30m               1.50:  Turn Rotating 
 MRT .                    HCIM:  Maximum Recorded Temperature 
 TTMX.degC               90.20:  Max Tool Temp 
 VS01.                90542671:  Virtual Str1 SN 
 VS02.                90545185:  Virtual Str2 SN 
 VS03.                90602015:  Virtual Str3 SN 
 VS04.                90515230:  Virtual Str4 SN 
 WBMN.klb                 5.00:  WOB Min 
 WOBA.klb                14.79:  WOB Avg 
 WOBX.klb                20.00:  WOB Max 
 YP  .lhf2               29.00:  Yield Point 
~Curve Information Block
#MNEM.UNIT                 API CODE     Curve Description
#---------               -----------    ---------------------------
 TIME.HHMMSS            00 000 000 000:  GT Time & Date
 GTDEPTH.m              00 000 000 000:  GT Depth
 GTPQH.psia             00 000 000 000:  GT HR Quartz Pressure
 GTTQ.degC              00 000 000 000:  GT Quartz Temperature
 GTTN.NONE              00 000 000 000:  GT Test Number
 GTET.sec               00 000 000 000:  GT Elapsed Test Time
 GTTVD.m                00 000 000 000:  GT True Vertical Depth
#Other Information
#
#WARRANTY: Halliburton will use its best efforts to furnish customers with 
#accurate information and interpretations that are part of, and incident to, the services 
#provided.  However, Halliburton cannot and does not warrant the accuracy 
#or correctness of such information and interpretations.  Under no circumstances should any 
#such information or interpretation be relied upon as the sole basis for any drilling, 
#completion, production, or financial decision or any procedure involving any risk to the 
#safety of any drilling venture, drilling rig or its crew or any other third party.  The 
#Customer has full responsibility for all drilling, completion and production operation.  
#Halliburton makes no representations or warranties, either expressed or 
#implied, including, but not limited to, the implied warranties of merchantability or fitness 
#for a particular purpose, with respect to the services rendered.  In no event will 
#Halliburton be liable for failure to obtain any particular results or for 
#any damages, including, but not limited to, indirect, special or consequential damages, 
#resulting from the use of any information or interpretation provided by Halliburton.
#
~A           TIME           GTDEPTH  GTPQH  GTTQ  GTTN   GTET   GTTVD  
   14:18:02.221.09-Sep-2020 5408.01 6258.13 75.33 16.00   0.00 2589.60
   14:18:02.421.09-Sep-2020 5408.01 6258.89 75.33 16.00   0.20 2589.60
   14:18:02.621.09-Sep-2020 5408.01 6259.34 75.33 16.00   0.40 2589.60
   14:18:02.821.09-Sep-2020 5408.01 6259.19 75.33 16.00   0.60 2589.60
   14:18:03.021.09-Sep-2020 5408.01 6258.98 75.33 16.00   0.80 2589.60
   14:18:03.221.09-Sep-2020 5408.01 6259.60 75.33 16.00   1.00 2589.60
   14:18:03.421.09-Sep-2020 5408.01 6259.60 75.33 16.00   1.20 2589.60
   14:18:03.621.09-Sep-2020 5408.01 6260.48 75.33 16.00   1.40 2589.60
   14:18:03.822.09-Sep-2020 5408.01 6264.58 75.33 16.00   1.60 2589.60
   14:18:04.022.09-Sep-2020 5408.01 6263.21 75.33 16.00   1.80 2589.60
   14:18:04.222.09-Sep-2020 5408.01 6259.87 75.33 16.00   2.00 2589.60
   14:18:04.422.09-Sep-2020 5408.01 6259.87 75.33 16.00   2.20 2589.60
   14:18:04.622.09-Sep-2020 5408.01 6266.44 75.33 16.00   2.40 2589.60
   14:18:04.822.09-Sep-2020 5408.01 6266.71 75.33 16.00   2.60 2589.60
   14:18:05.022.09-Sep-2020 5408.01 6261.45 75.33 16.00   2.80 2589.60
   14:18:05.222.09-Sep-2020 5408.01 6265.92 75.33 16.00   3.00 2589.60
   14:18:05.423.09-Sep-2020 5408.01 6263.64 75.33 16.00   3.20 2589.60
   14:18:05.623.09-Sep-2020 5408.01 6266.33 75.33 16.00   3.40 2589.60
   14:18:05.823.09-Sep-2020 5408.01 6273.23 75.33 16.00   3.60 2589.60
   14:18:06.023.09-Sep-2020 5408.01 6262.00 75.33 16.00   3.80 2589.60
   14:18:06.223.09-Sep-2020 5408.01 6264.54 75.33 16.00   4.00 2589.60
   14:18:06.423.09-Sep-2020 5408.01 6264.54 75.33 16.00   4.20 2589.60
   14:18:06.623.09-Sep-2020 5408.01 6267.92 75.33 16.00   4.40 2589.60
   14:18:06.823.09-Sep-2020 5408.01 6267.58 75.33 16.00   4.60 2589.60
   14:18:07.024.09-Sep-2020 5408.01 6261.15 75.33 16.00   4.80 2589.60
   14:18:07.224.09-Sep-2020 5408.01 6264.92 75.33 16.00   5.00 2589.60
   14:18:07.424.09-Sep-2020 5408.01 6264.92 75.33 16.00   5.20 2589.60
   14:18:07.624.09-Sep-2020 5408.01 6269.45 75.33 16.00   5.40 2589.60
   14:18:07.824.09-Sep-2020 5408.01 6264.32 75.33 16.00   5.60 2589.60
   14:18:08.024.09-Sep-2020 5408.01 6262.02 75.33 16.00   5.80 2589.60
   14:18:08.224.09-Sep-2020 5408.01 6265.44 75.33 16.00   6.00 2589.60
   14:18:08.424.09-Sep-2020 5408.01 6265.44 75.33 16.00   6.20 2589.60
   14:18:08.624.09-Sep-2020 5408.01 6265.95 75.33 16.00   6.40 2589.60
   14:18:08.825.09-Sep-2020 5408.01 6263.97 75.32 16.00   6.60 2589.60
   14:18:09.025.09-Sep-2020 5408.01 6266.01 75.32 16.00   6.80 2589.60
   14:18:09.225.09-Sep-2020 5408.01 6271.99 75.32 16.00   7.00 2589.60
   14:18:09.425.09-Sep-2020 5408.01 6271.99 75.32 16.00   7.20 2589.60
   14:18:09.625.09-Sep-2020 5408.01 6271.99 75.32 16.00   7.40 2589.60
   14:18:09.825.09-Sep-2020 5408.01 6268.81 75.32 16.00   7.60 2589.60
   14:18:10.025.09-Sep-2020 5408.01 6279.48 75.32 16.00   7.80 2589.60
   14:18:10.225.09-Sep-2020 5408.01 6265.44 75.33 16.00   8.00 2589.60
   14:18:10.426.09-Sep-2020 5408.01 6269.54 75.32 16.00   8.21 2589.60
   14:18:10.626.09-Sep-2020 5408.01 6269.54 75.32 16.00   8.41 2589.60
   14:18:10.826.09-Sep-2020 5408.01 6269.54 75.32 16.00   8.61 2589.60
   14:18:11.026.09-Sep-2020 5408.01 6274.92 75.32 16.00   8.81 2589.60
   14:18:11.226.09-Sep-2020 5408.01 6273.85 75.32 16.00   9.01 2589.60
   14:18:11.426.09-Sep-2020 5408.01 6275.20 75.32 16.00   9.21 2589.60
   14:18:11.626.09-Sep-2020 5408.01 6275.02 75.32 16.00   9.41 2589.60
   14:18:11.826.09-Sep-2020 5408.01 6275.46 75.32 16.00   9.61 2589.60
   14:18:12.027.09-Sep-2020 5408.01 6275.49 75.32 16.00   9.81 2589.60
   14:18:12.227.09-Sep-2020 5408.01 6275.80 75.32 16.00  10.01 2589.60
   14:18:12.427.09-Sep-2020 5408.01 6275.80 75.32 16.00  10.21 2589.60
   14:18:12.627.09-Sep-2020 5408.01 6276.15 75.32 16.00  10.41 2589.60
   14:18:12.827.09-Sep-2020 5408.01 6276.31 75.32 16.00  10.61 2589.60
   14:18:13.027.09-Sep-2020 5408.01 6276.49 75.32 16.00  10.81 2589.60
   14:18:13.227.09-Sep-2020 5408.01 6276.85 75.32 16.00  11.01 2589.60
   14:18:13.427.09-Sep-2020 5408.01 6277.20 75.32 16.00  11.21 2589.60
   14:18:13.628.09-Sep-2020 5408.01 6281.64 75.32 16.00  11.41 2589.60
   14:18:13.828.09-Sep-2020 5408.01 6280.42 75.32 16.00  11.61 2589.60
   14:18:14.028.09-Sep-2020 5408.01 6276.69 75.32 16.00  11.81 2589.60
   14:18:14.228.09-Sep-2020 5408.01 6279.84 75.32 16.00  12.01 2589.60
   14:18:14.428.09-Sep-2020 5408.01 6277.60 75.32 16.00  12.21 2589.60
   14:18:14.628.09-Sep-2020 5408.01 6280.11 75.32 16.00  12.41 2589.60
   14:18:14.828.09-Sep-2020 5408.01 6278.63 75.32 16.00  12.61 2589.60
   14:18:15.028.09-Sep-2020 5408.01 6279.33 75.32 16.00  12.81 2589.60
   14:18:15.229.09-Sep-2020 5408.01 6279.89 75.32 16.00  13.01 2589.60
   14:18:15.429.09-Sep-2020 5408.01 6279.89 75.32 16.00  13.21 2589.60
   14:18:15.629.09-Sep-2020 5408.01 6281.30 75.32 16.00  13.41 2589.60
   14:18:15.829.09-Sep-2020 5408.01 6281.86 75.32 16.00  13.61 2589.60
   14:18:16.029.09-Sep-2020 5408.01 6282.34 75.32 16.00  13.81 2589.60
   14:18:16.229.09-Sep-2020 5408.01 6282.12 75.32 16.00  14.01 2589.60
   14:18:16.429.09-Sep-2020 5408.01 6282.12 75.32 16.00  14.21 2589.60
   14:18:16.629.09-Sep-2020 5408.01 6282.93 75.32 16.00  14.41 2589.60
   14:18:16.829.09-Sep-2020 5408.01 6283.09 75.32 16.00  14.61 2589.60
   14:18:17.030.09-Sep-2020 5408.01 6283.04 75.32 16.00  14.81 2589.60
   14:18:17.230.09-Sep-2020 5408.01 6286.91 75.32 16.00  15.01 2589.60
   14:18:17.430.09-Sep-2020 5408.01 6286.91 75.32 16.00  15.21 2589.60
   14:18:17.630.09-Sep-2020 5408.01 6282.35 75.32 16.00  15.41 2589.60
   14:18:17.830.09-Sep-2020 5408.01 6286.15 75.32 16.00  15.61 2589.60
   14:18:18.030.09-Sep-2020 5408.01 6283.36 75.32 16.00  15.81 2589.60
   14:18:18.230.09-Sep-2020 5408.01 6285.62 75.32 16.00  16.01 2589.60
   14:18:18.430.09-Sep-2020 5408.01 6283.90 75.32 16.00  16.21 2589.60
   14:18:18.631.09-Sep-2020 5408.01 6290.63 75.32 16.00  16.41 2589.60
   14:18:18.831.09-Sep-2020 5408.01 6284.38 75.32 16.00  16.61 2589.60
   14:18:19.031.09-Sep-2020 5408.01 6288.80 75.32 16.00  16.81 2589.60
   14:18:19.231.09-Sep-2020 5408.01 6285.62 75.32 16.00  17.01 2589.60
   14:18:19.431.09-Sep-2020 5408.01 6285.62 75.32 16.00  17.21 2589.60
   14:18:19.631.09-Sep-2020 5408.01 6286.57 75.32 16.00  17.41 2589.60
   14:18:19.831.09-Sep-2020 5408.01 6294.56 75.32 16.00  17.61 2589.60
   14:18:20.031.09-Sep-2020 5408.01 6285.17 75.32 16.00  17.81 2589.60
   14:18:20.232.09-Sep-2020 5408.01 6289.04 75.32 16.00  18.01 2589.60
   14:18:20.432.09-Sep-2020 5408.01 6289.04 75.32 16.00  18.21 2589.60
   14:18:20.632.09-Sep-2020 5408.01 6288.89 75.32 16.00  18.41 2589.60
   14:18:20.832.09-Sep-2020 5408.01 6289.92 75.32 16.00  18.61 2589.60
   14:18:21.032.09-Sep-2020 5408.01 6297.23 75.32 16.00  18.81 2589.60
   14:18:21.232.09-Sep-2020 5408.01 6288.00 75.32 16.00  19.01 2589.60
   14:18:21.432.09-Sep-2020 5408.01 6292.06 75.32 16.00  19.21 2589.60
   14:18:21.632.09-Sep-2020 5408.01 6291.18 75.32 16.00  19.41 2589.60
   14:18:21.833.09-Sep-2020 5408.01 6300.84 75.32 16.00  19.61 2589.60
   14:18:22.033.09-Sep-2020 5408.01 6289.94 75.32 16.00  19.81 2589.60
   14:18:22.233.09-Sep-2020 5408.01 6291.69 75.32 16.00  20.01 2589.60
   14:18:22.433.09-Sep-2020 5408.01 6291.69 75.32 16.00  20.21 2589.60
   14:18:22.633.09-Sep-2020 5408.01 6293.61 75.32 16.00  20.41 2589.60
   14:18:22.833.09-Sep-2020 5408.01 6295.62 75.32 16.00  20.61 2589.60
   14:18:23.033.09-Sep-2020 5408.01 6302.32 75.32 16.00  20.81 2589.60
   14:18:23.233.09-Sep-2020 5408.01 6291.86 75.32 16.00  21.01 2589.60
   14:18:23.434.09-Sep-2020 5408.01 6291.86 75.32 16.00  21.21 2589.60
   14:18:23.634.09-Sep-2020 5408.01 6297.13 75.32 16.00  21.41 2589.60
   14:18:23.834.09-Sep-2020 5408.01 6296.08 75.32 16.00  21.61 2589.60
   14:18:24.034.09-Sep-2020 5408.01 6297.21 75.32 16.00  21.81 2589.60
   14:18:24.234.09-Sep-2020 5408.01 6295.24 75.32 16.00  22.01 2589.60
   14:18:24.434.09-Sep-2020 5408.01 6295.24 75.32 16.00  22.21 2589.60
   14:18:24.634.09-Sep-2020 5408.01 6296.75 75.32 16.00  22.41 2589.60
