~Version Information
 VERS.                  2.0:   CWLS log ASCII Standard -VERSION 2.0
 WRAP.                   NO:   One line per depth step
~Well Information Block
#MNEM.UNIT     VALUE/NAME     DESCRIPTION
#---------     -----------    ---------------------------
 STRT.S             21:21:48 09-Sep-20: START TIME 21:21:48 09-Sep-20
 STOP.S             21:29:57 09-Sep-20: STOP TIME  21:29:57 09-Sep-20
 STEP.S                   0.00: STEP TIME
 NULL.                 -999.25: NULL VALUE
 MDS .        Operator Entered:  MAG DATA SOURCE
 PDAT.          Mean Sea Level:  PERMANENT DATUM
 DCON.         Sperry Drilling:  DIRECTNL CONTR
 RIG .              West Azeri:  RIG NAME
 WELL.           C40 (Slot 20):  WELL NAME
 SRVC.     Turan Drilling Engineering:  CONTRACTOR
 FLD .                     ACG:  FIELD NAME
 CTRY.              Azerbaijan:  COUNTRY NAME
 PROV.                    Baku:  PROVINCE
 STAT.                    Baku:  STATE NAME
 REGN.                   EESSA:  REGION
 BASE.              Azerbaijan:  LOGGING EQUIPMENT BASE LOCATION
 COMP.     BP Exploration (Caspian Sea) Ltd:  COMPANY
 WTYP.                Deviated:  WELL TYPE
 SON .        AZ-XX-0906344804:  JOB NUMBER
 FTOP.          Formation Tops:  FORM TOPS DESC
 ILTD.               Lithology:  INTERP LTH DESC
 SVYD.                  Survey:  SURVEY DESC
 DMOD.             Drill Model:  DRILL MOD DESC
 HPTY.       Minimum Curvature:  HOLE POS TYPE
 NREF.                    Grid:  NORTH REFERENCE
 SPUD.               01-Jan-20:  SPUD DATE
 DATE.      00.59.44 15-Sep-20:  END TIME
 STIM.      12.00.00 12-Jun-20:  START TIME
 DMF .             Drill Floor:  DRILL MEAS FROM
 DFST.                        :  DIST FSL TEXT
 DFWT.                        :  DIST FWL TEXT
 API .                        :  API NUMBER
 CNTY.                        :  COUNTY
 UWI .                        :  UNIQUE WELL IDENTIFIER
 LOC .                        :  LOCATION
 LMF .             Drill Floor:  LOG MEASURED FROM
 VSNS.m                   2.88:  VERT SEC N/S
 VSEW.m                  -3.84:  VERT SEC E/W
 AGAP.m                  43.42:  AIR GAP
 APD .m                  43.42:  DEPTH ABOVE PD
 WDMS.m                 118.27:  WD ELEV
 EGL .m                   0.00:  GROUND ELEVATION
 EPD .m                   0.00:  ELEVATION
 AZTC.deg                 6.23:  AZM TOTAL CORR
 GRDC.deg                 0.20:  GRID CORRECTION
 MDEC.deg                 6.43:  MAGNETIC DECL
 MDIP.deg                59.49:  MAGNETIC DIP
 MFLD.nT              50277.00:  MAGNETIC FIELD
 GVFD.g                   1.00:  GRAVITY FIELD
 VSDR.deg               173.20:  VERT SEC DIRECT
 TDD .m                5790.01:  TOTAL DEPTH (DRILLER)
 SDEP.m                5231.01:  START DEPTH
 DFSL.m                   0.00:  DISTANCE FSL
 DFWL.m                   0.00:  DISTANCE FWL
 UTMY.m             4435808.83:  UTM Y
 UTMX.m              526266.40:  UTM X
 WHEW.m                  -3.84:  WELL HEAD E/W
 WHNS.m                   2.88:  WELL HEAD N/S
 LONG.deg                51.31:  LONGITUDE
 LATI.deg                40.06:  LATITUDE
 TVDS.m                  43.42:  TVDSS CORRECTN
 DEP .m                 430.08:  DEPTH
 EKB .m                  43.42:  KB ELEVATION
 EDF .m                  43.42:  DF ELEVATION
 TDL .m                 559.00:  TOTAL DEPTH (LOGGER)
 MAGU.                 1849381:  MAGUTM CHECKSUM
 VSC .                       0:  VS TO CLOSURE
~Parameter Information Block
#MNEM.UNIT       Value        Description
#---------     -----------    ---------------------------
 AV  .mps                 4.87:  Ann Velocity 
 AVMX.mps                 7.08:  Max Ann Veloc 
 AZIF.deg               108.87:  Azm, Final 
 BHAT.                  Rotary:  BHA Type 
 BROT.°/30m               0.35:  Build Rotating 
 BS  .in                  8.50:  Bit Size 
 BSZ .in                  8.50:  Bit Size 
 BTPL.psig              360.00:  Bit Press Loss 
 CABU.                     Yes:  Customer Abuse 
 COMM.                     ¼¥|:  Run Comments 1 
 TCS .hr                106.24:  Time Ciculation Ended 
 CV  .mps                 1.77:  Crit Velocity 
 CVMX.mps                 2.03:  Max Crit Veloc 
 DD1 .         Aykhan Agagulov:  Direct Drillr 1 
 DD2 .            Nonso Okofor:  Direct Drillr 2 
 DDSV.               Geo-Pilot:  DD Service 
 DEFF.%                  98.00:  % Det Eff 
 DLRX.°/30m               0.50:  Dogleg Rot Max 
 DLSO.°/30m               0.40:  Dogleg Oriented 
 DLSX.°/30m               0.94:  Dogleg Str Max 
 DRET.      20.30.00 08-Sep-20:  Drill End Time 
 DRST.      22.15.00 06-Sep-20:  Drill Start Tim 
 DTIM.hr                 31.31:  Time Drilling 
 EDEP.m                5790.01:  End Depth 
 ENG1.           Amrah Tahirov:  Engineer 1 
 ENG2.         Dair Mahammadov:  Engineer 2 
 ENG3.           Emil Huseynov:  Engineer 3 
 ETIM.      04.01.04 12-Sep-20:  End Time 
 FLOI.gpm               450.00:  Flow In 
 FLON.gpm               450.00:  Flow In Min 
 FLOS.cptm                2.00:  Fluid Loss 
 FLOX.gpm               450.00:  Flow In Max 
 FTRO.       Formation Presure:  FTWD Run Obj 
 HFLO.                      No:  High Flow 
 HPRE.                      No:  High Pressure 
 HTEM.                      No:  High Temp 
 HYDO.m                   1.80:  Hydro Offset 
 IFIN.deg                72.03:  Inc, Final 
 IMAX.deg                73.72:  Inc Max 
 IMIN.deg                70.94:  Inc Min 
 IMND.m                5508.52:  Inc Min Depth 
 IMXD.m                5253.60:  Inc Max Depth 
 JARR.                      No:  Jarring 
 LETM.      20.30.00 08-Sep-20:  Log End Time 
 LOST.hr                     0:  Lost Rig Time 
 LSTM.      22.15.00 06-Sep-20:  Log Start Time 
 MDCL.ppm             36000.00:  Mud Chlorides 
 MDES.     Inversion Oil/Synthetic:  Mud Desc 
 DFD .sg                  1.44:  Mud Density 
 MDMN.sg                  1.44:  Dens Mud Min 
 MDMX.sg                  1.57:  Dens Mud Max 
 MOIL.                      70:  Run Mud Oil % 
 MOWR.                   70:30:  Run Mud OWR 
 MSND.                       0:  Run Mud Sand % 
 MSOL.                      21:  Run Mud Solids% 
 DFV .spqt               68.00:  Mud Viscosity 
 MWOD.in                  6.75:  MWD Tool OD 
 MWSI.                     Yes:  Serv Intrp, MWD 
 OTIM.hr                174.84:  Time Operating 
 PCON.           Look Like New:  Pad Condition 
 PMAX.psia            10616.93:  Press Op, Max 
 PV  .cP                 50.00:  Mud PV 
 RUN .                     700:  Run Number 
 ROPA.m/hr               14.24:  ROP Avg 
 ROPN.m/hr               10.00:  ROP Min 
 ROPX.m/hr               32.00:  ROP Max 
 RPMA.rpm               120.90:  RPM Surface Avg 
 RPMN.rpm               120.00:  RPM Surface Min 
 RPMX.rpm               140.00:  RPM Surface Max 
 RRUN.                    0700:  Rig Run Number 
 RTIM.hr                  3.20:  Time Reaming 
 SAZI.deg               109.99:  Azm, Start 
 SDEP.m                5231.01:  Start Depth 
 SIDD.                      No:  Serv Intrp, DD 
 SINC.deg                73.72:  Inc, Start 
 SPPA.psig             3051.00:  SPP Avg 
 SPPN.psig             2950.00:  SPP Min 
 SPPX.psig             3250.00:  SPP Max 
 STIM.      08.00.00 05-Sep-20:  Start Time 
 SVCS.                 DD, MWD:  Services 
 SVER.                    9.20:  Sperry Version 
 TDAT.m                 559.00:  Tot Depth Attmp 
 TDDF.                      No:  Trip for DD 
 TDLG.m                 559.00:  Tot Depth Loggd 
 TFF .                      No:  Trip for Fail 
 TQAA.f-kp               26.49:  Torque Abs Avg 
 TQAN.f-kp               25.00:  Torque Abs Min 
 TQAX.f-kp               27.00:  Torque Abs Max 
 TRRT.°/30m               1.50:  Turn Rotating 
 MRT .                    HCIM:  Maximum Recorded Temperature 
 TTMX.degC               90.20:  Max Tool Temp 
 VS01.                90542671:  Virtual Str1 SN 
 VS02.                90545185:  Virtual Str2 SN 
 VS03.                90602015:  Virtual Str3 SN 
 VS04.                90515230:  Virtual Str4 SN 
 WBMN.klb                 5.00:  WOB Min 
 WOBA.klb                14.79:  WOB Avg 
 WOBX.klb                20.00:  WOB Max 
 YP  .lhf2               29.00:  Yield Point 
~Curve Information Block
#MNEM.UNIT                 API CODE     Curve Description
#---------               -----------    ---------------------------
 TIME.HHMMSS            00 000 000 000:  GT Time & Date
 GTDEPTH.m              00 000 000 000:  GT Depth
 GTPQH.psia             00 000 000 000:  GT HR Quartz Pressure
 GTTQ.degC              00 000 000 000:  GT Quartz Temperature
 GTTN.NONE              00 000 000 000:  GT Test Number
 GTET.sec               00 000 000 000:  GT Elapsed Test Time
 GTTVD.m                00 000 000 000:  GT True Vertical Depth
#Other Information
#
#WARRANTY: Halliburton will use its best efforts to furnish customers with 
#accurate information and interpretations that are part of, and incident to, the services 
#provided.  However, Halliburton cannot and does not warrant the accuracy 
#or correctness of such information and interpretations.  Under no circumstances should any 
#such information or interpretation be relied upon as the sole basis for any drilling, 
#completion, production, or financial decision or any procedure involving any risk to the 
#safety of any drilling venture, drilling rig or its crew or any other third party.  The 
#Customer has full responsibility for all drilling, completion and production operation.  
#Halliburton makes no representations or warranties, either expressed or 
#implied, including, but not limited to, the implied warranties of merchantability or fitness 
#for a particular purpose, with respect to the services rendered.  In no event will 
#Halliburton be liable for failure to obtain any particular results or for 
#any damages, including, but not limited to, indirect, special or consequential damages, 
#resulting from the use of any information or interpretation provided by Halliburton.
#
~A           TIME           GTDEPTH  GTPQH  GTTQ  GTTN   GTET   GTTVD  
# ...
   21:27:04.863.09-Sep-2020 5252.22  262.92 73.47 26.00 316.55 2542.36
   21:27:05.063.09-Sep-2020 5252.22  262.25 73.47 26.00 316.75 2542.36
   21:27:05.263.09-Sep-2020 5252.22  261.64 73.47 26.00 316.95 2542.36
   21:27:05.463.09-Sep-2020 5252.22  255.90 73.46 26.00 317.15 2542.36
   21:27:05.663.09-Sep-2020 5252.22  255.90 73.46 26.00 317.35 2542.36
   21:27:05.863.09-Sep-2020 5252.22  254.15 73.46 26.00 317.55 2542.36
   21:27:06.063.09-Sep-2020 5252.22  241.85 73.46 26.00 317.75 2542.36
   21:27:06.263.09-Sep-2020 5252.22  235.88 73.46 26.00 317.95 2542.36
   21:27:06.463.09-Sep-2020 5252.22  234.14 73.46 26.00 318.15 2542.36
   21:27:06.663.09-Sep-2020 5252.22  230.62 73.46 26.00 318.35 2542.36
   21:27:06.864.09-Sep-2020 5252.22  231.10 73.46 26.00 318.55 2542.36
   21:27:07.064.09-Sep-2020 5252.22  231.75 73.46 26.00 318.75 2542.36
   21:27:07.264.09-Sep-2020 5252.22  232.11 73.46 26.00 318.95 2542.36
   21:27:07.464.09-Sep-2020 5252.22  232.07 73.46 26.00 319.15 2542.36
   21:27:07.664.09-Sep-2020 5252.22  230.27 73.46 26.00 319.35 2542.36
   21:27:07.864.09-Sep-2020 5252.22  224.59 73.46 26.00 319.55 2542.36
   21:27:08.064.09-Sep-2020 5252.22  224.01 73.46 26.00 319.75 2542.36
   21:27:08.264.09-Sep-2020 5252.22  222.56 73.46 26.00 319.95 2542.36
   21:27:08.464.09-Sep-2020 5252.22  219.53 73.46 26.00 320.15 2542.36
   21:27:08.664.09-Sep-2020 5252.22  219.53 73.46 26.00 320.35 2542.36
   21:27:08.864.09-Sep-2020 5252.22  219.77 73.46 26.00 320.55 2542.36
   21:27:09.065.09-Sep-2020 5252.22  220.23 73.46 26.00 320.75 2542.36
   21:27:09.265.09-Sep-2020 5252.22  220.59 73.46 26.00 320.95 2542.36
   21:27:09.465.09-Sep-2020 5252.22  220.75 73.46 26.00 321.15 2542.36
   21:27:09.665.09-Sep-2020 5252.22  220.75 73.46 26.00 321.35 2542.36
   21:27:09.865.09-Sep-2020 5252.22  221.52 73.46 26.00 321.55 2542.36
   21:27:10.065.09-Sep-2020 5252.22  220.07 73.46 26.00 321.75 2542.36
   21:27:10.265.09-Sep-2020 5252.22  217.32 73.46 26.00 321.95 2542.36
   21:27:10.465.09-Sep-2020 5252.22  217.05 73.46 26.00 322.15 2542.36
   21:27:10.665.09-Sep-2020 5252.22  217.58 73.46 26.00 322.35 2542.36
   21:27:10.865.09-Sep-2020 5252.22  217.89 73.46 26.00 322.55 2542.36
   21:27:11.066.09-Sep-2020 5252.22  215.93 73.46 26.00 322.75 2542.36
   21:27:11.266.09-Sep-2020 5252.22  215.33 73.46 26.00 322.95 2542.36
   21:27:11.466.09-Sep-2020 5252.22  215.76 73.46 26.00 323.15 2542.36
   21:27:11.666.09-Sep-2020 5252.22  214.78 73.46 26.00 323.35 2542.36
   21:27:11.866.09-Sep-2020 5252.22  214.22 73.46 26.00 323.55 2542.36
   21:27:12.066.09-Sep-2020 5252.22  214.71 73.46 26.00 323.75 2542.36
   21:27:12.266.09-Sep-2020 5252.22  215.64 73.46 26.00 323.95 2542.36
   21:27:12.466.09-Sep-2020 5252.22  217.95 73.46 26.00 324.15 2542.36
   21:27:12.666.09-Sep-2020 5252.22  219.55 73.46 26.00 324.35 2542.36
   21:27:12.866.09-Sep-2020 5252.22  221.48 73.46 26.00 324.55 2542.36
   21:27:13.066.09-Sep-2020 5252.22  223.36 73.46 26.00 324.75 2542.36
   21:27:13.267.09-Sep-2020 5252.22  226.19 73.46 26.00 324.95 2542.36
   21:27:13.467.09-Sep-2020 5252.22  226.86 73.46 26.00 325.15 2542.36
   21:27:13.667.09-Sep-2020 5252.22  226.86 73.46 26.00 325.35 2542.36
   21:27:13.867.09-Sep-2020 5252.22  226.88 73.46 26.00 325.55 2542.36
   21:27:14.067.09-Sep-2020 5252.22  227.95 73.46 26.00 325.75 2542.36
   21:27:14.267.09-Sep-2020 5252.22  229.14 73.46 26.00 325.95 2542.36
   21:27:14.467.09-Sep-2020 5252.22  230.51 73.46 26.00 326.15 2542.36
   21:27:14.667.09-Sep-2020 5252.22  231.37 73.46 26.00 326.35 2542.36
   21:27:14.867.09-Sep-2020 5252.22  232.35 73.46 26.00 326.55 2542.36
   21:27:15.067.09-Sep-2020 5252.22  232.82 73.46 26.00 326.75 2542.36
   21:27:15.267.09-Sep-2020 5252.22  235.03 73.46 26.00 326.95 2542.36
   21:27:15.468.09-Sep-2020 5252.22  235.51 73.46 26.00 327.15 2542.36
   21:27:15.668.09-Sep-2020 5252.22  235.94 73.46 26.00 327.35 2542.36
   21:27:15.868.09-Sep-2020 5252.22  235.92 73.46 26.00 327.55 2542.36
   21:27:16.068.09-Sep-2020 5252.22  237.06 73.46 26.00 327.75 2542.36
   21:27:16.268.09-Sep-2020 5252.22  237.20 73.46 26.00 327.95 2542.36
   21:27:16.468.09-Sep-2020 5252.22  237.50 73.46 26.00 328.15 2542.36
   21:27:16.668.09-Sep-2020 5252.22  237.78 73.46 26.00 328.35 2542.36
   21:27:16.868.09-Sep-2020 5252.22  238.18 73.46 26.00 328.55 2542.36
   21:27:17.068.09-Sep-2020 5252.22  238.43 73.46 26.00 328.75 2542.36
   21:27:17.268.09-Sep-2020 5252.22  238.70 73.46 26.00 328.95 2542.36
   21:27:17.468.09-Sep-2020 5252.22  238.98 73.46 26.00 329.15 2542.36
   21:27:17.669.09-Sep-2020 5252.22  239.24 73.46 26.00 329.35 2542.36
   21:27:17.869.09-Sep-2020 5252.22  239.53 73.46 26.00 329.55 2542.36
   21:27:18.069.09-Sep-2020 5252.22  239.79 73.46 26.00 329.75 2542.36
   21:27:18.269.09-Sep-2020 5252.22  240.05 73.46 26.00 329.95 2542.36
   21:27:18.469.09-Sep-2020 5252.22  240.28 73.46 26.00 330.15 2542.36
   21:27:18.669.09-Sep-2020 5252.22  240.52 73.46 26.00 330.35 2542.36
   21:27:18.869.09-Sep-2020 5252.22  240.78 73.46 26.00 330.55 2542.36
   21:27:19.069.09-Sep-2020 5252.22  241.04 73.46 26.00 330.75 2542.36
   21:27:19.269.09-Sep-2020 5252.22  241.29 73.46 26.00 330.95 2542.36
   21:27:19.469.09-Sep-2020 5252.22  241.06 73.46 26.00 331.15 2542.36
   21:27:19.669.09-Sep-2020 5252.22  241.93 73.46 26.00 331.35 2542.36
   21:27:19.870.09-Sep-2020 5252.22  242.02 73.46 26.00 331.55 2542.36
   21:27:20.070.09-Sep-2020 5252.22  242.24 73.46 26.00 331.75 2542.36
   21:27:20.270.09-Sep-2020 5252.22  242.44 73.46 26.00 331.95 2542.36
   21:27:20.470.09-Sep-2020 5252.22  242.78 73.46 26.00 332.15 2542.36
   21:27:20.670.09-Sep-2020 5252.22  242.78 73.46 26.00 332.35 2542.36
   21:27:20.870.09-Sep-2020 5252.22  243.17 73.46 26.00 332.55 2542.36
   21:27:21.070.09-Sep-2020 5252.22  243.40 73.46 26.00 332.75 2542.36
   21:27:21.270.09-Sep-2020 5252.22  243.61 73.46 26.00 332.95 2542.36
   21:27:21.470.09-Sep-2020 5252.22  243.85 73.46 26.00 333.15 2542.36
   21:27:21.670.09-Sep-2020 5252.22  244.03 73.46 26.00 333.35 2542.36
   21:27:21.870.09-Sep-2020 5252.22  244.24 73.46 26.00 333.55 2542.36
   21:27:22.071.09-Sep-2020 5252.22  244.44 73.46 26.00 333.75 2542.36
   21:27:22.271.09-Sep-2020 5252.22  244.68 73.46 26.00 333.95 2542.36
   21:27:22.471.09-Sep-2020 5252.22  244.90 73.46 26.00 334.15 2542.36
   21:27:22.671.09-Sep-2020 5252.22  244.65 73.46 26.00 334.35 2542.36
   21:27:22.871.09-Sep-2020 5252.22  245.46 73.46 26.00 334.55 2542.36
   21:27:23.071.09-Sep-2020 5252.22  245.51 73.46 26.00 334.75 2542.36
   21:27:23.271.09-Sep-2020 5252.22  245.69 73.46 26.00 334.95 2542.36
   21:27:23.471.09-Sep-2020 5252.22  245.86 73.46 26.00 335.15 2542.36
   21:27:23.671.09-Sep-2020 5252.22  246.15 73.46 26.00 335.35 2542.36
   21:27:23.871.09-Sep-2020 5252.22  245.97 73.46 26.00 335.55 2542.36
   21:27:24.071.09-Sep-2020 5252.22  246.53 73.46 26.00 335.75 2542.36
   21:27:24.272.09-Sep-2020 5252.22  246.73 73.46 26.00 335.95 2542.36
   21:27:24.472.09-Sep-2020 5252.22  246.90 73.46 26.00 336.15 2542.36
   21:27:24.672.09-Sep-2020 5252.22  247.15 73.46 26.00 336.36 2542.36
   21:27:24.872.09-Sep-2020 5252.22  247.38 73.46 26.00 336.56 2542.36
   21:27:25.072.09-Sep-2020 5252.22  247.27 73.46 26.00 336.76 2542.36
   21:27:25.272.09-Sep-2020 5252.22  247.65 73.46 26.00 336.96 2542.36
   21:27:25.472.09-Sep-2020 5252.22  247.94 73.46 26.00 337.16 2542.36
   21:27:25.672.09-Sep-2020 5252.22  248.12 73.46 26.00 337.36 2542.36
   21:27:25.872.09-Sep-2020 5252.22  248.33 73.46 26.00 337.56 2542.36
   21:27:26.072.09-Sep-2020 5252.22  248.58 73.46 26.00 337.76 2542.36
   21:27:26.273.09-Sep-2020 5252.22  248.70 73.46 26.00 337.96 2542.36
   21:27:26.473.09-Sep-2020 5252.22  248.91 73.46 26.00 338.16 2542.36
   21:27:26.673.09-Sep-2020 5252.22  248.83 73.46 26.00 338.36 2542.36
   21:27:26.873.09-Sep-2020 5252.22  249.30 73.46 26.00 338.56 2542.36
   21:27:27.073.09-Sep-2020 5252.22  249.51 73.46 26.00 338.76 2542.36
   21:27:27.273.09-Sep-2020 5252.22  249.68 73.46 26.00 338.96 2542.36
