~Version Information
 VERS.                  2.0:   CWLS log ASCII Standard -VERSION 2.0
 WRAP.                   NO:   One line per depth step
~Well Information Block
#MNEM.UNIT     VALUE/NAME     DESCRIPTION
#---------     -----------    ---------------------------
 STRT.S             08:13:58 09-Sep-20: START TIME 08:13:58 09-Sep-20
 STOP.S             08:20:59 09-Sep-20: STOP TIME  08:20:59 09-Sep-20
 STEP.S                   0.00: STEP TIME
 NULL.                 -999.25: NULL VALUE
 MDS .        Operator Entered:  MAG DATA SOURCE
 PDAT.          Mean Sea Level:  PERMANENT DATUM
 DCON.         Sperry Drilling:  DIRECTNL CONTR
 RIG .              West Azeri:  RIG NAME
 WELL.           C40 (Slot 20):  WELL NAME
 SRVC.     Turan Drilling Engineering:  CONTRACTOR
 FLD .                     ACG:  FIELD NAME
 CTRY.              Azerbaijan:  COUNTRY NAME
 PROV.                    Baku:  PROVINCE
 STAT.                    Baku:  STATE NAME
 REGN.                   EESSA:  REGION
 BASE.              Azerbaijan:  LOGGING EQUIPMENT BASE LOCATION
 COMP.     BP Exploration (Caspian Sea) Ltd:  COMPANY
 WTYP.                Deviated:  WELL TYPE
 SON .        AZ-XX-0906344804:  JOB NUMBER
 FTOP.          Formation Tops:  FORM TOPS DESC
 ILTD.               Lithology:  INTERP LTH DESC
 SVYD.                  Survey:  SURVEY DESC
 DMOD.             Drill Model:  DRILL MOD DESC
 HPTY.       Minimum Curvature:  HOLE POS TYPE
 NREF.                    Grid:  NORTH REFERENCE
 SPUD.               01-Jan-20:  SPUD DATE
 DATE.      00.59.44 15-Sep-20:  END TIME
 STIM.      12.00.00 12-Jun-20:  START TIME
 DMF .             Drill Floor:  DRILL MEAS FROM
 DFST.                        :  DIST FSL TEXT
 DFWT.                        :  DIST FWL TEXT
 API .                        :  API NUMBER
 CNTY.                        :  COUNTY
 UWI .                        :  UNIQUE WELL IDENTIFIER
 LOC .                        :  LOCATION
 LMF .             Drill Floor:  LOG MEASURED FROM
 VSNS.m                   2.88:  VERT SEC N/S
 VSEW.m                  -3.84:  VERT SEC E/W
 AGAP.m                  43.42:  AIR GAP
 APD .m                  43.42:  DEPTH ABOVE PD
 WDMS.m                 118.27:  WD ELEV
 EGL .m                   0.00:  GROUND ELEVATION
 EPD .m                   0.00:  ELEVATION
 AZTC.deg                 6.23:  AZM TOTAL CORR
 GRDC.deg                 0.20:  GRID CORRECTION
 MDEC.deg                 6.43:  MAGNETIC DECL
 MDIP.deg                59.49:  MAGNETIC DIP
 MFLD.nT              50277.00:  MAGNETIC FIELD
 GVFD.g                   1.00:  GRAVITY FIELD
 VSDR.deg               173.20:  VERT SEC DIRECT
 TDD .m                5790.01:  TOTAL DEPTH (DRILLER)
 SDEP.m                5231.01:  START DEPTH
 DFSL.m                   0.00:  DISTANCE FSL
 DFWL.m                   0.00:  DISTANCE FWL
 UTMY.m             4435808.83:  UTM Y
 UTMX.m              526266.40:  UTM X
 WHEW.m                  -3.84:  WELL HEAD E/W
 WHNS.m                   2.88:  WELL HEAD N/S
 LONG.deg                51.31:  LONGITUDE
 LATI.deg                40.06:  LATITUDE
 TVDS.m                  43.42:  TVDSS CORRECTN
 DEP .m                 430.08:  DEPTH
 EKB .m                  43.42:  KB ELEVATION
 EDF .m                  43.42:  DF ELEVATION
 TDL .m                 559.00:  TOTAL DEPTH (LOGGER)
 MAGU.                 1849381:  MAGUTM CHECKSUM
 VSC .                       0:  VS TO CLOSURE
~Parameter Information Block
#MNEM.UNIT       Value        Description
#---------     -----------    ---------------------------
 AV  .mps                 4.87:  Ann Velocity 
 AVMX.mps                 7.08:  Max Ann Veloc 
 AZIF.deg               108.87:  Azm, Final 
 BHAT.                  Rotary:  BHA Type 
 BROT.°/30m               0.35:  Build Rotating 
 BS  .in                  8.50:  Bit Size 
 BSZ .in                  8.50:  Bit Size 
 BTPL.psig              360.00:  Bit Press Loss 
 CABU.                     Yes:  Customer Abuse 
 COMM.                     t›a:  Run Comments 1 
 TCS .hr                106.24:  Time Ciculation Ended 
 CV  .mps                 1.77:  Crit Velocity 
 CVMX.mps                 2.03:  Max Crit Veloc 
 DD1 .         Aykhan Agagulov:  Direct Drillr 1 
 DD2 .            Nonso Okofor:  Direct Drillr 2 
 DDSV.               Geo-Pilot:  DD Service 
 DEFF.%                  98.00:  % Det Eff 
 DLRX.°/30m               0.50:  Dogleg Rot Max 
 DLSO.°/30m               0.40:  Dogleg Oriented 
 DLSX.°/30m               0.94:  Dogleg Str Max 
 DRET.      20.30.00 08-Sep-20:  Drill End Time 
 DRST.      22.15.00 06-Sep-20:  Drill Start Tim 
 DTIM.hr                 31.31:  Time Drilling 
 EDEP.m                5790.01:  End Depth 
 ENG1.           Amrah Tahirov:  Engineer 1 
 ENG2.         Dair Mahammadov:  Engineer 2 
 ENG3.           Emil Huseynov:  Engineer 3 
 ETIM.      04.01.04 12-Sep-20:  End Time 
 FLOI.gpm               450.00:  Flow In 
 FLON.gpm               450.00:  Flow In Min 
 FLOS.cptm                2.00:  Fluid Loss 
 FLOX.gpm               450.00:  Flow In Max 
 FTRO.       Formation Presure:  FTWD Run Obj 
 HFLO.                      No:  High Flow 
 HPRE.                      No:  High Pressure 
 HTEM.                      No:  High Temp 
 HYDO.m                   1.80:  Hydro Offset 
 IFIN.deg                72.03:  Inc, Final 
 IMAX.deg                73.72:  Inc Max 
 IMIN.deg                70.94:  Inc Min 
 IMND.m                5508.52:  Inc Min Depth 
 IMXD.m                5253.60:  Inc Max Depth 
 JARR.                      No:  Jarring 
 LETM.      20.30.00 08-Sep-20:  Log End Time 
 LOST.hr                     0:  Lost Rig Time 
 LSTM.      22.15.00 06-Sep-20:  Log Start Time 
 MDCL.ppm             36000.00:  Mud Chlorides 
 MDES.     Inversion Oil/Synthetic:  Mud Desc 
 DFD .sg                  1.44:  Mud Density 
 MDMN.sg                  1.44:  Dens Mud Min 
 MDMX.sg                  1.57:  Dens Mud Max 
 MOIL.                      70:  Run Mud Oil % 
 MOWR.                   70:30:  Run Mud OWR 
 MSND.                       0:  Run Mud Sand % 
 MSOL.                      21:  Run Mud Solids% 
 DFV .spqt               68.00:  Mud Viscosity 
 MWOD.in                  6.75:  MWD Tool OD 
 MWSI.                     Yes:  Serv Intrp, MWD 
 OTIM.hr                174.84:  Time Operating 
 PCON.           Look Like New:  Pad Condition 
 PMAX.psia            10616.93:  Press Op, Max 
 PV  .cP                 50.00:  Mud PV 
 RUN .                     700:  Run Number 
 ROPA.m/hr               14.24:  ROP Avg 
 ROPN.m/hr               10.00:  ROP Min 
 ROPX.m/hr               32.00:  ROP Max 
 RPMA.rpm               120.90:  RPM Surface Avg 
 RPMN.rpm               120.00:  RPM Surface Min 
 RPMX.rpm               140.00:  RPM Surface Max 
 RRUN.                    0700:  Rig Run Number 
 RTIM.hr                  3.20:  Time Reaming 
 SAZI.deg               109.99:  Azm, Start 
 SDEP.m                5231.01:  Start Depth 
 SIDD.                      No:  Serv Intrp, DD 
 SINC.deg                73.72:  Inc, Start 
 SPPA.psig             3051.00:  SPP Avg 
 SPPN.psig             2950.00:  SPP Min 
 SPPX.psig             3250.00:  SPP Max 
 STIM.      08.00.00 05-Sep-20:  Start Time 
 SVCS.                 DD, MWD:  Services 
 SVER.                    9.20:  Sperry Version 
 TDAT.m                 559.00:  Tot Depth Attmp 
 TDDF.                      No:  Trip for DD 
 TDLG.m                 559.00:  Tot Depth Loggd 
 TFF .                      No:  Trip for Fail 
 TQAA.f-kp               26.49:  Torque Abs Avg 
 TQAN.f-kp               25.00:  Torque Abs Min 
 TQAX.f-kp               27.00:  Torque Abs Max 
 TRRT.°/30m               1.50:  Turn Rotating 
 MRT .                    HCIM:  Maximum Recorded Temperature 
 TTMX.degC               90.20:  Max Tool Temp 
 VS01.                90542671:  Virtual Str1 SN 
 VS02.                90545185:  Virtual Str2 SN 
 VS03.                90602015:  Virtual Str3 SN 
 VS04.                90515230:  Virtual Str4 SN 
 WBMN.klb                 5.00:  WOB Min 
 WOBA.klb                14.79:  WOB Avg 
 WOBX.klb                20.00:  WOB Max 
 YP  .lhf2               29.00:  Yield Point 
~Curve Information Block
#MNEM.UNIT                 API CODE     Curve Description
#---------               -----------    ---------------------------
 TIME.HHMMSS            00 000 000 000:  GT Time & Date
 GTDEPTH.m              00 000 000 000:  GT Depth
 GTPQH.psia             00 000 000 000:  GT HR Quartz Pressure
 GTTQ.degC              00 000 000 000:  GT Quartz Temperature
 GTTN.NONE              00 000 000 000:  GT Test Number
 GTET.sec               00 000 000 000:  GT Elapsed Test Time
 GTTVD.m                00 000 000 000:  GT True Vertical Depth
#Other Information
#
#WARRANTY: Halliburton will use its best efforts to furnish customers with 
#accurate information and interpretations that are part of, and incident to, the services 
#provided.  However, Halliburton cannot and does not warrant the accuracy 
#or correctness of such information and interpretations.  Under no circumstances should any 
#such information or interpretation be relied upon as the sole basis for any drilling, 
#completion, production, or financial decision or any procedure involving any risk to the 
#safety of any drilling venture, drilling rig or its crew or any other third party.  The 
#Customer has full responsibility for all drilling, completion and production operation.  
#Halliburton makes no representations or warranties, either expressed or 
#implied, including, but not limited to, the implied warranties of merchantability or fitness 
#for a particular purpose, with respect to the services rendered.  In no event will 
#Halliburton be liable for failure to obtain any particular results or for 
#any damages, including, but not limited to, indirect, special or consequential damages, 
#resulting from the use of any information or interpretation provided by Halliburton.
#
~A           TIME           GTDEPTH  GTPQH  GTTQ  GTTN  GTET   GTTVD  
# ...
   08:17:02.387.09-Sep-2020 5533.01 3703.81 78.02 5.00 184.07 2629.43
   08:17:02.587.09-Sep-2020 5533.01 3703.79 78.02 5.00 184.27 2629.43
   08:17:02.788.09-Sep-2020 5533.01 3703.81 78.02 5.00 184.47 2629.43
   08:17:02.988.09-Sep-2020 5533.01 3703.81 78.02 5.00 184.67 2629.43
   08:17:03.188.09-Sep-2020 5533.01 3703.82 78.02 5.00 184.87 2629.43
   08:17:03.388.09-Sep-2020 5533.01 3703.82 78.02 5.00 185.07 2629.43
   08:17:03.588.09-Sep-2020 5533.01 3703.82 78.02 5.00 185.27 2629.43
   08:17:03.788.09-Sep-2020 5533.01 3703.81 78.02 5.00 185.47 2629.43
   08:17:03.988.09-Sep-2020 5533.01 3703.82 78.02 5.00 185.67 2629.43
   08:17:04.188.09-Sep-2020 5533.01 3703.59 78.02 5.00 185.87 2629.43
   08:17:04.388.09-Sep-2020 5533.01 3704.03 78.02 5.00 186.07 2629.43
   08:17:04.588.09-Sep-2020 5533.01 3704.03 78.02 5.00 186.27 2629.43
   08:17:04.788.09-Sep-2020 5533.01 3703.85 78.02 5.00 186.47 2629.43
   08:17:04.988.09-Sep-2020 5533.01 3703.81 78.02 5.00 186.67 2629.43
   08:17:05.189.09-Sep-2020 5533.01 3703.85 78.02 5.00 186.87 2629.43
   08:17:05.389.09-Sep-2020 5533.01 3703.76 78.02 5.00 187.07 2629.43
   08:17:05.589.09-Sep-2020 5533.01 3703.76 78.02 5.00 187.27 2629.43
   08:17:05.789.09-Sep-2020 5533.01 3703.82 78.02 5.00 187.47 2629.43
   08:17:05.989.09-Sep-2020 5533.01 3703.78 78.02 5.00 187.67 2629.43
   08:17:06.189.09-Sep-2020 5533.01 3703.81 78.02 5.00 187.87 2629.43
   08:17:06.389.09-Sep-2020 5533.01 3703.81 78.02 5.00 188.07 2629.43
   08:17:06.589.09-Sep-2020 5533.01 3703.82 78.02 5.00 188.27 2629.43
   08:17:06.789.09-Sep-2020 5533.01 3703.80 78.02 5.00 188.47 2629.43
   08:17:06.989.09-Sep-2020 5533.01 3703.81 78.02 5.00 188.67 2629.43
   08:17:07.189.09-Sep-2020 5533.01 3703.81 78.02 5.00 188.87 2629.43
   08:17:07.389.09-Sep-2020 5533.01 3703.82 78.02 5.00 189.07 2629.43
   08:17:07.589.09-Sep-2020 5533.01 3703.82 78.02 5.00 189.27 2629.43
   08:17:07.790.09-Sep-2020 5533.01 3703.79 78.02 5.00 189.47 2629.43
   08:17:07.990.09-Sep-2020 5533.01 3703.81 78.02 5.00 189.67 2629.43
   08:17:08.190.09-Sep-2020 5533.01 3703.80 78.02 5.00 189.87 2629.43
   08:17:08.390.09-Sep-2020 5533.01 3703.83 78.02 5.00 190.08 2629.43
   08:17:08.590.09-Sep-2020 5533.01 3703.83 78.02 5.00 190.28 2629.43
   08:17:08.790.09-Sep-2020 5533.01 3703.96 78.02 5.00 190.48 2629.43
   08:17:08.990.09-Sep-2020 5533.01 3703.68 78.02 5.00 190.68 2629.43
   08:17:09.190.09-Sep-2020 5533.01 3703.83 78.02 5.00 190.88 2629.43
   08:17:09.390.09-Sep-2020 5533.01 3703.78 78.02 5.00 191.08 2629.43
   08:17:09.590.09-Sep-2020 5533.01 3703.78 78.02 5.00 191.28 2629.43
   08:17:09.790.09-Sep-2020 5533.01 3703.74 78.02 5.00 191.48 2629.43
   08:17:09.990.09-Sep-2020 5533.01 3703.78 78.02 5.00 191.68 2629.43
   08:17:10.190.09-Sep-2020 5533.01 3703.81 78.02 5.00 191.88 2629.43
   08:17:10.391.09-Sep-2020 5533.01 3703.81 78.02 5.00 192.08 2629.43
   08:17:10.591.09-Sep-2020 5533.01 3703.84 78.02 5.00 192.28 2629.43
   08:17:10.791.09-Sep-2020 5533.01 3703.79 78.02 5.00 192.48 2629.43
   08:17:10.991.09-Sep-2020 5533.01 3703.81 78.02 5.00 192.68 2629.43
   08:17:11.191.09-Sep-2020 5533.01 3703.82 78.01 5.00 192.88 2629.43
   08:17:11.391.09-Sep-2020 5533.01 3703.97 78.02 5.00 193.08 2629.43
   08:17:11.591.09-Sep-2020 5533.01 3703.97 78.02 5.00 193.28 2629.43
   08:17:11.791.09-Sep-2020 5533.01 3703.83 78.01 5.00 193.48 2629.43
   08:17:11.991.09-Sep-2020 5533.01 3703.79 78.01 5.00 193.68 2629.43
   08:17:12.191.09-Sep-2020 5533.01 3703.93 78.01 5.00 193.88 2629.43
   08:17:12.391.09-Sep-2020 5533.01 3703.50 78.01 5.00 194.08 2629.43
   08:17:12.591.09-Sep-2020 5533.01 3703.50 78.01 5.00 194.28 2629.43
   08:17:12.792.09-Sep-2020 5533.01 3703.83 78.01 5.00 194.48 2629.43
   08:17:12.992.09-Sep-2020 5533.01 3703.86 78.01 5.00 194.68 2629.43
   08:17:13.192.09-Sep-2020 5533.01 3703.80 78.01 5.00 194.88 2629.43
   08:17:13.392.09-Sep-2020 5533.01 3703.83 78.01 5.00 195.08 2629.43
   08:17:13.592.09-Sep-2020 5533.01 3703.83 78.01 5.00 195.28 2629.43
   08:17:13.792.09-Sep-2020 5533.01 3703.82 78.01 5.00 195.48 2629.43
   08:17:13.992.09-Sep-2020 5533.01 3703.82 78.01 5.00 195.68 2629.43
   08:17:14.192.09-Sep-2020 5533.01 3703.80 78.01 5.00 195.88 2629.43
   08:17:14.392.09-Sep-2020 5533.01 3703.82 78.01 5.00 196.08 2629.43
   08:17:14.592.09-Sep-2020 5533.01 3703.79 78.01 5.00 196.28 2629.43
   08:17:14.792.09-Sep-2020 5533.01 3703.81 78.01 5.00 196.48 2629.43
   08:17:14.992.09-Sep-2020 5533.01 3703.81 78.01 5.00 196.68 2629.43
   08:17:15.192.09-Sep-2020 5533.01 3703.82 78.01 5.00 196.88 2629.43
   08:17:15.393.09-Sep-2020 5533.01 3703.82 78.01 5.00 197.08 2629.43
   08:17:15.593.09-Sep-2020 5533.01 3703.82 78.01 5.00 197.28 2629.43
   08:17:15.793.09-Sep-2020 5533.01 3703.82 78.01 5.00 197.48 2629.43
   08:17:15.993.09-Sep-2020 5533.01 3703.80 78.01 5.00 197.68 2629.43
   08:17:16.193.09-Sep-2020 5533.01 3703.46 78.01 5.00 197.88 2629.43
   08:17:16.393.09-Sep-2020 5533.01 3704.22 78.01 5.00 198.08 2629.43
   08:17:16.593.09-Sep-2020 5533.01 3704.22 78.01 5.00 198.28 2629.43
   08:17:16.793.09-Sep-2020 5533.01 3703.83 78.01 5.00 198.48 2629.43
   08:17:16.993.09-Sep-2020 5533.01 3703.76 78.01 5.00 198.68 2629.43
   08:17:17.193.09-Sep-2020 5533.01 3703.83 78.01 5.00 198.88 2629.43
   08:17:17.393.09-Sep-2020 5533.01 3703.80 78.01 5.00 199.08 2629.43
   08:17:17.593.09-Sep-2020 5533.01 3703.80 78.01 5.00 199.28 2629.43
   08:17:17.793.09-Sep-2020 5533.01 3703.80 78.01 5.00 199.48 2629.43
   08:17:17.994.09-Sep-2020 5533.01 3703.78 78.01 5.00 199.68 2629.43
   08:17:18.194.09-Sep-2020 5533.01 3703.81 78.01 5.00 199.88 2629.43
   08:17:18.394.09-Sep-2020 5533.01 3703.82 78.01 5.00 200.08 2629.43
   08:17:18.594.09-Sep-2020 5533.01 3703.82 78.01 5.00 200.28 2629.43
   08:17:18.794.09-Sep-2020 5533.01 3703.82 78.01 5.00 200.48 2629.43
   08:17:18.994.09-Sep-2020 5533.01 3703.79 78.01 5.00 200.68 2629.43
   08:17:19.194.09-Sep-2020 5533.01 3703.80 78.01 5.00 200.88 2629.43
   08:17:19.394.09-Sep-2020 5533.01 3703.80 78.01 5.00 201.08 2629.43
   08:17:19.594.09-Sep-2020 5533.01 3703.80 78.01 5.00 201.28 2629.43
   08:17:19.794.09-Sep-2020 5533.01 3703.65 78.01 5.00 201.48 2629.43
   08:17:19.994.09-Sep-2020 5533.01 3703.83 78.01 5.00 201.68 2629.43
   08:17:20.194.09-Sep-2020 5533.01 3703.76 78.01 5.00 201.88 2629.43
   08:17:20.395.09-Sep-2020 5533.01 3703.91 78.01 5.00 202.08 2629.43
   08:17:20.595.09-Sep-2020 5533.01 3703.91 78.01 5.00 202.28 2629.43
   08:17:20.795.09-Sep-2020 5533.01 3704.01 78.01 5.00 202.48 2629.43
   08:17:20.995.09-Sep-2020 5533.01 3703.83 78.01 5.00 202.68 2629.43
   08:17:21.195.09-Sep-2020 5533.01 3703.85 78.01 5.00 202.88 2629.43
   08:17:21.395.09-Sep-2020 5533.01 3703.80 78.01 5.00 203.08 2629.43
   08:17:21.595.09-Sep-2020 5533.01 3703.80 78.01 5.00 203.28 2629.43
   08:17:21.795.09-Sep-2020 5533.01 3703.91 78.01 5.00 203.48 2629.43
   08:17:21.995.09-Sep-2020 5533.01 3703.64 78.01 5.00 203.68 2629.43
   08:17:22.195.09-Sep-2020 5533.01 3703.84 78.01 5.00 203.88 2629.43
   08:17:22.395.09-Sep-2020 5533.01 3703.77 78.01 5.00 204.08 2629.43
   08:17:22.595.09-Sep-2020 5533.01 3703.77 78.01 5.00 204.28 2629.43
   08:17:22.795.09-Sep-2020 5533.01 3703.70 78.01 5.00 204.48 2629.43
   08:17:22.996.09-Sep-2020 5533.01 3703.81 78.01 5.00 204.68 2629.43
   08:17:23.196.09-Sep-2020 5533.01 3703.60 78.01 5.00 204.88 2629.43
   08:17:23.396.09-Sep-2020 5533.01 3704.00 78.01 5.00 205.08 2629.43
   08:17:23.596.09-Sep-2020 5533.01 3704.00 78.01 5.00 205.28 2629.43
   08:17:23.796.09-Sep-2020 5533.01 3703.84 78.01 5.00 205.48 2629.43
   08:17:23.996.09-Sep-2020 5533.01 3703.79 78.01 5.00 205.68 2629.43
   08:17:24.196.09-Sep-2020 5533.01 3703.84 78.01 5.00 205.88 2629.43
   08:17:24.396.09-Sep-2020 5533.01 3703.39 78.01 5.00 206.08 2629.43
   08:17:24.596.09-Sep-2020 5533.01 3703.39 78.01 5.00 206.28 2629.43
   08:17:24.796.09-Sep-2020 5533.01 3703.79 78.01 5.00 206.48 2629.43
   08:17:24.996.09-Sep-2020 5533.01 3703.83 78.01 5.00 206.68 2629.43
   08:17:25.196.09-Sep-2020 5533.01 3703.77 78.01 5.00 206.88 2629.43
