~Version Information
 VERS.                  2.0:   CWLS log ASCII Standard -VERSION 2.0
 WRAP.                   NO:   One line per depth step
~Well Information Block
#MNEM.UNIT     VALUE/NAME     DESCRIPTION
#---------     -----------    ---------------------------
 STRT.S             11:53:26 09-Sep-20: START TIME 11:53:26 09-Sep-20
 STOP.S             12:00:27 09-Sep-20: STOP TIME  12:00:27 09-Sep-20
 STEP.S                   0.00: STEP TIME
 NULL.                 -999.25: NULL VALUE
 MDS .        Operator Entered:  MAG DATA SOURCE
 PDAT.          Mean Sea Level:  PERMANENT DATUM
 DCON.         Sperry Drilling:  DIRECTNL CONTR
 RIG .              West Azeri:  RIG NAME
 WELL.           C40 (Slot 20):  WELL NAME
 SRVC.     Turan Drilling Engineering:  CONTRACTOR
 FLD .                     ACG:  FIELD NAME
 CTRY.              Azerbaijan:  COUNTRY NAME
 PROV.                    Baku:  PROVINCE
 STAT.                    Baku:  STATE NAME
 REGN.                   EESSA:  REGION
 BASE.              Azerbaijan:  LOGGING EQUIPMENT BASE LOCATION
 COMP.     BP Exploration (Caspian Sea) Ltd:  COMPANY
 WTYP.                Deviated:  WELL TYPE
 SON .        AZ-XX-0906344804:  JOB NUMBER
 FTOP.          Formation Tops:  FORM TOPS DESC
 ILTD.               Lithology:  INTERP LTH DESC
 SVYD.                  Survey:  SURVEY DESC
 DMOD.             Drill Model:  DRILL MOD DESC
 HPTY.       Minimum Curvature:  HOLE POS TYPE
 NREF.                    Grid:  NORTH REFERENCE
 SPUD.               01-Jan-20:  SPUD DATE
 DATE.      00.59.44 15-Sep-20:  END TIME
 STIM.      12.00.00 12-Jun-20:  START TIME
 DMF .             Drill Floor:  DRILL MEAS FROM
 DFST.                        :  DIST FSL TEXT
 DFWT.                        :  DIST FWL TEXT
 API .                        :  API NUMBER
 CNTY.                        :  COUNTY
 UWI .                        :  UNIQUE WELL IDENTIFIER
 LOC .                        :  LOCATION
 LMF .             Drill Floor:  LOG MEASURED FROM
 VSNS.m                   2.88:  VERT SEC N/S
 VSEW.m                  -3.84:  VERT SEC E/W
 AGAP.m                  43.42:  AIR GAP
 APD .m                  43.42:  DEPTH ABOVE PD
 WDMS.m                 118.27:  WD ELEV
 EGL .m                   0.00:  GROUND ELEVATION
 EPD .m                   0.00:  ELEVATION
 AZTC.deg                 6.23:  AZM TOTAL CORR
 GRDC.deg                 0.20:  GRID CORRECTION
 MDEC.deg                 6.43:  MAGNETIC DECL
 MDIP.deg                59.49:  MAGNETIC DIP
 MFLD.nT              50277.00:  MAGNETIC FIELD
 GVFD.g                   1.00:  GRAVITY FIELD
 VSDR.deg               173.20:  VERT SEC DIRECT
 TDD .m                5790.01:  TOTAL DEPTH (DRILLER)
 SDEP.m                5231.01:  START DEPTH
 DFSL.m                   0.00:  DISTANCE FSL
 DFWL.m                   0.00:  DISTANCE FWL
 UTMY.m             4435808.83:  UTM Y
 UTMX.m              526266.40:  UTM X
 WHEW.m                  -3.84:  WELL HEAD E/W
 WHNS.m                   2.88:  WELL HEAD N/S
 LONG.deg                51.31:  LONGITUDE
 LATI.deg                40.06:  LATITUDE
 TVDS.m                  43.42:  TVDSS CORRECTN
 DEP .m                 430.08:  DEPTH
 EKB .m                  43.42:  KB ELEVATION
 EDF .m                  43.42:  DF ELEVATION
 TDL .m                 559.00:  TOTAL DEPTH (LOGGER)
 MAGU.                 1849381:  MAGUTM CHECKSUM
 VSC .                       0:  VS TO CLOSURE
~Parameter Information Block
#MNEM.UNIT       Value        Description
#---------     -----------    ---------------------------
 AV  .mps                 4.87:  Ann Velocity 
 AVMX.mps                 7.08:  Max Ann Veloc 
 AZIF.deg               108.87:  Azm, Final 
 BHAT.                  Rotary:  BHA Type 
 BROT.°/30m               0.35:  Build Rotating 
 BS  .in                  8.50:  Bit Size 
 BSZ .in                  8.50:  Bit Size 
 BTPL.psig              360.00:  Bit Press Loss 
 CABU.                     Yes:  Customer Abuse 
 COMM.                     dãƒ:  Run Comments 1 
 TCS .hr                106.24:  Time Ciculation Ended 
 CV  .mps                 1.77:  Crit Velocity 
 CVMX.mps                 2.03:  Max Crit Veloc 
 DD1 .         Aykhan Agagulov:  Direct Drillr 1 
 DD2 .            Nonso Okofor:  Direct Drillr 2 
 DDSV.               Geo-Pilot:  DD Service 
 DEFF.%                  98.00:  % Det Eff 
 DLRX.°/30m               0.50:  Dogleg Rot Max 
 DLSO.°/30m               0.40:  Dogleg Oriented 
 DLSX.°/30m               0.94:  Dogleg Str Max 
 DRET.      20.30.00 08-Sep-20:  Drill End Time 
 DRST.      22.15.00 06-Sep-20:  Drill Start Tim 
 DTIM.hr                 31.31:  Time Drilling 
 EDEP.m                5790.01:  End Depth 
 ENG1.           Amrah Tahirov:  Engineer 1 
 ENG2.         Dair Mahammadov:  Engineer 2 
 ENG3.           Emil Huseynov:  Engineer 3 
 ETIM.      04.01.04 12-Sep-20:  End Time 
 FLOI.gpm               450.00:  Flow In 
 FLON.gpm               450.00:  Flow In Min 
 FLOS.cptm                2.00:  Fluid Loss 
 FLOX.gpm               450.00:  Flow In Max 
 FTRO.       Formation Presure:  FTWD Run Obj 
 HFLO.                      No:  High Flow 
 HPRE.                      No:  High Pressure 
 HTEM.                      No:  High Temp 
 HYDO.m                   1.80:  Hydro Offset 
 IFIN.deg                72.03:  Inc, Final 
 IMAX.deg                73.72:  Inc Max 
 IMIN.deg                70.94:  Inc Min 
 IMND.m                5508.52:  Inc Min Depth 
 IMXD.m                5253.60:  Inc Max Depth 
 JARR.                      No:  Jarring 
 LETM.      20.30.00 08-Sep-20:  Log End Time 
 LOST.hr                     0:  Lost Rig Time 
 LSTM.      22.15.00 06-Sep-20:  Log Start Time 
 MDCL.ppm             36000.00:  Mud Chlorides 
 MDES.     Inversion Oil/Synthetic:  Mud Desc 
 DFD .sg                  1.44:  Mud Density 
 MDMN.sg                  1.44:  Dens Mud Min 
 MDMX.sg                  1.57:  Dens Mud Max 
 MOIL.                      70:  Run Mud Oil % 
 MOWR.                   70:30:  Run Mud OWR 
 MSND.                       0:  Run Mud Sand % 
 MSOL.                      21:  Run Mud Solids% 
 DFV .spqt               68.00:  Mud Viscosity 
 MWOD.in                  6.75:  MWD Tool OD 
 MWSI.                     Yes:  Serv Intrp, MWD 
 OTIM.hr                174.84:  Time Operating 
 PCON.           Look Like New:  Pad Condition 
 PMAX.psia            10616.93:  Press Op, Max 
 PV  .cP                 50.00:  Mud PV 
 RUN .                     700:  Run Number 
 ROPA.m/hr               14.24:  ROP Avg 
 ROPN.m/hr               10.00:  ROP Min 
 ROPX.m/hr               32.00:  ROP Max 
 RPMA.rpm               120.90:  RPM Surface Avg 
 RPMN.rpm               120.00:  RPM Surface Min 
 RPMX.rpm               140.00:  RPM Surface Max 
 RRUN.                    0700:  Rig Run Number 
 RTIM.hr                  3.20:  Time Reaming 
 SAZI.deg               109.99:  Azm, Start 
 SDEP.m                5231.01:  Start Depth 
 SIDD.                      No:  Serv Intrp, DD 
 SINC.deg                73.72:  Inc, Start 
 SPPA.psig             3051.00:  SPP Avg 
 SPPN.psig             2950.00:  SPP Min 
 SPPX.psig             3250.00:  SPP Max 
 STIM.      08.00.00 05-Sep-20:  Start Time 
 SVCS.                 DD, MWD:  Services 
 SVER.                    9.20:  Sperry Version 
 TDAT.m                 559.00:  Tot Depth Attmp 
 TDDF.                      No:  Trip for DD 
 TDLG.m                 559.00:  Tot Depth Loggd 
 TFF .                      No:  Trip for Fail 
 TQAA.f-kp               26.49:  Torque Abs Avg 
 TQAN.f-kp               25.00:  Torque Abs Min 
 TQAX.f-kp               27.00:  Torque Abs Max 
 TRRT.°/30m               1.50:  Turn Rotating 
 MRT .                    HCIM:  Maximum Recorded Temperature 
 TTMX.degC               90.20:  Max Tool Temp 
 VS01.                90542671:  Virtual Str1 SN 
 VS02.                90545185:  Virtual Str2 SN 
 VS03.                90602015:  Virtual Str3 SN 
 VS04.                90515230:  Virtual Str4 SN 
 WBMN.klb                 5.00:  WOB Min 
 WOBA.klb                14.79:  WOB Avg 
 WOBX.klb                20.00:  WOB Max 
 YP  .lhf2               29.00:  Yield Point 
~Curve Information Block
#MNEM.UNIT                 API CODE     Curve Description
#---------               -----------    ---------------------------
 TIME.HHMMSS            00 000 000 000:  GT Time & Date
 GTDEPTH.m              00 000 000 000:  GT Depth
 GTPQH.psia             00 000 000 000:  GT HR Quartz Pressure
 GTTQ.degC              00 000 000 000:  GT Quartz Temperature
 GTTN.NONE              00 000 000 000:  GT Test Number
 GTET.sec               00 000 000 000:  GT Elapsed Test Time
 GTTVD.m                00 000 000 000:  GT True Vertical Depth
#Other Information
#
#WARRANTY: Halliburton will use its best efforts to furnish customers with 
#accurate information and interpretations that are part of, and incident to, the services 
#provided.  However, Halliburton cannot and does not warrant the accuracy 
#or correctness of such information and interpretations.  Under no circumstances should any 
#such information or interpretation be relied upon as the sole basis for any drilling, 
#completion, production, or financial decision or any procedure involving any risk to the 
#safety of any drilling venture, drilling rig or its crew or any other third party.  The 
#Customer has full responsibility for all drilling, completion and production operation.  
#Halliburton makes no representations or warranties, either expressed or 
#implied, including, but not limited to, the implied warranties of merchantability or fitness 
#for a particular purpose, with respect to the services rendered.  In no event will 
#Halliburton be liable for failure to obtain any particular results or for 
#any damages, including, but not limited to, indirect, special or consequential damages, 
#resulting from the use of any information or interpretation provided by Halliburton.
#
~A           TIME           GTDEPTH  GTPQH  GTTQ  GTTN   GTET   GTTVD  
   11:53:26.000.09-Sep-2020 5430.01 6272.05 75.97 12.00   0.00 2596.52
   11:53:26.200.09-Sep-2020 5430.01 6272.05 75.97 12.00   0.20 2596.52
   11:53:26.400.09-Sep-2020 5430.01 6269.40 75.97 12.00   0.40 2596.52
   11:53:26.600.09-Sep-2020 5430.01 6267.69 75.97 12.00   0.60 2596.52
   11:53:26.800.09-Sep-2020 5430.01 6273.05 75.97 12.00   0.80 2596.52
   11:53:27.000.09-Sep-2020 5430.01 6269.21 75.97 12.00   1.00 2596.52
   11:53:27.200.09-Sep-2020 5430.01 6269.21 75.97 12.00   1.20 2596.52
   11:53:27.400.09-Sep-2020 5430.01 6269.50 75.97 12.00   1.40 2596.52
   11:53:27.600.09-Sep-2020 5430.01 6270.27 75.97 12.00   1.60 2596.52
   11:53:27.800.09-Sep-2020 5430.01 6278.65 75.97 12.00   1.80 2596.52
   11:53:28.000.09-Sep-2020 5430.01 6267.59 75.97 12.00   2.00 2596.52
   11:53:28.200.09-Sep-2020 5430.01 6271.45 75.97 12.00   2.20 2596.52
   11:53:28.400.09-Sep-2020 5430.01 6272.86 75.97 12.00   2.40 2596.52
   11:53:28.600.09-Sep-2020 5430.01 6272.90 75.97 12.00   2.60 2596.52
   11:53:28.800.09-Sep-2020 5430.01 6277.90 75.97 12.00   2.80 2596.52
   11:53:29.000.09-Sep-2020 5430.01 6273.24 75.97 12.00   3.00 2596.52
   11:53:29.200.09-Sep-2020 5430.01 6273.24 75.97 12.00   3.20 2596.52
   11:53:29.400.09-Sep-2020 5430.01 6275.87 75.97 12.00   3.40 2596.52
   11:53:29.600.09-Sep-2020 5430.01 6273.45 75.97 12.00   3.60 2596.52
   11:53:29.800.09-Sep-2020 5430.01 6274.76 75.97 12.00   3.80 2596.52
   11:53:30.000.09-Sep-2020 5430.01 6278.26 75.97 12.00   4.00 2596.52
   11:53:30.200.09-Sep-2020 5430.01 6278.26 75.97 12.00   4.20 2596.52
   11:53:30.400.09-Sep-2020 5430.01 6274.54 75.97 12.00   4.40 2596.52
   11:53:30.600.09-Sep-2020 5430.01 6273.08 75.97 12.00   4.60 2596.52
   11:53:30.800.09-Sep-2020 5430.01 6273.12 75.97 12.00   4.80 2596.52
   11:53:31.000.09-Sep-2020 5430.01 6283.28 75.97 12.00   5.00 2596.52
   11:53:31.200.09-Sep-2020 5430.01 6283.28 75.97 12.00   5.20 2596.52
   11:53:31.400.09-Sep-2020 5430.01 6271.47 75.97 12.00   5.40 2596.52
   11:53:31.600.09-Sep-2020 5430.01 6273.87 75.97 12.00   5.60 2596.52
   11:53:31.800.09-Sep-2020 5430.01 6277.34 75.97 12.00   5.80 2596.52
   11:53:32.000.09-Sep-2020 5430.01 6274.65 75.97 12.00   6.00 2596.52
   11:53:32.200.09-Sep-2020 5430.01 6274.65 75.97 12.00   6.20 2596.52
   11:53:32.400.09-Sep-2020 5430.01 6276.70 75.97 12.00   6.40 2596.52
   11:53:32.600.09-Sep-2020 5430.01 6275.02 75.97 12.00   6.60 2596.52
   11:53:32.800.09-Sep-2020 5430.01 6277.51 75.97 12.00   6.80 2596.52
   11:53:33.000.09-Sep-2020 5430.01 6276.77 75.97 12.00   7.00 2596.52
   11:53:33.200.09-Sep-2020 5430.01 6276.77 75.97 12.00   7.20 2596.52
   11:53:33.400.09-Sep-2020 5430.01 6279.42 75.97 12.00   7.40 2596.52
   11:53:33.600.09-Sep-2020 5430.01 6280.63 75.97 12.00   7.60 2596.52
   11:53:33.800.09-Sep-2020 5430.01 6281.22 75.97 12.00   7.80 2596.52
   11:53:34.000.09-Sep-2020 5430.01 6281.35 75.97 12.00   8.00 2596.52
   11:53:34.200.09-Sep-2020 5430.01 6281.35 75.97 12.00   8.20 2596.52
   11:53:34.400.09-Sep-2020 5430.01 6282.18 75.97 12.00   8.40 2596.52
   11:53:34.600.09-Sep-2020 5430.01 6282.98 75.97 12.00   8.60 2596.52
   11:53:34.800.09-Sep-2020 5430.01 6283.61 75.97 12.00   8.80 2596.52
   11:53:35.000.09-Sep-2020 5430.01 6283.64 75.97 12.00   9.00 2596.52
   11:53:35.200.09-Sep-2020 5430.01 6283.64 75.97 12.00   9.20 2596.52
   11:53:35.400.09-Sep-2020 5430.01 6283.64 75.97 12.00   9.40 2596.52
   11:53:35.600.09-Sep-2020 5430.01 6292.66 75.97 12.00   9.60 2596.52
   11:53:35.800.09-Sep-2020 5430.01 6281.54 75.97 12.00   9.80 2596.52
   11:53:36.000.09-Sep-2020 5430.01 6281.35 75.97 12.00  10.00 2596.52
   11:53:36.200.09-Sep-2020 5430.01 6285.05 75.97 12.00  10.20 2596.52
   11:53:36.400.09-Sep-2020 5430.01 6285.40 75.97 12.00  10.40 2596.52
   11:53:36.600.09-Sep-2020 5430.01 6286.31 75.97 12.00  10.60 2596.52
   11:53:36.800.09-Sep-2020 5430.01 6285.25 75.97 12.00  10.80 2596.52
   11:53:37.000.09-Sep-2020 5430.01 6285.77 75.97 12.00  11.00 2596.52
   11:53:37.200.09-Sep-2020 5430.01 6285.60 75.97 12.00  11.20 2596.52
   11:53:37.400.09-Sep-2020 5430.01 6285.90 75.97 12.00  11.40 2596.52
   11:53:37.600.09-Sep-2020 5430.01 6286.45 75.97 12.00  11.60 2596.52
   11:53:37.800.09-Sep-2020 5430.01 6287.13 75.97 12.00  11.80 2596.52
   11:53:38.000.09-Sep-2020 5430.01 6287.42 75.97 12.00  12.00 2596.52
   11:53:38.200.09-Sep-2020 5430.01 6287.42 75.97 12.00  12.20 2596.52
   11:53:38.400.09-Sep-2020 5430.01 6287.07 75.97 12.00  12.40 2596.52
   11:53:38.600.09-Sep-2020 5430.01 6287.16 75.97 12.00  12.60 2596.52
   11:53:38.800.09-Sep-2020 5430.01 6287.75 75.97 12.00  12.80 2596.52
   11:53:39.000.09-Sep-2020 5430.01 6288.23 75.97 12.00  13.00 2596.52
   11:53:39.200.09-Sep-2020 5430.01 6288.23 75.97 12.00  13.20 2596.52
   11:53:39.400.09-Sep-2020 5430.01 6284.99 75.97 12.00  13.40 2596.52
   11:53:39.600.09-Sep-2020 5430.01 6288.34 75.97 12.00  13.60 2596.52
   11:53:39.800.09-Sep-2020 5430.01 6289.90 75.97 12.00  13.80 2596.52
   11:53:40.000.09-Sep-2020 5430.01 6290.14 75.97 12.00  14.00 2596.52
   11:53:40.200.09-Sep-2020 5430.01 6290.64 75.97 12.00  14.20 2596.52
   11:53:40.400.09-Sep-2020 5430.01 6300.07 75.96 12.00  14.40 2596.52
   11:53:40.600.09-Sep-2020 5430.01 6285.43 75.97 12.00  14.60 2596.52
   11:53:40.800.09-Sep-2020 5430.01 6290.15 75.96 12.00  14.80 2596.52
   11:53:41.000.09-Sep-2020 5430.01 6292.79 75.97 12.00  15.00 2596.52
   11:53:41.200.09-Sep-2020 5430.01 6291.78 75.97 12.00  15.20 2596.52
   11:53:41.400.09-Sep-2020 5430.01 6292.54 75.96 12.00  15.40 2596.52
   11:53:41.600.09-Sep-2020 5430.01 6295.53 75.96 12.00  15.60 2596.52
   11:53:41.800.09-Sep-2020 5430.01 6293.27 75.96 12.00  15.80 2596.52
   11:53:42.000.09-Sep-2020 5430.01 6292.10 75.96 12.00  16.00 2596.52
   11:53:42.200.09-Sep-2020 5430.01 6292.10 75.96 12.00  16.20 2596.52
   11:53:42.400.09-Sep-2020 5430.01 6292.38 75.96 12.00  16.40 2596.52
   11:53:42.600.09-Sep-2020 5430.01 6294.12 75.96 12.00  16.60 2596.52
   11:53:42.800.09-Sep-2020 5430.01 6297.70 75.96 12.00  16.80 2596.52
   11:53:43.000.09-Sep-2020 5430.01 6295.10 75.96 12.00  17.00 2596.52
   11:53:43.200.09-Sep-2020 5430.01 6295.10 75.96 12.00  17.20 2596.52
   11:53:43.400.09-Sep-2020 5430.01 6297.37 75.96 12.00  17.40 2596.52
   11:53:43.600.09-Sep-2020 5430.01 6294.82 75.96 12.00  17.60 2596.52
   11:53:43.800.09-Sep-2020 5430.01 6301.41 75.96 12.00  17.80 2596.52
   11:53:44.000.09-Sep-2020 5430.01 6296.10 75.96 12.00  18.00 2596.52
   11:53:44.200.09-Sep-2020 5430.01 6296.10 75.96 12.00  18.20 2596.52
   11:53:44.400.09-Sep-2020 5430.01 6297.10 75.96 12.00  18.40 2596.52
   11:53:44.600.09-Sep-2020 5430.01 6298.03 75.96 12.00  18.60 2596.52
   11:53:44.800.09-Sep-2020 5430.01 6298.30 75.96 12.00  18.80 2596.52
   11:53:45.000.09-Sep-2020 5430.01 6303.24 75.96 12.00  19.00 2596.52
   11:53:45.200.09-Sep-2020 5430.01 6303.24 75.96 12.00  19.20 2596.52
   11:53:45.400.09-Sep-2020 5430.01 6301.02 75.96 12.00  19.40 2596.52
   11:53:45.600.09-Sep-2020 5430.01 6299.85 75.96 12.00  19.60 2596.52
   11:53:45.800.09-Sep-2020 5430.01 6300.23 75.96 12.00  19.80 2596.52
   11:53:46.000.09-Sep-2020 5430.01 6300.50 75.96 12.00  20.00 2596.52
   11:53:46.200.09-Sep-2020 5430.01 6300.50 75.96 12.00  20.20 2596.52
   11:53:46.400.09-Sep-2020 5430.01 6300.66 75.96 12.00  20.40 2596.52
   11:53:46.600.09-Sep-2020 5430.01 6301.09 75.96 12.00  20.60 2596.52
   11:53:46.800.09-Sep-2020 5430.01 6301.82 75.96 12.00  20.80 2596.52
   11:53:47.000.09-Sep-2020 5430.01 6302.56 75.96 12.00  21.00 2596.52
   11:53:47.200.09-Sep-2020 5430.01 6302.56 75.96 12.00  21.20 2596.52
   11:53:47.400.09-Sep-2020 5430.01 6303.45 75.96 12.00  21.40 2596.52
   11:53:47.600.09-Sep-2020 5430.01 6303.78 75.96 12.00  21.60 2596.52
   11:53:47.800.09-Sep-2020 5430.01 6304.03 75.96 12.00  21.80 2596.52
   11:53:48.000.09-Sep-2020 5430.01 6304.39 75.96 12.00  22.00 2596.52
   11:53:48.200.09-Sep-2020 5430.01 6304.74 75.96 12.00  22.20 2596.52
   11:53:48.400.09-Sep-2020 5430.01 6305.26 75.96 12.00  22.40 2596.52
