~Version Information
 VERS.                  2.0:   CWLS log ASCII Standard -VERSION 2.0
 WRAP.                   NO:   One line per depth step
~Well Information Block
#MNEM.UNIT     VALUE/NAME     DESCRIPTION
#---------     -----------    ---------------------------
 STRT.S             18:49:58 09-Sep-20: START TIME 18:49:58 09-Sep-20
 STOP.S             18:58:03 09-Sep-20: STOP TIME  18:58:03 09-Sep-20
 STEP.S                   0.00: STEP TIME
 NULL.                 -999.25: NULL VALUE
 MDS .        Operator Entered:  MAG DATA SOURCE
 PDAT.          Mean Sea Level:  PERMANENT DATUM
 DCON.         Sperry Drilling:  DIRECTNL CONTR
 RIG .              West Azeri:  RIG NAME
 WELL.           C40 (Slot 20):  WELL NAME
 SRVC.     Turan Drilling Engineering:  CONTRACTOR
 FLD .                     ACG:  FIELD NAME
 CTRY.              Azerbaijan:  COUNTRY NAME
 PROV.                    Baku:  PROVINCE
 STAT.                    Baku:  STATE NAME
 REGN.                   EESSA:  REGION
 BASE.              Azerbaijan:  LOGGING EQUIPMENT BASE LOCATION
 COMP.     BP Exploration (Caspian Sea) Ltd:  COMPANY
 WTYP.                Deviated:  WELL TYPE
 SON .        AZ-XX-0906344804:  JOB NUMBER
 FTOP.          Formation Tops:  FORM TOPS DESC
 ILTD.               Lithology:  INTERP LTH DESC
 SVYD.                  Survey:  SURVEY DESC
 DMOD.             Drill Model:  DRILL MOD DESC
 HPTY.       Minimum Curvature:  HOLE POS TYPE
 NREF.                    Grid:  NORTH REFERENCE
 SPUD.               01-Jan-20:  SPUD DATE
 DATE.      00.59.44 15-Sep-20:  END TIME
 STIM.      12.00.00 12-Jun-20:  START TIME
 DMF .             Drill Floor:  DRILL MEAS FROM
 DFST.                        :  DIST FSL TEXT
 DFWT.                        :  DIST FWL TEXT
 API .                        :  API NUMBER
 CNTY.                        :  COUNTY
 UWI .                        :  UNIQUE WELL IDENTIFIER
 LOC .                        :  LOCATION
 LMF .             Drill Floor:  LOG MEASURED FROM
 VSNS.m                   2.88:  VERT SEC N/S
 VSEW.m                  -3.84:  VERT SEC E/W
 AGAP.m                  43.42:  AIR GAP
 APD .m                  43.42:  DEPTH ABOVE PD
 WDMS.m                 118.27:  WD ELEV
 EGL .m                   0.00:  GROUND ELEVATION
 EPD .m                   0.00:  ELEVATION
 AZTC.deg                 6.23:  AZM TOTAL CORR
 GRDC.deg                 0.20:  GRID CORRECTION
 MDEC.deg                 6.43:  MAGNETIC DECL
 MDIP.deg                59.49:  MAGNETIC DIP
 MFLD.nT              50277.00:  MAGNETIC FIELD
 GVFD.g                   1.00:  GRAVITY FIELD
 VSDR.deg               173.20:  VERT SEC DIRECT
 TDD .m                5790.01:  TOTAL DEPTH (DRILLER)
 SDEP.m                5231.01:  START DEPTH
 DFSL.m                   0.00:  DISTANCE FSL
 DFWL.m                   0.00:  DISTANCE FWL
 UTMY.m             4435808.83:  UTM Y
 UTMX.m              526266.40:  UTM X
 WHEW.m                  -3.84:  WELL HEAD E/W
 WHNS.m                   2.88:  WELL HEAD N/S
 LONG.deg                51.31:  LONGITUDE
 LATI.deg                40.06:  LATITUDE
 TVDS.m                  43.42:  TVDSS CORRECTN
 DEP .m                 430.08:  DEPTH
 EKB .m                  43.42:  KB ELEVATION
 EDF .m                  43.42:  DF ELEVATION
 TDL .m                 559.00:  TOTAL DEPTH (LOGGER)
 MAGU.                 1849381:  MAGUTM CHECKSUM
 VSC .                       0:  VS TO CLOSURE
~Parameter Information Block
#MNEM.UNIT       Value        Description
#---------     -----------    ---------------------------
 AV  .mps                 4.87:  Ann Velocity 
 AVMX.mps                 7.08:  Max Ann Veloc 
 AZIF.deg               108.87:  Azm, Final 
 BHAT.                  Rotary:  BHA Type 
 BROT.°/30m               0.35:  Build Rotating 
 BS  .in                  8.50:  Bit Size 
 BSZ .in                  8.50:  Bit Size 
 BTPL.psig              360.00:  Bit Press Loss 
 CABU.                     Yes:  Customer Abuse 
 COMM.                     „T:  Run Comments 1 
 TCS .hr                106.24:  Time Ciculation Ended 
 CV  .mps                 1.77:  Crit Velocity 
 CVMX.mps                 2.03:  Max Crit Veloc 
 DD1 .         Aykhan Agagulov:  Direct Drillr 1 
 DD2 .            Nonso Okofor:  Direct Drillr 2 
 DDSV.               Geo-Pilot:  DD Service 
 DEFF.%                  98.00:  % Det Eff 
 DLRX.°/30m               0.50:  Dogleg Rot Max 
 DLSO.°/30m               0.40:  Dogleg Oriented 
 DLSX.°/30m               0.94:  Dogleg Str Max 
 DRET.      20.30.00 08-Sep-20:  Drill End Time 
 DRST.      22.15.00 06-Sep-20:  Drill Start Tim 
 DTIM.hr                 31.31:  Time Drilling 
 EDEP.m                5790.01:  End Depth 
 ENG1.           Amrah Tahirov:  Engineer 1 
 ENG2.         Dair Mahammadov:  Engineer 2 
 ENG3.           Emil Huseynov:  Engineer 3 
 ETIM.      04.01.04 12-Sep-20:  End Time 
 FLOI.gpm               450.00:  Flow In 
 FLON.gpm               450.00:  Flow In Min 
 FLOS.cptm                2.00:  Fluid Loss 
 FLOX.gpm               450.00:  Flow In Max 
 FTRO.       Formation Presure:  FTWD Run Obj 
 HFLO.                      No:  High Flow 
 HPRE.                      No:  High Pressure 
 HTEM.                      No:  High Temp 
 HYDO.m                   1.80:  Hydro Offset 
 IFIN.deg                72.03:  Inc, Final 
 IMAX.deg                73.72:  Inc Max 
 IMIN.deg                70.94:  Inc Min 
 IMND.m                5508.52:  Inc Min Depth 
 IMXD.m                5253.60:  Inc Max Depth 
 JARR.                      No:  Jarring 
 LETM.      20.30.00 08-Sep-20:  Log End Time 
 LOST.hr                     0:  Lost Rig Time 
 LSTM.      22.15.00 06-Sep-20:  Log Start Time 
 MDCL.ppm             36000.00:  Mud Chlorides 
 MDES.     Inversion Oil/Synthetic:  Mud Desc 
 DFD .sg                  1.44:  Mud Density 
 MDMN.sg                  1.44:  Dens Mud Min 
 MDMX.sg                  1.57:  Dens Mud Max 
 MOIL.                      70:  Run Mud Oil % 
 MOWR.                   70:30:  Run Mud OWR 
 MSND.                       0:  Run Mud Sand % 
 MSOL.                      21:  Run Mud Solids% 
 DFV .spqt               68.00:  Mud Viscosity 
 MWOD.in                  6.75:  MWD Tool OD 
 MWSI.                     Yes:  Serv Intrp, MWD 
 OTIM.hr                174.84:  Time Operating 
 PCON.           Look Like New:  Pad Condition 
 PMAX.psia            10616.93:  Press Op, Max 
 PV  .cP                 50.00:  Mud PV 
 RUN .                     700:  Run Number 
 ROPA.m/hr               14.24:  ROP Avg 
 ROPN.m/hr               10.00:  ROP Min 
 ROPX.m/hr               32.00:  ROP Max 
 RPMA.rpm               120.90:  RPM Surface Avg 
 RPMN.rpm               120.00:  RPM Surface Min 
 RPMX.rpm               140.00:  RPM Surface Max 
 RRUN.                    0700:  Rig Run Number 
 RTIM.hr                  3.20:  Time Reaming 
 SAZI.deg               109.99:  Azm, Start 
 SDEP.m                5231.01:  Start Depth 
 SIDD.                      No:  Serv Intrp, DD 
 SINC.deg                73.72:  Inc, Start 
 SPPA.psig             3051.00:  SPP Avg 
 SPPN.psig             2950.00:  SPP Min 
 SPPX.psig             3250.00:  SPP Max 
 STIM.      08.00.00 05-Sep-20:  Start Time 
 SVCS.                 DD, MWD:  Services 
 SVER.                    9.20:  Sperry Version 
 TDAT.m                 559.00:  Tot Depth Attmp 
 TDDF.                      No:  Trip for DD 
 TDLG.m                 559.00:  Tot Depth Loggd 
 TFF .                      No:  Trip for Fail 
 TQAA.f-kp               26.49:  Torque Abs Avg 
 TQAN.f-kp               25.00:  Torque Abs Min 
 TQAX.f-kp               27.00:  Torque Abs Max 
 TRRT.°/30m               1.50:  Turn Rotating 
 MRT .                    HCIM:  Maximum Recorded Temperature 
 TTMX.degC               90.20:  Max Tool Temp 
 VS01.                90542671:  Virtual Str1 SN 
 VS02.                90545185:  Virtual Str2 SN 
 VS03.                90602015:  Virtual Str3 SN 
 VS04.                90515230:  Virtual Str4 SN 
 WBMN.klb                 5.00:  WOB Min 
 WOBA.klb                14.79:  WOB Avg 
 WOBX.klb                20.00:  WOB Max 
 YP  .lhf2               29.00:  Yield Point 
~Curve Information Block
#MNEM.UNIT                 API CODE     Curve Description
#---------               -----------    ---------------------------
 TIME.HHMMSS            00 000 000 000:  GT Time & Date
 GTDEPTH.m              00 000 000 000:  GT Depth
 GTPQH.psia             00 000 000 000:  GT HR Quartz Pressure
 GTTQ.degC              00 000 000 000:  GT Quartz Temperature
 GTTN.NONE              00 000 000 000:  GT Test Number
 GTET.sec               00 000 000 000:  GT Elapsed Test Time
 GTTVD.m                00 000 000 000:  GT True Vertical Depth
#Other Information
#
#WARRANTY: Halliburton will use its best efforts to furnish customers with 
#accurate information and interpretations that are part of, and incident to, the services 
#provided.  However, Halliburton cannot and does not warrant the accuracy 
#or correctness of such information and interpretations.  Under no circumstances should any 
#such information or interpretation be relied upon as the sole basis for any drilling, 
#completion, production, or financial decision or any procedure involving any risk to the 
#safety of any drilling venture, drilling rig or its crew or any other third party.  The 
#Customer has full responsibility for all drilling, completion and production operation.  
#Halliburton makes no representations or warranties, either expressed or 
#implied, including, but not limited to, the implied warranties of merchantability or fitness 
#for a particular purpose, with respect to the services rendered.  In no event will 
#Halliburton be liable for failure to obtain any particular results or for 
#any damages, including, but not limited to, indirect, special or consequential damages, 
#resulting from the use of any information or interpretation provided by Halliburton.
#
~A           TIME           GTDEPTH  GTPQH  GTTQ  GTTN   GTET   GTTVD  
# ...
   18:57:52.728.09-Sep-2020 5280.51 6328.36 74.48 22.00 474.23 2550.44
   18:57:52.928.09-Sep-2020 5280.51 6332.45 74.48 22.00 474.43 2550.44
   18:57:53.127.09-Sep-2020 5280.51 6328.95 74.48 22.00 474.63 2550.44
   18:57:53.327.09-Sep-2020 5280.51 6328.95 74.48 22.00 474.83 2550.44
   18:57:53.527.09-Sep-2020 5280.51 6327.76 74.48 22.00 475.03 2550.44
   18:57:53.727.09-Sep-2020 5280.51 6326.99 74.48 22.00 475.23 2550.44
   18:57:53.927.09-Sep-2020 5280.51 6328.14 74.47 22.00 475.43 2550.44
   18:57:54.127.09-Sep-2020 5280.51 6337.24 74.47 22.00 475.63 2550.44
   18:57:54.327.09-Sep-2020 5280.51 6337.24 74.47 22.00 475.83 2550.44
   18:57:54.526.09-Sep-2020 5280.51 6328.17 74.47 22.00 476.03 2550.44
   18:57:54.726.09-Sep-2020 5280.51 6327.78 74.47 22.00 476.23 2550.44
   18:57:54.926.09-Sep-2020 5280.51 6327.83 74.47 22.00 476.43 2550.44
   18:57:55.126.09-Sep-2020 5280.51 6328.52 74.47 22.00 476.63 2550.44
   18:57:55.326.09-Sep-2020 5280.51 6328.52 74.47 22.00 476.83 2550.44
   18:57:55.526.09-Sep-2020 5280.51 6330.44 74.47 22.00 477.03 2550.44
   18:57:55.725.09-Sep-2020 5280.51 6326.40 74.47 22.00 477.23 2550.44
   18:57:55.925.09-Sep-2020 5280.51 6328.41 74.47 22.00 477.43 2550.44
   18:57:56.125.09-Sep-2020 5280.51 6328.00 74.47 22.00 477.63 2550.44
   18:57:56.325.09-Sep-2020 5280.51 6328.95 74.47 22.00 477.83 2550.44
   18:57:56.525.09-Sep-2020 5280.51 6330.70 74.47 22.00 478.03 2550.44
   18:57:56.725.09-Sep-2020 5280.51 6330.19 74.47 22.00 478.22 2550.44
   18:57:56.924.09-Sep-2020 5280.51 6328.78 74.47 22.00 478.42 2550.44
   18:57:57.124.09-Sep-2020 5280.51 6329.13 74.47 22.00 478.62 2550.44
   18:57:57.324.09-Sep-2020 5280.51 6329.13 74.47 22.00 478.82 2550.44
   18:57:57.524.09-Sep-2020 5280.51 6330.14 74.47 22.00 479.02 2550.44
   18:57:57.724.09-Sep-2020 5280.51 6330.50 74.47 22.00 479.22 2550.44
   18:57:57.924.09-Sep-2020 5280.51 6330.37 74.47 22.00 479.42 2550.44
   18:57:58.124.09-Sep-2020 5280.51 6325.51 74.46 22.00 479.62 2550.44
   18:57:58.323.09-Sep-2020 5280.51 6325.51 74.46 22.00 479.82 2550.44
   18:57:58.523.09-Sep-2020 5280.51 6324.22 74.46 22.00 480.02 2550.44
   18:57:58.723.09-Sep-2020 5280.51 6323.24 74.46 22.00 480.22 2550.44
   18:57:58.923.09-Sep-2020 5280.51 6322.35 74.46 22.00 480.42 2550.44
   18:57:59.123.09-Sep-2020 5280.51 6329.60 74.46 22.00 480.62 2550.44
   18:57:59.323.09-Sep-2020 5280.51 6329.60 74.46 22.00 480.82 2550.44
   18:57:59.522.09-Sep-2020 5280.51 6320.59 74.46 22.00 481.02 2550.44
   18:57:59.722.09-Sep-2020 5280.51 6319.88 74.46 22.00 481.22 2550.44
   18:57:59.922.09-Sep-2020 5280.51 6319.31 74.46 22.00 481.42 2550.44
   18:58:00.122.09-Sep-2020 5280.51 6318.87 74.46 22.00 481.62 2550.44
   18:58:00.322.09-Sep-2020 5280.51 6318.92 74.46 22.00 481.82 2550.44
   18:58:00.522.09-Sep-2020 5280.51 6316.50 74.46 22.00 482.02 2550.44
   18:58:00.722.09-Sep-2020 5280.51 6316.65 74.46 22.00 482.22 2550.44
   18:58:00.921.09-Sep-2020 5280.51 6316.86 74.46 22.00 482.42 2550.44
   18:58:01.121.09-Sep-2020 5280.51 6317.58 74.46 22.00 482.62 2550.44
   18:58:01.321.09-Sep-2020 5280.51 6317.58 74.46 22.00 482.82 2550.44
   18:58:01.521.09-Sep-2020 5280.51 6316.07 74.46 22.00 483.02 2550.44
   18:58:01.721.09-Sep-2020 5280.51 6315.90 74.46 22.00 483.22 2550.44
   18:58:01.921.09-Sep-2020 5280.51 6315.93 74.46 22.00 483.42 2550.44
   18:58:02.120.09-Sep-2020 5280.51 6316.03 74.46 22.00 483.62 2550.44
   18:58:02.320.09-Sep-2020 5280.51 6316.03 74.46 22.00 483.82 2550.44
   18:58:02.520.09-Sep-2020 5280.51 6325.22 74.46 22.00 484.02 2550.44
   18:58:02.720.09-Sep-2020 5280.51 6313.86 74.46 22.00 484.22 2550.44
   18:58:02.920.09-Sep-2020 5280.51 6317.50 74.45 22.00 484.42 2550.44
   18:58:03.120.09-Sep-2020 5280.51 6316.59 74.45 22.00 484.62 2550.44
   18:58:03.319.09-Sep-2020 5280.51 6316.59 74.45 22.00 484.82 2550.44
   18:58:03.519.09-Sep-2020 5280.51 6317.77 74.45 22.00 485.02 2550.44
   18:58:03.719.09-Sep-2020 5280.51 6326.50 74.45 22.00 485.22 2550.44
   18:58:03.919.09-Sep-2020 5280.51 6314.15 74.45 22.00 485.42 2550.44
