~Version Information
 VERS.                  2.0:   CWLS log ASCII Standard -VERSION 2.0
 WRAP.                   NO:   One line per depth step
~Well Information Block
#MNEM.UNIT     VALUE/NAME     DESCRIPTION
#---------     -----------    ---------------------------
 STRT.S             05:36:14 09-Sep-20: START TIME 05:36:14 09-Sep-20
 STOP.S             05:43:10 09-Sep-20: STOP TIME  05:43:10 09-Sep-20
 STEP.S                   0.00: STEP TIME
 NULL.                 -999.25: NULL VALUE
 MDS .        Operator Entered:  MAG DATA SOURCE
 PDAT.          Mean Sea Level:  PERMANENT DATUM
 DCON.         Sperry Drilling:  DIRECTNL CONTR
 RIG .              West Azeri:  RIG NAME
 WELL.           C40 (Slot 20):  WELL NAME
 SRVC.     Turan Drilling Engineering:  CONTRACTOR
 FLD .                     ACG:  FIELD NAME
 CTRY.              Azerbaijan:  COUNTRY NAME
 PROV.                    Baku:  PROVINCE
 STAT.                    Baku:  STATE NAME
 REGN.                   EESSA:  REGION
 BASE.              Azerbaijan:  LOGGING EQUIPMENT BASE LOCATION
 COMP.     BP Exploration (Caspian Sea) Ltd:  COMPANY
 WTYP.                Deviated:  WELL TYPE
 SON .        AZ-XX-0906344804:  JOB NUMBER
 FTOP.          Formation Tops:  FORM TOPS DESC
 ILTD.               Lithology:  INTERP LTH DESC
 SVYD.                  Survey:  SURVEY DESC
 DMOD.             Drill Model:  DRILL MOD DESC
 HPTY.       Minimum Curvature:  HOLE POS TYPE
 NREF.                    Grid:  NORTH REFERENCE
 SPUD.               01-Jan-20:  SPUD DATE
 DATE.      00.59.44 15-Sep-20:  END TIME
 STIM.      12.00.00 12-Jun-20:  START TIME
 DMF .             Drill Floor:  DRILL MEAS FROM
 DFST.                        :  DIST FSL TEXT
 DFWT.                        :  DIST FWL TEXT
 API .                        :  API NUMBER
 CNTY.                        :  COUNTY
 UWI .                        :  UNIQUE WELL IDENTIFIER
 LOC .                        :  LOCATION
 LMF .             Drill Floor:  LOG MEASURED FROM
 VSNS.m                   2.88:  VERT SEC N/S
 VSEW.m                  -3.84:  VERT SEC E/W
 AGAP.m                  43.42:  AIR GAP
 APD .m                  43.42:  DEPTH ABOVE PD
 WDMS.m                 118.27:  WD ELEV
 EGL .m                   0.00:  GROUND ELEVATION
 EPD .m                   0.00:  ELEVATION
 AZTC.deg                 6.23:  AZM TOTAL CORR
 GRDC.deg                 0.20:  GRID CORRECTION
 MDEC.deg                 6.43:  MAGNETIC DECL
 MDIP.deg                59.49:  MAGNETIC DIP
 MFLD.nT              50277.00:  MAGNETIC FIELD
 GVFD.g                   1.00:  GRAVITY FIELD
 VSDR.deg               173.20:  VERT SEC DIRECT
 TDD .m                5790.01:  TOTAL DEPTH (DRILLER)
 SDEP.m                5231.01:  START DEPTH
 DFSL.m                   0.00:  DISTANCE FSL
 DFWL.m                   0.00:  DISTANCE FWL
 UTMY.m             4435808.83:  UTM Y
 UTMX.m              526266.40:  UTM X
 WHEW.m                  -3.84:  WELL HEAD E/W
 WHNS.m                   2.88:  WELL HEAD N/S
 LONG.deg                51.31:  LONGITUDE
 LATI.deg                40.06:  LATITUDE
 TVDS.m                  43.42:  TVDSS CORRECTN
 DEP .m                 430.08:  DEPTH
 EKB .m                  43.42:  KB ELEVATION
 EDF .m                  43.42:  DF ELEVATION
 TDL .m                 559.00:  TOTAL DEPTH (LOGGER)
 MAGU.                 1849381:  MAGUTM CHECKSUM
 VSC .                       0:  VS TO CLOSURE
~Parameter Information Block
#MNEM.UNIT       Value        Description
#---------     -----------    ---------------------------
 AV  .mps                 4.87:  Ann Velocity 
 AVMX.mps                 7.08:  Max Ann Veloc 
 AZIF.deg               108.87:  Azm, Final 
 BHAT.                  Rotary:  BHA Type 
 BROT.°/30m               0.35:  Build Rotating 
 BS  .in                  8.50:  Bit Size 
 BSZ .in                  8.50:  Bit Size 
 BTPL.psig              360.00:  Bit Press Loss 
 CABU.                     Yes:  Customer Abuse 
 COMM.                     ”£|:  Run Comments 1 
 TCS .hr                106.24:  Time Ciculation Ended 
 CV  .mps                 1.77:  Crit Velocity 
 CVMX.mps                 2.03:  Max Crit Veloc 
 DD1 .         Aykhan Agagulov:  Direct Drillr 1 
 DD2 .            Nonso Okofor:  Direct Drillr 2 
 DDSV.               Geo-Pilot:  DD Service 
 DEFF.%                  98.00:  % Det Eff 
 DLRX.°/30m               0.50:  Dogleg Rot Max 
 DLSO.°/30m               0.40:  Dogleg Oriented 
 DLSX.°/30m               0.94:  Dogleg Str Max 
 DRET.      20.30.00 08-Sep-20:  Drill End Time 
 DRST.      22.15.00 06-Sep-20:  Drill Start Tim 
 DTIM.hr                 31.31:  Time Drilling 
 EDEP.m                5790.01:  End Depth 
 ENG1.           Amrah Tahirov:  Engineer 1 
 ENG2.         Dair Mahammadov:  Engineer 2 
 ENG3.           Emil Huseynov:  Engineer 3 
 ETIM.      04.01.04 12-Sep-20:  End Time 
 FLOI.gpm               450.00:  Flow In 
 FLON.gpm               450.00:  Flow In Min 
 FLOS.cptm                2.00:  Fluid Loss 
 FLOX.gpm               450.00:  Flow In Max 
 FTRO.       Formation Presure:  FTWD Run Obj 
 HFLO.                      No:  High Flow 
 HPRE.                      No:  High Pressure 
 HTEM.                      No:  High Temp 
 HYDO.m                   1.80:  Hydro Offset 
 IFIN.deg                72.03:  Inc, Final 
 IMAX.deg                73.72:  Inc Max 
 IMIN.deg                70.94:  Inc Min 
 IMND.m                5508.52:  Inc Min Depth 
 IMXD.m                5253.60:  Inc Max Depth 
 JARR.                      No:  Jarring 
 LETM.      20.30.00 08-Sep-20:  Log End Time 
 LOST.hr                     0:  Lost Rig Time 
 LSTM.      22.15.00 06-Sep-20:  Log Start Time 
 MDCL.ppm             36000.00:  Mud Chlorides 
 MDES.     Inversion Oil/Synthetic:  Mud Desc 
 DFD .sg                  1.44:  Mud Density 
 MDMN.sg                  1.44:  Dens Mud Min 
 MDMX.sg                  1.57:  Dens Mud Max 
 MOIL.                      70:  Run Mud Oil % 
 MOWR.                   70:30:  Run Mud OWR 
 MSND.                       0:  Run Mud Sand % 
 MSOL.                      21:  Run Mud Solids% 
 DFV .spqt               68.00:  Mud Viscosity 
 MWOD.in                  6.75:  MWD Tool OD 
 MWSI.                     Yes:  Serv Intrp, MWD 
 OTIM.hr                174.84:  Time Operating 
 PCON.           Look Like New:  Pad Condition 
 PMAX.psia            10616.93:  Press Op, Max 
 PV  .cP                 50.00:  Mud PV 
 RUN .                     700:  Run Number 
 ROPA.m/hr               14.24:  ROP Avg 
 ROPN.m/hr               10.00:  ROP Min 
 ROPX.m/hr               32.00:  ROP Max 
 RPMA.rpm               120.90:  RPM Surface Avg 
 RPMN.rpm               120.00:  RPM Surface Min 
 RPMX.rpm               140.00:  RPM Surface Max 
 RRUN.                    0700:  Rig Run Number 
 RTIM.hr                  3.20:  Time Reaming 
 SAZI.deg               109.99:  Azm, Start 
 SDEP.m                5231.01:  Start Depth 
 SIDD.                      No:  Serv Intrp, DD 
 SINC.deg                73.72:  Inc, Start 
 SPPA.psig             3051.00:  SPP Avg 
 SPPN.psig             2950.00:  SPP Min 
 SPPX.psig             3250.00:  SPP Max 
 STIM.      08.00.00 05-Sep-20:  Start Time 
 SVCS.                 DD, MWD:  Services 
 SVER.                    9.20:  Sperry Version 
 TDAT.m                 559.00:  Tot Depth Attmp 
 TDDF.                      No:  Trip for DD 
 TDLG.m                 559.00:  Tot Depth Loggd 
 TFF .                      No:  Trip for Fail 
 TQAA.f-kp               26.49:  Torque Abs Avg 
 TQAN.f-kp               25.00:  Torque Abs Min 
 TQAX.f-kp               27.00:  Torque Abs Max 
 TRRT.°/30m               1.50:  Turn Rotating 
 MRT .                    HCIM:  Maximum Recorded Temperature 
 TTMX.degC               90.20:  Max Tool Temp 
 VS01.                90542671:  Virtual Str1 SN 
 VS02.                90545185:  Virtual Str2 SN 
 VS03.                90602015:  Virtual Str3 SN 
 VS04.                90515230:  Virtual Str4 SN 
 WBMN.klb                 5.00:  WOB Min 
 WOBA.klb                14.79:  WOB Avg 
 WOBX.klb                20.00:  WOB Max 
 YP  .lhf2               29.00:  Yield Point 
~Curve Information Block
#MNEM.UNIT                 API CODE     Curve Description
#---------               -----------    ---------------------------
 TIME.HHMMSS            00 000 000 000:  GT Time & Date
 GTDEPTH.m              00 000 000 000:  GT Depth
 GTPQH.psia             00 000 000 000:  GT HR Quartz Pressure
 GTTQ.degC              00 000 000 000:  GT Quartz Temperature
 GTTN.NONE              00 000 000 000:  GT Test Number
 GTET.sec               00 000 000 000:  GT Elapsed Test Time
 GTTVD.m                00 000 000 000:  GT True Vertical Depth
#Other Information
#
#WARRANTY: Halliburton will use its best efforts to furnish customers with 
#accurate information and interpretations that are part of, and incident to, the services 
#provided.  However, Halliburton cannot and does not warrant the accuracy 
#or correctness of such information and interpretations.  Under no circumstances should any 
#such information or interpretation be relied upon as the sole basis for any drilling, 
#completion, production, or financial decision or any procedure involving any risk to the 
#safety of any drilling venture, drilling rig or its crew or any other third party.  The 
#Customer has full responsibility for all drilling, completion and production operation.  
#Halliburton makes no representations or warranties, either expressed or 
#implied, including, but not limited to, the implied warranties of merchantability or fitness 
#for a particular purpose, with respect to the services rendered.  In no event will 
#Halliburton be liable for failure to obtain any particular results or for 
#any damages, including, but not limited to, indirect, special or consequential damages, 
#resulting from the use of any information or interpretation provided by Halliburton.
#
~A           TIME           GTDEPTH  GTPQH  GTTQ  GTTN  GTET   GTTVD  
# ...
   05:36:37.082.09-Sep-2020 5634.01 6440.99 80.06 1.00  23.00 2660.75
   05:36:37.282.09-Sep-2020 5634.01 6440.99 80.06 1.00  23.20 2660.75
   05:36:37.482.09-Sep-2020 5634.01 6442.42 80.06 1.00  23.40 2660.75
   05:36:37.682.09-Sep-2020 5634.01 6443.53 80.06 1.00  23.60 2660.75
   05:36:37.882.09-Sep-2020 5634.01 6443.93 80.06 1.00  23.80 2660.75
   05:36:38.082.09-Sep-2020 5634.01 6444.12 80.06 1.00  24.00 2660.75
   05:36:38.282.09-Sep-2020 5634.01 6444.19 80.06 1.00  24.20 2660.75
   05:36:38.482.09-Sep-2020 5634.01 6444.25 80.06 1.00  24.40 2660.75
   05:36:38.682.09-Sep-2020 5634.01 6444.52 80.06 1.00  24.60 2660.75
   05:36:38.882.09-Sep-2020 5634.01 6447.55 80.06 1.00  24.80 2660.75
   05:36:39.082.09-Sep-2020 5634.01 6448.11 80.06 1.00  25.00 2660.75
   05:36:39.282.09-Sep-2020 5634.01 6448.11 80.06 1.00  25.20 2660.75
   05:36:39.482.09-Sep-2020 5634.01 6446.12 80.06 1.00  25.40 2660.75
   05:36:39.682.09-Sep-2020 5634.01 6446.76 80.06 1.00  25.60 2660.75
   05:36:39.882.09-Sep-2020 5634.01 6446.20 80.06 1.00  25.80 2660.75
   05:36:40.082.09-Sep-2020 5634.01 6446.96 80.06 1.00  26.00 2660.75
   05:36:40.282.09-Sep-2020 5634.01 6446.96 80.06 1.00  26.20 2660.75
   05:36:40.482.09-Sep-2020 5634.01 6447.35 80.06 1.00  26.40 2660.75
   05:36:40.682.09-Sep-2020 5634.01 6446.88 80.06 1.00  26.60 2660.75
   05:36:40.882.09-Sep-2020 5634.01 6447.28 80.06 1.00  26.80 2660.75
   05:36:41.082.09-Sep-2020 5634.01 6448.31 80.06 1.00  27.00 2660.75
   05:36:41.282.09-Sep-2020 5634.01 6448.31 80.06 1.00  27.20 2660.75
   05:36:41.482.09-Sep-2020 5634.01 6448.80 80.06 1.00  27.40 2660.75
   05:36:41.682.09-Sep-2020 5634.01 6448.33 80.06 1.00  27.60 2660.75
   05:36:41.882.09-Sep-2020 5634.01 6448.01 80.06 1.00  27.80 2660.75
   05:36:42.082.09-Sep-2020 5634.01 6448.15 80.06 1.00  28.00 2660.75
   05:36:42.282.09-Sep-2020 5634.01 6448.92 80.06 1.00  28.20 2660.75
   05:36:42.482.09-Sep-2020 5634.01 6455.30 80.06 1.00  28.40 2660.75
   05:36:42.682.09-Sep-2020 5634.01 6448.86 80.06 1.00  28.60 2660.75
   05:36:42.882.09-Sep-2020 5634.01 6450.34 80.06 1.00  28.80 2660.75
   05:36:43.082.09-Sep-2020 5634.01 6449.31 80.06 1.00  29.00 2660.75
   05:36:43.282.09-Sep-2020 5634.01 6449.31 80.06 1.00  29.20 2660.75
   05:36:43.482.09-Sep-2020 5634.01 6453.06 80.06 1.00  29.40 2660.75
   05:36:43.682.09-Sep-2020 5634.01 6452.90 80.06 1.00  29.60 2660.75
   05:36:43.882.09-Sep-2020 5634.01 6451.74 80.06 1.00  29.80 2660.75
   05:36:44.082.09-Sep-2020 5634.01 6450.18 80.06 1.00  30.00 2660.75
   05:36:44.282.09-Sep-2020 5634.01 6450.18 80.06 1.00  30.20 2660.75
   05:36:44.482.09-Sep-2020 5634.01 6452.07 80.06 1.00  30.40 2660.75
   05:36:44.682.09-Sep-2020 5634.01 6452.61 80.06 1.00  30.60 2660.75
   05:36:44.882.09-Sep-2020 5634.01 6452.16 80.06 1.00  30.80 2660.75
   05:36:45.082.09-Sep-2020 5634.01 6451.17 80.06 1.00  31.00 2660.75
   05:36:45.282.09-Sep-2020 5634.01 6451.17 80.06 1.00  31.20 2660.75
   05:36:45.482.09-Sep-2020 5634.01 6460.28 80.06 1.00  31.40 2660.75
   05:36:45.682.09-Sep-2020 5634.01 6448.68 80.06 1.00  31.60 2660.75
   05:36:45.882.09-Sep-2020 5634.01 6457.02 80.06 1.00  31.80 2660.75
   05:36:46.082.09-Sep-2020 5634.01 6453.76 80.06 1.00  32.00 2660.75
   05:36:46.282.09-Sep-2020 5634.01 6453.76 80.06 1.00  32.20 2660.75
   05:36:46.482.09-Sep-2020 5634.01 6454.85 80.06 1.00  32.40 2660.75
   05:36:46.682.09-Sep-2020 5634.01 6453.81 80.06 1.00  32.60 2660.75
   05:36:46.882.09-Sep-2020 5634.01 6464.58 80.05 1.00  32.80 2660.75
   05:36:47.082.09-Sep-2020 5634.01 6453.27 80.05 1.00  33.00 2660.75
   05:36:47.282.09-Sep-2020 5634.01 6453.27 80.05 1.00  33.20 2660.75
   05:36:47.482.09-Sep-2020 5634.01 6456.74 80.05 1.00  33.40 2660.75
   05:36:47.682.09-Sep-2020 5634.01 6457.32 80.05 1.00  33.60 2660.75
   05:36:47.882.09-Sep-2020 5634.01 6545.20 80.05 1.00  33.80 2660.75
   05:36:48.082.09-Sep-2020 5634.01 6568.57 80.05 1.00  34.00 2660.75
   05:36:48.282.09-Sep-2020 5634.01 6568.57 80.05 1.00  34.20 2660.75
   05:36:48.482.09-Sep-2020 5634.01 6561.98 80.05 1.00  34.40 2660.75
   05:36:48.682.09-Sep-2020 5634.01 6556.94 80.05 1.00  34.60 2660.75
   05:36:48.882.09-Sep-2020 5634.01 6551.79 80.05 1.00  34.80 2660.75
   05:36:49.081.09-Sep-2020 5634.01 6551.06 80.05 1.00  35.00 2660.75
   05:36:49.281.09-Sep-2020 5634.01 6551.06 80.05 1.00  35.20 2660.75
   05:36:49.481.09-Sep-2020 5634.01 6553.45 80.05 1.00  35.40 2660.75
   05:36:49.681.09-Sep-2020 5634.01 6556.83 80.05 1.00  35.60 2660.75
   05:36:49.881.09-Sep-2020 5634.01 6558.93 80.05 1.00  35.80 2660.75
   05:36:50.081.09-Sep-2020 5634.01 6560.10 80.05 1.00  36.00 2660.75
   05:36:50.281.09-Sep-2020 5634.01 6561.00 80.05 1.00  36.20 2660.75
   05:36:50.481.09-Sep-2020 5634.01 6559.06 80.05 1.00  36.40 2660.75
   05:36:50.681.09-Sep-2020 5634.01 6561.25 80.05 1.00  36.60 2660.75
   05:36:50.881.09-Sep-2020 5634.01 6551.15 80.05 1.00  36.80 2660.75
   05:36:51.081.09-Sep-2020 5634.01 6543.48 80.05 1.00  37.00 2660.75
   05:36:51.281.09-Sep-2020 5634.01 6543.48 80.05 1.00  37.20 2660.75
   05:36:51.481.09-Sep-2020 5634.01 6490.63 80.05 1.00  37.40 2660.75
   05:36:51.681.09-Sep-2020 5634.01 6470.34 80.05 1.00  37.60 2660.75
   05:36:51.881.09-Sep-2020 5634.01 6450.26 80.05 1.00  37.80 2660.75
   05:36:52.081.09-Sep-2020 5634.01 6433.11 80.05 1.00  38.00 2660.75
   05:36:52.281.09-Sep-2020 5634.01 6433.11 80.05 1.00  38.20 2660.75
   05:36:52.481.09-Sep-2020 5634.01 6401.86 80.05 1.00  38.40 2660.75
   05:36:52.681.09-Sep-2020 5634.01 6388.11 80.05 1.00  38.60 2660.75
   05:36:52.881.09-Sep-2020 5634.01 6374.27 80.05 1.00  38.80 2660.75
   05:36:53.081.09-Sep-2020 5634.01 6360.06 80.05 1.00  39.00 2660.75
   05:36:53.281.09-Sep-2020 5634.01 6360.06 80.05 1.00  39.20 2660.75
   05:36:53.481.09-Sep-2020 5634.01 6330.34 80.05 1.00  39.40 2660.75
   05:36:53.681.09-Sep-2020 5634.01 6314.85 80.05 1.00  39.60 2660.75
   05:36:53.881.09-Sep-2020 5634.01 6302.75 80.05 1.00  39.80 2660.75
   05:36:54.081.09-Sep-2020 5634.01 6095.66 80.05 1.00  40.00 2660.75
   05:36:54.281.09-Sep-2020 5634.01 5697.05 80.05 1.00  40.20 2660.75
   05:36:54.481.09-Sep-2020 5634.01 5138.87 80.05 1.00  40.40 2660.75
   05:36:54.681.09-Sep-2020 5634.01 4829.64 80.05 1.00  40.60 2660.75
   05:36:54.881.09-Sep-2020 5634.01 4600.20 80.05 1.00  40.80 2660.75
   05:36:55.081.09-Sep-2020 5634.01 3998.14 80.05 1.00  41.00 2660.75
   05:36:55.281.09-Sep-2020 5634.01 3998.14 80.05 1.00  41.20 2660.75
   05:36:55.481.09-Sep-2020 5634.01 3616.34 80.05 1.00  41.40 2660.75
   05:36:55.681.09-Sep-2020 5634.01 3614.55 80.04 1.00  41.60 2660.75
   05:36:55.881.09-Sep-2020 5634.01 3614.73 80.04 1.00  41.80 2660.75
   05:36:56.081.09-Sep-2020 5634.01 3612.71 80.04 1.00  42.00 2660.75
   05:36:56.281.09-Sep-2020 5634.01 3612.71 80.04 1.00  42.20 2660.75
   05:36:56.481.09-Sep-2020 5634.01 3609.32 80.04 1.00  42.40 2660.75
   05:36:56.681.09-Sep-2020 5634.01 3610.73 80.04 1.00  42.60 2660.75
   05:36:56.881.09-Sep-2020 5634.01 3609.18 80.03 1.00  42.80 2660.75
   05:36:57.081.09-Sep-2020 5634.01 3608.29 80.03 1.00  43.00 2660.75
   05:36:57.281.09-Sep-2020 5634.01 3608.29 80.03 1.00  43.20 2660.75
   05:36:57.481.09-Sep-2020 5634.01 3607.93 80.03 1.00  43.40 2660.75
   05:36:57.681.09-Sep-2020 5634.01 3608.10 80.02 1.00  43.60 2660.75
   05:36:57.881.09-Sep-2020 5634.01 3608.12 80.02 1.00  43.80 2660.75
   05:36:58.081.09-Sep-2020 5634.01 3602.99 80.02 1.00  44.00 2660.75
   05:36:58.281.09-Sep-2020 5634.01 3602.99 80.02 1.00  44.20 2660.75
   05:36:58.481.09-Sep-2020 5634.01 3604.75 80.01 1.00  44.40 2660.75
   05:36:58.681.09-Sep-2020 5634.01 3604.73 80.01 1.00  44.60 2660.75
   05:36:58.881.09-Sep-2020 5634.01 3603.28 80.01 1.00  44.80 2660.75
   05:36:59.081.09-Sep-2020 5634.01 3602.48 80.01 1.00  45.00 2660.75
   05:36:59.281.09-Sep-2020 5634.01 3602.48 80.01 1.00  45.20 2660.75
   05:36:59.481.09-Sep-2020 5634.01 3605.80 80.00 1.00  45.40 2660.75
   05:36:59.681.09-Sep-2020 5634.01 3603.30 80.00 1.00  45.60 2660.75
   05:36:59.881.09-Sep-2020 5634.01 3602.89 80.00 1.00  45.80 2660.75
