~Version Information
 VERS.                  2.0:   CWLS log ASCII Standard -VERSION 2.0
 WRAP.                   NO:   One line per depth step
~Well Information Block
#MNEM.UNIT     VALUE/NAME     DESCRIPTION
#---------     -----------    ---------------------------
 STRT.S             05:36:14 09-Sep-20: START TIME 05:36:14 09-Sep-20
 STOP.S             05:43:10 09-Sep-20: STOP TIME  05:43:10 09-Sep-20
 STEP.S                   0.00: STEP TIME
 NULL.                 -999.25: NULL VALUE
 MDS .        Operator Entered:  MAG DATA SOURCE
 PDAT.          Mean Sea Level:  PERMANENT DATUM
 DCON.         Sperry Drilling:  DIRECTNL CONTR
 RIG .              West Azeri:  RIG NAME
 WELL.           C40 (Slot 20):  WELL NAME
 SRVC.     Turan Drilling Engineering:  CONTRACTOR
 FLD .                     ACG:  FIELD NAME
 CTRY.              Azerbaijan:  COUNTRY NAME
 PROV.                    Baku:  PROVINCE
 STAT.                    Baku:  STATE NAME
 REGN.                   EESSA:  REGION
 BASE.              Azerbaijan:  LOGGING EQUIPMENT BASE LOCATION
 COMP.     BP Exploration (Caspian Sea) Ltd:  COMPANY
 WTYP.                Deviated:  WELL TYPE
 SON .        AZ-XX-0906344804:  JOB NUMBER
 FTOP.          Formation Tops:  FORM TOPS DESC
 ILTD.               Lithology:  INTERP LTH DESC
 SVYD.                  Survey:  SURVEY DESC
 DMOD.             Drill Model:  DRILL MOD DESC
 HPTY.       Minimum Curvature:  HOLE POS TYPE
 NREF.                    Grid:  NORTH REFERENCE
 SPUD.               01-Jan-20:  SPUD DATE
 DATE.      00.59.44 15-Sep-20:  END TIME
 STIM.      12.00.00 12-Jun-20:  START TIME
 DMF .             Drill Floor:  DRILL MEAS FROM
 DFST.                        :  DIST FSL TEXT
 DFWT.                        :  DIST FWL TEXT
 API .                        :  API NUMBER
 CNTY.                        :  COUNTY
 UWI .                        :  UNIQUE WELL IDENTIFIER
 LOC .                        :  LOCATION
 LMF .             Drill Floor:  LOG MEASURED FROM
 VSNS.m                   2.88:  VERT SEC N/S
 VSEW.m                  -3.84:  VERT SEC E/W
 AGAP.m                  43.42:  AIR GAP
 APD .m                  43.42:  DEPTH ABOVE PD
 WDMS.m                 118.27:  WD ELEV
 EGL .m                   0.00:  GROUND ELEVATION
 EPD .m                   0.00:  ELEVATION
 AZTC.deg                 6.23:  AZM TOTAL CORR
 GRDC.deg                 0.20:  GRID CORRECTION
 MDEC.deg                 6.43:  MAGNETIC DECL
 MDIP.deg                59.49:  MAGNETIC DIP
 MFLD.nT              50277.00:  MAGNETIC FIELD
 GVFD.g                   1.00:  GRAVITY FIELD
 VSDR.deg               173.20:  VERT SEC DIRECT
 TDD .m                5790.01:  TOTAL DEPTH (DRILLER)
 SDEP.m                5231.01:  START DEPTH
 DFSL.m                   0.00:  DISTANCE FSL
 DFWL.m                   0.00:  DISTANCE FWL
 UTMY.m             4435808.83:  UTM Y
 UTMX.m              526266.40:  UTM X
 WHEW.m                  -3.84:  WELL HEAD E/W
 WHNS.m                   2.88:  WELL HEAD N/S
 LONG.deg                51.31:  LONGITUDE
 LATI.deg                40.06:  LATITUDE
 TVDS.m                  43.42:  TVDSS CORRECTN
 DEP .m                 430.08:  DEPTH
 EKB .m                  43.42:  KB ELEVATION
 EDF .m                  43.42:  DF ELEVATION
 TDL .m                 559.00:  TOTAL DEPTH (LOGGER)
 MAGU.                 1849381:  MAGUTM CHECKSUM
 VSC .                       0:  VS TO CLOSURE
~Parameter Information Block
#MNEM.UNIT       Value        Description
#---------     -----------    ---------------------------
 AV  .mps                 4.87:  Ann Velocity 
 AVMX.mps                 7.08:  Max Ann Veloc 
 AZIF.deg               108.87:  Azm, Final 
 BHAT.                  Rotary:  BHA Type 
 BROT.°/30m               0.35:  Build Rotating 
 BS  .in                  8.50:  Bit Size 
 BSZ .in                  8.50:  Bit Size 
 BTPL.psig              360.00:  Bit Press Loss 
 CABU.                     Yes:  Customer Abuse 
 COMM.                     ”£|:  Run Comments 1 
 TCS .hr                106.24:  Time Ciculation Ended 
 CV  .mps                 1.77:  Crit Velocity 
 CVMX.mps                 2.03:  Max Crit Veloc 
 DD1 .         Aykhan Agagulov:  Direct Drillr 1 
 DD2 .            Nonso Okofor:  Direct Drillr 2 
 DDSV.               Geo-Pilot:  DD Service 
 DEFF.%                  98.00:  % Det Eff 
 DLRX.°/30m               0.50:  Dogleg Rot Max 
 DLSO.°/30m               0.40:  Dogleg Oriented 
 DLSX.°/30m               0.94:  Dogleg Str Max 
 DRET.      20.30.00 08-Sep-20:  Drill End Time 
 DRST.      22.15.00 06-Sep-20:  Drill Start Tim 
 DTIM.hr                 31.31:  Time Drilling 
 EDEP.m                5790.01:  End Depth 
 ENG1.           Amrah Tahirov:  Engineer 1 
 ENG2.         Dair Mahammadov:  Engineer 2 
 ENG3.           Emil Huseynov:  Engineer 3 
 ETIM.      04.01.04 12-Sep-20:  End Time 
 FLOI.gpm               450.00:  Flow In 
 FLON.gpm               450.00:  Flow In Min 
 FLOS.cptm                2.00:  Fluid Loss 
 FLOX.gpm               450.00:  Flow In Max 
 FTRO.       Formation Presure:  FTWD Run Obj 
 HFLO.                      No:  High Flow 
 HPRE.                      No:  High Pressure 
 HTEM.                      No:  High Temp 
 HYDO.m                   1.80:  Hydro Offset 
 IFIN.deg                72.03:  Inc, Final 
 IMAX.deg                73.72:  Inc Max 
 IMIN.deg                70.94:  Inc Min 
 IMND.m                5508.52:  Inc Min Depth 
 IMXD.m                5253.60:  Inc Max Depth 
 JARR.                      No:  Jarring 
 LETM.      20.30.00 08-Sep-20:  Log End Time 
 LOST.hr                     0:  Lost Rig Time 
 LSTM.      22.15.00 06-Sep-20:  Log Start Time 
 MDCL.ppm             36000.00:  Mud Chlorides 
 MDES.     Inversion Oil/Synthetic:  Mud Desc 
 DFD .sg                  1.44:  Mud Density 
 MDMN.sg                  1.44:  Dens Mud Min 
 MDMX.sg                  1.57:  Dens Mud Max 
 MOIL.                      70:  Run Mud Oil % 
 MOWR.                   70:30:  Run Mud OWR 
 MSND.                       0:  Run Mud Sand % 
 MSOL.                      21:  Run Mud Solids% 
 DFV .spqt               68.00:  Mud Viscosity 
 MWOD.in                  6.75:  MWD Tool OD 
 MWSI.                     Yes:  Serv Intrp, MWD 
 OTIM.hr                174.84:  Time Operating 
 PCON.           Look Like New:  Pad Condition 
 PMAX.psia            10616.93:  Press Op, Max 
 PV  .cP                 50.00:  Mud PV 
 RUN .                     700:  Run Number 
 ROPA.m/hr               14.24:  ROP Avg 
 ROPN.m/hr               10.00:  ROP Min 
 ROPX.m/hr               32.00:  ROP Max 
 RPMA.rpm               120.90:  RPM Surface Avg 
 RPMN.rpm               120.00:  RPM Surface Min 
 RPMX.rpm               140.00:  RPM Surface Max 
 RRUN.                    0700:  Rig Run Number 
 RTIM.hr                  3.20:  Time Reaming 
 SAZI.deg               109.99:  Azm, Start 
 SDEP.m                5231.01:  Start Depth 
 SIDD.                      No:  Serv Intrp, DD 
 SINC.deg                73.72:  Inc, Start 
 SPPA.psig             3051.00:  SPP Avg 
 SPPN.psig             2950.00:  SPP Min 
 SPPX.psig             3250.00:  SPP Max 
 STIM.      08.00.00 05-Sep-20:  Start Time 
 SVCS.                 DD, MWD:  Services 
 SVER.                    9.20:  Sperry Version 
 TDAT.m                 559.00:  Tot Depth Attmp 
 TDDF.                      No:  Trip for DD 
 TDLG.m                 559.00:  Tot Depth Loggd 
 TFF .                      No:  Trip for Fail 
 TQAA.f-kp               26.49:  Torque Abs Avg 
 TQAN.f-kp               25.00:  Torque Abs Min 
 TQAX.f-kp               27.00:  Torque Abs Max 
 TRRT.°/30m               1.50:  Turn Rotating 
 MRT .                    HCIM:  Maximum Recorded Temperature 
 TTMX.degC               90.20:  Max Tool Temp 
 VS01.                90542671:  Virtual Str1 SN 
 VS02.                90545185:  Virtual Str2 SN 
 VS03.                90602015:  Virtual Str3 SN 
 VS04.                90515230:  Virtual Str4 SN 
 WBMN.klb                 5.00:  WOB Min 
 WOBA.klb                14.79:  WOB Avg 
 WOBX.klb                20.00:  WOB Max 
 YP  .lhf2               29.00:  Yield Point 
~Curve Information Block
#MNEM.UNIT                 API CODE     Curve Description
#---------               -----------    ---------------------------
 TIME.HHMMSS            00 000 000 000:  GT Time & Date
 GTDEPTH.m              00 000 000 000:  GT Depth
 GTPQH.psia             00 000 000 000:  GT HR Quartz Pressure
 GTTQ.degC              00 000 000 000:  GT Quartz Temperature
 GTTN.NONE              00 000 000 000:  GT Test Number
 GTET.sec               00 000 000 000:  GT Elapsed Test Time
 GTTVD.m                00 000 000 000:  GT True Vertical Depth
#Other Information
#
#WARRANTY: Halliburton will use its best efforts to furnish customers with 
#accurate information and interpretations that are part of, and incident to, the services 
#provided.  However, Halliburton cannot and does not warrant the accuracy 
#or correctness of such information and interpretations.  Under no circumstances should any 
#such information or interpretation be relied upon as the sole basis for any drilling, 
#completion, production, or financial decision or any procedure involving any risk to the 
#safety of any drilling venture, drilling rig or its crew or any other third party.  The 
#Customer has full responsibility for all drilling, completion and production operation.  
#Halliburton makes no representations or warranties, either expressed or 
#implied, including, but not limited to, the implied warranties of merchantability or fitness 
#for a particular purpose, with respect to the services rendered.  In no event will 
#Halliburton be liable for failure to obtain any particular results or for 
#any damages, including, but not limited to, indirect, special or consequential damages, 
#resulting from the use of any information or interpretation provided by Halliburton.
#
~A           TIME           GTDEPTH  GTPQH  GTTQ  GTTN  GTET   GTTVD  
# ...
   05:42:45.066.09-Sep-2020 5634.01 6543.04 79.96 1.00 390.98 2660.75
   05:42:45.266.09-Sep-2020 5634.01 6543.04 79.96 1.00 391.18 2660.75
   05:42:45.466.09-Sep-2020 5634.01 6541.97 79.96 1.00 391.38 2660.75
   05:42:45.666.09-Sep-2020 5634.01 6544.74 79.96 1.00 391.58 2660.75
   05:42:45.866.09-Sep-2020 5634.01 6542.86 79.96 1.00 391.78 2660.75
   05:42:46.066.09-Sep-2020 5634.01 6540.48 79.96 1.00 391.98 2660.75
   05:42:46.266.09-Sep-2020 5634.01 6540.48 79.96 1.00 392.18 2660.75
   05:42:46.466.09-Sep-2020 5634.01 6547.15 79.96 1.00 392.38 2660.75
   05:42:46.666.09-Sep-2020 5634.01 6544.84 79.96 1.00 392.58 2660.75
   05:42:46.866.09-Sep-2020 5634.01 6543.23 79.96 1.00 392.78 2660.75
   05:42:47.066.09-Sep-2020 5634.01 6543.03 79.96 1.00 392.98 2660.75
   05:42:47.266.09-Sep-2020 5634.01 6543.03 79.96 1.00 393.18 2660.75
   05:42:47.466.09-Sep-2020 5634.01 6542.69 79.96 1.00 393.38 2660.75
   05:42:47.666.09-Sep-2020 5634.01 6551.64 79.96 1.00 393.58 2660.75
   05:42:47.866.09-Sep-2020 5634.01 6539.98 79.96 1.00 393.78 2660.75
   05:42:48.066.09-Sep-2020 5634.01 6545.53 79.95 1.00 393.98 2660.75
   05:42:48.266.09-Sep-2020 5634.01 6545.53 79.95 1.00 394.18 2660.75
   05:42:48.466.09-Sep-2020 5634.01 6542.87 79.95 1.00 394.38 2660.75
   05:42:48.666.09-Sep-2020 5634.01 6553.49 79.95 1.00 394.58 2660.75
   05:42:48.866.09-Sep-2020 5634.01 6538.48 79.95 1.00 394.78 2660.75
   05:42:49.066.09-Sep-2020 5634.01 6547.23 79.95 1.00 394.98 2660.75
   05:42:49.266.09-Sep-2020 5634.01 6547.23 79.95 1.00 395.18 2660.75
   05:42:49.466.09-Sep-2020 5634.01 6551.77 79.95 1.00 395.38 2660.75
   05:42:49.666.09-Sep-2020 5634.01 6541.73 79.95 1.00 395.58 2660.75
   05:42:49.866.09-Sep-2020 5634.01 6546.76 79.95 1.00 395.78 2660.75
   05:42:50.066.09-Sep-2020 5634.01 6546.04 79.95 1.00 395.98 2660.75
   05:42:50.266.09-Sep-2020 5634.01 6546.04 79.95 1.00 396.18 2660.75
   05:42:50.466.09-Sep-2020 5634.01 6546.03 79.95 1.00 396.38 2660.75
   05:42:50.666.09-Sep-2020 5634.01 6544.36 79.95 1.00 396.58 2660.75
   05:42:50.866.09-Sep-2020 5634.01 6545.18 79.95 1.00 396.78 2660.75
   05:42:51.066.09-Sep-2020 5634.01 6544.80 79.95 1.00 396.98 2660.75
   05:42:51.266.09-Sep-2020 5634.01 6544.80 79.95 1.00 397.18 2660.75
   05:42:51.466.09-Sep-2020 5634.01 6545.25 79.95 1.00 397.38 2660.75
   05:42:51.666.09-Sep-2020 5634.01 6544.46 79.95 1.00 397.58 2660.75
   05:42:51.866.09-Sep-2020 5634.01 6544.88 79.95 1.00 397.78 2660.75
   05:42:52.066.09-Sep-2020 5634.01 6544.79 79.95 1.00 397.98 2660.75
   05:42:52.266.09-Sep-2020 5634.01 6544.79 79.95 1.00 398.18 2660.75
   05:42:52.466.09-Sep-2020 5634.01 6544.29 79.95 1.00 398.38 2660.75
   05:42:52.666.09-Sep-2020 5634.01 6543.95 79.95 1.00 398.58 2660.75
   05:42:52.866.09-Sep-2020 5634.01 6544.00 79.95 1.00 398.78 2660.75
   05:42:53.066.09-Sep-2020 5634.01 6546.49 79.95 1.00 398.98 2660.75
   05:42:53.266.09-Sep-2020 5634.01 6546.49 79.95 1.00 399.18 2660.75
   05:42:53.466.09-Sep-2020 5634.01 6546.06 79.95 1.00 399.38 2660.75
   05:42:53.666.09-Sep-2020 5634.01 6545.67 79.95 1.00 399.58 2660.75
   05:42:53.866.09-Sep-2020 5634.01 6545.24 79.95 1.00 399.78 2660.75
   05:42:54.066.09-Sep-2020 5634.01 6543.81 79.95 1.00 399.98 2660.75
   05:42:54.266.09-Sep-2020 5634.01 6543.81 79.95 1.00 400.18 2660.75
   05:42:54.466.09-Sep-2020 5634.01 6544.94 79.95 1.00 400.38 2660.75
   05:42:54.666.09-Sep-2020 5634.01 6544.43 79.95 1.00 400.58 2660.75
   05:42:54.866.09-Sep-2020 5634.01 6544.08 79.95 1.00 400.78 2660.75
   05:42:55.066.09-Sep-2020 5634.01 6543.76 79.95 1.00 400.98 2660.75
   05:42:55.266.09-Sep-2020 5634.01 6543.76 79.95 1.00 401.18 2660.75
   05:42:55.466.09-Sep-2020 5634.01 6544.06 79.95 1.00 401.38 2660.75
   05:42:55.666.09-Sep-2020 5634.01 6543.89 79.95 1.00 401.58 2660.75
   05:42:55.866.09-Sep-2020 5634.01 6543.48 79.95 1.00 401.78 2660.75
   05:42:56.066.09-Sep-2020 5634.01 6542.92 79.95 1.00 401.98 2660.75
   05:42:56.266.09-Sep-2020 5634.01 6542.92 79.95 1.00 402.18 2660.75
   05:42:56.466.09-Sep-2020 5634.01 6543.40 79.95 1.00 402.38 2660.75
   05:42:56.666.09-Sep-2020 5634.01 6550.68 79.95 1.00 402.58 2660.75
   05:42:56.866.09-Sep-2020 5634.01 6543.54 79.95 1.00 402.78 2660.75
   05:42:57.066.09-Sep-2020 5634.01 6546.57 79.95 1.00 402.98 2660.75
   05:42:57.266.09-Sep-2020 5634.01 6546.57 79.95 1.00 403.18 2660.75
   05:42:57.466.09-Sep-2020 5634.01 6541.44 79.94 1.00 403.38 2660.75
   05:42:57.666.09-Sep-2020 5634.01 6546.16 79.94 1.00 403.58 2660.75
   05:42:57.866.09-Sep-2020 5634.01 6547.32 79.94 1.00 403.78 2660.75
   05:42:58.066.09-Sep-2020 5634.01 6545.82 79.94 1.00 403.98 2660.75
   05:42:58.266.09-Sep-2020 5634.01 6545.82 79.94 1.00 404.18 2660.75
   05:42:58.466.09-Sep-2020 5634.01 6543.73 79.94 1.00 404.38 2660.75
   05:42:58.666.09-Sep-2020 5634.01 6542.14 79.94 1.00 404.58 2660.75
   05:42:58.866.09-Sep-2020 5634.01 6542.27 79.94 1.00 404.78 2660.75
   05:42:59.066.09-Sep-2020 5634.01 6552.94 79.94 1.00 404.98 2660.75
   05:42:59.266.09-Sep-2020 5634.01 6552.94 79.94 1.00 405.18 2660.75
   05:42:59.466.09-Sep-2020 5634.01 6545.91 79.94 1.00 405.38 2660.75
   05:42:59.666.09-Sep-2020 5634.01 6543.53 79.94 1.00 405.58 2660.75
   05:42:59.866.09-Sep-2020 5634.01 6544.19 79.94 1.00 405.78 2660.75
   05:43:00.066.09-Sep-2020 5634.01 6548.48 79.94 1.00 405.98 2660.75
   05:43:00.266.09-Sep-2020 5634.01 6548.48 79.94 1.00 406.18 2660.75
   05:43:00.466.09-Sep-2020 5634.01 6544.95 79.94 1.00 406.38 2660.75
   05:43:00.666.09-Sep-2020 5634.01 6544.54 79.94 1.00 406.58 2660.75
   05:43:00.866.09-Sep-2020 5634.01 6543.86 79.94 1.00 406.78 2660.75
   05:43:01.066.09-Sep-2020 5634.01 6554.16 79.94 1.00 406.98 2660.75
   05:43:01.266.09-Sep-2020 5634.01 6554.16 79.94 1.00 407.18 2660.75
   05:43:01.466.09-Sep-2020 5634.01 6548.03 79.94 1.00 407.38 2660.75
   05:43:01.666.09-Sep-2020 5634.01 6545.10 79.94 1.00 407.58 2660.75
   05:43:01.866.09-Sep-2020 5634.01 6543.84 79.94 1.00 407.78 2660.75
   05:43:02.066.09-Sep-2020 5634.01 6545.75 79.94 1.00 407.98 2660.75
   05:43:02.266.09-Sep-2020 5634.01 6545.75 79.94 1.00 408.18 2660.75
   05:43:02.466.09-Sep-2020 5634.01 6545.23 79.94 1.00 408.38 2660.75
   05:43:02.666.09-Sep-2020 5634.01 6544.27 79.94 1.00 408.58 2660.75
   05:43:02.866.09-Sep-2020 5634.01 6544.22 79.94 1.00 408.78 2660.75
   05:43:03.066.09-Sep-2020 5634.01 6544.43 79.94 1.00 408.98 2660.75
   05:43:03.266.09-Sep-2020 5634.01 6544.43 79.94 1.00 409.18 2660.75
   05:43:03.466.09-Sep-2020 5634.01 6544.46 79.94 1.00 409.38 2660.75
   05:43:03.666.09-Sep-2020 5634.01 6544.23 79.94 1.00 409.58 2660.75
   05:43:03.866.09-Sep-2020 5634.01 6543.83 79.94 1.00 409.78 2660.75
   05:43:04.066.09-Sep-2020 5634.01 6543.55 79.94 1.00 409.98 2660.75
   05:43:04.266.09-Sep-2020 5634.01 6543.55 79.94 1.00 410.18 2660.75
   05:43:04.466.09-Sep-2020 5634.01 6543.88 79.94 1.00 410.38 2660.75
   05:43:04.666.09-Sep-2020 5634.01 6546.20 79.94 1.00 410.58 2660.75
   05:43:04.866.09-Sep-2020 5634.01 6548.63 79.94 1.00 410.78 2660.75
   05:43:05.066.09-Sep-2020 5634.01 6545.78 79.94 1.00 410.98 2660.75
   05:43:05.266.09-Sep-2020 5634.01 6545.78 79.94 1.00 411.18 2660.75
   05:43:05.466.09-Sep-2020 5634.01 6544.99 79.94 1.00 411.38 2660.75
   05:43:05.666.09-Sep-2020 5634.01 6543.39 79.94 1.00 411.58 2660.75
   05:43:05.866.09-Sep-2020 5634.01 6543.84 79.94 1.00 411.78 2660.75
   05:43:06.066.09-Sep-2020 5634.01 6544.76 79.94 1.00 411.98 2660.75
   05:43:06.266.09-Sep-2020 5634.01 6544.76 79.94 1.00 412.18 2660.75
   05:43:06.466.09-Sep-2020 5634.01 6543.91 79.94 1.00 412.38 2660.75
   05:43:06.665.09-Sep-2020 5634.01 6543.73 79.94 1.00 412.58 2660.75
   05:43:06.865.09-Sep-2020 5634.01 6543.75 79.94 1.00 412.78 2660.75
   05:43:07.065.09-Sep-2020 5634.01 6543.66 79.94 1.00 412.98 2660.75
   05:43:07.265.09-Sep-2020 5634.01 6543.66 79.94 1.00 413.18 2660.75
   05:43:07.465.09-Sep-2020 5634.01 6542.78 79.94 1.00 413.38 2660.75
   05:43:07.665.09-Sep-2020 5634.01 6542.58 79.94 1.00 413.58 2660.75
   05:43:07.865.09-Sep-2020 5634.01 6542.94 79.94 1.00 413.78 2660.75
