~Version Information
 VERS.                  2.0:   CWLS log ASCII Standard -VERSION 2.0
 WRAP.                   NO:   One line per depth step
~Well Information Block
#MNEM.UNIT     VALUE/NAME     DESCRIPTION
#---------     -----------    ---------------------------
 STRT.S             20:00:32 09-Sep-20: START TIME 20:00:32 09-Sep-20
 STOP.S             20:08:52 09-Sep-20: STOP TIME  20:08:52 09-Sep-20
 STEP.S                   0.00: STEP TIME
 NULL.                 -999.25: NULL VALUE
 MDS .        Operator Entered:  MAG DATA SOURCE
 PDAT.          Mean Sea Level:  PERMANENT DATUM
 DCON.         Sperry Drilling:  DIRECTNL CONTR
 RIG .              West Azeri:  RIG NAME
 WELL.           C40 (Slot 20):  WELL NAME
 SRVC.     Turan Drilling Engineering:  CONTRACTOR
 FLD .                     ACG:  FIELD NAME
 CTRY.              Azerbaijan:  COUNTRY NAME
 PROV.                    Baku:  PROVINCE
 STAT.                    Baku:  STATE NAME
 REGN.                   EESSA:  REGION
 BASE.              Azerbaijan:  LOGGING EQUIPMENT BASE LOCATION
 COMP.     BP Exploration (Caspian Sea) Ltd:  COMPANY
 WTYP.                Deviated:  WELL TYPE
 SON .        AZ-XX-0906344804:  JOB NUMBER
 FTOP.          Formation Tops:  FORM TOPS DESC
 ILTD.               Lithology:  INTERP LTH DESC
 SVYD.                  Survey:  SURVEY DESC
 DMOD.             Drill Model:  DRILL MOD DESC
 HPTY.       Minimum Curvature:  HOLE POS TYPE
 NREF.                    Grid:  NORTH REFERENCE
 SPUD.               01-Jan-20:  SPUD DATE
 DATE.      00.59.44 15-Sep-20:  END TIME
 STIM.      12.00.00 12-Jun-20:  START TIME
 DMF .             Drill Floor:  DRILL MEAS FROM
 DFST.                        :  DIST FSL TEXT
 DFWT.                        :  DIST FWL TEXT
 API .                        :  API NUMBER
 CNTY.                        :  COUNTY
 UWI .                        :  UNIQUE WELL IDENTIFIER
 LOC .                        :  LOCATION
 LMF .             Drill Floor:  LOG MEASURED FROM
 VSNS.m                   2.88:  VERT SEC N/S
 VSEW.m                  -3.84:  VERT SEC E/W
 AGAP.m                  43.42:  AIR GAP
 APD .m                  43.42:  DEPTH ABOVE PD
 WDMS.m                 118.27:  WD ELEV
 EGL .m                   0.00:  GROUND ELEVATION
 EPD .m                   0.00:  ELEVATION
 AZTC.deg                 6.23:  AZM TOTAL CORR
 GRDC.deg                 0.20:  GRID CORRECTION
 MDEC.deg                 6.43:  MAGNETIC DECL
 MDIP.deg                59.49:  MAGNETIC DIP
 MFLD.nT              50277.00:  MAGNETIC FIELD
 GVFD.g                   1.00:  GRAVITY FIELD
 VSDR.deg               173.20:  VERT SEC DIRECT
 TDD .m                5790.01:  TOTAL DEPTH (DRILLER)
 SDEP.m                5231.01:  START DEPTH
 DFSL.m                   0.00:  DISTANCE FSL
 DFWL.m                   0.00:  DISTANCE FWL
 UTMY.m             4435808.83:  UTM Y
 UTMX.m              526266.40:  UTM X
 WHEW.m                  -3.84:  WELL HEAD E/W
 WHNS.m                   2.88:  WELL HEAD N/S
 LONG.deg                51.31:  LONGITUDE
 LATI.deg                40.06:  LATITUDE
 TVDS.m                  43.42:  TVDSS CORRECTN
 DEP .m                 430.08:  DEPTH
 EKB .m                  43.42:  KB ELEVATION
 EDF .m                  43.42:  DF ELEVATION
 TDL .m                 559.00:  TOTAL DEPTH (LOGGER)
 MAGU.                 1849381:  MAGUTM CHECKSUM
 VSC .                       0:  VS TO CLOSURE
~Parameter Information Block
#MNEM.UNIT       Value        Description
#---------     -----------    ---------------------------
 AV  .mps                 4.87:  Ann Velocity 
 AVMX.mps                 7.08:  Max Ann Veloc 
 AZIF.deg               108.87:  Azm, Final 
 BHAT.                  Rotary:  BHA Type 
 BROT.°/30m               0.35:  Build Rotating 
 BS  .in                  8.50:  Bit Size 
 BSZ .in                  8.50:  Bit Size 
 BTPL.psig              360.00:  Bit Press Loss 
 CABU.                     Yes:  Customer Abuse 
 TCS .hr                106.24:  Time Ciculation Ended 
 CV  .mps                 1.77:  Crit Velocity 
 CVMX.mps                 2.03:  Max Crit Veloc 
 DD1 .         Aykhan Agagulov:  Direct Drillr 1 
 DD2 .            Nonso Okofor:  Direct Drillr 2 
 DDSV.               Geo-Pilot:  DD Service 
 DEFF.%                  98.00:  % Det Eff 
 DLRX.°/30m               0.50:  Dogleg Rot Max 
 DLSO.°/30m               0.40:  Dogleg Oriented 
 DLSX.°/30m               0.94:  Dogleg Str Max 
 DRET.      20.30.00 08-Sep-20:  Drill End Time 
 DRST.      22.15.00 06-Sep-20:  Drill Start Tim 
 DTIM.hr                 31.31:  Time Drilling 
 EDEP.m                5790.01:  End Depth 
 ENG1.           Amrah Tahirov:  Engineer 1 
 ENG2.         Dair Mahammadov:  Engineer 2 
 ENG3.           Emil Huseynov:  Engineer 3 
 ETIM.      04.01.04 12-Sep-20:  End Time 
 FLOI.gpm               450.00:  Flow In 
 FLON.gpm               450.00:  Flow In Min 
 FLOS.cptm                2.00:  Fluid Loss 
 FLOX.gpm               450.00:  Flow In Max 
 FTRO.       Formation Presure:  FTWD Run Obj 
 HFLO.                      No:  High Flow 
 HPRE.                      No:  High Pressure 
 HTEM.                      No:  High Temp 
 HYDO.m                   1.80:  Hydro Offset 
 IFIN.deg                72.03:  Inc, Final 
 IMAX.deg                73.72:  Inc Max 
 IMIN.deg                70.94:  Inc Min 
 IMND.m                5508.52:  Inc Min Depth 
 IMXD.m                5253.60:  Inc Max Depth 
 JARR.                      No:  Jarring 
 LETM.      20.30.00 08-Sep-20:  Log End Time 
 LOST.hr                     0:  Lost Rig Time 
 LSTM.      22.15.00 06-Sep-20:  Log Start Time 
 MDCL.ppm             36000.00:  Mud Chlorides 
 MDES.     Inversion Oil/Synthetic:  Mud Desc 
 DFD .sg                  1.44:  Mud Density 
 MDMN.sg                  1.44:  Dens Mud Min 
 MDMX.sg                  1.57:  Dens Mud Max 
 MOIL.                      70:  Run Mud Oil % 
 MOWR.                   70:30:  Run Mud OWR 
 MSND.                       0:  Run Mud Sand % 
 MSOL.                      21:  Run Mud Solids% 
 DFV .spqt               68.00:  Mud Viscosity 
 MWOD.in                  6.75:  MWD Tool OD 
 MWSI.                     Yes:  Serv Intrp, MWD 
 OTIM.hr                174.84:  Time Operating 
 PCON.           Look Like New:  Pad Condition 
 PMAX.psia            10616.93:  Press Op, Max 
 PV  .cP                 50.00:  Mud PV 
 RUN .                     700:  Run Number 
 ROPA.m/hr               14.24:  ROP Avg 
 ROPN.m/hr               10.00:  ROP Min 
 ROPX.m/hr               32.00:  ROP Max 
 RPMA.rpm               120.90:  RPM Surface Avg 
 RPMN.rpm               120.00:  RPM Surface Min 
 RPMX.rpm               140.00:  RPM Surface Max 
 RRUN.                    0700:  Rig Run Number 
 RTIM.hr                  3.20:  Time Reaming 
 SAZI.deg               109.99:  Azm, Start 
 SDEP.m                5231.01:  Start Depth 
 SIDD.                      No:  Serv Intrp, DD 
 SINC.deg                73.72:  Inc, Start 
 SPPA.psig             3051.00:  SPP Avg 
 SPPN.psig             2950.00:  SPP Min 
 SPPX.psig             3250.00:  SPP Max 
 STIM.      08.00.00 05-Sep-20:  Start Time 
 SVCS.                 DD, MWD:  Services 
 SVER.                    9.20:  Sperry Version 
 TDAT.m                 559.00:  Tot Depth Attmp 
 TDDF.                      No:  Trip for DD 
 TDLG.m                 559.00:  Tot Depth Loggd 
 TFF .                      No:  Trip for Fail 
 TQAA.f-kp               26.49:  Torque Abs Avg 
 TQAN.f-kp               25.00:  Torque Abs Min 
 TQAX.f-kp               27.00:  Torque Abs Max 
 TRRT.°/30m               1.50:  Turn Rotating 
 MRT .                    HCIM:  Maximum Recorded Temperature 
 TTMX.degC               90.20:  Max Tool Temp 
 VS01.                90542671:  Virtual Str1 SN 
 VS02.                90545185:  Virtual Str2 SN 
 VS03.                90602015:  Virtual Str3 SN 
 VS04.                90515230:  Virtual Str4 SN 
 WBMN.klb                 5.00:  WOB Min 
 WOBA.klb                14.79:  WOB Avg 
 WOBX.klb                20.00:  WOB Max 
 YP  .lhf2               29.00:  Yield Point 
~Curve Information Block
#MNEM.UNIT                 API CODE     Curve Description
#---------               -----------    ---------------------------
 TIME.HHMMSS            00 000 000 000:  GT Time & Date
 GTDEPTH.m              00 000 000 000:  GT Depth
 GTPQH.psia             00 000 000 000:  GT HR Quartz Pressure
 GTTQ.degC              00 000 000 000:  GT Quartz Temperature
 GTTN.NONE              00 000 000 000:  GT Test Number
 GTET.sec               00 000 000 000:  GT Elapsed Test Time
 GTTVD.m                00 000 000 000:  GT True Vertical Depth
#Other Information
#
#WARRANTY: Halliburton will use its best efforts to furnish customers with 
#accurate information and interpretations that are part of, and incident to, the services 
#provided.  However, Halliburton cannot and does not warrant the accuracy 
#or correctness of such information and interpretations.  Under no circumstances should any 
#such information or interpretation be relied upon as the sole basis for any drilling, 
#completion, production, or financial decision or any procedure involving any risk to the 
#safety of any drilling venture, drilling rig or its crew or any other third party.  The 
#Customer has full responsibility for all drilling, completion and production operation.  
#Halliburton makes no representations or warranties, either expressed or 
#implied, including, but not limited to, the implied warranties of merchantability or fitness 
#for a particular purpose, with respect to the services rendered.  In no event will 
#Halliburton be liable for failure to obtain any particular results or for 
#any damages, including, but not limited to, indirect, special or consequential damages, 
#resulting from the use of any information or interpretation provided by Halliburton.
#
~A           TIME           GTDEPTH  GTPQH  GTTQ  GTTN   GTET   GTTVD  
# ...
   20:05:26.005.09-Sep-2020 5259.51 4139.69 74.10 24.00 293.94 2544.41
   20:05:26.205.09-Sep-2020 5259.51 4139.93 74.10 24.00 294.14 2544.41
   20:05:26.405.09-Sep-2020 5259.51 4139.93 74.10 24.00 294.34 2544.41
   20:05:26.605.09-Sep-2020 5259.51 4140.12 74.10 24.00 294.54 2544.41
   20:05:26.805.09-Sep-2020 5259.51 4140.05 74.10 24.00 294.74 2544.41
   20:05:27.005.09-Sep-2020 5259.51 4140.16 74.10 24.00 294.94 2544.41
   20:05:27.205.09-Sep-2020 5259.51 4139.17 74.10 24.00 295.14 2544.41
   20:05:27.405.09-Sep-2020 5259.51 4139.17 74.10 24.00 295.34 2544.41
   20:05:27.605.09-Sep-2020 5259.51 4140.34 74.10 24.00 295.54 2544.41
   20:05:27.806.09-Sep-2020 5259.51 4140.11 74.10 24.00 295.74 2544.41
   20:05:28.006.09-Sep-2020 5259.51 4139.68 74.10 24.00 295.94 2544.41
   20:05:28.206.09-Sep-2020 5259.51 4140.11 74.10 24.00 296.14 2544.41
   20:05:28.406.09-Sep-2020 5259.51 4140.11 74.10 24.00 296.34 2544.41
   20:05:28.606.09-Sep-2020 5259.51 4140.15 74.10 24.00 296.54 2544.41
   20:05:28.806.09-Sep-2020 5259.51 4139.73 74.10 24.00 296.74 2544.41
   20:05:29.006.09-Sep-2020 5259.51 4140.17 74.10 24.00 296.94 2544.41
   20:05:29.206.09-Sep-2020 5259.51 4140.33 74.10 24.00 297.14 2544.41
   20:05:29.406.09-Sep-2020 5259.51 4140.33 74.10 24.00 297.34 2544.41
   20:05:29.606.09-Sep-2020 5259.51 4140.09 74.10 24.00 297.54 2544.41
   20:05:29.807.09-Sep-2020 5259.51 4140.29 74.10 24.00 297.74 2544.41
   20:05:30.007.09-Sep-2020 5259.51 4140.07 74.10 24.00 297.94 2544.41
   20:05:30.207.09-Sep-2020 5259.51 4140.12 74.10 24.00 298.14 2544.41
   20:05:30.407.09-Sep-2020 5259.51 4140.12 74.10 24.00 298.34 2544.41
   20:05:30.607.09-Sep-2020 5259.51 4140.10 74.10 24.00 298.54 2544.41
   20:05:30.807.09-Sep-2020 5259.51 4140.13 74.10 24.00 298.74 2544.41
   20:05:31.007.09-Sep-2020 5259.51 4140.14 74.10 24.00 298.94 2544.41
   20:05:31.207.09-Sep-2020 5259.51 4140.15 74.10 24.00 299.14 2544.41
   20:05:31.407.09-Sep-2020 5259.51 4140.15 74.10 24.00 299.34 2544.41
   20:05:31.607.09-Sep-2020 5259.51 4140.10 74.10 24.00 299.54 2544.41
   20:05:31.807.09-Sep-2020 5259.51 4140.10 74.10 24.00 299.74 2544.41
   20:05:32.008.09-Sep-2020 5259.51 4140.15 74.10 24.00 299.94 2544.41
   20:05:32.208.09-Sep-2020 5259.51 4140.16 74.10 24.00 300.14 2544.41
   20:05:32.408.09-Sep-2020 5259.51 4140.16 74.10 24.00 300.34 2544.41
   20:05:32.608.09-Sep-2020 5259.51 4140.12 74.10 24.00 300.54 2544.41
   20:05:32.808.09-Sep-2020 5259.51 4140.64 74.10 24.00 300.74 2544.41
   20:05:33.008.09-Sep-2020 5259.51 4140.40 74.10 24.00 300.94 2544.41
   20:05:33.208.09-Sep-2020 5259.51 4140.33 74.10 24.00 301.14 2544.41
   20:05:33.408.09-Sep-2020 5259.51 4140.33 74.10 24.00 301.34 2544.41
   20:05:33.608.09-Sep-2020 5259.51 4140.16 74.10 24.00 301.54 2544.41
   20:05:33.808.09-Sep-2020 5259.51 4140.18 74.10 24.00 301.74 2544.41
   20:05:34.008.09-Sep-2020 5259.51 4140.15 74.10 24.00 301.94 2544.41
   20:05:34.209.09-Sep-2020 5259.51 4140.15 74.10 24.00 302.14 2544.41
   20:05:34.409.09-Sep-2020 5259.51 4140.15 74.10 24.00 302.34 2544.41
   20:05:34.609.09-Sep-2020 5259.51 4140.13 74.10 24.00 302.54 2544.41
   20:05:34.809.09-Sep-2020 5259.51 4140.06 74.10 24.00 302.74 2544.41
   20:05:35.009.09-Sep-2020 5259.51 4140.09 74.10 24.00 302.94 2544.41
   20:05:35.209.09-Sep-2020 5259.51 4140.11 74.10 24.00 303.14 2544.41
   20:05:35.409.09-Sep-2020 5259.51 4140.15 74.10 24.00 303.34 2544.41
   20:05:35.609.09-Sep-2020 5259.51 4140.13 74.10 24.00 303.54 2544.41
   20:05:35.809.09-Sep-2020 5259.51 4139.76 74.10 24.00 303.74 2544.41
   20:05:36.009.09-Sep-2020 5259.51 4139.97 74.10 24.00 303.94 2544.41
   20:05:36.209.09-Sep-2020 5259.51 4140.46 74.10 24.00 304.14 2544.41
   20:05:36.410.09-Sep-2020 5259.51 4140.31 74.10 24.00 304.34 2544.41
   20:05:36.610.09-Sep-2020 5259.51 4140.22 74.10 24.00 304.54 2544.41
   20:05:36.810.09-Sep-2020 5259.51 4140.34 74.10 24.00 304.74 2544.41
   20:05:37.010.09-Sep-2020 5259.51 4138.97 74.10 24.00 304.94 2544.41
   20:05:37.210.09-Sep-2020 5259.51 4140.63 74.10 24.00 305.14 2544.41
   20:05:37.410.09-Sep-2020 5259.51 4140.63 74.10 24.00 305.34 2544.41
   20:05:37.610.09-Sep-2020 5259.51 4140.10 74.10 24.00 305.54 2544.41
   20:05:37.810.09-Sep-2020 5259.51 4139.97 74.10 24.00 305.74 2544.41
   20:05:38.010.09-Sep-2020 5259.51 4140.19 74.10 24.00 305.94 2544.41
   20:05:38.210.09-Sep-2020 5259.51 4139.68 74.10 24.00 306.14 2544.41
   20:05:38.410.09-Sep-2020 5259.51 4139.68 74.10 24.00 306.34 2544.41
   20:05:38.611.09-Sep-2020 5259.51 4140.28 74.10 24.00 306.54 2544.41
   20:05:38.811.09-Sep-2020 5259.51 4140.05 74.10 24.00 306.74 2544.41
   20:05:39.011.09-Sep-2020 5259.51 4139.23 74.10 24.00 306.94 2544.41
   20:05:39.211.09-Sep-2020 5259.51 4140.81 74.10 24.00 307.14 2544.41
   20:05:39.411.09-Sep-2020 5259.51 4140.81 74.10 24.00 307.34 2544.41
   20:05:39.611.09-Sep-2020 5259.51 4140.13 74.10 24.00 307.54 2544.41
   20:05:39.811.09-Sep-2020 5259.51 4139.05 74.10 24.00 307.74 2544.41
   20:05:40.011.09-Sep-2020 5259.51 4140.94 74.10 24.00 307.94 2544.41
   20:05:40.211.09-Sep-2020 5259.51 4140.33 74.10 24.00 308.14 2544.41
   20:05:40.411.09-Sep-2020 5259.51 4140.33 74.10 24.00 308.34 2544.41
   20:05:40.611.09-Sep-2020 5259.51 4140.03 74.10 24.00 308.54 2544.41
   20:05:40.812.09-Sep-2020 5259.51 4140.28 74.10 24.00 308.74 2544.41
   20:05:41.012.09-Sep-2020 5259.51 4140.16 74.10 24.00 308.94 2544.41
   20:05:41.212.09-Sep-2020 5259.51 4140.12 74.10 24.00 309.14 2544.41
   20:05:41.412.09-Sep-2020 5259.51 4140.12 74.10 24.00 309.34 2544.41
   20:05:41.612.09-Sep-2020 5259.51 4140.10 74.10 24.00 309.54 2544.41
   20:05:41.812.09-Sep-2020 5259.51 4140.16 74.10 24.00 309.74 2544.41
   20:05:42.012.09-Sep-2020 5259.51 4140.16 74.10 24.00 309.94 2544.41
   20:05:42.212.09-Sep-2020 5259.51 4140.13 74.10 24.00 310.14 2544.41
   20:05:42.412.09-Sep-2020 5259.51 4140.13 74.10 24.00 310.34 2544.41
   20:05:42.612.09-Sep-2020 5259.51 4140.12 74.10 24.00 310.54 2544.41
   20:05:42.813.09-Sep-2020 5259.51 4140.12 74.10 24.00 310.74 2544.41
   20:05:43.013.09-Sep-2020 5259.51 4140.16 74.10 24.00 310.94 2544.41
   20:05:43.213.09-Sep-2020 5259.51 4140.18 74.10 24.00 311.14 2544.41
   20:05:43.413.09-Sep-2020 5259.51 4139.12 74.10 24.00 311.34 2544.41
   20:05:43.613.09-Sep-2020 5259.51 4140.89 74.10 24.00 311.54 2544.41
   20:05:43.813.09-Sep-2020 5259.51 4140.51 74.10 24.00 311.74 2544.41
   20:05:44.013.09-Sep-2020 5259.51 4140.35 74.10 24.00 311.94 2544.41
   20:05:44.213.09-Sep-2020 5259.51 4140.24 74.10 24.00 312.14 2544.41
   20:05:44.413.09-Sep-2020 5259.51 4140.24 74.10 24.00 312.34 2544.41
   20:05:44.613.09-Sep-2020 5259.51 4140.23 74.10 24.00 312.54 2544.41
   20:05:44.813.09-Sep-2020 5259.51 4140.15 74.10 24.00 312.74 2544.41
   20:05:45.014.09-Sep-2020 5259.51 4140.17 74.10 24.00 312.94 2544.41
   20:05:45.214.09-Sep-2020 5259.51 4140.14 74.10 24.00 313.14 2544.41
   20:05:45.414.09-Sep-2020 5259.51 4140.14 74.10 24.00 313.34 2544.41
   20:05:45.614.09-Sep-2020 5259.51 4140.16 74.10 24.00 313.54 2544.41
   20:05:45.814.09-Sep-2020 5259.51 4140.08 74.10 24.00 313.74 2544.41
   20:05:46.014.09-Sep-2020 5259.51 4140.10 74.10 24.00 313.94 2544.41
   20:05:46.214.09-Sep-2020 5259.51 4140.13 74.10 24.00 314.14 2544.41
   20:05:46.414.09-Sep-2020 5259.51 4140.13 74.10 24.00 314.34 2544.41
   20:05:46.614.09-Sep-2020 5259.51 4140.16 74.10 24.00 314.54 2544.41
   20:05:46.814.09-Sep-2020 5259.51 4139.05 74.10 24.00 314.75 2544.41
   20:05:47.014.09-Sep-2020 5259.51 4140.73 74.10 24.00 314.95 2544.41
   20:05:47.215.09-Sep-2020 5259.51 4140.43 74.10 24.00 315.15 2544.41
   20:05:47.415.09-Sep-2020 5259.51 4140.43 74.10 24.00 315.35 2544.41
   20:05:47.615.09-Sep-2020 5259.51 4140.19 74.10 24.00 315.55 2544.41
   20:05:47.815.09-Sep-2020 5259.51 4140.38 74.10 24.00 315.75 2544.41
   20:05:48.015.09-Sep-2020 5259.51 4139.20 74.10 24.00 315.95 2544.41
   20:05:48.215.09-Sep-2020 5259.51 4070.14 74.10 24.00 316.15 2544.41
   20:05:48.415.09-Sep-2020 5259.51 4070.14 74.10 24.00 316.35 2544.41
