~Version Information
 VERS.                  2.0:   CWLS log ASCII Standard -VERSION 2.0
 WRAP.                   NO:   One line per depth step
~Well Information Block
#MNEM.UNIT     VALUE/NAME     DESCRIPTION
#---------     -----------    ---------------------------
 STRT.S             16:52:14 09-Sep-20: START TIME 16:52:14 09-Sep-20
 STOP.S             17:00:39 09-Sep-20: STOP TIME  17:00:39 09-Sep-20
 STEP.S                   0.00: STEP TIME
 NULL.                 -999.25: NULL VALUE
 MDS .        Operator Entered:  MAG DATA SOURCE
 PDAT.          Mean Sea Level:  PERMANENT DATUM
 DCON.         Sperry Drilling:  DIRECTNL CONTR
 RIG .              West Azeri:  RIG NAME
 WELL.           C40 (Slot 20):  WELL NAME
 SRVC.     Turan Drilling Engineering:  CONTRACTOR
 FLD .                     ACG:  FIELD NAME
 CTRY.              Azerbaijan:  COUNTRY NAME
 PROV.                    Baku:  PROVINCE
 STAT.                    Baku:  STATE NAME
 REGN.                   EESSA:  REGION
 BASE.              Azerbaijan:  LOGGING EQUIPMENT BASE LOCATION
 COMP.     BP Exploration (Caspian Sea) Ltd:  COMPANY
 WTYP.                Deviated:  WELL TYPE
 SON .        AZ-XX-0906344804:  JOB NUMBER
 FTOP.          Formation Tops:  FORM TOPS DESC
 ILTD.               Lithology:  INTERP LTH DESC
 SVYD.                  Survey:  SURVEY DESC
 DMOD.             Drill Model:  DRILL MOD DESC
 HPTY.       Minimum Curvature:  HOLE POS TYPE
 NREF.                    Grid:  NORTH REFERENCE
 SPUD.               01-Jan-20:  SPUD DATE
 DATE.      00.59.44 15-Sep-20:  END TIME
 STIM.      12.00.00 12-Jun-20:  START TIME
 DMF .             Drill Floor:  DRILL MEAS FROM
 DFST.                        :  DIST FSL TEXT
 DFWT.                        :  DIST FWL TEXT
 API .                        :  API NUMBER
 CNTY.                        :  COUNTY
 UWI .                        :  UNIQUE WELL IDENTIFIER
 LOC .                        :  LOCATION
 LMF .             Drill Floor:  LOG MEASURED FROM
 VSNS.m                   2.88:  VERT SEC N/S
 VSEW.m                  -3.84:  VERT SEC E/W
 AGAP.m                  43.42:  AIR GAP
 APD .m                  43.42:  DEPTH ABOVE PD
 WDMS.m                 118.27:  WD ELEV
 EGL .m                   0.00:  GROUND ELEVATION
 EPD .m                   0.00:  ELEVATION
 AZTC.deg                 6.23:  AZM TOTAL CORR
 GRDC.deg                 0.20:  GRID CORRECTION
 MDEC.deg                 6.43:  MAGNETIC DECL
 MDIP.deg                59.49:  MAGNETIC DIP
 MFLD.nT              50277.00:  MAGNETIC FIELD
 GVFD.g                   1.00:  GRAVITY FIELD
 VSDR.deg               173.20:  VERT SEC DIRECT
 TDD .m                5790.01:  TOTAL DEPTH (DRILLER)
 SDEP.m                5231.01:  START DEPTH
 DFSL.m                   0.00:  DISTANCE FSL
 DFWL.m                   0.00:  DISTANCE FWL
 UTMY.m             4435808.83:  UTM Y
 UTMX.m              526266.40:  UTM X
 WHEW.m                  -3.84:  WELL HEAD E/W
 WHNS.m                   2.88:  WELL HEAD N/S
 LONG.deg                51.31:  LONGITUDE
 LATI.deg                40.06:  LATITUDE
 TVDS.m                  43.42:  TVDSS CORRECTN
 DEP .m                 430.08:  DEPTH
 EKB .m                  43.42:  KB ELEVATION
 EDF .m                  43.42:  DF ELEVATION
 TDL .m                 559.00:  TOTAL DEPTH (LOGGER)
 MAGU.                 1849381:  MAGUTM CHECKSUM
 VSC .                       0:  VS TO CLOSURE
~Parameter Information Block
#MNEM.UNIT       Value        Description
#---------     -----------    ---------------------------
 AV  .mps                 4.87:  Ann Velocity 
 AVMX.mps                 7.08:  Max Ann Veloc 
 AZIF.deg               108.87:  Azm, Final 
 BHAT.                  Rotary:  BHA Type 
 BROT.°/30m               0.35:  Build Rotating 
 BS  .in                  8.50:  Bit Size 
 BSZ .in                  8.50:  Bit Size 
 BTPL.psig              360.00:  Bit Press Loss 
 CABU.                     Yes:  Customer Abuse 
 TCS .hr                106.24:  Time Ciculation Ended 
 CV  .mps                 1.77:  Crit Velocity 
 CVMX.mps                 2.03:  Max Crit Veloc 
 DD1 .         Aykhan Agagulov:  Direct Drillr 1 
 DD2 .            Nonso Okofor:  Direct Drillr 2 
 DDSV.               Geo-Pilot:  DD Service 
 DEFF.%                  98.00:  % Det Eff 
 DLRX.°/30m               0.50:  Dogleg Rot Max 
 DLSO.°/30m               0.40:  Dogleg Oriented 
 DLSX.°/30m               0.94:  Dogleg Str Max 
 DRET.      20.30.00 08-Sep-20:  Drill End Time 
 DRST.      22.15.00 06-Sep-20:  Drill Start Tim 
 DTIM.hr                 31.31:  Time Drilling 
 EDEP.m                5790.01:  End Depth 
 ENG1.           Amrah Tahirov:  Engineer 1 
 ENG2.         Dair Mahammadov:  Engineer 2 
 ENG3.           Emil Huseynov:  Engineer 3 
 ETIM.      04.01.04 12-Sep-20:  End Time 
 FLOI.gpm               450.00:  Flow In 
 FLON.gpm               450.00:  Flow In Min 
 FLOS.cptm                2.00:  Fluid Loss 
 FLOX.gpm               450.00:  Flow In Max 
 FTRO.       Formation Presure:  FTWD Run Obj 
 HFLO.                      No:  High Flow 
 HPRE.                      No:  High Pressure 
 HTEM.                      No:  High Temp 
 HYDO.m                   1.80:  Hydro Offset 
 IFIN.deg                72.03:  Inc, Final 
 IMAX.deg                73.72:  Inc Max 
 IMIN.deg                70.94:  Inc Min 
 IMND.m                5508.52:  Inc Min Depth 
 IMXD.m                5253.60:  Inc Max Depth 
 JARR.                      No:  Jarring 
 LETM.      20.30.00 08-Sep-20:  Log End Time 
 LOST.hr                     0:  Lost Rig Time 
 LSTM.      22.15.00 06-Sep-20:  Log Start Time 
 MDCL.ppm             36000.00:  Mud Chlorides 
 MDES.     Inversion Oil/Synthetic:  Mud Desc 
 DFD .sg                  1.44:  Mud Density 
 MDMN.sg                  1.44:  Dens Mud Min 
 MDMX.sg                  1.57:  Dens Mud Max 
 MOIL.                      70:  Run Mud Oil % 
 MOWR.                   70:30:  Run Mud OWR 
 MSND.                       0:  Run Mud Sand % 
 MSOL.                      21:  Run Mud Solids% 
 DFV .spqt               68.00:  Mud Viscosity 
 MWOD.in                  6.75:  MWD Tool OD 
 MWSI.                     Yes:  Serv Intrp, MWD 
 OTIM.hr                174.84:  Time Operating 
 PCON.           Look Like New:  Pad Condition 
 PMAX.psia            10616.93:  Press Op, Max 
 PV  .cP                 50.00:  Mud PV 
 RUN .                     700:  Run Number 
 ROPA.m/hr               14.24:  ROP Avg 
 ROPN.m/hr               10.00:  ROP Min 
 ROPX.m/hr               32.00:  ROP Max 
 RPMA.rpm               120.90:  RPM Surface Avg 
 RPMN.rpm               120.00:  RPM Surface Min 
 RPMX.rpm               140.00:  RPM Surface Max 
 RRUN.                    0700:  Rig Run Number 
 RTIM.hr                  3.20:  Time Reaming 
 SAZI.deg               109.99:  Azm, Start 
 SDEP.m                5231.01:  Start Depth 
 SIDD.                      No:  Serv Intrp, DD 
 SINC.deg                73.72:  Inc, Start 
 SPPA.psig             3051.00:  SPP Avg 
 SPPN.psig             2950.00:  SPP Min 
 SPPX.psig             3250.00:  SPP Max 
 STIM.      08.00.00 05-Sep-20:  Start Time 
 SVCS.                 DD, MWD:  Services 
 SVER.                    9.20:  Sperry Version 
 TDAT.m                 559.00:  Tot Depth Attmp 
 TDDF.                      No:  Trip for DD 
 TDLG.m                 559.00:  Tot Depth Loggd 
 TFF .                      No:  Trip for Fail 
 TQAA.f-kp               26.49:  Torque Abs Avg 
 TQAN.f-kp               25.00:  Torque Abs Min 
 TQAX.f-kp               27.00:  Torque Abs Max 
 TRRT.°/30m               1.50:  Turn Rotating 
 MRT .                    HCIM:  Maximum Recorded Temperature 
 TTMX.degC               90.20:  Max Tool Temp 
 VS01.                90542671:  Virtual Str1 SN 
 VS02.                90545185:  Virtual Str2 SN 
 VS03.                90602015:  Virtual Str3 SN 
 VS04.                90515230:  Virtual Str4 SN 
 WBMN.klb                 5.00:  WOB Min 
 WOBA.klb                14.79:  WOB Avg 
 WOBX.klb                20.00:  WOB Max 
 YP  .lhf2               29.00:  Yield Point 
~Curve Information Block
#MNEM.UNIT                 API CODE     Curve Description
#---------               -----------    ---------------------------
 TIME.HHMMSS            00 000 000 000:  GT Time & Date
 GTDEPTH.m              00 000 000 000:  GT Depth
 GTPQH.psia             00 000 000 000:  GT HR Quartz Pressure
 GTTQ.degC              00 000 000 000:  GT Quartz Temperature
 GTTN.NONE              00 000 000 000:  GT Test Number
 GTET.sec               00 000 000 000:  GT Elapsed Test Time
 GTTVD.m                00 000 000 000:  GT True Vertical Depth
#Other Information
#
#WARRANTY: Halliburton will use its best efforts to furnish customers with 
#accurate information and interpretations that are part of, and incident to, the services 
#provided.  However, Halliburton cannot and does not warrant the accuracy 
#or correctness of such information and interpretations.  Under no circumstances should any 
#such information or interpretation be relied upon as the sole basis for any drilling, 
#completion, production, or financial decision or any procedure involving any risk to the 
#safety of any drilling venture, drilling rig or its crew or any other third party.  The 
#Customer has full responsibility for all drilling, completion and production operation.  
#Halliburton makes no representations or warranties, either expressed or 
#implied, including, but not limited to, the implied warranties of merchantability or fitness 
#for a particular purpose, with respect to the services rendered.  In no event will 
#Halliburton be liable for failure to obtain any particular results or for 
#any damages, including, but not limited to, indirect, special or consequential damages, 
#resulting from the use of any information or interpretation provided by Halliburton.
#
~A           TIME           GTDEPTH  GTPQH  GTTQ  GTTN   GTET   GTTVD  
# ...
   16:57:08.082.09-Sep-2020 5303.01 6326.63 74.67 19.00 293.94 2557.08
   16:57:08.282.09-Sep-2020 5303.01 6326.75 74.67 19.00 294.14 2557.08
   16:57:08.482.09-Sep-2020 5303.01 6326.75 74.67 19.00 294.34 2557.08
   16:57:08.682.09-Sep-2020 5303.01 6329.33 74.67 19.00 294.54 2557.08
   16:57:08.882.09-Sep-2020 5303.01 6327.32 74.67 19.00 294.74 2557.08
   16:57:09.082.09-Sep-2020 5303.01 6327.11 74.67 19.00 294.94 2557.08
   16:57:09.283.09-Sep-2020 5303.01 6326.91 74.67 19.00 295.14 2557.08
   16:57:09.483.09-Sep-2020 5303.01 6326.91 74.67 19.00 295.34 2557.08
   16:57:09.683.09-Sep-2020 5303.01 6329.08 74.67 19.00 295.54 2557.08
   16:57:09.883.09-Sep-2020 5303.01 6327.49 74.67 19.00 295.74 2557.08
   16:57:10.083.09-Sep-2020 5303.01 6327.27 74.67 19.00 295.94 2557.08
   16:57:10.283.09-Sep-2020 5303.01 6327.26 74.67 19.00 296.14 2557.08
   16:57:10.483.09-Sep-2020 5303.01 6327.26 74.67 19.00 296.34 2557.08
   16:57:10.683.09-Sep-2020 5303.01 6326.89 74.67 19.00 296.54 2557.08
   16:57:10.883.09-Sep-2020 5303.01 6326.84 74.67 19.00 296.74 2557.08
   16:57:11.083.09-Sep-2020 5303.01 6326.67 74.67 19.00 296.94 2557.08
   16:57:11.284.09-Sep-2020 5303.01 6326.83 74.67 19.00 297.14 2557.08
   16:57:11.484.09-Sep-2020 5303.01 6326.83 74.67 19.00 297.34 2557.08
   16:57:11.684.09-Sep-2020 5303.01 6326.93 74.67 19.00 297.54 2557.08
   16:57:11.884.09-Sep-2020 5303.01 6326.83 74.67 19.00 297.74 2557.08
   16:57:12.084.09-Sep-2020 5303.01 6334.76 74.67 19.00 297.94 2557.08
   16:57:12.284.09-Sep-2020 5303.01 6326.49 74.67 19.00 298.14 2557.08
   16:57:12.484.09-Sep-2020 5303.01 6326.49 74.67 19.00 298.34 2557.08
   16:57:12.684.09-Sep-2020 5303.01 6327.38 74.67 19.00 298.54 2557.08
   16:57:12.884.09-Sep-2020 5303.01 6327.06 74.67 19.00 298.74 2557.08
   16:57:13.084.09-Sep-2020 5303.01 6327.97 74.67 19.00 298.94 2557.08
   16:57:13.284.09-Sep-2020 5303.01 6328.36 74.67 19.00 299.14 2557.08
   16:57:13.485.09-Sep-2020 5303.01 6328.36 74.67 19.00 299.34 2557.08
   16:57:13.685.09-Sep-2020 5303.01 6326.67 74.67 19.00 299.54 2557.08
   16:57:13.885.09-Sep-2020 5303.01 6326.12 74.67 19.00 299.74 2557.08
   16:57:14.085.09-Sep-2020 5303.01 6326.32 74.67 19.00 299.94 2557.08
   16:57:14.285.09-Sep-2020 5303.01 6326.15 74.67 19.00 300.14 2557.08
   16:57:14.485.09-Sep-2020 5303.01 6326.15 74.67 19.00 300.34 2557.08
   16:57:14.685.09-Sep-2020 5303.01 6325.94 74.67 19.00 300.54 2557.08
   16:57:14.885.09-Sep-2020 5303.01 6325.80 74.67 19.00 300.74 2557.08
   16:57:15.085.09-Sep-2020 5303.01 6325.28 74.67 19.00 300.94 2557.08
   16:57:15.285.09-Sep-2020 5303.01 6325.10 74.67 19.00 301.14 2557.08
   16:57:15.486.09-Sep-2020 5303.01 6325.10 74.67 19.00 301.34 2557.08
   16:57:15.686.09-Sep-2020 5303.01 6324.81 74.67 19.00 301.54 2557.08
   16:57:15.886.09-Sep-2020 5303.01 6324.24 74.67 19.00 301.74 2557.08
   16:57:16.086.09-Sep-2020 5303.01 6326.10 74.67 19.00 301.94 2557.08
   16:57:16.286.09-Sep-2020 5303.01 6325.65 74.67 19.00 302.14 2557.08
   16:57:16.486.09-Sep-2020 5303.01 6325.65 74.67 19.00 302.34 2557.08
   16:57:16.686.09-Sep-2020 5303.01 6337.24 74.67 19.00 302.54 2557.08
   16:57:16.886.09-Sep-2020 5303.01 6323.28 74.67 19.00 302.75 2557.08
   16:57:17.086.09-Sep-2020 5303.01 6324.06 74.67 19.00 302.95 2557.08
   16:57:17.286.09-Sep-2020 5303.01 6326.60 74.67 19.00 303.15 2557.08
   16:57:17.486.09-Sep-2020 5303.01 6326.60 74.67 19.00 303.35 2557.08
   16:57:17.687.09-Sep-2020 5303.01 6326.41 74.67 19.00 303.55 2557.08
   16:57:17.887.09-Sep-2020 5303.01 6326.89 74.67 19.00 303.75 2557.08
   16:57:18.087.09-Sep-2020 5303.01 6333.69 74.67 19.00 303.95 2557.08
   16:57:18.287.09-Sep-2020 5303.01 6325.22 74.67 19.00 304.15 2557.08
   16:57:18.487.09-Sep-2020 5303.01 6325.22 74.67 19.00 304.35 2557.08
   16:57:18.687.09-Sep-2020 5303.01 6326.34 74.67 19.00 304.55 2557.08
   16:57:18.887.09-Sep-2020 5303.01 6325.67 74.67 19.00 304.75 2557.08
   16:57:19.087.09-Sep-2020 5303.01 6326.78 74.67 19.00 304.95 2557.08
   16:57:19.287.09-Sep-2020 5303.01 6334.61 74.67 19.00 305.15 2557.08
   16:57:19.487.09-Sep-2020 5303.01 6334.61 74.67 19.00 305.35 2557.08
   16:57:19.688.09-Sep-2020 5303.01 6325.31 74.67 19.00 305.55 2557.08
   16:57:19.888.09-Sep-2020 5303.01 6326.10 74.67 19.00 305.75 2557.08
   16:57:20.088.09-Sep-2020 5303.01 6335.19 74.67 19.00 305.95 2557.08
   16:57:20.288.09-Sep-2020 5303.01 6328.02 74.67 19.00 306.15 2557.08
   16:57:20.488.09-Sep-2020 5303.01 6328.02 74.67 19.00 306.35 2557.08
   16:57:20.688.09-Sep-2020 5303.01 6327.16 74.67 19.00 306.55 2557.08
   16:57:20.888.09-Sep-2020 5303.01 6326.60 74.67 19.00 306.75 2557.08
   16:57:21.088.09-Sep-2020 5303.01 6327.54 74.67 19.00 306.95 2557.08
   16:57:21.288.09-Sep-2020 5303.01 6328.92 74.67 19.00 307.15 2557.08
   16:57:21.488.09-Sep-2020 5303.01 6328.92 74.67 19.00 307.35 2557.08
   16:57:21.688.09-Sep-2020 5303.01 6327.07 74.67 19.00 307.55 2557.08
   16:57:21.889.09-Sep-2020 5303.01 6326.93 74.67 19.00 307.75 2557.08
   16:57:22.089.09-Sep-2020 5303.01 6326.69 74.67 19.00 307.95 2557.08
   16:57:22.289.09-Sep-2020 5303.01 6326.14 74.67 19.00 308.15 2557.08
   16:57:22.489.09-Sep-2020 5303.01 6326.14 74.67 19.00 308.35 2557.08
   16:57:22.689.09-Sep-2020 5303.01 6325.91 74.67 19.00 308.55 2557.08
   16:57:22.889.09-Sep-2020 5303.01 6325.90 74.67 19.00 308.75 2557.08
   16:57:23.089.09-Sep-2020 5303.01 6325.83 74.67 19.00 308.95 2557.08
   16:57:23.289.09-Sep-2020 5303.01 6325.49 74.67 19.00 309.15 2557.08
   16:57:23.489.09-Sep-2020 5303.01 6325.49 74.67 19.00 309.35 2557.08
   16:57:23.689.09-Sep-2020 5303.01 6325.43 74.67 19.00 309.55 2557.08
   16:57:23.890.09-Sep-2020 5303.01 6332.59 74.67 19.00 309.75 2557.08
   16:57:24.090.09-Sep-2020 5303.01 6325.72 74.67 19.00 309.95 2557.08
   16:57:24.290.09-Sep-2020 5303.01 6324.94 74.67 19.00 310.15 2557.08
   16:57:24.490.09-Sep-2020 5303.01 6324.94 74.67 19.00 310.35 2557.08
   16:57:24.690.09-Sep-2020 5303.01 6325.75 74.67 19.00 310.55 2557.08
   16:57:24.890.09-Sep-2020 5303.01 6327.13 74.67 19.00 310.75 2557.08
   16:57:25.090.09-Sep-2020 5303.01 6327.05 74.67 19.00 310.95 2557.08
   16:57:25.290.09-Sep-2020 5303.01 6325.78 74.67 19.00 311.15 2557.08
   16:57:25.490.09-Sep-2020 5303.01 6325.78 74.67 19.00 311.35 2557.08
   16:57:25.690.09-Sep-2020 5303.01 6325.13 74.67 19.00 311.55 2557.08
   16:57:25.891.09-Sep-2020 5303.01 6325.27 74.67 19.00 311.75 2557.08
   16:57:26.091.09-Sep-2020 5303.01 6325.24 74.67 19.00 311.95 2557.08
   16:57:26.291.09-Sep-2020 5303.01 6325.13 74.67 19.00 312.15 2557.08
   16:57:26.491.09-Sep-2020 5303.01 6325.13 74.67 19.00 312.35 2557.08
   16:57:26.691.09-Sep-2020 5303.01 6324.82 74.67 19.00 312.55 2557.08
   16:57:26.891.09-Sep-2020 5303.01 6324.50 74.67 19.00 312.75 2557.08
   16:57:27.091.09-Sep-2020 5303.01 6324.21 74.67 19.00 312.95 2557.08
   16:57:27.291.09-Sep-2020 5303.01 6331.69 74.67 19.00 313.15 2557.08
   16:57:27.491.09-Sep-2020 5303.01 6331.69 74.67 19.00 313.35 2557.08
   16:57:27.691.09-Sep-2020 5303.01 6324.36 74.67 19.00 313.55 2557.08
   16:57:27.891.09-Sep-2020 5303.01 6325.27 74.67 19.00 313.75 2557.08
   16:57:28.092.09-Sep-2020 5303.01 6324.76 74.67 19.00 313.95 2557.08
   16:57:28.292.09-Sep-2020 5303.01 6327.07 74.67 19.00 314.15 2557.08
   16:57:28.492.09-Sep-2020 5303.01 6327.07 74.67 19.00 314.35 2557.08
   16:57:28.692.09-Sep-2020 5303.01 6325.07 74.67 19.00 314.55 2557.08
   16:57:28.892.09-Sep-2020 5303.01 6325.15 74.67 19.00 314.75 2557.08
   16:57:29.092.09-Sep-2020 5303.01 6325.28 74.67 19.00 314.95 2557.08
   16:57:29.292.09-Sep-2020 5303.01 6325.57 74.67 19.00 315.15 2557.08
   16:57:29.492.09-Sep-2020 5303.01 6325.57 74.67 19.00 315.35 2557.08
   16:57:29.692.09-Sep-2020 5303.01 6326.20 74.67 19.00 315.55 2557.08
   16:57:29.892.09-Sep-2020 5303.01 6332.41 74.67 19.00 315.75 2557.08
   16:57:30.093.09-Sep-2020 5303.01 6325.14 74.67 19.00 315.95 2557.08
   16:57:30.293.09-Sep-2020 5303.01 6324.20 74.67 19.00 316.15 2557.08
   16:57:30.493.09-Sep-2020 5303.01 6324.20 74.67 19.00 316.35 2557.08
