~Version Information
 VERS.                  2.0:   CWLS log ASCII Standard -VERSION 2.0
 WRAP.                   NO:   One line per depth step
~Well Information Block
#MNEM.UNIT     VALUE/NAME     DESCRIPTION
#---------     -----------    ---------------------------
 STRT.S             20:20:33 09-Sep-20: START TIME 20:20:33 09-Sep-20
 STOP.S             20:28:41 09-Sep-20: STOP TIME  20:28:41 09-Sep-20
 STEP.S                   0.00: STEP TIME
 NULL.                 -999.25: NULL VALUE
 MDS .        Operator Entered:  MAG DATA SOURCE
 PDAT.          Mean Sea Level:  PERMANENT DATUM
 DCON.         Sperry Drilling:  DIRECTNL CONTR
 RIG .              West Azeri:  RIG NAME
 WELL.           C40 (Slot 20):  WELL NAME
 SRVC.     Turan Drilling Engineering:  CONTRACTOR
 FLD .                     ACG:  FIELD NAME
 CTRY.              Azerbaijan:  COUNTRY NAME
 PROV.                    Baku:  PROVINCE
 STAT.                    Baku:  STATE NAME
 REGN.                   EESSA:  REGION
 BASE.              Azerbaijan:  LOGGING EQUIPMENT BASE LOCATION
 COMP.     BP Exploration (Caspian Sea) Ltd:  COMPANY
 WTYP.                Deviated:  WELL TYPE
 SON .        AZ-XX-0906344804:  JOB NUMBER
 FTOP.          Formation Tops:  FORM TOPS DESC
 ILTD.               Lithology:  INTERP LTH DESC
 SVYD.                  Survey:  SURVEY DESC
 DMOD.             Drill Model:  DRILL MOD DESC
 HPTY.       Minimum Curvature:  HOLE POS TYPE
 NREF.                    Grid:  NORTH REFERENCE
 SPUD.               01-Jan-20:  SPUD DATE
 DATE.      00.59.44 15-Sep-20:  END TIME
 STIM.      12.00.00 12-Jun-20:  START TIME
 DMF .             Drill Floor:  DRILL MEAS FROM
 DFST.                        :  DIST FSL TEXT
 DFWT.                        :  DIST FWL TEXT
 API .                        :  API NUMBER
 CNTY.                        :  COUNTY
 UWI .                        :  UNIQUE WELL IDENTIFIER
 LOC .                        :  LOCATION
 LMF .             Drill Floor:  LOG MEASURED FROM
 VSNS.m                   2.88:  VERT SEC N/S
 VSEW.m                  -3.84:  VERT SEC E/W
 AGAP.m                  43.42:  AIR GAP
 APD .m                  43.42:  DEPTH ABOVE PD
 WDMS.m                 118.27:  WD ELEV
 EGL .m                   0.00:  GROUND ELEVATION
 EPD .m                   0.00:  ELEVATION
 AZTC.deg                 6.23:  AZM TOTAL CORR
 GRDC.deg                 0.20:  GRID CORRECTION
 MDEC.deg                 6.43:  MAGNETIC DECL
 MDIP.deg                59.49:  MAGNETIC DIP
 MFLD.nT              50277.00:  MAGNETIC FIELD
 GVFD.g                   1.00:  GRAVITY FIELD
 VSDR.deg               173.20:  VERT SEC DIRECT
 TDD .m                5790.01:  TOTAL DEPTH (DRILLER)
 SDEP.m                5231.01:  START DEPTH
 DFSL.m                   0.00:  DISTANCE FSL
 DFWL.m                   0.00:  DISTANCE FWL
 UTMY.m             4435808.83:  UTM Y
 UTMX.m              526266.40:  UTM X
 WHEW.m                  -3.84:  WELL HEAD E/W
 WHNS.m                   2.88:  WELL HEAD N/S
 LONG.deg                51.31:  LONGITUDE
 LATI.deg                40.06:  LATITUDE
 TVDS.m                  43.42:  TVDSS CORRECTN
 DEP .m                 430.08:  DEPTH
 EKB .m                  43.42:  KB ELEVATION
 EDF .m                  43.42:  DF ELEVATION
 TDL .m                 559.00:  TOTAL DEPTH (LOGGER)
 MAGU.                 1849381:  MAGUTM CHECKSUM
 VSC .                       0:  VS TO CLOSURE
~Parameter Information Block
#MNEM.UNIT       Value        Description
#---------     -----------    ---------------------------
 AV  .mps                 4.87:  Ann Velocity 
 AVMX.mps                 7.08:  Max Ann Veloc 
 AZIF.deg               108.87:  Azm, Final 
 BHAT.                  Rotary:  BHA Type 
 BROT.°/30m               0.35:  Build Rotating 
 BS  .in                  8.50:  Bit Size 
 BSZ .in                  8.50:  Bit Size 
 BTPL.psig              360.00:  Bit Press Loss 
 CABU.                     Yes:  Customer Abuse 
 COMM.                     ÄìU:  Run Comments 1 
 TCS .hr                106.24:  Time Ciculation Ended 
 CV  .mps                 1.77:  Crit Velocity 
 CVMX.mps                 2.03:  Max Crit Veloc 
 DD1 .         Aykhan Agagulov:  Direct Drillr 1 
 DD2 .            Nonso Okofor:  Direct Drillr 2 
 DDSV.               Geo-Pilot:  DD Service 
 DEFF.%                  98.00:  % Det Eff 
 DLRX.°/30m               0.50:  Dogleg Rot Max 
 DLSO.°/30m               0.40:  Dogleg Oriented 
 DLSX.°/30m               0.94:  Dogleg Str Max 
 DRET.      20.30.00 08-Sep-20:  Drill End Time 
 DRST.      22.15.00 06-Sep-20:  Drill Start Tim 
 DTIM.hr                 31.31:  Time Drilling 
 EDEP.m                5790.01:  End Depth 
 ENG1.           Amrah Tahirov:  Engineer 1 
 ENG2.         Dair Mahammadov:  Engineer 2 
 ENG3.           Emil Huseynov:  Engineer 3 
 ETIM.      04.01.04 12-Sep-20:  End Time 
 FLOI.gpm               450.00:  Flow In 
 FLON.gpm               450.00:  Flow In Min 
 FLOS.cptm                2.00:  Fluid Loss 
 FLOX.gpm               450.00:  Flow In Max 
 FTRO.       Formation Presure:  FTWD Run Obj 
 HFLO.                      No:  High Flow 
 HPRE.                      No:  High Pressure 
 HTEM.                      No:  High Temp 
 HYDO.m                   1.80:  Hydro Offset 
 IFIN.deg                72.03:  Inc, Final 
 IMAX.deg                73.72:  Inc Max 
 IMIN.deg                70.94:  Inc Min 
 IMND.m                5508.52:  Inc Min Depth 
 IMXD.m                5253.60:  Inc Max Depth 
 JARR.                      No:  Jarring 
 LETM.      20.30.00 08-Sep-20:  Log End Time 
 LOST.hr                     0:  Lost Rig Time 
 LSTM.      22.15.00 06-Sep-20:  Log Start Time 
 MDCL.ppm             36000.00:  Mud Chlorides 
 MDES.     Inversion Oil/Synthetic:  Mud Desc 
 DFD .sg                  1.44:  Mud Density 
 MDMN.sg                  1.44:  Dens Mud Min 
 MDMX.sg                  1.57:  Dens Mud Max 
 MOIL.                      70:  Run Mud Oil % 
 MOWR.                   70:30:  Run Mud OWR 
 MSND.                       0:  Run Mud Sand % 
 MSOL.                      21:  Run Mud Solids% 
 DFV .spqt               68.00:  Mud Viscosity 
 MWOD.in                  6.75:  MWD Tool OD 
 MWSI.                     Yes:  Serv Intrp, MWD 
 OTIM.hr                174.84:  Time Operating 
 PCON.           Look Like New:  Pad Condition 
 PMAX.psia            10616.93:  Press Op, Max 
 PV  .cP                 50.00:  Mud PV 
 RUN .                     700:  Run Number 
 ROPA.m/hr               14.24:  ROP Avg 
 ROPN.m/hr               10.00:  ROP Min 
 ROPX.m/hr               32.00:  ROP Max 
 RPMA.rpm               120.90:  RPM Surface Avg 
 RPMN.rpm               120.00:  RPM Surface Min 
 RPMX.rpm               140.00:  RPM Surface Max 
 RRUN.                    0700:  Rig Run Number 
 RTIM.hr                  3.20:  Time Reaming 
 SAZI.deg               109.99:  Azm, Start 
 SDEP.m                5231.01:  Start Depth 
 SIDD.                      No:  Serv Intrp, DD 
 SINC.deg                73.72:  Inc, Start 
 SPPA.psig             3051.00:  SPP Avg 
 SPPN.psig             2950.00:  SPP Min 
 SPPX.psig             3250.00:  SPP Max 
 STIM.      08.00.00 05-Sep-20:  Start Time 
 SVCS.                 DD, MWD:  Services 
 SVER.                    9.20:  Sperry Version 
 TDAT.m                 559.00:  Tot Depth Attmp 
 TDDF.                      No:  Trip for DD 
 TDLG.m                 559.00:  Tot Depth Loggd 
 TFF .                      No:  Trip for Fail 
 TQAA.f-kp               26.49:  Torque Abs Avg 
 TQAN.f-kp               25.00:  Torque Abs Min 
 TQAX.f-kp               27.00:  Torque Abs Max 
 TRRT.°/30m               1.50:  Turn Rotating 
 MRT .                    HCIM:  Maximum Recorded Temperature 
 TTMX.degC               90.20:  Max Tool Temp 
 VS01.                90542671:  Virtual Str1 SN 
 VS02.                90545185:  Virtual Str2 SN 
 VS03.                90602015:  Virtual Str3 SN 
 VS04.                90515230:  Virtual Str4 SN 
 WBMN.klb                 5.00:  WOB Min 
 WOBA.klb                14.79:  WOB Avg 
 WOBX.klb                20.00:  WOB Max 
 YP  .lhf2               29.00:  Yield Point 
~Curve Information Block
#MNEM.UNIT                 API CODE     Curve Description
#---------               -----------    ---------------------------
 TIME.HHMMSS            00 000 000 000:  GT Time & Date
 GTDEPTH.m              00 000 000 000:  GT Depth
 GTPQH.psia             00 000 000 000:  GT HR Quartz Pressure
 GTTQ.degC              00 000 000 000:  GT Quartz Temperature
 GTTN.NONE              00 000 000 000:  GT Test Number
 GTET.sec               00 000 000 000:  GT Elapsed Test Time
 GTTVD.m                00 000 000 000:  GT True Vertical Depth
#Other Information
#
#WARRANTY: Halliburton will use its best efforts to furnish customers with 
#accurate information and interpretations that are part of, and incident to, the services 
#provided.  However, Halliburton cannot and does not warrant the accuracy 
#or correctness of such information and interpretations.  Under no circumstances should any 
#such information or interpretation be relied upon as the sole basis for any drilling, 
#completion, production, or financial decision or any procedure involving any risk to the 
#safety of any drilling venture, drilling rig or its crew or any other third party.  The 
#Customer has full responsibility for all drilling, completion and production operation.  
#Halliburton makes no representations or warranties, either expressed or 
#implied, including, but not limited to, the implied warranties of merchantability or fitness 
#for a particular purpose, with respect to the services rendered.  In no event will 
#Halliburton be liable for failure to obtain any particular results or for 
#any damages, including, but not limited to, indirect, special or consequential damages, 
#resulting from the use of any information or interpretation provided by Halliburton.
#
~A           TIME           GTDEPTH  GTPQH  GTTQ  GTTN   GTET   GTTVD  
# ...
   20:23:11.896.09-Sep-2020 5252.51  641.88 73.96 25.00 158.27 2542.44
   20:23:12.096.09-Sep-2020 5252.51  642.02 73.96 25.00 158.47 2542.44
   20:23:12.296.09-Sep-2020 5252.51  642.14 73.96 25.00 158.67 2542.44
   20:23:12.496.09-Sep-2020 5252.51  642.23 73.96 25.00 158.87 2542.44
   20:23:12.696.09-Sep-2020 5252.51  642.32 73.96 25.00 159.07 2542.44
   20:23:12.896.09-Sep-2020 5252.51  642.32 73.96 25.00 159.27 2542.44
   20:23:13.097.09-Sep-2020 5252.51  642.47 73.96 25.00 159.47 2542.44
   20:23:13.297.09-Sep-2020 5252.51  642.56 73.96 25.00 159.67 2542.44
   20:23:13.497.09-Sep-2020 5252.51  642.65 73.96 25.00 159.87 2542.44
   20:23:13.697.09-Sep-2020 5252.51  641.82 73.96 25.00 160.07 2542.44
   20:23:13.897.09-Sep-2020 5252.51  641.82 73.96 25.00 160.27 2542.44
   20:23:14.097.09-Sep-2020 5252.51  642.99 73.96 25.00 160.47 2542.44
   20:23:14.297.09-Sep-2020 5252.51  643.05 73.96 25.00 160.67 2542.44
   20:23:14.497.09-Sep-2020 5252.51  643.09 73.96 25.00 160.87 2542.44
   20:23:14.697.09-Sep-2020 5252.51  643.36 73.96 25.00 161.07 2542.44
   20:23:14.897.09-Sep-2020 5252.51  643.32 73.96 25.00 161.27 2542.44
   20:23:15.098.09-Sep-2020 5252.51  643.32 73.96 25.00 161.47 2542.44
   20:23:15.298.09-Sep-2020 5252.51  643.44 73.96 25.00 161.67 2542.44
   20:23:15.498.09-Sep-2020 5252.51  643.51 73.96 25.00 161.87 2542.44
   20:23:15.698.09-Sep-2020 5252.51  643.67 73.96 25.00 162.07 2542.44
   20:23:15.898.09-Sep-2020 5252.51  643.67 73.96 25.00 162.27 2542.44
   20:23:16.098.09-Sep-2020 5252.51  643.75 73.96 25.00 162.47 2542.44
   20:23:16.298.09-Sep-2020 5252.51  643.81 73.96 25.00 162.67 2542.44
   20:23:16.498.09-Sep-2020 5252.51  643.91 73.96 25.00 162.88 2542.44
   20:23:16.698.09-Sep-2020 5252.51  644.03 73.96 25.00 163.08 2542.44
   20:23:16.898.09-Sep-2020 5252.51  644.03 73.96 25.00 163.28 2542.44
   20:23:17.098.09-Sep-2020 5252.51  644.64 73.96 25.00 163.48 2542.44
   20:23:17.299.09-Sep-2020 5252.51  644.44 73.96 25.00 163.68 2542.44
   20:23:17.499.09-Sep-2020 5252.51  644.50 73.96 25.00 163.88 2542.44
   20:23:17.699.09-Sep-2020 5252.51  644.51 73.96 25.00 164.08 2542.44
   20:23:17.899.09-Sep-2020 5252.51  644.51 73.96 25.00 164.28 2542.44
   20:23:18.099.09-Sep-2020 5252.51  644.30 73.96 25.00 164.48 2542.44
   20:23:18.299.09-Sep-2020 5252.51  644.85 73.96 25.00 164.68 2542.44
   20:23:18.499.09-Sep-2020 5252.51  645.03 73.96 25.00 164.88 2542.44
   20:23:18.699.09-Sep-2020 5252.51  644.97 73.96 25.00 165.08 2542.44
   20:23:18.899.09-Sep-2020 5252.51  645.22 73.96 25.00 165.28 2542.44
   20:23:19.099.09-Sep-2020 5252.51  645.11 73.96 25.00 165.48 2542.44
   20:23:19.299.09-Sep-2020 5252.51  644.87 73.96 25.00 165.68 2542.44
   20:23:19.500.09-Sep-2020 5252.51  645.46 73.96 25.00 165.88 2542.44
   20:23:19.700.09-Sep-2020 5252.51  645.57 73.96 25.00 166.08 2542.44
   20:23:19.900.09-Sep-2020 5252.51  645.57 73.96 25.00 166.28 2542.44
   20:23:20.100.09-Sep-2020 5252.51  645.77 73.96 25.00 166.48 2542.44
   20:23:20.300.09-Sep-2020 5252.51  645.69 73.96 25.00 166.68 2542.44
   20:23:20.500.09-Sep-2020 5252.51  645.89 73.96 25.00 166.88 2542.44
   20:23:20.700.09-Sep-2020 5252.51  645.16 73.96 25.00 167.08 2542.44
   20:23:20.900.09-Sep-2020 5252.51  645.16 73.96 25.00 167.28 2542.44
   20:23:21.100.09-Sep-2020 5252.51  646.13 73.96 25.00 167.48 2542.44
   20:23:21.300.09-Sep-2020 5252.51  646.23 73.96 25.00 167.68 2542.44
   20:23:21.500.09-Sep-2020 5252.51  646.24 73.96 25.00 167.88 2542.44
   20:23:21.701.09-Sep-2020 5252.51  646.51 73.96 25.00 168.08 2542.44
   20:23:21.901.09-Sep-2020 5252.51  646.51 73.96 25.00 168.28 2542.44
   20:23:22.101.09-Sep-2020 5252.51  646.02 73.96 25.00 168.48 2542.44
   20:23:22.301.09-Sep-2020 5252.51  646.65 73.96 25.00 168.68 2542.44
   20:23:22.501.09-Sep-2020 5252.51  646.72 73.96 25.00 168.88 2542.44
   20:23:22.701.09-Sep-2020 5252.51  646.76 73.96 25.00 169.08 2542.44
   20:23:22.901.09-Sep-2020 5252.51  647.00 73.96 25.00 169.28 2542.44
   20:23:23.101.09-Sep-2020 5252.51  646.93 73.96 25.00 169.48 2542.44
   20:23:23.301.09-Sep-2020 5252.51  647.08 73.96 25.00 169.68 2542.44
   20:23:23.501.09-Sep-2020 5252.51  647.09 73.96 25.00 169.88 2542.44
   20:23:23.701.09-Sep-2020 5252.51  647.16 73.96 25.00 170.08 2542.44
   20:23:23.902.09-Sep-2020 5252.51  647.16 73.96 25.00 170.28 2542.44
   20:23:24.102.09-Sep-2020 5252.51  647.34 73.96 25.00 170.48 2542.44
   20:23:24.302.09-Sep-2020 5252.51  647.43 73.96 25.00 170.68 2542.44
   20:23:24.502.09-Sep-2020 5252.51  647.51 73.96 25.00 170.88 2542.44
   20:23:24.702.09-Sep-2020 5252.51  647.57 73.96 25.00 171.08 2542.44
   20:23:24.902.09-Sep-2020 5252.51  647.66 73.96 25.00 171.28 2542.44
   20:23:25.102.09-Sep-2020 5252.51  647.72 73.96 25.00 171.48 2542.44
   20:23:25.302.09-Sep-2020 5252.51  647.80 73.96 25.00 171.68 2542.44
   20:23:25.502.09-Sep-2020 5252.51  647.86 73.96 25.00 171.88 2542.44
   20:23:25.702.09-Sep-2020 5252.51  647.34 73.96 25.00 172.08 2542.44
   20:23:25.902.09-Sep-2020 5252.51  647.34 73.96 25.00 172.28 2542.44
   20:23:26.103.09-Sep-2020 5252.51  648.15 73.96 25.00 172.48 2542.44
   20:23:26.303.09-Sep-2020 5252.51  648.15 73.96 25.00 172.68 2542.44
   20:23:26.503.09-Sep-2020 5252.51  648.36 73.96 25.00 172.88 2542.44
   20:23:26.703.09-Sep-2020 5252.51  648.31 73.96 25.00 173.08 2542.44
   20:23:26.903.09-Sep-2020 5252.51  648.31 73.96 25.00 173.28 2542.44
   20:23:27.103.09-Sep-2020 5252.51  648.44 73.97 25.00 173.48 2542.44
   20:23:27.303.09-Sep-2020 5252.51  648.55 73.96 25.00 173.68 2542.44
   20:23:27.503.09-Sep-2020 5252.51  648.60 73.97 25.00 173.88 2542.44
   20:23:27.703.09-Sep-2020 5252.51  648.70 73.97 25.00 174.08 2542.44
   20:23:27.903.09-Sep-2020 5252.51  648.70 73.97 25.00 174.28 2542.44
   20:23:28.103.09-Sep-2020 5252.51  648.78 73.97 25.00 174.48 2542.44
   20:23:28.304.09-Sep-2020 5252.51  648.86 73.97 25.00 174.68 2542.44
   20:23:28.504.09-Sep-2020 5252.51  648.96 73.97 25.00 174.88 2542.44
   20:23:28.704.09-Sep-2020 5252.51  649.06 73.97 25.00 175.08 2542.44
   20:23:28.904.09-Sep-2020 5252.51  649.06 73.97 25.00 175.28 2542.44
   20:23:29.104.09-Sep-2020 5252.51  649.10 73.97 25.00 175.48 2542.44
   20:23:29.304.09-Sep-2020 5252.51  649.27 73.97 25.00 175.68 2542.44
   20:23:29.504.09-Sep-2020 5252.51  649.29 73.97 25.00 175.88 2542.44
   20:23:29.704.09-Sep-2020 5252.51  649.52 73.97 25.00 176.08 2542.44
   20:23:29.904.09-Sep-2020 5252.51  649.52 73.97 25.00 176.28 2542.44
   20:23:30.104.09-Sep-2020 5252.51  649.11 73.97 25.00 176.48 2542.44
   20:23:30.305.09-Sep-2020 5252.51  649.69 73.97 25.00 176.68 2542.44
   20:23:30.505.09-Sep-2020 5252.51  649.78 73.97 25.00 176.88 2542.44
   20:23:30.705.09-Sep-2020 5252.51  649.72 73.97 25.00 177.08 2542.44
   20:23:30.905.09-Sep-2020 5252.51  650.02 73.97 25.00 177.28 2542.44
   20:23:31.105.09-Sep-2020 5252.51  649.83 73.97 25.00 177.48 2542.44
   20:23:31.305.09-Sep-2020 5252.51  649.62 73.97 25.00 177.68 2542.44
   20:23:31.505.09-Sep-2020 5252.51  650.23 73.97 25.00 177.88 2542.44
   20:23:31.705.09-Sep-2020 5252.51  646.05 73.97 25.00 178.08 2542.44
   20:23:31.905.09-Sep-2020 5252.51  646.05 73.97 25.00 178.28 2542.44
   20:23:32.105.09-Sep-2020 5252.51  564.06 73.97 25.00 178.48 2542.44
   20:23:32.305.09-Sep-2020 5252.51  553.78 73.97 25.00 178.68 2542.44
   20:23:32.506.09-Sep-2020 5252.51  534.62 73.97 25.00 178.88 2542.44
   20:23:32.706.09-Sep-2020 5252.51  515.11 73.97 25.00 179.08 2542.44
   20:23:32.906.09-Sep-2020 5252.51  515.11 73.97 25.00 179.28 2542.44
   20:23:33.106.09-Sep-2020 5252.51  496.82 73.97 25.00 179.48 2542.44
   20:23:33.306.09-Sep-2020 5252.51  494.96 73.97 25.00 179.68 2542.44
   20:23:33.506.09-Sep-2020 5252.51  490.16 73.97 25.00 179.88 2542.44
   20:23:33.706.09-Sep-2020 5252.51  484.47 73.97 25.00 180.08 2542.44
   20:23:33.906.09-Sep-2020 5252.51  479.63 73.97 25.00 180.28 2542.44
   20:23:34.106.09-Sep-2020 5252.51  476.13 73.97 25.00 180.48 2542.44
   20:23:34.306.09-Sep-2020 5252.51  473.40 73.97 25.00 180.68 2542.44
