~Version Information
 VERS.                  2.0:   CWLS log ASCII Standard -VERSION 2.0
 WRAP.                   NO:   One line per depth step
~Well Information Block
#MNEM.UNIT     VALUE/NAME     DESCRIPTION
#---------     -----------    ---------------------------
 STRT.S             05:36:14 09-Sep-20: START TIME 05:36:14 09-Sep-20
 STOP.S             05:43:10 09-Sep-20: STOP TIME  05:43:10 09-Sep-20
 STEP.S                   0.00: STEP TIME
 NULL.                 -999.25: NULL VALUE
 MDS .        Operator Entered:  MAG DATA SOURCE
 PDAT.          Mean Sea Level:  PERMANENT DATUM
 DCON.         Sperry Drilling:  DIRECTNL CONTR
 RIG .              West Azeri:  RIG NAME
 WELL.           C40 (Slot 20):  WELL NAME
 SRVC.     Turan Drilling Engineering:  CONTRACTOR
 FLD .                     ACG:  FIELD NAME
 CTRY.              Azerbaijan:  COUNTRY NAME
 PROV.                    Baku:  PROVINCE
 STAT.                    Baku:  STATE NAME
 REGN.                   EESSA:  REGION
 BASE.              Azerbaijan:  LOGGING EQUIPMENT BASE LOCATION
 COMP.     BP Exploration (Caspian Sea) Ltd:  COMPANY
 WTYP.                Deviated:  WELL TYPE
 SON .        AZ-XX-0906344804:  JOB NUMBER
 FTOP.          Formation Tops:  FORM TOPS DESC
 ILTD.               Lithology:  INTERP LTH DESC
 SVYD.                  Survey:  SURVEY DESC
 DMOD.             Drill Model:  DRILL MOD DESC
 HPTY.       Minimum Curvature:  HOLE POS TYPE
 NREF.                    Grid:  NORTH REFERENCE
 SPUD.               01-Jan-20:  SPUD DATE
 DATE.      00.59.44 15-Sep-20:  END TIME
 STIM.      12.00.00 12-Jun-20:  START TIME
 DMF .             Drill Floor:  DRILL MEAS FROM
 DFST.                        :  DIST FSL TEXT
 DFWT.                        :  DIST FWL TEXT
 API .                        :  API NUMBER
 CNTY.                        :  COUNTY
 UWI .                        :  UNIQUE WELL IDENTIFIER
 LOC .                        :  LOCATION
 LMF .             Drill Floor:  LOG MEASURED FROM
 VSNS.m                   2.88:  VERT SEC N/S
 VSEW.m                  -3.84:  VERT SEC E/W
 AGAP.m                  43.42:  AIR GAP
 APD .m                  43.42:  DEPTH ABOVE PD
 WDMS.m                 118.27:  WD ELEV
 EGL .m                   0.00:  GROUND ELEVATION
 EPD .m                   0.00:  ELEVATION
 AZTC.deg                 6.23:  AZM TOTAL CORR
 GRDC.deg                 0.20:  GRID CORRECTION
 MDEC.deg                 6.43:  MAGNETIC DECL
 MDIP.deg                59.49:  MAGNETIC DIP
 MFLD.nT              50277.00:  MAGNETIC FIELD
 GVFD.g                   1.00:  GRAVITY FIELD
 VSDR.deg               173.20:  VERT SEC DIRECT
 TDD .m                5790.01:  TOTAL DEPTH (DRILLER)
 SDEP.m                5231.01:  START DEPTH
 DFSL.m                   0.00:  DISTANCE FSL
 DFWL.m                   0.00:  DISTANCE FWL
 UTMY.m             4435808.83:  UTM Y
 UTMX.m              526266.40:  UTM X
 WHEW.m                  -3.84:  WELL HEAD E/W
 WHNS.m                   2.88:  WELL HEAD N/S
 LONG.deg                51.31:  LONGITUDE
 LATI.deg                40.06:  LATITUDE
 TVDS.m                  43.42:  TVDSS CORRECTN
 DEP .m                 430.08:  DEPTH
 EKB .m                  43.42:  KB ELEVATION
 EDF .m                  43.42:  DF ELEVATION
 TDL .m                 559.00:  TOTAL DEPTH (LOGGER)
 MAGU.                 1849381:  MAGUTM CHECKSUM
 VSC .                       0:  VS TO CLOSURE
~Parameter Information Block
#MNEM.UNIT       Value        Description
#---------     -----------    ---------------------------
 AV  .mps                 4.87:  Ann Velocity 
 AVMX.mps                 7.08:  Max Ann Veloc 
 AZIF.deg               108.87:  Azm, Final 
 BHAT.                  Rotary:  BHA Type 
 BROT.°/30m               0.35:  Build Rotating 
 BS  .in                  8.50:  Bit Size 
 BSZ .in                  8.50:  Bit Size 
 BTPL.psig              360.00:  Bit Press Loss 
 CABU.                     Yes:  Customer Abuse 
 COMM.                     ”£|:  Run Comments 1 
 TCS .hr                106.24:  Time Ciculation Ended 
 CV  .mps                 1.77:  Crit Velocity 
 CVMX.mps                 2.03:  Max Crit Veloc 
 DD1 .         Aykhan Agagulov:  Direct Drillr 1 
 DD2 .            Nonso Okofor:  Direct Drillr 2 
 DDSV.               Geo-Pilot:  DD Service 
 DEFF.%                  98.00:  % Det Eff 
 DLRX.°/30m               0.50:  Dogleg Rot Max 
 DLSO.°/30m               0.40:  Dogleg Oriented 
 DLSX.°/30m               0.94:  Dogleg Str Max 
 DRET.      20.30.00 08-Sep-20:  Drill End Time 
 DRST.      22.15.00 06-Sep-20:  Drill Start Tim 
 DTIM.hr                 31.31:  Time Drilling 
 EDEP.m                5790.01:  End Depth 
 ENG1.           Amrah Tahirov:  Engineer 1 
 ENG2.         Dair Mahammadov:  Engineer 2 
 ENG3.           Emil Huseynov:  Engineer 3 
 ETIM.      04.01.04 12-Sep-20:  End Time 
 FLOI.gpm               450.00:  Flow In 
 FLON.gpm               450.00:  Flow In Min 
 FLOS.cptm                2.00:  Fluid Loss 
 FLOX.gpm               450.00:  Flow In Max 
 FTRO.       Formation Presure:  FTWD Run Obj 
 HFLO.                      No:  High Flow 
 HPRE.                      No:  High Pressure 
 HTEM.                      No:  High Temp 
 HYDO.m                   1.80:  Hydro Offset 
 IFIN.deg                72.03:  Inc, Final 
 IMAX.deg                73.72:  Inc Max 
 IMIN.deg                70.94:  Inc Min 
 IMND.m                5508.52:  Inc Min Depth 
 IMXD.m                5253.60:  Inc Max Depth 
 JARR.                      No:  Jarring 
 LETM.      20.30.00 08-Sep-20:  Log End Time 
 LOST.hr                     0:  Lost Rig Time 
 LSTM.      22.15.00 06-Sep-20:  Log Start Time 
 MDCL.ppm             36000.00:  Mud Chlorides 
 MDES.     Inversion Oil/Synthetic:  Mud Desc 
 DFD .sg                  1.44:  Mud Density 
 MDMN.sg                  1.44:  Dens Mud Min 
 MDMX.sg                  1.57:  Dens Mud Max 
 MOIL.                      70:  Run Mud Oil % 
 MOWR.                   70:30:  Run Mud OWR 
 MSND.                       0:  Run Mud Sand % 
 MSOL.                      21:  Run Mud Solids% 
 DFV .spqt               68.00:  Mud Viscosity 
 MWOD.in                  6.75:  MWD Tool OD 
 MWSI.                     Yes:  Serv Intrp, MWD 
 OTIM.hr                174.84:  Time Operating 
 PCON.           Look Like New:  Pad Condition 
 PMAX.psia            10616.93:  Press Op, Max 
 PV  .cP                 50.00:  Mud PV 
 RUN .                     700:  Run Number 
 ROPA.m/hr               14.24:  ROP Avg 
 ROPN.m/hr               10.00:  ROP Min 
 ROPX.m/hr               32.00:  ROP Max 
 RPMA.rpm               120.90:  RPM Surface Avg 
 RPMN.rpm               120.00:  RPM Surface Min 
 RPMX.rpm               140.00:  RPM Surface Max 
 RRUN.                    0700:  Rig Run Number 
 RTIM.hr                  3.20:  Time Reaming 
 SAZI.deg               109.99:  Azm, Start 
 SDEP.m                5231.01:  Start Depth 
 SIDD.                      No:  Serv Intrp, DD 
 SINC.deg                73.72:  Inc, Start 
 SPPA.psig             3051.00:  SPP Avg 
 SPPN.psig             2950.00:  SPP Min 
 SPPX.psig             3250.00:  SPP Max 
 STIM.      08.00.00 05-Sep-20:  Start Time 
 SVCS.                 DD, MWD:  Services 
 SVER.                    9.20:  Sperry Version 
 TDAT.m                 559.00:  Tot Depth Attmp 
 TDDF.                      No:  Trip for DD 
 TDLG.m                 559.00:  Tot Depth Loggd 
 TFF .                      No:  Trip for Fail 
 TQAA.f-kp               26.49:  Torque Abs Avg 
 TQAN.f-kp               25.00:  Torque Abs Min 
 TQAX.f-kp               27.00:  Torque Abs Max 
 TRRT.°/30m               1.50:  Turn Rotating 
 MRT .                    HCIM:  Maximum Recorded Temperature 
 TTMX.degC               90.20:  Max Tool Temp 
 VS01.                90542671:  Virtual Str1 SN 
 VS02.                90545185:  Virtual Str2 SN 
 VS03.                90602015:  Virtual Str3 SN 
 VS04.                90515230:  Virtual Str4 SN 
 WBMN.klb                 5.00:  WOB Min 
 WOBA.klb                14.79:  WOB Avg 
 WOBX.klb                20.00:  WOB Max 
 YP  .lhf2               29.00:  Yield Point 
~Curve Information Block
#MNEM.UNIT                 API CODE     Curve Description
#---------               -----------    ---------------------------
 TIME.HHMMSS            00 000 000 000:  GT Time & Date
 GTDEPTH.m              00 000 000 000:  GT Depth
 GTPQH.psia             00 000 000 000:  GT HR Quartz Pressure
 GTTQ.degC              00 000 000 000:  GT Quartz Temperature
 GTTN.NONE              00 000 000 000:  GT Test Number
 GTET.sec               00 000 000 000:  GT Elapsed Test Time
 GTTVD.m                00 000 000 000:  GT True Vertical Depth
#Other Information
#
#WARRANTY: Halliburton will use its best efforts to furnish customers with 
#accurate information and interpretations that are part of, and incident to, the services 
#provided.  However, Halliburton cannot and does not warrant the accuracy 
#or correctness of such information and interpretations.  Under no circumstances should any 
#such information or interpretation be relied upon as the sole basis for any drilling, 
#completion, production, or financial decision or any procedure involving any risk to the 
#safety of any drilling venture, drilling rig or its crew or any other third party.  The 
#Customer has full responsibility for all drilling, completion and production operation.  
#Halliburton makes no representations or warranties, either expressed or 
#implied, including, but not limited to, the implied warranties of merchantability or fitness 
#for a particular purpose, with respect to the services rendered.  In no event will 
#Halliburton be liable for failure to obtain any particular results or for 
#any damages, including, but not limited to, indirect, special or consequential damages, 
#resulting from the use of any information or interpretation provided by Halliburton.
#
~A           TIME           GTDEPTH  GTPQH  GTTQ  GTTN  GTET   GTTVD  
# ...
   05:38:09.078.09-Sep-2020 5634.01 3689.32 79.96 1.00 115.00 2660.75
   05:38:09.278.09-Sep-2020 5634.01 3689.32 79.96 1.00 115.20 2660.75
   05:38:09.478.09-Sep-2020 5634.01 3689.35 79.96 1.00 115.40 2660.75
   05:38:09.678.09-Sep-2020 5634.01 3689.20 79.96 1.00 115.60 2660.75
   05:38:09.878.09-Sep-2020 5634.01 3689.54 79.96 1.00 115.80 2660.75
   05:38:10.078.09-Sep-2020 5634.01 3689.39 79.96 1.00 116.00 2660.75
   05:38:10.278.09-Sep-2020 5634.01 3689.33 79.96 1.00 116.20 2660.75
   05:38:10.478.09-Sep-2020 5634.01 3689.33 79.96 1.00 116.40 2660.75
   05:38:10.678.09-Sep-2020 5634.01 3689.39 79.96 1.00 116.60 2660.75
   05:38:10.878.09-Sep-2020 5634.01 3689.36 79.96 1.00 116.80 2660.75
   05:38:11.078.09-Sep-2020 5634.01 3689.38 79.96 1.00 117.00 2660.75
   05:38:11.278.09-Sep-2020 5634.01 3689.38 79.96 1.00 117.20 2660.75
   05:38:11.478.09-Sep-2020 5634.01 3689.37 79.96 1.00 117.40 2660.75
   05:38:11.678.09-Sep-2020 5634.01 3689.37 79.96 1.00 117.60 2660.75
   05:38:11.878.09-Sep-2020 5634.01 3689.37 79.96 1.00 117.80 2660.75
   05:38:12.078.09-Sep-2020 5634.01 3689.39 79.96 1.00 117.99 2660.75
   05:38:12.278.09-Sep-2020 5634.01 3689.39 79.96 1.00 118.19 2660.75
   05:38:12.478.09-Sep-2020 5634.01 3689.37 79.96 1.00 118.39 2660.75
   05:38:12.678.09-Sep-2020 5634.01 3689.38 79.96 1.00 118.59 2660.75
   05:38:12.878.09-Sep-2020 5634.01 3689.37 79.96 1.00 118.79 2660.75
   05:38:13.078.09-Sep-2020 5634.01 3689.37 79.96 1.00 118.99 2660.75
   05:38:13.278.09-Sep-2020 5634.01 3689.37 79.96 1.00 119.19 2660.75
   05:38:13.478.09-Sep-2020 5634.01 3689.57 79.96 1.00 119.39 2660.75
   05:38:13.678.09-Sep-2020 5634.01 3689.17 79.96 1.00 119.59 2660.75
   05:38:13.878.09-Sep-2020 5634.01 3689.38 79.96 1.00 119.79 2660.75
   05:38:14.078.09-Sep-2020 5634.01 3689.35 79.96 1.00 119.99 2660.75
   05:38:14.278.09-Sep-2020 5634.01 3689.33 79.96 1.00 120.19 2660.75
   05:38:14.478.09-Sep-2020 5634.01 3689.39 79.96 1.00 120.39 2660.75
   05:38:14.678.09-Sep-2020 5634.01 3689.35 79.96 1.00 120.59 2660.75
   05:38:14.878.09-Sep-2020 5634.01 3689.37 79.96 1.00 120.79 2660.75
   05:38:15.078.09-Sep-2020 5634.01 3689.36 79.96 1.00 120.99 2660.75
   05:38:15.278.09-Sep-2020 5634.01 3689.36 79.96 1.00 121.19 2660.75
   05:38:15.478.09-Sep-2020 5634.01 3689.36 79.96 1.00 121.39 2660.75
   05:38:15.678.09-Sep-2020 5634.01 3689.36 79.96 1.00 121.59 2660.75
   05:38:15.878.09-Sep-2020 5634.01 3689.37 79.96 1.00 121.79 2660.75
   05:38:16.078.09-Sep-2020 5634.01 3689.37 79.96 1.00 121.99 2660.75
   05:38:16.278.09-Sep-2020 5634.01 3689.37 79.96 1.00 122.19 2660.75
   05:38:16.478.09-Sep-2020 5634.01 3689.38 79.96 1.00 122.39 2660.75
   05:38:16.678.09-Sep-2020 5634.01 3689.23 79.96 1.00 122.59 2660.75
   05:38:16.878.09-Sep-2020 5634.01 3689.46 79.96 1.00 122.79 2660.75
   05:38:17.078.09-Sep-2020 5634.01 3689.44 79.96 1.00 122.99 2660.75
   05:38:17.278.09-Sep-2020 5634.01 3689.44 79.96 1.00 123.19 2660.75
   05:38:17.478.09-Sep-2020 5634.01 3689.38 79.96 1.00 123.39 2660.75
   05:38:17.678.09-Sep-2020 5634.01 3689.36 79.96 1.00 123.59 2660.75
   05:38:17.878.09-Sep-2020 5634.01 3689.20 79.96 1.00 123.79 2660.75
   05:38:18.078.09-Sep-2020 5634.01 3689.54 79.96 1.00 123.99 2660.75
   05:38:18.278.09-Sep-2020 5634.01 3689.54 79.96 1.00 124.19 2660.75
   05:38:18.478.09-Sep-2020 5634.01 3689.34 79.96 1.00 124.39 2660.75
   05:38:18.678.09-Sep-2020 5634.01 3689.34 79.96 1.00 124.59 2660.75
   05:38:18.878.09-Sep-2020 5634.01 3689.39 79.96 1.00 124.79 2660.75
   05:38:19.078.09-Sep-2020 5634.01 3689.50 79.96 1.00 124.99 2660.75
   05:38:19.278.09-Sep-2020 5634.01 3689.50 79.96 1.00 125.19 2660.75
   05:38:19.478.09-Sep-2020 5634.01 3689.38 79.96 1.00 125.39 2660.75
   05:38:19.678.09-Sep-2020 5634.01 3689.36 79.96 1.00 125.59 2660.75
   05:38:19.878.09-Sep-2020 5634.01 3689.42 79.96 1.00 125.79 2660.75
   05:38:20.078.09-Sep-2020 5634.01 3689.35 79.96 1.00 125.99 2660.75
   05:38:20.278.09-Sep-2020 5634.01 3689.35 79.96 1.00 126.19 2660.75
   05:38:20.478.09-Sep-2020 5634.01 3689.19 79.96 1.00 126.39 2660.75
   05:38:20.678.09-Sep-2020 5634.01 3689.39 79.96 1.00 126.59 2660.75
   05:38:20.878.09-Sep-2020 5634.01 3689.37 79.96 1.00 126.79 2660.75
   05:38:21.078.09-Sep-2020 5634.01 3689.35 79.96 1.00 126.99 2660.75
   05:38:21.278.09-Sep-2020 5634.01 3689.35 79.96 1.00 127.19 2660.75
   05:38:21.478.09-Sep-2020 5634.01 3689.50 79.96 1.00 127.39 2660.75
   05:38:21.678.09-Sep-2020 5634.01 3689.24 79.96 1.00 127.59 2660.75
   05:38:21.878.09-Sep-2020 5634.01 3689.39 79.96 1.00 127.79 2660.75
   05:38:22.078.09-Sep-2020 5634.01 3689.38 79.96 1.00 127.99 2660.75
   05:38:22.278.09-Sep-2020 5634.01 3689.42 79.96 1.00 128.19 2660.75
   05:38:22.478.09-Sep-2020 5634.01 3689.35 79.96 1.00 128.39 2660.75
   05:38:22.678.09-Sep-2020 5634.01 3689.38 79.96 1.00 128.59 2660.75
   05:38:22.878.09-Sep-2020 5634.01 3689.39 79.96 1.00 128.79 2660.75
   05:38:23.078.09-Sep-2020 5634.01 3689.38 79.96 1.00 128.99 2660.75
   05:38:23.278.09-Sep-2020 5634.01 3689.38 79.96 1.00 129.19 2660.75
   05:38:23.477.09-Sep-2020 5634.01 3689.39 79.96 1.00 129.39 2660.75
   05:38:23.677.09-Sep-2020 5634.01 3689.39 79.96 1.00 129.59 2660.75
   05:38:23.877.09-Sep-2020 5634.01 3689.39 79.96 1.00 129.79 2660.75
   05:38:24.077.09-Sep-2020 5634.01 3689.39 79.96 1.00 129.99 2660.75
   05:38:24.277.09-Sep-2020 5634.01 3689.39 79.96 1.00 130.19 2660.75
   05:38:24.477.09-Sep-2020 5634.01 3689.38 79.96 1.00 130.39 2660.75
   05:38:24.677.09-Sep-2020 5634.01 3689.40 79.96 1.00 130.59 2660.75
   05:38:24.877.09-Sep-2020 5634.01 3689.40 79.96 1.00 130.79 2660.75
   05:38:25.077.09-Sep-2020 5634.01 3689.25 79.96 1.00 130.99 2660.75
   05:38:25.277.09-Sep-2020 5634.01 3689.25 79.96 1.00 131.19 2660.75
   05:38:25.477.09-Sep-2020 5634.01 3689.48 79.96 1.00 131.39 2660.75
   05:38:25.677.09-Sep-2020 5634.01 3689.38 79.96 1.00 131.59 2660.75
   05:38:25.877.09-Sep-2020 5634.01 3689.39 79.96 1.00 131.79 2660.75
   05:38:26.077.09-Sep-2020 5634.01 3689.38 79.96 1.00 131.99 2660.75
   05:38:26.277.09-Sep-2020 5634.01 3689.38 79.96 1.00 132.19 2660.75
   05:38:26.477.09-Sep-2020 5634.01 3689.38 79.96 1.00 132.39 2660.75
   05:38:26.677.09-Sep-2020 5634.01 3689.39 79.96 1.00 132.59 2660.75
   05:38:26.877.09-Sep-2020 5634.01 3689.38 79.96 1.00 132.79 2660.75
   05:38:27.077.09-Sep-2020 5634.01 3689.38 79.96 1.00 132.99 2660.75
   05:38:27.277.09-Sep-2020 5634.01 3689.38 79.96 1.00 133.19 2660.75
   05:38:27.477.09-Sep-2020 5634.01 3689.38 79.96 1.00 133.39 2660.75
   05:38:27.677.09-Sep-2020 5634.01 3689.38 79.96 1.00 133.59 2660.75
   05:38:27.877.09-Sep-2020 5634.01 3689.38 79.96 1.00 133.79 2660.75
   05:38:28.077.09-Sep-2020 5634.01 3689.38 79.96 1.00 133.99 2660.75
   05:38:28.277.09-Sep-2020 5634.01 3689.38 79.96 1.00 134.19 2660.75
   05:38:28.477.09-Sep-2020 5634.01 3689.55 79.96 1.00 134.39 2660.75
   05:38:28.677.09-Sep-2020 5634.01 3689.22 79.96 1.00 134.59 2660.75
   05:38:28.877.09-Sep-2020 5634.01 3689.38 79.96 1.00 134.79 2660.75
   05:38:29.077.09-Sep-2020 5634.01 3689.38 79.96 1.00 134.99 2660.75
   05:38:29.277.09-Sep-2020 5634.01 3689.38 79.96 1.00 135.19 2660.75
   05:38:29.477.09-Sep-2020 5634.01 3689.40 79.96 1.00 135.39 2660.75
   05:38:29.677.09-Sep-2020 5634.01 3689.51 79.96 1.00 135.59 2660.75
   05:38:29.877.09-Sep-2020 5634.01 3689.23 79.96 1.00 135.79 2660.75
   05:38:30.077.09-Sep-2020 5634.01 3689.40 79.96 1.00 135.99 2660.75
   05:38:30.277.09-Sep-2020 5634.01 3689.37 79.96 1.00 136.19 2660.75
   05:38:30.477.09-Sep-2020 5634.01 3689.42 79.96 1.00 136.39 2660.75
   05:38:30.677.09-Sep-2020 5634.01 3689.18 79.96 1.00 136.59 2660.75
   05:38:30.877.09-Sep-2020 5634.01 3689.54 79.96 1.00 136.79 2660.75
   05:38:31.077.09-Sep-2020 5634.01 3689.40 79.96 1.00 136.99 2660.75
   05:38:31.277.09-Sep-2020 5634.01 3689.40 79.96 1.00 137.19 2660.75
   05:38:31.477.09-Sep-2020 5634.01 3689.35 79.96 1.00 137.39 2660.75
   05:38:31.677.09-Sep-2020 5634.01 3689.41 79.96 1.00 137.59 2660.75
   05:38:31.877.09-Sep-2020 5634.01 3689.25 79.96 1.00 137.79 2660.75
