~Version Information
 VERS.                  2.0:   CWLS log ASCII Standard -VERSION 2.0
 WRAP.                   NO:   One line per depth step
~Well Information Block
#MNEM.UNIT     VALUE/NAME     DESCRIPTION
#---------     -----------    ---------------------------
 STRT.S             16:52:14 09-Sep-20: START TIME 16:52:14 09-Sep-20
 STOP.S             17:00:39 09-Sep-20: STOP TIME  17:00:39 09-Sep-20
 STEP.S                   0.00: STEP TIME
 NULL.                 -999.25: NULL VALUE
 MDS .        Operator Entered:  MAG DATA SOURCE
 PDAT.          Mean Sea Level:  PERMANENT DATUM
 DCON.         Sperry Drilling:  DIRECTNL CONTR
 RIG .              West Azeri:  RIG NAME
 WELL.           C40 (Slot 20):  WELL NAME
 SRVC.     Turan Drilling Engineering:  CONTRACTOR
 FLD .                     ACG:  FIELD NAME
 CTRY.              Azerbaijan:  COUNTRY NAME
 PROV.                    Baku:  PROVINCE
 STAT.                    Baku:  STATE NAME
 REGN.                   EESSA:  REGION
 BASE.              Azerbaijan:  LOGGING EQUIPMENT BASE LOCATION
 COMP.     BP Exploration (Caspian Sea) Ltd:  COMPANY
 WTYP.                Deviated:  WELL TYPE
 SON .        AZ-XX-0906344804:  JOB NUMBER
 FTOP.          Formation Tops:  FORM TOPS DESC
 ILTD.               Lithology:  INTERP LTH DESC
 SVYD.                  Survey:  SURVEY DESC
 DMOD.             Drill Model:  DRILL MOD DESC
 HPTY.       Minimum Curvature:  HOLE POS TYPE
 NREF.                    Grid:  NORTH REFERENCE
 SPUD.               01-Jan-20:  SPUD DATE
 DATE.      00.59.44 15-Sep-20:  END TIME
 STIM.      12.00.00 12-Jun-20:  START TIME
 DMF .             Drill Floor:  DRILL MEAS FROM
 DFST.                        :  DIST FSL TEXT
 DFWT.                        :  DIST FWL TEXT
 API .                        :  API NUMBER
 CNTY.                        :  COUNTY
 UWI .                        :  UNIQUE WELL IDENTIFIER
 LOC .                        :  LOCATION
 LMF .             Drill Floor:  LOG MEASURED FROM
 VSNS.m                   2.88:  VERT SEC N/S
 VSEW.m                  -3.84:  VERT SEC E/W
 AGAP.m                  43.42:  AIR GAP
 APD .m                  43.42:  DEPTH ABOVE PD
 WDMS.m                 118.27:  WD ELEV
 EGL .m                   0.00:  GROUND ELEVATION
 EPD .m                   0.00:  ELEVATION
 AZTC.deg                 6.23:  AZM TOTAL CORR
 GRDC.deg                 0.20:  GRID CORRECTION
 MDEC.deg                 6.43:  MAGNETIC DECL
 MDIP.deg                59.49:  MAGNETIC DIP
 MFLD.nT              50277.00:  MAGNETIC FIELD
 GVFD.g                   1.00:  GRAVITY FIELD
 VSDR.deg               173.20:  VERT SEC DIRECT
 TDD .m                5790.01:  TOTAL DEPTH (DRILLER)
 SDEP.m                5231.01:  START DEPTH
 DFSL.m                   0.00:  DISTANCE FSL
 DFWL.m                   0.00:  DISTANCE FWL
 UTMY.m             4435808.83:  UTM Y
 UTMX.m              526266.40:  UTM X
 WHEW.m                  -3.84:  WELL HEAD E/W
 WHNS.m                   2.88:  WELL HEAD N/S
 LONG.deg                51.31:  LONGITUDE
 LATI.deg                40.06:  LATITUDE
 TVDS.m                  43.42:  TVDSS CORRECTN
 DEP .m                 430.08:  DEPTH
 EKB .m                  43.42:  KB ELEVATION
 EDF .m                  43.42:  DF ELEVATION
 TDL .m                 559.00:  TOTAL DEPTH (LOGGER)
 MAGU.                 1849381:  MAGUTM CHECKSUM
 VSC .                       0:  VS TO CLOSURE
~Parameter Information Block
#MNEM.UNIT       Value        Description
#---------     -----------    ---------------------------
 AV  .mps                 4.87:  Ann Velocity 
 AVMX.mps                 7.08:  Max Ann Veloc 
 AZIF.deg               108.87:  Azm, Final 
 BHAT.                  Rotary:  BHA Type 
 BROT.°/30m               0.35:  Build Rotating 
 BS  .in                  8.50:  Bit Size 
 BSZ .in                  8.50:  Bit Size 
 BTPL.psig              360.00:  Bit Press Loss 
 CABU.                     Yes:  Customer Abuse 
 TCS .hr                106.24:  Time Ciculation Ended 
 CV  .mps                 1.77:  Crit Velocity 
 CVMX.mps                 2.03:  Max Crit Veloc 
 DD1 .         Aykhan Agagulov:  Direct Drillr 1 
 DD2 .            Nonso Okofor:  Direct Drillr 2 
 DDSV.               Geo-Pilot:  DD Service 
 DEFF.%                  98.00:  % Det Eff 
 DLRX.°/30m               0.50:  Dogleg Rot Max 
 DLSO.°/30m               0.40:  Dogleg Oriented 
 DLSX.°/30m               0.94:  Dogleg Str Max 
 DRET.      20.30.00 08-Sep-20:  Drill End Time 
 DRST.      22.15.00 06-Sep-20:  Drill Start Tim 
 DTIM.hr                 31.31:  Time Drilling 
 EDEP.m                5790.01:  End Depth 
 ENG1.           Amrah Tahirov:  Engineer 1 
 ENG2.         Dair Mahammadov:  Engineer 2 
 ENG3.           Emil Huseynov:  Engineer 3 
 ETIM.      04.01.04 12-Sep-20:  End Time 
 FLOI.gpm               450.00:  Flow In 
 FLON.gpm               450.00:  Flow In Min 
 FLOS.cptm                2.00:  Fluid Loss 
 FLOX.gpm               450.00:  Flow In Max 
 FTRO.       Formation Presure:  FTWD Run Obj 
 HFLO.                      No:  High Flow 
 HPRE.                      No:  High Pressure 
 HTEM.                      No:  High Temp 
 HYDO.m                   1.80:  Hydro Offset 
 IFIN.deg                72.03:  Inc, Final 
 IMAX.deg                73.72:  Inc Max 
 IMIN.deg                70.94:  Inc Min 
 IMND.m                5508.52:  Inc Min Depth 
 IMXD.m                5253.60:  Inc Max Depth 
 JARR.                      No:  Jarring 
 LETM.      20.30.00 08-Sep-20:  Log End Time 
 LOST.hr                     0:  Lost Rig Time 
 LSTM.      22.15.00 06-Sep-20:  Log Start Time 
 MDCL.ppm             36000.00:  Mud Chlorides 
 MDES.     Inversion Oil/Synthetic:  Mud Desc 
 DFD .sg                  1.44:  Mud Density 
 MDMN.sg                  1.44:  Dens Mud Min 
 MDMX.sg                  1.57:  Dens Mud Max 
 MOIL.                      70:  Run Mud Oil % 
 MOWR.                   70:30:  Run Mud OWR 
 MSND.                       0:  Run Mud Sand % 
 MSOL.                      21:  Run Mud Solids% 
 DFV .spqt               68.00:  Mud Viscosity 
 MWOD.in                  6.75:  MWD Tool OD 
 MWSI.                     Yes:  Serv Intrp, MWD 
 OTIM.hr                174.84:  Time Operating 
 PCON.           Look Like New:  Pad Condition 
 PMAX.psia            10616.93:  Press Op, Max 
 PV  .cP                 50.00:  Mud PV 
 RUN .                     700:  Run Number 
 ROPA.m/hr               14.24:  ROP Avg 
 ROPN.m/hr               10.00:  ROP Min 
 ROPX.m/hr               32.00:  ROP Max 
 RPMA.rpm               120.90:  RPM Surface Avg 
 RPMN.rpm               120.00:  RPM Surface Min 
 RPMX.rpm               140.00:  RPM Surface Max 
 RRUN.                    0700:  Rig Run Number 
 RTIM.hr                  3.20:  Time Reaming 
 SAZI.deg               109.99:  Azm, Start 
 SDEP.m                5231.01:  Start Depth 
 SIDD.                      No:  Serv Intrp, DD 
 SINC.deg                73.72:  Inc, Start 
 SPPA.psig             3051.00:  SPP Avg 
 SPPN.psig             2950.00:  SPP Min 
 SPPX.psig             3250.00:  SPP Max 
 STIM.      08.00.00 05-Sep-20:  Start Time 
 SVCS.                 DD, MWD:  Services 
 SVER.                    9.20:  Sperry Version 
 TDAT.m                 559.00:  Tot Depth Attmp 
 TDDF.                      No:  Trip for DD 
 TDLG.m                 559.00:  Tot Depth Loggd 
 TFF .                      No:  Trip for Fail 
 TQAA.f-kp               26.49:  Torque Abs Avg 
 TQAN.f-kp               25.00:  Torque Abs Min 
 TQAX.f-kp               27.00:  Torque Abs Max 
 TRRT.°/30m               1.50:  Turn Rotating 
 MRT .                    HCIM:  Maximum Recorded Temperature 
 TTMX.degC               90.20:  Max Tool Temp 
 VS01.                90542671:  Virtual Str1 SN 
 VS02.                90545185:  Virtual Str2 SN 
 VS03.                90602015:  Virtual Str3 SN 
 VS04.                90515230:  Virtual Str4 SN 
 WBMN.klb                 5.00:  WOB Min 
 WOBA.klb                14.79:  WOB Avg 
 WOBX.klb                20.00:  WOB Max 
 YP  .lhf2               29.00:  Yield Point 
~Curve Information Block
#MNEM.UNIT                 API CODE     Curve Description
#---------               -----------    ---------------------------
 TIME.HHMMSS            00 000 000 000:  GT Time & Date
 GTDEPTH.m              00 000 000 000:  GT Depth
 GTPQH.psia             00 000 000 000:  GT HR Quartz Pressure
 GTTQ.degC              00 000 000 000:  GT Quartz Temperature
 GTTN.NONE              00 000 000 000:  GT Test Number
 GTET.sec               00 000 000 000:  GT Elapsed Test Time
 GTTVD.m                00 000 000 000:  GT True Vertical Depth
#Other Information
#
#WARRANTY: Halliburton will use its best efforts to furnish customers with 
#accurate information and interpretations that are part of, and incident to, the services 
#provided.  However, Halliburton cannot and does not warrant the accuracy 
#or correctness of such information and interpretations.  Under no circumstances should any 
#such information or interpretation be relied upon as the sole basis for any drilling, 
#completion, production, or financial decision or any procedure involving any risk to the 
#safety of any drilling venture, drilling rig or its crew or any other third party.  The 
#Customer has full responsibility for all drilling, completion and production operation.  
#Halliburton makes no representations or warranties, either expressed or 
#implied, including, but not limited to, the implied warranties of merchantability or fitness 
#for a particular purpose, with respect to the services rendered.  In no event will 
#Halliburton be liable for failure to obtain any particular results or for 
#any damages, including, but not limited to, indirect, special or consequential damages, 
#resulting from the use of any information or interpretation provided by Halliburton.
#
~A           TIME           GTDEPTH  GTPQH  GTTQ  GTTN   GTET   GTTVD  
# ...
   16:56:22.860.09-Sep-2020 5303.01 6325.68 74.68 19.00 248.72 2557.08
   16:56:23.060.09-Sep-2020 5303.01 6325.61 74.68 19.00 248.92 2557.08
   16:56:23.260.09-Sep-2020 5303.01 6325.70 74.68 19.00 249.12 2557.08
   16:56:23.461.09-Sep-2020 5303.01 6325.70 74.68 19.00 249.32 2557.08
   16:56:23.661.09-Sep-2020 5303.01 6325.30 74.68 19.00 249.52 2557.08
   16:56:23.861.09-Sep-2020 5303.01 6325.43 74.68 19.00 249.72 2557.08
   16:56:24.061.09-Sep-2020 5303.01 6325.42 74.68 19.00 249.92 2557.08
   16:56:24.261.09-Sep-2020 5303.01 6325.58 74.68 19.00 250.12 2557.08
   16:56:24.461.09-Sep-2020 5303.01 6325.58 74.68 19.00 250.32 2557.08
   16:56:24.661.09-Sep-2020 5303.01 6325.76 74.68 19.00 250.52 2557.08
   16:56:24.861.09-Sep-2020 5303.01 6327.88 74.68 19.00 250.72 2557.08
   16:56:25.061.09-Sep-2020 5303.01 6330.17 74.68 19.00 250.92 2557.08
   16:56:25.261.09-Sep-2020 5303.01 6325.60 74.68 19.00 251.12 2557.08
   16:56:25.462.09-Sep-2020 5303.01 6325.60 74.68 19.00 251.32 2557.08
   16:56:25.662.09-Sep-2020 5303.01 6325.85 74.68 19.00 251.52 2557.08
   16:56:25.862.09-Sep-2020 5303.01 6326.31 74.68 19.00 251.72 2557.08
   16:56:26.062.09-Sep-2020 5303.01 6326.82 74.68 19.00 251.92 2557.08
   16:56:26.262.09-Sep-2020 5303.01 6326.67 74.68 19.00 252.12 2557.08
   16:56:26.462.09-Sep-2020 5303.01 6326.67 74.68 19.00 252.32 2557.08
   16:56:26.662.09-Sep-2020 5303.01 6324.87 74.68 19.00 252.52 2557.08
   16:56:26.862.09-Sep-2020 5303.01 6325.15 74.68 19.00 252.72 2557.08
   16:56:27.062.09-Sep-2020 5303.01 6325.08 74.68 19.00 252.92 2557.08
   16:56:27.262.09-Sep-2020 5303.01 6325.20 74.68 19.00 253.12 2557.08
   16:56:27.463.09-Sep-2020 5303.01 6325.20 74.68 19.00 253.32 2557.08
   16:56:27.663.09-Sep-2020 5303.01 6324.69 74.68 19.00 253.52 2557.08
   16:56:27.863.09-Sep-2020 5303.01 6324.32 74.68 19.00 253.72 2557.08
   16:56:28.063.09-Sep-2020 5303.01 6324.26 74.68 19.00 253.92 2557.08
   16:56:28.263.09-Sep-2020 5303.01 6326.31 74.68 19.00 254.12 2557.08
   16:56:28.463.09-Sep-2020 5303.01 6326.31 74.68 19.00 254.32 2557.08
   16:56:28.663.09-Sep-2020 5303.01 6324.77 74.68 19.00 254.52 2557.08
   16:56:28.863.09-Sep-2020 5303.01 6324.95 74.68 19.00 254.72 2557.08
   16:56:29.063.09-Sep-2020 5303.01 6324.65 74.68 19.00 254.92 2557.08
   16:56:29.263.09-Sep-2020 5303.01 6325.00 74.68 19.00 255.12 2557.08
   16:56:29.463.09-Sep-2020 5303.01 6325.00 74.68 19.00 255.32 2557.08
   16:56:29.664.09-Sep-2020 5303.01 6324.86 74.68 19.00 255.52 2557.08
   16:56:29.864.09-Sep-2020 5303.01 6323.47 74.68 19.00 255.72 2557.08
   16:56:30.064.09-Sep-2020 5303.01 6325.28 74.68 19.00 255.92 2557.08
   16:56:30.264.09-Sep-2020 5303.01 6324.98 74.68 19.00 256.12 2557.08
   16:56:30.464.09-Sep-2020 5303.01 6324.98 74.68 19.00 256.32 2557.08
   16:56:30.664.09-Sep-2020 5303.01 6326.26 74.68 19.00 256.52 2557.08
   16:56:30.864.09-Sep-2020 5303.01 6334.75 74.68 19.00 256.72 2557.08
   16:56:31.064.09-Sep-2020 5303.01 6324.58 74.68 19.00 256.92 2557.08
   16:56:31.264.09-Sep-2020 5303.01 6323.60 74.68 19.00 257.12 2557.08
   16:56:31.464.09-Sep-2020 5303.01 6323.60 74.68 19.00 257.32 2557.08
   16:56:31.665.09-Sep-2020 5303.01 6325.31 74.68 19.00 257.52 2557.08
   16:56:31.865.09-Sep-2020 5303.01 6326.16 74.68 19.00 257.72 2557.08
   16:56:32.065.09-Sep-2020 5303.01 6333.64 74.68 19.00 257.92 2557.08
   16:56:32.265.09-Sep-2020 5303.01 6326.72 74.68 19.00 258.12 2557.08
   16:56:32.465.09-Sep-2020 5303.01 6326.72 74.68 19.00 258.32 2557.08
   16:56:32.665.09-Sep-2020 5303.01 6325.53 74.68 19.00 258.52 2557.08
   16:56:32.865.09-Sep-2020 5303.01 6326.23 74.68 19.00 258.72 2557.08
   16:56:33.065.09-Sep-2020 5303.01 6336.10 74.68 19.00 258.92 2557.08
   16:56:33.265.09-Sep-2020 5303.01 6326.42 74.68 19.00 259.12 2557.08
   16:56:33.465.09-Sep-2020 5303.01 6324.69 74.68 19.00 259.32 2557.08
   16:56:33.665.09-Sep-2020 5303.01 6326.55 74.68 19.00 259.52 2557.08
   16:56:33.866.09-Sep-2020 5303.01 6326.52 74.67 19.00 259.72 2557.08
   16:56:34.066.09-Sep-2020 5303.01 6327.57 74.68 19.00 259.92 2557.08
   16:56:34.266.09-Sep-2020 5303.01 6327.71 74.68 19.00 260.12 2557.08
   16:56:34.466.09-Sep-2020 5303.01 6327.71 74.68 19.00 260.32 2557.08
   16:56:34.666.09-Sep-2020 5303.01 6326.49 74.67 19.00 260.52 2557.08
   16:56:34.866.09-Sep-2020 5303.01 6326.09 74.67 19.00 260.72 2557.08
   16:56:35.066.09-Sep-2020 5303.01 6326.23 74.68 19.00 260.93 2557.08
   16:56:35.266.09-Sep-2020 5303.01 6325.92 74.67 19.00 261.13 2557.08
   16:56:35.466.09-Sep-2020 5303.01 6325.69 74.67 19.00 261.33 2557.08
   16:56:35.666.09-Sep-2020 5303.01 6325.85 74.67 19.00 261.53 2557.08
   16:56:35.867.09-Sep-2020 5303.01 6325.93 74.67 19.00 261.73 2557.08
   16:56:36.067.09-Sep-2020 5303.01 6325.93 74.67 19.00 261.93 2557.08
   16:56:36.267.09-Sep-2020 5303.01 6325.94 74.67 19.00 262.13 2557.08
   16:56:36.467.09-Sep-2020 5303.01 6325.94 74.67 19.00 262.33 2557.08
   16:56:36.667.09-Sep-2020 5303.01 6325.81 74.67 19.00 262.53 2557.08
   16:56:36.867.09-Sep-2020 5303.01 6332.76 74.67 19.00 262.73 2557.08
   16:56:37.067.09-Sep-2020 5303.01 6326.29 74.67 19.00 262.93 2557.08
   16:56:37.267.09-Sep-2020 5303.01 6325.54 74.67 19.00 263.13 2557.08
   16:56:37.467.09-Sep-2020 5303.01 6325.54 74.67 19.00 263.33 2557.08
   16:56:37.667.09-Sep-2020 5303.01 6325.95 74.67 19.00 263.53 2557.08
   16:56:37.867.09-Sep-2020 5303.01 6327.20 74.67 19.00 263.73 2557.08
   16:56:38.068.09-Sep-2020 5303.01 6327.17 74.67 19.00 263.93 2557.08
   16:56:38.268.09-Sep-2020 5303.01 6325.44 74.67 19.00 264.13 2557.08
   16:56:38.468.09-Sep-2020 5303.01 6325.44 74.67 19.00 264.33 2557.08
   16:56:38.668.09-Sep-2020 5303.01 6324.73 74.67 19.00 264.53 2557.08
   16:56:38.868.09-Sep-2020 5303.01 6324.78 74.67 19.00 264.73 2557.08
   16:56:39.068.09-Sep-2020 5303.01 6324.98 74.67 19.00 264.93 2557.08
   16:56:39.268.09-Sep-2020 5303.01 6324.81 74.67 19.00 265.13 2557.08
   16:56:39.468.09-Sep-2020 5303.01 6324.81 74.67 19.00 265.33 2557.08
   16:56:39.668.09-Sep-2020 5303.01 6323.90 74.67 19.00 265.53 2557.08
   16:56:39.868.09-Sep-2020 5303.01 6323.86 74.67 19.00 265.73 2557.08
   16:56:40.069.09-Sep-2020 5303.01 6323.71 74.67 19.00 265.93 2557.08
   16:56:40.269.09-Sep-2020 5303.01 6330.89 74.67 19.00 266.13 2557.08
   16:56:40.469.09-Sep-2020 5303.01 6330.89 74.67 19.00 266.33 2557.08
   16:56:40.669.09-Sep-2020 5303.01 6324.16 74.67 19.00 266.53 2557.08
   16:56:40.869.09-Sep-2020 5303.01 6324.75 74.67 19.00 266.73 2557.08
   16:56:41.069.09-Sep-2020 5303.01 6324.51 74.67 19.00 266.93 2557.08
   16:56:41.269.09-Sep-2020 5303.01 6327.97 74.67 19.00 267.13 2557.08
   16:56:41.469.09-Sep-2020 5303.01 6327.97 74.67 19.00 267.33 2557.08
   16:56:41.669.09-Sep-2020 5303.01 6325.09 74.67 19.00 267.53 2557.08
   16:56:41.869.09-Sep-2020 5303.01 6325.45 74.67 19.00 267.73 2557.08
   16:56:42.070.09-Sep-2020 5303.01 6324.88 74.67 19.00 267.93 2557.08
   16:56:42.270.09-Sep-2020 5303.01 6326.10 74.67 19.00 268.13 2557.08
   16:56:42.470.09-Sep-2020 5303.01 6326.10 74.67 19.00 268.33 2557.08
   16:56:42.670.09-Sep-2020 5303.01 6328.47 74.67 19.00 268.53 2557.08
   16:56:42.870.09-Sep-2020 5303.01 6330.43 74.67 19.00 268.73 2557.08
   16:56:43.070.09-Sep-2020 5303.01 6324.92 74.67 19.00 268.93 2557.08
   16:56:43.270.09-Sep-2020 5303.01 6325.22 74.67 19.00 269.13 2557.08
   16:56:43.470.09-Sep-2020 5303.01 6325.22 74.67 19.00 269.33 2557.08
   16:56:43.670.09-Sep-2020 5303.01 6326.03 74.67 19.00 269.53 2557.08
   16:56:43.870.09-Sep-2020 5303.01 6335.14 74.67 19.00 269.73 2557.08
   16:56:44.070.09-Sep-2020 5303.01 6325.84 74.67 19.00 269.93 2557.08
   16:56:44.271.09-Sep-2020 5303.01 6323.83 74.67 19.00 270.13 2557.08
   16:56:44.471.09-Sep-2020 5303.01 6323.83 74.67 19.00 270.33 2557.08
   16:56:44.671.09-Sep-2020 5303.01 6325.89 74.67 19.00 270.53 2557.08
   16:56:44.871.09-Sep-2020 5303.01 6335.42 74.67 19.00 270.73 2557.08
   16:56:45.071.09-Sep-2020 5303.01 6326.98 74.67 19.00 270.93 2557.08
   16:56:45.271.09-Sep-2020 5303.01 6325.55 74.67 19.00 271.13 2557.08
