~Version Information
 VERS.                  2.0:   CWLS log ASCII Standard -VERSION 2.0
 WRAP.                   NO:   One line per depth step
~Well Information Block
#MNEM.UNIT     VALUE/NAME     DESCRIPTION
#---------     -----------    ---------------------------
 STRT.S             17:25:53 09-Sep-20: START TIME 17:25:53 09-Sep-20
 STOP.S             17:34:04 09-Sep-20: STOP TIME  17:34:04 09-Sep-20
 STEP.S                   0.00: STEP TIME
 NULL.                 -999.25: NULL VALUE
 MDS .        Operator Entered:  MAG DATA SOURCE
 PDAT.          Mean Sea Level:  PERMANENT DATUM
 DCON.         Sperry Drilling:  DIRECTNL CONTR
 RIG .              West Azeri:  RIG NAME
 WELL.           C40 (Slot 20):  WELL NAME
 SRVC.     Turan Drilling Engineering:  CONTRACTOR
 FLD .                     ACG:  FIELD NAME
 CTRY.              Azerbaijan:  COUNTRY NAME
 PROV.                    Baku:  PROVINCE
 STAT.                    Baku:  STATE NAME
 REGN.                   EESSA:  REGION
 BASE.              Azerbaijan:  LOGGING EQUIPMENT BASE LOCATION
 COMP.     BP Exploration (Caspian Sea) Ltd:  COMPANY
 WTYP.                Deviated:  WELL TYPE
 SON .        AZ-XX-0906344804:  JOB NUMBER
 FTOP.          Formation Tops:  FORM TOPS DESC
 ILTD.               Lithology:  INTERP LTH DESC
 SVYD.                  Survey:  SURVEY DESC
 DMOD.             Drill Model:  DRILL MOD DESC
 HPTY.       Minimum Curvature:  HOLE POS TYPE
 NREF.                    Grid:  NORTH REFERENCE
 SPUD.               01-Jan-20:  SPUD DATE
 DATE.      00.59.44 15-Sep-20:  END TIME
 STIM.      12.00.00 12-Jun-20:  START TIME
 DMF .             Drill Floor:  DRILL MEAS FROM
 DFST.                        :  DIST FSL TEXT
 DFWT.                        :  DIST FWL TEXT
 API .                        :  API NUMBER
 CNTY.                        :  COUNTY
 UWI .                        :  UNIQUE WELL IDENTIFIER
 LOC .                        :  LOCATION
 LMF .             Drill Floor:  LOG MEASURED FROM
 VSNS.m                   2.88:  VERT SEC N/S
 VSEW.m                  -3.84:  VERT SEC E/W
 AGAP.m                  43.42:  AIR GAP
 APD .m                  43.42:  DEPTH ABOVE PD
 WDMS.m                 118.27:  WD ELEV
 EGL .m                   0.00:  GROUND ELEVATION
 EPD .m                   0.00:  ELEVATION
 AZTC.deg                 6.23:  AZM TOTAL CORR
 GRDC.deg                 0.20:  GRID CORRECTION
 MDEC.deg                 6.43:  MAGNETIC DECL
 MDIP.deg                59.49:  MAGNETIC DIP
 MFLD.nT              50277.00:  MAGNETIC FIELD
 GVFD.g                   1.00:  GRAVITY FIELD
 VSDR.deg               173.20:  VERT SEC DIRECT
 TDD .m                5790.01:  TOTAL DEPTH (DRILLER)
 SDEP.m                5231.01:  START DEPTH
 DFSL.m                   0.00:  DISTANCE FSL
 DFWL.m                   0.00:  DISTANCE FWL
 UTMY.m             4435808.83:  UTM Y
 UTMX.m              526266.40:  UTM X
 WHEW.m                  -3.84:  WELL HEAD E/W
 WHNS.m                   2.88:  WELL HEAD N/S
 LONG.deg                51.31:  LONGITUDE
 LATI.deg                40.06:  LATITUDE
 TVDS.m                  43.42:  TVDSS CORRECTN
 DEP .m                 430.08:  DEPTH
 EKB .m                  43.42:  KB ELEVATION
 EDF .m                  43.42:  DF ELEVATION
 TDL .m                 559.00:  TOTAL DEPTH (LOGGER)
 MAGU.                 1849381:  MAGUTM CHECKSUM
 VSC .                       0:  VS TO CLOSURE
~Parameter Information Block
#MNEM.UNIT       Value        Description
#---------     -----------    ---------------------------
 AV  .mps                 4.87:  Ann Velocity 
 AVMX.mps                 7.08:  Max Ann Veloc 
 AZIF.deg               108.87:  Azm, Final 
 BHAT.                  Rotary:  BHA Type 
 BROT.°/30m               0.35:  Build Rotating 
 BS  .in                  8.50:  Bit Size 
 BSZ .in                  8.50:  Bit Size 
 BTPL.psig              360.00:  Bit Press Loss 
 CABU.                     Yes:  Customer Abuse 
 COMM.                     ô¸n:  Run Comments 1 
 TCS .hr                106.24:  Time Ciculation Ended 
 CV  .mps                 1.77:  Crit Velocity 
 CVMX.mps                 2.03:  Max Crit Veloc 
 DD1 .         Aykhan Agagulov:  Direct Drillr 1 
 DD2 .            Nonso Okofor:  Direct Drillr 2 
 DDSV.               Geo-Pilot:  DD Service 
 DEFF.%                  98.00:  % Det Eff 
 DLRX.°/30m               0.50:  Dogleg Rot Max 
 DLSO.°/30m               0.40:  Dogleg Oriented 
 DLSX.°/30m               0.94:  Dogleg Str Max 
 DRET.      20.30.00 08-Sep-20:  Drill End Time 
 DRST.      22.15.00 06-Sep-20:  Drill Start Tim 
 DTIM.hr                 31.31:  Time Drilling 
 EDEP.m                5790.01:  End Depth 
 ENG1.           Amrah Tahirov:  Engineer 1 
 ENG2.         Dair Mahammadov:  Engineer 2 
 ENG3.           Emil Huseynov:  Engineer 3 
 ETIM.      04.01.04 12-Sep-20:  End Time 
 FLOI.gpm               450.00:  Flow In 
 FLON.gpm               450.00:  Flow In Min 
 FLOS.cptm                2.00:  Fluid Loss 
 FLOX.gpm               450.00:  Flow In Max 
 FTRO.       Formation Presure:  FTWD Run Obj 
 HFLO.                      No:  High Flow 
 HPRE.                      No:  High Pressure 
 HTEM.                      No:  High Temp 
 HYDO.m                   1.80:  Hydro Offset 
 IFIN.deg                72.03:  Inc, Final 
 IMAX.deg                73.72:  Inc Max 
 IMIN.deg                70.94:  Inc Min 
 IMND.m                5508.52:  Inc Min Depth 
 IMXD.m                5253.60:  Inc Max Depth 
 JARR.                      No:  Jarring 
 LETM.      20.30.00 08-Sep-20:  Log End Time 
 LOST.hr                     0:  Lost Rig Time 
 LSTM.      22.15.00 06-Sep-20:  Log Start Time 
 MDCL.ppm             36000.00:  Mud Chlorides 
 MDES.     Inversion Oil/Synthetic:  Mud Desc 
 DFD .sg                  1.44:  Mud Density 
 MDMN.sg                  1.44:  Dens Mud Min 
 MDMX.sg                  1.57:  Dens Mud Max 
 MOIL.                      70:  Run Mud Oil % 
 MOWR.                   70:30:  Run Mud OWR 
 MSND.                       0:  Run Mud Sand % 
 MSOL.                      21:  Run Mud Solids% 
 DFV .spqt               68.00:  Mud Viscosity 
 MWOD.in                  6.75:  MWD Tool OD 
 MWSI.                     Yes:  Serv Intrp, MWD 
 OTIM.hr                174.84:  Time Operating 
 PCON.           Look Like New:  Pad Condition 
 PMAX.psia            10616.93:  Press Op, Max 
 PV  .cP                 50.00:  Mud PV 
 RUN .                     700:  Run Number 
 ROPA.m/hr               14.24:  ROP Avg 
 ROPN.m/hr               10.00:  ROP Min 
 ROPX.m/hr               32.00:  ROP Max 
 RPMA.rpm               120.90:  RPM Surface Avg 
 RPMN.rpm               120.00:  RPM Surface Min 
 RPMX.rpm               140.00:  RPM Surface Max 
 RRUN.                    0700:  Rig Run Number 
 RTIM.hr                  3.20:  Time Reaming 
 SAZI.deg               109.99:  Azm, Start 
 SDEP.m                5231.01:  Start Depth 
 SIDD.                      No:  Serv Intrp, DD 
 SINC.deg                73.72:  Inc, Start 
 SPPA.psig             3051.00:  SPP Avg 
 SPPN.psig             2950.00:  SPP Min 
 SPPX.psig             3250.00:  SPP Max 
 STIM.      08.00.00 05-Sep-20:  Start Time 
 SVCS.                 DD, MWD:  Services 
 SVER.                    9.20:  Sperry Version 
 TDAT.m                 559.00:  Tot Depth Attmp 
 TDDF.                      No:  Trip for DD 
 TDLG.m                 559.00:  Tot Depth Loggd 
 TFF .                      No:  Trip for Fail 
 TQAA.f-kp               26.49:  Torque Abs Avg 
 TQAN.f-kp               25.00:  Torque Abs Min 
 TQAX.f-kp               27.00:  Torque Abs Max 
 TRRT.°/30m               1.50:  Turn Rotating 
 MRT .                    HCIM:  Maximum Recorded Temperature 
 TTMX.degC               90.20:  Max Tool Temp 
 VS01.                90542671:  Virtual Str1 SN 
 VS02.                90545185:  Virtual Str2 SN 
 VS03.                90602015:  Virtual Str3 SN 
 VS04.                90515230:  Virtual Str4 SN 
 WBMN.klb                 5.00:  WOB Min 
 WOBA.klb                14.79:  WOB Avg 
 WOBX.klb                20.00:  WOB Max 
 YP  .lhf2               29.00:  Yield Point 
~Curve Information Block
#MNEM.UNIT                 API CODE     Curve Description
#---------               -----------    ---------------------------
 TIME.HHMMSS            00 000 000 000:  GT Time & Date
 GTDEPTH.m              00 000 000 000:  GT Depth
 GTPQH.psia             00 000 000 000:  GT HR Quartz Pressure
 GTTQ.degC              00 000 000 000:  GT Quartz Temperature
 GTTN.NONE              00 000 000 000:  GT Test Number
 GTET.sec               00 000 000 000:  GT Elapsed Test Time
 GTTVD.m                00 000 000 000:  GT True Vertical Depth
#Other Information
#
#WARRANTY: Halliburton will use its best efforts to furnish customers with 
#accurate information and interpretations that are part of, and incident to, the services 
#provided.  However, Halliburton cannot and does not warrant the accuracy 
#or correctness of such information and interpretations.  Under no circumstances should any 
#such information or interpretation be relied upon as the sole basis for any drilling, 
#completion, production, or financial decision or any procedure involving any risk to the 
#safety of any drilling venture, drilling rig or its crew or any other third party.  The 
#Customer has full responsibility for all drilling, completion and production operation.  
#Halliburton makes no representations or warranties, either expressed or 
#implied, including, but not limited to, the implied warranties of merchantability or fitness 
#for a particular purpose, with respect to the services rendered.  In no event will 
#Halliburton be liable for failure to obtain any particular results or for 
#any damages, including, but not limited to, indirect, special or consequential damages, 
#resulting from the use of any information or interpretation provided by Halliburton.
#
~A           TIME           GTDEPTH  GTPQH  GTTQ  GTTN   GTET   GTTVD  
# ...
   17:27:00.941.09-Sep-2020 5302.51 6296.02 74.63 20.00  67.83 2556.93
   17:27:01.141.09-Sep-2020 5302.51 6295.81 74.63 20.00  68.03 2556.93
   17:27:01.341.09-Sep-2020 5302.51 6295.81 74.63 20.00  68.23 2556.93
   17:27:01.541.09-Sep-2020 5302.51 6295.64 74.63 20.00  68.43 2556.93
   17:27:01.742.09-Sep-2020 5302.51 6296.01 74.63 20.00  68.63 2556.93
   17:27:01.942.09-Sep-2020 5302.51 6296.33 74.63 20.00  68.83 2556.93
   17:27:02.142.09-Sep-2020 5302.51 6296.69 74.63 20.00  69.03 2556.93
   17:27:02.342.09-Sep-2020 5302.51 6296.85 74.63 20.00  69.23 2556.93
   17:27:02.542.09-Sep-2020 5302.51 6297.09 74.63 20.00  69.43 2556.93
   17:27:02.742.09-Sep-2020 5302.51 6297.24 74.63 20.00  69.63 2556.93
   17:27:02.942.09-Sep-2020 5302.51 6302.90 74.63 20.00  69.83 2556.93
   17:27:03.142.09-Sep-2020 5302.51 6298.38 74.63 20.00  70.03 2556.93
   17:27:03.342.09-Sep-2020 5302.51 6298.38 74.63 20.00  70.23 2556.93
   17:27:03.542.09-Sep-2020 5302.51 6298.15 74.63 20.00  70.43 2556.93
   17:27:03.743.09-Sep-2020 5302.51 6298.61 74.63 20.00  70.63 2556.93
   17:27:03.943.09-Sep-2020 5302.51 6298.37 74.63 20.00  70.83 2556.93
   17:27:04.143.09-Sep-2020 5302.51 6298.88 74.63 20.00  71.03 2556.93
   17:27:04.343.09-Sep-2020 5302.51 6298.88 74.63 20.00  71.23 2556.93
   17:27:04.543.09-Sep-2020 5302.51 6298.55 74.63 20.00  71.43 2556.93
   17:27:04.743.09-Sep-2020 5302.51 6298.07 74.63 20.00  71.63 2556.93
   17:27:04.943.09-Sep-2020 5302.51 6298.04 74.63 20.00  71.83 2556.93
   17:27:05.143.09-Sep-2020 5302.51 6298.28 74.63 20.00  72.03 2556.93
   17:27:05.343.09-Sep-2020 5302.51 6298.28 74.63 20.00  72.23 2556.93
   17:27:05.543.09-Sep-2020 5302.51 6299.14 74.63 20.00  72.43 2556.93
   17:27:05.743.09-Sep-2020 5302.51 6298.79 74.63 20.00  72.63 2556.93
   17:27:05.944.09-Sep-2020 5302.51 6298.67 74.63 20.00  72.83 2556.93
   17:27:06.144.09-Sep-2020 5302.51 6298.66 74.63 20.00  73.04 2556.93
   17:27:06.344.09-Sep-2020 5302.51 6298.66 74.63 20.00  73.24 2556.93
   17:27:06.544.09-Sep-2020 5302.51 6300.20 74.63 20.00  73.44 2556.93
   17:27:06.744.09-Sep-2020 5302.51 6301.03 74.63 20.00  73.64 2556.93
   17:27:06.944.09-Sep-2020 5302.51 6299.56 74.63 20.00  73.84 2556.93
   17:27:07.144.09-Sep-2020 5302.51 6299.70 74.63 20.00  74.04 2556.93
   17:27:07.344.09-Sep-2020 5302.51 6299.70 74.63 20.00  74.24 2556.93
   17:27:07.544.09-Sep-2020 5302.51 6302.36 74.63 20.00  74.44 2556.93
   17:27:07.744.09-Sep-2020 5302.51 6299.24 74.63 20.00  74.64 2556.93
   17:27:07.945.09-Sep-2020 5302.51 6300.96 74.63 20.00  74.84 2556.93
   17:27:08.145.09-Sep-2020 5302.51 6300.19 74.63 20.00  75.04 2556.93
   17:27:08.345.09-Sep-2020 5302.51 6300.19 74.63 20.00  75.24 2556.93
   17:27:08.545.09-Sep-2020 5302.51 6299.77 74.63 20.00  75.44 2556.93
   17:27:08.745.09-Sep-2020 5302.51 6306.43 74.63 20.00  75.64 2556.93
   17:27:08.945.09-Sep-2020 5302.51 6301.24 74.63 20.00  75.84 2556.93
   17:27:09.145.09-Sep-2020 5302.51 6301.97 74.63 20.00  76.04 2556.93
   17:27:09.345.09-Sep-2020 5302.51 6301.97 74.63 20.00  76.24 2556.93
   17:27:09.545.09-Sep-2020 5302.51 6301.17 74.63 20.00  76.44 2556.93
   17:27:09.745.09-Sep-2020 5302.51 6305.37 74.63 20.00  76.64 2556.93
   17:27:09.945.09-Sep-2020 5302.51 6303.68 74.63 20.00  76.84 2556.93
   17:27:10.146.09-Sep-2020 5302.51 6300.67 74.63 20.00  77.04 2556.93
   17:27:10.346.09-Sep-2020 5302.51 6300.67 74.63 20.00  77.24 2556.93
   17:27:10.546.09-Sep-2020 5302.51 6302.54 74.63 20.00  77.44 2556.93
   17:27:10.746.09-Sep-2020 5302.51 6308.74 74.63 20.00  77.64 2556.93
   17:27:10.946.09-Sep-2020 5302.51 6303.14 74.63 20.00  77.84 2556.93
   17:27:11.146.09-Sep-2020 5302.51 6304.37 74.63 20.00  78.04 2556.93
   17:27:11.346.09-Sep-2020 5302.51 6304.37 74.63 20.00  78.24 2556.93
   17:27:11.546.09-Sep-2020 5302.51 6304.32 74.63 20.00  78.44 2556.93
   17:27:11.746.09-Sep-2020 5302.51 6304.42 74.63 20.00  78.64 2556.93
   17:27:11.946.09-Sep-2020 5302.51 6304.51 74.63 20.00  78.84 2556.93
   17:27:12.147.09-Sep-2020 5302.51 6304.28 74.63 20.00  79.04 2556.93
   17:27:12.347.09-Sep-2020 5302.51 6304.28 74.63 20.00  79.24 2556.93
   17:27:12.547.09-Sep-2020 5302.51 6305.42 74.63 20.00  79.44 2556.93
   17:27:12.747.09-Sep-2020 5302.51 6305.44 74.63 20.00  79.64 2556.93
   17:27:12.947.09-Sep-2020 5302.51 6305.20 74.63 20.00  79.84 2556.93
   17:27:13.147.09-Sep-2020 5302.51 6305.31 74.63 20.00  80.04 2556.93
   17:27:13.347.09-Sep-2020 5302.51 6305.31 74.63 20.00  80.24 2556.93
   17:27:13.547.09-Sep-2020 5302.51 6305.35 74.63 20.00  80.44 2556.93
   17:27:13.747.09-Sep-2020 5302.51 6305.57 74.63 20.00  80.64 2556.93
   17:27:13.947.09-Sep-2020 5302.51 6305.66 74.63 20.00  80.84 2556.93
   17:27:14.147.09-Sep-2020 5302.51 6305.73 74.63 20.00  81.04 2556.93
   17:27:14.348.09-Sep-2020 5302.51 6305.73 74.63 20.00  81.24 2556.93
   17:27:14.548.09-Sep-2020 5302.51 6304.55 74.63 20.00  81.44 2556.93
   17:27:14.748.09-Sep-2020 5302.51 6304.97 74.63 20.00  81.64 2556.93
   17:27:14.948.09-Sep-2020 5302.51 6306.87 74.63 20.00  81.84 2556.93
   17:27:15.148.09-Sep-2020 5302.51 6306.48 74.63 20.00  82.04 2556.93
   17:27:15.348.09-Sep-2020 5302.51 6306.48 74.63 20.00  82.24 2556.93
   17:27:15.548.09-Sep-2020 5302.51 6306.71 74.63 20.00  82.44 2556.93
   17:27:15.748.09-Sep-2020 5302.51 6306.99 74.63 20.00  82.64 2556.93
   17:27:15.948.09-Sep-2020 5302.51 6307.22 74.63 20.00  82.84 2556.93
   17:27:16.148.09-Sep-2020 5302.51 6307.35 74.63 20.00  83.04 2556.93
   17:27:16.349.09-Sep-2020 5302.51 6307.35 74.63 20.00  83.24 2556.93
   17:27:16.549.09-Sep-2020 5302.51 6306.77 74.63 20.00  83.44 2556.93
   17:27:16.749.09-Sep-2020 5302.51 6306.77 74.63 20.00  83.64 2556.93
   17:27:16.949.09-Sep-2020 5302.51 6307.09 74.63 20.00  83.84 2556.93
   17:27:17.149.09-Sep-2020 5302.51 6307.50 74.63 20.00  84.04 2556.93
   17:27:17.349.09-Sep-2020 5302.51 6307.50 74.63 20.00  84.24 2556.93
   17:27:17.549.09-Sep-2020 5302.51 6307.41 74.63 20.00  84.44 2556.93
   17:27:17.749.09-Sep-2020 5302.51 6316.77 74.63 20.00  84.64 2556.93
   17:27:17.949.09-Sep-2020 5302.51 6306.00 74.63 20.00  84.84 2556.93
   17:27:18.149.09-Sep-2020 5302.51 6306.77 74.63 20.00  85.04 2556.93
   17:27:18.350.09-Sep-2020 5302.51 6306.77 74.63 20.00  85.24 2556.93
   17:27:18.550.09-Sep-2020 5302.51 6308.80 74.63 20.00  85.44 2556.93
   17:27:18.750.09-Sep-2020 5302.51 6309.18 74.63 20.00  85.64 2556.93
   17:27:18.950.09-Sep-2020 5302.51 6316.22 74.63 20.00  85.84 2556.93
   17:27:19.150.09-Sep-2020 5302.51 6307.72 74.63 20.00  86.04 2556.93
   17:27:19.350.09-Sep-2020 5302.51 6307.72 74.63 20.00  86.24 2556.93
   17:27:19.550.09-Sep-2020 5302.51 6309.91 74.63 20.00  86.44 2556.93
   17:27:19.750.09-Sep-2020 5302.51 6309.69 74.63 20.00  86.64 2556.93
   17:27:19.950.09-Sep-2020 5302.51 6309.84 74.63 20.00  86.84 2556.93
   17:27:20.150.09-Sep-2020 5302.51 6313.64 74.63 20.00  87.04 2556.93
   17:27:20.350.09-Sep-2020 5302.51 6313.64 74.63 20.00  87.24 2556.93
   17:27:20.551.09-Sep-2020 5302.51 6309.46 74.62 20.00  87.44 2556.93
   17:27:20.751.09-Sep-2020 5302.51 6310.82 74.62 20.00  87.64 2556.93
   17:27:20.951.09-Sep-2020 5302.51 6310.36 74.62 20.00  87.84 2556.93
   17:27:21.151.09-Sep-2020 5302.51 6311.02 74.62 20.00  88.04 2556.93
   17:27:21.351.09-Sep-2020 5302.51 6311.02 74.62 20.00  88.24 2556.93
   17:27:21.551.09-Sep-2020 5302.51 6309.78 74.62 20.00  88.44 2556.93
   17:27:21.751.09-Sep-2020 5302.51 6310.94 74.62 20.00  88.64 2556.93
   17:27:21.951.09-Sep-2020 5302.51 6313.59 74.62 20.00  88.84 2556.93
   17:27:22.151.09-Sep-2020 5302.51 6309.61 74.62 20.00  89.04 2556.93
   17:27:22.351.09-Sep-2020 5302.51 6309.61 74.62 20.00  89.24 2556.93
   17:27:22.552.09-Sep-2020 5302.51 6308.91 74.62 20.00  89.44 2556.93
   17:27:22.752.09-Sep-2020 5302.51 6307.78 74.62 20.00  89.64 2556.93
   17:27:22.952.09-Sep-2020 5302.51 6313.03 74.62 20.00  89.84 2556.93
   17:27:23.152.09-Sep-2020 5302.51 6306.93 74.62 20.00  90.04 2556.93
   17:27:23.352.09-Sep-2020 5302.51 6306.93 74.62 20.00  90.24 2556.93
