~Version Information
 VERS.                  2.0:   CWLS log ASCII Standard -VERSION 2.0
 WRAP.                   NO:   One line per depth step
~Well Information Block
#MNEM.UNIT     VALUE/NAME     DESCRIPTION
#---------     -----------    ---------------------------
 STRT.S             20:00:32 09-Sep-20: START TIME 20:00:32 09-Sep-20
 STOP.S             20:08:52 09-Sep-20: STOP TIME  20:08:52 09-Sep-20
 STEP.S                   0.00: STEP TIME
 NULL.                 -999.25: NULL VALUE
 MDS .        Operator Entered:  MAG DATA SOURCE
 PDAT.          Mean Sea Level:  PERMANENT DATUM
 DCON.         Sperry Drilling:  DIRECTNL CONTR
 RIG .              West Azeri:  RIG NAME
 WELL.           C40 (Slot 20):  WELL NAME
 SRVC.     Turan Drilling Engineering:  CONTRACTOR
 FLD .                     ACG:  FIELD NAME
 CTRY.              Azerbaijan:  COUNTRY NAME
 PROV.                    Baku:  PROVINCE
 STAT.                    Baku:  STATE NAME
 REGN.                   EESSA:  REGION
 BASE.              Azerbaijan:  LOGGING EQUIPMENT BASE LOCATION
 COMP.     BP Exploration (Caspian Sea) Ltd:  COMPANY
 WTYP.                Deviated:  WELL TYPE
 SON .        AZ-XX-0906344804:  JOB NUMBER
 FTOP.          Formation Tops:  FORM TOPS DESC
 ILTD.               Lithology:  INTERP LTH DESC
 SVYD.                  Survey:  SURVEY DESC
 DMOD.             Drill Model:  DRILL MOD DESC
 HPTY.       Minimum Curvature:  HOLE POS TYPE
 NREF.                    Grid:  NORTH REFERENCE
 SPUD.               01-Jan-20:  SPUD DATE
 DATE.      00.59.44 15-Sep-20:  END TIME
 STIM.      12.00.00 12-Jun-20:  START TIME
 DMF .             Drill Floor:  DRILL MEAS FROM
 DFST.                        :  DIST FSL TEXT
 DFWT.                        :  DIST FWL TEXT
 API .                        :  API NUMBER
 CNTY.                        :  COUNTY
 UWI .                        :  UNIQUE WELL IDENTIFIER
 LOC .                        :  LOCATION
 LMF .             Drill Floor:  LOG MEASURED FROM
 VSNS.m                   2.88:  VERT SEC N/S
 VSEW.m                  -3.84:  VERT SEC E/W
 AGAP.m                  43.42:  AIR GAP
 APD .m                  43.42:  DEPTH ABOVE PD
 WDMS.m                 118.27:  WD ELEV
 EGL .m                   0.00:  GROUND ELEVATION
 EPD .m                   0.00:  ELEVATION
 AZTC.deg                 6.23:  AZM TOTAL CORR
 GRDC.deg                 0.20:  GRID CORRECTION
 MDEC.deg                 6.43:  MAGNETIC DECL
 MDIP.deg                59.49:  MAGNETIC DIP
 MFLD.nT              50277.00:  MAGNETIC FIELD
 GVFD.g                   1.00:  GRAVITY FIELD
 VSDR.deg               173.20:  VERT SEC DIRECT
 TDD .m                5790.01:  TOTAL DEPTH (DRILLER)
 SDEP.m                5231.01:  START DEPTH
 DFSL.m                   0.00:  DISTANCE FSL
 DFWL.m                   0.00:  DISTANCE FWL
 UTMY.m             4435808.83:  UTM Y
 UTMX.m              526266.40:  UTM X
 WHEW.m                  -3.84:  WELL HEAD E/W
 WHNS.m                   2.88:  WELL HEAD N/S
 LONG.deg                51.31:  LONGITUDE
 LATI.deg                40.06:  LATITUDE
 TVDS.m                  43.42:  TVDSS CORRECTN
 DEP .m                 430.08:  DEPTH
 EKB .m                  43.42:  KB ELEVATION
 EDF .m                  43.42:  DF ELEVATION
 TDL .m                 559.00:  TOTAL DEPTH (LOGGER)
 MAGU.                 1849381:  MAGUTM CHECKSUM
 VSC .                       0:  VS TO CLOSURE
~Parameter Information Block
#MNEM.UNIT       Value        Description
#---------     -----------    ---------------------------
 AV  .mps                 4.87:  Ann Velocity 
 AVMX.mps                 7.08:  Max Ann Veloc 
 AZIF.deg               108.87:  Azm, Final 
 BHAT.                  Rotary:  BHA Type 
 BROT.°/30m               0.35:  Build Rotating 
 BS  .in                  8.50:  Bit Size 
 BSZ .in                  8.50:  Bit Size 
 BTPL.psig              360.00:  Bit Press Loss 
 CABU.                     Yes:  Customer Abuse 
 TCS .hr                106.24:  Time Ciculation Ended 
 CV  .mps                 1.77:  Crit Velocity 
 CVMX.mps                 2.03:  Max Crit Veloc 
 DD1 .         Aykhan Agagulov:  Direct Drillr 1 
 DD2 .            Nonso Okofor:  Direct Drillr 2 
 DDSV.               Geo-Pilot:  DD Service 
 DEFF.%                  98.00:  % Det Eff 
 DLRX.°/30m               0.50:  Dogleg Rot Max 
 DLSO.°/30m               0.40:  Dogleg Oriented 
 DLSX.°/30m               0.94:  Dogleg Str Max 
 DRET.      20.30.00 08-Sep-20:  Drill End Time 
 DRST.      22.15.00 06-Sep-20:  Drill Start Tim 
 DTIM.hr                 31.31:  Time Drilling 
 EDEP.m                5790.01:  End Depth 
 ENG1.           Amrah Tahirov:  Engineer 1 
 ENG2.         Dair Mahammadov:  Engineer 2 
 ENG3.           Emil Huseynov:  Engineer 3 
 ETIM.      04.01.04 12-Sep-20:  End Time 
 FLOI.gpm               450.00:  Flow In 
 FLON.gpm               450.00:  Flow In Min 
 FLOS.cptm                2.00:  Fluid Loss 
 FLOX.gpm               450.00:  Flow In Max 
 FTRO.       Formation Presure:  FTWD Run Obj 
 HFLO.                      No:  High Flow 
 HPRE.                      No:  High Pressure 
 HTEM.                      No:  High Temp 
 HYDO.m                   1.80:  Hydro Offset 
 IFIN.deg                72.03:  Inc, Final 
 IMAX.deg                73.72:  Inc Max 
 IMIN.deg                70.94:  Inc Min 
 IMND.m                5508.52:  Inc Min Depth 
 IMXD.m                5253.60:  Inc Max Depth 
 JARR.                      No:  Jarring 
 LETM.      20.30.00 08-Sep-20:  Log End Time 
 LOST.hr                     0:  Lost Rig Time 
 LSTM.      22.15.00 06-Sep-20:  Log Start Time 
 MDCL.ppm             36000.00:  Mud Chlorides 
 MDES.     Inversion Oil/Synthetic:  Mud Desc 
 DFD .sg                  1.44:  Mud Density 
 MDMN.sg                  1.44:  Dens Mud Min 
 MDMX.sg                  1.57:  Dens Mud Max 
 MOIL.                      70:  Run Mud Oil % 
 MOWR.                   70:30:  Run Mud OWR 
 MSND.                       0:  Run Mud Sand % 
 MSOL.                      21:  Run Mud Solids% 
 DFV .spqt               68.00:  Mud Viscosity 
 MWOD.in                  6.75:  MWD Tool OD 
 MWSI.                     Yes:  Serv Intrp, MWD 
 OTIM.hr                174.84:  Time Operating 
 PCON.           Look Like New:  Pad Condition 
 PMAX.psia            10616.93:  Press Op, Max 
 PV  .cP                 50.00:  Mud PV 
 RUN .                     700:  Run Number 
 ROPA.m/hr               14.24:  ROP Avg 
 ROPN.m/hr               10.00:  ROP Min 
 ROPX.m/hr               32.00:  ROP Max 
 RPMA.rpm               120.90:  RPM Surface Avg 
 RPMN.rpm               120.00:  RPM Surface Min 
 RPMX.rpm               140.00:  RPM Surface Max 
 RRUN.                    0700:  Rig Run Number 
 RTIM.hr                  3.20:  Time Reaming 
 SAZI.deg               109.99:  Azm, Start 
 SDEP.m                5231.01:  Start Depth 
 SIDD.                      No:  Serv Intrp, DD 
 SINC.deg                73.72:  Inc, Start 
 SPPA.psig             3051.00:  SPP Avg 
 SPPN.psig             2950.00:  SPP Min 
 SPPX.psig             3250.00:  SPP Max 
 STIM.      08.00.00 05-Sep-20:  Start Time 
 SVCS.                 DD, MWD:  Services 
 SVER.                    9.20:  Sperry Version 
 TDAT.m                 559.00:  Tot Depth Attmp 
 TDDF.                      No:  Trip for DD 
 TDLG.m                 559.00:  Tot Depth Loggd 
 TFF .                      No:  Trip for Fail 
 TQAA.f-kp               26.49:  Torque Abs Avg 
 TQAN.f-kp               25.00:  Torque Abs Min 
 TQAX.f-kp               27.00:  Torque Abs Max 
 TRRT.°/30m               1.50:  Turn Rotating 
 MRT .                    HCIM:  Maximum Recorded Temperature 
 TTMX.degC               90.20:  Max Tool Temp 
 VS01.                90542671:  Virtual Str1 SN 
 VS02.                90545185:  Virtual Str2 SN 
 VS03.                90602015:  Virtual Str3 SN 
 VS04.                90515230:  Virtual Str4 SN 
 WBMN.klb                 5.00:  WOB Min 
 WOBA.klb                14.79:  WOB Avg 
 WOBX.klb                20.00:  WOB Max 
 YP  .lhf2               29.00:  Yield Point 
~Curve Information Block
#MNEM.UNIT                 API CODE     Curve Description
#---------               -----------    ---------------------------
 TIME.HHMMSS            00 000 000 000:  GT Time & Date
 GTDEPTH.m              00 000 000 000:  GT Depth
 GTPQH.psia             00 000 000 000:  GT HR Quartz Pressure
 GTTQ.degC              00 000 000 000:  GT Quartz Temperature
 GTTN.NONE              00 000 000 000:  GT Test Number
 GTET.sec               00 000 000 000:  GT Elapsed Test Time
 GTTVD.m                00 000 000 000:  GT True Vertical Depth
#Other Information
#
#WARRANTY: Halliburton will use its best efforts to furnish customers with 
#accurate information and interpretations that are part of, and incident to, the services 
#provided.  However, Halliburton cannot and does not warrant the accuracy 
#or correctness of such information and interpretations.  Under no circumstances should any 
#such information or interpretation be relied upon as the sole basis for any drilling, 
#completion, production, or financial decision or any procedure involving any risk to the 
#safety of any drilling venture, drilling rig or its crew or any other third party.  The 
#Customer has full responsibility for all drilling, completion and production operation.  
#Halliburton makes no representations or warranties, either expressed or 
#implied, including, but not limited to, the implied warranties of merchantability or fitness 
#for a particular purpose, with respect to the services rendered.  In no event will 
#Halliburton be liable for failure to obtain any particular results or for 
#any damages, including, but not limited to, indirect, special or consequential damages, 
#resulting from the use of any information or interpretation provided by Halliburton.
#
~A           TIME           GTDEPTH  GTPQH  GTTQ  GTTN   GTET   GTTVD  
# ...
   20:04:40.784.09-Sep-2020 5259.51 4140.02 74.11 24.00 248.71 2544.41
   20:04:40.984.09-Sep-2020 5259.51 4138.91 74.11 24.00 248.91 2544.41
   20:04:41.184.09-Sep-2020 5259.51 4140.72 74.11 24.00 249.11 2544.41
   20:04:41.384.09-Sep-2020 5259.51 4140.72 74.11 24.00 249.31 2544.41
   20:04:41.584.09-Sep-2020 5259.51 4140.18 74.11 24.00 249.52 2544.41
   20:04:41.784.09-Sep-2020 5259.51 4140.06 74.11 24.00 249.72 2544.41
   20:04:41.984.09-Sep-2020 5259.51 4140.26 74.11 24.00 249.92 2544.41
   20:04:42.185.09-Sep-2020 5259.51 4139.21 74.11 24.00 250.12 2544.41
   20:04:42.385.09-Sep-2020 5259.51 4139.21 74.11 24.00 250.32 2544.41
   20:04:42.585.09-Sep-2020 5259.51 4140.03 74.11 24.00 250.52 2544.41
   20:04:42.785.09-Sep-2020 5259.51 4139.93 74.11 24.00 250.72 2544.41
   20:04:42.985.09-Sep-2020 5259.51 4139.97 74.11 24.00 250.92 2544.41
   20:04:43.185.09-Sep-2020 5259.51 4140.01 74.11 24.00 251.12 2544.41
   20:04:43.385.09-Sep-2020 5259.51 4140.01 74.10 24.00 251.32 2544.41
   20:04:43.585.09-Sep-2020 5259.51 4140.17 74.11 24.00 251.52 2544.41
   20:04:43.785.09-Sep-2020 5259.51 4140.13 74.11 24.00 251.72 2544.41
   20:04:43.985.09-Sep-2020 5259.51 4139.93 74.11 24.00 251.92 2544.41
   20:04:44.185.09-Sep-2020 5259.51 4139.37 74.10 24.00 252.12 2544.41
   20:04:44.386.09-Sep-2020 5259.51 4139.37 74.10 24.00 252.32 2544.41
   20:04:44.586.09-Sep-2020 5259.51 4140.12 74.10 24.00 252.52 2544.41
   20:04:44.786.09-Sep-2020 5259.51 4139.94 74.11 24.00 252.72 2544.41
   20:04:44.986.09-Sep-2020 5259.51 4139.54 74.11 24.00 252.92 2544.41
   20:04:45.186.09-Sep-2020 5259.51 4140.15 74.10 24.00 253.12 2544.41
   20:04:45.386.09-Sep-2020 5259.51 4140.15 74.10 24.00 253.32 2544.41
   20:04:45.586.09-Sep-2020 5259.51 4140.10 74.10 24.00 253.52 2544.41
   20:04:45.786.09-Sep-2020 5259.51 4140.07 74.11 24.00 253.72 2544.41
   20:04:45.986.09-Sep-2020 5259.51 4140.16 74.10 24.00 253.92 2544.41
   20:04:46.186.09-Sep-2020 5259.51 4140.01 74.11 24.00 254.12 2544.41
   20:04:46.386.09-Sep-2020 5259.51 4140.01 74.11 24.00 254.32 2544.41
   20:04:46.587.09-Sep-2020 5259.51 4140.01 74.10 24.00 254.52 2544.41
   20:04:46.787.09-Sep-2020 5259.51 4140.00 74.10 24.00 254.72 2544.41
   20:04:46.987.09-Sep-2020 5259.51 4140.03 74.10 24.00 254.92 2544.41
   20:04:47.187.09-Sep-2020 5259.51 4140.08 74.10 24.00 255.12 2544.41
   20:04:47.387.09-Sep-2020 5259.51 4140.08 74.10 24.00 255.32 2544.41
   20:04:47.587.09-Sep-2020 5259.51 4139.97 74.10 24.00 255.52 2544.41
   20:04:47.787.09-Sep-2020 5259.51 4139.98 74.10 24.00 255.72 2544.41
   20:04:47.987.09-Sep-2020 5259.51 4140.02 74.10 24.00 255.92 2544.41
   20:04:48.187.09-Sep-2020 5259.51 4140.07 74.10 24.00 256.12 2544.41
   20:04:48.387.09-Sep-2020 5259.51 4140.07 74.10 24.00 256.32 2544.41
   20:04:48.588.09-Sep-2020 5259.51 4139.55 74.10 24.00 256.52 2544.41
   20:04:48.788.09-Sep-2020 5259.51 4140.09 74.10 24.00 256.72 2544.41
   20:04:48.988.09-Sep-2020 5259.51 4140.46 74.10 24.00 256.92 2544.41
   20:04:49.188.09-Sep-2020 5259.51 4140.29 74.10 24.00 257.12 2544.41
   20:04:49.388.09-Sep-2020 5259.51 4140.29 74.10 24.00 257.32 2544.41
   20:04:49.588.09-Sep-2020 5259.51 4140.29 74.10 24.00 257.52 2544.41
   20:04:49.788.09-Sep-2020 5259.51 4140.06 74.10 24.00 257.72 2544.41
   20:04:49.988.09-Sep-2020 5259.51 4140.06 74.10 24.00 257.92 2544.41
   20:04:50.188.09-Sep-2020 5259.51 4140.06 74.10 24.00 258.12 2544.41
   20:04:50.388.09-Sep-2020 5259.51 4140.06 74.10 24.00 258.32 2544.41
   20:04:50.588.09-Sep-2020 5259.51 4140.04 74.10 24.00 258.52 2544.41
   20:04:50.789.09-Sep-2020 5259.51 4140.00 74.10 24.00 258.72 2544.41
   20:04:50.989.09-Sep-2020 5259.51 4139.97 74.10 24.00 258.92 2544.41
   20:04:51.189.09-Sep-2020 5259.51 4139.98 74.10 24.00 259.12 2544.41
   20:04:51.389.09-Sep-2020 5259.51 4139.98 74.10 24.00 259.32 2544.41
   20:04:51.589.09-Sep-2020 5259.51 4140.06 74.10 24.00 259.52 2544.41
   20:04:51.789.09-Sep-2020 5259.51 4140.07 74.10 24.00 259.72 2544.41
   20:04:51.989.09-Sep-2020 5259.51 4139.55 74.10 24.00 259.92 2544.41
   20:04:52.189.09-Sep-2020 5259.51 4140.02 74.10 24.00 260.12 2544.41
   20:04:52.389.09-Sep-2020 5259.51 4140.02 74.10 24.00 260.32 2544.41
   20:04:52.589.09-Sep-2020 5259.51 4140.25 74.10 24.00 260.52 2544.41
   20:04:52.789.09-Sep-2020 5259.51 4140.19 74.10 24.00 260.72 2544.41
   20:04:52.990.09-Sep-2020 5259.51 4140.23 74.10 24.00 260.92 2544.41
   20:04:53.190.09-Sep-2020 5259.51 4138.92 74.10 24.00 261.12 2544.41
   20:04:53.390.09-Sep-2020 5259.51 4138.92 74.10 24.00 261.32 2544.41
   20:04:53.590.09-Sep-2020 5259.51 4140.13 74.10 24.00 261.52 2544.41
   20:04:53.790.09-Sep-2020 5259.51 4140.02 74.10 24.00 261.72 2544.41
   20:04:53.990.09-Sep-2020 5259.51 4139.90 74.10 24.00 261.92 2544.41
   20:04:54.190.09-Sep-2020 5259.51 4140.14 74.10 24.00 262.12 2544.41
   20:04:54.390.09-Sep-2020 5259.51 4140.14 74.10 24.00 262.32 2544.41
   20:04:54.590.09-Sep-2020 5259.51 4140.22 74.10 24.00 262.52 2544.41
   20:04:54.790.09-Sep-2020 5259.51 4140.19 74.10 24.00 262.72 2544.41
   20:04:54.990.09-Sep-2020 5259.51 4139.99 74.10 24.00 262.92 2544.41
   20:04:55.191.09-Sep-2020 5259.51 4139.12 74.10 24.00 263.12 2544.41
   20:04:55.391.09-Sep-2020 5259.51 4139.12 74.10 24.00 263.32 2544.41
   20:04:55.591.09-Sep-2020 5259.51 4140.29 74.10 24.00 263.52 2544.41
   20:04:55.791.09-Sep-2020 5259.51 4140.07 74.10 24.00 263.72 2544.41
   20:04:55.991.09-Sep-2020 5259.51 4138.93 74.10 24.00 263.92 2544.41
   20:04:56.191.09-Sep-2020 5259.51 4140.90 74.10 24.00 264.12 2544.41
   20:04:56.391.09-Sep-2020 5259.51 4140.90 74.10 24.00 264.32 2544.41
   20:04:56.591.09-Sep-2020 5259.51 4140.03 74.10 24.00 264.52 2544.41
   20:04:56.791.09-Sep-2020 5259.51 4139.98 74.10 24.00 264.72 2544.41
   20:04:56.991.09-Sep-2020 5259.51 4140.21 74.10 24.00 264.92 2544.41
   20:04:57.191.09-Sep-2020 5259.51 4140.09 74.10 24.00 265.12 2544.41
   20:04:57.392.09-Sep-2020 5259.51 4140.09 74.10 24.00 265.32 2544.41
   20:04:57.592.09-Sep-2020 5259.51 4140.04 74.10 24.00 265.52 2544.41
   20:04:57.792.09-Sep-2020 5259.51 4140.01 74.10 24.00 265.72 2544.41
   20:04:57.992.09-Sep-2020 5259.51 4140.09 74.10 24.00 265.92 2544.41
   20:04:58.192.09-Sep-2020 5259.51 4140.08 74.10 24.00 266.12 2544.41
   20:04:58.392.09-Sep-2020 5259.51 4140.08 74.10 24.00 266.32 2544.41
   20:04:58.592.09-Sep-2020 5259.51 4140.01 74.10 24.00 266.52 2544.41
   20:04:58.792.09-Sep-2020 5259.51 4140.01 74.10 24.00 266.72 2544.41
   20:04:58.992.09-Sep-2020 5259.51 4140.06 74.10 24.00 266.92 2544.41
   20:04:59.192.09-Sep-2020 5259.51 4140.08 74.10 24.00 267.12 2544.41
   20:04:59.392.09-Sep-2020 5259.51 4140.08 74.10 24.00 267.32 2544.41
   20:04:59.593.09-Sep-2020 5259.51 4139.03 74.10 24.00 267.52 2544.41
   20:04:59.793.09-Sep-2020 5259.51 4140.93 74.10 24.00 267.72 2544.41
   20:04:59.993.09-Sep-2020 5259.51 4140.46 74.10 24.00 267.92 2544.41
   20:05:00.193.09-Sep-2020 5259.51 4140.31 74.10 24.00 268.12 2544.41
   20:05:00.393.09-Sep-2020 5259.51 4140.31 74.10 24.00 268.32 2544.41
   20:05:00.593.09-Sep-2020 5259.51 4140.37 74.10 24.00 268.52 2544.41
   20:05:00.793.09-Sep-2020 5259.51 4140.14 74.10 24.00 268.72 2544.41
   20:05:00.993.09-Sep-2020 5259.51 4140.09 74.10 24.00 268.92 2544.41
   20:05:01.193.09-Sep-2020 5259.51 4140.08 74.10 24.00 269.12 2544.41
   20:05:01.393.09-Sep-2020 5259.51 4140.08 74.10 24.00 269.32 2544.41
   20:05:01.594.09-Sep-2020 5259.51 4140.11 74.10 24.00 269.52 2544.41
   20:05:01.794.09-Sep-2020 5259.51 4140.06 74.10 24.00 269.72 2544.41
   20:05:01.994.09-Sep-2020 5259.51 4140.02 74.10 24.00 269.92 2544.41
   20:05:02.194.09-Sep-2020 5259.51 4140.02 74.10 24.00 270.12 2544.41
   20:05:02.394.09-Sep-2020 5259.51 4140.02 74.10 24.00 270.32 2544.41
   20:05:02.594.09-Sep-2020 5259.51 4140.10 74.10 24.00 270.52 2544.41
   20:05:02.794.09-Sep-2020 5259.51 4140.09 74.10 24.00 270.72 2544.41
   20:05:02.994.09-Sep-2020 5259.51 4138.96 74.10 24.00 270.92 2544.41
   20:05:03.194.09-Sep-2020 5259.51 4140.77 74.10 24.00 271.12 2544.41
