~Version Information
 VERS.                  2.0:   CWLS log ASCII Standard -VERSION 2.0
 WRAP.                   NO:   One line per depth step
~Well Information Block
#MNEM.UNIT     VALUE/NAME     DESCRIPTION
#---------     -----------    ---------------------------
 STRT.S             05:36:14 09-Sep-20: START TIME 05:36:14 09-Sep-20
 STOP.S             05:43:10 09-Sep-20: STOP TIME  05:43:10 09-Sep-20
 STEP.S                   0.00: STEP TIME
 NULL.                 -999.25: NULL VALUE
 MDS .        Operator Entered:  MAG DATA SOURCE
 PDAT.          Mean Sea Level:  PERMANENT DATUM
 DCON.         Sperry Drilling:  DIRECTNL CONTR
 RIG .              West Azeri:  RIG NAME
 WELL.           C40 (Slot 20):  WELL NAME
 SRVC.     Turan Drilling Engineering:  CONTRACTOR
 FLD .                     ACG:  FIELD NAME
 CTRY.              Azerbaijan:  COUNTRY NAME
 PROV.                    Baku:  PROVINCE
 STAT.                    Baku:  STATE NAME
 REGN.                   EESSA:  REGION
 BASE.              Azerbaijan:  LOGGING EQUIPMENT BASE LOCATION
 COMP.     BP Exploration (Caspian Sea) Ltd:  COMPANY
 WTYP.                Deviated:  WELL TYPE
 SON .        AZ-XX-0906344804:  JOB NUMBER
 FTOP.          Formation Tops:  FORM TOPS DESC
 ILTD.               Lithology:  INTERP LTH DESC
 SVYD.                  Survey:  SURVEY DESC
 DMOD.             Drill Model:  DRILL MOD DESC
 HPTY.       Minimum Curvature:  HOLE POS TYPE
 NREF.                    Grid:  NORTH REFERENCE
 SPUD.               01-Jan-20:  SPUD DATE
 DATE.      00.59.44 15-Sep-20:  END TIME
 STIM.      12.00.00 12-Jun-20:  START TIME
 DMF .             Drill Floor:  DRILL MEAS FROM
 DFST.                        :  DIST FSL TEXT
 DFWT.                        :  DIST FWL TEXT
 API .                        :  API NUMBER
 CNTY.                        :  COUNTY
 UWI .                        :  UNIQUE WELL IDENTIFIER
 LOC .                        :  LOCATION
 LMF .             Drill Floor:  LOG MEASURED FROM
 VSNS.m                   2.88:  VERT SEC N/S
 VSEW.m                  -3.84:  VERT SEC E/W
 AGAP.m                  43.42:  AIR GAP
 APD .m                  43.42:  DEPTH ABOVE PD
 WDMS.m                 118.27:  WD ELEV
 EGL .m                   0.00:  GROUND ELEVATION
 EPD .m                   0.00:  ELEVATION
 AZTC.deg                 6.23:  AZM TOTAL CORR
 GRDC.deg                 0.20:  GRID CORRECTION
 MDEC.deg                 6.43:  MAGNETIC DECL
 MDIP.deg                59.49:  MAGNETIC DIP
 MFLD.nT              50277.00:  MAGNETIC FIELD
 GVFD.g                   1.00:  GRAVITY FIELD
 VSDR.deg               173.20:  VERT SEC DIRECT
 TDD .m                5790.01:  TOTAL DEPTH (DRILLER)
 SDEP.m                5231.01:  START DEPTH
 DFSL.m                   0.00:  DISTANCE FSL
 DFWL.m                   0.00:  DISTANCE FWL
 UTMY.m             4435808.83:  UTM Y
 UTMX.m              526266.40:  UTM X
 WHEW.m                  -3.84:  WELL HEAD E/W
 WHNS.m                   2.88:  WELL HEAD N/S
 LONG.deg                51.31:  LONGITUDE
 LATI.deg                40.06:  LATITUDE
 TVDS.m                  43.42:  TVDSS CORRECTN
 DEP .m                 430.08:  DEPTH
 EKB .m                  43.42:  KB ELEVATION
 EDF .m                  43.42:  DF ELEVATION
 TDL .m                 559.00:  TOTAL DEPTH (LOGGER)
 MAGU.                 1849381:  MAGUTM CHECKSUM
 VSC .                       0:  VS TO CLOSURE
~Parameter Information Block
#MNEM.UNIT       Value        Description
#---------     -----------    ---------------------------
 AV  .mps                 4.87:  Ann Velocity 
 AVMX.mps                 7.08:  Max Ann Veloc 
 AZIF.deg               108.87:  Azm, Final 
 BHAT.                  Rotary:  BHA Type 
 BROT.°/30m               0.35:  Build Rotating 
 BS  .in                  8.50:  Bit Size 
 BSZ .in                  8.50:  Bit Size 
 BTPL.psig              360.00:  Bit Press Loss 
 CABU.                     Yes:  Customer Abuse 
 COMM.                     ”£|:  Run Comments 1 
 TCS .hr                106.24:  Time Ciculation Ended 
 CV  .mps                 1.77:  Crit Velocity 
 CVMX.mps                 2.03:  Max Crit Veloc 
 DD1 .         Aykhan Agagulov:  Direct Drillr 1 
 DD2 .            Nonso Okofor:  Direct Drillr 2 
 DDSV.               Geo-Pilot:  DD Service 
 DEFF.%                  98.00:  % Det Eff 
 DLRX.°/30m               0.50:  Dogleg Rot Max 
 DLSO.°/30m               0.40:  Dogleg Oriented 
 DLSX.°/30m               0.94:  Dogleg Str Max 
 DRET.      20.30.00 08-Sep-20:  Drill End Time 
 DRST.      22.15.00 06-Sep-20:  Drill Start Tim 
 DTIM.hr                 31.31:  Time Drilling 
 EDEP.m                5790.01:  End Depth 
 ENG1.           Amrah Tahirov:  Engineer 1 
 ENG2.         Dair Mahammadov:  Engineer 2 
 ENG3.           Emil Huseynov:  Engineer 3 
 ETIM.      04.01.04 12-Sep-20:  End Time 
 FLOI.gpm               450.00:  Flow In 
 FLON.gpm               450.00:  Flow In Min 
 FLOS.cptm                2.00:  Fluid Loss 
 FLOX.gpm               450.00:  Flow In Max 
 FTRO.       Formation Presure:  FTWD Run Obj 
 HFLO.                      No:  High Flow 
 HPRE.                      No:  High Pressure 
 HTEM.                      No:  High Temp 
 HYDO.m                   1.80:  Hydro Offset 
 IFIN.deg                72.03:  Inc, Final 
 IMAX.deg                73.72:  Inc Max 
 IMIN.deg                70.94:  Inc Min 
 IMND.m                5508.52:  Inc Min Depth 
 IMXD.m                5253.60:  Inc Max Depth 
 JARR.                      No:  Jarring 
 LETM.      20.30.00 08-Sep-20:  Log End Time 
 LOST.hr                     0:  Lost Rig Time 
 LSTM.      22.15.00 06-Sep-20:  Log Start Time 
 MDCL.ppm             36000.00:  Mud Chlorides 
 MDES.     Inversion Oil/Synthetic:  Mud Desc 
 DFD .sg                  1.44:  Mud Density 
 MDMN.sg                  1.44:  Dens Mud Min 
 MDMX.sg                  1.57:  Dens Mud Max 
 MOIL.                      70:  Run Mud Oil % 
 MOWR.                   70:30:  Run Mud OWR 
 MSND.                       0:  Run Mud Sand % 
 MSOL.                      21:  Run Mud Solids% 
 DFV .spqt               68.00:  Mud Viscosity 
 MWOD.in                  6.75:  MWD Tool OD 
 MWSI.                     Yes:  Serv Intrp, MWD 
 OTIM.hr                174.84:  Time Operating 
 PCON.           Look Like New:  Pad Condition 
 PMAX.psia            10616.93:  Press Op, Max 
 PV  .cP                 50.00:  Mud PV 
 RUN .                     700:  Run Number 
 ROPA.m/hr               14.24:  ROP Avg 
 ROPN.m/hr               10.00:  ROP Min 
 ROPX.m/hr               32.00:  ROP Max 
 RPMA.rpm               120.90:  RPM Surface Avg 
 RPMN.rpm               120.00:  RPM Surface Min 
 RPMX.rpm               140.00:  RPM Surface Max 
 RRUN.                    0700:  Rig Run Number 
 RTIM.hr                  3.20:  Time Reaming 
 SAZI.deg               109.99:  Azm, Start 
 SDEP.m                5231.01:  Start Depth 
 SIDD.                      No:  Serv Intrp, DD 
 SINC.deg                73.72:  Inc, Start 
 SPPA.psig             3051.00:  SPP Avg 
 SPPN.psig             2950.00:  SPP Min 
 SPPX.psig             3250.00:  SPP Max 
 STIM.      08.00.00 05-Sep-20:  Start Time 
 SVCS.                 DD, MWD:  Services 
 SVER.                    9.20:  Sperry Version 
 TDAT.m                 559.00:  Tot Depth Attmp 
 TDDF.                      No:  Trip for DD 
 TDLG.m                 559.00:  Tot Depth Loggd 
 TFF .                      No:  Trip for Fail 
 TQAA.f-kp               26.49:  Torque Abs Avg 
 TQAN.f-kp               25.00:  Torque Abs Min 
 TQAX.f-kp               27.00:  Torque Abs Max 
 TRRT.°/30m               1.50:  Turn Rotating 
 MRT .                    HCIM:  Maximum Recorded Temperature 
 TTMX.degC               90.20:  Max Tool Temp 
 VS01.                90542671:  Virtual Str1 SN 
 VS02.                90545185:  Virtual Str2 SN 
 VS03.                90602015:  Virtual Str3 SN 
 VS04.                90515230:  Virtual Str4 SN 
 WBMN.klb                 5.00:  WOB Min 
 WOBA.klb                14.79:  WOB Avg 
 WOBX.klb                20.00:  WOB Max 
 YP  .lhf2               29.00:  Yield Point 
~Curve Information Block
#MNEM.UNIT                 API CODE     Curve Description
#---------               -----------    ---------------------------
 TIME.HHMMSS            00 000 000 000:  GT Time & Date
 GTDEPTH.m              00 000 000 000:  GT Depth
 GTPQH.psia             00 000 000 000:  GT HR Quartz Pressure
 GTTQ.degC              00 000 000 000:  GT Quartz Temperature
 GTTN.NONE              00 000 000 000:  GT Test Number
 GTET.sec               00 000 000 000:  GT Elapsed Test Time
 GTTVD.m                00 000 000 000:  GT True Vertical Depth
#Other Information
#
#WARRANTY: Halliburton will use its best efforts to furnish customers with 
#accurate information and interpretations that are part of, and incident to, the services 
#provided.  However, Halliburton cannot and does not warrant the accuracy 
#or correctness of such information and interpretations.  Under no circumstances should any 
#such information or interpretation be relied upon as the sole basis for any drilling, 
#completion, production, or financial decision or any procedure involving any risk to the 
#safety of any drilling venture, drilling rig or its crew or any other third party.  The 
#Customer has full responsibility for all drilling, completion and production operation.  
#Halliburton makes no representations or warranties, either expressed or 
#implied, including, but not limited to, the implied warranties of merchantability or fitness 
#for a particular purpose, with respect to the services rendered.  In no event will 
#Halliburton be liable for failure to obtain any particular results or for 
#any damages, including, but not limited to, indirect, special or consequential damages, 
#resulting from the use of any information or interpretation provided by Halliburton.
#
~A           TIME           GTDEPTH  GTPQH  GTTQ  GTTN  GTET   GTTVD  
# ...
   05:41:36.069.09-Sep-2020 5634.01 3689.53 79.91 1.00 321.99 2660.75
   05:41:36.269.09-Sep-2020 5634.01 3689.53 79.91 1.00 322.19 2660.75
   05:41:36.469.09-Sep-2020 5634.01 3689.60 79.91 1.00 322.39 2660.75
   05:41:36.669.09-Sep-2020 5634.01 3689.55 79.91 1.00 322.59 2660.75
   05:41:36.869.09-Sep-2020 5634.01 3689.58 79.91 1.00 322.79 2660.75
   05:41:37.069.09-Sep-2020 5634.01 3689.61 79.91 1.00 322.99 2660.75
   05:41:37.269.09-Sep-2020 5634.01 3689.61 79.91 1.00 323.19 2660.75
   05:41:37.469.09-Sep-2020 5634.01 3689.57 79.91 1.00 323.39 2660.75
   05:41:37.669.09-Sep-2020 5634.01 3689.60 79.91 1.00 323.59 2660.75
   05:41:37.869.09-Sep-2020 5634.01 3689.59 79.91 1.00 323.79 2660.75
   05:41:38.069.09-Sep-2020 5634.01 3689.63 79.91 1.00 323.99 2660.75
   05:41:38.269.09-Sep-2020 5634.01 3689.63 79.91 1.00 324.19 2660.75
   05:41:38.469.09-Sep-2020 5634.01 3689.75 79.91 1.00 324.39 2660.75
   05:41:38.669.09-Sep-2020 5634.01 3689.41 79.91 1.00 324.59 2660.75
   05:41:38.869.09-Sep-2020 5634.01 3689.63 79.91 1.00 324.79 2660.75
   05:41:39.069.09-Sep-2020 5634.01 3689.57 79.91 1.00 324.99 2660.75
   05:41:39.269.09-Sep-2020 5634.01 3689.57 79.91 1.00 325.19 2660.75
   05:41:39.469.09-Sep-2020 5634.01 3689.61 79.91 1.00 325.39 2660.75
   05:41:39.669.09-Sep-2020 5634.01 3689.61 79.91 1.00 325.59 2660.75
   05:41:39.869.09-Sep-2020 5634.01 3689.56 79.91 1.00 325.79 2660.75
   05:41:40.069.09-Sep-2020 5634.01 3689.62 79.91 1.00 325.99 2660.75
   05:41:40.269.09-Sep-2020 5634.01 3689.62 79.91 1.00 326.19 2660.75
   05:41:40.469.09-Sep-2020 5634.01 3689.63 79.91 1.00 326.39 2660.75
   05:41:40.669.09-Sep-2020 5634.01 3689.58 79.91 1.00 326.59 2660.75
   05:41:40.869.09-Sep-2020 5634.01 3689.61 79.91 1.00 326.79 2660.75
   05:41:41.069.09-Sep-2020 5634.01 3689.61 79.91 1.00 326.99 2660.75
   05:41:41.269.09-Sep-2020 5634.01 3689.61 79.91 1.00 327.19 2660.75
   05:41:41.469.09-Sep-2020 5634.01 3689.59 79.91 1.00 327.39 2660.75
   05:41:41.669.09-Sep-2020 5634.01 3689.61 79.91 1.00 327.59 2660.75
   05:41:41.869.09-Sep-2020 5634.01 3689.60 79.91 1.00 327.79 2660.75
   05:41:42.069.09-Sep-2020 5634.01 3689.59 79.91 1.00 327.99 2660.75
   05:41:42.269.09-Sep-2020 5634.01 3689.59 79.91 1.00 328.19 2660.75
   05:41:42.469.09-Sep-2020 5634.01 3689.59 79.91 1.00 328.39 2660.75
   05:41:42.669.09-Sep-2020 5634.01 3689.60 79.91 1.00 328.59 2660.75
   05:41:42.869.09-Sep-2020 5634.01 3689.59 79.91 1.00 328.79 2660.75
   05:41:43.069.09-Sep-2020 5634.01 3689.61 79.91 1.00 328.99 2660.75
   05:41:43.269.09-Sep-2020 5634.01 3689.61 79.91 1.00 329.19 2660.75
   05:41:43.469.09-Sep-2020 5634.01 3689.70 79.91 1.00 329.39 2660.75
   05:41:43.669.09-Sep-2020 5634.01 3689.65 79.91 1.00 329.59 2660.75
   05:41:43.869.09-Sep-2020 5634.01 3689.56 79.91 1.00 329.79 2660.75
   05:41:44.069.09-Sep-2020 5634.01 3689.61 79.91 1.00 329.99 2660.75
   05:41:44.269.09-Sep-2020 5634.01 3689.58 79.91 1.00 330.19 2660.75
   05:41:44.469.09-Sep-2020 5634.01 3689.60 79.91 1.00 330.39 2660.75
   05:41:44.669.09-Sep-2020 5634.01 3689.60 79.91 1.00 330.59 2660.75
   05:41:44.869.09-Sep-2020 5634.01 3689.61 79.91 1.00 330.79 2660.75
   05:41:45.069.09-Sep-2020 5634.01 3689.59 79.91 1.00 330.99 2660.75
   05:41:45.269.09-Sep-2020 5634.01 3689.59 79.91 1.00 331.19 2660.75
   05:41:45.469.09-Sep-2020 5634.01 3689.58 79.91 1.00 331.39 2660.75
   05:41:45.669.09-Sep-2020 5634.01 3689.60 79.91 1.00 331.59 2660.75
   05:41:45.869.09-Sep-2020 5634.01 3689.59 79.91 1.00 331.79 2660.75
   05:41:46.069.09-Sep-2020 5634.01 3689.59 79.91 1.00 331.99 2660.75
   05:41:46.269.09-Sep-2020 5634.01 3689.59 79.91 1.00 332.19 2660.75
   05:41:46.469.09-Sep-2020 5634.01 3689.60 79.90 1.00 332.39 2660.75
   05:41:46.669.09-Sep-2020 5634.01 3689.75 79.91 1.00 332.59 2660.75
   05:41:46.869.09-Sep-2020 5634.01 3689.39 79.90 1.00 332.79 2660.75
   05:41:47.069.09-Sep-2020 5634.01 3689.62 79.91 1.00 332.99 2660.75
   05:41:47.269.09-Sep-2020 5634.01 3689.62 79.91 1.00 333.19 2660.75
   05:41:47.469.09-Sep-2020 5634.01 3689.61 79.90 1.00 333.39 2660.75
   05:41:47.669.09-Sep-2020 5634.01 3689.60 79.90 1.00 333.59 2660.75
   05:41:47.869.09-Sep-2020 5634.01 3689.62 79.90 1.00 333.79 2660.75
   05:41:48.069.09-Sep-2020 5634.01 3689.54 79.90 1.00 333.99 2660.75
   05:41:48.269.09-Sep-2020 5634.01 3689.54 79.90 1.00 334.19 2660.75
   05:41:48.469.09-Sep-2020 5634.01 3689.59 79.90 1.00 334.39 2660.75
   05:41:48.669.09-Sep-2020 5634.01 3689.63 79.90 1.00 334.59 2660.75
   05:41:48.869.09-Sep-2020 5634.01 3689.50 79.90 1.00 334.79 2660.75
   05:41:49.069.09-Sep-2020 5634.01 3689.66 79.90 1.00 334.99 2660.75
   05:41:49.269.09-Sep-2020 5634.01 3689.66 79.90 1.00 335.19 2660.75
   05:41:49.469.09-Sep-2020 5634.01 3689.58 79.90 1.00 335.39 2660.75
   05:41:49.669.09-Sep-2020 5634.01 3689.56 79.90 1.00 335.59 2660.75
   05:41:49.869.09-Sep-2020 5634.01 3689.63 79.90 1.00 335.79 2660.75
   05:41:50.069.09-Sep-2020 5634.01 3689.45 79.90 1.00 335.99 2660.75
   05:41:50.269.09-Sep-2020 5634.01 3689.45 79.90 1.00 336.19 2660.75
   05:41:50.469.09-Sep-2020 5634.01 3689.65 79.90 1.00 336.39 2660.75
   05:41:50.669.09-Sep-2020 5634.01 3689.55 79.90 1.00 336.59 2660.75
   05:41:50.869.09-Sep-2020 5634.01 3689.63 79.90 1.00 336.79 2660.75
   05:41:51.069.09-Sep-2020 5634.01 3689.58 79.90 1.00 336.99 2660.75
   05:41:51.269.09-Sep-2020 5634.01 3689.58 79.90 1.00 337.19 2660.75
   05:41:51.469.09-Sep-2020 5634.01 3689.68 79.90 1.00 337.39 2660.75
   05:41:51.669.09-Sep-2020 5634.01 3689.62 79.90 1.00 337.59 2660.75
   05:41:51.869.09-Sep-2020 5634.01 3689.57 79.90 1.00 337.79 2660.75
   05:41:52.069.09-Sep-2020 5634.01 3689.58 79.90 1.00 337.99 2660.75
   05:41:52.269.09-Sep-2020 5634.01 3689.58 79.90 1.00 338.19 2660.75
   05:41:52.469.09-Sep-2020 5634.01 3689.59 79.90 1.00 338.39 2660.75
   05:41:52.669.09-Sep-2020 5634.01 3689.61 79.90 1.00 338.59 2660.75
   05:41:52.869.09-Sep-2020 5634.01 3689.60 79.90 1.00 338.79 2660.75
   05:41:53.069.09-Sep-2020 5634.01 3689.61 79.90 1.00 338.99 2660.75
   05:41:53.269.09-Sep-2020 5634.01 3689.61 79.90 1.00 339.19 2660.75
   05:41:53.469.09-Sep-2020 5634.01 3689.60 79.90 1.00 339.39 2660.75
   05:41:53.669.09-Sep-2020 5634.01 3689.61 79.90 1.00 339.59 2660.75
   05:41:53.869.09-Sep-2020 5634.01 3689.60 79.90 1.00 339.79 2660.75
   05:41:54.069.09-Sep-2020 5634.01 3689.59 79.90 1.00 339.99 2660.75
   05:41:54.269.09-Sep-2020 5634.01 3689.59 79.90 1.00 340.19 2660.75
   05:41:54.469.09-Sep-2020 5634.01 3689.61 79.90 1.00 340.39 2660.75
   05:41:54.669.09-Sep-2020 5634.01 3689.60 79.90 1.00 340.59 2660.75
   05:41:54.869.09-Sep-2020 5634.01 3689.61 79.90 1.00 340.79 2660.75
   05:41:55.069.09-Sep-2020 5634.01 3689.75 79.90 1.00 340.99 2660.75
   05:41:55.269.09-Sep-2020 5634.01 3689.75 79.90 1.00 341.19 2660.75
   05:41:55.469.09-Sep-2020 5634.01 3689.62 79.90 1.00 341.39 2660.75
   05:41:55.669.09-Sep-2020 5634.01 3689.59 79.90 1.00 341.59 2660.75
   05:41:55.868.09-Sep-2020 5634.01 3689.61 79.90 1.00 341.79 2660.75
   05:41:56.068.09-Sep-2020 5634.01 3689.61 79.90 1.00 341.99 2660.75
   05:41:56.268.09-Sep-2020 5634.01 3689.61 79.90 1.00 342.19 2660.75
   05:41:56.468.09-Sep-2020 5634.01 3689.60 79.90 1.00 342.39 2660.75
   05:41:56.668.09-Sep-2020 5634.01 3689.61 79.90 1.00 342.59 2660.75
   05:41:56.868.09-Sep-2020 5634.01 3689.60 79.90 1.00 342.79 2660.75
   05:41:57.068.09-Sep-2020 5634.01 3689.59 79.90 1.00 342.99 2660.75
   05:41:57.268.09-Sep-2020 5634.01 3689.59 79.90 1.00 343.19 2660.75
   05:41:57.468.09-Sep-2020 5634.01 3689.59 79.90 1.00 343.39 2660.75
   05:41:57.668.09-Sep-2020 5634.01 3689.60 79.90 1.00 343.59 2660.75
   05:41:57.868.09-Sep-2020 5634.01 3689.60 79.90 1.00 343.79 2660.75
   05:41:58.068.09-Sep-2020 5634.01 3689.60 79.90 1.00 343.99 2660.75
   05:41:58.268.09-Sep-2020 5634.01 3689.60 79.90 1.00 344.19 2660.75
   05:41:58.468.09-Sep-2020 5634.01 3689.70 79.90 1.00 344.39 2660.75
   05:41:58.668.09-Sep-2020 5634.01 3689.65 79.90 1.00 344.59 2660.75
   05:41:58.868.09-Sep-2020 5634.01 3689.56 79.90 1.00 344.79 2660.75
