~Version Information
 VERS.                  2.0:   CWLS log ASCII Standard -VERSION 2.0
 WRAP.                   NO:   One line per depth step
~Well Information Block
#MNEM.UNIT     VALUE/NAME     DESCRIPTION
#---------     -----------    ---------------------------
 STRT.S             20:00:32 09-Sep-20: START TIME 20:00:32 09-Sep-20
 STOP.S             20:08:52 09-Sep-20: STOP TIME  20:08:52 09-Sep-20
 STEP.S                   0.00: STEP TIME
 NULL.                 -999.25: NULL VALUE
 MDS .        Operator Entered:  MAG DATA SOURCE
 PDAT.          Mean Sea Level:  PERMANENT DATUM
 DCON.         Sperry Drilling:  DIRECTNL CONTR
 RIG .              West Azeri:  RIG NAME
 WELL.           C40 (Slot 20):  WELL NAME
 SRVC.     Turan Drilling Engineering:  CONTRACTOR
 FLD .                     ACG:  FIELD NAME
 CTRY.              Azerbaijan:  COUNTRY NAME
 PROV.                    Baku:  PROVINCE
 STAT.                    Baku:  STATE NAME
 REGN.                   EESSA:  REGION
 BASE.              Azerbaijan:  LOGGING EQUIPMENT BASE LOCATION
 COMP.     BP Exploration (Caspian Sea) Ltd:  COMPANY
 WTYP.                Deviated:  WELL TYPE
 SON .        AZ-XX-0906344804:  JOB NUMBER
 FTOP.          Formation Tops:  FORM TOPS DESC
 ILTD.               Lithology:  INTERP LTH DESC
 SVYD.                  Survey:  SURVEY DESC
 DMOD.             Drill Model:  DRILL MOD DESC
 HPTY.       Minimum Curvature:  HOLE POS TYPE
 NREF.                    Grid:  NORTH REFERENCE
 SPUD.               01-Jan-20:  SPUD DATE
 DATE.      00.59.44 15-Sep-20:  END TIME
 STIM.      12.00.00 12-Jun-20:  START TIME
 DMF .             Drill Floor:  DRILL MEAS FROM
 DFST.                        :  DIST FSL TEXT
 DFWT.                        :  DIST FWL TEXT
 API .                        :  API NUMBER
 CNTY.                        :  COUNTY
 UWI .                        :  UNIQUE WELL IDENTIFIER
 LOC .                        :  LOCATION
 LMF .             Drill Floor:  LOG MEASURED FROM
 VSNS.m                   2.88:  VERT SEC N/S
 VSEW.m                  -3.84:  VERT SEC E/W
 AGAP.m                  43.42:  AIR GAP
 APD .m                  43.42:  DEPTH ABOVE PD
 WDMS.m                 118.27:  WD ELEV
 EGL .m                   0.00:  GROUND ELEVATION
 EPD .m                   0.00:  ELEVATION
 AZTC.deg                 6.23:  AZM TOTAL CORR
 GRDC.deg                 0.20:  GRID CORRECTION
 MDEC.deg                 6.43:  MAGNETIC DECL
 MDIP.deg                59.49:  MAGNETIC DIP
 MFLD.nT              50277.00:  MAGNETIC FIELD
 GVFD.g                   1.00:  GRAVITY FIELD
 VSDR.deg               173.20:  VERT SEC DIRECT
 TDD .m                5790.01:  TOTAL DEPTH (DRILLER)
 SDEP.m                5231.01:  START DEPTH
 DFSL.m                   0.00:  DISTANCE FSL
 DFWL.m                   0.00:  DISTANCE FWL
 UTMY.m             4435808.83:  UTM Y
 UTMX.m              526266.40:  UTM X
 WHEW.m                  -3.84:  WELL HEAD E/W
 WHNS.m                   2.88:  WELL HEAD N/S
 LONG.deg                51.31:  LONGITUDE
 LATI.deg                40.06:  LATITUDE
 TVDS.m                  43.42:  TVDSS CORRECTN
 DEP .m                 430.08:  DEPTH
 EKB .m                  43.42:  KB ELEVATION
 EDF .m                  43.42:  DF ELEVATION
 TDL .m                 559.00:  TOTAL DEPTH (LOGGER)
 MAGU.                 1849381:  MAGUTM CHECKSUM
 VSC .                       0:  VS TO CLOSURE
~Parameter Information Block
#MNEM.UNIT       Value        Description
#---------     -----------    ---------------------------
 AV  .mps                 4.87:  Ann Velocity 
 AVMX.mps                 7.08:  Max Ann Veloc 
 AZIF.deg               108.87:  Azm, Final 
 BHAT.                  Rotary:  BHA Type 
 BROT.°/30m               0.35:  Build Rotating 
 BS  .in                  8.50:  Bit Size 
 BSZ .in                  8.50:  Bit Size 
 BTPL.psig              360.00:  Bit Press Loss 
 CABU.                     Yes:  Customer Abuse 
 TCS .hr                106.24:  Time Ciculation Ended 
 CV  .mps                 1.77:  Crit Velocity 
 CVMX.mps                 2.03:  Max Crit Veloc 
 DD1 .         Aykhan Agagulov:  Direct Drillr 1 
 DD2 .            Nonso Okofor:  Direct Drillr 2 
 DDSV.               Geo-Pilot:  DD Service 
 DEFF.%                  98.00:  % Det Eff 
 DLRX.°/30m               0.50:  Dogleg Rot Max 
 DLSO.°/30m               0.40:  Dogleg Oriented 
 DLSX.°/30m               0.94:  Dogleg Str Max 
 DRET.      20.30.00 08-Sep-20:  Drill End Time 
 DRST.      22.15.00 06-Sep-20:  Drill Start Tim 
 DTIM.hr                 31.31:  Time Drilling 
 EDEP.m                5790.01:  End Depth 
 ENG1.           Amrah Tahirov:  Engineer 1 
 ENG2.         Dair Mahammadov:  Engineer 2 
 ENG3.           Emil Huseynov:  Engineer 3 
 ETIM.      04.01.04 12-Sep-20:  End Time 
 FLOI.gpm               450.00:  Flow In 
 FLON.gpm               450.00:  Flow In Min 
 FLOS.cptm                2.00:  Fluid Loss 
 FLOX.gpm               450.00:  Flow In Max 
 FTRO.       Formation Presure:  FTWD Run Obj 
 HFLO.                      No:  High Flow 
 HPRE.                      No:  High Pressure 
 HTEM.                      No:  High Temp 
 HYDO.m                   1.80:  Hydro Offset 
 IFIN.deg                72.03:  Inc, Final 
 IMAX.deg                73.72:  Inc Max 
 IMIN.deg                70.94:  Inc Min 
 IMND.m                5508.52:  Inc Min Depth 
 IMXD.m                5253.60:  Inc Max Depth 
 JARR.                      No:  Jarring 
 LETM.      20.30.00 08-Sep-20:  Log End Time 
 LOST.hr                     0:  Lost Rig Time 
 LSTM.      22.15.00 06-Sep-20:  Log Start Time 
 MDCL.ppm             36000.00:  Mud Chlorides 
 MDES.     Inversion Oil/Synthetic:  Mud Desc 
 DFD .sg                  1.44:  Mud Density 
 MDMN.sg                  1.44:  Dens Mud Min 
 MDMX.sg                  1.57:  Dens Mud Max 
 MOIL.                      70:  Run Mud Oil % 
 MOWR.                   70:30:  Run Mud OWR 
 MSND.                       0:  Run Mud Sand % 
 MSOL.                      21:  Run Mud Solids% 
 DFV .spqt               68.00:  Mud Viscosity 
 MWOD.in                  6.75:  MWD Tool OD 
 MWSI.                     Yes:  Serv Intrp, MWD 
 OTIM.hr                174.84:  Time Operating 
 PCON.           Look Like New:  Pad Condition 
 PMAX.psia            10616.93:  Press Op, Max 
 PV  .cP                 50.00:  Mud PV 
 RUN .                     700:  Run Number 
 ROPA.m/hr               14.24:  ROP Avg 
 ROPN.m/hr               10.00:  ROP Min 
 ROPX.m/hr               32.00:  ROP Max 
 RPMA.rpm               120.90:  RPM Surface Avg 
 RPMN.rpm               120.00:  RPM Surface Min 
 RPMX.rpm               140.00:  RPM Surface Max 
 RRUN.                    0700:  Rig Run Number 
 RTIM.hr                  3.20:  Time Reaming 
 SAZI.deg               109.99:  Azm, Start 
 SDEP.m                5231.01:  Start Depth 
 SIDD.                      No:  Serv Intrp, DD 
 SINC.deg                73.72:  Inc, Start 
 SPPA.psig             3051.00:  SPP Avg 
 SPPN.psig             2950.00:  SPP Min 
 SPPX.psig             3250.00:  SPP Max 
 STIM.      08.00.00 05-Sep-20:  Start Time 
 SVCS.                 DD, MWD:  Services 
 SVER.                    9.20:  Sperry Version 
 TDAT.m                 559.00:  Tot Depth Attmp 
 TDDF.                      No:  Trip for DD 
 TDLG.m                 559.00:  Tot Depth Loggd 
 TFF .                      No:  Trip for Fail 
 TQAA.f-kp               26.49:  Torque Abs Avg 
 TQAN.f-kp               25.00:  Torque Abs Min 
 TQAX.f-kp               27.00:  Torque Abs Max 
 TRRT.°/30m               1.50:  Turn Rotating 
 MRT .                    HCIM:  Maximum Recorded Temperature 
 TTMX.degC               90.20:  Max Tool Temp 
 VS01.                90542671:  Virtual Str1 SN 
 VS02.                90545185:  Virtual Str2 SN 
 VS03.                90602015:  Virtual Str3 SN 
 VS04.                90515230:  Virtual Str4 SN 
 WBMN.klb                 5.00:  WOB Min 
 WOBA.klb                14.79:  WOB Avg 
 WOBX.klb                20.00:  WOB Max 
 YP  .lhf2               29.00:  Yield Point 
~Curve Information Block
#MNEM.UNIT                 API CODE     Curve Description
#---------               -----------    ---------------------------
 TIME.HHMMSS            00 000 000 000:  GT Time & Date
 GTDEPTH.m              00 000 000 000:  GT Depth
 GTPQH.psia             00 000 000 000:  GT HR Quartz Pressure
 GTTQ.degC              00 000 000 000:  GT Quartz Temperature
 GTTN.NONE              00 000 000 000:  GT Test Number
 GTET.sec               00 000 000 000:  GT Elapsed Test Time
 GTTVD.m                00 000 000 000:  GT True Vertical Depth
#Other Information
#
#WARRANTY: Halliburton will use its best efforts to furnish customers with 
#accurate information and interpretations that are part of, and incident to, the services 
#provided.  However, Halliburton cannot and does not warrant the accuracy 
#or correctness of such information and interpretations.  Under no circumstances should any 
#such information or interpretation be relied upon as the sole basis for any drilling, 
#completion, production, or financial decision or any procedure involving any risk to the 
#safety of any drilling venture, drilling rig or its crew or any other third party.  The 
#Customer has full responsibility for all drilling, completion and production operation.  
#Halliburton makes no representations or warranties, either expressed or 
#implied, including, but not limited to, the implied warranties of merchantability or fitness 
#for a particular purpose, with respect to the services rendered.  In no event will 
#Halliburton be liable for failure to obtain any particular results or for 
#any damages, including, but not limited to, indirect, special or consequential damages, 
#resulting from the use of any information or interpretation provided by Halliburton.
#
~A           TIME           GTDEPTH  GTPQH  GTTQ  GTTN   GTET   GTTVD  
# ...
   20:02:47.732.09-Sep-2020 5259.51 4140.38 74.11 24.00 135.66 2544.41
   20:02:47.932.09-Sep-2020 5259.51 4140.52 74.11 24.00 135.86 2544.41
   20:02:48.132.09-Sep-2020 5259.51 4140.28 74.11 24.00 136.06 2544.41
   20:02:48.332.09-Sep-2020 5259.51 4140.28 74.11 24.00 136.26 2544.41
   20:02:48.532.09-Sep-2020 5259.51 4140.22 74.11 24.00 136.46 2544.41
   20:02:48.732.09-Sep-2020 5259.51 4140.21 74.11 24.00 136.66 2544.41
   20:02:48.932.09-Sep-2020 5259.51 4140.26 74.11 24.00 136.86 2544.41
   20:02:49.132.09-Sep-2020 5259.51 4140.24 74.11 24.00 137.06 2544.41
   20:02:49.333.09-Sep-2020 5259.51 4140.24 74.11 24.00 137.26 2544.41
   20:02:49.533.09-Sep-2020 5259.51 4140.16 74.11 24.00 137.46 2544.41
   20:02:49.733.09-Sep-2020 5259.51 4140.20 74.11 24.00 137.66 2544.41
   20:02:49.933.09-Sep-2020 5259.51 4140.26 74.11 24.00 137.86 2544.41
   20:02:50.133.09-Sep-2020 5259.51 4140.27 74.11 24.00 138.06 2544.41
   20:02:50.333.09-Sep-2020 5259.51 4140.27 74.11 24.00 138.26 2544.41
   20:02:50.533.09-Sep-2020 5259.51 4140.70 74.11 24.00 138.46 2544.41
   20:02:50.733.09-Sep-2020 5259.51 4140.61 74.11 24.00 138.66 2544.41
   20:02:50.933.09-Sep-2020 5259.51 4140.43 74.11 24.00 138.86 2544.41
   20:02:51.133.09-Sep-2020 5259.51 4140.36 74.11 24.00 139.06 2544.41
   20:02:51.333.09-Sep-2020 5259.51 4140.36 74.11 24.00 139.26 2544.41
   20:02:51.534.09-Sep-2020 5259.51 4139.00 74.11 24.00 139.46 2544.41
   20:02:51.734.09-Sep-2020 5259.51 4140.92 74.11 24.00 139.66 2544.41
   20:02:51.934.09-Sep-2020 5259.51 4140.28 74.11 24.00 139.86 2544.41
   20:02:52.134.09-Sep-2020 5259.51 4140.15 74.11 24.00 140.06 2544.41
   20:02:52.334.09-Sep-2020 5259.51 4140.15 74.11 24.00 140.26 2544.41
   20:02:52.534.09-Sep-2020 5259.51 4140.30 74.11 24.00 140.46 2544.41
   20:02:52.734.09-Sep-2020 5259.51 4139.73 74.11 24.00 140.66 2544.41
   20:02:52.934.09-Sep-2020 5259.51 4140.55 74.11 24.00 140.86 2544.41
   20:02:53.134.09-Sep-2020 5259.51 4140.38 74.11 24.00 141.07 2544.41
   20:02:53.334.09-Sep-2020 5259.51 4140.38 74.11 24.00 141.27 2544.41
   20:02:53.534.09-Sep-2020 5259.51 4139.19 74.11 24.00 141.47 2544.41
   20:02:53.735.09-Sep-2020 5259.51 4141.07 74.11 24.00 141.67 2544.41
   20:02:53.935.09-Sep-2020 5259.51 4140.45 74.11 24.00 141.87 2544.41
   20:02:54.135.09-Sep-2020 5259.51 4140.28 74.11 24.00 142.07 2544.41
   20:02:54.335.09-Sep-2020 5259.51 4140.28 74.11 24.00 142.27 2544.41
   20:02:54.535.09-Sep-2020 5259.51 4141.28 74.11 24.00 142.47 2544.41
   20:02:54.735.09-Sep-2020 5259.51 4140.42 74.11 24.00 142.67 2544.41
   20:02:54.935.09-Sep-2020 5259.51 4140.24 74.11 24.00 142.87 2544.41
   20:02:55.135.09-Sep-2020 5259.51 4140.14 74.11 24.00 143.07 2544.41
   20:02:55.335.09-Sep-2020 5259.51 4140.14 74.11 24.00 143.27 2544.41
   20:02:55.535.09-Sep-2020 5259.51 4140.29 74.11 24.00 143.47 2544.41
   20:02:55.735.09-Sep-2020 5259.51 4140.22 74.11 24.00 143.67 2544.41
   20:02:55.936.09-Sep-2020 5259.51 4140.20 74.11 24.00 143.87 2544.41
   20:02:56.136.09-Sep-2020 5259.51 4140.19 74.11 24.00 144.07 2544.41
   20:02:56.336.09-Sep-2020 5259.51 4140.19 74.11 24.00 144.27 2544.41
   20:02:56.536.09-Sep-2020 5259.51 4140.27 74.11 24.00 144.47 2544.41
   20:02:56.736.09-Sep-2020 5259.51 4140.23 74.11 24.00 144.67 2544.41
   20:02:56.936.09-Sep-2020 5259.51 4140.19 74.11 24.00 144.87 2544.41
   20:02:57.136.09-Sep-2020 5259.51 4140.23 74.11 24.00 145.07 2544.41
   20:02:57.336.09-Sep-2020 5259.51 4140.23 74.11 24.00 145.27 2544.41
   20:02:57.536.09-Sep-2020 5259.51 4140.28 74.11 24.00 145.47 2544.41
   20:02:57.736.09-Sep-2020 5259.51 4140.27 74.11 24.00 145.67 2544.41
   20:02:57.937.09-Sep-2020 5259.51 4139.12 74.11 24.00 145.87 2544.41
   20:02:58.137.09-Sep-2020 5259.51 4141.31 74.11 24.00 146.07 2544.41
   20:02:58.337.09-Sep-2020 5259.51 4141.31 74.11 24.00 146.27 2544.41
   20:02:58.537.09-Sep-2020 5259.51 4140.55 74.11 24.00 146.47 2544.41
   20:02:58.737.09-Sep-2020 5259.51 4140.38 74.11 24.00 146.67 2544.41
   20:02:58.937.09-Sep-2020 5259.51 4140.58 74.11 24.00 146.87 2544.41
   20:02:59.137.09-Sep-2020 5259.51 4140.33 74.11 24.00 147.07 2544.41
   20:02:59.337.09-Sep-2020 5259.51 4140.33 74.11 24.00 147.27 2544.41
   20:02:59.537.09-Sep-2020 5259.51 4140.26 74.11 24.00 147.47 2544.41
   20:02:59.737.09-Sep-2020 5259.51 4140.27 74.11 24.00 147.67 2544.41
   20:02:59.937.09-Sep-2020 5259.51 4140.28 74.11 24.00 147.87 2544.41
   20:03:00.138.09-Sep-2020 5259.51 4140.21 74.11 24.00 148.07 2544.41
   20:03:00.338.09-Sep-2020 5259.51 4140.21 74.11 24.00 148.27 2544.41
   20:03:00.538.09-Sep-2020 5259.51 4140.21 74.11 24.00 148.47 2544.41
   20:03:00.738.09-Sep-2020 5259.51 4140.24 74.11 24.00 148.67 2544.41
   20:03:00.938.09-Sep-2020 5259.51 4140.30 74.11 24.00 148.87 2544.41
   20:03:01.138.09-Sep-2020 5259.51 4140.29 74.11 24.00 149.07 2544.41
   20:03:01.338.09-Sep-2020 5259.51 4140.29 74.11 24.00 149.27 2544.41
   20:03:01.538.09-Sep-2020 5259.51 4141.12 74.11 24.00 149.47 2544.41
   20:03:01.738.09-Sep-2020 5259.51 4140.59 74.11 24.00 149.67 2544.41
   20:03:01.938.09-Sep-2020 5259.51 4140.44 74.11 24.00 149.87 2544.41
   20:03:02.138.09-Sep-2020 5259.51 4140.28 74.11 24.00 150.07 2544.41
   20:03:02.339.09-Sep-2020 5259.51 4140.28 74.11 24.00 150.27 2544.41
   20:03:02.539.09-Sep-2020 5259.51 4139.50 74.11 24.00 150.47 2544.41
   20:03:02.739.09-Sep-2020 5259.51 4140.47 74.11 24.00 150.67 2544.41
   20:03:02.939.09-Sep-2020 5259.51 4140.29 74.11 24.00 150.87 2544.41
   20:03:03.139.09-Sep-2020 5259.51 4140.16 74.11 24.00 151.07 2544.41
   20:03:03.339.09-Sep-2020 5259.51 4140.16 74.11 24.00 151.27 2544.41
   20:03:03.539.09-Sep-2020 5259.51 4139.44 74.11 24.00 151.47 2544.41
   20:03:03.739.09-Sep-2020 5259.51 4140.64 74.11 24.00 151.67 2544.41
   20:03:03.939.09-Sep-2020 5259.51 4140.53 74.11 24.00 151.87 2544.41
   20:03:04.139.09-Sep-2020 5259.51 4140.36 74.11 24.00 152.07 2544.41
   20:03:04.339.09-Sep-2020 5259.51 4140.36 74.11 24.00 152.27 2544.41
   20:03:04.540.09-Sep-2020 5259.51 4139.72 74.11 24.00 152.47 2544.41
   20:03:04.740.09-Sep-2020 5259.51 4140.65 74.11 24.00 152.67 2544.41
   20:03:04.940.09-Sep-2020 5259.51 4140.40 74.11 24.00 152.87 2544.41
   20:03:05.140.09-Sep-2020 5259.51 4140.23 74.11 24.00 153.07 2544.41
   20:03:05.340.09-Sep-2020 5259.51 4140.23 74.11 24.00 153.27 2544.41
   20:03:05.540.09-Sep-2020 5259.51 4140.74 74.11 24.00 153.47 2544.41
   20:03:05.740.09-Sep-2020 5259.51 4140.43 74.11 24.00 153.67 2544.41
   20:03:05.940.09-Sep-2020 5259.51 4140.22 74.11 24.00 153.87 2544.41
   20:03:06.140.09-Sep-2020 5259.51 4140.31 74.11 24.00 154.07 2544.41
   20:03:06.340.09-Sep-2020 5259.51 4140.31 74.11 24.00 154.27 2544.41
   20:03:06.540.09-Sep-2020 5259.51 4140.28 74.11 24.00 154.47 2544.41
   20:03:06.741.09-Sep-2020 5259.51 4140.23 74.11 24.00 154.67 2544.41
   20:03:06.941.09-Sep-2020 5259.51 4140.22 74.11 24.00 154.87 2544.41
   20:03:07.141.09-Sep-2020 5259.51 4140.20 74.11 24.00 155.07 2544.41
   20:03:07.341.09-Sep-2020 5259.51 4140.20 74.11 24.00 155.27 2544.41
   20:03:07.541.09-Sep-2020 5259.51 4140.30 74.11 24.00 155.47 2544.41
   20:03:07.741.09-Sep-2020 5259.51 4140.21 74.11 24.00 155.67 2544.41
   20:03:07.941.09-Sep-2020 5259.51 4140.19 74.11 24.00 155.87 2544.41
   20:03:08.141.09-Sep-2020 5259.51 4140.21 74.11 24.00 156.07 2544.41
   20:03:08.341.09-Sep-2020 5259.51 4140.21 74.11 24.00 156.27 2544.41
   20:03:08.541.09-Sep-2020 5259.51 4140.28 74.11 24.00 156.47 2544.41
   20:03:08.741.09-Sep-2020 5259.51 4140.29 74.11 24.00 156.67 2544.41
   20:03:08.942.09-Sep-2020 5259.51 4139.58 74.11 24.00 156.87 2544.41
   20:03:09.142.09-Sep-2020 5259.51 4140.85 74.11 24.00 157.07 2544.41
   20:03:09.342.09-Sep-2020 5259.51 4140.85 74.11 24.00 157.27 2544.41
   20:03:09.542.09-Sep-2020 5259.51 4140.50 74.11 24.00 157.47 2544.41
   20:03:09.742.09-Sep-2020 5259.51 4140.53 74.11 24.00 157.67 2544.41
   20:03:09.942.09-Sep-2020 5259.51 4140.48 74.11 24.00 157.87 2544.41
   20:03:10.142.09-Sep-2020 5259.51 4140.34 74.11 24.00 158.07 2544.41
