~Version Information
 VERS.                  2.0:   CWLS log ASCII Standard -VERSION 2.0
 WRAP.                   NO:   One line per depth step
~Well Information Block
#MNEM.UNIT     VALUE/NAME     DESCRIPTION
#---------     -----------    ---------------------------
 STRT.S             20:00:32 09-Sep-20: START TIME 20:00:32 09-Sep-20
 STOP.S             20:08:52 09-Sep-20: STOP TIME  20:08:52 09-Sep-20
 STEP.S                   0.00: STEP TIME
 NULL.                 -999.25: NULL VALUE
 MDS .        Operator Entered:  MAG DATA SOURCE
 PDAT.          Mean Sea Level:  PERMANENT DATUM
 DCON.         Sperry Drilling:  DIRECTNL CONTR
 RIG .              West Azeri:  RIG NAME
 WELL.           C40 (Slot 20):  WELL NAME
 SRVC.     Turan Drilling Engineering:  CONTRACTOR
 FLD .                     ACG:  FIELD NAME
 CTRY.              Azerbaijan:  COUNTRY NAME
 PROV.                    Baku:  PROVINCE
 STAT.                    Baku:  STATE NAME
 REGN.                   EESSA:  REGION
 BASE.              Azerbaijan:  LOGGING EQUIPMENT BASE LOCATION
 COMP.     BP Exploration (Caspian Sea) Ltd:  COMPANY
 WTYP.                Deviated:  WELL TYPE
 SON .        AZ-XX-0906344804:  JOB NUMBER
 FTOP.          Formation Tops:  FORM TOPS DESC
 ILTD.               Lithology:  INTERP LTH DESC
 SVYD.                  Survey:  SURVEY DESC
 DMOD.             Drill Model:  DRILL MOD DESC
 HPTY.       Minimum Curvature:  HOLE POS TYPE
 NREF.                    Grid:  NORTH REFERENCE
 SPUD.               01-Jan-20:  SPUD DATE
 DATE.      00.59.44 15-Sep-20:  END TIME
 STIM.      12.00.00 12-Jun-20:  START TIME
 DMF .             Drill Floor:  DRILL MEAS FROM
 DFST.                        :  DIST FSL TEXT
 DFWT.                        :  DIST FWL TEXT
 API .                        :  API NUMBER
 CNTY.                        :  COUNTY
 UWI .                        :  UNIQUE WELL IDENTIFIER
 LOC .                        :  LOCATION
 LMF .             Drill Floor:  LOG MEASURED FROM
 VSNS.m                   2.88:  VERT SEC N/S
 VSEW.m                  -3.84:  VERT SEC E/W
 AGAP.m                  43.42:  AIR GAP
 APD .m                  43.42:  DEPTH ABOVE PD
 WDMS.m                 118.27:  WD ELEV
 EGL .m                   0.00:  GROUND ELEVATION
 EPD .m                   0.00:  ELEVATION
 AZTC.deg                 6.23:  AZM TOTAL CORR
 GRDC.deg                 0.20:  GRID CORRECTION
 MDEC.deg                 6.43:  MAGNETIC DECL
 MDIP.deg                59.49:  MAGNETIC DIP
 MFLD.nT              50277.00:  MAGNETIC FIELD
 GVFD.g                   1.00:  GRAVITY FIELD
 VSDR.deg               173.20:  VERT SEC DIRECT
 TDD .m                5790.01:  TOTAL DEPTH (DRILLER)
 SDEP.m                5231.01:  START DEPTH
 DFSL.m                   0.00:  DISTANCE FSL
 DFWL.m                   0.00:  DISTANCE FWL
 UTMY.m             4435808.83:  UTM Y
 UTMX.m              526266.40:  UTM X
 WHEW.m                  -3.84:  WELL HEAD E/W
 WHNS.m                   2.88:  WELL HEAD N/S
 LONG.deg                51.31:  LONGITUDE
 LATI.deg                40.06:  LATITUDE
 TVDS.m                  43.42:  TVDSS CORRECTN
 DEP .m                 430.08:  DEPTH
 EKB .m                  43.42:  KB ELEVATION
 EDF .m                  43.42:  DF ELEVATION
 TDL .m                 559.00:  TOTAL DEPTH (LOGGER)
 MAGU.                 1849381:  MAGUTM CHECKSUM
 VSC .                       0:  VS TO CLOSURE
~Parameter Information Block
#MNEM.UNIT       Value        Description
#---------     -----------    ---------------------------
 AV  .mps                 4.87:  Ann Velocity 
 AVMX.mps                 7.08:  Max Ann Veloc 
 AZIF.deg               108.87:  Azm, Final 
 BHAT.                  Rotary:  BHA Type 
 BROT.°/30m               0.35:  Build Rotating 
 BS  .in                  8.50:  Bit Size 
 BSZ .in                  8.50:  Bit Size 
 BTPL.psig              360.00:  Bit Press Loss 
 CABU.                     Yes:  Customer Abuse 
 TCS .hr                106.24:  Time Ciculation Ended 
 CV  .mps                 1.77:  Crit Velocity 
 CVMX.mps                 2.03:  Max Crit Veloc 
 DD1 .         Aykhan Agagulov:  Direct Drillr 1 
 DD2 .            Nonso Okofor:  Direct Drillr 2 
 DDSV.               Geo-Pilot:  DD Service 
 DEFF.%                  98.00:  % Det Eff 
 DLRX.°/30m               0.50:  Dogleg Rot Max 
 DLSO.°/30m               0.40:  Dogleg Oriented 
 DLSX.°/30m               0.94:  Dogleg Str Max 
 DRET.      20.30.00 08-Sep-20:  Drill End Time 
 DRST.      22.15.00 06-Sep-20:  Drill Start Tim 
 DTIM.hr                 31.31:  Time Drilling 
 EDEP.m                5790.01:  End Depth 
 ENG1.           Amrah Tahirov:  Engineer 1 
 ENG2.         Dair Mahammadov:  Engineer 2 
 ENG3.           Emil Huseynov:  Engineer 3 
 ETIM.      04.01.04 12-Sep-20:  End Time 
 FLOI.gpm               450.00:  Flow In 
 FLON.gpm               450.00:  Flow In Min 
 FLOS.cptm                2.00:  Fluid Loss 
 FLOX.gpm               450.00:  Flow In Max 
 FTRO.       Formation Presure:  FTWD Run Obj 
 HFLO.                      No:  High Flow 
 HPRE.                      No:  High Pressure 
 HTEM.                      No:  High Temp 
 HYDO.m                   1.80:  Hydro Offset 
 IFIN.deg                72.03:  Inc, Final 
 IMAX.deg                73.72:  Inc Max 
 IMIN.deg                70.94:  Inc Min 
 IMND.m                5508.52:  Inc Min Depth 
 IMXD.m                5253.60:  Inc Max Depth 
 JARR.                      No:  Jarring 
 LETM.      20.30.00 08-Sep-20:  Log End Time 
 LOST.hr                     0:  Lost Rig Time 
 LSTM.      22.15.00 06-Sep-20:  Log Start Time 
 MDCL.ppm             36000.00:  Mud Chlorides 
 MDES.     Inversion Oil/Synthetic:  Mud Desc 
 DFD .sg                  1.44:  Mud Density 
 MDMN.sg                  1.44:  Dens Mud Min 
 MDMX.sg                  1.57:  Dens Mud Max 
 MOIL.                      70:  Run Mud Oil % 
 MOWR.                   70:30:  Run Mud OWR 
 MSND.                       0:  Run Mud Sand % 
 MSOL.                      21:  Run Mud Solids% 
 DFV .spqt               68.00:  Mud Viscosity 
 MWOD.in                  6.75:  MWD Tool OD 
 MWSI.                     Yes:  Serv Intrp, MWD 
 OTIM.hr                174.84:  Time Operating 
 PCON.           Look Like New:  Pad Condition 
 PMAX.psia            10616.93:  Press Op, Max 
 PV  .cP                 50.00:  Mud PV 
 RUN .                     700:  Run Number 
 ROPA.m/hr               14.24:  ROP Avg 
 ROPN.m/hr               10.00:  ROP Min 
 ROPX.m/hr               32.00:  ROP Max 
 RPMA.rpm               120.90:  RPM Surface Avg 
 RPMN.rpm               120.00:  RPM Surface Min 
 RPMX.rpm               140.00:  RPM Surface Max 
 RRUN.                    0700:  Rig Run Number 
 RTIM.hr                  3.20:  Time Reaming 
 SAZI.deg               109.99:  Azm, Start 
 SDEP.m                5231.01:  Start Depth 
 SIDD.                      No:  Serv Intrp, DD 
 SINC.deg                73.72:  Inc, Start 
 SPPA.psig             3051.00:  SPP Avg 
 SPPN.psig             2950.00:  SPP Min 
 SPPX.psig             3250.00:  SPP Max 
 STIM.      08.00.00 05-Sep-20:  Start Time 
 SVCS.                 DD, MWD:  Services 
 SVER.                    9.20:  Sperry Version 
 TDAT.m                 559.00:  Tot Depth Attmp 
 TDDF.                      No:  Trip for DD 
 TDLG.m                 559.00:  Tot Depth Loggd 
 TFF .                      No:  Trip for Fail 
 TQAA.f-kp               26.49:  Torque Abs Avg 
 TQAN.f-kp               25.00:  Torque Abs Min 
 TQAX.f-kp               27.00:  Torque Abs Max 
 TRRT.°/30m               1.50:  Turn Rotating 
 MRT .                    HCIM:  Maximum Recorded Temperature 
 TTMX.degC               90.20:  Max Tool Temp 
 VS01.                90542671:  Virtual Str1 SN 
 VS02.                90545185:  Virtual Str2 SN 
 VS03.                90602015:  Virtual Str3 SN 
 VS04.                90515230:  Virtual Str4 SN 
 WBMN.klb                 5.00:  WOB Min 
 WOBA.klb                14.79:  WOB Avg 
 WOBX.klb                20.00:  WOB Max 
 YP  .lhf2               29.00:  Yield Point 
~Curve Information Block
#MNEM.UNIT                 API CODE     Curve Description
#---------               -----------    ---------------------------
 TIME.HHMMSS            00 000 000 000:  GT Time & Date
 GTDEPTH.m              00 000 000 000:  GT Depth
 GTPQH.psia             00 000 000 000:  GT HR Quartz Pressure
 GTTQ.degC              00 000 000 000:  GT Quartz Temperature
 GTTN.NONE              00 000 000 000:  GT Test Number
 GTET.sec               00 000 000 000:  GT Elapsed Test Time
 GTTVD.m                00 000 000 000:  GT True Vertical Depth
#Other Information
#
#WARRANTY: Halliburton will use its best efforts to furnish customers with 
#accurate information and interpretations that are part of, and incident to, the services 
#provided.  However, Halliburton cannot and does not warrant the accuracy 
#or correctness of such information and interpretations.  Under no circumstances should any 
#such information or interpretation be relied upon as the sole basis for any drilling, 
#completion, production, or financial decision or any procedure involving any risk to the 
#safety of any drilling venture, drilling rig or its crew or any other third party.  The 
#Customer has full responsibility for all drilling, completion and production operation.  
#Halliburton makes no representations or warranties, either expressed or 
#implied, including, but not limited to, the implied warranties of merchantability or fitness 
#for a particular purpose, with respect to the services rendered.  In no event will 
#Halliburton be liable for failure to obtain any particular results or for 
#any damages, including, but not limited to, indirect, special or consequential damages, 
#resulting from the use of any information or interpretation provided by Halliburton.
#
~A           TIME           GTDEPTH  GTPQH  GTTQ  GTTN   GTET   GTTVD  
   20:00:32.069.09-Sep-2020 5259.51 6155.84 74.20 24.00   0.00 2544.41
   20:00:32.269.09-Sep-2020 5259.51 6155.84 74.20 24.00   0.20 2544.41
   20:00:32.469.09-Sep-2020 5259.51 6155.84 74.20 24.00   0.40 2544.41
   20:00:32.670.09-Sep-2020 5259.51 6146.67 74.20 24.00   0.60 2544.41
   20:00:32.870.09-Sep-2020 5259.51 6147.95 74.20 24.00   0.80 2544.41
   20:00:33.070.09-Sep-2020 5259.51 6153.92 74.20 24.00   1.00 2544.41
   20:00:33.270.09-Sep-2020 5259.51 6153.92 74.20 24.00   1.20 2544.41
   20:00:33.470.09-Sep-2020 5259.51 6148.99 74.20 24.00   1.40 2544.41
   20:00:33.670.09-Sep-2020 5259.51 6149.69 74.20 24.00   1.60 2544.41
   20:00:33.870.09-Sep-2020 5259.51 6150.05 74.20 24.00   1.80 2544.41
   20:00:34.070.09-Sep-2020 5259.51 6157.71 74.20 24.00   2.00 2544.41
   20:00:34.270.09-Sep-2020 5259.51 6157.71 74.20 24.00   2.20 2544.41
   20:00:34.470.09-Sep-2020 5259.51 6152.44 74.20 24.00   2.40 2544.41
   20:00:34.670.09-Sep-2020 5259.51 6152.45 74.20 24.00   2.60 2544.41
   20:00:34.871.09-Sep-2020 5259.51 6152.18 74.20 24.00   2.80 2544.41
   20:00:35.071.09-Sep-2020 5259.51 6153.66 74.20 24.00   3.00 2544.41
   20:00:35.271.09-Sep-2020 5259.51 6152.93 74.20 24.00   3.20 2544.41
   20:00:35.471.09-Sep-2020 5259.51 6153.83 74.20 24.00   3.40 2544.41
   20:00:35.671.09-Sep-2020 5259.51 6158.75 74.20 24.00   3.60 2544.41
   20:00:35.871.09-Sep-2020 5259.51 6151.02 74.20 24.00   3.80 2544.41
   20:00:36.071.09-Sep-2020 5259.51 6152.92 74.20 24.00   4.00 2544.41
   20:00:36.271.09-Sep-2020 5259.51 6152.24 74.20 24.00   4.20 2544.41
   20:00:36.471.09-Sep-2020 5259.51 6152.69 74.20 24.00   4.40 2544.41
   20:00:36.671.09-Sep-2020 5259.51 6150.85 74.20 24.00   4.60 2544.41
   20:00:36.871.09-Sep-2020 5259.51 6152.74 74.20 24.00   4.80 2544.41
   20:00:37.072.09-Sep-2020 5259.51 6162.00 74.20 24.00   5.00 2544.41
   20:00:37.272.09-Sep-2020 5259.51 6146.07 74.20 24.00   5.20 2544.41
   20:00:37.472.09-Sep-2020 5259.51 6152.67 74.20 24.00   5.40 2544.41
   20:00:37.672.09-Sep-2020 5259.51 6153.20 74.20 24.00   5.60 2544.41
   20:00:37.872.09-Sep-2020 5259.51 6152.59 74.20 24.00   5.80 2544.41
   20:00:38.072.09-Sep-2020 5259.51 6153.71 74.20 24.00   6.00 2544.41
   20:00:38.272.09-Sep-2020 5259.51 6153.71 74.19 24.00   6.20 2544.41
   20:00:38.472.09-Sep-2020 5259.51 6154.54 74.19 24.00   6.40 2544.41
   20:00:38.672.09-Sep-2020 5259.51 6155.14 74.19 24.00   6.60 2544.41
   20:00:38.872.09-Sep-2020 5259.51 6156.06 74.19 24.00   6.80 2544.41
   20:00:39.073.09-Sep-2020 5259.51 6157.07 74.19 24.00   7.00 2544.41
   20:00:39.273.09-Sep-2020 5259.51 6157.07 74.19 24.00   7.20 2544.41
   20:00:39.473.09-Sep-2020 5259.51 6158.33 74.19 24.00   7.40 2544.41
   20:00:39.673.09-Sep-2020 5259.51 6159.15 74.19 24.00   7.60 2544.41
   20:00:39.873.09-Sep-2020 5259.51 6159.98 74.19 24.00   7.80 2544.41
   20:00:40.073.09-Sep-2020 5259.51 6160.09 74.19 24.00   8.00 2544.41
   20:00:40.273.09-Sep-2020 5259.51 6160.09 74.19 24.00   8.20 2544.41
   20:00:40.473.09-Sep-2020 5259.51 6160.87 74.19 24.00   8.40 2544.41
   20:00:40.673.09-Sep-2020 5259.51 6162.36 74.19 24.00   8.60 2544.41
   20:00:40.873.09-Sep-2020 5259.51 6168.07 74.19 24.00   8.80 2544.41
   20:00:41.073.09-Sep-2020 5259.51 6159.91 74.19 24.00   9.00 2544.41
   20:00:41.274.09-Sep-2020 5259.51 6159.91 74.19 24.00   9.20 2544.41
   20:00:41.474.09-Sep-2020 5259.51 6161.91 74.19 24.00   9.40 2544.41
   20:00:41.674.09-Sep-2020 5259.51 6163.44 74.19 24.00   9.60 2544.41
   20:00:41.874.09-Sep-2020 5259.51 6162.54 74.19 24.00   9.80 2544.41
   20:00:42.074.09-Sep-2020 5259.51 6163.77 74.19 24.00  10.00 2544.41
   20:00:42.274.09-Sep-2020 5259.51 6163.77 74.19 24.00  10.20 2544.41
   20:00:42.474.09-Sep-2020 5259.51 6163.62 74.19 24.00  10.40 2544.41
   20:00:42.674.09-Sep-2020 5259.51 6164.38 74.19 24.00  10.60 2544.41
   20:00:42.874.09-Sep-2020 5259.51 6165.24 74.19 24.00  10.80 2544.41
   20:00:43.074.09-Sep-2020 5259.51 6165.16 74.19 24.00  11.01 2544.41
   20:00:43.274.09-Sep-2020 5259.51 6165.16 74.19 24.00  11.21 2544.41
   20:00:43.475.09-Sep-2020 5259.51 6165.45 74.19 24.00  11.41 2544.41
   20:00:43.675.09-Sep-2020 5259.51 6165.93 74.19 24.00  11.61 2544.41
   20:00:43.875.09-Sep-2020 5259.51 6166.76 74.19 24.00  11.81 2544.41
   20:00:44.075.09-Sep-2020 5259.51 6166.83 74.19 24.00  12.01 2544.41
   20:00:44.275.09-Sep-2020 5259.51 6166.83 74.19 24.00  12.21 2544.41
   20:00:44.475.09-Sep-2020 5259.51 6174.11 74.19 24.00  12.41 2544.41
   20:00:44.675.09-Sep-2020 5259.51 6165.77 74.19 24.00  12.61 2544.41
   20:00:44.875.09-Sep-2020 5259.51 6167.95 74.19 24.00  12.81 2544.41
   20:00:45.075.09-Sep-2020 5259.51 6168.37 74.19 24.00  13.01 2544.41
   20:00:45.275.09-Sep-2020 5259.51 6168.37 74.19 24.00  13.21 2544.41
   20:00:45.475.09-Sep-2020 5259.51 6168.53 74.19 24.00  13.41 2544.41
   20:00:45.676.09-Sep-2020 5259.51 6179.96 74.19 24.00  13.61 2544.41
   20:00:45.876.09-Sep-2020 5259.51 6164.88 74.19 24.00  13.81 2544.41
   20:00:46.076.09-Sep-2020 5259.51 6170.28 74.19 24.00  14.01 2544.41
   20:00:46.276.09-Sep-2020 5259.51 6170.28 74.19 24.00  14.21 2544.41
   20:00:46.476.09-Sep-2020 5259.51 6171.02 74.19 24.00  14.41 2544.41
   20:00:46.676.09-Sep-2020 5259.51 6170.92 74.19 24.00  14.61 2544.41
   20:00:46.876.09-Sep-2020 5259.51 6183.80 74.19 24.00  14.81 2544.41
   20:00:47.076.09-Sep-2020 5259.51 6165.61 74.19 24.00  15.01 2544.41
   20:00:47.276.09-Sep-2020 5259.51 6165.61 74.19 24.00  15.21 2544.41
   20:00:47.476.09-Sep-2020 5259.51 6171.95 74.19 24.00  15.41 2544.41
   20:00:47.676.09-Sep-2020 5259.51 6171.62 74.19 24.00  15.61 2544.41
   20:00:47.877.09-Sep-2020 5259.51 6172.90 74.19 24.00  15.81 2544.41
   20:00:48.077.09-Sep-2020 5259.51 6185.22 74.19 24.00  16.01 2544.41
   20:00:48.277.09-Sep-2020 5259.51 6185.22 74.19 24.00  16.21 2544.41
   20:00:48.477.09-Sep-2020 5259.51 6174.88 74.19 24.00  16.41 2544.41
   20:00:48.677.09-Sep-2020 5259.51 6174.99 74.19 24.00  16.61 2544.41
   20:00:48.877.09-Sep-2020 5259.51 6180.74 74.19 24.00  16.81 2544.41
   20:00:49.077.09-Sep-2020 5259.51 6176.40 74.19 24.00  17.01 2544.41
   20:00:49.277.09-Sep-2020 5259.51 6176.40 74.19 24.00  17.21 2544.41
   20:00:49.477.09-Sep-2020 5259.51 6176.60 74.19 24.00  17.41 2544.41
   20:00:49.677.09-Sep-2020 5259.51 6176.55 74.19 24.00  17.61 2544.41
   20:00:49.877.09-Sep-2020 5259.51 6178.35 74.19 24.00  17.81 2544.41
   20:00:50.078.09-Sep-2020 5259.51 6184.76 74.19 24.00  18.01 2544.41
   20:00:50.278.09-Sep-2020 5259.51 6184.76 74.19 24.00  18.21 2544.41
   20:00:50.478.09-Sep-2020 5259.51 6179.60 74.19 24.00  18.41 2544.41
   20:00:50.678.09-Sep-2020 5259.51 6179.90 74.19 24.00  18.61 2544.41
   20:00:50.878.09-Sep-2020 5259.51 6179.35 74.19 24.00  18.81 2544.41
   20:00:51.078.09-Sep-2020 5259.51 6180.88 74.19 24.00  19.01 2544.41
   20:00:51.278.09-Sep-2020 5259.51 6180.88 74.19 24.00  19.21 2544.41
   20:00:51.478.09-Sep-2020 5259.51 6181.42 74.19 24.00  19.41 2544.41
   20:00:51.678.09-Sep-2020 5259.51 6181.82 74.19 24.00  19.61 2544.41
   20:00:51.878.09-Sep-2020 5259.51 6182.55 74.19 24.00  19.81 2544.41
   20:00:52.079.09-Sep-2020 5259.51 6183.28 74.19 24.00  20.01 2544.41
   20:00:52.279.09-Sep-2020 5259.51 6183.28 74.19 24.00  20.21 2544.41
   20:00:52.479.09-Sep-2020 5259.51 6183.93 74.19 24.00  20.41 2544.41
   20:00:52.679.09-Sep-2020 5259.51 6184.30 74.19 24.00  20.61 2544.41
   20:00:52.879.09-Sep-2020 5259.51 6184.76 74.19 24.00  20.81 2544.41
   20:00:53.079.09-Sep-2020 5259.51 6185.15 74.19 24.00  21.01 2544.41
   20:00:53.279.09-Sep-2020 5259.51 6185.15 74.19 24.00  21.21 2544.41
   20:00:53.479.09-Sep-2020 5259.51 6185.82 74.19 24.00  21.41 2544.41
   20:00:53.679.09-Sep-2020 5259.51 6185.97 74.19 24.00  21.61 2544.41
   20:00:53.879.09-Sep-2020 5259.51 6196.74 74.19 24.00  21.81 2544.41
   20:00:54.079.09-Sep-2020 5259.51 6182.33 74.19 24.00  22.01 2544.41
   20:00:54.280.09-Sep-2020 5259.51 6182.33 74.19 24.00  22.21 2544.41
   20:00:54.480.09-Sep-2020 5259.51 6186.32 74.19 24.00  22.41 2544.41
