~Version Information
 VERS.                  2.0:   CWLS log ASCII Standard -VERSION 2.0
 WRAP.                   NO:   One line per depth step
~Well Information Block
#MNEM.UNIT     VALUE/NAME     DESCRIPTION
#---------     -----------    ---------------------------
 STRT.S             05:36:14 09-Sep-20: START TIME 05:36:14 09-Sep-20
 STOP.S             05:43:10 09-Sep-20: STOP TIME  05:43:10 09-Sep-20
 STEP.S                   0.00: STEP TIME
 NULL.                 -999.25: NULL VALUE
 MDS .        Operator Entered:  MAG DATA SOURCE
 PDAT.          Mean Sea Level:  PERMANENT DATUM
 DCON.         Sperry Drilling:  DIRECTNL CONTR
 RIG .              West Azeri:  RIG NAME
 WELL.           C40 (Slot 20):  WELL NAME
 SRVC.     Turan Drilling Engineering:  CONTRACTOR
 FLD .                     ACG:  FIELD NAME
 CTRY.              Azerbaijan:  COUNTRY NAME
 PROV.                    Baku:  PROVINCE
 STAT.                    Baku:  STATE NAME
 REGN.                   EESSA:  REGION
 BASE.              Azerbaijan:  LOGGING EQUIPMENT BASE LOCATION
 COMP.     BP Exploration (Caspian Sea) Ltd:  COMPANY
 WTYP.                Deviated:  WELL TYPE
 SON .        AZ-XX-0906344804:  JOB NUMBER
 FTOP.          Formation Tops:  FORM TOPS DESC
 ILTD.               Lithology:  INTERP LTH DESC
 SVYD.                  Survey:  SURVEY DESC
 DMOD.             Drill Model:  DRILL MOD DESC
 HPTY.       Minimum Curvature:  HOLE POS TYPE
 NREF.                    Grid:  NORTH REFERENCE
 SPUD.               01-Jan-20:  SPUD DATE
 DATE.      00.59.44 15-Sep-20:  END TIME
 STIM.      12.00.00 12-Jun-20:  START TIME
 DMF .             Drill Floor:  DRILL MEAS FROM
 DFST.                        :  DIST FSL TEXT
 DFWT.                        :  DIST FWL TEXT
 API .                        :  API NUMBER
 CNTY.                        :  COUNTY
 UWI .                        :  UNIQUE WELL IDENTIFIER
 LOC .                        :  LOCATION
 LMF .             Drill Floor:  LOG MEASURED FROM
 VSNS.m                   2.88:  VERT SEC N/S
 VSEW.m                  -3.84:  VERT SEC E/W
 AGAP.m                  43.42:  AIR GAP
 APD .m                  43.42:  DEPTH ABOVE PD
 WDMS.m                 118.27:  WD ELEV
 EGL .m                   0.00:  GROUND ELEVATION
 EPD .m                   0.00:  ELEVATION
 AZTC.deg                 6.23:  AZM TOTAL CORR
 GRDC.deg                 0.20:  GRID CORRECTION
 MDEC.deg                 6.43:  MAGNETIC DECL
 MDIP.deg                59.49:  MAGNETIC DIP
 MFLD.nT              50277.00:  MAGNETIC FIELD
 GVFD.g                   1.00:  GRAVITY FIELD
 VSDR.deg               173.20:  VERT SEC DIRECT
 TDD .m                5790.01:  TOTAL DEPTH (DRILLER)
 SDEP.m                5231.01:  START DEPTH
 DFSL.m                   0.00:  DISTANCE FSL
 DFWL.m                   0.00:  DISTANCE FWL
 UTMY.m             4435808.83:  UTM Y
 UTMX.m              526266.40:  UTM X
 WHEW.m                  -3.84:  WELL HEAD E/W
 WHNS.m                   2.88:  WELL HEAD N/S
 LONG.deg                51.31:  LONGITUDE
 LATI.deg                40.06:  LATITUDE
 TVDS.m                  43.42:  TVDSS CORRECTN
 DEP .m                 430.08:  DEPTH
 EKB .m                  43.42:  KB ELEVATION
 EDF .m                  43.42:  DF ELEVATION
 TDL .m                 559.00:  TOTAL DEPTH (LOGGER)
 MAGU.                 1849381:  MAGUTM CHECKSUM
 VSC .                       0:  VS TO CLOSURE
~Parameter Information Block
#MNEM.UNIT       Value        Description
#---------     -----------    ---------------------------
 AV  .mps                 4.87:  Ann Velocity 
 AVMX.mps                 7.08:  Max Ann Veloc 
 AZIF.deg               108.87:  Azm, Final 
 BHAT.                  Rotary:  BHA Type 
 BROT.°/30m               0.35:  Build Rotating 
 BS  .in                  8.50:  Bit Size 
 BSZ .in                  8.50:  Bit Size 
 BTPL.psig              360.00:  Bit Press Loss 
 CABU.                     Yes:  Customer Abuse 
 COMM.                     ”£|:  Run Comments 1 
 TCS .hr                106.24:  Time Ciculation Ended 
 CV  .mps                 1.77:  Crit Velocity 
 CVMX.mps                 2.03:  Max Crit Veloc 
 DD1 .         Aykhan Agagulov:  Direct Drillr 1 
 DD2 .            Nonso Okofor:  Direct Drillr 2 
 DDSV.               Geo-Pilot:  DD Service 
 DEFF.%                  98.00:  % Det Eff 
 DLRX.°/30m               0.50:  Dogleg Rot Max 
 DLSO.°/30m               0.40:  Dogleg Oriented 
 DLSX.°/30m               0.94:  Dogleg Str Max 
 DRET.      20.30.00 08-Sep-20:  Drill End Time 
 DRST.      22.15.00 06-Sep-20:  Drill Start Tim 
 DTIM.hr                 31.31:  Time Drilling 
 EDEP.m                5790.01:  End Depth 
 ENG1.           Amrah Tahirov:  Engineer 1 
 ENG2.         Dair Mahammadov:  Engineer 2 
 ENG3.           Emil Huseynov:  Engineer 3 
 ETIM.      04.01.04 12-Sep-20:  End Time 
 FLOI.gpm               450.00:  Flow In 
 FLON.gpm               450.00:  Flow In Min 
 FLOS.cptm                2.00:  Fluid Loss 
 FLOX.gpm               450.00:  Flow In Max 
 FTRO.       Formation Presure:  FTWD Run Obj 
 HFLO.                      No:  High Flow 
 HPRE.                      No:  High Pressure 
 HTEM.                      No:  High Temp 
 HYDO.m                   1.80:  Hydro Offset 
 IFIN.deg                72.03:  Inc, Final 
 IMAX.deg                73.72:  Inc Max 
 IMIN.deg                70.94:  Inc Min 
 IMND.m                5508.52:  Inc Min Depth 
 IMXD.m                5253.60:  Inc Max Depth 
 JARR.                      No:  Jarring 
 LETM.      20.30.00 08-Sep-20:  Log End Time 
 LOST.hr                     0:  Lost Rig Time 
 LSTM.      22.15.00 06-Sep-20:  Log Start Time 
 MDCL.ppm             36000.00:  Mud Chlorides 
 MDES.     Inversion Oil/Synthetic:  Mud Desc 
 DFD .sg                  1.44:  Mud Density 
 MDMN.sg                  1.44:  Dens Mud Min 
 MDMX.sg                  1.57:  Dens Mud Max 
 MOIL.                      70:  Run Mud Oil % 
 MOWR.                   70:30:  Run Mud OWR 
 MSND.                       0:  Run Mud Sand % 
 MSOL.                      21:  Run Mud Solids% 
 DFV .spqt               68.00:  Mud Viscosity 
 MWOD.in                  6.75:  MWD Tool OD 
 MWSI.                     Yes:  Serv Intrp, MWD 
 OTIM.hr                174.84:  Time Operating 
 PCON.           Look Like New:  Pad Condition 
 PMAX.psia            10616.93:  Press Op, Max 
 PV  .cP                 50.00:  Mud PV 
 RUN .                     700:  Run Number 
 ROPA.m/hr               14.24:  ROP Avg 
 ROPN.m/hr               10.00:  ROP Min 
 ROPX.m/hr               32.00:  ROP Max 
 RPMA.rpm               120.90:  RPM Surface Avg 
 RPMN.rpm               120.00:  RPM Surface Min 
 RPMX.rpm               140.00:  RPM Surface Max 
 RRUN.                    0700:  Rig Run Number 
 RTIM.hr                  3.20:  Time Reaming 
 SAZI.deg               109.99:  Azm, Start 
 SDEP.m                5231.01:  Start Depth 
 SIDD.                      No:  Serv Intrp, DD 
 SINC.deg                73.72:  Inc, Start 
 SPPA.psig             3051.00:  SPP Avg 
 SPPN.psig             2950.00:  SPP Min 
 SPPX.psig             3250.00:  SPP Max 
 STIM.      08.00.00 05-Sep-20:  Start Time 
 SVCS.                 DD, MWD:  Services 
 SVER.                    9.20:  Sperry Version 
 TDAT.m                 559.00:  Tot Depth Attmp 
 TDDF.                      No:  Trip for DD 
 TDLG.m                 559.00:  Tot Depth Loggd 
 TFF .                      No:  Trip for Fail 
 TQAA.f-kp               26.49:  Torque Abs Avg 
 TQAN.f-kp               25.00:  Torque Abs Min 
 TQAX.f-kp               27.00:  Torque Abs Max 
 TRRT.°/30m               1.50:  Turn Rotating 
 MRT .                    HCIM:  Maximum Recorded Temperature 
 TTMX.degC               90.20:  Max Tool Temp 
 VS01.                90542671:  Virtual Str1 SN 
 VS02.                90545185:  Virtual Str2 SN 
 VS03.                90602015:  Virtual Str3 SN 
 VS04.                90515230:  Virtual Str4 SN 
 WBMN.klb                 5.00:  WOB Min 
 WOBA.klb                14.79:  WOB Avg 
 WOBX.klb                20.00:  WOB Max 
 YP  .lhf2               29.00:  Yield Point 
~Curve Information Block
#MNEM.UNIT                 API CODE     Curve Description
#---------               -----------    ---------------------------
 TIME.HHMMSS            00 000 000 000:  GT Time & Date
 GTDEPTH.m              00 000 000 000:  GT Depth
 GTPQH.psia             00 000 000 000:  GT HR Quartz Pressure
 GTTQ.degC              00 000 000 000:  GT Quartz Temperature
 GTTN.NONE              00 000 000 000:  GT Test Number
 GTET.sec               00 000 000 000:  GT Elapsed Test Time
 GTTVD.m                00 000 000 000:  GT True Vertical Depth
#Other Information
#
#WARRANTY: Halliburton will use its best efforts to furnish customers with 
#accurate information and interpretations that are part of, and incident to, the services 
#provided.  However, Halliburton cannot and does not warrant the accuracy 
#or correctness of such information and interpretations.  Under no circumstances should any 
#such information or interpretation be relied upon as the sole basis for any drilling, 
#completion, production, or financial decision or any procedure involving any risk to the 
#safety of any drilling venture, drilling rig or its crew or any other third party.  The 
#Customer has full responsibility for all drilling, completion and production operation.  
#Halliburton makes no representations or warranties, either expressed or 
#implied, including, but not limited to, the implied warranties of merchantability or fitness 
#for a particular purpose, with respect to the services rendered.  In no event will 
#Halliburton be liable for failure to obtain any particular results or for 
#any damages, including, but not limited to, indirect, special or consequential damages, 
#resulting from the use of any information or interpretation provided by Halliburton.
#
~A           TIME           GTDEPTH  GTPQH  GTTQ  GTTN  GTET   GTTVD  
# ...
   05:37:23.080.09-Sep-2020 5634.01 3689.14 79.96 1.00  69.00 2660.75
   05:37:23.280.09-Sep-2020 5634.01 3689.14 79.96 1.00  69.20 2660.75
   05:37:23.480.09-Sep-2020 5634.01 3688.98 79.96 1.00  69.40 2660.75
   05:37:23.680.09-Sep-2020 5634.01 3688.97 79.96 1.00  69.60 2660.75
   05:37:23.880.09-Sep-2020 5634.01 3688.98 79.96 1.00  69.80 2660.75
   05:37:24.080.09-Sep-2020 5634.01 3688.99 79.96 1.00  70.00 2660.75
   05:37:24.280.09-Sep-2020 5634.01 3688.98 79.96 1.00  70.20 2660.75
   05:37:24.480.09-Sep-2020 5634.01 3689.01 79.96 1.00  70.40 2660.75
   05:37:24.680.09-Sep-2020 5634.01 3689.00 79.96 1.00  70.60 2660.75
   05:37:24.880.09-Sep-2020 5634.01 3689.01 79.96 1.00  70.80 2660.75
   05:37:25.080.09-Sep-2020 5634.01 3689.02 79.96 1.00  71.00 2660.75
   05:37:25.280.09-Sep-2020 5634.01 3689.02 79.96 1.00  71.20 2660.75
   05:37:25.480.09-Sep-2020 5634.01 3689.04 79.96 1.00  71.40 2660.75
   05:37:25.680.09-Sep-2020 5634.01 3689.02 79.96 1.00  71.60 2660.75
   05:37:25.880.09-Sep-2020 5634.01 3689.04 79.96 1.00  71.80 2660.75
   05:37:26.080.09-Sep-2020 5634.01 3689.04 79.96 1.00  72.00 2660.75
   05:37:26.280.09-Sep-2020 5634.01 3689.04 79.96 1.00  72.20 2660.75
   05:37:26.480.09-Sep-2020 5634.01 3689.05 79.96 1.00  72.40 2660.75
   05:37:26.680.09-Sep-2020 5634.01 3689.05 79.96 1.00  72.60 2660.75
   05:37:26.880.09-Sep-2020 5634.01 3689.19 79.96 1.00  72.80 2660.75
   05:37:27.080.09-Sep-2020 5634.01 3688.94 79.96 1.00  73.00 2660.75
   05:37:27.280.09-Sep-2020 5634.01 3689.08 79.96 1.00  73.20 2660.75
   05:37:27.480.09-Sep-2020 5634.01 3689.05 79.96 1.00  73.40 2660.75
   05:37:27.680.09-Sep-2020 5634.01 3689.10 79.96 1.00  73.60 2660.75
   05:37:27.880.09-Sep-2020 5634.01 3689.04 79.96 1.00  73.80 2660.75
   05:37:28.080.09-Sep-2020 5634.01 3689.07 79.96 1.00  74.00 2660.75
   05:37:28.280.09-Sep-2020 5634.01 3689.07 79.96 1.00  74.20 2660.75
   05:37:28.480.09-Sep-2020 5634.01 3689.09 79.96 1.00  74.40 2660.75
   05:37:28.680.09-Sep-2020 5634.01 3689.09 79.96 1.00  74.60 2660.75
   05:37:28.880.09-Sep-2020 5634.01 3689.08 79.96 1.00  74.80 2660.75
   05:37:29.080.09-Sep-2020 5634.01 3689.09 79.96 1.00  75.00 2660.75
   05:37:29.280.09-Sep-2020 5634.01 3689.09 79.96 1.00  75.20 2660.75
   05:37:29.480.09-Sep-2020 5634.01 3689.09 79.96 1.00  75.40 2660.75
   05:37:29.680.09-Sep-2020 5634.01 3689.10 79.96 1.00  75.60 2660.75
   05:37:29.880.09-Sep-2020 5634.01 3689.11 79.96 1.00  75.80 2660.75
   05:37:30.080.09-Sep-2020 5634.01 3688.98 79.96 1.00  76.00 2660.75
   05:37:30.280.09-Sep-2020 5634.01 3689.24 79.96 1.00  76.20 2660.75
   05:37:30.480.09-Sep-2020 5634.01 3689.11 79.96 1.00  76.40 2660.75
   05:37:30.680.09-Sep-2020 5634.01 3689.08 79.96 1.00  76.60 2660.75
   05:37:30.880.09-Sep-2020 5634.01 3689.08 79.96 1.00  76.80 2660.75
   05:37:31.080.09-Sep-2020 5634.01 3689.14 79.96 1.00  77.00 2660.75
   05:37:31.280.09-Sep-2020 5634.01 3689.14 79.96 1.00  77.20 2660.75
   05:37:31.480.09-Sep-2020 5634.01 3688.92 79.96 1.00  77.40 2660.75
   05:37:31.680.09-Sep-2020 5634.01 3689.13 79.96 1.00  77.60 2660.75
   05:37:31.880.09-Sep-2020 5634.01 3689.11 79.96 1.00  77.80 2660.75
   05:37:32.080.09-Sep-2020 5634.01 3689.13 79.96 1.00  78.00 2660.75
   05:37:32.280.09-Sep-2020 5634.01 3689.13 79.96 1.00  78.20 2660.75
   05:37:32.480.09-Sep-2020 5634.01 3689.23 79.96 1.00  78.40 2660.75
   05:37:32.680.09-Sep-2020 5634.01 3689.20 79.96 1.00  78.60 2660.75
   05:37:32.880.09-Sep-2020 5634.01 3689.11 79.96 1.00  78.80 2660.75
   05:37:33.080.09-Sep-2020 5634.01 3689.15 79.96 1.00  79.00 2660.75
   05:37:33.280.09-Sep-2020 5634.01 3689.15 79.96 1.00  79.20 2660.75
   05:37:33.480.09-Sep-2020 5634.01 3688.98 79.96 1.00  79.40 2660.75
   05:37:33.680.09-Sep-2020 5634.01 3689.28 79.96 1.00  79.60 2660.75
   05:37:33.880.09-Sep-2020 5634.01 3689.23 79.96 1.00  79.80 2660.75
   05:37:34.080.09-Sep-2020 5634.01 3689.12 79.96 1.00  80.00 2660.75
   05:37:34.280.09-Sep-2020 5634.01 3689.18 79.96 1.00  80.20 2660.75
   05:37:34.480.09-Sep-2020 5634.01 3689.15 79.96 1.00  80.40 2660.75
   05:37:34.680.09-Sep-2020 5634.01 3689.27 79.96 1.00  80.60 2660.75
   05:37:34.880.09-Sep-2020 5634.01 3689.06 79.96 1.00  80.80 2660.75
   05:37:35.080.09-Sep-2020 5634.01 3689.20 79.96 1.00  81.00 2660.75
   05:37:35.280.09-Sep-2020 5634.01 3689.20 79.96 1.00  81.20 2660.75
   05:37:35.480.09-Sep-2020 5634.01 3689.21 79.96 1.00  81.40 2660.75
   05:37:35.680.09-Sep-2020 5634.01 3689.14 79.96 1.00  81.60 2660.75
   05:37:35.880.09-Sep-2020 5634.01 3689.18 79.96 1.00  81.80 2660.75
   05:37:36.080.09-Sep-2020 5634.01 3689.19 79.96 1.00  82.00 2660.75
   05:37:36.279.09-Sep-2020 5634.01 3689.19 79.96 1.00  82.20 2660.75
   05:37:36.479.09-Sep-2020 5634.01 3689.18 79.96 1.00  82.40 2660.75
   05:37:36.679.09-Sep-2020 5634.01 3689.20 79.96 1.00  82.60 2660.75
   05:37:36.879.09-Sep-2020 5634.01 3689.21 79.96 1.00  82.80 2660.75
   05:37:37.079.09-Sep-2020 5634.01 3689.21 79.96 1.00  83.00 2660.75
   05:37:37.279.09-Sep-2020 5634.01 3689.21 79.96 1.00  83.20 2660.75
   05:37:37.479.09-Sep-2020 5634.01 3689.20 79.96 1.00  83.40 2660.75
   05:37:37.679.09-Sep-2020 5634.01 3689.21 79.96 1.00  83.60 2660.75
   05:37:37.879.09-Sep-2020 5634.01 3689.21 79.96 1.00  83.80 2660.75
   05:37:38.079.09-Sep-2020 5634.01 3689.22 79.96 1.00  84.00 2660.75
   05:37:38.279.09-Sep-2020 5634.01 3689.06 79.96 1.00  84.20 2660.75
   05:37:38.479.09-Sep-2020 5634.01 3689.35 79.96 1.00  84.40 2660.75
   05:37:38.679.09-Sep-2020 5634.01 3689.29 79.96 1.00  84.60 2660.75
   05:37:38.879.09-Sep-2020 5634.01 3689.18 79.96 1.00  84.80 2660.75
   05:37:39.079.09-Sep-2020 5634.01 3689.24 79.96 1.00  85.00 2660.75
   05:37:39.279.09-Sep-2020 5634.01 3689.24 79.96 1.00  85.20 2660.75
   05:37:39.479.09-Sep-2020 5634.01 3689.21 79.96 1.00  85.40 2660.75
   05:37:39.679.09-Sep-2020 5634.01 3689.23 79.96 1.00  85.60 2660.75
   05:37:39.879.09-Sep-2020 5634.01 3689.23 79.96 1.00  85.80 2660.75
   05:37:40.079.09-Sep-2020 5634.01 3689.22 79.96 1.00  86.00 2660.75
   05:37:40.279.09-Sep-2020 5634.01 3689.22 79.96 1.00  86.20 2660.75
   05:37:40.479.09-Sep-2020 5634.01 3689.23 79.96 1.00  86.40 2660.75
   05:37:40.679.09-Sep-2020 5634.01 3689.24 79.96 1.00  86.60 2660.75
   05:37:40.879.09-Sep-2020 5634.01 3689.23 79.96 1.00  86.80 2660.75
   05:37:41.079.09-Sep-2020 5634.01 3689.24 79.96 1.00  87.00 2660.75
   05:37:41.279.09-Sep-2020 5634.01 3689.24 79.96 1.00  87.20 2660.75
   05:37:41.479.09-Sep-2020 5634.01 3689.24 79.96 1.00  87.40 2660.75
   05:37:41.679.09-Sep-2020 5634.01 3689.45 79.96 1.00  87.60 2660.75
   05:37:41.879.09-Sep-2020 5634.01 3689.02 79.96 1.00  87.80 2660.75
   05:37:42.079.09-Sep-2020 5634.01 3689.25 79.96 1.00  88.00 2660.75
   05:37:42.279.09-Sep-2020 5634.01 3689.23 79.96 1.00  88.20 2660.75
   05:37:42.479.09-Sep-2020 5634.01 3689.22 79.96 1.00  88.40 2660.75
   05:37:42.679.09-Sep-2020 5634.01 3689.25 79.96 1.00  88.60 2660.75
   05:37:42.879.09-Sep-2020 5634.01 3689.35 79.96 1.00  88.80 2660.75
   05:37:43.079.09-Sep-2020 5634.01 3689.11 79.96 1.00  89.00 2660.75
   05:37:43.279.09-Sep-2020 5634.01 3689.11 79.96 1.00  89.20 2660.75
   05:37:43.479.09-Sep-2020 5634.01 3689.24 79.96 1.00  89.40 2660.75
   05:37:43.679.09-Sep-2020 5634.01 3689.28 79.96 1.00  89.60 2660.75
   05:37:43.879.09-Sep-2020 5634.01 3689.08 79.96 1.00  89.80 2660.75
   05:37:44.079.09-Sep-2020 5634.01 3689.39 79.96 1.00  90.00 2660.75
   05:37:44.279.09-Sep-2020 5634.01 3689.39 79.96 1.00  90.20 2660.75
   05:37:44.479.09-Sep-2020 5634.01 3689.22 79.96 1.00  90.40 2660.75
   05:37:44.679.09-Sep-2020 5634.01 3689.21 79.96 1.00  90.60 2660.75
   05:37:44.879.09-Sep-2020 5634.01 3689.28 79.96 1.00  90.80 2660.75
   05:37:45.079.09-Sep-2020 5634.01 3689.09 79.96 1.00  91.00 2660.75
   05:37:45.279.09-Sep-2020 5634.01 3689.09 79.96 1.00  91.20 2660.75
   05:37:45.479.09-Sep-2020 5634.01 3689.33 79.96 1.00  91.40 2660.75
   05:37:45.679.09-Sep-2020 5634.01 3689.23 79.96 1.00  91.60 2660.75
   05:37:45.879.09-Sep-2020 5634.01 3689.28 79.96 1.00  91.80 2660.75
