~Version Information
 VERS.                  2.0:   CWLS log ASCII Standard -VERSION 2.0
 WRAP.                   NO:   One line per depth step
~Well Information Block
#MNEM.UNIT     VALUE/NAME     DESCRIPTION
#---------     -----------    ---------------------------
 STRT.S             10:55:02 09-Sep-20: START TIME 10:55:02 09-Sep-20
 STOP.S             11:02:04 09-Sep-20: STOP TIME  11:02:04 09-Sep-20
 STEP.S                   0.00: STEP TIME
 NULL.                 -999.25: NULL VALUE
 MDS .        Operator Entered:  MAG DATA SOURCE
 PDAT.          Mean Sea Level:  PERMANENT DATUM
 DCON.         Sperry Drilling:  DIRECTNL CONTR
 RIG .              West Azeri:  RIG NAME
 WELL.           C40 (Slot 20):  WELL NAME
 SRVC.     Turan Drilling Engineering:  CONTRACTOR
 FLD .                     ACG:  FIELD NAME
 CTRY.              Azerbaijan:  COUNTRY NAME
 PROV.                    Baku:  PROVINCE
 STAT.                    Baku:  STATE NAME
 REGN.                   EESSA:  REGION
 BASE.              Azerbaijan:  LOGGING EQUIPMENT BASE LOCATION
 COMP.     BP Exploration (Caspian Sea) Ltd:  COMPANY
 WTYP.                Deviated:  WELL TYPE
 SON .        AZ-XX-0906344804:  JOB NUMBER
 FTOP.          Formation Tops:  FORM TOPS DESC
 ILTD.               Lithology:  INTERP LTH DESC
 SVYD.                  Survey:  SURVEY DESC
 DMOD.             Drill Model:  DRILL MOD DESC
 HPTY.       Minimum Curvature:  HOLE POS TYPE
 NREF.                    Grid:  NORTH REFERENCE
 SPUD.               01-Jan-20:  SPUD DATE
 DATE.      00.59.44 15-Sep-20:  END TIME
 STIM.      12.00.00 12-Jun-20:  START TIME
 DMF .             Drill Floor:  DRILL MEAS FROM
 DFST.                        :  DIST FSL TEXT
 DFWT.                        :  DIST FWL TEXT
 API .                        :  API NUMBER
 CNTY.                        :  COUNTY
 UWI .                        :  UNIQUE WELL IDENTIFIER
 LOC .                        :  LOCATION
 LMF .             Drill Floor:  LOG MEASURED FROM
 VSNS.m                   2.88:  VERT SEC N/S
 VSEW.m                  -3.84:  VERT SEC E/W
 AGAP.m                  43.42:  AIR GAP
 APD .m                  43.42:  DEPTH ABOVE PD
 WDMS.m                 118.27:  WD ELEV
 EGL .m                   0.00:  GROUND ELEVATION
 EPD .m                   0.00:  ELEVATION
 AZTC.deg                 6.23:  AZM TOTAL CORR
 GRDC.deg                 0.20:  GRID CORRECTION
 MDEC.deg                 6.43:  MAGNETIC DECL
 MDIP.deg                59.49:  MAGNETIC DIP
 MFLD.nT              50277.00:  MAGNETIC FIELD
 GVFD.g                   1.00:  GRAVITY FIELD
 VSDR.deg               173.20:  VERT SEC DIRECT
 TDD .m                5790.01:  TOTAL DEPTH (DRILLER)
 SDEP.m                5231.01:  START DEPTH
 DFSL.m                   0.00:  DISTANCE FSL
 DFWL.m                   0.00:  DISTANCE FWL
 UTMY.m             4435808.83:  UTM Y
 UTMX.m              526266.40:  UTM X
 WHEW.m                  -3.84:  WELL HEAD E/W
 WHNS.m                   2.88:  WELL HEAD N/S
 LONG.deg                51.31:  LONGITUDE
 LATI.deg                40.06:  LATITUDE
 TVDS.m                  43.42:  TVDSS CORRECTN
 DEP .m                 430.08:  DEPTH
 EKB .m                  43.42:  KB ELEVATION
 EDF .m                  43.42:  DF ELEVATION
 TDL .m                 559.00:  TOTAL DEPTH (LOGGER)
 MAGU.                 1849381:  MAGUTM CHECKSUM
 VSC .                       0:  VS TO CLOSURE
~Parameter Information Block
#MNEM.UNIT       Value        Description
#---------     -----------    ---------------------------
 AV  .mps                 4.87:  Ann Velocity 
 AVMX.mps                 7.08:  Max Ann Veloc 
 AZIF.deg               108.87:  Azm, Final 
 BHAT.                  Rotary:  BHA Type 
 BROT.°/30m               0.35:  Build Rotating 
 BS  .in                  8.50:  Bit Size 
 BSZ .in                  8.50:  Bit Size 
 BTPL.psig              360.00:  Bit Press Loss 
 CABU.                     Yes:  Customer Abuse 
 COMM.                     ¬Î:  Run Comments 1 
 TCS .hr                106.24:  Time Ciculation Ended 
 CV  .mps                 1.77:  Crit Velocity 
 CVMX.mps                 2.03:  Max Crit Veloc 
 DD1 .         Aykhan Agagulov:  Direct Drillr 1 
 DD2 .            Nonso Okofor:  Direct Drillr 2 
 DDSV.               Geo-Pilot:  DD Service 
 DEFF.%                  98.00:  % Det Eff 
 DLRX.°/30m               0.50:  Dogleg Rot Max 
 DLSO.°/30m               0.40:  Dogleg Oriented 
 DLSX.°/30m               0.94:  Dogleg Str Max 
 DRET.      20.30.00 08-Sep-20:  Drill End Time 
 DRST.      22.15.00 06-Sep-20:  Drill Start Tim 
 DTIM.hr                 31.31:  Time Drilling 
 EDEP.m                5790.01:  End Depth 
 ENG1.           Amrah Tahirov:  Engineer 1 
 ENG2.         Dair Mahammadov:  Engineer 2 
 ENG3.           Emil Huseynov:  Engineer 3 
 ETIM.      04.01.04 12-Sep-20:  End Time 
 FLOI.gpm               450.00:  Flow In 
 FLON.gpm               450.00:  Flow In Min 
 FLOS.cptm                2.00:  Fluid Loss 
 FLOX.gpm               450.00:  Flow In Max 
 FTRO.       Formation Presure:  FTWD Run Obj 
 HFLO.                      No:  High Flow 
 HPRE.                      No:  High Pressure 
 HTEM.                      No:  High Temp 
 HYDO.m                   1.80:  Hydro Offset 
 IFIN.deg                72.03:  Inc, Final 
 IMAX.deg                73.72:  Inc Max 
 IMIN.deg                70.94:  Inc Min 
 IMND.m                5508.52:  Inc Min Depth 
 IMXD.m                5253.60:  Inc Max Depth 
 JARR.                      No:  Jarring 
 LETM.      20.30.00 08-Sep-20:  Log End Time 
 LOST.hr                     0:  Lost Rig Time 
 LSTM.      22.15.00 06-Sep-20:  Log Start Time 
 MDCL.ppm             36000.00:  Mud Chlorides 
 MDES.     Inversion Oil/Synthetic:  Mud Desc 
 DFD .sg                  1.44:  Mud Density 
 MDMN.sg                  1.44:  Dens Mud Min 
 MDMX.sg                  1.57:  Dens Mud Max 
 MOIL.                      70:  Run Mud Oil % 
 MOWR.                   70:30:  Run Mud OWR 
 MSND.                       0:  Run Mud Sand % 
 MSOL.                      21:  Run Mud Solids% 
 DFV .spqt               68.00:  Mud Viscosity 
 MWOD.in                  6.75:  MWD Tool OD 
 MWSI.                     Yes:  Serv Intrp, MWD 
 OTIM.hr                174.84:  Time Operating 
 PCON.           Look Like New:  Pad Condition 
 PMAX.psia            10616.93:  Press Op, Max 
 PV  .cP                 50.00:  Mud PV 
 RUN .                     700:  Run Number 
 ROPA.m/hr               14.24:  ROP Avg 
 ROPN.m/hr               10.00:  ROP Min 
 ROPX.m/hr               32.00:  ROP Max 
 RPMA.rpm               120.90:  RPM Surface Avg 
 RPMN.rpm               120.00:  RPM Surface Min 
 RPMX.rpm               140.00:  RPM Surface Max 
 RRUN.                    0700:  Rig Run Number 
 RTIM.hr                  3.20:  Time Reaming 
 SAZI.deg               109.99:  Azm, Start 
 SDEP.m                5231.01:  Start Depth 
 SIDD.                      No:  Serv Intrp, DD 
 SINC.deg                73.72:  Inc, Start 
 SPPA.psig             3051.00:  SPP Avg 
 SPPN.psig             2950.00:  SPP Min 
 SPPX.psig             3250.00:  SPP Max 
 STIM.      08.00.00 05-Sep-20:  Start Time 
 SVCS.                 DD, MWD:  Services 
 SVER.                    9.20:  Sperry Version 
 TDAT.m                 559.00:  Tot Depth Attmp 
 TDDF.                      No:  Trip for DD 
 TDLG.m                 559.00:  Tot Depth Loggd 
 TFF .                      No:  Trip for Fail 
 TQAA.f-kp               26.49:  Torque Abs Avg 
 TQAN.f-kp               25.00:  Torque Abs Min 
 TQAX.f-kp               27.00:  Torque Abs Max 
 TRRT.°/30m               1.50:  Turn Rotating 
 MRT .                    HCIM:  Maximum Recorded Temperature 
 TTMX.degC               90.20:  Max Tool Temp 
 VS01.                90542671:  Virtual Str1 SN 
 VS02.                90545185:  Virtual Str2 SN 
 VS03.                90602015:  Virtual Str3 SN 
 VS04.                90515230:  Virtual Str4 SN 
 WBMN.klb                 5.00:  WOB Min 
 WOBA.klb                14.79:  WOB Avg 
 WOBX.klb                20.00:  WOB Max 
 YP  .lhf2               29.00:  Yield Point 
~Curve Information Block
#MNEM.UNIT                 API CODE     Curve Description
#---------               -----------    ---------------------------
 TIME.HHMMSS            00 000 000 000:  GT Time & Date
 GTDEPTH.m              00 000 000 000:  GT Depth
 GTPQH.psia             00 000 000 000:  GT HR Quartz Pressure
 GTTQ.degC              00 000 000 000:  GT Quartz Temperature
 GTTN.NONE              00 000 000 000:  GT Test Number
 GTET.sec               00 000 000 000:  GT Elapsed Test Time
 GTTVD.m                00 000 000 000:  GT True Vertical Depth
#Other Information
#
#WARRANTY: Halliburton will use its best efforts to furnish customers with 
#accurate information and interpretations that are part of, and incident to, the services 
#provided.  However, Halliburton cannot and does not warrant the accuracy 
#or correctness of such information and interpretations.  Under no circumstances should any 
#such information or interpretation be relied upon as the sole basis for any drilling, 
#completion, production, or financial decision or any procedure involving any risk to the 
#safety of any drilling venture, drilling rig or its crew or any other third party.  The 
#Customer has full responsibility for all drilling, completion and production operation.  
#Halliburton makes no representations or warranties, either expressed or 
#implied, including, but not limited to, the implied warranties of merchantability or fitness 
#for a particular purpose, with respect to the services rendered.  In no event will 
#Halliburton be liable for failure to obtain any particular results or for 
#any damages, including, but not limited to, indirect, special or consequential damages, 
#resulting from the use of any information or interpretation provided by Halliburton.
#
~A           TIME           GTDEPTH  GTPQH  GTTQ  GTTN   GTET   GTTVD  
# ...
   10:55:47.404.09-Sep-2020 5456.01 3314.61 76.42 10.00  45.21 2604.72
   10:55:47.604.09-Sep-2020 5456.01 3304.64 76.42 10.00  45.41 2604.72
   10:55:47.804.09-Sep-2020 5456.01 3302.58 76.42 10.00  45.61 2604.72
   10:55:48.004.09-Sep-2020 5456.01 3298.62 76.42 10.00  45.81 2604.72
   10:55:48.204.09-Sep-2020 5456.01 3303.53 76.41 10.00  46.01 2604.72
   10:55:48.404.09-Sep-2020 5456.01 3303.53 76.41 10.00  46.21 2604.72
   10:55:48.604.09-Sep-2020 5456.01 3302.03 76.41 10.00  46.41 2604.72
   10:55:48.804.09-Sep-2020 5456.01 3308.51 76.41 10.00  46.61 2604.72
   10:55:49.004.09-Sep-2020 5456.01 3314.15 76.40 10.00  46.81 2604.72
   10:55:49.204.09-Sep-2020 5456.01 3322.66 76.40 10.00  47.01 2604.72
   10:55:49.404.09-Sep-2020 5456.01 3322.66 76.40 10.00  47.21 2604.72
   10:55:49.604.09-Sep-2020 5456.01 3303.96 76.40 10.00  47.41 2604.72
   10:55:49.804.09-Sep-2020 5456.01 3301.17 76.39 10.00  47.61 2604.72
   10:55:50.004.09-Sep-2020 5456.01 3311.74 76.39 10.00  47.81 2604.72
   10:55:50.204.09-Sep-2020 5456.01 3302.92 76.39 10.00  48.01 2604.72
   10:55:50.404.09-Sep-2020 5456.01 3302.92 76.39 10.00  48.21 2604.72
   10:55:50.605.09-Sep-2020 5456.01 3304.67 76.38 10.00  48.41 2604.72
   10:55:50.805.09-Sep-2020 5456.01 3302.89 76.38 10.00  48.61 2604.72
   10:55:51.005.09-Sep-2020 5456.01 3304.10 76.38 10.00  48.81 2604.72
   10:55:51.205.09-Sep-2020 5456.01 3294.90 76.38 10.00  49.01 2604.72
   10:55:51.405.09-Sep-2020 5456.01 3294.90 76.38 10.00  49.21 2604.72
   10:55:51.605.09-Sep-2020 5456.01 3295.23 76.37 10.00  49.41 2604.72
   10:55:51.805.09-Sep-2020 5456.01 3296.48 76.37 10.00  49.61 2604.72
   10:55:52.005.09-Sep-2020 5456.01 3292.44 76.37 10.00  49.81 2604.72
   10:55:52.205.09-Sep-2020 5456.01 3294.48 76.36 10.00  50.01 2604.72
   10:55:52.405.09-Sep-2020 5456.01 3294.48 76.36 10.00  50.21 2604.72
   10:55:52.605.09-Sep-2020 5456.01 3299.95 76.36 10.00  50.41 2604.72
   10:55:52.805.09-Sep-2020 5456.01 3291.76 76.36 10.00  50.61 2604.72
   10:55:53.005.09-Sep-2020 5456.01 3294.37 76.36 10.00  50.81 2604.72
   10:55:53.205.09-Sep-2020 5456.01 3296.60 76.35 10.00  51.01 2604.72
   10:55:53.405.09-Sep-2020 5456.01 3296.60 76.35 10.00  51.21 2604.72
   10:55:53.605.09-Sep-2020 5456.01 3288.44 76.35 10.00  51.41 2604.72
   10:55:53.805.09-Sep-2020 5456.01 3300.54 76.35 10.00  51.61 2604.72
   10:55:54.005.09-Sep-2020 5456.01 3309.77 76.35 10.00  51.81 2604.72
   10:55:54.206.09-Sep-2020 5456.01 3311.51 76.34 10.00  52.01 2604.72
   10:55:54.406.09-Sep-2020 5456.01 3311.51 76.34 10.00  52.21 2604.72
   10:55:54.606.09-Sep-2020 5456.01 3298.33 76.34 10.00  52.41 2604.72
   10:55:54.806.09-Sep-2020 5456.01 3295.72 76.34 10.00  52.61 2604.72
   10:55:55.006.09-Sep-2020 5456.01 3298.35 76.34 10.00  52.81 2604.72
   10:55:55.206.09-Sep-2020 5456.01 3309.47 76.34 10.00  53.01 2604.72
   10:55:55.406.09-Sep-2020 5456.01 3309.47 76.34 10.00  53.21 2604.72
   10:55:55.606.09-Sep-2020 5456.01 3309.01 76.34 10.00  53.41 2604.72
   10:55:55.806.09-Sep-2020 5456.01 3306.04 76.34 10.00  53.61 2604.72
   10:55:56.006.09-Sep-2020 5456.01 3445.74 76.33 10.00  53.81 2604.72
   10:55:56.206.09-Sep-2020 5456.01 3575.73 76.33 10.00  54.01 2604.72
   10:55:56.406.09-Sep-2020 5456.01 3586.26 76.33 10.00  54.21 2604.72
   10:55:56.606.09-Sep-2020 5456.01 3586.45 76.33 10.00  54.42 2604.72
   10:55:56.806.09-Sep-2020 5456.01 3587.07 76.33 10.00  54.62 2604.72
   10:55:57.006.09-Sep-2020 5456.01 3586.95 76.33 10.00  54.82 2604.72
   10:55:57.206.09-Sep-2020 5456.01 3587.03 76.33 10.00  55.02 2604.72
   10:55:57.406.09-Sep-2020 5456.01 3587.03 76.33 10.00  55.22 2604.72
   10:55:57.606.09-Sep-2020 5456.01 3586.83 76.33 10.00  55.42 2604.72
   10:55:57.807.09-Sep-2020 5456.01 3587.88 76.33 10.00  55.62 2604.72
   10:55:58.007.09-Sep-2020 5456.01 3587.54 76.33 10.00  55.82 2604.72
   10:55:58.207.09-Sep-2020 5456.01 3587.58 76.33 10.00  56.02 2604.72
   10:55:58.407.09-Sep-2020 5456.01 3587.58 76.33 10.00  56.22 2604.72
   10:55:58.607.09-Sep-2020 5456.01 3587.71 76.33 10.00  56.42 2604.72
   10:55:58.807.09-Sep-2020 5456.01 3587.74 76.33 10.00  56.62 2604.72
   10:55:59.007.09-Sep-2020 5456.01 3587.34 76.33 10.00  56.82 2604.72
   10:55:59.207.09-Sep-2020 5456.01 3588.39 76.33 10.00  57.02 2604.72
   10:55:59.407.09-Sep-2020 5456.01 3588.39 76.33 10.00  57.22 2604.72
   10:55:59.607.09-Sep-2020 5456.01 3587.93 76.33 10.00  57.42 2604.72
   10:55:59.807.09-Sep-2020 5456.01 3587.89 76.33 10.00  57.62 2604.72
   10:56:00.007.09-Sep-2020 5456.01 3588.08 76.33 10.00  57.82 2604.72
   10:56:00.207.09-Sep-2020 5456.01 3588.04 76.33 10.00  58.02 2604.72
   10:56:00.407.09-Sep-2020 5456.01 3588.04 76.33 10.00  58.22 2604.72
   10:56:00.607.09-Sep-2020 5456.01 3588.07 76.33 10.00  58.42 2604.72
   10:56:00.807.09-Sep-2020 5456.01 3588.15 76.33 10.00  58.62 2604.72
   10:56:01.007.09-Sep-2020 5456.01 3587.99 76.33 10.00  58.82 2604.72
   10:56:01.207.09-Sep-2020 5456.01 3588.09 76.33 10.00  59.02 2604.72
   10:56:01.408.09-Sep-2020 5456.01 3588.09 76.33 10.00  59.22 2604.72
   10:56:01.608.09-Sep-2020 5456.01 3588.13 76.33 10.00  59.42 2604.72
   10:56:01.808.09-Sep-2020 5456.01 3588.13 76.33 10.00  59.62 2604.72
   10:56:02.008.09-Sep-2020 5456.01 3588.15 76.33 10.00  59.82 2604.72
   10:56:02.208.09-Sep-2020 5456.01 3588.16 76.33 10.00  60.02 2604.72
   10:56:02.408.09-Sep-2020 5456.01 3588.16 76.33 10.00  60.22 2604.72
   10:56:02.608.09-Sep-2020 5456.01 3588.18 76.33 10.00  60.42 2604.72
   10:56:02.808.09-Sep-2020 5456.01 3588.20 76.33 10.00  60.62 2604.72
   10:56:03.008.09-Sep-2020 5456.01 3588.21 76.33 10.00  60.82 2604.72
   10:56:03.208.09-Sep-2020 5456.01 3588.23 76.33 10.00  61.02 2604.72
   10:56:03.408.09-Sep-2020 5456.01 3588.23 76.33 10.00  61.22 2604.72
   10:56:03.608.09-Sep-2020 5456.01 3587.73 76.33 10.00  61.42 2604.72
   10:56:03.808.09-Sep-2020 5456.01 3588.78 76.33 10.00  61.62 2604.72
   10:56:04.008.09-Sep-2020 5456.01 3588.28 76.33 10.00  61.82 2604.72
   10:56:04.208.09-Sep-2020 5456.01 3588.25 76.33 10.00  62.02 2604.72
   10:56:04.408.09-Sep-2020 5456.01 3588.25 76.33 10.00  62.22 2604.72
   10:56:04.608.09-Sep-2020 5456.01 3588.31 76.34 10.00  62.42 2604.72
   10:56:04.808.09-Sep-2020 5456.01 3588.27 76.34 10.00  62.62 2604.72
   10:56:05.009.09-Sep-2020 5456.01 3588.30 76.34 10.00  62.82 2604.72
   10:56:05.209.09-Sep-2020 5456.01 3588.32 76.34 10.00  63.02 2604.72
   10:56:05.409.09-Sep-2020 5456.01 3588.32 76.34 10.00  63.22 2604.72
   10:56:05.609.09-Sep-2020 5456.01 3588.34 76.34 10.00  63.42 2604.72
   10:56:05.809.09-Sep-2020 5456.01 3588.33 76.34 10.00  63.62 2604.72
   10:56:06.009.09-Sep-2020 5456.01 3588.34 76.34 10.00  63.82 2604.72
   10:56:06.209.09-Sep-2020 5456.01 3588.35 76.34 10.00  64.02 2604.72
   10:56:06.409.09-Sep-2020 5456.01 3588.35 76.34 10.00  64.22 2604.72
   10:56:06.609.09-Sep-2020 5456.01 3588.39 76.34 10.00  64.42 2604.72
   10:56:06.809.09-Sep-2020 5456.01 3588.37 76.34 10.00  64.62 2604.72
   10:56:07.009.09-Sep-2020 5456.01 3588.45 76.34 10.00  64.82 2604.72
   10:56:07.209.09-Sep-2020 5456.01 3588.35 76.34 10.00  65.02 2604.72
   10:56:07.409.09-Sep-2020 5456.01 3588.35 76.34 10.00  65.22 2604.72
   10:56:07.609.09-Sep-2020 5456.01 3588.40 76.34 10.00  65.42 2604.72
   10:56:07.809.09-Sep-2020 5456.01 3588.49 76.34 10.00  65.62 2604.72
   10:56:08.009.09-Sep-2020 5456.01 3588.35 76.34 10.00  65.82 2604.72
   10:56:08.209.09-Sep-2020 5456.01 3588.43 76.34 10.00  66.02 2604.72
   10:56:08.409.09-Sep-2020 5456.01 3588.43 76.34 10.00  66.22 2604.72
   10:56:08.609.09-Sep-2020 5456.01 3588.44 76.34 10.00  66.42 2604.72
   10:56:08.810.09-Sep-2020 5456.01 3588.47 76.34 10.00  66.62 2604.72
   10:56:09.010.09-Sep-2020 5456.01 3588.62 76.34 10.00  66.82 2604.72
   10:56:09.210.09-Sep-2020 5456.01 3588.33 76.34 10.00  67.02 2604.72
   10:56:09.410.09-Sep-2020 5456.01 3588.33 76.34 10.00  67.22 2604.72
   10:56:09.610.09-Sep-2020 5456.01 3588.47 76.34 10.00  67.42 2604.72
   10:56:09.810.09-Sep-2020 5456.01 3588.64 76.34 10.00  67.62 2604.72
