~Version Information
 VERS.                  2.0:   CWLS log ASCII Standard -VERSION 2.0
 WRAP.                   NO:   One line per depth step
~Well Information Block
#MNEM.UNIT     VALUE/NAME     DESCRIPTION
#---------     -----------    ---------------------------
 STRT.S             10:55:02 09-Sep-20: START TIME 10:55:02 09-Sep-20
 STOP.S             11:02:04 09-Sep-20: STOP TIME  11:02:04 09-Sep-20
 STEP.S                   0.00: STEP TIME
 NULL.                 -999.25: NULL VALUE
 MDS .        Operator Entered:  MAG DATA SOURCE
 PDAT.          Mean Sea Level:  PERMANENT DATUM
 DCON.         Sperry Drilling:  DIRECTNL CONTR
 RIG .              West Azeri:  RIG NAME
 WELL.           C40 (Slot 20):  WELL NAME
 SRVC.     Turan Drilling Engineering:  CONTRACTOR
 FLD .                     ACG:  FIELD NAME
 CTRY.              Azerbaijan:  COUNTRY NAME
 PROV.                    Baku:  PROVINCE
 STAT.                    Baku:  STATE NAME
 REGN.                   EESSA:  REGION
 BASE.              Azerbaijan:  LOGGING EQUIPMENT BASE LOCATION
 COMP.     BP Exploration (Caspian Sea) Ltd:  COMPANY
 WTYP.                Deviated:  WELL TYPE
 SON .        AZ-XX-0906344804:  JOB NUMBER
 FTOP.          Formation Tops:  FORM TOPS DESC
 ILTD.               Lithology:  INTERP LTH DESC
 SVYD.                  Survey:  SURVEY DESC
 DMOD.             Drill Model:  DRILL MOD DESC
 HPTY.       Minimum Curvature:  HOLE POS TYPE
 NREF.                    Grid:  NORTH REFERENCE
 SPUD.               01-Jan-20:  SPUD DATE
 DATE.      00.59.44 15-Sep-20:  END TIME
 STIM.      12.00.00 12-Jun-20:  START TIME
 DMF .             Drill Floor:  DRILL MEAS FROM
 DFST.                        :  DIST FSL TEXT
 DFWT.                        :  DIST FWL TEXT
 API .                        :  API NUMBER
 CNTY.                        :  COUNTY
 UWI .                        :  UNIQUE WELL IDENTIFIER
 LOC .                        :  LOCATION
 LMF .             Drill Floor:  LOG MEASURED FROM
 VSNS.m                   2.88:  VERT SEC N/S
 VSEW.m                  -3.84:  VERT SEC E/W
 AGAP.m                  43.42:  AIR GAP
 APD .m                  43.42:  DEPTH ABOVE PD
 WDMS.m                 118.27:  WD ELEV
 EGL .m                   0.00:  GROUND ELEVATION
 EPD .m                   0.00:  ELEVATION
 AZTC.deg                 6.23:  AZM TOTAL CORR
 GRDC.deg                 0.20:  GRID CORRECTION
 MDEC.deg                 6.43:  MAGNETIC DECL
 MDIP.deg                59.49:  MAGNETIC DIP
 MFLD.nT              50277.00:  MAGNETIC FIELD
 GVFD.g                   1.00:  GRAVITY FIELD
 VSDR.deg               173.20:  VERT SEC DIRECT
 TDD .m                5790.01:  TOTAL DEPTH (DRILLER)
 SDEP.m                5231.01:  START DEPTH
 DFSL.m                   0.00:  DISTANCE FSL
 DFWL.m                   0.00:  DISTANCE FWL
 UTMY.m             4435808.83:  UTM Y
 UTMX.m              526266.40:  UTM X
 WHEW.m                  -3.84:  WELL HEAD E/W
 WHNS.m                   2.88:  WELL HEAD N/S
 LONG.deg                51.31:  LONGITUDE
 LATI.deg                40.06:  LATITUDE
 TVDS.m                  43.42:  TVDSS CORRECTN
 DEP .m                 430.08:  DEPTH
 EKB .m                  43.42:  KB ELEVATION
 EDF .m                  43.42:  DF ELEVATION
 TDL .m                 559.00:  TOTAL DEPTH (LOGGER)
 MAGU.                 1849381:  MAGUTM CHECKSUM
 VSC .                       0:  VS TO CLOSURE
~Parameter Information Block
#MNEM.UNIT       Value        Description
#---------     -----------    ---------------------------
 AV  .mps                 4.87:  Ann Velocity 
 AVMX.mps                 7.08:  Max Ann Veloc 
 AZIF.deg               108.87:  Azm, Final 
 BHAT.                  Rotary:  BHA Type 
 BROT.°/30m               0.35:  Build Rotating 
 BS  .in                  8.50:  Bit Size 
 BSZ .in                  8.50:  Bit Size 
 BTPL.psig              360.00:  Bit Press Loss 
 CABU.                     Yes:  Customer Abuse 
 COMM.                     ¬Î:  Run Comments 1 
 TCS .hr                106.24:  Time Ciculation Ended 
 CV  .mps                 1.77:  Crit Velocity 
 CVMX.mps                 2.03:  Max Crit Veloc 
 DD1 .         Aykhan Agagulov:  Direct Drillr 1 
 DD2 .            Nonso Okofor:  Direct Drillr 2 
 DDSV.               Geo-Pilot:  DD Service 
 DEFF.%                  98.00:  % Det Eff 
 DLRX.°/30m               0.50:  Dogleg Rot Max 
 DLSO.°/30m               0.40:  Dogleg Oriented 
 DLSX.°/30m               0.94:  Dogleg Str Max 
 DRET.      20.30.00 08-Sep-20:  Drill End Time 
 DRST.      22.15.00 06-Sep-20:  Drill Start Tim 
 DTIM.hr                 31.31:  Time Drilling 
 EDEP.m                5790.01:  End Depth 
 ENG1.           Amrah Tahirov:  Engineer 1 
 ENG2.         Dair Mahammadov:  Engineer 2 
 ENG3.           Emil Huseynov:  Engineer 3 
 ETIM.      04.01.04 12-Sep-20:  End Time 
 FLOI.gpm               450.00:  Flow In 
 FLON.gpm               450.00:  Flow In Min 
 FLOS.cptm                2.00:  Fluid Loss 
 FLOX.gpm               450.00:  Flow In Max 
 FTRO.       Formation Presure:  FTWD Run Obj 
 HFLO.                      No:  High Flow 
 HPRE.                      No:  High Pressure 
 HTEM.                      No:  High Temp 
 HYDO.m                   1.80:  Hydro Offset 
 IFIN.deg                72.03:  Inc, Final 
 IMAX.deg                73.72:  Inc Max 
 IMIN.deg                70.94:  Inc Min 
 IMND.m                5508.52:  Inc Min Depth 
 IMXD.m                5253.60:  Inc Max Depth 
 JARR.                      No:  Jarring 
 LETM.      20.30.00 08-Sep-20:  Log End Time 
 LOST.hr                     0:  Lost Rig Time 
 LSTM.      22.15.00 06-Sep-20:  Log Start Time 
 MDCL.ppm             36000.00:  Mud Chlorides 
 MDES.     Inversion Oil/Synthetic:  Mud Desc 
 DFD .sg                  1.44:  Mud Density 
 MDMN.sg                  1.44:  Dens Mud Min 
 MDMX.sg                  1.57:  Dens Mud Max 
 MOIL.                      70:  Run Mud Oil % 
 MOWR.                   70:30:  Run Mud OWR 
 MSND.                       0:  Run Mud Sand % 
 MSOL.                      21:  Run Mud Solids% 
 DFV .spqt               68.00:  Mud Viscosity 
 MWOD.in                  6.75:  MWD Tool OD 
 MWSI.                     Yes:  Serv Intrp, MWD 
 OTIM.hr                174.84:  Time Operating 
 PCON.           Look Like New:  Pad Condition 
 PMAX.psia            10616.93:  Press Op, Max 
 PV  .cP                 50.00:  Mud PV 
 RUN .                     700:  Run Number 
 ROPA.m/hr               14.24:  ROP Avg 
 ROPN.m/hr               10.00:  ROP Min 
 ROPX.m/hr               32.00:  ROP Max 
 RPMA.rpm               120.90:  RPM Surface Avg 
 RPMN.rpm               120.00:  RPM Surface Min 
 RPMX.rpm               140.00:  RPM Surface Max 
 RRUN.                    0700:  Rig Run Number 
 RTIM.hr                  3.20:  Time Reaming 
 SAZI.deg               109.99:  Azm, Start 
 SDEP.m                5231.01:  Start Depth 
 SIDD.                      No:  Serv Intrp, DD 
 SINC.deg                73.72:  Inc, Start 
 SPPA.psig             3051.00:  SPP Avg 
 SPPN.psig             2950.00:  SPP Min 
 SPPX.psig             3250.00:  SPP Max 
 STIM.      08.00.00 05-Sep-20:  Start Time 
 SVCS.                 DD, MWD:  Services 
 SVER.                    9.20:  Sperry Version 
 TDAT.m                 559.00:  Tot Depth Attmp 
 TDDF.                      No:  Trip for DD 
 TDLG.m                 559.00:  Tot Depth Loggd 
 TFF .                      No:  Trip for Fail 
 TQAA.f-kp               26.49:  Torque Abs Avg 
 TQAN.f-kp               25.00:  Torque Abs Min 
 TQAX.f-kp               27.00:  Torque Abs Max 
 TRRT.°/30m               1.50:  Turn Rotating 
 MRT .                    HCIM:  Maximum Recorded Temperature 
 TTMX.degC               90.20:  Max Tool Temp 
 VS01.                90542671:  Virtual Str1 SN 
 VS02.                90545185:  Virtual Str2 SN 
 VS03.                90602015:  Virtual Str3 SN 
 VS04.                90515230:  Virtual Str4 SN 
 WBMN.klb                 5.00:  WOB Min 
 WOBA.klb                14.79:  WOB Avg 
 WOBX.klb                20.00:  WOB Max 
 YP  .lhf2               29.00:  Yield Point 
~Curve Information Block
#MNEM.UNIT                 API CODE     Curve Description
#---------               -----------    ---------------------------
 TIME.HHMMSS            00 000 000 000:  GT Time & Date
 GTDEPTH.m              00 000 000 000:  GT Depth
 GTPQH.psia             00 000 000 000:  GT HR Quartz Pressure
 GTTQ.degC              00 000 000 000:  GT Quartz Temperature
 GTTN.NONE              00 000 000 000:  GT Test Number
 GTET.sec               00 000 000 000:  GT Elapsed Test Time
 GTTVD.m                00 000 000 000:  GT True Vertical Depth
#Other Information
#
#WARRANTY: Halliburton will use its best efforts to furnish customers with 
#accurate information and interpretations that are part of, and incident to, the services 
#provided.  However, Halliburton cannot and does not warrant the accuracy 
#or correctness of such information and interpretations.  Under no circumstances should any 
#such information or interpretation be relied upon as the sole basis for any drilling, 
#completion, production, or financial decision or any procedure involving any risk to the 
#safety of any drilling venture, drilling rig or its crew or any other third party.  The 
#Customer has full responsibility for all drilling, completion and production operation.  
#Halliburton makes no representations or warranties, either expressed or 
#implied, including, but not limited to, the implied warranties of merchantability or fitness 
#for a particular purpose, with respect to the services rendered.  In no event will 
#Halliburton be liable for failure to obtain any particular results or for 
#any damages, including, but not limited to, indirect, special or consequential damages, 
#resulting from the use of any information or interpretation provided by Halliburton.
#
~A           TIME           GTDEPTH  GTPQH  GTTQ  GTTN   GTET   GTTVD  
# ...
   11:01:49.104.09-Sep-2020 5456.01 6436.14 76.45 10.00 406.91 2604.72
   11:01:49.304.09-Sep-2020 5456.01 6446.84 76.45 10.00 407.11 2604.72
   11:01:49.504.09-Sep-2020 5456.01 6446.84 76.45 10.00 407.31 2604.72
   11:01:49.704.09-Sep-2020 5456.01 6435.44 76.45 10.00 407.51 2604.72
   11:01:49.904.09-Sep-2020 5456.01 6438.26 76.45 10.00 407.71 2604.72
   11:01:50.104.09-Sep-2020 5456.01 6436.41 76.45 10.00 407.91 2604.72
   11:01:50.304.09-Sep-2020 5456.01 6437.16 76.45 10.00 408.11 2604.72
   11:01:50.504.09-Sep-2020 5456.01 6437.16 76.45 10.00 408.31 2604.72
   11:01:50.704.09-Sep-2020 5456.01 6436.18 76.45 10.00 408.51 2604.72
   11:01:50.904.09-Sep-2020 5456.01 6436.79 76.45 10.00 408.71 2604.72
   11:01:51.104.09-Sep-2020 5456.01 6436.16 76.45 10.00 408.91 2604.72
   11:01:51.304.09-Sep-2020 5456.01 6436.34 76.45 10.00 409.11 2604.72
   11:01:51.504.09-Sep-2020 5456.01 6435.88 76.45 10.00 409.31 2604.72
   11:01:51.704.09-Sep-2020 5456.01 6435.46 76.45 10.00 409.51 2604.72
   11:01:51.904.09-Sep-2020 5456.01 6435.61 76.45 10.00 409.71 2604.72
   11:01:52.104.09-Sep-2020 5456.01 6435.69 76.45 10.00 409.91 2604.72
   11:01:52.304.09-Sep-2020 5456.01 6435.89 76.45 10.00 410.11 2604.72
   11:01:52.504.09-Sep-2020 5456.01 6436.02 76.45 10.00 410.31 2604.72
   11:01:52.704.09-Sep-2020 5456.01 6435.96 76.45 10.00 410.51 2604.72
   11:01:52.905.09-Sep-2020 5456.01 6442.05 76.45 10.00 410.71 2604.72
   11:01:53.105.09-Sep-2020 5456.01 6437.12 76.45 10.00 410.91 2604.72
   11:01:53.305.09-Sep-2020 5456.01 6436.27 76.44 10.00 411.11 2604.72
   11:01:53.505.09-Sep-2020 5456.01 6436.27 76.44 10.00 411.31 2604.72
   11:01:53.705.09-Sep-2020 5456.01 6437.21 76.44 10.00 411.51 2604.72
   11:01:53.905.09-Sep-2020 5456.01 6435.66 76.44 10.00 411.71 2604.72
   11:01:54.105.09-Sep-2020 5456.01 6434.91 76.44 10.00 411.91 2604.72
   11:01:54.305.09-Sep-2020 5456.01 6435.50 76.44 10.00 412.11 2604.72
   11:01:54.505.09-Sep-2020 5456.01 6435.50 76.44 10.00 412.31 2604.72
   11:01:54.705.09-Sep-2020 5456.01 6435.00 76.44 10.00 412.51 2604.72
   11:01:54.905.09-Sep-2020 5456.01 6434.38 76.44 10.00 412.71 2604.72
   11:01:55.105.09-Sep-2020 5456.01 6433.69 76.44 10.00 412.91 2604.72
   11:01:55.305.09-Sep-2020 5456.01 6433.85 76.44 10.00 413.11 2604.72
   11:01:55.505.09-Sep-2020 5456.01 6433.85 76.44 10.00 413.31 2604.72
   11:01:55.705.09-Sep-2020 5456.01 6434.31 76.44 10.00 413.51 2604.72
   11:01:55.905.09-Sep-2020 5456.01 6434.47 76.44 10.00 413.71 2604.72
   11:01:56.105.09-Sep-2020 5456.01 6433.98 76.44 10.00 413.91 2604.72
   11:01:56.305.09-Sep-2020 5456.01 6433.63 76.44 10.00 414.11 2604.72
   11:01:56.506.09-Sep-2020 5456.01 6441.00 76.44 10.00 414.31 2604.72
   11:01:56.706.09-Sep-2020 5456.01 6434.66 76.44 10.00 414.51 2604.72
   11:01:56.906.09-Sep-2020 5456.01 6434.16 76.44 10.00 414.71 2604.72
   11:01:57.106.09-Sep-2020 5456.01 6436.14 76.44 10.00 414.91 2604.72
   11:01:57.306.09-Sep-2020 5456.01 6433.48 76.44 10.00 415.11 2604.72
   11:01:57.506.09-Sep-2020 5456.01 6433.48 76.44 10.00 415.31 2604.72
   11:01:57.706.09-Sep-2020 5456.01 6436.18 76.44 10.00 415.51 2604.72
   11:01:57.906.09-Sep-2020 5456.01 6434.22 76.44 10.00 415.71 2604.72
   11:01:58.106.09-Sep-2020 5456.01 6435.59 76.44 10.00 415.91 2604.72
   11:01:58.306.09-Sep-2020 5456.01 6435.75 76.44 10.00 416.11 2604.72
   11:01:58.506.09-Sep-2020 5456.01 6435.75 76.44 10.00 416.31 2604.72
   11:01:58.706.09-Sep-2020 5456.01 6441.02 76.44 10.00 416.51 2604.72
   11:01:58.906.09-Sep-2020 5456.01 6435.78 76.44 10.00 416.72 2604.72
   11:01:59.106.09-Sep-2020 5456.01 6434.94 76.44 10.00 416.92 2604.72
   11:01:59.306.09-Sep-2020 5456.01 6437.29 76.44 10.00 417.12 2604.72
   11:01:59.506.09-Sep-2020 5456.01 6437.29 76.44 10.00 417.32 2604.72
   11:01:59.706.09-Sep-2020 5456.01 6432.07 76.44 10.00 417.52 2604.72
   11:01:59.906.09-Sep-2020 5456.01 6435.47 76.44 10.00 417.72 2604.72
   11:02:00.107.09-Sep-2020 5456.01 6437.15 76.44 10.00 417.92 2604.72
   11:02:00.307.09-Sep-2020 5456.01 6436.39 76.44 10.00 418.12 2604.72
   11:02:00.507.09-Sep-2020 5456.01 6436.39 76.44 10.00 418.32 2604.72
   11:02:00.707.09-Sep-2020 5456.01 6435.94 76.44 10.00 418.52 2604.72
   11:02:00.907.09-Sep-2020 5456.01 6436.51 76.44 10.00 418.72 2604.72
   11:02:01.107.09-Sep-2020 5456.01 6443.89 76.44 10.00 418.92 2604.72
   11:02:01.307.09-Sep-2020 5456.01 6436.70 76.44 10.00 419.12 2604.72
   11:02:01.507.09-Sep-2020 5456.01 6436.70 76.44 10.00 419.32 2604.72
   11:02:01.707.09-Sep-2020 5456.01 6439.04 76.44 10.00 419.52 2604.72
   11:02:01.907.09-Sep-2020 5456.01 6436.58 76.44 10.00 419.72 2604.72
   11:02:02.107.09-Sep-2020 5456.01 6436.96 76.44 10.00 419.92 2604.72
   11:02:02.307.09-Sep-2020 5456.01 6437.29 76.44 10.00 420.12 2604.72
   11:02:02.507.09-Sep-2020 5456.01 6437.29 76.44 10.00 420.32 2604.72
   11:02:02.707.09-Sep-2020 5456.01 6437.24 76.44 10.00 420.52 2604.72
   11:02:02.907.09-Sep-2020 5456.01 6436.95 76.44 10.00 420.72 2604.72
   11:02:03.107.09-Sep-2020 5456.01 6436.74 76.44 10.00 420.92 2604.72
   11:02:03.307.09-Sep-2020 5456.01 6436.25 76.44 10.00 421.12 2604.72
   11:02:03.507.09-Sep-2020 5456.01 6436.25 76.44 10.00 421.32 2604.72
   11:02:03.708.09-Sep-2020 5456.01 6435.67 76.44 10.00 421.52 2604.72
   11:02:03.908.09-Sep-2020 5456.01 6435.82 76.44 10.00 421.72 2604.72
   11:02:04.108.09-Sep-2020 5456.01 6435.80 76.44 10.00 421.92 2604.72
