~Version Information
 VERS.                  2.0:   CWLS log ASCII Standard -VERSION 2.0
 WRAP.                   NO:   One line per depth step
~Well Information Block
#MNEM.UNIT     VALUE/NAME     DESCRIPTION
#---------     -----------    ---------------------------
 STRT.S             07:31:38 09-Sep-20: START TIME 07:31:38 09-Sep-20
 STOP.S             07:38:38 09-Sep-20: STOP TIME  07:38:38 09-Sep-20
 STEP.S                   0.00: STEP TIME
 NULL.                 -999.25: NULL VALUE
 MDS .        Operator Entered:  MAG DATA SOURCE
 PDAT.          Mean Sea Level:  PERMANENT DATUM
 DCON.         Sperry Drilling:  DIRECTNL CONTR
 RIG .              West Azeri:  RIG NAME
 WELL.           C40 (Slot 20):  WELL NAME
 SRVC.     Turan Drilling Engineering:  CONTRACTOR
 FLD .                     ACG:  FIELD NAME
 CTRY.              Azerbaijan:  COUNTRY NAME
 PROV.                    Baku:  PROVINCE
 STAT.                    Baku:  STATE NAME
 REGN.                   EESSA:  REGION
 BASE.              Azerbaijan:  LOGGING EQUIPMENT BASE LOCATION
 COMP.     BP Exploration (Caspian Sea) Ltd:  COMPANY
 WTYP.                Deviated:  WELL TYPE
 SON .        AZ-XX-0906344804:  JOB NUMBER
 FTOP.          Formation Tops:  FORM TOPS DESC
 ILTD.               Lithology:  INTERP LTH DESC
 SVYD.                  Survey:  SURVEY DESC
 DMOD.             Drill Model:  DRILL MOD DESC
 HPTY.       Minimum Curvature:  HOLE POS TYPE
 NREF.                    Grid:  NORTH REFERENCE
 SPUD.               01-Jan-20:  SPUD DATE
 DATE.      00.59.44 15-Sep-20:  END TIME
 STIM.      12.00.00 12-Jun-20:  START TIME
 DMF .             Drill Floor:  DRILL MEAS FROM
 DFST.                        :  DIST FSL TEXT
 DFWT.                        :  DIST FWL TEXT
 API .                        :  API NUMBER
 CNTY.                        :  COUNTY
 UWI .                        :  UNIQUE WELL IDENTIFIER
 LOC .                        :  LOCATION
 LMF .             Drill Floor:  LOG MEASURED FROM
 VSNS.m                   2.88:  VERT SEC N/S
 VSEW.m                  -3.84:  VERT SEC E/W
 AGAP.m                  43.42:  AIR GAP
 APD .m                  43.42:  DEPTH ABOVE PD
 WDMS.m                 118.27:  WD ELEV
 EGL .m                   0.00:  GROUND ELEVATION
 EPD .m                   0.00:  ELEVATION
 AZTC.deg                 6.23:  AZM TOTAL CORR
 GRDC.deg                 0.20:  GRID CORRECTION
 MDEC.deg                 6.43:  MAGNETIC DECL
 MDIP.deg                59.49:  MAGNETIC DIP
 MFLD.nT              50277.00:  MAGNETIC FIELD
 GVFD.g                   1.00:  GRAVITY FIELD
 VSDR.deg               173.20:  VERT SEC DIRECT
 TDD .m                5790.01:  TOTAL DEPTH (DRILLER)
 SDEP.m                5231.01:  START DEPTH
 DFSL.m                   0.00:  DISTANCE FSL
 DFWL.m                   0.00:  DISTANCE FWL
 UTMY.m             4435808.83:  UTM Y
 UTMX.m              526266.40:  UTM X
 WHEW.m                  -3.84:  WELL HEAD E/W
 WHNS.m                   2.88:  WELL HEAD N/S
 LONG.deg                51.31:  LONGITUDE
 LATI.deg                40.06:  LATITUDE
 TVDS.m                  43.42:  TVDSS CORRECTN
 DEP .m                 430.08:  DEPTH
 EKB .m                  43.42:  KB ELEVATION
 EDF .m                  43.42:  DF ELEVATION
 TDL .m                 559.00:  TOTAL DEPTH (LOGGER)
 MAGU.                 1849381:  MAGUTM CHECKSUM
 VSC .                       0:  VS TO CLOSURE
~Parameter Information Block
#MNEM.UNIT       Value        Description
#---------     -----------    ---------------------------
 AV  .mps                 4.87:  Ann Velocity 
 AVMX.mps                 7.08:  Max Ann Veloc 
 AZIF.deg               108.87:  Azm, Final 
 BHAT.                  Rotary:  BHA Type 
 BROT.°/30m               0.35:  Build Rotating 
 BS  .in                  8.50:  Bit Size 
 BSZ .in                  8.50:  Bit Size 
 BTPL.psig              360.00:  Bit Press Loss 
 CABU.                     Yes:  Customer Abuse 
 COMM.                     |L:  Run Comments 1 
 TCS .hr                106.24:  Time Ciculation Ended 
 CV  .mps                 1.77:  Crit Velocity 
 CVMX.mps                 2.03:  Max Crit Veloc 
 DD1 .         Aykhan Agagulov:  Direct Drillr 1 
 DD2 .            Nonso Okofor:  Direct Drillr 2 
 DDSV.               Geo-Pilot:  DD Service 
 DEFF.%                  98.00:  % Det Eff 
 DLRX.°/30m               0.50:  Dogleg Rot Max 
 DLSO.°/30m               0.40:  Dogleg Oriented 
 DLSX.°/30m               0.94:  Dogleg Str Max 
 DRET.      20.30.00 08-Sep-20:  Drill End Time 
 DRST.      22.15.00 06-Sep-20:  Drill Start Tim 
 DTIM.hr                 31.31:  Time Drilling 
 EDEP.m                5790.01:  End Depth 
 ENG1.           Amrah Tahirov:  Engineer 1 
 ENG2.         Dair Mahammadov:  Engineer 2 
 ENG3.           Emil Huseynov:  Engineer 3 
 ETIM.      04.01.04 12-Sep-20:  End Time 
 FLOI.gpm               450.00:  Flow In 
 FLON.gpm               450.00:  Flow In Min 
 FLOS.cptm                2.00:  Fluid Loss 
 FLOX.gpm               450.00:  Flow In Max 
 FTRO.       Formation Presure:  FTWD Run Obj 
 HFLO.                      No:  High Flow 
 HPRE.                      No:  High Pressure 
 HTEM.                      No:  High Temp 
 HYDO.m                   1.80:  Hydro Offset 
 IFIN.deg                72.03:  Inc, Final 
 IMAX.deg                73.72:  Inc Max 
 IMIN.deg                70.94:  Inc Min 
 IMND.m                5508.52:  Inc Min Depth 
 IMXD.m                5253.60:  Inc Max Depth 
 JARR.                      No:  Jarring 
 LETM.      20.30.00 08-Sep-20:  Log End Time 
 LOST.hr                     0:  Lost Rig Time 
 LSTM.      22.15.00 06-Sep-20:  Log Start Time 
 MDCL.ppm             36000.00:  Mud Chlorides 
 MDES.     Inversion Oil/Synthetic:  Mud Desc 
 DFD .sg                  1.44:  Mud Density 
 MDMN.sg                  1.44:  Dens Mud Min 
 MDMX.sg                  1.57:  Dens Mud Max 
 MOIL.                      70:  Run Mud Oil % 
 MOWR.                   70:30:  Run Mud OWR 
 MSND.                       0:  Run Mud Sand % 
 MSOL.                      21:  Run Mud Solids% 
 DFV .spqt               68.00:  Mud Viscosity 
 MWOD.in                  6.75:  MWD Tool OD 
 MWSI.                     Yes:  Serv Intrp, MWD 
 OTIM.hr                174.84:  Time Operating 
 PCON.           Look Like New:  Pad Condition 
 PMAX.psia            10616.93:  Press Op, Max 
 PV  .cP                 50.00:  Mud PV 
 RUN .                     700:  Run Number 
 ROPA.m/hr               14.24:  ROP Avg 
 ROPN.m/hr               10.00:  ROP Min 
 ROPX.m/hr               32.00:  ROP Max 
 RPMA.rpm               120.90:  RPM Surface Avg 
 RPMN.rpm               120.00:  RPM Surface Min 
 RPMX.rpm               140.00:  RPM Surface Max 
 RRUN.                    0700:  Rig Run Number 
 RTIM.hr                  3.20:  Time Reaming 
 SAZI.deg               109.99:  Azm, Start 
 SDEP.m                5231.01:  Start Depth 
 SIDD.                      No:  Serv Intrp, DD 
 SINC.deg                73.72:  Inc, Start 
 SPPA.psig             3051.00:  SPP Avg 
 SPPN.psig             2950.00:  SPP Min 
 SPPX.psig             3250.00:  SPP Max 
 STIM.      08.00.00 05-Sep-20:  Start Time 
 SVCS.                 DD, MWD:  Services 
 SVER.                    9.20:  Sperry Version 
 TDAT.m                 559.00:  Tot Depth Attmp 
 TDDF.                      No:  Trip for DD 
 TDLG.m                 559.00:  Tot Depth Loggd 
 TFF .                      No:  Trip for Fail 
 TQAA.f-kp               26.49:  Torque Abs Avg 
 TQAN.f-kp               25.00:  Torque Abs Min 
 TQAX.f-kp               27.00:  Torque Abs Max 
 TRRT.°/30m               1.50:  Turn Rotating 
 MRT .                    HCIM:  Maximum Recorded Temperature 
 TTMX.degC               90.20:  Max Tool Temp 
 VS01.                90542671:  Virtual Str1 SN 
 VS02.                90545185:  Virtual Str2 SN 
 VS03.                90602015:  Virtual Str3 SN 
 VS04.                90515230:  Virtual Str4 SN 
 WBMN.klb                 5.00:  WOB Min 
 WOBA.klb                14.79:  WOB Avg 
 WOBX.klb                20.00:  WOB Max 
 YP  .lhf2               29.00:  Yield Point 
~Curve Information Block
#MNEM.UNIT                 API CODE     Curve Description
#---------               -----------    ---------------------------
 TIME.HHMMSS            00 000 000 000:  GT Time & Date
 GTDEPTH.m              00 000 000 000:  GT Depth
 GTPQH.psia             00 000 000 000:  GT HR Quartz Pressure
 GTTQ.degC              00 000 000 000:  GT Quartz Temperature
 GTTN.NONE              00 000 000 000:  GT Test Number
 GTET.sec               00 000 000 000:  GT Elapsed Test Time
 GTTVD.m                00 000 000 000:  GT True Vertical Depth
#Other Information
#
#WARRANTY: Halliburton will use its best efforts to furnish customers with 
#accurate information and interpretations that are part of, and incident to, the services 
#provided.  However, Halliburton cannot and does not warrant the accuracy 
#or correctness of such information and interpretations.  Under no circumstances should any 
#such information or interpretation be relied upon as the sole basis for any drilling, 
#completion, production, or financial decision or any procedure involving any risk to the 
#safety of any drilling venture, drilling rig or its crew or any other third party.  The 
#Customer has full responsibility for all drilling, completion and production operation.  
#Halliburton makes no representations or warranties, either expressed or 
#implied, including, but not limited to, the implied warranties of merchantability or fitness 
#for a particular purpose, with respect to the services rendered.  In no event will 
#Halliburton be liable for failure to obtain any particular results or for 
#any damages, including, but not limited to, indirect, special or consequential damages, 
#resulting from the use of any information or interpretation provided by Halliburton.
#
~A           TIME           GTDEPTH  GTPQH  GTTQ  GTTN  GTET   GTTVD  
# ...
   07:32:01.297.09-Sep-2020 5569.01 6395.41 78.60 4.00  23.01 2640.81
   07:32:01.497.09-Sep-2020 5569.01 6395.41 78.60 4.00  23.21 2640.81
   07:32:01.697.09-Sep-2020 5569.01 6395.44 78.60 4.00  23.41 2640.81
   07:32:01.897.09-Sep-2020 5569.01 6396.07 78.60 4.00  23.61 2640.81
   07:32:02.097.09-Sep-2020 5569.01 6396.94 78.60 4.00  23.81 2640.81
   07:32:02.297.09-Sep-2020 5569.01 6403.58 78.60 4.00  24.01 2640.81
   07:32:02.497.09-Sep-2020 5569.01 6403.58 78.60 4.00  24.21 2640.81
   07:32:02.697.09-Sep-2020 5569.01 6398.89 78.60 4.00  24.41 2640.81
   07:32:02.897.09-Sep-2020 5569.01 6397.03 78.60 4.00  24.61 2640.81
   07:32:03.098.09-Sep-2020 5569.01 6398.52 78.60 4.00  24.81 2640.81
   07:32:03.298.09-Sep-2020 5569.01 6400.77 78.60 4.00  25.01 2640.81
   07:32:03.498.09-Sep-2020 5569.01 6400.77 78.60 4.00  25.21 2640.81
   07:32:03.698.09-Sep-2020 5569.01 6399.19 78.60 4.00  25.41 2640.81
   07:32:03.898.09-Sep-2020 5569.01 6402.03 78.60 4.00  25.61 2640.81
   07:32:04.098.09-Sep-2020 5569.01 6398.56 78.60 4.00  25.81 2640.81
   07:32:04.298.09-Sep-2020 5569.01 6400.80 78.60 4.00  26.01 2640.81
   07:32:04.498.09-Sep-2020 5569.01 6400.80 78.60 4.00  26.21 2640.81
   07:32:04.698.09-Sep-2020 5569.01 6400.69 78.60 4.00  26.41 2640.81
   07:32:04.898.09-Sep-2020 5569.01 6410.60 78.60 4.00  26.61 2640.81
   07:32:05.098.09-Sep-2020 5569.01 6395.92 78.60 4.00  26.81 2640.81
   07:32:05.298.09-Sep-2020 5569.01 6400.40 78.59 4.00  27.01 2640.81
   07:32:05.499.09-Sep-2020 5569.01 6400.40 78.59 4.00  27.21 2640.81
   07:32:05.699.09-Sep-2020 5569.01 6402.63 78.59 4.00  27.41 2640.81
   07:32:05.899.09-Sep-2020 5569.01 6402.39 78.59 4.00  27.61 2640.81
   07:32:06.099.09-Sep-2020 5569.01 6401.19 78.59 4.00  27.81 2640.81
   07:32:06.299.09-Sep-2020 5569.01 6409.69 78.59 4.00  28.01 2640.81
   07:32:06.499.09-Sep-2020 5569.01 6409.69 78.59 4.00  28.21 2640.81
   07:32:06.699.09-Sep-2020 5569.01 6405.32 78.59 4.00  28.41 2640.81
   07:32:06.899.09-Sep-2020 5569.01 6403.95 78.59 4.00  28.61 2640.81
   07:32:07.099.09-Sep-2020 5569.01 6405.44 78.59 4.00  28.81 2640.81
   07:32:07.299.09-Sep-2020 5569.01 6414.78 78.59 4.00  29.01 2640.81
   07:32:07.499.09-Sep-2020 5569.01 6414.78 78.59 4.00  29.21 2640.81
   07:32:07.699.09-Sep-2020 5569.01 6405.91 78.59 4.00  29.41 2640.81
   07:32:07.900.09-Sep-2020 5569.01 6407.18 78.59 4.00  29.61 2640.81
   07:32:08.100.09-Sep-2020 5569.01 6407.01 78.59 4.00  29.81 2640.81
   07:32:08.300.09-Sep-2020 5569.01 6407.17 78.59 4.00  30.01 2640.81
   07:32:08.500.09-Sep-2020 5569.01 6407.17 78.59 4.00  30.21 2640.81
   07:32:08.700.09-Sep-2020 5569.01 6408.57 78.59 4.00  30.41 2640.81
   07:32:08.900.09-Sep-2020 5569.01 6408.00 78.59 4.00  30.61 2640.81
   07:32:09.100.09-Sep-2020 5569.01 6408.11 78.59 4.00  30.81 2640.81
   07:32:09.300.09-Sep-2020 5569.01 6408.62 78.59 4.00  31.01 2640.81
   07:32:09.500.09-Sep-2020 5569.01 6408.62 78.59 4.00  31.21 2640.81
   07:32:09.700.09-Sep-2020 5569.01 6408.72 78.59 4.00  31.41 2640.81
   07:32:09.900.09-Sep-2020 5569.01 6409.02 78.59 4.00  31.61 2640.81
   07:32:10.100.09-Sep-2020 5569.01 6409.78 78.59 4.00  31.81 2640.81
   07:32:10.301.09-Sep-2020 5569.01 6410.49 78.59 4.00  32.01 2640.81
   07:32:10.501.09-Sep-2020 5569.01 6410.49 78.59 4.00  32.21 2640.81
   07:32:10.701.09-Sep-2020 5569.01 6411.42 78.59 4.00  32.41 2640.81
   07:32:10.901.09-Sep-2020 5569.01 6413.93 78.59 4.00  32.61 2640.81
   07:32:11.101.09-Sep-2020 5569.01 6414.90 78.59 4.00  32.81 2640.81
   07:32:11.301.09-Sep-2020 5569.01 6412.29 78.59 4.00  33.01 2640.81
   07:32:11.501.09-Sep-2020 5569.01 6412.29 78.59 4.00  33.21 2640.81
   07:32:11.701.09-Sep-2020 5569.01 6412.37 78.59 4.00  33.41 2640.81
   07:32:11.901.09-Sep-2020 5569.01 6414.52 78.59 4.00  33.61 2640.81
   07:32:12.101.09-Sep-2020 5569.01 6413.42 78.59 4.00  33.81 2640.81
   07:32:12.301.09-Sep-2020 5569.01 6414.93 78.59 4.00  34.01 2640.81
   07:32:12.501.09-Sep-2020 5569.01 6414.93 78.59 4.00  34.21 2640.81
   07:32:12.702.09-Sep-2020 5569.01 6414.19 78.59 4.00  34.41 2640.81
   07:32:12.902.09-Sep-2020 5569.01 6413.97 78.59 4.00  34.61 2640.81
   07:32:13.102.09-Sep-2020 5569.01 6414.06 78.59 4.00  34.81 2640.81
   07:32:13.302.09-Sep-2020 5569.01 6414.16 78.59 4.00  35.01 2640.81
   07:32:13.502.09-Sep-2020 5569.01 6414.16 78.59 4.00  35.21 2640.81
   07:32:13.702.09-Sep-2020 5569.01 6415.76 78.59 4.00  35.41 2640.81
   07:32:13.902.09-Sep-2020 5569.01 6416.05 78.59 4.00  35.61 2640.81
   07:32:14.102.09-Sep-2020 5569.01 6415.66 78.59 4.00  35.81 2640.81
   07:32:14.302.09-Sep-2020 5569.01 6415.48 78.59 4.00  36.01 2640.81
   07:32:14.502.09-Sep-2020 5569.01 6415.48 78.59 4.00  36.21 2640.81
   07:32:14.702.09-Sep-2020 5569.01 6414.98 78.59 4.00  36.41 2640.81
   07:32:14.902.09-Sep-2020 5569.01 6418.27 78.59 4.00  36.61 2640.81
   07:32:15.102.09-Sep-2020 5569.01 6417.00 78.59 4.00  36.82 2640.81
   07:32:15.303.09-Sep-2020 5569.01 6418.13 78.59 4.00  37.02 2640.81
   07:32:15.503.09-Sep-2020 5569.01 6418.13 78.59 4.00  37.22 2640.81
   07:32:15.703.09-Sep-2020 5569.01 6484.54 78.59 4.00  37.42 2640.81
   07:32:15.903.09-Sep-2020 5569.01 6525.43 78.59 4.00  37.62 2640.81
   07:32:16.103.09-Sep-2020 5569.01 6539.66 78.59 4.00  37.82 2640.81
   07:32:16.303.09-Sep-2020 5569.01 6550.62 78.59 4.00  38.02 2640.81
   07:32:16.503.09-Sep-2020 5569.01 6550.62 78.59 4.00  38.22 2640.81
   07:32:16.703.09-Sep-2020 5569.01 6559.47 78.59 4.00  38.42 2640.81
   07:32:16.903.09-Sep-2020 5569.01 6543.39 78.59 4.00  38.62 2640.81
   07:32:17.103.09-Sep-2020 5569.01 6505.26 78.59 4.00  38.82 2640.81
   07:32:17.303.09-Sep-2020 5569.01 6465.93 78.59 4.00  39.02 2640.81
   07:32:17.503.09-Sep-2020 5569.01 6465.93 78.59 4.00  39.22 2640.81
   07:32:17.704.09-Sep-2020 5569.01 6382.34 78.59 4.00  39.42 2640.81
   07:32:17.904.09-Sep-2020 5569.01 6338.97 78.59 4.00  39.62 2640.81
   07:32:18.104.09-Sep-2020 5569.01 6298.32 78.59 4.00  39.82 2640.81
   07:32:18.304.09-Sep-2020 5569.01 6260.85 78.59 4.00  40.02 2640.81
   07:32:18.504.09-Sep-2020 5569.01 6260.85 78.59 4.00  40.22 2640.81
   07:32:18.704.09-Sep-2020 5569.01 6202.82 78.59 4.00  40.42 2640.81
   07:32:18.904.09-Sep-2020 5569.01 6178.41 78.59 4.00  40.62 2640.81
   07:32:19.104.09-Sep-2020 5569.01 6154.09 78.59 4.00  40.82 2640.81
   07:32:19.304.09-Sep-2020 5569.01 6132.29 78.59 4.00  41.02 2640.81
   07:32:19.504.09-Sep-2020 5569.01 6132.29 78.59 4.00  41.22 2640.81
   07:32:19.704.09-Sep-2020 5569.01 6093.87 78.59 4.00  41.42 2640.81
   07:32:19.904.09-Sep-2020 5569.01 6077.22 78.59 4.00  41.62 2640.81
   07:32:20.105.09-Sep-2020 5569.01 6063.15 78.59 4.00  41.82 2640.81
   07:32:20.305.09-Sep-2020 5569.01 6049.70 78.59 4.00  42.02 2640.81
   07:32:20.505.09-Sep-2020 5569.01 6049.70 78.59 4.00  42.22 2640.81
   07:32:20.705.09-Sep-2020 5569.01 6025.20 78.59 4.00  42.42 2640.81
   07:32:20.905.09-Sep-2020 5569.01 6019.48 78.59 4.00  42.62 2640.81
   07:32:21.105.09-Sep-2020 5569.01 5741.64 78.59 4.00  42.82 2640.81
   07:32:21.305.09-Sep-2020 5569.01 4847.73 78.59 4.00  43.02 2640.81
   07:32:21.505.09-Sep-2020 5569.01 4847.73 78.59 4.00  43.22 2640.81
   07:32:21.705.09-Sep-2020 5569.01 3961.62 78.59 4.00  43.42 2640.81
   07:32:21.905.09-Sep-2020 5569.01 3526.39 78.58 4.00  43.62 2640.81
   07:32:22.105.09-Sep-2020 5569.01 3522.19 78.58 4.00  43.82 2640.81
   07:32:22.305.09-Sep-2020 5569.01 3521.48 78.58 4.00  44.02 2640.81
   07:32:22.506.09-Sep-2020 5569.01 3521.48 78.58 4.00  44.22 2640.81
   07:32:22.706.09-Sep-2020 5569.01 3518.01 78.58 4.00  44.42 2640.81
   07:32:22.906.09-Sep-2020 5569.01 3516.80 78.58 4.00  44.62 2640.81
   07:32:23.106.09-Sep-2020 5569.01 3515.34 78.58 4.00  44.82 2640.81
   07:32:23.306.09-Sep-2020 5569.01 3513.75 78.57 4.00  45.02 2640.81
   07:32:23.506.09-Sep-2020 5569.01 3513.75 78.57 4.00  45.22 2640.81
   07:32:23.706.09-Sep-2020 5569.01 3511.56 78.57 4.00  45.42 2640.81
   07:32:23.906.09-Sep-2020 5569.01 3510.08 78.57 4.00  45.62 2640.81
   07:32:24.106.09-Sep-2020 5569.01 3509.52 78.56 4.00  45.82 2640.81
