~Version Information
 VERS.                  2.0:   CWLS log ASCII Standard -VERSION 2.0
 WRAP.                   NO:   One line per depth step
~Well Information Block
#MNEM.UNIT     VALUE/NAME     DESCRIPTION
#---------     -----------    ---------------------------
 STRT.S             11:14:18 09-Sep-20: START TIME 11:14:18 09-Sep-20
 STOP.S             11:21:20 09-Sep-20: STOP TIME  11:21:20 09-Sep-20
 STEP.S                   0.00: STEP TIME
 NULL.                 -999.25: NULL VALUE
 MDS .        Operator Entered:  MAG DATA SOURCE
 PDAT.          Mean Sea Level:  PERMANENT DATUM
 DCON.         Sperry Drilling:  DIRECTNL CONTR
 RIG .              West Azeri:  RIG NAME
 WELL.           C40 (Slot 20):  WELL NAME
 SRVC.     Turan Drilling Engineering:  CONTRACTOR
 FLD .                     ACG:  FIELD NAME
 CTRY.              Azerbaijan:  COUNTRY NAME
 PROV.                    Baku:  PROVINCE
 STAT.                    Baku:  STATE NAME
 REGN.                   EESSA:  REGION
 BASE.              Azerbaijan:  LOGGING EQUIPMENT BASE LOCATION
 COMP.     BP Exploration (Caspian Sea) Ltd:  COMPANY
 WTYP.                Deviated:  WELL TYPE
 SON .        AZ-XX-0906344804:  JOB NUMBER
 FTOP.          Formation Tops:  FORM TOPS DESC
 ILTD.               Lithology:  INTERP LTH DESC
 SVYD.                  Survey:  SURVEY DESC
 DMOD.             Drill Model:  DRILL MOD DESC
 HPTY.       Minimum Curvature:  HOLE POS TYPE
 NREF.                    Grid:  NORTH REFERENCE
 SPUD.               01-Jan-20:  SPUD DATE
 DATE.      00.59.44 15-Sep-20:  END TIME
 STIM.      12.00.00 12-Jun-20:  START TIME
 DMF .             Drill Floor:  DRILL MEAS FROM
 DFST.                        :  DIST FSL TEXT
 DFWT.                        :  DIST FWL TEXT
 API .                        :  API NUMBER
 CNTY.                        :  COUNTY
 UWI .                        :  UNIQUE WELL IDENTIFIER
 LOC .                        :  LOCATION
 LMF .             Drill Floor:  LOG MEASURED FROM
 VSNS.m                   2.88:  VERT SEC N/S
 VSEW.m                  -3.84:  VERT SEC E/W
 AGAP.m                  43.42:  AIR GAP
 APD .m                  43.42:  DEPTH ABOVE PD
 WDMS.m                 118.27:  WD ELEV
 EGL .m                   0.00:  GROUND ELEVATION
 EPD .m                   0.00:  ELEVATION
 AZTC.deg                 6.23:  AZM TOTAL CORR
 GRDC.deg                 0.20:  GRID CORRECTION
 MDEC.deg                 6.43:  MAGNETIC DECL
 MDIP.deg                59.49:  MAGNETIC DIP
 MFLD.nT              50277.00:  MAGNETIC FIELD
 GVFD.g                   1.00:  GRAVITY FIELD
 VSDR.deg               173.20:  VERT SEC DIRECT
 TDD .m                5790.01:  TOTAL DEPTH (DRILLER)
 SDEP.m                5231.01:  START DEPTH
 DFSL.m                   0.00:  DISTANCE FSL
 DFWL.m                   0.00:  DISTANCE FWL
 UTMY.m             4435808.83:  UTM Y
 UTMX.m              526266.40:  UTM X
 WHEW.m                  -3.84:  WELL HEAD E/W
 WHNS.m                   2.88:  WELL HEAD N/S
 LONG.deg                51.31:  LONGITUDE
 LATI.deg                40.06:  LATITUDE
 TVDS.m                  43.42:  TVDSS CORRECTN
 DEP .m                 430.08:  DEPTH
 EKB .m                  43.42:  KB ELEVATION
 EDF .m                  43.42:  DF ELEVATION
 TDL .m                 559.00:  TOTAL DEPTH (LOGGER)
 MAGU.                 1849381:  MAGUTM CHECKSUM
 VSC .                       0:  VS TO CLOSURE
~Parameter Information Block
#MNEM.UNIT       Value        Description
#---------     -----------    ---------------------------
 AV  .mps                 4.87:  Ann Velocity 
 AVMX.mps                 7.08:  Max Ann Veloc 
 AZIF.deg               108.87:  Azm, Final 
 BHAT.                  Rotary:  BHA Type 
 BROT.°/30m               0.35:  Build Rotating 
 BS  .in                  8.50:  Bit Size 
 BSZ .in                  8.50:  Bit Size 
 BTPL.psig              360.00:  Bit Press Loss 
 CABU.                     Yes:  Customer Abuse 
 TCS .hr                106.24:  Time Ciculation Ended 
 CV  .mps                 1.77:  Crit Velocity 
 CVMX.mps                 2.03:  Max Crit Veloc 
 DD1 .         Aykhan Agagulov:  Direct Drillr 1 
 DD2 .            Nonso Okofor:  Direct Drillr 2 
 DDSV.               Geo-Pilot:  DD Service 
 DEFF.%                  98.00:  % Det Eff 
 DLRX.°/30m               0.50:  Dogleg Rot Max 
 DLSO.°/30m               0.40:  Dogleg Oriented 
 DLSX.°/30m               0.94:  Dogleg Str Max 
 DRET.      20.30.00 08-Sep-20:  Drill End Time 
 DRST.      22.15.00 06-Sep-20:  Drill Start Tim 
 DTIM.hr                 31.31:  Time Drilling 
 EDEP.m                5790.01:  End Depth 
 ENG1.           Amrah Tahirov:  Engineer 1 
 ENG2.         Dair Mahammadov:  Engineer 2 
 ENG3.           Emil Huseynov:  Engineer 3 
 ETIM.      04.01.04 12-Sep-20:  End Time 
 FLOI.gpm               450.00:  Flow In 
 FLON.gpm               450.00:  Flow In Min 
 FLOS.cptm                2.00:  Fluid Loss 
 FLOX.gpm               450.00:  Flow In Max 
 FTRO.       Formation Presure:  FTWD Run Obj 
 HFLO.                      No:  High Flow 
 HPRE.                      No:  High Pressure 
 HTEM.                      No:  High Temp 
 HYDO.m                   1.80:  Hydro Offset 
 IFIN.deg                72.03:  Inc, Final 
 IMAX.deg                73.72:  Inc Max 
 IMIN.deg                70.94:  Inc Min 
 IMND.m                5508.52:  Inc Min Depth 
 IMXD.m                5253.60:  Inc Max Depth 
 JARR.                      No:  Jarring 
 LETM.      20.30.00 08-Sep-20:  Log End Time 
 LOST.hr                     0:  Lost Rig Time 
 LSTM.      22.15.00 06-Sep-20:  Log Start Time 
 MDCL.ppm             36000.00:  Mud Chlorides 
 MDES.     Inversion Oil/Synthetic:  Mud Desc 
 DFD .sg                  1.44:  Mud Density 
 MDMN.sg                  1.44:  Dens Mud Min 
 MDMX.sg                  1.57:  Dens Mud Max 
 MOIL.                      70:  Run Mud Oil % 
 MOWR.                   70:30:  Run Mud OWR 
 MSND.                       0:  Run Mud Sand % 
 MSOL.                      21:  Run Mud Solids% 
 DFV .spqt               68.00:  Mud Viscosity 
 MWOD.in                  6.75:  MWD Tool OD 
 MWSI.                     Yes:  Serv Intrp, MWD 
 OTIM.hr                174.84:  Time Operating 
 PCON.           Look Like New:  Pad Condition 
 PMAX.psia            10616.93:  Press Op, Max 
 PV  .cP                 50.00:  Mud PV 
 RUN .                     700:  Run Number 
 ROPA.m/hr               14.24:  ROP Avg 
 ROPN.m/hr               10.00:  ROP Min 
 ROPX.m/hr               32.00:  ROP Max 
 RPMA.rpm               120.90:  RPM Surface Avg 
 RPMN.rpm               120.00:  RPM Surface Min 
 RPMX.rpm               140.00:  RPM Surface Max 
 RRUN.                    0700:  Rig Run Number 
 RTIM.hr                  3.20:  Time Reaming 
 SAZI.deg               109.99:  Azm, Start 
 SDEP.m                5231.01:  Start Depth 
 SIDD.                      No:  Serv Intrp, DD 
 SINC.deg                73.72:  Inc, Start 
 SPPA.psig             3051.00:  SPP Avg 
 SPPN.psig             2950.00:  SPP Min 
 SPPX.psig             3250.00:  SPP Max 
 STIM.      08.00.00 05-Sep-20:  Start Time 
 SVCS.                 DD, MWD:  Services 
 SVER.                    9.20:  Sperry Version 
 TDAT.m                 559.00:  Tot Depth Attmp 
 TDDF.                      No:  Trip for DD 
 TDLG.m                 559.00:  Tot Depth Loggd 
 TFF .                      No:  Trip for Fail 
 TQAA.f-kp               26.49:  Torque Abs Avg 
 TQAN.f-kp               25.00:  Torque Abs Min 
 TQAX.f-kp               27.00:  Torque Abs Max 
 TRRT.°/30m               1.50:  Turn Rotating 
 MRT .                    HCIM:  Maximum Recorded Temperature 
 TTMX.degC               90.20:  Max Tool Temp 
 VS01.                90542671:  Virtual Str1 SN 
 VS02.                90545185:  Virtual Str2 SN 
 VS03.                90602015:  Virtual Str3 SN 
 VS04.                90515230:  Virtual Str4 SN 
 WBMN.klb                 5.00:  WOB Min 
 WOBA.klb                14.79:  WOB Avg 
 WOBX.klb                20.00:  WOB Max 
 YP  .lhf2               29.00:  Yield Point 
~Curve Information Block
#MNEM.UNIT                 API CODE     Curve Description
#---------               -----------    ---------------------------
 TIME.HHMMSS            00 000 000 000:  GT Time & Date
 GTDEPTH.m              00 000 000 000:  GT Depth
 GTPQH.psia             00 000 000 000:  GT HR Quartz Pressure
 GTTQ.degC              00 000 000 000:  GT Quartz Temperature
 GTTN.NONE              00 000 000 000:  GT Test Number
 GTET.sec               00 000 000 000:  GT Elapsed Test Time
 GTTVD.m                00 000 000 000:  GT True Vertical Depth
#Other Information
#
#WARRANTY: Halliburton will use its best efforts to furnish customers with 
#accurate information and interpretations that are part of, and incident to, the services 
#provided.  However, Halliburton cannot and does not warrant the accuracy 
#or correctness of such information and interpretations.  Under no circumstances should any 
#such information or interpretation be relied upon as the sole basis for any drilling, 
#completion, production, or financial decision or any procedure involving any risk to the 
#safety of any drilling venture, drilling rig or its crew or any other third party.  The 
#Customer has full responsibility for all drilling, completion and production operation.  
#Halliburton makes no representations or warranties, either expressed or 
#implied, including, but not limited to, the implied warranties of merchantability or fitness 
#for a particular purpose, with respect to the services rendered.  In no event will 
#Halliburton be liable for failure to obtain any particular results or for 
#any damages, including, but not limited to, indirect, special or consequential damages, 
#resulting from the use of any information or interpretation provided by Halliburton.
#
~A           TIME           GTDEPTH  GTPQH  GTTQ  GTTN   GTET   GTTVD  
# ...
   11:21:05.423.09-Sep-2020 5442.01 6426.84 76.15 11.00 406.91 2600.30
   11:21:05.623.09-Sep-2020 5442.01 6427.09 76.15 11.00 407.11 2600.30
   11:21:05.823.09-Sep-2020 5442.01 6427.09 76.15 11.00 407.31 2600.30
   11:21:06.023.09-Sep-2020 5442.01 6429.62 76.15 11.00 407.51 2600.30
   11:21:06.223.09-Sep-2020 5442.01 6429.95 76.15 11.00 407.71 2600.30
   11:21:06.423.09-Sep-2020 5442.01 6427.17 76.15 11.00 407.91 2600.30
   11:21:06.623.09-Sep-2020 5442.01 6428.80 76.15 11.00 408.11 2600.30
   11:21:06.823.09-Sep-2020 5442.01 6428.37 76.15 11.00 408.31 2600.30
   11:21:07.023.09-Sep-2020 5442.01 6427.50 76.15 11.00 408.51 2600.30
   11:21:07.223.09-Sep-2020 5442.01 6426.80 76.15 11.00 408.71 2600.30
   11:21:07.423.09-Sep-2020 5442.01 6427.56 76.15 11.00 408.91 2600.30
   11:21:07.623.09-Sep-2020 5442.01 6426.70 76.15 11.00 409.11 2600.30
   11:21:07.823.09-Sep-2020 5442.01 6426.70 76.15 11.00 409.31 2600.30
   11:21:08.023.09-Sep-2020 5442.01 6426.31 76.15 11.00 409.51 2600.30
   11:21:08.224.09-Sep-2020 5442.01 6425.42 76.15 11.00 409.71 2600.30
   11:21:08.424.09-Sep-2020 5442.01 6425.63 76.15 11.00 409.91 2600.30
   11:21:08.624.09-Sep-2020 5442.01 6425.28 76.15 11.00 410.11 2600.30
   11:21:08.824.09-Sep-2020 5442.01 6425.28 76.15 11.00 410.31 2600.30
   11:21:09.024.09-Sep-2020 5442.01 6426.03 76.15 11.00 410.51 2600.30
   11:21:09.224.09-Sep-2020 5442.01 6425.44 76.15 11.00 410.71 2600.30
   11:21:09.424.09-Sep-2020 5442.01 6425.12 76.14 11.00 410.91 2600.30
   11:21:09.624.09-Sep-2020 5442.01 6431.32 76.14 11.00 411.11 2600.30
   11:21:09.824.09-Sep-2020 5442.01 6431.32 76.14 11.00 411.31 2600.30
   11:21:10.024.09-Sep-2020 5442.01 6425.92 76.14 11.00 411.51 2600.30
   11:21:10.224.09-Sep-2020 5442.01 6426.92 76.14 11.00 411.71 2600.30
   11:21:10.424.09-Sep-2020 5442.01 6426.23 76.14 11.00 411.91 2600.30
   11:21:10.624.09-Sep-2020 5442.01 6429.03 76.14 11.00 412.11 2600.30
   11:21:10.824.09-Sep-2020 5442.01 6429.03 76.14 11.00 412.31 2600.30
   11:21:11.024.09-Sep-2020 5442.01 6425.60 76.14 11.00 412.51 2600.30
   11:21:11.224.09-Sep-2020 5442.01 6427.54 76.14 11.00 412.71 2600.30
   11:21:11.424.09-Sep-2020 5442.01 6426.59 76.14 11.00 412.91 2600.30
   11:21:11.624.09-Sep-2020 5442.01 6435.89 76.14 11.00 413.11 2600.30
   11:21:11.825.09-Sep-2020 5442.01 6435.89 76.14 11.00 413.31 2600.30
   11:21:12.025.09-Sep-2020 5442.01 6425.84 76.14 11.00 413.51 2600.30
   11:21:12.225.09-Sep-2020 5442.01 6428.12 76.14 11.00 413.71 2600.30
   11:21:12.425.09-Sep-2020 5442.01 6427.62 76.14 11.00 413.91 2600.30
   11:21:12.625.09-Sep-2020 5442.01 6426.65 76.14 11.00 414.11 2600.30
   11:21:12.825.09-Sep-2020 5442.01 6426.65 76.14 11.00 414.31 2600.30
   11:21:13.025.09-Sep-2020 5442.01 6421.66 76.14 11.00 414.51 2600.30
   11:21:13.225.09-Sep-2020 5442.01 6425.14 76.14 11.00 414.71 2600.30
   11:21:13.425.09-Sep-2020 5442.01 6427.52 76.14 11.00 414.91 2600.30
   11:21:13.625.09-Sep-2020 5442.01 6427.50 76.14 11.00 415.11 2600.30
   11:21:13.825.09-Sep-2020 5442.01 6427.50 76.14 11.00 415.31 2600.30
   11:21:14.025.09-Sep-2020 5442.01 6428.65 76.14 11.00 415.51 2600.30
   11:21:14.225.09-Sep-2020 5442.01 6429.78 76.14 11.00 415.71 2600.30
   11:21:14.425.09-Sep-2020 5442.01 6427.45 76.14 11.00 415.91 2600.30
   11:21:14.625.09-Sep-2020 5442.01 6428.60 76.14 11.00 416.11 2600.30
   11:21:14.825.09-Sep-2020 5442.01 6428.60 76.14 11.00 416.31 2600.30
   11:21:15.025.09-Sep-2020 5442.01 6427.76 76.14 11.00 416.51 2600.30
   11:21:15.225.09-Sep-2020 5442.01 6427.10 76.14 11.00 416.72 2600.30
   11:21:15.426.09-Sep-2020 5442.01 6427.90 76.14 11.00 416.92 2600.30
   11:21:15.626.09-Sep-2020 5442.01 6426.79 76.14 11.00 417.12 2600.30
   11:21:15.826.09-Sep-2020 5442.01 6426.79 76.14 11.00 417.32 2600.30
   11:21:16.026.09-Sep-2020 5442.01 6427.29 76.14 11.00 417.52 2600.30
   11:21:16.226.09-Sep-2020 5442.01 6427.18 76.14 11.00 417.72 2600.30
   11:21:16.426.09-Sep-2020 5442.01 6426.83 76.14 11.00 417.92 2600.30
   11:21:16.626.09-Sep-2020 5442.01 6426.25 76.14 11.00 418.12 2600.30
   11:21:16.826.09-Sep-2020 5442.01 6426.25 76.14 11.00 418.32 2600.30
   11:21:17.026.09-Sep-2020 5442.01 6426.24 76.14 11.00 418.52 2600.30
   11:21:17.226.09-Sep-2020 5442.01 6426.52 76.14 11.00 418.72 2600.30
   11:21:17.426.09-Sep-2020 5442.01 6426.43 76.14 11.00 418.92 2600.30
   11:21:17.626.09-Sep-2020 5442.01 6426.33 76.14 11.00 419.12 2600.30
   11:21:17.826.09-Sep-2020 5442.01 6426.33 76.14 11.00 419.32 2600.30
   11:21:18.026.09-Sep-2020 5442.01 6421.34 76.14 11.00 419.52 2600.30
   11:21:18.226.09-Sep-2020 5442.01 6425.77 76.14 11.00 419.72 2600.30
   11:21:18.426.09-Sep-2020 5442.01 6427.90 76.14 11.00 419.92 2600.30
   11:21:18.626.09-Sep-2020 5442.01 6427.83 76.14 11.00 420.12 2600.30
   11:21:18.826.09-Sep-2020 5442.01 6427.77 76.14 11.00 420.32 2600.30
   11:21:19.027.09-Sep-2020 5442.01 6426.33 76.14 11.00 420.52 2600.30
   11:21:19.227.09-Sep-2020 5442.01 6426.82 76.14 11.00 420.72 2600.30
   11:21:19.427.09-Sep-2020 5442.01 6426.77 76.14 11.00 420.92 2600.30
   11:21:19.627.09-Sep-2020 5442.01 6426.19 76.14 11.00 421.12 2600.30
   11:21:19.827.09-Sep-2020 5442.01 6426.19 76.14 11.00 421.32 2600.30
   11:21:20.027.09-Sep-2020 5442.01 6425.19 76.14 11.00 421.52 2600.30
   11:21:20.227.09-Sep-2020 5442.01 6425.28 76.14 11.00 421.72 2600.30
   11:21:20.427.09-Sep-2020 5442.01 6425.04 76.14 11.00 421.92 2600.30
