~Version Information
 VERS.                  2.0:   CWLS log ASCII Standard -VERSION 2.0
 WRAP.                   NO:   One line per depth step
~Well Information Block
#MNEM.UNIT     VALUE/NAME     DESCRIPTION
#---------     -----------    ---------------------------
 STRT.S             08:34:18 09-Sep-20: START TIME 08:34:18 09-Sep-20
 STOP.S             08:41:20 09-Sep-20: STOP TIME  08:41:20 09-Sep-20
 STEP.S                   0.00: STEP TIME
 NULL.                 -999.25: NULL VALUE
 MDS .        Operator Entered:  MAG DATA SOURCE
 PDAT.          Mean Sea Level:  PERMANENT DATUM
 DCON.         Sperry Drilling:  DIRECTNL CONTR
 RIG .              West Azeri:  RIG NAME
 WELL.           C40 (Slot 20):  WELL NAME
 SRVC.     Turan Drilling Engineering:  CONTRACTOR
 FLD .                     ACG:  FIELD NAME
 CTRY.              Azerbaijan:  COUNTRY NAME
 PROV.                    Baku:  PROVINCE
 STAT.                    Baku:  STATE NAME
 REGN.                   EESSA:  REGION
 BASE.              Azerbaijan:  LOGGING EQUIPMENT BASE LOCATION
 COMP.     BP Exploration (Caspian Sea) Ltd:  COMPANY
 WTYP.                Deviated:  WELL TYPE
 SON .        AZ-XX-0906344804:  JOB NUMBER
 FTOP.          Formation Tops:  FORM TOPS DESC
 ILTD.               Lithology:  INTERP LTH DESC
 SVYD.                  Survey:  SURVEY DESC
 DMOD.             Drill Model:  DRILL MOD DESC
 HPTY.       Minimum Curvature:  HOLE POS TYPE
 NREF.                    Grid:  NORTH REFERENCE
 SPUD.               01-Jan-20:  SPUD DATE
 DATE.      00.59.44 15-Sep-20:  END TIME
 STIM.      12.00.00 12-Jun-20:  START TIME
 DMF .             Drill Floor:  DRILL MEAS FROM
 DFST.                        :  DIST FSL TEXT
 DFWT.                        :  DIST FWL TEXT
 API .                        :  API NUMBER
 CNTY.                        :  COUNTY
 UWI .                        :  UNIQUE WELL IDENTIFIER
 LOC .                        :  LOCATION
 LMF .             Drill Floor:  LOG MEASURED FROM
 VSNS.m                   2.88:  VERT SEC N/S
 VSEW.m                  -3.84:  VERT SEC E/W
 AGAP.m                  43.42:  AIR GAP
 APD .m                  43.42:  DEPTH ABOVE PD
 WDMS.m                 118.27:  WD ELEV
 EGL .m                   0.00:  GROUND ELEVATION
 EPD .m                   0.00:  ELEVATION
 AZTC.deg                 6.23:  AZM TOTAL CORR
 GRDC.deg                 0.20:  GRID CORRECTION
 MDEC.deg                 6.43:  MAGNETIC DECL
 MDIP.deg                59.49:  MAGNETIC DIP
 MFLD.nT              50277.00:  MAGNETIC FIELD
 GVFD.g                   1.00:  GRAVITY FIELD
 VSDR.deg               173.20:  VERT SEC DIRECT
 TDD .m                5790.01:  TOTAL DEPTH (DRILLER)
 SDEP.m                5231.01:  START DEPTH
 DFSL.m                   0.00:  DISTANCE FSL
 DFWL.m                   0.00:  DISTANCE FWL
 UTMY.m             4435808.83:  UTM Y
 UTMX.m              526266.40:  UTM X
 WHEW.m                  -3.84:  WELL HEAD E/W
 WHNS.m                   2.88:  WELL HEAD N/S
 LONG.deg                51.31:  LONGITUDE
 LATI.deg                40.06:  LATITUDE
 TVDS.m                  43.42:  TVDSS CORRECTN
 DEP .m                 430.08:  DEPTH
 EKB .m                  43.42:  KB ELEVATION
 EDF .m                  43.42:  DF ELEVATION
 TDL .m                 559.00:  TOTAL DEPTH (LOGGER)
 MAGU.                 1849381:  MAGUTM CHECKSUM
 VSC .                       0:  VS TO CLOSURE
~Parameter Information Block
#MNEM.UNIT       Value        Description
#---------     -----------    ---------------------------
 AV  .mps                 4.87:  Ann Velocity 
 AVMX.mps                 7.08:  Max Ann Veloc 
 AZIF.deg               108.87:  Azm, Final 
 BHAT.                  Rotary:  BHA Type 
 BROT.°/30m               0.35:  Build Rotating 
 BS  .in                  8.50:  Bit Size 
 BSZ .in                  8.50:  Bit Size 
 BTPL.psig              360.00:  Bit Press Loss 
 CABU.                     Yes:  Customer Abuse 
 COMM.                     \¸P:  Run Comments 1 
 TCS .hr                106.24:  Time Ciculation Ended 
 CV  .mps                 1.77:  Crit Velocity 
 CVMX.mps                 2.03:  Max Crit Veloc 
 DD1 .         Aykhan Agagulov:  Direct Drillr 1 
 DD2 .            Nonso Okofor:  Direct Drillr 2 
 DDSV.               Geo-Pilot:  DD Service 
 DEFF.%                  98.00:  % Det Eff 
 DLRX.°/30m               0.50:  Dogleg Rot Max 
 DLSO.°/30m               0.40:  Dogleg Oriented 
 DLSX.°/30m               0.94:  Dogleg Str Max 
 DRET.      20.30.00 08-Sep-20:  Drill End Time 
 DRST.      22.15.00 06-Sep-20:  Drill Start Tim 
 DTIM.hr                 31.31:  Time Drilling 
 EDEP.m                5790.01:  End Depth 
 ENG1.           Amrah Tahirov:  Engineer 1 
 ENG2.         Dair Mahammadov:  Engineer 2 
 ENG3.           Emil Huseynov:  Engineer 3 
 ETIM.      04.01.04 12-Sep-20:  End Time 
 FLOI.gpm               450.00:  Flow In 
 FLON.gpm               450.00:  Flow In Min 
 FLOS.cptm                2.00:  Fluid Loss 
 FLOX.gpm               450.00:  Flow In Max 
 FTRO.       Formation Presure:  FTWD Run Obj 
 HFLO.                      No:  High Flow 
 HPRE.                      No:  High Pressure 
 HTEM.                      No:  High Temp 
 HYDO.m                   1.80:  Hydro Offset 
 IFIN.deg                72.03:  Inc, Final 
 IMAX.deg                73.72:  Inc Max 
 IMIN.deg                70.94:  Inc Min 
 IMND.m                5508.52:  Inc Min Depth 
 IMXD.m                5253.60:  Inc Max Depth 
 JARR.                      No:  Jarring 
 LETM.      20.30.00 08-Sep-20:  Log End Time 
 LOST.hr                     0:  Lost Rig Time 
 LSTM.      22.15.00 06-Sep-20:  Log Start Time 
 MDCL.ppm             36000.00:  Mud Chlorides 
 MDES.     Inversion Oil/Synthetic:  Mud Desc 
 DFD .sg                  1.44:  Mud Density 
 MDMN.sg                  1.44:  Dens Mud Min 
 MDMX.sg                  1.57:  Dens Mud Max 
 MOIL.                      70:  Run Mud Oil % 
 MOWR.                   70:30:  Run Mud OWR 
 MSND.                       0:  Run Mud Sand % 
 MSOL.                      21:  Run Mud Solids% 
 DFV .spqt               68.00:  Mud Viscosity 
 MWOD.in                  6.75:  MWD Tool OD 
 MWSI.                     Yes:  Serv Intrp, MWD 
 OTIM.hr                174.84:  Time Operating 
 PCON.           Look Like New:  Pad Condition 
 PMAX.psia            10616.93:  Press Op, Max 
 PV  .cP                 50.00:  Mud PV 
 RUN .                     700:  Run Number 
 ROPA.m/hr               14.24:  ROP Avg 
 ROPN.m/hr               10.00:  ROP Min 
 ROPX.m/hr               32.00:  ROP Max 
 RPMA.rpm               120.90:  RPM Surface Avg 
 RPMN.rpm               120.00:  RPM Surface Min 
 RPMX.rpm               140.00:  RPM Surface Max 
 RRUN.                    0700:  Rig Run Number 
 RTIM.hr                  3.20:  Time Reaming 
 SAZI.deg               109.99:  Azm, Start 
 SDEP.m                5231.01:  Start Depth 
 SIDD.                      No:  Serv Intrp, DD 
 SINC.deg                73.72:  Inc, Start 
 SPPA.psig             3051.00:  SPP Avg 
 SPPN.psig             2950.00:  SPP Min 
 SPPX.psig             3250.00:  SPP Max 
 STIM.      08.00.00 05-Sep-20:  Start Time 
 SVCS.                 DD, MWD:  Services 
 SVER.                    9.20:  Sperry Version 
 TDAT.m                 559.00:  Tot Depth Attmp 
 TDDF.                      No:  Trip for DD 
 TDLG.m                 559.00:  Tot Depth Loggd 
 TFF .                      No:  Trip for Fail 
 TQAA.f-kp               26.49:  Torque Abs Avg 
 TQAN.f-kp               25.00:  Torque Abs Min 
 TQAX.f-kp               27.00:  Torque Abs Max 
 TRRT.°/30m               1.50:  Turn Rotating 
 MRT .                    HCIM:  Maximum Recorded Temperature 
 TTMX.degC               90.20:  Max Tool Temp 
 VS01.                90542671:  Virtual Str1 SN 
 VS02.                90545185:  Virtual Str2 SN 
 VS03.                90602015:  Virtual Str3 SN 
 VS04.                90515230:  Virtual Str4 SN 
 WBMN.klb                 5.00:  WOB Min 
 WOBA.klb                14.79:  WOB Avg 
 WOBX.klb                20.00:  WOB Max 
 YP  .lhf2               29.00:  Yield Point 
~Curve Information Block
#MNEM.UNIT                 API CODE     Curve Description
#---------               -----------    ---------------------------
 TIME.HHMMSS            00 000 000 000:  GT Time & Date
 GTDEPTH.m              00 000 000 000:  GT Depth
 GTPQH.psia             00 000 000 000:  GT HR Quartz Pressure
 GTTQ.degC              00 000 000 000:  GT Quartz Temperature
 GTTN.NONE              00 000 000 000:  GT Test Number
 GTET.sec               00 000 000 000:  GT Elapsed Test Time
 GTTVD.m                00 000 000 000:  GT True Vertical Depth
#Other Information
#
#WARRANTY: Halliburton will use its best efforts to furnish customers with 
#accurate information and interpretations that are part of, and incident to, the services 
#provided.  However, Halliburton cannot and does not warrant the accuracy 
#or correctness of such information and interpretations.  Under no circumstances should any 
#such information or interpretation be relied upon as the sole basis for any drilling, 
#completion, production, or financial decision or any procedure involving any risk to the 
#safety of any drilling venture, drilling rig or its crew or any other third party.  The 
#Customer has full responsibility for all drilling, completion and production operation.  
#Halliburton makes no representations or warranties, either expressed or 
#implied, including, but not limited to, the implied warranties of merchantability or fitness 
#for a particular purpose, with respect to the services rendered.  In no event will 
#Halliburton be liable for failure to obtain any particular results or for 
#any damages, including, but not limited to, indirect, special or consequential damages, 
#resulting from the use of any information or interpretation provided by Halliburton.
#
~A           TIME           GTDEPTH  GTPQH  GTTQ  GTTN  GTET   GTTVD  
# ...
   08:38:54.906.09-Sep-2020 5524.01 3700.63 77.55 6.00 276.11 2626.56
   08:38:55.106.09-Sep-2020 5524.01 3700.63 77.55 6.00 276.31 2626.56
   08:38:55.306.09-Sep-2020 5524.01 3700.65 77.55 6.00 276.51 2626.56
   08:38:55.506.09-Sep-2020 5524.01 3700.64 77.55 6.00 276.71 2626.56
   08:38:55.706.09-Sep-2020 5524.01 3700.65 77.55 6.00 276.91 2626.56
   08:38:55.906.09-Sep-2020 5524.01 3700.65 77.55 6.00 277.11 2626.56
   08:38:56.106.09-Sep-2020 5524.01 3700.65 77.55 6.00 277.31 2626.56
   08:38:56.306.09-Sep-2020 5524.01 3700.42 77.55 6.00 277.51 2626.56
   08:38:56.506.09-Sep-2020 5524.01 3700.84 77.55 6.00 277.71 2626.56
   08:38:56.706.09-Sep-2020 5524.01 3700.69 77.55 6.00 277.91 2626.56
   08:38:56.906.09-Sep-2020 5524.01 3700.68 77.55 6.00 278.11 2626.56
   08:38:57.107.09-Sep-2020 5524.01 3700.68 77.55 6.00 278.31 2626.56
   08:38:57.307.09-Sep-2020 5524.01 3700.68 77.55 6.00 278.51 2626.56
   08:38:57.507.09-Sep-2020 5524.01 3700.61 77.55 6.00 278.71 2626.56
   08:38:57.707.09-Sep-2020 5524.01 3700.67 77.55 6.00 278.91 2626.56
   08:38:57.907.09-Sep-2020 5524.01 3700.68 77.55 6.00 279.11 2626.56
   08:38:58.107.09-Sep-2020 5524.01 3700.65 77.55 6.00 279.31 2626.56
   08:38:58.307.09-Sep-2020 5524.01 3700.67 77.55 6.00 279.51 2626.56
   08:38:58.507.09-Sep-2020 5524.01 3700.67 77.55 6.00 279.71 2626.56
   08:38:58.707.09-Sep-2020 5524.01 3700.68 77.55 6.00 279.91 2626.56
   08:38:58.907.09-Sep-2020 5524.01 3700.69 77.55 6.00 280.11 2626.56
   08:38:59.107.09-Sep-2020 5524.01 3700.67 77.55 6.00 280.31 2626.56
   08:38:59.307.09-Sep-2020 5524.01 3700.66 77.55 6.00 280.51 2626.56
   08:38:59.507.09-Sep-2020 5524.01 3700.67 77.55 6.00 280.71 2626.56
   08:38:59.708.09-Sep-2020 5524.01 3700.65 77.55 6.00 280.91 2626.56
   08:38:59.908.09-Sep-2020 5524.01 3700.69 77.55 6.00 281.11 2626.56
   08:39:00.108.09-Sep-2020 5524.01 3700.69 77.55 6.00 281.31 2626.56
   08:39:00.308.09-Sep-2020 5524.01 3700.69 77.55 6.00 281.51 2626.56
   08:39:00.508.09-Sep-2020 5524.01 3700.68 77.55 6.00 281.71 2626.56
   08:39:00.708.09-Sep-2020 5524.01 3700.67 77.55 6.00 281.91 2626.56
   08:39:00.908.09-Sep-2020 5524.01 3700.78 77.55 6.00 282.11 2626.56
   08:39:01.108.09-Sep-2020 5524.01 3700.78 77.55 6.00 282.31 2626.56
   08:39:01.308.09-Sep-2020 5524.01 3700.70 77.55 6.00 282.51 2626.56
   08:39:01.508.09-Sep-2020 5524.01 3700.66 77.55 6.00 282.71 2626.56
   08:39:01.708.09-Sep-2020 5524.01 3700.78 77.55 6.00 282.91 2626.56
   08:39:01.908.09-Sep-2020 5524.01 3700.73 77.55 6.00 283.11 2626.56
   08:39:02.109.09-Sep-2020 5524.01 3700.73 77.55 6.00 283.31 2626.56
   08:39:02.309.09-Sep-2020 5524.01 3700.71 77.55 6.00 283.51 2626.56
   08:39:02.509.09-Sep-2020 5524.01 3700.69 77.55 6.00 283.71 2626.56
   08:39:02.709.09-Sep-2020 5524.01 3700.79 77.55 6.00 283.91 2626.56
   08:39:02.909.09-Sep-2020 5524.01 3700.58 77.55 6.00 284.11 2626.56
   08:39:03.109.09-Sep-2020 5524.01 3700.67 77.55 6.00 284.31 2626.56
   08:39:03.309.09-Sep-2020 5524.01 3700.34 77.55 6.00 284.51 2626.56
   08:39:03.509.09-Sep-2020 5524.01 3701.05 77.55 6.00 284.71 2626.56
   08:39:03.709.09-Sep-2020 5524.01 3700.66 77.55 6.00 284.91 2626.56
   08:39:03.909.09-Sep-2020 5524.01 3700.75 77.55 6.00 285.11 2626.56
   08:39:04.109.09-Sep-2020 5524.01 3700.75 77.55 6.00 285.31 2626.56
   08:39:04.309.09-Sep-2020 5524.01 3700.90 77.55 6.00 285.51 2626.56
   08:39:04.509.09-Sep-2020 5524.01 3700.71 77.55 6.00 285.71 2626.56
   08:39:04.710.09-Sep-2020 5524.01 3700.71 77.55 6.00 285.91 2626.56
   08:39:04.910.09-Sep-2020 5524.01 3700.70 77.55 6.00 286.11 2626.56
   08:39:05.110.09-Sep-2020 5524.01 3700.70 77.55 6.00 286.31 2626.56
   08:39:05.310.09-Sep-2020 5524.01 3700.65 77.55 6.00 286.51 2626.56
   08:39:05.510.09-Sep-2020 5524.01 3700.68 77.55 6.00 286.71 2626.56
   08:39:05.710.09-Sep-2020 5524.01 3700.70 77.55 6.00 286.91 2626.56
   08:39:05.910.09-Sep-2020 5524.01 3700.66 77.55 6.00 287.11 2626.56
   08:39:06.110.09-Sep-2020 5524.01 3700.70 77.55 6.00 287.31 2626.56
   08:39:06.310.09-Sep-2020 5524.01 3700.69 77.55 6.00 287.51 2626.56
   08:39:06.510.09-Sep-2020 5524.01 3700.69 77.55 6.00 287.71 2626.56
   08:39:06.710.09-Sep-2020 5524.01 3700.67 77.55 6.00 287.91 2626.56
   08:39:06.910.09-Sep-2020 5524.01 3700.68 77.55 6.00 288.11 2626.56
   08:39:07.111.09-Sep-2020 5524.01 3700.69 77.55 6.00 288.31 2626.56
   08:39:07.311.09-Sep-2020 5524.01 3700.70 77.55 6.00 288.51 2626.56
   08:39:07.511.09-Sep-2020 5524.01 3700.70 77.55 6.00 288.71 2626.56
   08:39:07.711.09-Sep-2020 5524.01 3700.69 77.55 6.00 288.91 2626.56
   08:39:07.911.09-Sep-2020 5524.01 3700.31 77.55 6.00 289.11 2626.56
   08:39:08.111.09-Sep-2020 5524.01 3700.31 77.55 6.00 289.31 2626.56
   08:39:08.311.09-Sep-2020 5524.01 3700.67 77.55 6.00 289.51 2626.56
   08:39:08.511.09-Sep-2020 5524.01 3700.73 77.55 6.00 289.71 2626.56
   08:39:08.711.09-Sep-2020 5524.01 3700.65 77.55 6.00 289.91 2626.56
   08:39:08.911.09-Sep-2020 5524.01 3700.72 77.55 6.00 290.11 2626.56
   08:39:09.111.09-Sep-2020 5524.01 3700.72 77.55 6.00 290.31 2626.56
   08:39:09.311.09-Sep-2020 5524.01 3700.68 77.55 6.00 290.51 2626.56
   08:39:09.511.09-Sep-2020 5524.01 3700.69 77.55 6.00 290.71 2626.56
   08:39:09.712.09-Sep-2020 5524.01 3700.67 77.55 6.00 290.91 2626.56
   08:39:09.912.09-Sep-2020 5524.01 3700.70 77.55 6.00 291.11 2626.56
   08:39:10.112.09-Sep-2020 5524.01 3700.67 77.55 6.00 291.32 2626.56
   08:39:10.312.09-Sep-2020 5524.01 3700.68 77.55 6.00 291.52 2626.56
   08:39:10.512.09-Sep-2020 5524.01 3700.69 77.55 6.00 291.72 2626.56
   08:39:10.712.09-Sep-2020 5524.01 3700.70 77.55 6.00 291.92 2626.56
   08:39:10.912.09-Sep-2020 5524.01 3700.70 77.55 6.00 292.12 2626.56
   08:39:11.112.09-Sep-2020 5524.01 3700.67 77.55 6.00 292.32 2626.56
   08:39:11.312.09-Sep-2020 5524.01 3700.79 77.55 6.00 292.52 2626.56
   08:39:11.512.09-Sep-2020 5524.01 3700.53 77.55 6.00 292.72 2626.56
   08:39:11.712.09-Sep-2020 5524.01 3700.73 77.55 6.00 292.92 2626.56
   08:39:11.912.09-Sep-2020 5524.01 3700.67 77.55 6.00 293.12 2626.56
   08:39:12.112.09-Sep-2020 5524.01 3700.67 77.55 6.00 293.32 2626.56
   08:39:12.313.09-Sep-2020 5524.01 3700.37 77.55 6.00 293.52 2626.56
   08:39:12.513.09-Sep-2020 5524.01 3700.85 77.55 6.00 293.72 2626.56
   08:39:12.713.09-Sep-2020 5524.01 3700.73 77.55 6.00 293.92 2626.56
   08:39:12.913.09-Sep-2020 5524.01 3700.73 77.55 6.00 294.12 2626.56
   08:39:13.113.09-Sep-2020 5524.01 3700.73 77.55 6.00 294.32 2626.56
   08:39:13.313.09-Sep-2020 5524.01 3700.52 77.55 6.00 294.52 2626.56
   08:39:13.513.09-Sep-2020 5524.01 3700.79 77.55 6.00 294.72 2626.56
   08:39:13.713.09-Sep-2020 5524.01 3700.70 77.55 6.00 294.92 2626.56
   08:39:13.913.09-Sep-2020 5524.01 3700.72 77.55 6.00 295.12 2626.56
   08:39:14.113.09-Sep-2020 5524.01 3700.70 77.55 6.00 295.32 2626.56
   08:39:14.313.09-Sep-2020 5524.01 3700.72 77.55 6.00 295.52 2626.56
   08:39:14.513.09-Sep-2020 5524.01 3700.61 77.55 6.00 295.72 2626.56
   08:39:14.714.09-Sep-2020 5524.01 3700.69 77.55 6.00 295.92 2626.56
   08:39:14.914.09-Sep-2020 5524.01 3700.68 77.55 6.00 296.12 2626.56
   08:39:15.114.09-Sep-2020 5524.01 3700.67 77.55 6.00 296.32 2626.56
   08:39:15.314.09-Sep-2020 5524.01 3700.70 77.55 6.00 296.52 2626.56
   08:39:15.514.09-Sep-2020 5524.01 3700.70 77.55 6.00 296.72 2626.56
   08:39:15.714.09-Sep-2020 5524.01 3700.31 77.55 6.00 296.92 2626.56
   08:39:15.914.09-Sep-2020 5524.01 3701.09 77.55 6.00 297.12 2626.56
   08:39:16.114.09-Sep-2020 5524.01 3701.09 77.55 6.00 297.32 2626.56
   08:39:16.314.09-Sep-2020 5524.01 3700.74 77.55 6.00 297.52 2626.56
   08:39:16.514.09-Sep-2020 5524.01 3700.63 77.55 6.00 297.72 2626.56
   08:39:16.714.09-Sep-2020 5524.01 3700.70 77.55 6.00 297.92 2626.56
   08:39:16.914.09-Sep-2020 5524.01 3700.67 77.55 6.00 298.12 2626.56
   08:39:17.114.09-Sep-2020 5524.01 3700.67 77.55 6.00 298.32 2626.56
   08:39:17.315.09-Sep-2020 5524.01 3700.68 77.55 6.00 298.52 2626.56
   08:39:17.515.09-Sep-2020 5524.01 3700.67 77.55 6.00 298.72 2626.56
   08:39:17.715.09-Sep-2020 5524.01 3700.71 77.55 6.00 298.92 2626.56
