~Version Information
 VERS.                  2.0:   CWLS log ASCII Standard -VERSION 2.0
 WRAP.                   NO:   One line per depth step
~Well Information Block
#MNEM.UNIT     VALUE/NAME     DESCRIPTION
#---------     -----------    ---------------------------
 STRT.S             14:18:02 09-Sep-20: START TIME 14:18:02 09-Sep-20
 STOP.S             14:26:13 09-Sep-20: STOP TIME  14:26:13 09-Sep-20
 STEP.S                   0.00: STEP TIME
 NULL.                 -999.25: NULL VALUE
 MDS .        Operator Entered:  MAG DATA SOURCE
 PDAT.          Mean Sea Level:  PERMANENT DATUM
 DCON.         Sperry Drilling:  DIRECTNL CONTR
 RIG .              West Azeri:  RIG NAME
 WELL.           C40 (Slot 20):  WELL NAME
 SRVC.     Turan Drilling Engineering:  CONTRACTOR
 FLD .                     ACG:  FIELD NAME
 CTRY.              Azerbaijan:  COUNTRY NAME
 PROV.                    Baku:  PROVINCE
 STAT.                    Baku:  STATE NAME
 REGN.                   EESSA:  REGION
 BASE.              Azerbaijan:  LOGGING EQUIPMENT BASE LOCATION
 COMP.     BP Exploration (Caspian Sea) Ltd:  COMPANY
 WTYP.                Deviated:  WELL TYPE
 SON .        AZ-XX-0906344804:  JOB NUMBER
 FTOP.          Formation Tops:  FORM TOPS DESC
 ILTD.               Lithology:  INTERP LTH DESC
 SVYD.                  Survey:  SURVEY DESC
 DMOD.             Drill Model:  DRILL MOD DESC
 HPTY.       Minimum Curvature:  HOLE POS TYPE
 NREF.                    Grid:  NORTH REFERENCE
 SPUD.               01-Jan-20:  SPUD DATE
 DATE.      00.59.44 15-Sep-20:  END TIME
 STIM.      12.00.00 12-Jun-20:  START TIME
 DMF .             Drill Floor:  DRILL MEAS FROM
 DFST.                        :  DIST FSL TEXT
 DFWT.                        :  DIST FWL TEXT
 API .                        :  API NUMBER
 CNTY.                        :  COUNTY
 UWI .                        :  UNIQUE WELL IDENTIFIER
 LOC .                        :  LOCATION
 LMF .             Drill Floor:  LOG MEASURED FROM
 VSNS.m                   2.88:  VERT SEC N/S
 VSEW.m                  -3.84:  VERT SEC E/W
 AGAP.m                  43.42:  AIR GAP
 APD .m                  43.42:  DEPTH ABOVE PD
 WDMS.m                 118.27:  WD ELEV
 EGL .m                   0.00:  GROUND ELEVATION
 EPD .m                   0.00:  ELEVATION
 AZTC.deg                 6.23:  AZM TOTAL CORR
 GRDC.deg                 0.20:  GRID CORRECTION
 MDEC.deg                 6.43:  MAGNETIC DECL
 MDIP.deg                59.49:  MAGNETIC DIP
 MFLD.nT              50277.00:  MAGNETIC FIELD
 GVFD.g                   1.00:  GRAVITY FIELD
 VSDR.deg               173.20:  VERT SEC DIRECT
 TDD .m                5790.01:  TOTAL DEPTH (DRILLER)
 SDEP.m                5231.01:  START DEPTH
 DFSL.m                   0.00:  DISTANCE FSL
 DFWL.m                   0.00:  DISTANCE FWL
 UTMY.m             4435808.83:  UTM Y
 UTMX.m              526266.40:  UTM X
 WHEW.m                  -3.84:  WELL HEAD E/W
 WHNS.m                   2.88:  WELL HEAD N/S
 LONG.deg                51.31:  LONGITUDE
 LATI.deg                40.06:  LATITUDE
 TVDS.m                  43.42:  TVDSS CORRECTN
 DEP .m                 430.08:  DEPTH
 EKB .m                  43.42:  KB ELEVATION
 EDF .m                  43.42:  DF ELEVATION
 TDL .m                 559.00:  TOTAL DEPTH (LOGGER)
 MAGU.                 1849381:  MAGUTM CHECKSUM
 VSC .                       0:  VS TO CLOSURE
~Parameter Information Block
#MNEM.UNIT       Value        Description
#---------     -----------    ---------------------------
 AV  .mps                 4.87:  Ann Velocity 
 AVMX.mps                 7.08:  Max Ann Veloc 
 AZIF.deg               108.87:  Azm, Final 
 BHAT.                  Rotary:  BHA Type 
 BROT.°/30m               0.35:  Build Rotating 
 BS  .in                  8.50:  Bit Size 
 BSZ .in                  8.50:  Bit Size 
 BTPL.psig              360.00:  Bit Press Loss 
 CABU.                     Yes:  Customer Abuse 
 TCS .hr                106.24:  Time Ciculation Ended 
 CV  .mps                 1.77:  Crit Velocity 
 CVMX.mps                 2.03:  Max Crit Veloc 
 DD1 .         Aykhan Agagulov:  Direct Drillr 1 
 DD2 .            Nonso Okofor:  Direct Drillr 2 
 DDSV.               Geo-Pilot:  DD Service 
 DEFF.%                  98.00:  % Det Eff 
 DLRX.°/30m               0.50:  Dogleg Rot Max 
 DLSO.°/30m               0.40:  Dogleg Oriented 
 DLSX.°/30m               0.94:  Dogleg Str Max 
 DRET.      20.30.00 08-Sep-20:  Drill End Time 
 DRST.      22.15.00 06-Sep-20:  Drill Start Tim 
 DTIM.hr                 31.31:  Time Drilling 
 EDEP.m                5790.01:  End Depth 
 ENG1.           Amrah Tahirov:  Engineer 1 
 ENG2.         Dair Mahammadov:  Engineer 2 
 ENG3.           Emil Huseynov:  Engineer 3 
 ETIM.      04.01.04 12-Sep-20:  End Time 
 FLOI.gpm               450.00:  Flow In 
 FLON.gpm               450.00:  Flow In Min 
 FLOS.cptm                2.00:  Fluid Loss 
 FLOX.gpm               450.00:  Flow In Max 
 FTRO.       Formation Presure:  FTWD Run Obj 
 HFLO.                      No:  High Flow 
 HPRE.                      No:  High Pressure 
 HTEM.                      No:  High Temp 
 HYDO.m                   1.80:  Hydro Offset 
 IFIN.deg                72.03:  Inc, Final 
 IMAX.deg                73.72:  Inc Max 
 IMIN.deg                70.94:  Inc Min 
 IMND.m                5508.52:  Inc Min Depth 
 IMXD.m                5253.60:  Inc Max Depth 
 JARR.                      No:  Jarring 
 LETM.      20.30.00 08-Sep-20:  Log End Time 
 LOST.hr                     0:  Lost Rig Time 
 LSTM.      22.15.00 06-Sep-20:  Log Start Time 
 MDCL.ppm             36000.00:  Mud Chlorides 
 MDES.     Inversion Oil/Synthetic:  Mud Desc 
 DFD .sg                  1.44:  Mud Density 
 MDMN.sg                  1.44:  Dens Mud Min 
 MDMX.sg                  1.57:  Dens Mud Max 
 MOIL.                      70:  Run Mud Oil % 
 MOWR.                   70:30:  Run Mud OWR 
 MSND.                       0:  Run Mud Sand % 
 MSOL.                      21:  Run Mud Solids% 
 DFV .spqt               68.00:  Mud Viscosity 
 MWOD.in                  6.75:  MWD Tool OD 
 MWSI.                     Yes:  Serv Intrp, MWD 
 OTIM.hr                174.84:  Time Operating 
 PCON.           Look Like New:  Pad Condition 
 PMAX.psia            10616.93:  Press Op, Max 
 PV  .cP                 50.00:  Mud PV 
 RUN .                     700:  Run Number 
 ROPA.m/hr               14.24:  ROP Avg 
 ROPN.m/hr               10.00:  ROP Min 
 ROPX.m/hr               32.00:  ROP Max 
 RPMA.rpm               120.90:  RPM Surface Avg 
 RPMN.rpm               120.00:  RPM Surface Min 
 RPMX.rpm               140.00:  RPM Surface Max 
 RRUN.                    0700:  Rig Run Number 
 RTIM.hr                  3.20:  Time Reaming 
 SAZI.deg               109.99:  Azm, Start 
 SDEP.m                5231.01:  Start Depth 
 SIDD.                      No:  Serv Intrp, DD 
 SINC.deg                73.72:  Inc, Start 
 SPPA.psig             3051.00:  SPP Avg 
 SPPN.psig             2950.00:  SPP Min 
 SPPX.psig             3250.00:  SPP Max 
 STIM.      08.00.00 05-Sep-20:  Start Time 
 SVCS.                 DD, MWD:  Services 
 SVER.                    9.20:  Sperry Version 
 TDAT.m                 559.00:  Tot Depth Attmp 
 TDDF.                      No:  Trip for DD 
 TDLG.m                 559.00:  Tot Depth Loggd 
 TFF .                      No:  Trip for Fail 
 TQAA.f-kp               26.49:  Torque Abs Avg 
 TQAN.f-kp               25.00:  Torque Abs Min 
 TQAX.f-kp               27.00:  Torque Abs Max 
 TRRT.°/30m               1.50:  Turn Rotating 
 MRT .                    HCIM:  Maximum Recorded Temperature 
 TTMX.degC               90.20:  Max Tool Temp 
 VS01.                90542671:  Virtual Str1 SN 
 VS02.                90545185:  Virtual Str2 SN 
 VS03.                90602015:  Virtual Str3 SN 
 VS04.                90515230:  Virtual Str4 SN 
 WBMN.klb                 5.00:  WOB Min 
 WOBA.klb                14.79:  WOB Avg 
 WOBX.klb                20.00:  WOB Max 
 YP  .lhf2               29.00:  Yield Point 
~Curve Information Block
#MNEM.UNIT                 API CODE     Curve Description
#---------               -----------    ---------------------------
 TIME.HHMMSS            00 000 000 000:  GT Time & Date
 GTDEPTH.m              00 000 000 000:  GT Depth
 GTPQH.psia             00 000 000 000:  GT HR Quartz Pressure
 GTTQ.degC              00 000 000 000:  GT Quartz Temperature
 GTTN.NONE              00 000 000 000:  GT Test Number
 GTET.sec               00 000 000 000:  GT Elapsed Test Time
 GTTVD.m                00 000 000 000:  GT True Vertical Depth
#Other Information
#
#WARRANTY: Halliburton will use its best efforts to furnish customers with 
#accurate information and interpretations that are part of, and incident to, the services 
#provided.  However, Halliburton cannot and does not warrant the accuracy 
#or correctness of such information and interpretations.  Under no circumstances should any 
#such information or interpretation be relied upon as the sole basis for any drilling, 
#completion, production, or financial decision or any procedure involving any risk to the 
#safety of any drilling venture, drilling rig or its crew or any other third party.  The 
#Customer has full responsibility for all drilling, completion and production operation.  
#Halliburton makes no representations or warranties, either expressed or 
#implied, including, but not limited to, the implied warranties of merchantability or fitness 
#for a particular purpose, with respect to the services rendered.  In no event will 
#Halliburton be liable for failure to obtain any particular results or for 
#any damages, including, but not limited to, indirect, special or consequential damages, 
#resulting from the use of any information or interpretation provided by Halliburton.
#
~A           TIME           GTDEPTH  GTPQH  GTTQ  GTTN   GTET   GTTVD  
# ...
   14:21:03.131.09-Sep-2020 5408.01  607.15 75.21 16.00 180.91 2589.60
   14:21:03.331.09-Sep-2020 5408.01  607.57 75.21 16.00 181.11 2589.60
   14:21:03.531.09-Sep-2020 5408.01  607.57 75.21 16.00 181.31 2589.60
   14:21:03.731.09-Sep-2020 5408.01  607.65 75.21 16.00 181.51 2589.60
   14:21:03.932.09-Sep-2020 5408.01  602.35 75.21 16.00 181.71 2589.60
   14:21:04.132.09-Sep-2020 5408.01  600.76 75.21 16.00 181.91 2589.60
   14:21:04.332.09-Sep-2020 5408.01  602.18 75.21 16.00 182.11 2589.60
   14:21:04.532.09-Sep-2020 5408.01  602.18 75.21 16.00 182.31 2589.60
   14:21:04.732.09-Sep-2020 5408.01  604.95 75.21 16.00 182.51 2589.60
   14:21:04.932.09-Sep-2020 5408.01  603.77 75.21 16.00 182.71 2589.60
   14:21:05.132.09-Sep-2020 5408.01  604.58 75.21 16.00 182.91 2589.60
   14:21:05.332.09-Sep-2020 5408.01  605.32 75.21 16.00 183.11 2589.60
   14:21:05.533.09-Sep-2020 5408.01  605.32 75.21 16.00 183.31 2589.60
   14:21:05.733.09-Sep-2020 5408.01  606.44 75.21 16.00 183.51 2589.60
   14:21:05.933.09-Sep-2020 5408.01  607.37 75.20 16.00 183.71 2589.60
   14:21:06.133.09-Sep-2020 5408.01  604.88 75.20 16.00 183.91 2589.60
   14:21:06.333.09-Sep-2020 5408.01  602.54 75.20 16.00 184.11 2589.60
   14:21:06.533.09-Sep-2020 5408.01  603.60 75.20 16.00 184.31 2589.60
   14:21:06.733.09-Sep-2020 5408.01  604.49 75.20 16.00 184.51 2589.60
   14:21:06.933.09-Sep-2020 5408.01  605.67 75.20 16.00 184.71 2589.60
   14:21:07.134.09-Sep-2020 5408.01  606.31 75.20 16.00 184.91 2589.60
   14:21:07.334.09-Sep-2020 5408.01  606.77 75.20 16.00 185.11 2589.60
   14:21:07.534.09-Sep-2020 5408.01  606.77 75.20 16.00 185.31 2589.60
   14:21:07.734.09-Sep-2020 5408.01  607.83 75.20 16.00 185.51 2589.60
   14:21:07.934.09-Sep-2020 5408.01  608.08 75.20 16.00 185.71 2589.60
   14:21:08.134.09-Sep-2020 5408.01  608.73 75.20 16.00 185.91 2589.60
   14:21:08.334.09-Sep-2020 5408.01  609.48 75.20 16.00 186.11 2589.60
   14:21:08.534.09-Sep-2020 5408.01  609.48 75.20 16.00 186.31 2589.60
   14:21:08.735.09-Sep-2020 5408.01  610.43 75.20 16.00 186.51 2589.60
   14:21:08.935.09-Sep-2020 5408.01  609.56 75.20 16.00 186.71 2589.60
   14:21:09.135.09-Sep-2020 5408.01  603.31 75.20 16.00 186.91 2589.60
   14:21:09.335.09-Sep-2020 5408.01  602.58 75.20 16.00 187.11 2589.60
   14:21:09.535.09-Sep-2020 5408.01  602.58 75.20 16.00 187.31 2589.60
   14:21:09.735.09-Sep-2020 5408.01  584.75 75.19 16.00 187.51 2589.60
   14:21:09.935.09-Sep-2020 5408.01  579.85 75.19 16.00 187.71 2589.60
   14:21:10.135.09-Sep-2020 5408.01  578.92 75.19 16.00 187.91 2589.60
   14:21:10.336.09-Sep-2020 5408.01  579.50 75.19 16.00 188.11 2589.60
   14:21:10.536.09-Sep-2020 5408.01  578.87 75.19 16.00 188.32 2589.60
   14:21:10.736.09-Sep-2020 5408.01  578.13 75.19 16.00 188.52 2589.60
   14:21:10.936.09-Sep-2020 5408.01  578.19 75.19 16.00 188.72 2589.60
   14:21:11.136.09-Sep-2020 5408.01  578.64 75.19 16.00 188.92 2589.60
   14:21:11.336.09-Sep-2020 5408.01  579.32 75.19 16.00 189.12 2589.60
   14:21:11.536.09-Sep-2020 5408.01  579.32 75.19 16.00 189.32 2589.60
   14:21:11.736.09-Sep-2020 5408.01  580.41 75.19 16.00 189.52 2589.60
   14:21:11.937.09-Sep-2020 5408.01  580.88 75.19 16.00 189.72 2589.60
   14:21:12.137.09-Sep-2020 5408.01  581.36 75.19 16.00 189.92 2589.60
   14:21:12.337.09-Sep-2020 5408.01  582.01 75.19 16.00 190.12 2589.60
   14:21:12.537.09-Sep-2020 5408.01  582.01 75.19 16.00 190.32 2589.60
   14:21:12.737.09-Sep-2020 5408.01  585.66 75.19 16.00 190.52 2589.60
   14:21:12.937.09-Sep-2020 5408.01  586.01 75.19 16.00 190.72 2589.60
   14:21:13.137.09-Sep-2020 5408.01  587.17 75.19 16.00 190.92 2589.60
   14:21:13.337.09-Sep-2020 5408.01  587.24 75.19 16.00 191.12 2589.60
   14:21:13.537.09-Sep-2020 5408.01  587.24 75.19 16.00 191.32 2589.60
   14:21:13.738.09-Sep-2020 5408.01  588.44 75.19 16.00 191.52 2589.60
   14:21:13.938.09-Sep-2020 5408.01  589.11 75.19 16.00 191.72 2589.60
   14:21:14.138.09-Sep-2020 5408.01  589.30 75.19 16.00 191.92 2589.60
   14:21:14.338.09-Sep-2020 5408.01  590.02 75.19 16.00 192.12 2589.60
   14:21:14.538.09-Sep-2020 5408.01  590.65 75.19 16.00 192.32 2589.60
   14:21:14.738.09-Sep-2020 5408.01  591.22 75.19 16.00 192.52 2589.60
   14:21:14.938.09-Sep-2020 5408.01  591.99 75.19 16.00 192.72 2589.60
   14:21:15.138.09-Sep-2020 5408.01  592.13 75.19 16.00 192.92 2589.60
   14:21:15.339.09-Sep-2020 5408.01  592.58 75.19 16.00 193.12 2589.60
   14:21:15.539.09-Sep-2020 5408.01  592.58 75.19 16.00 193.32 2589.60
   14:21:15.739.09-Sep-2020 5408.01  593.96 75.19 16.00 193.52 2589.60
   14:21:15.939.09-Sep-2020 5408.01  594.37 75.19 16.00 193.72 2589.60
   14:21:16.139.09-Sep-2020 5408.01  595.19 75.19 16.00 193.92 2589.60
   14:21:16.339.09-Sep-2020 5408.01  595.50 75.19 16.00 194.12 2589.60
   14:21:16.539.09-Sep-2020 5408.01  595.50 75.19 16.00 194.32 2589.60
   14:21:16.739.09-Sep-2020 5408.01  596.23 75.19 16.00 194.52 2589.60
   14:21:16.940.09-Sep-2020 5408.01  597.26 75.19 16.00 194.72 2589.60
   14:21:17.140.09-Sep-2020 5408.01  597.63 75.19 16.00 194.92 2589.60
   14:21:17.340.09-Sep-2020 5408.01  598.10 75.19 16.00 195.12 2589.60
   14:21:17.540.09-Sep-2020 5408.01  598.10 75.19 16.00 195.32 2589.60
   14:21:17.740.09-Sep-2020 5408.01  599.16 75.19 16.00 195.52 2589.60
   14:21:17.940.09-Sep-2020 5408.01  599.64 75.19 16.00 195.72 2589.60
   14:21:18.140.09-Sep-2020 5408.01  599.33 75.19 16.00 195.92 2589.60
   14:21:18.340.09-Sep-2020 5408.01  600.88 75.19 16.00 196.12 2589.60
   14:21:18.541.09-Sep-2020 5408.01  601.36 75.19 16.00 196.32 2589.60
   14:21:18.741.09-Sep-2020 5408.01  601.77 75.19 16.00 196.52 2589.60
   14:21:18.941.09-Sep-2020 5408.01  602.07 75.19 16.00 196.72 2589.60
   14:21:19.141.09-Sep-2020 5408.01  602.83 75.19 16.00 196.92 2589.60
   14:21:19.341.09-Sep-2020 5408.01  603.20 75.19 16.00 197.12 2589.60
   14:21:19.541.09-Sep-2020 5408.01  603.20 75.19 16.00 197.32 2589.60
   14:21:19.741.09-Sep-2020 5408.01  604.05 75.19 16.00 197.52 2589.60
   14:21:19.941.09-Sep-2020 5408.01  604.47 75.19 16.00 197.72 2589.60
   14:21:20.142.09-Sep-2020 5408.01  604.94 75.19 16.00 197.92 2589.60
   14:21:20.342.09-Sep-2020 5408.01  605.39 75.19 16.00 198.12 2589.60
   14:21:20.542.09-Sep-2020 5408.01  605.39 75.19 16.00 198.32 2589.60
   14:21:20.742.09-Sep-2020 5408.01  606.34 75.19 16.00 198.52 2589.60
   14:21:20.942.09-Sep-2020 5408.01  606.81 75.19 16.00 198.72 2589.60
   14:21:21.142.09-Sep-2020 5408.01  607.20 75.19 16.00 198.92 2589.60
   14:21:21.342.09-Sep-2020 5408.01  607.58 75.19 16.00 199.12 2589.60
   14:21:21.542.09-Sep-2020 5408.01  607.58 75.19 16.00 199.32 2589.60
   14:21:21.743.09-Sep-2020 5408.01  608.24 75.19 16.00 199.52 2589.60
   14:21:21.943.09-Sep-2020 5408.01  608.53 75.19 16.00 199.72 2589.60
   14:21:22.143.09-Sep-2020 5408.01  609.56 75.19 16.00 199.92 2589.60
   14:21:22.343.09-Sep-2020 5408.01  609.84 75.19 16.00 200.12 2589.60
   14:21:22.543.09-Sep-2020 5408.01  609.84 75.19 16.00 200.32 2589.60
   14:21:22.743.09-Sep-2020 5408.01  610.94 75.19 16.00 200.52 2589.60
   14:21:22.943.09-Sep-2020 5408.01  611.14 75.19 16.00 200.72 2589.60
   14:21:23.143.09-Sep-2020 5408.01  611.47 75.19 16.00 200.92 2589.60
   14:21:23.343.09-Sep-2020 5408.01  611.89 75.19 16.00 201.12 2589.60
   14:21:23.544.09-Sep-2020 5408.01  611.89 75.19 16.00 201.32 2589.60
   14:21:23.744.09-Sep-2020 5408.01  612.80 75.19 16.00 201.52 2589.60
   14:21:23.944.09-Sep-2020 5408.01  613.17 75.19 16.00 201.72 2589.60
   14:21:24.144.09-Sep-2020 5408.01  613.52 75.19 16.00 201.92 2589.60
   14:21:24.344.09-Sep-2020 5408.01  613.92 75.19 16.00 202.12 2589.60
   14:21:24.544.09-Sep-2020 5408.01  613.92 75.19 16.00 202.32 2589.60
   14:21:24.744.09-Sep-2020 5408.01  614.74 75.19 16.00 202.52 2589.60
   14:21:24.944.09-Sep-2020 5408.01  614.91 75.19 16.00 202.72 2589.60
   14:21:25.145.09-Sep-2020 5408.01  615.14 75.19 16.00 202.92 2589.60
   14:21:25.345.09-Sep-2020 5408.01  616.02 75.19 16.00 203.12 2589.60
   14:21:25.545.09-Sep-2020 5408.01  616.02 75.19 16.00 203.32 2589.60
