~Version Information
 VERS.                  2.0:   CWLS log ASCII Standard -VERSION 2.0
 WRAP.                   NO:   One line per depth step
~Well Information Block
#MNEM.UNIT     VALUE/NAME     DESCRIPTION
#---------     -----------    ---------------------------
 STRT.S             08:34:18 09-Sep-20: START TIME 08:34:18 09-Sep-20
 STOP.S             08:41:20 09-Sep-20: STOP TIME  08:41:20 09-Sep-20
 STEP.S                   0.00: STEP TIME
 NULL.                 -999.25: NULL VALUE
 MDS .        Operator Entered:  MAG DATA SOURCE
 PDAT.          Mean Sea Level:  PERMANENT DATUM
 DCON.         Sperry Drilling:  DIRECTNL CONTR
 RIG .              West Azeri:  RIG NAME
 WELL.           C40 (Slot 20):  WELL NAME
 SRVC.     Turan Drilling Engineering:  CONTRACTOR
 FLD .                     ACG:  FIELD NAME
 CTRY.              Azerbaijan:  COUNTRY NAME
 PROV.                    Baku:  PROVINCE
 STAT.                    Baku:  STATE NAME
 REGN.                   EESSA:  REGION
 BASE.              Azerbaijan:  LOGGING EQUIPMENT BASE LOCATION
 COMP.     BP Exploration (Caspian Sea) Ltd:  COMPANY
 WTYP.                Deviated:  WELL TYPE
 SON .        AZ-XX-0906344804:  JOB NUMBER
 FTOP.          Formation Tops:  FORM TOPS DESC
 ILTD.               Lithology:  INTERP LTH DESC
 SVYD.                  Survey:  SURVEY DESC
 DMOD.             Drill Model:  DRILL MOD DESC
 HPTY.       Minimum Curvature:  HOLE POS TYPE
 NREF.                    Grid:  NORTH REFERENCE
 SPUD.               01-Jan-20:  SPUD DATE
 DATE.      00.59.44 15-Sep-20:  END TIME
 STIM.      12.00.00 12-Jun-20:  START TIME
 DMF .             Drill Floor:  DRILL MEAS FROM
 DFST.                        :  DIST FSL TEXT
 DFWT.                        :  DIST FWL TEXT
 API .                        :  API NUMBER
 CNTY.                        :  COUNTY
 UWI .                        :  UNIQUE WELL IDENTIFIER
 LOC .                        :  LOCATION
 LMF .             Drill Floor:  LOG MEASURED FROM
 VSNS.m                   2.88:  VERT SEC N/S
 VSEW.m                  -3.84:  VERT SEC E/W
 AGAP.m                  43.42:  AIR GAP
 APD .m                  43.42:  DEPTH ABOVE PD
 WDMS.m                 118.27:  WD ELEV
 EGL .m                   0.00:  GROUND ELEVATION
 EPD .m                   0.00:  ELEVATION
 AZTC.deg                 6.23:  AZM TOTAL CORR
 GRDC.deg                 0.20:  GRID CORRECTION
 MDEC.deg                 6.43:  MAGNETIC DECL
 MDIP.deg                59.49:  MAGNETIC DIP
 MFLD.nT              50277.00:  MAGNETIC FIELD
 GVFD.g                   1.00:  GRAVITY FIELD
 VSDR.deg               173.20:  VERT SEC DIRECT
 TDD .m                5790.01:  TOTAL DEPTH (DRILLER)
 SDEP.m                5231.01:  START DEPTH
 DFSL.m                   0.00:  DISTANCE FSL
 DFWL.m                   0.00:  DISTANCE FWL
 UTMY.m             4435808.83:  UTM Y
 UTMX.m              526266.40:  UTM X
 WHEW.m                  -3.84:  WELL HEAD E/W
 WHNS.m                   2.88:  WELL HEAD N/S
 LONG.deg                51.31:  LONGITUDE
 LATI.deg                40.06:  LATITUDE
 TVDS.m                  43.42:  TVDSS CORRECTN
 DEP .m                 430.08:  DEPTH
 EKB .m                  43.42:  KB ELEVATION
 EDF .m                  43.42:  DF ELEVATION
 TDL .m                 559.00:  TOTAL DEPTH (LOGGER)
 MAGU.                 1849381:  MAGUTM CHECKSUM
 VSC .                       0:  VS TO CLOSURE
~Parameter Information Block
#MNEM.UNIT       Value        Description
#---------     -----------    ---------------------------
 AV  .mps                 4.87:  Ann Velocity 
 AVMX.mps                 7.08:  Max Ann Veloc 
 AZIF.deg               108.87:  Azm, Final 
 BHAT.                  Rotary:  BHA Type 
 BROT.°/30m               0.35:  Build Rotating 
 BS  .in                  8.50:  Bit Size 
 BSZ .in                  8.50:  Bit Size 
 BTPL.psig              360.00:  Bit Press Loss 
 CABU.                     Yes:  Customer Abuse 
 COMM.                     \¸P:  Run Comments 1 
 TCS .hr                106.24:  Time Ciculation Ended 
 CV  .mps                 1.77:  Crit Velocity 
 CVMX.mps                 2.03:  Max Crit Veloc 
 DD1 .         Aykhan Agagulov:  Direct Drillr 1 
 DD2 .            Nonso Okofor:  Direct Drillr 2 
 DDSV.               Geo-Pilot:  DD Service 
 DEFF.%                  98.00:  % Det Eff 
 DLRX.°/30m               0.50:  Dogleg Rot Max 
 DLSO.°/30m               0.40:  Dogleg Oriented 
 DLSX.°/30m               0.94:  Dogleg Str Max 
 DRET.      20.30.00 08-Sep-20:  Drill End Time 
 DRST.      22.15.00 06-Sep-20:  Drill Start Tim 
 DTIM.hr                 31.31:  Time Drilling 
 EDEP.m                5790.01:  End Depth 
 ENG1.           Amrah Tahirov:  Engineer 1 
 ENG2.         Dair Mahammadov:  Engineer 2 
 ENG3.           Emil Huseynov:  Engineer 3 
 ETIM.      04.01.04 12-Sep-20:  End Time 
 FLOI.gpm               450.00:  Flow In 
 FLON.gpm               450.00:  Flow In Min 
 FLOS.cptm                2.00:  Fluid Loss 
 FLOX.gpm               450.00:  Flow In Max 
 FTRO.       Formation Presure:  FTWD Run Obj 
 HFLO.                      No:  High Flow 
 HPRE.                      No:  High Pressure 
 HTEM.                      No:  High Temp 
 HYDO.m                   1.80:  Hydro Offset 
 IFIN.deg                72.03:  Inc, Final 
 IMAX.deg                73.72:  Inc Max 
 IMIN.deg                70.94:  Inc Min 
 IMND.m                5508.52:  Inc Min Depth 
 IMXD.m                5253.60:  Inc Max Depth 
 JARR.                      No:  Jarring 
 LETM.      20.30.00 08-Sep-20:  Log End Time 
 LOST.hr                     0:  Lost Rig Time 
 LSTM.      22.15.00 06-Sep-20:  Log Start Time 
 MDCL.ppm             36000.00:  Mud Chlorides 
 MDES.     Inversion Oil/Synthetic:  Mud Desc 
 DFD .sg                  1.44:  Mud Density 
 MDMN.sg                  1.44:  Dens Mud Min 
 MDMX.sg                  1.57:  Dens Mud Max 
 MOIL.                      70:  Run Mud Oil % 
 MOWR.                   70:30:  Run Mud OWR 
 MSND.                       0:  Run Mud Sand % 
 MSOL.                      21:  Run Mud Solids% 
 DFV .spqt               68.00:  Mud Viscosity 
 MWOD.in                  6.75:  MWD Tool OD 
 MWSI.                     Yes:  Serv Intrp, MWD 
 OTIM.hr                174.84:  Time Operating 
 PCON.           Look Like New:  Pad Condition 
 PMAX.psia            10616.93:  Press Op, Max 
 PV  .cP                 50.00:  Mud PV 
 RUN .                     700:  Run Number 
 ROPA.m/hr               14.24:  ROP Avg 
 ROPN.m/hr               10.00:  ROP Min 
 ROPX.m/hr               32.00:  ROP Max 
 RPMA.rpm               120.90:  RPM Surface Avg 
 RPMN.rpm               120.00:  RPM Surface Min 
 RPMX.rpm               140.00:  RPM Surface Max 
 RRUN.                    0700:  Rig Run Number 
 RTIM.hr                  3.20:  Time Reaming 
 SAZI.deg               109.99:  Azm, Start 
 SDEP.m                5231.01:  Start Depth 
 SIDD.                      No:  Serv Intrp, DD 
 SINC.deg                73.72:  Inc, Start 
 SPPA.psig             3051.00:  SPP Avg 
 SPPN.psig             2950.00:  SPP Min 
 SPPX.psig             3250.00:  SPP Max 
 STIM.      08.00.00 05-Sep-20:  Start Time 
 SVCS.                 DD, MWD:  Services 
 SVER.                    9.20:  Sperry Version 
 TDAT.m                 559.00:  Tot Depth Attmp 
 TDDF.                      No:  Trip for DD 
 TDLG.m                 559.00:  Tot Depth Loggd 
 TFF .                      No:  Trip for Fail 
 TQAA.f-kp               26.49:  Torque Abs Avg 
 TQAN.f-kp               25.00:  Torque Abs Min 
 TQAX.f-kp               27.00:  Torque Abs Max 
 TRRT.°/30m               1.50:  Turn Rotating 
 MRT .                    HCIM:  Maximum Recorded Temperature 
 TTMX.degC               90.20:  Max Tool Temp 
 VS01.                90542671:  Virtual Str1 SN 
 VS02.                90545185:  Virtual Str2 SN 
 VS03.                90602015:  Virtual Str3 SN 
 VS04.                90515230:  Virtual Str4 SN 
 WBMN.klb                 5.00:  WOB Min 
 WOBA.klb                14.79:  WOB Avg 
 WOBX.klb                20.00:  WOB Max 
 YP  .lhf2               29.00:  Yield Point 
~Curve Information Block
#MNEM.UNIT                 API CODE     Curve Description
#---------               -----------    ---------------------------
 TIME.HHMMSS            00 000 000 000:  GT Time & Date
 GTDEPTH.m              00 000 000 000:  GT Depth
 GTPQH.psia             00 000 000 000:  GT HR Quartz Pressure
 GTTQ.degC              00 000 000 000:  GT Quartz Temperature
 GTTN.NONE              00 000 000 000:  GT Test Number
 GTET.sec               00 000 000 000:  GT Elapsed Test Time
 GTTVD.m                00 000 000 000:  GT True Vertical Depth
#Other Information
#
#WARRANTY: Halliburton will use its best efforts to furnish customers with 
#accurate information and interpretations that are part of, and incident to, the services 
#provided.  However, Halliburton cannot and does not warrant the accuracy 
#or correctness of such information and interpretations.  Under no circumstances should any 
#such information or interpretation be relied upon as the sole basis for any drilling, 
#completion, production, or financial decision or any procedure involving any risk to the 
#safety of any drilling venture, drilling rig or its crew or any other third party.  The 
#Customer has full responsibility for all drilling, completion and production operation.  
#Halliburton makes no representations or warranties, either expressed or 
#implied, including, but not limited to, the implied warranties of merchantability or fitness 
#for a particular purpose, with respect to the services rendered.  In no event will 
#Halliburton be liable for failure to obtain any particular results or for 
#any damages, including, but not limited to, indirect, special or consequential damages, 
#resulting from the use of any information or interpretation provided by Halliburton.
#
~A           TIME           GTDEPTH  GTPQH  GTTQ  GTTN  GTET   GTTVD  
# ...
   08:39:40.924.09-Sep-2020 5524.01 3700.68 77.55 6.00 322.13 2626.56
   08:39:41.124.09-Sep-2020 5524.01 3700.68 77.55 6.00 322.33 2626.56
   08:39:41.324.09-Sep-2020 5524.01 3700.65 77.55 6.00 322.53 2626.56
   08:39:41.524.09-Sep-2020 5524.01 3700.66 77.55 6.00 322.73 2626.56
   08:39:41.724.09-Sep-2020 5524.01 3700.66 77.55 6.00 322.93 2626.56
   08:39:41.924.09-Sep-2020 5524.01 3700.68 77.55 6.00 323.13 2626.56
   08:39:42.124.09-Sep-2020 5524.01 3700.68 77.55 6.00 323.33 2626.56
   08:39:42.324.09-Sep-2020 5524.01 3700.67 77.55 6.00 323.53 2626.56
   08:39:42.524.09-Sep-2020 5524.01 3700.49 77.55 6.00 323.73 2626.56
   08:39:42.725.09-Sep-2020 5524.01 3700.81 77.55 6.00 323.93 2626.56
   08:39:42.925.09-Sep-2020 5524.01 3700.71 77.55 6.00 324.13 2626.56
   08:39:43.125.09-Sep-2020 5524.01 3700.68 77.55 6.00 324.33 2626.56
   08:39:43.325.09-Sep-2020 5524.01 3700.69 77.55 6.00 324.53 2626.56
   08:39:43.525.09-Sep-2020 5524.01 3700.72 77.55 6.00 324.73 2626.56
   08:39:43.725.09-Sep-2020 5524.01 3700.60 77.55 6.00 324.93 2626.56
   08:39:43.925.09-Sep-2020 5524.01 3700.67 77.55 6.00 325.13 2626.56
   08:39:44.125.09-Sep-2020 5524.01 3700.67 77.55 6.00 325.33 2626.56
   08:39:44.325.09-Sep-2020 5524.01 3700.66 77.55 6.00 325.53 2626.56
   08:39:44.525.09-Sep-2020 5524.01 3700.67 77.55 6.00 325.73 2626.56
   08:39:44.725.09-Sep-2020 5524.01 3700.66 77.55 6.00 325.93 2626.56
   08:39:44.925.09-Sep-2020 5524.01 3700.66 77.55 6.00 326.13 2626.56
   08:39:45.126.09-Sep-2020 5524.01 3700.66 77.55 6.00 326.33 2626.56
   08:39:45.326.09-Sep-2020 5524.01 3700.69 77.55 6.00 326.53 2626.56
   08:39:45.526.09-Sep-2020 5524.01 3700.68 77.55 6.00 326.73 2626.56
   08:39:45.726.09-Sep-2020 5524.01 3700.67 77.55 6.00 326.93 2626.56
   08:39:45.926.09-Sep-2020 5524.01 3700.61 77.55 6.00 327.13 2626.56
   08:39:46.126.09-Sep-2020 5524.01 3700.70 77.55 6.00 327.33 2626.56
   08:39:46.326.09-Sep-2020 5524.01 3700.69 77.55 6.00 327.53 2626.56
   08:39:46.526.09-Sep-2020 5524.01 3700.68 77.55 6.00 327.73 2626.56
   08:39:46.726.09-Sep-2020 5524.01 3700.65 77.55 6.00 327.93 2626.56
   08:39:46.926.09-Sep-2020 5524.01 3700.67 77.55 6.00 328.13 2626.56
   08:39:47.126.09-Sep-2020 5524.01 3700.67 77.55 6.00 328.33 2626.56
   08:39:47.326.09-Sep-2020 5524.01 3700.53 77.55 6.00 328.53 2626.56
   08:39:47.526.09-Sep-2020 5524.01 3700.68 77.55 6.00 328.73 2626.56
   08:39:47.727.09-Sep-2020 5524.01 3700.66 77.55 6.00 328.93 2626.56
   08:39:47.927.09-Sep-2020 5524.01 3700.79 77.55 6.00 329.13 2626.56
   08:39:48.127.09-Sep-2020 5524.01 3700.79 77.55 6.00 329.33 2626.56
   08:39:48.327.09-Sep-2020 5524.01 3700.48 77.55 6.00 329.53 2626.56
   08:39:48.527.09-Sep-2020 5524.01 3700.68 77.55 6.00 329.73 2626.56
   08:39:48.727.09-Sep-2020 5524.01 3700.68 77.55 6.00 329.93 2626.56
   08:39:48.927.09-Sep-2020 5524.01 3700.77 77.55 6.00 330.13 2626.56
   08:39:49.127.09-Sep-2020 5524.01 3700.77 77.55 6.00 330.33 2626.56
   08:39:49.327.09-Sep-2020 5524.01 3700.66 77.55 6.00 330.53 2626.56
   08:39:49.527.09-Sep-2020 5524.01 3700.30 77.55 6.00 330.73 2626.56
   08:39:49.727.09-Sep-2020 5524.01 3701.06 77.55 6.00 330.93 2626.56
   08:39:49.927.09-Sep-2020 5524.01 3700.65 77.55 6.00 331.13 2626.56
   08:39:50.127.09-Sep-2020 5524.01 3700.72 77.55 6.00 331.33 2626.56
   08:39:50.328.09-Sep-2020 5524.01 3700.45 77.55 6.00 331.53 2626.56
   08:39:50.528.09-Sep-2020 5524.01 3700.84 77.55 6.00 331.73 2626.56
   08:39:50.728.09-Sep-2020 5524.01 3700.70 77.55 6.00 331.93 2626.56
   08:39:50.928.09-Sep-2020 5524.01 3700.70 77.55 6.00 332.13 2626.56
   08:39:51.128.09-Sep-2020 5524.01 3700.69 77.55 6.00 332.33 2626.56
   08:39:51.328.09-Sep-2020 5524.01 3700.69 77.55 6.00 332.53 2626.56
   08:39:51.528.09-Sep-2020 5524.01 3700.62 77.55 6.00 332.73 2626.56
   08:39:51.728.09-Sep-2020 5524.01 3700.67 77.55 6.00 332.93 2626.56
   08:39:51.928.09-Sep-2020 5524.01 3700.68 77.55 6.00 333.13 2626.56
   08:39:52.128.09-Sep-2020 5524.01 3700.68 77.55 6.00 333.33 2626.56
   08:39:52.328.09-Sep-2020 5524.01 3700.68 77.55 6.00 333.53 2626.56
   08:39:52.528.09-Sep-2020 5524.01 3700.67 77.55 6.00 333.73 2626.56
   08:39:52.729.09-Sep-2020 5524.01 3700.67 77.55 6.00 333.93 2626.56
   08:39:52.929.09-Sep-2020 5524.01 3700.64 77.55 6.00 334.13 2626.56
   08:39:53.129.09-Sep-2020 5524.01 3700.64 77.55 6.00 334.33 2626.56
   08:39:53.329.09-Sep-2020 5524.01 3700.66 77.55 6.00 334.53 2626.56
   08:39:53.529.09-Sep-2020 5524.01 3700.67 77.55 6.00 334.73 2626.56
   08:39:53.729.09-Sep-2020 5524.01 3700.68 77.55 6.00 334.93 2626.56
   08:39:53.929.09-Sep-2020 5524.01 3700.68 77.55 6.00 335.13 2626.56
   08:39:54.129.09-Sep-2020 5524.01 3700.28 77.55 6.00 335.33 2626.56
   08:39:54.329.09-Sep-2020 5524.01 3701.06 77.55 6.00 335.53 2626.56
   08:39:54.529.09-Sep-2020 5524.01 3700.65 77.55 6.00 335.73 2626.56
   08:39:54.729.09-Sep-2020 5524.01 3700.70 77.55 6.00 335.93 2626.56
   08:39:54.929.09-Sep-2020 5524.01 3700.63 77.55 6.00 336.13 2626.56
   08:39:55.129.09-Sep-2020 5524.01 3700.70 77.55 6.00 336.33 2626.56
   08:39:55.330.09-Sep-2020 5524.01 3700.64 77.55 6.00 336.53 2626.56
   08:39:55.530.09-Sep-2020 5524.01 3700.67 77.55 6.00 336.73 2626.56
   08:39:55.730.09-Sep-2020 5524.01 3700.67 77.55 6.00 336.93 2626.56
   08:39:55.930.09-Sep-2020 5524.01 3700.64 77.55 6.00 337.13 2626.56
   08:39:56.130.09-Sep-2020 5524.01 3700.64 77.55 6.00 337.33 2626.56
   08:39:56.330.09-Sep-2020 5524.01 3700.64 77.55 6.00 337.53 2626.56
   08:39:56.530.09-Sep-2020 5524.01 3700.65 77.55 6.00 337.73 2626.56
   08:39:56.730.09-Sep-2020 5524.01 3700.67 77.55 6.00 337.93 2626.56
   08:39:56.930.09-Sep-2020 5524.01 3700.68 77.55 6.00 338.13 2626.56
   08:39:57.130.09-Sep-2020 5524.01 3700.68 77.55 6.00 338.33 2626.56
   08:39:57.330.09-Sep-2020 5524.01 3700.64 77.55 6.00 338.53 2626.56
   08:39:57.530.09-Sep-2020 5524.01 3700.79 77.55 6.00 338.73 2626.56
   08:39:57.730.09-Sep-2020 5524.01 3700.49 77.55 6.00 338.93 2626.56
   08:39:57.931.09-Sep-2020 5524.01 3700.69 77.55 6.00 339.13 2626.56
   08:39:58.131.09-Sep-2020 5524.01 3700.67 77.55 6.00 339.33 2626.56
   08:39:58.331.09-Sep-2020 5524.01 3700.76 77.55 6.00 339.53 2626.56
   08:39:58.531.09-Sep-2020 5524.01 3700.39 77.55 6.00 339.73 2626.56
   08:39:58.731.09-Sep-2020 5524.01 3700.78 77.55 6.00 339.93 2626.56
   08:39:58.931.09-Sep-2020 5524.01 3700.71 77.55 6.00 340.13 2626.56
   08:39:59.131.09-Sep-2020 5524.01 3700.69 77.55 6.00 340.33 2626.56
   08:39:59.331.09-Sep-2020 5524.01 3700.68 77.55 6.00 340.53 2626.56
   08:39:59.531.09-Sep-2020 5524.01 3700.55 77.55 6.00 340.73 2626.56
   08:39:59.731.09-Sep-2020 5524.01 3700.73 77.55 6.00 340.93 2626.56
   08:39:59.931.09-Sep-2020 5524.01 3700.67 77.55 6.00 341.13 2626.56
   08:40:00.131.09-Sep-2020 5524.01 3700.67 77.55 6.00 341.33 2626.56
   08:40:00.332.09-Sep-2020 5524.01 3700.66 77.54 6.00 341.53 2626.56
   08:40:00.532.09-Sep-2020 5524.01 3700.72 77.54 6.00 341.73 2626.56
   08:40:00.732.09-Sep-2020 5524.01 3700.58 77.54 6.00 341.94 2626.56
   08:40:00.932.09-Sep-2020 5524.01 3700.65 77.55 6.00 342.14 2626.56
   08:40:01.132.09-Sep-2020 5524.01 3700.65 77.55 6.00 342.34 2626.56
   08:40:01.332.09-Sep-2020 5524.01 3700.70 77.54 6.00 342.54 2626.56
   08:40:01.532.09-Sep-2020 5524.01 3700.69 77.54 6.00 342.74 2626.56
   08:40:01.732.09-Sep-2020 5524.01 3700.68 77.54 6.00 342.94 2626.56
   08:40:01.932.09-Sep-2020 5524.01 3700.23 77.54 6.00 343.14 2626.56
   08:40:02.132.09-Sep-2020 5524.01 3700.23 77.54 6.00 343.34 2626.56
   08:40:02.332.09-Sep-2020 5524.01 3700.64 77.54 6.00 343.54 2626.56
   08:40:02.532.09-Sep-2020 5524.01 3700.71 77.54 6.00 343.74 2626.56
   08:40:02.732.09-Sep-2020 5524.01 3700.61 77.54 6.00 343.94 2626.56
   08:40:02.933.09-Sep-2020 5524.01 3700.67 77.54 6.00 344.14 2626.56
   08:40:03.133.09-Sep-2020 5524.01 3700.66 77.54 6.00 344.34 2626.56
   08:40:03.333.09-Sep-2020 5524.01 3700.67 77.54 6.00 344.54 2626.56
   08:40:03.533.09-Sep-2020 5524.01 3700.65 77.54 6.00 344.74 2626.56
   08:40:03.733.09-Sep-2020 5524.01 3700.65 77.54 6.00 344.94 2626.56
