~Version Information
 VERS.                  2.0:   CWLS log ASCII Standard -VERSION 2.0
 WRAP.                   NO:   One line per depth step
~Well Information Block
#MNEM.UNIT     VALUE/NAME     DESCRIPTION
#---------     -----------    ---------------------------
 STRT.S             18:19:19 09-Sep-20: START TIME 18:19:19 09-Sep-20
 STOP.S             18:27:34 09-Sep-20: STOP TIME  18:27:34 09-Sep-20
 STEP.S                   0.00: STEP TIME
 NULL.                 -999.25: NULL VALUE
 MDS .        Operator Entered:  MAG DATA SOURCE
 PDAT.          Mean Sea Level:  PERMANENT DATUM
 DCON.         Sperry Drilling:  DIRECTNL CONTR
 RIG .              West Azeri:  RIG NAME
 WELL.           C40 (Slot 20):  WELL NAME
 SRVC.     Turan Drilling Engineering:  CONTRACTOR
 FLD .                     ACG:  FIELD NAME
 CTRY.              Azerbaijan:  COUNTRY NAME
 PROV.                    Baku:  PROVINCE
 STAT.                    Baku:  STATE NAME
 REGN.                   EESSA:  REGION
 BASE.              Azerbaijan:  LOGGING EQUIPMENT BASE LOCATION
 COMP.     BP Exploration (Caspian Sea) Ltd:  COMPANY
 WTYP.                Deviated:  WELL TYPE
 SON .        AZ-XX-0906344804:  JOB NUMBER
 FTOP.          Formation Tops:  FORM TOPS DESC
 ILTD.               Lithology:  INTERP LTH DESC
 SVYD.                  Survey:  SURVEY DESC
 DMOD.             Drill Model:  DRILL MOD DESC
 HPTY.       Minimum Curvature:  HOLE POS TYPE
 NREF.                    Grid:  NORTH REFERENCE
 SPUD.               01-Jan-20:  SPUD DATE
 DATE.      00.59.44 15-Sep-20:  END TIME
 STIM.      12.00.00 12-Jun-20:  START TIME
 DMF .             Drill Floor:  DRILL MEAS FROM
 DFST.                        :  DIST FSL TEXT
 DFWT.                        :  DIST FWL TEXT
 API .                        :  API NUMBER
 CNTY.                        :  COUNTY
 UWI .                        :  UNIQUE WELL IDENTIFIER
 LOC .                        :  LOCATION
 LMF .             Drill Floor:  LOG MEASURED FROM
 VSNS.m                   2.88:  VERT SEC N/S
 VSEW.m                  -3.84:  VERT SEC E/W
 AGAP.m                  43.42:  AIR GAP
 APD .m                  43.42:  DEPTH ABOVE PD
 WDMS.m                 118.27:  WD ELEV
 EGL .m                   0.00:  GROUND ELEVATION
 EPD .m                   0.00:  ELEVATION
 AZTC.deg                 6.23:  AZM TOTAL CORR
 GRDC.deg                 0.20:  GRID CORRECTION
 MDEC.deg                 6.43:  MAGNETIC DECL
 MDIP.deg                59.49:  MAGNETIC DIP
 MFLD.nT              50277.00:  MAGNETIC FIELD
 GVFD.g                   1.00:  GRAVITY FIELD
 VSDR.deg               173.20:  VERT SEC DIRECT
 TDD .m                5790.01:  TOTAL DEPTH (DRILLER)
 SDEP.m                5231.01:  START DEPTH
 DFSL.m                   0.00:  DISTANCE FSL
 DFWL.m                   0.00:  DISTANCE FWL
 UTMY.m             4435808.83:  UTM Y
 UTMX.m              526266.40:  UTM X
 WHEW.m                  -3.84:  WELL HEAD E/W
 WHNS.m                   2.88:  WELL HEAD N/S
 LONG.deg                51.31:  LONGITUDE
 LATI.deg                40.06:  LATITUDE
 TVDS.m                  43.42:  TVDSS CORRECTN
 DEP .m                 430.08:  DEPTH
 EKB .m                  43.42:  KB ELEVATION
 EDF .m                  43.42:  DF ELEVATION
 TDL .m                 559.00:  TOTAL DEPTH (LOGGER)
 MAGU.                 1849381:  MAGUTM CHECKSUM
 VSC .                       0:  VS TO CLOSURE
~Parameter Information Block
#MNEM.UNIT       Value        Description
#---------     -----------    ---------------------------
 AV  .mps                 4.87:  Ann Velocity 
 AVMX.mps                 7.08:  Max Ann Veloc 
 AZIF.deg               108.87:  Azm, Final 
 BHAT.                  Rotary:  BHA Type 
 BROT.°/30m               0.35:  Build Rotating 
 BS  .in                  8.50:  Bit Size 
 BSZ .in                  8.50:  Bit Size 
 BTPL.psig              360.00:  Bit Press Loss 
 CABU.                     Yes:  Customer Abuse 
 TCS .hr                106.24:  Time Ciculation Ended 
 CV  .mps                 1.77:  Crit Velocity 
 CVMX.mps                 2.03:  Max Crit Veloc 
 DD1 .         Aykhan Agagulov:  Direct Drillr 1 
 DD2 .            Nonso Okofor:  Direct Drillr 2 
 DDSV.               Geo-Pilot:  DD Service 
 DEFF.%                  98.00:  % Det Eff 
 DLRX.°/30m               0.50:  Dogleg Rot Max 
 DLSO.°/30m               0.40:  Dogleg Oriented 
 DLSX.°/30m               0.94:  Dogleg Str Max 
 DRET.      20.30.00 08-Sep-20:  Drill End Time 
 DRST.      22.15.00 06-Sep-20:  Drill Start Tim 
 DTIM.hr                 31.31:  Time Drilling 
 EDEP.m                5790.01:  End Depth 
 ENG1.           Amrah Tahirov:  Engineer 1 
 ENG2.         Dair Mahammadov:  Engineer 2 
 ENG3.           Emil Huseynov:  Engineer 3 
 ETIM.      04.01.04 12-Sep-20:  End Time 
 FLOI.gpm               450.00:  Flow In 
 FLON.gpm               450.00:  Flow In Min 
 FLOS.cptm                2.00:  Fluid Loss 
 FLOX.gpm               450.00:  Flow In Max 
 FTRO.       Formation Presure:  FTWD Run Obj 
 HFLO.                      No:  High Flow 
 HPRE.                      No:  High Pressure 
 HTEM.                      No:  High Temp 
 HYDO.m                   1.80:  Hydro Offset 
 IFIN.deg                72.03:  Inc, Final 
 IMAX.deg                73.72:  Inc Max 
 IMIN.deg                70.94:  Inc Min 
 IMND.m                5508.52:  Inc Min Depth 
 IMXD.m                5253.60:  Inc Max Depth 
 JARR.                      No:  Jarring 
 LETM.      20.30.00 08-Sep-20:  Log End Time 
 LOST.hr                     0:  Lost Rig Time 
 LSTM.      22.15.00 06-Sep-20:  Log Start Time 
 MDCL.ppm             36000.00:  Mud Chlorides 
 MDES.     Inversion Oil/Synthetic:  Mud Desc 
 DFD .sg                  1.44:  Mud Density 
 MDMN.sg                  1.44:  Dens Mud Min 
 MDMX.sg                  1.57:  Dens Mud Max 
 MOIL.                      70:  Run Mud Oil % 
 MOWR.                   70:30:  Run Mud OWR 
 MSND.                       0:  Run Mud Sand % 
 MSOL.                      21:  Run Mud Solids% 
 DFV .spqt               68.00:  Mud Viscosity 
 MWOD.in                  6.75:  MWD Tool OD 
 MWSI.                     Yes:  Serv Intrp, MWD 
 OTIM.hr                174.84:  Time Operating 
 PCON.           Look Like New:  Pad Condition 
 PMAX.psia            10616.93:  Press Op, Max 
 PV  .cP                 50.00:  Mud PV 
 RUN .                     700:  Run Number 
 ROPA.m/hr               14.24:  ROP Avg 
 ROPN.m/hr               10.00:  ROP Min 
 ROPX.m/hr               32.00:  ROP Max 
 RPMA.rpm               120.90:  RPM Surface Avg 
 RPMN.rpm               120.00:  RPM Surface Min 
 RPMX.rpm               140.00:  RPM Surface Max 
 RRUN.                    0700:  Rig Run Number 
 RTIM.hr                  3.20:  Time Reaming 
 SAZI.deg               109.99:  Azm, Start 
 SDEP.m                5231.01:  Start Depth 
 SIDD.                      No:  Serv Intrp, DD 
 SINC.deg                73.72:  Inc, Start 
 SPPA.psig             3051.00:  SPP Avg 
 SPPN.psig             2950.00:  SPP Min 
 SPPX.psig             3250.00:  SPP Max 
 STIM.      08.00.00 05-Sep-20:  Start Time 
 SVCS.                 DD, MWD:  Services 
 SVER.                    9.20:  Sperry Version 
 TDAT.m                 559.00:  Tot Depth Attmp 
 TDDF.                      No:  Trip for DD 
 TDLG.m                 559.00:  Tot Depth Loggd 
 TFF .                      No:  Trip for Fail 
 TQAA.f-kp               26.49:  Torque Abs Avg 
 TQAN.f-kp               25.00:  Torque Abs Min 
 TQAX.f-kp               27.00:  Torque Abs Max 
 TRRT.°/30m               1.50:  Turn Rotating 
 MRT .                    HCIM:  Maximum Recorded Temperature 
 TTMX.degC               90.20:  Max Tool Temp 
 VS01.                90542671:  Virtual Str1 SN 
 VS02.                90545185:  Virtual Str2 SN 
 VS03.                90602015:  Virtual Str3 SN 
 VS04.                90515230:  Virtual Str4 SN 
 WBMN.klb                 5.00:  WOB Min 
 WOBA.klb                14.79:  WOB Avg 
 WOBX.klb                20.00:  WOB Max 
 YP  .lhf2               29.00:  Yield Point 
~Curve Information Block
#MNEM.UNIT                 API CODE     Curve Description
#---------               -----------    ---------------------------
 TIME.HHMMSS            00 000 000 000:  GT Time & Date
 GTDEPTH.m              00 000 000 000:  GT Depth
 GTPQH.psia             00 000 000 000:  GT HR Quartz Pressure
 GTTQ.degC              00 000 000 000:  GT Quartz Temperature
 GTTN.NONE              00 000 000 000:  GT Test Number
 GTET.sec               00 000 000 000:  GT Elapsed Test Time
 GTTVD.m                00 000 000 000:  GT True Vertical Depth
#Other Information
#
#WARRANTY: Halliburton will use its best efforts to furnish customers with 
#accurate information and interpretations that are part of, and incident to, the services 
#provided.  However, Halliburton cannot and does not warrant the accuracy 
#or correctness of such information and interpretations.  Under no circumstances should any 
#such information or interpretation be relied upon as the sole basis for any drilling, 
#completion, production, or financial decision or any procedure involving any risk to the 
#safety of any drilling venture, drilling rig or its crew or any other third party.  The 
#Customer has full responsibility for all drilling, completion and production operation.  
#Halliburton makes no representations or warranties, either expressed or 
#implied, including, but not limited to, the implied warranties of merchantability or fitness 
#for a particular purpose, with respect to the services rendered.  In no event will 
#Halliburton be liable for failure to obtain any particular results or for 
#any damages, including, but not limited to, indirect, special or consequential damages, 
#resulting from the use of any information or interpretation provided by Halliburton.
#
~A           TIME           GTDEPTH  GTPQH  GTTQ  GTTN   GTET   GTTVD  
# ...
   18:24:36.094.09-Sep-2020 5281.01 1079.74 74.53 21.00 316.15 2550.59
   18:24:36.294.09-Sep-2020 5281.01 1035.73 74.53 21.00 316.35 2550.59
   18:24:36.494.09-Sep-2020 5281.01 1009.21 74.53 21.00 316.55 2550.59
   18:24:36.694.09-Sep-2020 5281.01  976.99 74.53 21.00 316.75 2550.59
   18:24:36.893.09-Sep-2020 5281.01  976.99 74.53 21.00 316.95 2550.59
   18:24:37.093.09-Sep-2020 5281.01  936.17 74.52 21.00 317.15 2550.59
   18:24:37.293.09-Sep-2020 5281.01  913.52 74.52 21.00 317.35 2550.59
   18:24:37.493.09-Sep-2020 5281.01  892.19 74.52 21.00 317.55 2550.59
   18:24:37.693.09-Sep-2020 5281.01  870.99 74.51 21.00 317.75 2550.59
   18:24:37.893.09-Sep-2020 5281.01  845.16 74.51 21.00 317.95 2550.59
   18:24:38.093.09-Sep-2020 5281.01  823.10 74.51 21.00 318.15 2550.59
   18:24:38.292.09-Sep-2020 5281.01  814.42 74.51 21.00 318.35 2550.59
   18:24:38.492.09-Sep-2020 5281.01  796.01 74.50 21.00 318.55 2550.59
   18:24:38.692.09-Sep-2020 5281.01  784.83 74.50 21.00 318.75 2550.59
   18:24:38.892.09-Sep-2020 5281.01  784.83 74.50 21.00 318.95 2550.59
   18:24:39.092.09-Sep-2020 5281.01  779.35 74.50 21.00 319.15 2550.59
   18:24:39.292.09-Sep-2020 5281.01  773.10 74.49 21.00 319.35 2550.59
   18:24:39.491.09-Sep-2020 5281.01  784.88 74.49 21.00 319.55 2550.59
   18:24:39.691.09-Sep-2020 5281.01  786.21 74.49 21.00 319.75 2550.59
   18:24:39.891.09-Sep-2020 5281.01  786.21 74.49 21.00 319.95 2550.59
   18:24:40.091.09-Sep-2020 5281.01  797.48 74.48 21.00 320.15 2550.59
   18:24:40.291.09-Sep-2020 5281.01  801.20 74.48 21.00 320.35 2550.59
   18:24:40.491.09-Sep-2020 5281.01  787.76 74.48 21.00 320.55 2550.59
   18:24:40.690.09-Sep-2020 5281.01  777.53 74.48 21.00 320.75 2550.59
   18:24:40.890.09-Sep-2020 5281.01  777.53 74.48 21.00 320.95 2550.59
   18:24:41.090.09-Sep-2020 5281.01  768.03 74.47 21.00 321.15 2550.59
   18:24:41.290.09-Sep-2020 5281.01  757.78 74.47 21.00 321.35 2550.59
   18:24:41.490.09-Sep-2020 5281.01  758.00 74.47 21.00 321.55 2550.59
   18:24:41.690.09-Sep-2020 5281.01  756.30 74.47 21.00 321.75 2550.59
   18:24:41.890.09-Sep-2020 5281.01  756.30 74.47 21.00 321.95 2550.59
   18:24:42.089.09-Sep-2020 5281.01  747.50 74.47 21.00 322.15 2550.59
   18:24:42.289.09-Sep-2020 5281.01  738.50 74.46 21.00 322.35 2550.59
   18:24:42.489.09-Sep-2020 5281.01  740.05 74.46 21.00 322.55 2550.59
   18:24:42.689.09-Sep-2020 5281.01  821.03 74.46 21.00 322.75 2550.59
   18:24:42.889.09-Sep-2020 5281.01  821.03 74.46 21.00 322.95 2550.59
   18:24:43.089.09-Sep-2020 5281.01 1255.98 74.46 21.00 323.15 2550.59
   18:24:43.288.09-Sep-2020 5281.01 1452.23 74.46 21.00 323.35 2550.59
   18:24:43.488.09-Sep-2020 5281.01 1631.27 74.46 21.00 323.55 2550.59
   18:24:43.688.09-Sep-2020 5281.01 1817.58 74.46 21.00 323.75 2550.59
   18:24:43.888.09-Sep-2020 5281.01 1817.58 74.46 21.00 323.95 2550.59
   18:24:44.088.09-Sep-2020 5281.01 2122.99 74.45 21.00 324.15 2550.59
   18:24:44.288.09-Sep-2020 5281.01 2250.75 74.45 21.00 324.35 2550.59
   18:24:44.487.09-Sep-2020 5281.01 2366.54 74.45 21.00 324.55 2550.59
   18:24:44.687.09-Sep-2020 5281.01 2471.68 74.45 21.00 324.75 2550.59
   18:24:44.887.09-Sep-2020 5281.01 2471.68 74.45 21.00 324.95 2550.59
   18:24:45.087.09-Sep-2020 5281.01 2659.88 74.45 21.00 325.14 2550.59
   18:24:45.287.09-Sep-2020 5281.01 2744.54 74.45 21.00 325.34 2550.59
   18:24:45.487.09-Sep-2020 5281.01 2823.22 74.46 21.00 325.54 2550.59
   18:24:45.687.09-Sep-2020 5281.01 2895.81 74.46 21.00 325.74 2550.59
   18:24:45.886.09-Sep-2020 5281.01 2895.81 74.46 21.00 325.94 2550.59
   18:24:46.086.09-Sep-2020 5281.01 3026.33 74.46 21.00 326.14 2550.59
   18:24:46.286.09-Sep-2020 5281.01 3085.01 74.46 21.00 326.34 2550.59
   18:24:46.486.09-Sep-2020 5281.01 3139.83 74.46 21.00 326.54 2550.59
   18:24:46.686.09-Sep-2020 5281.01 3191.27 74.46 21.00 326.74 2550.59
   18:24:46.886.09-Sep-2020 5281.01 3191.27 74.46 21.00 326.94 2550.59
   18:24:47.085.09-Sep-2020 5281.01 3284.57 74.46 21.00 327.14 2550.59
   18:24:47.285.09-Sep-2020 5281.01 3327.08 74.47 21.00 327.34 2550.59
   18:24:47.485.09-Sep-2020 5281.01 3366.96 74.47 21.00 327.54 2550.59
   18:24:47.685.09-Sep-2020 5281.01 3404.40 74.47 21.00 327.74 2550.59
   18:24:47.885.09-Sep-2020 5281.01 3404.40 74.47 21.00 327.94 2550.59
   18:24:48.085.09-Sep-2020 5281.01 3472.49 74.47 21.00 328.14 2550.59
   18:24:48.285.09-Sep-2020 5281.01 3502.02 74.48 21.00 328.34 2550.59
   18:24:48.484.09-Sep-2020 5281.01 3532.43 74.48 21.00 328.54 2550.59
   18:24:48.684.09-Sep-2020 5281.01 3562.10 74.48 21.00 328.74 2550.59
   18:24:48.884.09-Sep-2020 5281.01 3562.10 74.48 21.00 328.94 2550.59
   18:24:49.084.09-Sep-2020 5281.01 3614.87 74.48 21.00 329.14 2550.59
   18:24:49.284.09-Sep-2020 5281.01 3638.90 74.49 21.00 329.34 2550.59
   18:24:49.484.09-Sep-2020 5281.01 3661.28 74.49 21.00 329.54 2550.59
   18:24:49.683.09-Sep-2020 5281.01 3681.95 74.49 21.00 329.74 2550.59
   18:24:49.883.09-Sep-2020 5281.01 3681.95 74.49 21.00 329.94 2550.59
   18:24:50.083.09-Sep-2020 5281.01 3720.16 74.50 21.00 330.14 2550.59
   18:24:50.283.09-Sep-2020 5281.01 3737.75 74.50 21.00 330.34 2550.59
   18:24:50.483.09-Sep-2020 5281.01 3754.35 74.50 21.00 330.54 2550.59
   18:24:50.683.09-Sep-2020 5281.01 3769.12 74.50 21.00 330.74 2550.59
   18:24:50.882.09-Sep-2020 5281.01 3769.12 74.50 21.00 330.94 2550.59
   18:24:51.082.09-Sep-2020 5281.01 3797.96 74.51 21.00 331.14 2550.59
   18:24:51.282.09-Sep-2020 5281.01 3810.13 74.51 21.00 331.34 2550.59
   18:24:51.482.09-Sep-2020 5281.01 3821.45 74.51 21.00 331.54 2550.59
   18:24:51.682.09-Sep-2020 5281.01 3836.17 74.51 21.00 331.74 2550.59
   18:24:51.882.09-Sep-2020 5281.01 3836.17 74.51 21.00 331.94 2550.59
   18:24:52.082.09-Sep-2020 5281.01 3863.61 74.52 21.00 332.14 2550.59
   18:24:52.281.09-Sep-2020 5281.01 3875.96 74.52 21.00 332.34 2550.59
   18:24:52.481.09-Sep-2020 5281.01 3887.09 74.52 21.00 332.54 2550.59
   18:24:52.681.09-Sep-2020 5281.01 3893.61 74.52 21.00 332.74 2550.59
   18:24:52.881.09-Sep-2020 5281.01 3893.61 74.52 21.00 332.94 2550.59
   18:24:53.081.09-Sep-2020 5281.01 3913.48 74.52 21.00 333.14 2550.59
   18:24:53.281.09-Sep-2020 5281.01 3922.20 74.53 21.00 333.34 2550.59
   18:24:53.480.09-Sep-2020 5281.01 3930.55 74.53 21.00 333.54 2550.59
   18:24:53.680.09-Sep-2020 5281.01 3937.72 74.53 21.00 333.74 2550.59
   18:24:53.880.09-Sep-2020 5281.01 3937.72 74.53 21.00 333.94 2550.59
   18:24:54.080.09-Sep-2020 5281.01 3947.41 74.53 21.00 334.14 2550.59
   18:24:54.280.09-Sep-2020 5281.01 3953.61 74.53 21.00 334.34 2550.59
   18:24:54.480.09-Sep-2020 5281.01 3959.93 74.53 21.00 334.54 2550.59
   18:24:54.679.09-Sep-2020 5281.01 3965.49 74.54 21.00 334.74 2550.59
   18:24:54.879.09-Sep-2020 5281.01 3965.49 74.54 21.00 334.94 2550.59
   18:24:55.079.09-Sep-2020 5281.01 3975.28 74.54 21.00 335.14 2550.59
   18:24:55.279.09-Sep-2020 5281.01 3979.75 74.54 21.00 335.34 2550.59
   18:24:55.479.09-Sep-2020 5281.01 3982.07 74.54 21.00 335.54 2550.59
   18:24:55.679.09-Sep-2020 5281.01 3983.65 74.54 21.00 335.74 2550.59
   18:24:55.879.09-Sep-2020 5281.01 3987.22 74.54 21.00 335.94 2550.59
   18:24:56.078.09-Sep-2020 5281.01 3991.34 74.54 21.00 336.14 2550.59
   18:24:56.278.09-Sep-2020 5281.01 3994.74 74.55 21.00 336.34 2550.59
   18:24:56.478.09-Sep-2020 5281.01 3998.23 74.55 21.00 336.54 2550.59
   18:24:56.678.09-Sep-2020 5281.01 3999.13 74.55 21.00 336.74 2550.59
   18:24:56.878.09-Sep-2020 5281.01 3999.13 74.55 21.00 336.94 2550.59
   18:24:57.078.09-Sep-2020 5281.01 4004.69 74.55 21.00 337.14 2550.59
   18:24:57.277.09-Sep-2020 5281.01 4007.55 74.55 21.00 337.34 2550.59
   18:24:57.477.09-Sep-2020 5281.01 4009.85 74.55 21.00 337.54 2550.59
   18:24:57.677.09-Sep-2020 5281.01 4012.57 74.55 21.00 337.74 2550.59
   18:24:57.877.09-Sep-2020 5281.01 4012.57 74.55 21.00 337.93 2550.59
   18:24:58.077.09-Sep-2020 5281.01 4016.30 74.55 21.00 338.13 2550.59
   18:24:58.277.09-Sep-2020 5281.01 4018.05 74.55 21.00 338.33 2550.59
   18:24:58.477.09-Sep-2020 5281.01 4019.69 74.55 21.00 338.53 2550.59
