~Version Information
 VERS.                  2.0:   CWLS log ASCII Standard -VERSION 2.0
 WRAP.                   NO:   One line per depth step
~Well Information Block
#MNEM.UNIT     VALUE/NAME     DESCRIPTION
#---------     -----------    ---------------------------
 STRT.S             21:21:48 09-Sep-20: START TIME 21:21:48 09-Sep-20
 STOP.S             21:29:57 09-Sep-20: STOP TIME  21:29:57 09-Sep-20
 STEP.S                   0.00: STEP TIME
 NULL.                 -999.25: NULL VALUE
 MDS .        Operator Entered:  MAG DATA SOURCE
 PDAT.          Mean Sea Level:  PERMANENT DATUM
 DCON.         Sperry Drilling:  DIRECTNL CONTR
 RIG .              West Azeri:  RIG NAME
 WELL.           C40 (Slot 20):  WELL NAME
 SRVC.     Turan Drilling Engineering:  CONTRACTOR
 FLD .                     ACG:  FIELD NAME
 CTRY.              Azerbaijan:  COUNTRY NAME
 PROV.                    Baku:  PROVINCE
 STAT.                    Baku:  STATE NAME
 REGN.                   EESSA:  REGION
 BASE.              Azerbaijan:  LOGGING EQUIPMENT BASE LOCATION
 COMP.     BP Exploration (Caspian Sea) Ltd:  COMPANY
 WTYP.                Deviated:  WELL TYPE
 SON .        AZ-XX-0906344804:  JOB NUMBER
 FTOP.          Formation Tops:  FORM TOPS DESC
 ILTD.               Lithology:  INTERP LTH DESC
 SVYD.                  Survey:  SURVEY DESC
 DMOD.             Drill Model:  DRILL MOD DESC
 HPTY.       Minimum Curvature:  HOLE POS TYPE
 NREF.                    Grid:  NORTH REFERENCE
 SPUD.               01-Jan-20:  SPUD DATE
 DATE.      00.59.44 15-Sep-20:  END TIME
 STIM.      12.00.00 12-Jun-20:  START TIME
 DMF .             Drill Floor:  DRILL MEAS FROM
 DFST.                        :  DIST FSL TEXT
 DFWT.                        :  DIST FWL TEXT
 API .                        :  API NUMBER
 CNTY.                        :  COUNTY
 UWI .                        :  UNIQUE WELL IDENTIFIER
 LOC .                        :  LOCATION
 LMF .             Drill Floor:  LOG MEASURED FROM
 VSNS.m                   2.88:  VERT SEC N/S
 VSEW.m                  -3.84:  VERT SEC E/W
 AGAP.m                  43.42:  AIR GAP
 APD .m                  43.42:  DEPTH ABOVE PD
 WDMS.m                 118.27:  WD ELEV
 EGL .m                   0.00:  GROUND ELEVATION
 EPD .m                   0.00:  ELEVATION
 AZTC.deg                 6.23:  AZM TOTAL CORR
 GRDC.deg                 0.20:  GRID CORRECTION
 MDEC.deg                 6.43:  MAGNETIC DECL
 MDIP.deg                59.49:  MAGNETIC DIP
 MFLD.nT              50277.00:  MAGNETIC FIELD
 GVFD.g                   1.00:  GRAVITY FIELD
 VSDR.deg               173.20:  VERT SEC DIRECT
 TDD .m                5790.01:  TOTAL DEPTH (DRILLER)
 SDEP.m                5231.01:  START DEPTH
 DFSL.m                   0.00:  DISTANCE FSL
 DFWL.m                   0.00:  DISTANCE FWL
 UTMY.m             4435808.83:  UTM Y
 UTMX.m              526266.40:  UTM X
 WHEW.m                  -3.84:  WELL HEAD E/W
 WHNS.m                   2.88:  WELL HEAD N/S
 LONG.deg                51.31:  LONGITUDE
 LATI.deg                40.06:  LATITUDE
 TVDS.m                  43.42:  TVDSS CORRECTN
 DEP .m                 430.08:  DEPTH
 EKB .m                  43.42:  KB ELEVATION
 EDF .m                  43.42:  DF ELEVATION
 TDL .m                 559.00:  TOTAL DEPTH (LOGGER)
 MAGU.                 1849381:  MAGUTM CHECKSUM
 VSC .                       0:  VS TO CLOSURE
~Parameter Information Block
#MNEM.UNIT       Value        Description
#---------     -----------    ---------------------------
 AV  .mps                 4.87:  Ann Velocity 
 AVMX.mps                 7.08:  Max Ann Veloc 
 AZIF.deg               108.87:  Azm, Final 
 BHAT.                  Rotary:  BHA Type 
 BROT.°/30m               0.35:  Build Rotating 
 BS  .in                  8.50:  Bit Size 
 BSZ .in                  8.50:  Bit Size 
 BTPL.psig              360.00:  Bit Press Loss 
 CABU.                     Yes:  Customer Abuse 
 COMM.                     ¼¥|:  Run Comments 1 
 TCS .hr                106.24:  Time Ciculation Ended 
 CV  .mps                 1.77:  Crit Velocity 
 CVMX.mps                 2.03:  Max Crit Veloc 
 DD1 .         Aykhan Agagulov:  Direct Drillr 1 
 DD2 .            Nonso Okofor:  Direct Drillr 2 
 DDSV.               Geo-Pilot:  DD Service 
 DEFF.%                  98.00:  % Det Eff 
 DLRX.°/30m               0.50:  Dogleg Rot Max 
 DLSO.°/30m               0.40:  Dogleg Oriented 
 DLSX.°/30m               0.94:  Dogleg Str Max 
 DRET.      20.30.00 08-Sep-20:  Drill End Time 
 DRST.      22.15.00 06-Sep-20:  Drill Start Tim 
 DTIM.hr                 31.31:  Time Drilling 
 EDEP.m                5790.01:  End Depth 
 ENG1.           Amrah Tahirov:  Engineer 1 
 ENG2.         Dair Mahammadov:  Engineer 2 
 ENG3.           Emil Huseynov:  Engineer 3 
 ETIM.      04.01.04 12-Sep-20:  End Time 
 FLOI.gpm               450.00:  Flow In 
 FLON.gpm               450.00:  Flow In Min 
 FLOS.cptm                2.00:  Fluid Loss 
 FLOX.gpm               450.00:  Flow In Max 
 FTRO.       Formation Presure:  FTWD Run Obj 
 HFLO.                      No:  High Flow 
 HPRE.                      No:  High Pressure 
 HTEM.                      No:  High Temp 
 HYDO.m                   1.80:  Hydro Offset 
 IFIN.deg                72.03:  Inc, Final 
 IMAX.deg                73.72:  Inc Max 
 IMIN.deg                70.94:  Inc Min 
 IMND.m                5508.52:  Inc Min Depth 
 IMXD.m                5253.60:  Inc Max Depth 
 JARR.                      No:  Jarring 
 LETM.      20.30.00 08-Sep-20:  Log End Time 
 LOST.hr                     0:  Lost Rig Time 
 LSTM.      22.15.00 06-Sep-20:  Log Start Time 
 MDCL.ppm             36000.00:  Mud Chlorides 
 MDES.     Inversion Oil/Synthetic:  Mud Desc 
 DFD .sg                  1.44:  Mud Density 
 MDMN.sg                  1.44:  Dens Mud Min 
 MDMX.sg                  1.57:  Dens Mud Max 
 MOIL.                      70:  Run Mud Oil % 
 MOWR.                   70:30:  Run Mud OWR 
 MSND.                       0:  Run Mud Sand % 
 MSOL.                      21:  Run Mud Solids% 
 DFV .spqt               68.00:  Mud Viscosity 
 MWOD.in                  6.75:  MWD Tool OD 
 MWSI.                     Yes:  Serv Intrp, MWD 
 OTIM.hr                174.84:  Time Operating 
 PCON.           Look Like New:  Pad Condition 
 PMAX.psia            10616.93:  Press Op, Max 
 PV  .cP                 50.00:  Mud PV 
 RUN .                     700:  Run Number 
 ROPA.m/hr               14.24:  ROP Avg 
 ROPN.m/hr               10.00:  ROP Min 
 ROPX.m/hr               32.00:  ROP Max 
 RPMA.rpm               120.90:  RPM Surface Avg 
 RPMN.rpm               120.00:  RPM Surface Min 
 RPMX.rpm               140.00:  RPM Surface Max 
 RRUN.                    0700:  Rig Run Number 
 RTIM.hr                  3.20:  Time Reaming 
 SAZI.deg               109.99:  Azm, Start 
 SDEP.m                5231.01:  Start Depth 
 SIDD.                      No:  Serv Intrp, DD 
 SINC.deg                73.72:  Inc, Start 
 SPPA.psig             3051.00:  SPP Avg 
 SPPN.psig             2950.00:  SPP Min 
 SPPX.psig             3250.00:  SPP Max 
 STIM.      08.00.00 05-Sep-20:  Start Time 
 SVCS.                 DD, MWD:  Services 
 SVER.                    9.20:  Sperry Version 
 TDAT.m                 559.00:  Tot Depth Attmp 
 TDDF.                      No:  Trip for DD 
 TDLG.m                 559.00:  Tot Depth Loggd 
 TFF .                      No:  Trip for Fail 
 TQAA.f-kp               26.49:  Torque Abs Avg 
 TQAN.f-kp               25.00:  Torque Abs Min 
 TQAX.f-kp               27.00:  Torque Abs Max 
 TRRT.°/30m               1.50:  Turn Rotating 
 MRT .                    HCIM:  Maximum Recorded Temperature 
 TTMX.degC               90.20:  Max Tool Temp 
 VS01.                90542671:  Virtual Str1 SN 
 VS02.                90545185:  Virtual Str2 SN 
 VS03.                90602015:  Virtual Str3 SN 
 VS04.                90515230:  Virtual Str4 SN 
 WBMN.klb                 5.00:  WOB Min 
 WOBA.klb                14.79:  WOB Avg 
 WOBX.klb                20.00:  WOB Max 
 YP  .lhf2               29.00:  Yield Point 
~Curve Information Block
#MNEM.UNIT                 API CODE     Curve Description
#---------               -----------    ---------------------------
 TIME.HHMMSS            00 000 000 000:  GT Time & Date
 GTDEPTH.m              00 000 000 000:  GT Depth
 GTPQH.psia             00 000 000 000:  GT HR Quartz Pressure
 GTTQ.degC              00 000 000 000:  GT Quartz Temperature
 GTTN.NONE              00 000 000 000:  GT Test Number
 GTET.sec               00 000 000 000:  GT Elapsed Test Time
 GTTVD.m                00 000 000 000:  GT True Vertical Depth
#Other Information
#
#WARRANTY: Halliburton will use its best efforts to furnish customers with 
#accurate information and interpretations that are part of, and incident to, the services 
#provided.  However, Halliburton cannot and does not warrant the accuracy 
#or correctness of such information and interpretations.  Under no circumstances should any 
#such information or interpretation be relied upon as the sole basis for any drilling, 
#completion, production, or financial decision or any procedure involving any risk to the 
#safety of any drilling venture, drilling rig or its crew or any other third party.  The 
#Customer has full responsibility for all drilling, completion and production operation.  
#Halliburton makes no representations or warranties, either expressed or 
#implied, including, but not limited to, the implied warranties of merchantability or fitness 
#for a particular purpose, with respect to the services rendered.  In no event will 
#Halliburton be liable for failure to obtain any particular results or for 
#any damages, including, but not limited to, indirect, special or consequential damages, 
#resulting from the use of any information or interpretation provided by Halliburton.
#
~A           TIME           GTDEPTH  GTPQH  GTTQ  GTTN   GTET   GTTVD  
# ...
   21:22:56.148.09-Sep-2020 5252.22  287.63 73.44 26.00  67.83 2542.36
   21:22:56.348.09-Sep-2020 5252.22  288.14 73.44 26.00  68.03 2542.36
   21:22:56.548.09-Sep-2020 5252.22  288.14 73.44 26.00  68.23 2542.36
   21:22:56.748.09-Sep-2020 5252.22  289.35 73.44 26.00  68.43 2542.36
   21:22:56.948.09-Sep-2020 5252.22  289.96 73.44 26.00  68.63 2542.36
   21:22:57.148.09-Sep-2020 5252.22  290.49 73.44 26.00  68.83 2542.36
   21:22:57.349.09-Sep-2020 5252.22  291.05 73.44 26.00  69.03 2542.36
   21:22:57.549.09-Sep-2020 5252.22  291.05 73.44 26.00  69.23 2542.36
   21:22:57.749.09-Sep-2020 5252.22  292.20 73.44 26.00  69.43 2542.36
   21:22:57.949.09-Sep-2020 5252.22  292.79 73.44 26.00  69.63 2542.36
   21:22:58.149.09-Sep-2020 5252.22  293.35 73.44 26.00  69.83 2542.36
   21:22:58.349.09-Sep-2020 5252.22  293.92 73.44 26.00  70.03 2542.36
   21:22:58.549.09-Sep-2020 5252.22  294.48 73.44 26.00  70.23 2542.36
   21:22:58.749.09-Sep-2020 5252.22  295.04 73.45 26.00  70.43 2542.36
   21:22:58.949.09-Sep-2020 5252.22  295.15 73.45 26.00  70.63 2542.36
   21:22:59.149.09-Sep-2020 5252.22  295.87 73.45 26.00  70.83 2542.36
   21:22:59.349.09-Sep-2020 5252.22  296.45 73.45 26.00  71.03 2542.36
   21:22:59.550.09-Sep-2020 5252.22  296.89 73.45 26.00  71.23 2542.36
   21:22:59.750.09-Sep-2020 5252.22  297.52 73.45 26.00  71.43 2542.36
   21:22:59.950.09-Sep-2020 5252.22  297.94 73.45 26.00  71.63 2542.36
   21:23:00.150.09-Sep-2020 5252.22  298.47 73.45 26.00  71.83 2542.36
   21:23:00.350.09-Sep-2020 5252.22  298.93 73.45 26.00  72.03 2542.36
   21:23:00.550.09-Sep-2020 5252.22  299.42 73.45 26.00  72.23 2542.36
   21:23:00.750.09-Sep-2020 5252.22  299.89 73.45 26.00  72.43 2542.36
   21:23:00.950.09-Sep-2020 5252.22  300.41 73.45 26.00  72.63 2542.36
   21:23:01.150.09-Sep-2020 5252.22  300.95 73.45 26.00  72.83 2542.36
   21:23:01.350.09-Sep-2020 5252.22  301.46 73.45 26.00  73.03 2542.36
   21:23:01.550.09-Sep-2020 5252.22  301.79 73.45 26.00  73.23 2542.36
   21:23:01.751.09-Sep-2020 5252.22  302.19 73.45 26.00  73.43 2542.36
   21:23:01.951.09-Sep-2020 5252.22  302.62 73.45 26.00  73.63 2542.36
   21:23:02.151.09-Sep-2020 5252.22  302.47 73.45 26.00  73.83 2542.36
   21:23:02.351.09-Sep-2020 5252.22  303.26 73.45 26.00  74.03 2542.36
   21:23:02.551.09-Sep-2020 5252.22  303.57 73.45 26.00  74.23 2542.36
   21:23:02.751.09-Sep-2020 5252.22  303.97 73.45 26.00  74.43 2542.36
   21:23:02.951.09-Sep-2020 5252.22  304.38 73.45 26.00  74.63 2542.36
   21:23:03.151.09-Sep-2020 5252.22  304.91 73.45 26.00  74.83 2542.36
   21:23:03.351.09-Sep-2020 5252.22  304.78 73.45 26.00  75.03 2542.36
   21:23:03.551.09-Sep-2020 5252.22  305.29 73.45 26.00  75.23 2542.36
   21:23:03.752.09-Sep-2020 5252.22  305.84 73.45 26.00  75.43 2542.36
   21:23:03.952.09-Sep-2020 5252.22  306.22 73.45 26.00  75.63 2542.36
   21:23:04.152.09-Sep-2020 5252.22  306.28 73.45 26.00  75.83 2542.36
   21:23:04.352.09-Sep-2020 5252.22  306.65 73.45 26.00  76.04 2542.36
   21:23:04.552.09-Sep-2020 5252.22  307.20 73.45 26.00  76.24 2542.36
   21:23:04.752.09-Sep-2020 5252.22  307.60 73.46 26.00  76.44 2542.36
   21:23:04.952.09-Sep-2020 5252.22  308.21 73.46 26.00  76.64 2542.36
   21:23:05.152.09-Sep-2020 5252.22  307.84 73.46 26.00  76.84 2542.36
   21:23:05.352.09-Sep-2020 5252.22  309.02 73.46 26.00  77.04 2542.36
   21:23:05.552.09-Sep-2020 5252.22  309.15 73.46 26.00  77.24 2542.36
   21:23:05.752.09-Sep-2020 5252.22  309.60 73.46 26.00  77.44 2542.36
   21:23:05.953.09-Sep-2020 5252.22  309.96 73.46 26.00  77.64 2542.36
   21:23:06.153.09-Sep-2020 5252.22  309.89 73.46 26.00  77.84 2542.36
   21:23:06.353.09-Sep-2020 5252.22  310.85 73.46 26.00  78.04 2542.36
   21:23:06.553.09-Sep-2020 5252.22  311.00 73.46 26.00  78.24 2542.36
   21:23:06.753.09-Sep-2020 5252.22  311.45 73.46 26.00  78.44 2542.36
   21:23:06.953.09-Sep-2020 5252.22  311.84 73.46 26.00  78.64 2542.36
   21:23:07.153.09-Sep-2020 5252.22  312.42 73.46 26.00  78.84 2542.36
   21:23:07.353.09-Sep-2020 5252.22  312.75 73.46 26.00  79.04 2542.36
   21:23:07.553.09-Sep-2020 5252.22  313.17 73.46 26.00  79.24 2542.36
   21:23:07.753.09-Sep-2020 5252.22  313.60 73.46 26.00  79.44 2542.36
   21:23:07.953.09-Sep-2020 5252.22  314.00 73.46 26.00  79.64 2542.36
   21:23:08.154.09-Sep-2020 5252.22  314.42 73.46 26.00  79.84 2542.36
   21:23:08.354.09-Sep-2020 5252.22  314.85 73.46 26.00  80.04 2542.36
   21:23:08.554.09-Sep-2020 5252.22  314.85 73.46 26.00  80.24 2542.36
   21:23:08.754.09-Sep-2020 5252.22  315.64 73.46 26.00  80.44 2542.36
   21:23:08.954.09-Sep-2020 5252.22  316.00 73.46 26.00  80.64 2542.36
   21:23:09.154.09-Sep-2020 5252.22  316.40 73.46 26.00  80.84 2542.36
   21:23:09.354.09-Sep-2020 5252.22  316.80 73.46 26.00  81.04 2542.36
   21:23:09.554.09-Sep-2020 5252.22  316.80 73.46 26.00  81.24 2542.36
   21:23:09.754.09-Sep-2020 5252.22  316.92 73.46 26.00  81.44 2542.36
   21:23:09.954.09-Sep-2020 5252.22  318.14 73.46 26.00  81.64 2542.36
   21:23:10.154.09-Sep-2020 5252.22  318.28 73.46 26.00  81.84 2542.36
   21:23:10.355.09-Sep-2020 5252.22  318.63 73.46 26.00  82.04 2542.36
   21:23:10.555.09-Sep-2020 5252.22  318.95 73.46 26.00  82.24 2542.36
   21:23:10.755.09-Sep-2020 5252.22  319.45 73.46 26.00  82.44 2542.36
   21:23:10.955.09-Sep-2020 5252.22  319.70 73.46 26.00  82.64 2542.36
   21:23:11.155.09-Sep-2020 5252.22  320.06 73.46 26.00  82.84 2542.36
   21:23:11.355.09-Sep-2020 5252.22  320.42 73.46 26.00  83.04 2542.36
   21:23:11.555.09-Sep-2020 5252.22  320.77 73.46 26.00  83.24 2542.36
   21:23:11.755.09-Sep-2020 5252.22  321.14 73.46 26.00  83.44 2542.36
   21:23:11.955.09-Sep-2020 5252.22  321.49 73.46 26.00  83.64 2542.36
   21:23:12.155.09-Sep-2020 5252.22  321.79 73.46 26.00  83.84 2542.36
   21:23:12.355.09-Sep-2020 5252.22  322.11 73.46 26.00  84.04 2542.36
   21:23:12.556.09-Sep-2020 5252.22  322.11 73.46 26.00  84.24 2542.36
   21:23:12.756.09-Sep-2020 5252.22  322.81 73.46 26.00  84.44 2542.36
   21:23:12.956.09-Sep-2020 5252.22  322.93 73.47 26.00  84.64 2542.36
   21:23:13.156.09-Sep-2020 5252.22  323.19 73.47 26.00  84.84 2542.36
   21:23:13.356.09-Sep-2020 5252.22  323.68 73.47 26.00  85.04 2542.36
   21:23:13.556.09-Sep-2020 5252.22  323.68 73.47 26.00  85.24 2542.36
   21:23:13.756.09-Sep-2020 5252.22  324.29 73.47 26.00  85.44 2542.36
   21:23:13.956.09-Sep-2020 5252.22  324.72 73.47 26.00  85.64 2542.36
   21:23:14.156.09-Sep-2020 5252.22  324.21 73.47 26.00  85.84 2542.36
   21:23:14.356.09-Sep-2020 5252.22  325.33 73.47 26.00  86.04 2542.36
   21:23:14.556.09-Sep-2020 5252.22  325.41 73.47 26.00  86.24 2542.36
   21:23:14.757.09-Sep-2020 5252.22  325.75 73.47 26.00  86.44 2542.36
   21:23:14.957.09-Sep-2020 5252.22  326.07 73.47 26.00  86.64 2542.36
   21:23:15.157.09-Sep-2020 5252.22  325.90 73.47 26.00  86.84 2542.36
   21:23:15.357.09-Sep-2020 5252.22  326.82 73.47 26.00  87.04 2542.36
   21:23:15.557.09-Sep-2020 5252.22  326.91 73.47 26.00  87.24 2542.36
   21:23:15.757.09-Sep-2020 5252.22  327.29 73.47 26.00  87.44 2542.36
   21:23:15.957.09-Sep-2020 5252.22  327.59 73.47 26.00  87.64 2542.36
   21:23:16.157.09-Sep-2020 5252.22  327.42 73.47 26.00  87.84 2542.36
   21:23:16.357.09-Sep-2020 5252.22  328.37 73.47 26.00  88.04 2542.36
   21:23:16.557.09-Sep-2020 5252.22  328.47 73.47 26.00  88.24 2542.36
   21:23:16.758.09-Sep-2020 5252.22  328.85 73.47 26.00  88.44 2542.36
   21:23:16.958.09-Sep-2020 5252.22  328.93 73.47 26.00  88.64 2542.36
   21:23:17.158.09-Sep-2020 5252.22  329.36 73.47 26.00  88.84 2542.36
   21:23:17.358.09-Sep-2020 5252.22  329.85 73.47 26.00  89.04 2542.36
   21:23:17.558.09-Sep-2020 5252.22  330.25 73.47 26.00  89.24 2542.36
   21:23:17.758.09-Sep-2020 5252.22  330.65 73.47 26.00  89.44 2542.36
   21:23:17.958.09-Sep-2020 5252.22  331.14 73.47 26.00  89.64 2542.36
   21:23:18.158.09-Sep-2020 5252.22  331.43 73.47 26.00  89.84 2542.36
   21:23:18.358.09-Sep-2020 5252.22  331.85 73.47 26.00  90.04 2542.36
   21:23:18.558.09-Sep-2020 5252.22  332.24 73.47 26.00  90.24 2542.36
