~Version Information
 VERS.                  2.0:   CWLS log ASCII Standard -VERSION 2.0
 WRAP.                   NO:   One line per depth step
~Well Information Block
#MNEM.UNIT     VALUE/NAME     DESCRIPTION
#---------     -----------    ---------------------------
 STRT.S             08:13:58 09-Sep-20: START TIME 08:13:58 09-Sep-20
 STOP.S             08:20:59 09-Sep-20: STOP TIME  08:20:59 09-Sep-20
 STEP.S                   0.00: STEP TIME
 NULL.                 -999.25: NULL VALUE
 MDS .        Operator Entered:  MAG DATA SOURCE
 PDAT.          Mean Sea Level:  PERMANENT DATUM
 DCON.         Sperry Drilling:  DIRECTNL CONTR
 RIG .              West Azeri:  RIG NAME
 WELL.           C40 (Slot 20):  WELL NAME
 SRVC.     Turan Drilling Engineering:  CONTRACTOR
 FLD .                     ACG:  FIELD NAME
 CTRY.              Azerbaijan:  COUNTRY NAME
 PROV.                    Baku:  PROVINCE
 STAT.                    Baku:  STATE NAME
 REGN.                   EESSA:  REGION
 BASE.              Azerbaijan:  LOGGING EQUIPMENT BASE LOCATION
 COMP.     BP Exploration (Caspian Sea) Ltd:  COMPANY
 WTYP.                Deviated:  WELL TYPE
 SON .        AZ-XX-0906344804:  JOB NUMBER
 FTOP.          Formation Tops:  FORM TOPS DESC
 ILTD.               Lithology:  INTERP LTH DESC
 SVYD.                  Survey:  SURVEY DESC
 DMOD.             Drill Model:  DRILL MOD DESC
 HPTY.       Minimum Curvature:  HOLE POS TYPE
 NREF.                    Grid:  NORTH REFERENCE
 SPUD.               01-Jan-20:  SPUD DATE
 DATE.      00.59.44 15-Sep-20:  END TIME
 STIM.      12.00.00 12-Jun-20:  START TIME
 DMF .             Drill Floor:  DRILL MEAS FROM
 DFST.                        :  DIST FSL TEXT
 DFWT.                        :  DIST FWL TEXT
 API .                        :  API NUMBER
 CNTY.                        :  COUNTY
 UWI .                        :  UNIQUE WELL IDENTIFIER
 LOC .                        :  LOCATION
 LMF .             Drill Floor:  LOG MEASURED FROM
 VSNS.m                   2.88:  VERT SEC N/S
 VSEW.m                  -3.84:  VERT SEC E/W
 AGAP.m                  43.42:  AIR GAP
 APD .m                  43.42:  DEPTH ABOVE PD
 WDMS.m                 118.27:  WD ELEV
 EGL .m                   0.00:  GROUND ELEVATION
 EPD .m                   0.00:  ELEVATION
 AZTC.deg                 6.23:  AZM TOTAL CORR
 GRDC.deg                 0.20:  GRID CORRECTION
 MDEC.deg                 6.43:  MAGNETIC DECL
 MDIP.deg                59.49:  MAGNETIC DIP
 MFLD.nT              50277.00:  MAGNETIC FIELD
 GVFD.g                   1.00:  GRAVITY FIELD
 VSDR.deg               173.20:  VERT SEC DIRECT
 TDD .m                5790.01:  TOTAL DEPTH (DRILLER)
 SDEP.m                5231.01:  START DEPTH
 DFSL.m                   0.00:  DISTANCE FSL
 DFWL.m                   0.00:  DISTANCE FWL
 UTMY.m             4435808.83:  UTM Y
 UTMX.m              526266.40:  UTM X
 WHEW.m                  -3.84:  WELL HEAD E/W
 WHNS.m                   2.88:  WELL HEAD N/S
 LONG.deg                51.31:  LONGITUDE
 LATI.deg                40.06:  LATITUDE
 TVDS.m                  43.42:  TVDSS CORRECTN
 DEP .m                 430.08:  DEPTH
 EKB .m                  43.42:  KB ELEVATION
 EDF .m                  43.42:  DF ELEVATION
 TDL .m                 559.00:  TOTAL DEPTH (LOGGER)
 MAGU.                 1849381:  MAGUTM CHECKSUM
 VSC .                       0:  VS TO CLOSURE
~Parameter Information Block
#MNEM.UNIT       Value        Description
#---------     -----------    ---------------------------
 AV  .mps                 4.87:  Ann Velocity 
 AVMX.mps                 7.08:  Max Ann Veloc 
 AZIF.deg               108.87:  Azm, Final 
 BHAT.                  Rotary:  BHA Type 
 BROT.°/30m               0.35:  Build Rotating 
 BS  .in                  8.50:  Bit Size 
 BSZ .in                  8.50:  Bit Size 
 BTPL.psig              360.00:  Bit Press Loss 
 CABU.                     Yes:  Customer Abuse 
 COMM.                     t›a:  Run Comments 1 
 TCS .hr                106.24:  Time Ciculation Ended 
 CV  .mps                 1.77:  Crit Velocity 
 CVMX.mps                 2.03:  Max Crit Veloc 
 DD1 .         Aykhan Agagulov:  Direct Drillr 1 
 DD2 .            Nonso Okofor:  Direct Drillr 2 
 DDSV.               Geo-Pilot:  DD Service 
 DEFF.%                  98.00:  % Det Eff 
 DLRX.°/30m               0.50:  Dogleg Rot Max 
 DLSO.°/30m               0.40:  Dogleg Oriented 
 DLSX.°/30m               0.94:  Dogleg Str Max 
 DRET.      20.30.00 08-Sep-20:  Drill End Time 
 DRST.      22.15.00 06-Sep-20:  Drill Start Tim 
 DTIM.hr                 31.31:  Time Drilling 
 EDEP.m                5790.01:  End Depth 
 ENG1.           Amrah Tahirov:  Engineer 1 
 ENG2.         Dair Mahammadov:  Engineer 2 
 ENG3.           Emil Huseynov:  Engineer 3 
 ETIM.      04.01.04 12-Sep-20:  End Time 
 FLOI.gpm               450.00:  Flow In 
 FLON.gpm               450.00:  Flow In Min 
 FLOS.cptm                2.00:  Fluid Loss 
 FLOX.gpm               450.00:  Flow In Max 
 FTRO.       Formation Presure:  FTWD Run Obj 
 HFLO.                      No:  High Flow 
 HPRE.                      No:  High Pressure 
 HTEM.                      No:  High Temp 
 HYDO.m                   1.80:  Hydro Offset 
 IFIN.deg                72.03:  Inc, Final 
 IMAX.deg                73.72:  Inc Max 
 IMIN.deg                70.94:  Inc Min 
 IMND.m                5508.52:  Inc Min Depth 
 IMXD.m                5253.60:  Inc Max Depth 
 JARR.                      No:  Jarring 
 LETM.      20.30.00 08-Sep-20:  Log End Time 
 LOST.hr                     0:  Lost Rig Time 
 LSTM.      22.15.00 06-Sep-20:  Log Start Time 
 MDCL.ppm             36000.00:  Mud Chlorides 
 MDES.     Inversion Oil/Synthetic:  Mud Desc 
 DFD .sg                  1.44:  Mud Density 
 MDMN.sg                  1.44:  Dens Mud Min 
 MDMX.sg                  1.57:  Dens Mud Max 
 MOIL.                      70:  Run Mud Oil % 
 MOWR.                   70:30:  Run Mud OWR 
 MSND.                       0:  Run Mud Sand % 
 MSOL.                      21:  Run Mud Solids% 
 DFV .spqt               68.00:  Mud Viscosity 
 MWOD.in                  6.75:  MWD Tool OD 
 MWSI.                     Yes:  Serv Intrp, MWD 
 OTIM.hr                174.84:  Time Operating 
 PCON.           Look Like New:  Pad Condition 
 PMAX.psia            10616.93:  Press Op, Max 
 PV  .cP                 50.00:  Mud PV 
 RUN .                     700:  Run Number 
 ROPA.m/hr               14.24:  ROP Avg 
 ROPN.m/hr               10.00:  ROP Min 
 ROPX.m/hr               32.00:  ROP Max 
 RPMA.rpm               120.90:  RPM Surface Avg 
 RPMN.rpm               120.00:  RPM Surface Min 
 RPMX.rpm               140.00:  RPM Surface Max 
 RRUN.                    0700:  Rig Run Number 
 RTIM.hr                  3.20:  Time Reaming 
 SAZI.deg               109.99:  Azm, Start 
 SDEP.m                5231.01:  Start Depth 
 SIDD.                      No:  Serv Intrp, DD 
 SINC.deg                73.72:  Inc, Start 
 SPPA.psig             3051.00:  SPP Avg 
 SPPN.psig             2950.00:  SPP Min 
 SPPX.psig             3250.00:  SPP Max 
 STIM.      08.00.00 05-Sep-20:  Start Time 
 SVCS.                 DD, MWD:  Services 
 SVER.                    9.20:  Sperry Version 
 TDAT.m                 559.00:  Tot Depth Attmp 
 TDDF.                      No:  Trip for DD 
 TDLG.m                 559.00:  Tot Depth Loggd 
 TFF .                      No:  Trip for Fail 
 TQAA.f-kp               26.49:  Torque Abs Avg 
 TQAN.f-kp               25.00:  Torque Abs Min 
 TQAX.f-kp               27.00:  Torque Abs Max 
 TRRT.°/30m               1.50:  Turn Rotating 
 MRT .                    HCIM:  Maximum Recorded Temperature 
 TTMX.degC               90.20:  Max Tool Temp 
 VS01.                90542671:  Virtual Str1 SN 
 VS02.                90545185:  Virtual Str2 SN 
 VS03.                90602015:  Virtual Str3 SN 
 VS04.                90515230:  Virtual Str4 SN 
 WBMN.klb                 5.00:  WOB Min 
 WOBA.klb                14.79:  WOB Avg 
 WOBX.klb                20.00:  WOB Max 
 YP  .lhf2               29.00:  Yield Point 
~Curve Information Block
#MNEM.UNIT                 API CODE     Curve Description
#---------               -----------    ---------------------------
 TIME.HHMMSS            00 000 000 000:  GT Time & Date
 GTDEPTH.m              00 000 000 000:  GT Depth
 GTPQH.psia             00 000 000 000:  GT HR Quartz Pressure
 GTTQ.degC              00 000 000 000:  GT Quartz Temperature
 GTTN.NONE              00 000 000 000:  GT Test Number
 GTET.sec               00 000 000 000:  GT Elapsed Test Time
 GTTVD.m                00 000 000 000:  GT True Vertical Depth
#Other Information
#
#WARRANTY: Halliburton will use its best efforts to furnish customers with 
#accurate information and interpretations that are part of, and incident to, the services 
#provided.  However, Halliburton cannot and does not warrant the accuracy 
#or correctness of such information and interpretations.  Under no circumstances should any 
#such information or interpretation be relied upon as the sole basis for any drilling, 
#completion, production, or financial decision or any procedure involving any risk to the 
#safety of any drilling venture, drilling rig or its crew or any other third party.  The 
#Customer has full responsibility for all drilling, completion and production operation.  
#Halliburton makes no representations or warranties, either expressed or 
#implied, including, but not limited to, the implied warranties of merchantability or fitness 
#for a particular purpose, with respect to the services rendered.  In no event will 
#Halliburton be liable for failure to obtain any particular results or for 
#any damages, including, but not limited to, indirect, special or consequential damages, 
#resulting from the use of any information or interpretation provided by Halliburton.
#
~A           TIME           GTDEPTH  GTPQH  GTTQ  GTTN  GTET   GTTVD  
# ...
   08:17:48.406.09-Sep-2020 5533.01 3703.97 78.01 5.00 230.09 2629.43
   08:17:48.606.09-Sep-2020 5533.01 3703.97 78.01 5.00 230.29 2629.43
   08:17:48.806.09-Sep-2020 5533.01 3703.80 78.01 5.00 230.49 2629.43
   08:17:49.006.09-Sep-2020 5533.01 3703.77 78.01 5.00 230.69 2629.43
   08:17:49.206.09-Sep-2020 5533.01 3703.91 78.01 5.00 230.89 2629.43
   08:17:49.406.09-Sep-2020 5533.01 3703.71 78.01 5.00 231.09 2629.43
   08:17:49.606.09-Sep-2020 5533.01 3703.71 78.01 5.00 231.29 2629.43
   08:17:49.806.09-Sep-2020 5533.01 3703.80 78.01 5.00 231.49 2629.43
   08:17:50.006.09-Sep-2020 5533.01 3703.81 78.01 5.00 231.69 2629.43
   08:17:50.206.09-Sep-2020 5533.01 3703.79 78.01 5.00 231.89 2629.43
   08:17:50.406.09-Sep-2020 5533.01 3703.78 78.01 5.00 232.09 2629.43
   08:17:50.606.09-Sep-2020 5533.01 3703.77 78.01 5.00 232.29 2629.43
   08:17:50.807.09-Sep-2020 5533.01 3703.80 78.01 5.00 232.49 2629.43
   08:17:51.007.09-Sep-2020 5533.01 3703.80 78.01 5.00 232.69 2629.43
   08:17:51.207.09-Sep-2020 5533.01 3703.78 78.01 5.00 232.89 2629.43
   08:17:51.407.09-Sep-2020 5533.01 3703.80 78.01 5.00 233.09 2629.43
   08:17:51.607.09-Sep-2020 5533.01 3703.80 78.01 5.00 233.29 2629.43
   08:17:51.807.09-Sep-2020 5533.01 3703.80 78.01 5.00 233.49 2629.43
   08:17:52.007.09-Sep-2020 5533.01 3703.61 78.01 5.00 233.69 2629.43
   08:17:52.207.09-Sep-2020 5533.01 3703.96 78.01 5.00 233.89 2629.43
   08:17:52.407.09-Sep-2020 5533.01 3703.79 78.01 5.00 234.09 2629.43
   08:17:52.607.09-Sep-2020 5533.01 3703.79 78.01 5.00 234.29 2629.43
   08:17:52.807.09-Sep-2020 5533.01 3703.78 78.01 5.00 234.49 2629.43
   08:17:53.007.09-Sep-2020 5533.01 3703.84 78.01 5.00 234.69 2629.43
   08:17:53.207.09-Sep-2020 5533.01 3703.73 78.01 5.00 234.89 2629.43
   08:17:53.408.09-Sep-2020 5533.01 3703.79 78.01 5.00 235.09 2629.43
   08:17:53.608.09-Sep-2020 5533.01 3703.79 78.01 5.00 235.29 2629.43
   08:17:53.808.09-Sep-2020 5533.01 3703.76 78.01 5.00 235.49 2629.43
   08:17:54.008.09-Sep-2020 5533.01 3703.79 78.01 5.00 235.69 2629.43
   08:17:54.208.09-Sep-2020 5533.01 3703.78 78.01 5.00 235.89 2629.43
   08:17:54.408.09-Sep-2020 5533.01 3703.80 78.01 5.00 236.09 2629.43
   08:17:54.608.09-Sep-2020 5533.01 3703.79 78.01 5.00 236.29 2629.43
   08:17:54.808.09-Sep-2020 5533.01 3703.79 78.01 5.00 236.49 2629.43
   08:17:55.008.09-Sep-2020 5533.01 3703.78 78.01 5.00 236.69 2629.43
   08:17:55.208.09-Sep-2020 5533.01 3703.79 78.01 5.00 236.89 2629.43
   08:17:55.408.09-Sep-2020 5533.01 3703.78 78.01 5.00 237.09 2629.43
   08:17:55.608.09-Sep-2020 5533.01 3703.78 78.01 5.00 237.29 2629.43
   08:17:55.809.09-Sep-2020 5533.01 3703.79 78.01 5.00 237.49 2629.43
   08:17:56.009.09-Sep-2020 5533.01 3703.80 78.01 5.00 237.69 2629.43
   08:17:56.209.09-Sep-2020 5533.01 3703.77 78.01 5.00 237.89 2629.43
   08:17:56.409.09-Sep-2020 5533.01 3703.80 78.01 5.00 238.09 2629.43
   08:17:56.609.09-Sep-2020 5533.01 3703.80 78.01 5.00 238.29 2629.43
   08:17:56.809.09-Sep-2020 5533.01 3703.64 78.01 5.00 238.49 2629.43
   08:17:57.009.09-Sep-2020 5533.01 3703.80 78.01 5.00 238.69 2629.43
   08:17:57.209.09-Sep-2020 5533.01 3703.75 78.01 5.00 238.89 2629.43
   08:17:57.409.09-Sep-2020 5533.01 3703.90 78.01 5.00 239.09 2629.43
   08:17:57.609.09-Sep-2020 5533.01 3703.90 78.01 5.00 239.29 2629.43
   08:17:57.809.09-Sep-2020 5533.01 3703.80 78.01 5.00 239.49 2629.43
   08:17:58.009.09-Sep-2020 5533.01 3703.80 78.01 5.00 239.69 2629.43
   08:17:58.209.09-Sep-2020 5533.01 3703.80 78.01 5.00 239.89 2629.43
   08:17:58.410.09-Sep-2020 5533.01 3703.78 78.01 5.00 240.09 2629.43
   08:17:58.610.09-Sep-2020 5533.01 3703.78 78.01 5.00 240.29 2629.43
   08:17:58.810.09-Sep-2020 5533.01 3703.78 78.01 5.00 240.49 2629.43
   08:17:59.010.09-Sep-2020 5533.01 3703.80 78.01 5.00 240.70 2629.43
   08:17:59.210.09-Sep-2020 5533.01 3703.97 78.01 5.00 240.90 2629.43
   08:17:59.410.09-Sep-2020 5533.01 3703.60 78.01 5.00 241.10 2629.43
   08:17:59.610.09-Sep-2020 5533.01 3703.60 78.01 5.00 241.30 2629.43
   08:17:59.810.09-Sep-2020 5533.01 3703.76 78.01 5.00 241.50 2629.43
   08:18:00.010.09-Sep-2020 5533.01 3703.90 78.01 5.00 241.70 2629.43
   08:18:00.210.09-Sep-2020 5533.01 3703.53 78.01 5.00 241.90 2629.43
   08:18:00.410.09-Sep-2020 5533.01 3703.95 78.01 5.00 242.10 2629.43
   08:18:00.610.09-Sep-2020 5533.01 3703.95 78.01 5.00 242.30 2629.43
   08:18:00.810.09-Sep-2020 5533.01 3703.83 78.01 5.00 242.50 2629.43
   08:18:01.011.09-Sep-2020 5533.01 3703.77 78.01 5.00 242.70 2629.43
   08:18:01.211.09-Sep-2020 5533.01 3703.83 78.01 5.00 242.90 2629.43
   08:18:01.411.09-Sep-2020 5533.01 3703.72 78.01 5.00 243.10 2629.43
   08:18:01.611.09-Sep-2020 5533.01 3703.72 78.01 5.00 243.30 2629.43
   08:18:01.811.09-Sep-2020 5533.01 3703.81 78.01 5.00 243.50 2629.43
   08:18:02.011.09-Sep-2020 5533.01 3703.78 78.01 5.00 243.70 2629.43
   08:18:02.211.09-Sep-2020 5533.01 3703.80 78.01 5.00 243.90 2629.43
   08:18:02.411.09-Sep-2020 5533.01 3703.77 78.01 5.00 244.10 2629.43
   08:18:02.611.09-Sep-2020 5533.01 3703.78 78.01 5.00 244.30 2629.43
   08:18:02.811.09-Sep-2020 5533.01 3703.79 78.01 5.00 244.50 2629.43
   08:18:03.011.09-Sep-2020 5533.01 3703.80 78.01 5.00 244.70 2629.43
   08:18:03.211.09-Sep-2020 5533.01 3703.80 78.01 5.00 244.90 2629.43
   08:18:03.412.09-Sep-2020 5533.01 3703.79 78.01 5.00 245.10 2629.43
   08:18:03.612.09-Sep-2020 5533.01 3703.79 78.01 5.00 245.30 2629.43
   08:18:03.812.09-Sep-2020 5533.01 3703.77 78.01 5.00 245.50 2629.43
   08:18:04.012.09-Sep-2020 5533.01 3703.40 78.01 5.00 245.70 2629.43
   08:18:04.212.09-Sep-2020 5533.01 3704.22 78.01 5.00 245.90 2629.43
   08:18:04.412.09-Sep-2020 5533.01 3703.74 78.01 5.00 246.10 2629.43
   08:18:04.612.09-Sep-2020 5533.01 3703.74 78.01 5.00 246.30 2629.43
   08:18:04.812.09-Sep-2020 5533.01 3703.74 78.01 5.00 246.50 2629.43
   08:18:05.012.09-Sep-2020 5533.01 3703.81 78.01 5.00 246.70 2629.43
   08:18:05.212.09-Sep-2020 5533.01 3703.78 78.01 5.00 246.90 2629.43
   08:18:05.412.09-Sep-2020 5533.01 3703.79 78.01 5.00 247.10 2629.43
   08:18:05.612.09-Sep-2020 5533.01 3703.79 78.01 5.00 247.30 2629.43
   08:18:05.812.09-Sep-2020 5533.01 3703.75 78.01 5.00 247.50 2629.43
   08:18:06.013.09-Sep-2020 5533.01 3703.79 78.01 5.00 247.70 2629.43
   08:18:06.213.09-Sep-2020 5533.01 3703.79 78.01 5.00 247.90 2629.43
   08:18:06.413.09-Sep-2020 5533.01 3703.79 78.01 5.00 248.10 2629.43
   08:18:06.613.09-Sep-2020 5533.01 3703.80 78.01 5.00 248.30 2629.43
   08:18:06.813.09-Sep-2020 5533.01 3703.77 78.01 5.00 248.50 2629.43
   08:18:07.013.09-Sep-2020 5533.01 3703.78 78.01 5.00 248.70 2629.43
   08:18:07.213.09-Sep-2020 5533.01 3703.78 78.01 5.00 248.90 2629.43
   08:18:07.413.09-Sep-2020 5533.01 3703.97 78.01 5.00 249.10 2629.43
   08:18:07.613.09-Sep-2020 5533.01 3703.97 78.01 5.00 249.30 2629.43
   08:18:07.813.09-Sep-2020 5533.01 3703.80 78.01 5.00 249.50 2629.43
   08:18:08.013.09-Sep-2020 5533.01 3703.75 78.01 5.00 249.70 2629.43
   08:18:08.213.09-Sep-2020 5533.01 3703.90 78.00 5.00 249.90 2629.43
   08:18:08.413.09-Sep-2020 5533.01 3703.53 78.00 5.00 250.10 2629.43
   08:18:08.614.09-Sep-2020 5533.01 3703.53 78.00 5.00 250.30 2629.43
   08:18:08.814.09-Sep-2020 5533.01 3703.80 78.00 5.00 250.50 2629.43
   08:18:09.014.09-Sep-2020 5533.01 3703.83 78.00 5.00 250.70 2629.43
   08:18:09.214.09-Sep-2020 5533.01 3703.77 78.00 5.00 250.90 2629.43
   08:18:09.414.09-Sep-2020 5533.01 3703.82 78.00 5.00 251.10 2629.43
   08:18:09.614.09-Sep-2020 5533.01 3703.82 78.00 5.00 251.30 2629.43
   08:18:09.814.09-Sep-2020 5533.01 3703.62 78.00 5.00 251.50 2629.43
   08:18:10.014.09-Sep-2020 5533.01 3703.82 78.00 5.00 251.70 2629.43
   08:18:10.214.09-Sep-2020 5533.01 3703.76 78.00 5.00 251.90 2629.43
   08:18:10.414.09-Sep-2020 5533.01 3703.90 78.00 5.00 252.10 2629.43
   08:18:10.614.09-Sep-2020 5533.01 3703.67 78.00 5.00 252.30 2629.43
   08:18:10.814.09-Sep-2020 5533.01 3703.77 78.00 5.00 252.50 2629.43
   08:18:11.015.09-Sep-2020 5533.01 3703.62 78.00 5.00 252.70 2629.43
   08:18:11.215.09-Sep-2020 5533.01 3703.92 78.00 5.00 252.90 2629.43
