~Version Information
 VERS.                  2.0:   CWLS log ASCII Standard -VERSION 2.0
 WRAP.                   NO:   One line per depth step
~Well Information Block
#MNEM.UNIT     VALUE/NAME     DESCRIPTION
#---------     -----------    ---------------------------
 STRT.S             18:49:58 09-Sep-20: START TIME 18:49:58 09-Sep-20
 STOP.S             18:58:03 09-Sep-20: STOP TIME  18:58:03 09-Sep-20
 STEP.S                   0.00: STEP TIME
 NULL.                 -999.25: NULL VALUE
 MDS .        Operator Entered:  MAG DATA SOURCE
 PDAT.          Mean Sea Level:  PERMANENT DATUM
 DCON.         Sperry Drilling:  DIRECTNL CONTR
 RIG .              West Azeri:  RIG NAME
 WELL.           C40 (Slot 20):  WELL NAME
 SRVC.     Turan Drilling Engineering:  CONTRACTOR
 FLD .                     ACG:  FIELD NAME
 CTRY.              Azerbaijan:  COUNTRY NAME
 PROV.                    Baku:  PROVINCE
 STAT.                    Baku:  STATE NAME
 REGN.                   EESSA:  REGION
 BASE.              Azerbaijan:  LOGGING EQUIPMENT BASE LOCATION
 COMP.     BP Exploration (Caspian Sea) Ltd:  COMPANY
 WTYP.                Deviated:  WELL TYPE
 SON .        AZ-XX-0906344804:  JOB NUMBER
 FTOP.          Formation Tops:  FORM TOPS DESC
 ILTD.               Lithology:  INTERP LTH DESC
 SVYD.                  Survey:  SURVEY DESC
 DMOD.             Drill Model:  DRILL MOD DESC
 HPTY.       Minimum Curvature:  HOLE POS TYPE
 NREF.                    Grid:  NORTH REFERENCE
 SPUD.               01-Jan-20:  SPUD DATE
 DATE.      00.59.44 15-Sep-20:  END TIME
 STIM.      12.00.00 12-Jun-20:  START TIME
 DMF .             Drill Floor:  DRILL MEAS FROM
 DFST.                        :  DIST FSL TEXT
 DFWT.                        :  DIST FWL TEXT
 API .                        :  API NUMBER
 CNTY.                        :  COUNTY
 UWI .                        :  UNIQUE WELL IDENTIFIER
 LOC .                        :  LOCATION
 LMF .             Drill Floor:  LOG MEASURED FROM
 VSNS.m                   2.88:  VERT SEC N/S
 VSEW.m                  -3.84:  VERT SEC E/W
 AGAP.m                  43.42:  AIR GAP
 APD .m                  43.42:  DEPTH ABOVE PD
 WDMS.m                 118.27:  WD ELEV
 EGL .m                   0.00:  GROUND ELEVATION
 EPD .m                   0.00:  ELEVATION
 AZTC.deg                 6.23:  AZM TOTAL CORR
 GRDC.deg                 0.20:  GRID CORRECTION
 MDEC.deg                 6.43:  MAGNETIC DECL
 MDIP.deg                59.49:  MAGNETIC DIP
 MFLD.nT              50277.00:  MAGNETIC FIELD
 GVFD.g                   1.00:  GRAVITY FIELD
 VSDR.deg               173.20:  VERT SEC DIRECT
 TDD .m                5790.01:  TOTAL DEPTH (DRILLER)
 SDEP.m                5231.01:  START DEPTH
 DFSL.m                   0.00:  DISTANCE FSL
 DFWL.m                   0.00:  DISTANCE FWL
 UTMY.m             4435808.83:  UTM Y
 UTMX.m              526266.40:  UTM X
 WHEW.m                  -3.84:  WELL HEAD E/W
 WHNS.m                   2.88:  WELL HEAD N/S
 LONG.deg                51.31:  LONGITUDE
 LATI.deg                40.06:  LATITUDE
 TVDS.m                  43.42:  TVDSS CORRECTN
 DEP .m                 430.08:  DEPTH
 EKB .m                  43.42:  KB ELEVATION
 EDF .m                  43.42:  DF ELEVATION
 TDL .m                 559.00:  TOTAL DEPTH (LOGGER)
 MAGU.                 1849381:  MAGUTM CHECKSUM
 VSC .                       0:  VS TO CLOSURE
~Parameter Information Block
#MNEM.UNIT       Value        Description
#---------     -----------    ---------------------------
 AV  .mps                 4.87:  Ann Velocity 
 AVMX.mps                 7.08:  Max Ann Veloc 
 AZIF.deg               108.87:  Azm, Final 
 BHAT.                  Rotary:  BHA Type 
 BROT.°/30m               0.35:  Build Rotating 
 BS  .in                  8.50:  Bit Size 
 BSZ .in                  8.50:  Bit Size 
 BTPL.psig              360.00:  Bit Press Loss 
 CABU.                     Yes:  Customer Abuse 
 COMM.                     „T:  Run Comments 1 
 TCS .hr                106.24:  Time Ciculation Ended 
 CV  .mps                 1.77:  Crit Velocity 
 CVMX.mps                 2.03:  Max Crit Veloc 
 DD1 .         Aykhan Agagulov:  Direct Drillr 1 
 DD2 .            Nonso Okofor:  Direct Drillr 2 
 DDSV.               Geo-Pilot:  DD Service 
 DEFF.%                  98.00:  % Det Eff 
 DLRX.°/30m               0.50:  Dogleg Rot Max 
 DLSO.°/30m               0.40:  Dogleg Oriented 
 DLSX.°/30m               0.94:  Dogleg Str Max 
 DRET.      20.30.00 08-Sep-20:  Drill End Time 
 DRST.      22.15.00 06-Sep-20:  Drill Start Tim 
 DTIM.hr                 31.31:  Time Drilling 
 EDEP.m                5790.01:  End Depth 
 ENG1.           Amrah Tahirov:  Engineer 1 
 ENG2.         Dair Mahammadov:  Engineer 2 
 ENG3.           Emil Huseynov:  Engineer 3 
 ETIM.      04.01.04 12-Sep-20:  End Time 
 FLOI.gpm               450.00:  Flow In 
 FLON.gpm               450.00:  Flow In Min 
 FLOS.cptm                2.00:  Fluid Loss 
 FLOX.gpm               450.00:  Flow In Max 
 FTRO.       Formation Presure:  FTWD Run Obj 
 HFLO.                      No:  High Flow 
 HPRE.                      No:  High Pressure 
 HTEM.                      No:  High Temp 
 HYDO.m                   1.80:  Hydro Offset 
 IFIN.deg                72.03:  Inc, Final 
 IMAX.deg                73.72:  Inc Max 
 IMIN.deg                70.94:  Inc Min 
 IMND.m                5508.52:  Inc Min Depth 
 IMXD.m                5253.60:  Inc Max Depth 
 JARR.                      No:  Jarring 
 LETM.      20.30.00 08-Sep-20:  Log End Time 
 LOST.hr                     0:  Lost Rig Time 
 LSTM.      22.15.00 06-Sep-20:  Log Start Time 
 MDCL.ppm             36000.00:  Mud Chlorides 
 MDES.     Inversion Oil/Synthetic:  Mud Desc 
 DFD .sg                  1.44:  Mud Density 
 MDMN.sg                  1.44:  Dens Mud Min 
 MDMX.sg                  1.57:  Dens Mud Max 
 MOIL.                      70:  Run Mud Oil % 
 MOWR.                   70:30:  Run Mud OWR 
 MSND.                       0:  Run Mud Sand % 
 MSOL.                      21:  Run Mud Solids% 
 DFV .spqt               68.00:  Mud Viscosity 
 MWOD.in                  6.75:  MWD Tool OD 
 MWSI.                     Yes:  Serv Intrp, MWD 
 OTIM.hr                174.84:  Time Operating 
 PCON.           Look Like New:  Pad Condition 
 PMAX.psia            10616.93:  Press Op, Max 
 PV  .cP                 50.00:  Mud PV 
 RUN .                     700:  Run Number 
 ROPA.m/hr               14.24:  ROP Avg 
 ROPN.m/hr               10.00:  ROP Min 
 ROPX.m/hr               32.00:  ROP Max 
 RPMA.rpm               120.90:  RPM Surface Avg 
 RPMN.rpm               120.00:  RPM Surface Min 
 RPMX.rpm               140.00:  RPM Surface Max 
 RRUN.                    0700:  Rig Run Number 
 RTIM.hr                  3.20:  Time Reaming 
 SAZI.deg               109.99:  Azm, Start 
 SDEP.m                5231.01:  Start Depth 
 SIDD.                      No:  Serv Intrp, DD 
 SINC.deg                73.72:  Inc, Start 
 SPPA.psig             3051.00:  SPP Avg 
 SPPN.psig             2950.00:  SPP Min 
 SPPX.psig             3250.00:  SPP Max 
 STIM.      08.00.00 05-Sep-20:  Start Time 
 SVCS.                 DD, MWD:  Services 
 SVER.                    9.20:  Sperry Version 
 TDAT.m                 559.00:  Tot Depth Attmp 
 TDDF.                      No:  Trip for DD 
 TDLG.m                 559.00:  Tot Depth Loggd 
 TFF .                      No:  Trip for Fail 
 TQAA.f-kp               26.49:  Torque Abs Avg 
 TQAN.f-kp               25.00:  Torque Abs Min 
 TQAX.f-kp               27.00:  Torque Abs Max 
 TRRT.°/30m               1.50:  Turn Rotating 
 MRT .                    HCIM:  Maximum Recorded Temperature 
 TTMX.degC               90.20:  Max Tool Temp 
 VS01.                90542671:  Virtual Str1 SN 
 VS02.                90545185:  Virtual Str2 SN 
 VS03.                90602015:  Virtual Str3 SN 
 VS04.                90515230:  Virtual Str4 SN 
 WBMN.klb                 5.00:  WOB Min 
 WOBA.klb                14.79:  WOB Avg 
 WOBX.klb                20.00:  WOB Max 
 YP  .lhf2               29.00:  Yield Point 
~Curve Information Block
#MNEM.UNIT                 API CODE     Curve Description
#---------               -----------    ---------------------------
 TIME.HHMMSS            00 000 000 000:  GT Time & Date
 GTDEPTH.m              00 000 000 000:  GT Depth
 GTPQH.psia             00 000 000 000:  GT HR Quartz Pressure
 GTTQ.degC              00 000 000 000:  GT Quartz Temperature
 GTTN.NONE              00 000 000 000:  GT Test Number
 GTET.sec               00 000 000 000:  GT Elapsed Test Time
 GTTVD.m                00 000 000 000:  GT True Vertical Depth
#Other Information
#
#WARRANTY: Halliburton will use its best efforts to furnish customers with 
#accurate information and interpretations that are part of, and incident to, the services 
#provided.  However, Halliburton cannot and does not warrant the accuracy 
#or correctness of such information and interpretations.  Under no circumstances should any 
#such information or interpretation be relied upon as the sole basis for any drilling, 
#completion, production, or financial decision or any procedure involving any risk to the 
#safety of any drilling venture, drilling rig or its crew or any other third party.  The 
#Customer has full responsibility for all drilling, completion and production operation.  
#Halliburton makes no representations or warranties, either expressed or 
#implied, including, but not limited to, the implied warranties of merchantability or fitness 
#for a particular purpose, with respect to the services rendered.  In no event will 
#Halliburton be liable for failure to obtain any particular results or for 
#any damages, including, but not limited to, indirect, special or consequential damages, 
#resulting from the use of any information or interpretation provided by Halliburton.
#
~A           TIME           GTDEPTH  GTPQH  GTTQ  GTTN   GTET   GTTVD  
# ...
   18:57:30.145.09-Sep-2020 5280.51 4061.52 74.31 22.00 451.65 2550.44
   18:57:30.345.09-Sep-2020 5280.51 4061.52 74.31 22.00 451.85 2550.44
   18:57:30.545.09-Sep-2020 5280.51 6309.07 74.31 22.00 452.05 2550.44
   18:57:30.745.09-Sep-2020 5280.51 6308.48 74.31 22.00 452.25 2550.44
   18:57:30.945.09-Sep-2020 5280.51 6307.67 74.32 22.00 452.45 2550.44
   18:57:31.145.09-Sep-2020 5280.51 6318.25 74.32 22.00 452.64 2550.44
   18:57:31.345.09-Sep-2020 5280.51 6309.63 74.32 22.00 452.84 2550.44
   18:57:31.544.09-Sep-2020 5280.51 6312.94 74.32 22.00 453.04 2550.44
   18:57:31.744.09-Sep-2020 5280.51 6313.10 74.33 22.00 453.24 2550.44
   18:57:31.944.09-Sep-2020 5280.51 6314.34 74.33 22.00 453.44 2550.44
   18:57:32.144.09-Sep-2020 5280.51 6325.19 74.33 22.00 453.64 2550.44
   18:57:32.344.09-Sep-2020 5280.51 6316.95 74.34 22.00 453.84 2550.44
   18:57:32.544.09-Sep-2020 5280.51 6319.17 74.34 22.00 454.04 2550.44
   18:57:32.743.09-Sep-2020 5280.51 6319.26 74.35 22.00 454.24 2550.44
   18:57:32.943.09-Sep-2020 5280.51 6319.63 74.35 22.00 454.44 2550.44
   18:57:33.143.09-Sep-2020 5280.51 6321.22 74.36 22.00 454.64 2550.44
   18:57:33.343.09-Sep-2020 5280.51 6321.22 74.36 22.00 454.84 2550.44
   18:57:33.543.09-Sep-2020 5280.51 6321.22 74.37 22.00 455.04 2550.44
   18:57:33.743.09-Sep-2020 5280.51 6321.48 74.37 22.00 455.24 2550.44
   18:57:33.943.09-Sep-2020 5280.51 6321.60 74.38 22.00 455.44 2550.44
   18:57:34.142.09-Sep-2020 5280.51 6322.56 74.38 22.00 455.64 2550.44
   18:57:34.342.09-Sep-2020 5280.51 6322.56 74.38 22.00 455.84 2550.44
   18:57:34.542.09-Sep-2020 5280.51 6322.52 74.39 22.00 456.04 2550.44
   18:57:34.742.09-Sep-2020 5280.51 6322.12 74.40 22.00 456.24 2550.44
   18:57:34.942.09-Sep-2020 5280.51 6322.06 74.40 22.00 456.44 2550.44
   18:57:35.142.09-Sep-2020 5280.51 6322.28 74.41 22.00 456.64 2550.44
   18:57:35.341.09-Sep-2020 5280.51 6322.28 74.41 22.00 456.84 2550.44
   18:57:35.541.09-Sep-2020 5280.51 6322.71 74.42 22.00 457.04 2550.44
   18:57:35.741.09-Sep-2020 5280.51 6332.56 74.42 22.00 457.24 2550.44
   18:57:35.941.09-Sep-2020 5280.51 6319.90 74.43 22.00 457.44 2550.44
   18:57:36.141.09-Sep-2020 5280.51 6323.21 74.43 22.00 457.64 2550.44
   18:57:36.341.09-Sep-2020 5280.51 6323.94 74.43 22.00 457.84 2550.44
   18:57:36.540.09-Sep-2020 5280.51 6323.60 74.44 22.00 458.04 2550.44
   18:57:36.740.09-Sep-2020 5280.51 6324.90 74.44 22.00 458.24 2550.44
   18:57:36.940.09-Sep-2020 5280.51 6325.83 74.44 22.00 458.44 2550.44
   18:57:37.140.09-Sep-2020 5280.51 6324.36 74.45 22.00 458.64 2550.44
   18:57:37.340.09-Sep-2020 5280.51 6324.36 74.45 22.00 458.84 2550.44
   18:57:37.540.09-Sep-2020 5280.51 6324.00 74.45 22.00 459.04 2550.44
   18:57:37.740.09-Sep-2020 5280.51 6324.17 74.46 22.00 459.24 2550.44
   18:57:37.939.09-Sep-2020 5280.51 6323.41 74.46 22.00 459.44 2550.44
   18:57:38.139.09-Sep-2020 5280.51 6323.17 74.46 22.00 459.64 2550.44
   18:57:38.339.09-Sep-2020 5280.51 6323.17 74.46 22.00 459.84 2550.44
   18:57:38.539.09-Sep-2020 5280.51 6323.50 74.47 22.00 460.04 2550.44
   18:57:38.739.09-Sep-2020 5280.51 6323.79 74.47 22.00 460.24 2550.44
   18:57:38.939.09-Sep-2020 5280.51 6333.25 74.47 22.00 460.44 2550.44
   18:57:39.138.09-Sep-2020 5280.51 6320.47 74.47 22.00 460.64 2550.44
   18:57:39.338.09-Sep-2020 5280.51 6320.47 74.47 22.00 460.84 2550.44
   18:57:39.538.09-Sep-2020 5280.51 6324.32 74.48 22.00 461.04 2550.44
   18:57:39.738.09-Sep-2020 5280.51 6324.19 74.48 22.00 461.24 2550.44
   18:57:39.938.09-Sep-2020 5280.51 6325.39 74.48 22.00 461.44 2550.44
   18:57:40.138.09-Sep-2020 5280.51 6334.31 74.48 22.00 461.64 2550.44
   18:57:40.337.09-Sep-2020 5280.51 6322.02 74.48 22.00 461.84 2550.44
   18:57:40.537.09-Sep-2020 5280.51 6325.17 74.48 22.00 462.04 2550.44
   18:57:40.737.09-Sep-2020 5280.51 6324.94 74.49 22.00 462.24 2550.44
   18:57:40.937.09-Sep-2020 5280.51 6325.44 74.49 22.00 462.44 2550.44
   18:57:41.137.09-Sep-2020 5280.51 6335.17 74.49 22.00 462.64 2550.44
   18:57:41.337.09-Sep-2020 5280.51 6335.17 74.49 22.00 462.84 2550.44
   18:57:41.537.09-Sep-2020 5280.51 6324.99 74.49 22.00 463.04 2550.44
   18:57:41.736.09-Sep-2020 5280.51 6325.52 74.49 22.00 463.24 2550.44
   18:57:41.936.09-Sep-2020 5280.51 6324.89 74.49 22.00 463.44 2550.44
   18:57:42.136.09-Sep-2020 5280.51 6331.45 74.49 22.00 463.64 2550.44
   18:57:42.336.09-Sep-2020 5280.51 6331.45 74.49 22.00 463.84 2550.44
   18:57:42.536.09-Sep-2020 5280.51 6324.31 74.49 22.00 464.04 2550.44
   18:57:42.736.09-Sep-2020 5280.51 6326.24 74.49 22.00 464.24 2550.44
   18:57:42.935.09-Sep-2020 5280.51 6325.29 74.49 22.00 464.44 2550.44
   18:57:43.135.09-Sep-2020 5280.51 6332.06 74.49 22.00 464.64 2550.44
   18:57:43.335.09-Sep-2020 5280.51 6332.06 74.49 22.00 464.84 2550.44
   18:57:43.535.09-Sep-2020 5280.51 6325.33 74.49 22.00 465.04 2550.44
   18:57:43.735.09-Sep-2020 5280.51 6326.58 74.49 22.00 465.24 2550.44
   18:57:43.935.09-Sep-2020 5280.51 6325.57 74.49 22.00 465.43 2550.44
   18:57:44.135.09-Sep-2020 5280.51 6326.82 74.49 22.00 465.63 2550.44
   18:57:44.334.09-Sep-2020 5280.51 6326.82 74.49 22.00 465.83 2550.44
   18:57:44.534.09-Sep-2020 5280.51 6327.18 74.49 22.00 466.03 2550.44
   18:57:44.734.09-Sep-2020 5280.51 6326.09 74.49 22.00 466.23 2550.44
   18:57:44.934.09-Sep-2020 5280.51 6325.95 74.49 22.00 466.43 2550.44
   18:57:45.134.09-Sep-2020 5280.51 6326.27 74.49 22.00 466.63 2550.44
   18:57:45.334.09-Sep-2020 5280.51 6326.27 74.49 22.00 466.83 2550.44
   18:57:45.533.09-Sep-2020 5280.51 6326.42 74.49 22.00 467.03 2550.44
   18:57:45.733.09-Sep-2020 5280.51 6325.64 74.49 22.00 467.23 2550.44
   18:57:45.933.09-Sep-2020 5280.51 6325.63 74.49 22.00 467.43 2550.44
   18:57:46.133.09-Sep-2020 5280.51 6325.41 74.49 22.00 467.63 2550.44
   18:57:46.333.09-Sep-2020 5280.51 6325.41 74.49 22.00 467.83 2550.44
   18:57:46.533.09-Sep-2020 5280.51 6325.71 74.49 22.00 468.03 2550.44
   18:57:46.732.09-Sep-2020 5280.51 6325.65 74.49 22.00 468.23 2550.44
   18:57:46.932.09-Sep-2020 5280.51 6334.60 74.49 22.00 468.43 2550.44
   18:57:47.132.09-Sep-2020 5280.51 6323.76 74.49 22.00 468.63 2550.44
   18:57:47.332.09-Sep-2020 5280.51 6323.76 74.49 22.00 468.83 2550.44
   18:57:47.532.09-Sep-2020 5280.51 6326.35 74.49 22.00 469.03 2550.44
   18:57:47.732.09-Sep-2020 5280.51 6326.25 74.49 22.00 469.23 2550.44
   18:57:47.932.09-Sep-2020 5280.51 6326.77 74.49 22.00 469.43 2550.44
   18:57:48.131.09-Sep-2020 5280.51 6328.17 74.49 22.00 469.63 2550.44
   18:57:48.331.09-Sep-2020 5280.51 6328.17 74.49 22.00 469.83 2550.44
   18:57:48.531.09-Sep-2020 5280.51 6326.34 74.49 22.00 470.03 2550.44
   18:57:48.731.09-Sep-2020 5280.51 6326.07 74.49 22.00 470.23 2550.44
   18:57:48.931.09-Sep-2020 5280.51 6325.82 74.49 22.00 470.43 2550.44
   18:57:49.131.09-Sep-2020 5280.51 6325.52 74.49 22.00 470.63 2550.44
   18:57:49.330.09-Sep-2020 5280.51 6325.36 74.49 22.00 470.83 2550.44
   18:57:49.530.09-Sep-2020 5280.51 6325.82 74.49 22.00 471.03 2550.44
   18:57:49.730.09-Sep-2020 5280.51 6326.14 74.49 22.00 471.23 2550.44
   18:57:49.930.09-Sep-2020 5280.51 6325.97 74.48 22.00 471.43 2550.44
   18:57:50.130.09-Sep-2020 5280.51 6325.52 74.48 22.00 471.63 2550.44
   18:57:50.330.09-Sep-2020 5280.51 6334.38 74.48 22.00 471.83 2550.44
   18:57:50.530.09-Sep-2020 5280.51 6323.53 74.48 22.00 472.03 2550.44
   18:57:50.729.09-Sep-2020 5280.51 6327.03 74.48 22.00 472.23 2550.44
   18:57:50.929.09-Sep-2020 5280.51 6326.61 74.48 22.00 472.43 2550.44
   18:57:51.129.09-Sep-2020 5280.51 6325.82 74.48 22.00 472.63 2550.44
   18:57:51.329.09-Sep-2020 5280.51 6325.82 74.48 22.00 472.83 2550.44
   18:57:51.529.09-Sep-2020 5280.51 6335.80 74.48 22.00 473.03 2550.44
   18:57:51.729.09-Sep-2020 5280.51 6324.64 74.48 22.00 473.23 2550.44
   18:57:51.928.09-Sep-2020 5280.51 6327.74 74.48 22.00 473.43 2550.44
   18:57:52.128.09-Sep-2020 5280.51 6326.12 74.48 22.00 473.63 2550.44
   18:57:52.328.09-Sep-2020 5280.51 6326.85 74.48 22.00 473.83 2550.44
   18:57:52.528.09-Sep-2020 5280.51 6327.27 74.48 22.00 474.03 2550.44
