~Version Information
 VERS.                  2.0:   CWLS log ASCII Standard -VERSION 2.0
 WRAP.                   NO:   One line per depth step
~Well Information Block
#MNEM.UNIT     VALUE/NAME     DESCRIPTION
#---------     -----------    ---------------------------
 STRT.S             07:31:38 09-Sep-20: START TIME 07:31:38 09-Sep-20
 STOP.S             07:38:38 09-Sep-20: STOP TIME  07:38:38 09-Sep-20
 STEP.S                   0.00: STEP TIME
 NULL.                 -999.25: NULL VALUE
 MDS .        Operator Entered:  MAG DATA SOURCE
 PDAT.          Mean Sea Level:  PERMANENT DATUM
 DCON.         Sperry Drilling:  DIRECTNL CONTR
 RIG .              West Azeri:  RIG NAME
 WELL.           C40 (Slot 20):  WELL NAME
 SRVC.     Turan Drilling Engineering:  CONTRACTOR
 FLD .                     ACG:  FIELD NAME
 CTRY.              Azerbaijan:  COUNTRY NAME
 PROV.                    Baku:  PROVINCE
 STAT.                    Baku:  STATE NAME
 REGN.                   EESSA:  REGION
 BASE.              Azerbaijan:  LOGGING EQUIPMENT BASE LOCATION
 COMP.     BP Exploration (Caspian Sea) Ltd:  COMPANY
 WTYP.                Deviated:  WELL TYPE
 SON .        AZ-XX-0906344804:  JOB NUMBER
 FTOP.          Formation Tops:  FORM TOPS DESC
 ILTD.               Lithology:  INTERP LTH DESC
 SVYD.                  Survey:  SURVEY DESC
 DMOD.             Drill Model:  DRILL MOD DESC
 HPTY.       Minimum Curvature:  HOLE POS TYPE
 NREF.                    Grid:  NORTH REFERENCE
 SPUD.               01-Jan-20:  SPUD DATE
 DATE.      00.59.44 15-Sep-20:  END TIME
 STIM.      12.00.00 12-Jun-20:  START TIME
 DMF .             Drill Floor:  DRILL MEAS FROM
 DFST.                        :  DIST FSL TEXT
 DFWT.                        :  DIST FWL TEXT
 API .                        :  API NUMBER
 CNTY.                        :  COUNTY
 UWI .                        :  UNIQUE WELL IDENTIFIER
 LOC .                        :  LOCATION
 LMF .             Drill Floor:  LOG MEASURED FROM
 VSNS.m                   2.88:  VERT SEC N/S
 VSEW.m                  -3.84:  VERT SEC E/W
 AGAP.m                  43.42:  AIR GAP
 APD .m                  43.42:  DEPTH ABOVE PD
 WDMS.m                 118.27:  WD ELEV
 EGL .m                   0.00:  GROUND ELEVATION
 EPD .m                   0.00:  ELEVATION
 AZTC.deg                 6.23:  AZM TOTAL CORR
 GRDC.deg                 0.20:  GRID CORRECTION
 MDEC.deg                 6.43:  MAGNETIC DECL
 MDIP.deg                59.49:  MAGNETIC DIP
 MFLD.nT              50277.00:  MAGNETIC FIELD
 GVFD.g                   1.00:  GRAVITY FIELD
 VSDR.deg               173.20:  VERT SEC DIRECT
 TDD .m                5790.01:  TOTAL DEPTH (DRILLER)
 SDEP.m                5231.01:  START DEPTH
 DFSL.m                   0.00:  DISTANCE FSL
 DFWL.m                   0.00:  DISTANCE FWL
 UTMY.m             4435808.83:  UTM Y
 UTMX.m              526266.40:  UTM X
 WHEW.m                  -3.84:  WELL HEAD E/W
 WHNS.m                   2.88:  WELL HEAD N/S
 LONG.deg                51.31:  LONGITUDE
 LATI.deg                40.06:  LATITUDE
 TVDS.m                  43.42:  TVDSS CORRECTN
 DEP .m                 430.08:  DEPTH
 EKB .m                  43.42:  KB ELEVATION
 EDF .m                  43.42:  DF ELEVATION
 TDL .m                 559.00:  TOTAL DEPTH (LOGGER)
 MAGU.                 1849381:  MAGUTM CHECKSUM
 VSC .                       0:  VS TO CLOSURE
~Parameter Information Block
#MNEM.UNIT       Value        Description
#---------     -----------    ---------------------------
 AV  .mps                 4.87:  Ann Velocity 
 AVMX.mps                 7.08:  Max Ann Veloc 
 AZIF.deg               108.87:  Azm, Final 
 BHAT.                  Rotary:  BHA Type 
 BROT.°/30m               0.35:  Build Rotating 
 BS  .in                  8.50:  Bit Size 
 BSZ .in                  8.50:  Bit Size 
 BTPL.psig              360.00:  Bit Press Loss 
 CABU.                     Yes:  Customer Abuse 
 COMM.                     |L:  Run Comments 1 
 TCS .hr                106.24:  Time Ciculation Ended 
 CV  .mps                 1.77:  Crit Velocity 
 CVMX.mps                 2.03:  Max Crit Veloc 
 DD1 .         Aykhan Agagulov:  Direct Drillr 1 
 DD2 .            Nonso Okofor:  Direct Drillr 2 
 DDSV.               Geo-Pilot:  DD Service 
 DEFF.%                  98.00:  % Det Eff 
 DLRX.°/30m               0.50:  Dogleg Rot Max 
 DLSO.°/30m               0.40:  Dogleg Oriented 
 DLSX.°/30m               0.94:  Dogleg Str Max 
 DRET.      20.30.00 08-Sep-20:  Drill End Time 
 DRST.      22.15.00 06-Sep-20:  Drill Start Tim 
 DTIM.hr                 31.31:  Time Drilling 
 EDEP.m                5790.01:  End Depth 
 ENG1.           Amrah Tahirov:  Engineer 1 
 ENG2.         Dair Mahammadov:  Engineer 2 
 ENG3.           Emil Huseynov:  Engineer 3 
 ETIM.      04.01.04 12-Sep-20:  End Time 
 FLOI.gpm               450.00:  Flow In 
 FLON.gpm               450.00:  Flow In Min 
 FLOS.cptm                2.00:  Fluid Loss 
 FLOX.gpm               450.00:  Flow In Max 
 FTRO.       Formation Presure:  FTWD Run Obj 
 HFLO.                      No:  High Flow 
 HPRE.                      No:  High Pressure 
 HTEM.                      No:  High Temp 
 HYDO.m                   1.80:  Hydro Offset 
 IFIN.deg                72.03:  Inc, Final 
 IMAX.deg                73.72:  Inc Max 
 IMIN.deg                70.94:  Inc Min 
 IMND.m                5508.52:  Inc Min Depth 
 IMXD.m                5253.60:  Inc Max Depth 
 JARR.                      No:  Jarring 
 LETM.      20.30.00 08-Sep-20:  Log End Time 
 LOST.hr                     0:  Lost Rig Time 
 LSTM.      22.15.00 06-Sep-20:  Log Start Time 
 MDCL.ppm             36000.00:  Mud Chlorides 
 MDES.     Inversion Oil/Synthetic:  Mud Desc 
 DFD .sg                  1.44:  Mud Density 
 MDMN.sg                  1.44:  Dens Mud Min 
 MDMX.sg                  1.57:  Dens Mud Max 
 MOIL.                      70:  Run Mud Oil % 
 MOWR.                   70:30:  Run Mud OWR 
 MSND.                       0:  Run Mud Sand % 
 MSOL.                      21:  Run Mud Solids% 
 DFV .spqt               68.00:  Mud Viscosity 
 MWOD.in                  6.75:  MWD Tool OD 
 MWSI.                     Yes:  Serv Intrp, MWD 
 OTIM.hr                174.84:  Time Operating 
 PCON.           Look Like New:  Pad Condition 
 PMAX.psia            10616.93:  Press Op, Max 
 PV  .cP                 50.00:  Mud PV 
 RUN .                     700:  Run Number 
 ROPA.m/hr               14.24:  ROP Avg 
 ROPN.m/hr               10.00:  ROP Min 
 ROPX.m/hr               32.00:  ROP Max 
 RPMA.rpm               120.90:  RPM Surface Avg 
 RPMN.rpm               120.00:  RPM Surface Min 
 RPMX.rpm               140.00:  RPM Surface Max 
 RRUN.                    0700:  Rig Run Number 
 RTIM.hr                  3.20:  Time Reaming 
 SAZI.deg               109.99:  Azm, Start 
 SDEP.m                5231.01:  Start Depth 
 SIDD.                      No:  Serv Intrp, DD 
 SINC.deg                73.72:  Inc, Start 
 SPPA.psig             3051.00:  SPP Avg 
 SPPN.psig             2950.00:  SPP Min 
 SPPX.psig             3250.00:  SPP Max 
 STIM.      08.00.00 05-Sep-20:  Start Time 
 SVCS.                 DD, MWD:  Services 
 SVER.                    9.20:  Sperry Version 
 TDAT.m                 559.00:  Tot Depth Attmp 
 TDDF.                      No:  Trip for DD 
 TDLG.m                 559.00:  Tot Depth Loggd 
 TFF .                      No:  Trip for Fail 
 TQAA.f-kp               26.49:  Torque Abs Avg 
 TQAN.f-kp               25.00:  Torque Abs Min 
 TQAX.f-kp               27.00:  Torque Abs Max 
 TRRT.°/30m               1.50:  Turn Rotating 
 MRT .                    HCIM:  Maximum Recorded Temperature 
 TTMX.degC               90.20:  Max Tool Temp 
 VS01.                90542671:  Virtual Str1 SN 
 VS02.                90545185:  Virtual Str2 SN 
 VS03.                90602015:  Virtual Str3 SN 
 VS04.                90515230:  Virtual Str4 SN 
 WBMN.klb                 5.00:  WOB Min 
 WOBA.klb                14.79:  WOB Avg 
 WOBX.klb                20.00:  WOB Max 
 YP  .lhf2               29.00:  Yield Point 
~Curve Information Block
#MNEM.UNIT                 API CODE     Curve Description
#---------               -----------    ---------------------------
 TIME.HHMMSS            00 000 000 000:  GT Time & Date
 GTDEPTH.m              00 000 000 000:  GT Depth
 GTPQH.psia             00 000 000 000:  GT HR Quartz Pressure
 GTTQ.degC              00 000 000 000:  GT Quartz Temperature
 GTTN.NONE              00 000 000 000:  GT Test Number
 GTET.sec               00 000 000 000:  GT Elapsed Test Time
 GTTVD.m                00 000 000 000:  GT True Vertical Depth
#Other Information
#
#WARRANTY: Halliburton will use its best efforts to furnish customers with 
#accurate information and interpretations that are part of, and incident to, the services 
#provided.  However, Halliburton cannot and does not warrant the accuracy 
#or correctness of such information and interpretations.  Under no circumstances should any 
#such information or interpretation be relied upon as the sole basis for any drilling, 
#completion, production, or financial decision or any procedure involving any risk to the 
#safety of any drilling venture, drilling rig or its crew or any other third party.  The 
#Customer has full responsibility for all drilling, completion and production operation.  
#Halliburton makes no representations or warranties, either expressed or 
#implied, including, but not limited to, the implied warranties of merchantability or fitness 
#for a particular purpose, with respect to the services rendered.  In no event will 
#Halliburton be liable for failure to obtain any particular results or for 
#any damages, including, but not limited to, indirect, special or consequential damages, 
#resulting from the use of any information or interpretation provided by Halliburton.
#
~A           TIME           GTDEPTH  GTPQH  GTTQ  GTTN  GTET   GTTVD  
# ...
   07:35:28.382.09-Sep-2020 5569.01 3533.46 78.52 4.00 230.09 2640.81
   07:35:28.582.09-Sep-2020 5569.01 3533.46 78.52 4.00 230.29 2640.81
   07:35:28.782.09-Sep-2020 5569.01 3533.47 78.52 4.00 230.49 2640.81
   07:35:28.982.09-Sep-2020 5569.01 3533.47 78.52 4.00 230.69 2640.81
   07:35:29.182.09-Sep-2020 5569.01 3533.43 78.52 4.00 230.89 2640.81
   07:35:29.382.09-Sep-2020 5569.01 3533.45 78.52 4.00 231.09 2640.81
   07:35:29.582.09-Sep-2020 5569.01 3533.45 78.52 4.00 231.29 2640.81
   07:35:29.782.09-Sep-2020 5569.01 3533.45 78.52 4.00 231.49 2640.81
   07:35:29.982.09-Sep-2020 5569.01 3533.45 78.52 4.00 231.69 2640.81
   07:35:30.182.09-Sep-2020 5569.01 3533.44 78.52 4.00 231.89 2640.81
   07:35:30.382.09-Sep-2020 5569.01 3533.44 78.52 4.00 232.09 2640.81
   07:35:30.582.09-Sep-2020 5569.01 3533.44 78.52 4.00 232.29 2640.81
   07:35:30.782.09-Sep-2020 5569.01 3533.45 78.52 4.00 232.50 2640.81
   07:35:30.983.09-Sep-2020 5569.01 3533.44 78.52 4.00 232.70 2640.81
   07:35:31.183.09-Sep-2020 5569.01 3533.45 78.52 4.00 232.90 2640.81
   07:35:31.383.09-Sep-2020 5569.01 3533.44 78.52 4.00 233.10 2640.81
   07:35:31.583.09-Sep-2020 5569.01 3533.44 78.52 4.00 233.30 2640.81
   07:35:31.783.09-Sep-2020 5569.01 3533.44 78.52 4.00 233.50 2640.81
   07:35:31.983.09-Sep-2020 5569.01 3533.44 78.52 4.00 233.70 2640.81
   07:35:32.183.09-Sep-2020 5569.01 3533.48 78.52 4.00 233.90 2640.81
   07:35:32.383.09-Sep-2020 5569.01 3533.41 78.52 4.00 234.10 2640.81
   07:35:32.583.09-Sep-2020 5569.01 3533.41 78.52 4.00 234.30 2640.81
   07:35:32.783.09-Sep-2020 5569.01 3533.44 78.52 4.00 234.50 2640.81
   07:35:32.983.09-Sep-2020 5569.01 3533.45 78.52 4.00 234.70 2640.81
   07:35:33.183.09-Sep-2020 5569.01 3533.45 78.52 4.00 234.90 2640.81
   07:35:33.384.09-Sep-2020 5569.01 3533.44 78.52 4.00 235.10 2640.81
   07:35:33.584.09-Sep-2020 5569.01 3533.44 78.52 4.00 235.30 2640.81
   07:35:33.784.09-Sep-2020 5569.01 3533.44 78.51 4.00 235.50 2640.81
   07:35:33.984.09-Sep-2020 5569.01 3533.45 78.52 4.00 235.70 2640.81
   07:35:34.184.09-Sep-2020 5569.01 3533.44 78.52 4.00 235.90 2640.81
   07:35:34.384.09-Sep-2020 5569.01 3533.45 78.52 4.00 236.10 2640.81
   07:35:34.584.09-Sep-2020 5569.01 3533.45 78.52 4.00 236.30 2640.81
   07:35:34.784.09-Sep-2020 5569.01 3533.44 78.52 4.00 236.50 2640.81
   07:35:34.984.09-Sep-2020 5569.01 3533.44 78.52 4.00 236.70 2640.81
   07:35:35.184.09-Sep-2020 5569.01 3533.45 78.51 4.00 236.90 2640.81
   07:35:35.384.09-Sep-2020 5569.01 3533.44 78.52 4.00 237.10 2640.81
   07:35:35.584.09-Sep-2020 5569.01 3533.44 78.52 4.00 237.30 2640.81
   07:35:35.785.09-Sep-2020 5569.01 3533.42 78.51 4.00 237.50 2640.81
   07:35:35.985.09-Sep-2020 5569.01 3533.46 78.52 4.00 237.70 2640.81
   07:35:36.185.09-Sep-2020 5569.01 3533.43 78.51 4.00 237.90 2640.81
   07:35:36.385.09-Sep-2020 5569.01 3533.45 78.51 4.00 238.10 2640.81
   07:35:36.585.09-Sep-2020 5569.01 3533.45 78.51 4.00 238.30 2640.81
   07:35:36.785.09-Sep-2020 5569.01 3533.42 78.51 4.00 238.50 2640.81
   07:35:36.985.09-Sep-2020 5569.01 3533.47 78.51 4.00 238.70 2640.81
   07:35:37.185.09-Sep-2020 5569.01 3533.46 78.51 4.00 238.90 2640.81
   07:35:37.385.09-Sep-2020 5569.01 3533.43 78.51 4.00 239.10 2640.81
   07:35:37.585.09-Sep-2020 5569.01 3533.43 78.51 4.00 239.30 2640.81
   07:35:37.785.09-Sep-2020 5569.01 3533.43 78.51 4.00 239.50 2640.81
   07:35:37.985.09-Sep-2020 5569.01 3533.48 78.51 4.00 239.70 2640.81
   07:35:38.186.09-Sep-2020 5569.01 3533.41 78.51 4.00 239.90 2640.81
   07:35:38.386.09-Sep-2020 5569.01 3533.44 78.51 4.00 240.10 2640.81
   07:35:38.586.09-Sep-2020 5569.01 3533.44 78.51 4.00 240.30 2640.81
   07:35:38.786.09-Sep-2020 5569.01 3533.44 78.51 4.00 240.50 2640.81
   07:35:38.986.09-Sep-2020 5569.01 3533.44 78.51 4.00 240.70 2640.81
   07:35:39.186.09-Sep-2020 5569.01 3533.43 78.51 4.00 240.90 2640.81
   07:35:39.386.09-Sep-2020 5569.01 3533.47 78.51 4.00 241.10 2640.81
   07:35:39.586.09-Sep-2020 5569.01 3533.47 78.51 4.00 241.30 2640.81
   07:35:39.786.09-Sep-2020 5569.01 3533.46 78.51 4.00 241.50 2640.81
   07:35:39.986.09-Sep-2020 5569.01 3533.43 78.51 4.00 241.70 2640.81
   07:35:40.186.09-Sep-2020 5569.01 3533.45 78.51 4.00 241.90 2640.81
   07:35:40.386.09-Sep-2020 5569.01 3533.40 78.51 4.00 242.10 2640.81
   07:35:40.586.09-Sep-2020 5569.01 3533.40 78.51 4.00 242.30 2640.81
   07:35:40.787.09-Sep-2020 5569.01 3533.46 78.51 4.00 242.50 2640.81
   07:35:40.987.09-Sep-2020 5569.01 3533.43 78.51 4.00 242.70 2640.81
   07:35:41.187.09-Sep-2020 5569.01 3533.44 78.51 4.00 242.90 2640.81
   07:35:41.387.09-Sep-2020 5569.01 3533.43 78.51 4.00 243.10 2640.81
   07:35:41.587.09-Sep-2020 5569.01 3533.43 78.51 4.00 243.30 2640.81
   07:35:41.787.09-Sep-2020 5569.01 3533.44 78.51 4.00 243.50 2640.81
   07:35:41.987.09-Sep-2020 5569.01 3533.44 78.51 4.00 243.70 2640.81
   07:35:42.187.09-Sep-2020 5569.01 3533.45 78.51 4.00 243.90 2640.81
   07:35:42.387.09-Sep-2020 5569.01 3533.44 78.51 4.00 244.10 2640.81
   07:35:42.587.09-Sep-2020 5569.01 3533.44 78.51 4.00 244.30 2640.81
   07:35:42.787.09-Sep-2020 5569.01 3533.44 78.51 4.00 244.50 2640.81
   07:35:42.987.09-Sep-2020 5569.01 3533.44 78.51 4.00 244.70 2640.81
   07:35:43.188.09-Sep-2020 5569.01 3533.44 78.51 4.00 244.90 2640.81
   07:35:43.388.09-Sep-2020 5569.01 3533.44 78.51 4.00 245.10 2640.81
   07:35:43.588.09-Sep-2020 5569.01 3533.44 78.51 4.00 245.30 2640.81
   07:35:43.788.09-Sep-2020 5569.01 3533.44 78.51 4.00 245.50 2640.81
   07:35:43.988.09-Sep-2020 5569.01 3533.47 78.51 4.00 245.70 2640.81
   07:35:44.188.09-Sep-2020 5569.01 3533.41 78.51 4.00 245.90 2640.81
   07:35:44.388.09-Sep-2020 5569.01 3533.44 78.51 4.00 246.10 2640.81
   07:35:44.588.09-Sep-2020 5569.01 3533.44 78.51 4.00 246.30 2640.81
   07:35:44.788.09-Sep-2020 5569.01 3533.44 78.51 4.00 246.50 2640.81
   07:35:44.988.09-Sep-2020 5569.01 3533.44 78.51 4.00 246.70 2640.81
   07:35:45.188.09-Sep-2020 5569.01 3533.44 78.51 4.00 246.90 2640.81
   07:35:45.388.09-Sep-2020 5569.01 3533.44 78.51 4.00 247.10 2640.81
   07:35:45.589.09-Sep-2020 5569.01 3533.44 78.51 4.00 247.30 2640.81
   07:35:45.789.09-Sep-2020 5569.01 3533.43 78.51 4.00 247.50 2640.81
   07:35:45.989.09-Sep-2020 5569.01 3533.44 78.51 4.00 247.70 2640.81
   07:35:46.189.09-Sep-2020 5569.01 3533.44 78.51 4.00 247.90 2640.81
   07:35:46.389.09-Sep-2020 5569.01 3533.44 78.51 4.00 248.10 2640.81
   07:35:46.589.09-Sep-2020 5569.01 3533.44 78.51 4.00 248.30 2640.81
   07:35:46.789.09-Sep-2020 5569.01 3533.44 78.51 4.00 248.50 2640.81
   07:35:46.989.09-Sep-2020 5569.01 3533.43 78.51 4.00 248.70 2640.81
   07:35:47.189.09-Sep-2020 5569.01 3533.44 78.51 4.00 248.90 2640.81
   07:35:47.389.09-Sep-2020 5569.01 3533.47 78.51 4.00 249.10 2640.81
   07:35:47.589.09-Sep-2020 5569.01 3533.47 78.51 4.00 249.30 2640.81
   07:35:47.789.09-Sep-2020 5569.01 3533.45 78.51 4.00 249.50 2640.81
   07:35:47.990.09-Sep-2020 5569.01 3533.43 78.51 4.00 249.70 2640.81
   07:35:48.190.09-Sep-2020 5569.01 3533.45 78.51 4.00 249.90 2640.81
   07:35:48.390.09-Sep-2020 5569.01 3533.43 78.51 4.00 250.10 2640.81
   07:35:48.590.09-Sep-2020 5569.01 3533.43 78.51 4.00 250.30 2640.81
   07:35:48.790.09-Sep-2020 5569.01 3533.47 78.51 4.00 250.50 2640.81
   07:35:48.990.09-Sep-2020 5569.01 3533.45 78.51 4.00 250.70 2640.81
   07:35:49.190.09-Sep-2020 5569.01 3533.43 78.51 4.00 250.90 2640.81
   07:35:49.390.09-Sep-2020 5569.01 3533.44 78.51 4.00 251.10 2640.81
   07:35:49.590.09-Sep-2020 5569.01 3533.44 78.51 4.00 251.30 2640.81
   07:35:49.790.09-Sep-2020 5569.01 3533.47 78.51 4.00 251.50 2640.81
   07:35:49.990.09-Sep-2020 5569.01 3533.40 78.51 4.00 251.70 2640.81
   07:35:50.190.09-Sep-2020 5569.01 3533.44 78.51 4.00 251.90 2640.81
   07:35:50.391.09-Sep-2020 5569.01 3533.44 78.51 4.00 252.10 2640.81
   07:35:50.591.09-Sep-2020 5569.01 3533.44 78.51 4.00 252.30 2640.81
   07:35:50.791.09-Sep-2020 5569.01 3533.43 78.51 4.00 252.50 2640.81
   07:35:50.991.09-Sep-2020 5569.01 3533.44 78.51 4.00 252.70 2640.81
   07:35:51.191.09-Sep-2020 5569.01 3533.47 78.51 4.00 252.90 2640.81
