~Version Information
 VERS.                  2.0:   CWLS log ASCII Standard -VERSION 2.0
 WRAP.                   NO:   One line per depth step
~Well Information Block
#MNEM.UNIT     VALUE/NAME     DESCRIPTION
#---------     -----------    ---------------------------
 STRT.S             11:14:18 09-Sep-20: START TIME 11:14:18 09-Sep-20
 STOP.S             11:21:20 09-Sep-20: STOP TIME  11:21:20 09-Sep-20
 STEP.S                   0.00: STEP TIME
 NULL.                 -999.25: NULL VALUE
 MDS .        Operator Entered:  MAG DATA SOURCE
 PDAT.          Mean Sea Level:  PERMANENT DATUM
 DCON.         Sperry Drilling:  DIRECTNL CONTR
 RIG .              West Azeri:  RIG NAME
 WELL.           C40 (Slot 20):  WELL NAME
 SRVC.     Turan Drilling Engineering:  CONTRACTOR
 FLD .                     ACG:  FIELD NAME
 CTRY.              Azerbaijan:  COUNTRY NAME
 PROV.                    Baku:  PROVINCE
 STAT.                    Baku:  STATE NAME
 REGN.                   EESSA:  REGION
 BASE.              Azerbaijan:  LOGGING EQUIPMENT BASE LOCATION
 COMP.     BP Exploration (Caspian Sea) Ltd:  COMPANY
 WTYP.                Deviated:  WELL TYPE
 SON .        AZ-XX-0906344804:  JOB NUMBER
 FTOP.          Formation Tops:  FORM TOPS DESC
 ILTD.               Lithology:  INTERP LTH DESC
 SVYD.                  Survey:  SURVEY DESC
 DMOD.             Drill Model:  DRILL MOD DESC
 HPTY.       Minimum Curvature:  HOLE POS TYPE
 NREF.                    Grid:  NORTH REFERENCE
 SPUD.               01-Jan-20:  SPUD DATE
 DATE.      00.59.44 15-Sep-20:  END TIME
 STIM.      12.00.00 12-Jun-20:  START TIME
 DMF .             Drill Floor:  DRILL MEAS FROM
 DFST.                        :  DIST FSL TEXT
 DFWT.                        :  DIST FWL TEXT
 API .                        :  API NUMBER
 CNTY.                        :  COUNTY
 UWI .                        :  UNIQUE WELL IDENTIFIER
 LOC .                        :  LOCATION
 LMF .             Drill Floor:  LOG MEASURED FROM
 VSNS.m                   2.88:  VERT SEC N/S
 VSEW.m                  -3.84:  VERT SEC E/W
 AGAP.m                  43.42:  AIR GAP
 APD .m                  43.42:  DEPTH ABOVE PD
 WDMS.m                 118.27:  WD ELEV
 EGL .m                   0.00:  GROUND ELEVATION
 EPD .m                   0.00:  ELEVATION
 AZTC.deg                 6.23:  AZM TOTAL CORR
 GRDC.deg                 0.20:  GRID CORRECTION
 MDEC.deg                 6.43:  MAGNETIC DECL
 MDIP.deg                59.49:  MAGNETIC DIP
 MFLD.nT              50277.00:  MAGNETIC FIELD
 GVFD.g                   1.00:  GRAVITY FIELD
 VSDR.deg               173.20:  VERT SEC DIRECT
 TDD .m                5790.01:  TOTAL DEPTH (DRILLER)
 SDEP.m                5231.01:  START DEPTH
 DFSL.m                   0.00:  DISTANCE FSL
 DFWL.m                   0.00:  DISTANCE FWL
 UTMY.m             4435808.83:  UTM Y
 UTMX.m              526266.40:  UTM X
 WHEW.m                  -3.84:  WELL HEAD E/W
 WHNS.m                   2.88:  WELL HEAD N/S
 LONG.deg                51.31:  LONGITUDE
 LATI.deg                40.06:  LATITUDE
 TVDS.m                  43.42:  TVDSS CORRECTN
 DEP .m                 430.08:  DEPTH
 EKB .m                  43.42:  KB ELEVATION
 EDF .m                  43.42:  DF ELEVATION
 TDL .m                 559.00:  TOTAL DEPTH (LOGGER)
 MAGU.                 1849381:  MAGUTM CHECKSUM
 VSC .                       0:  VS TO CLOSURE
~Parameter Information Block
#MNEM.UNIT       Value        Description
#---------     -----------    ---------------------------
 AV  .mps                 4.87:  Ann Velocity 
 AVMX.mps                 7.08:  Max Ann Veloc 
 AZIF.deg               108.87:  Azm, Final 
 BHAT.                  Rotary:  BHA Type 
 BROT.°/30m               0.35:  Build Rotating 
 BS  .in                  8.50:  Bit Size 
 BSZ .in                  8.50:  Bit Size 
 BTPL.psig              360.00:  Bit Press Loss 
 CABU.                     Yes:  Customer Abuse 
 TCS .hr                106.24:  Time Ciculation Ended 
 CV  .mps                 1.77:  Crit Velocity 
 CVMX.mps                 2.03:  Max Crit Veloc 
 DD1 .         Aykhan Agagulov:  Direct Drillr 1 
 DD2 .            Nonso Okofor:  Direct Drillr 2 
 DDSV.               Geo-Pilot:  DD Service 
 DEFF.%                  98.00:  % Det Eff 
 DLRX.°/30m               0.50:  Dogleg Rot Max 
 DLSO.°/30m               0.40:  Dogleg Oriented 
 DLSX.°/30m               0.94:  Dogleg Str Max 
 DRET.      20.30.00 08-Sep-20:  Drill End Time 
 DRST.      22.15.00 06-Sep-20:  Drill Start Tim 
 DTIM.hr                 31.31:  Time Drilling 
 EDEP.m                5790.01:  End Depth 
 ENG1.           Amrah Tahirov:  Engineer 1 
 ENG2.         Dair Mahammadov:  Engineer 2 
 ENG3.           Emil Huseynov:  Engineer 3 
 ETIM.      04.01.04 12-Sep-20:  End Time 
 FLOI.gpm               450.00:  Flow In 
 FLON.gpm               450.00:  Flow In Min 
 FLOS.cptm                2.00:  Fluid Loss 
 FLOX.gpm               450.00:  Flow In Max 
 FTRO.       Formation Presure:  FTWD Run Obj 
 HFLO.                      No:  High Flow 
 HPRE.                      No:  High Pressure 
 HTEM.                      No:  High Temp 
 HYDO.m                   1.80:  Hydro Offset 
 IFIN.deg                72.03:  Inc, Final 
 IMAX.deg                73.72:  Inc Max 
 IMIN.deg                70.94:  Inc Min 
 IMND.m                5508.52:  Inc Min Depth 
 IMXD.m                5253.60:  Inc Max Depth 
 JARR.                      No:  Jarring 
 LETM.      20.30.00 08-Sep-20:  Log End Time 
 LOST.hr                     0:  Lost Rig Time 
 LSTM.      22.15.00 06-Sep-20:  Log Start Time 
 MDCL.ppm             36000.00:  Mud Chlorides 
 MDES.     Inversion Oil/Synthetic:  Mud Desc 
 DFD .sg                  1.44:  Mud Density 
 MDMN.sg                  1.44:  Dens Mud Min 
 MDMX.sg                  1.57:  Dens Mud Max 
 MOIL.                      70:  Run Mud Oil % 
 MOWR.                   70:30:  Run Mud OWR 
 MSND.                       0:  Run Mud Sand % 
 MSOL.                      21:  Run Mud Solids% 
 DFV .spqt               68.00:  Mud Viscosity 
 MWOD.in                  6.75:  MWD Tool OD 
 MWSI.                     Yes:  Serv Intrp, MWD 
 OTIM.hr                174.84:  Time Operating 
 PCON.           Look Like New:  Pad Condition 
 PMAX.psia            10616.93:  Press Op, Max 
 PV  .cP                 50.00:  Mud PV 
 RUN .                     700:  Run Number 
 ROPA.m/hr               14.24:  ROP Avg 
 ROPN.m/hr               10.00:  ROP Min 
 ROPX.m/hr               32.00:  ROP Max 
 RPMA.rpm               120.90:  RPM Surface Avg 
 RPMN.rpm               120.00:  RPM Surface Min 
 RPMX.rpm               140.00:  RPM Surface Max 
 RRUN.                    0700:  Rig Run Number 
 RTIM.hr                  3.20:  Time Reaming 
 SAZI.deg               109.99:  Azm, Start 
 SDEP.m                5231.01:  Start Depth 
 SIDD.                      No:  Serv Intrp, DD 
 SINC.deg                73.72:  Inc, Start 
 SPPA.psig             3051.00:  SPP Avg 
 SPPN.psig             2950.00:  SPP Min 
 SPPX.psig             3250.00:  SPP Max 
 STIM.      08.00.00 05-Sep-20:  Start Time 
 SVCS.                 DD, MWD:  Services 
 SVER.                    9.20:  Sperry Version 
 TDAT.m                 559.00:  Tot Depth Attmp 
 TDDF.                      No:  Trip for DD 
 TDLG.m                 559.00:  Tot Depth Loggd 
 TFF .                      No:  Trip for Fail 
 TQAA.f-kp               26.49:  Torque Abs Avg 
 TQAN.f-kp               25.00:  Torque Abs Min 
 TQAX.f-kp               27.00:  Torque Abs Max 
 TRRT.°/30m               1.50:  Turn Rotating 
 MRT .                    HCIM:  Maximum Recorded Temperature 
 TTMX.degC               90.20:  Max Tool Temp 
 VS01.                90542671:  Virtual Str1 SN 
 VS02.                90545185:  Virtual Str2 SN 
 VS03.                90602015:  Virtual Str3 SN 
 VS04.                90515230:  Virtual Str4 SN 
 WBMN.klb                 5.00:  WOB Min 
 WOBA.klb                14.79:  WOB Avg 
 WOBX.klb                20.00:  WOB Max 
 YP  .lhf2               29.00:  Yield Point 
~Curve Information Block
#MNEM.UNIT                 API CODE     Curve Description
#---------               -----------    ---------------------------
 TIME.HHMMSS            00 000 000 000:  GT Time & Date
 GTDEPTH.m              00 000 000 000:  GT Depth
 GTPQH.psia             00 000 000 000:  GT HR Quartz Pressure
 GTTQ.degC              00 000 000 000:  GT Quartz Temperature
 GTTN.NONE              00 000 000 000:  GT Test Number
 GTET.sec               00 000 000 000:  GT Elapsed Test Time
 GTTVD.m                00 000 000 000:  GT True Vertical Depth
#Other Information
#
#WARRANTY: Halliburton will use its best efforts to furnish customers with 
#accurate information and interpretations that are part of, and incident to, the services 
#provided.  However, Halliburton cannot and does not warrant the accuracy 
#or correctness of such information and interpretations.  Under no circumstances should any 
#such information or interpretation be relied upon as the sole basis for any drilling, 
#completion, production, or financial decision or any procedure involving any risk to the 
#safety of any drilling venture, drilling rig or its crew or any other third party.  The 
#Customer has full responsibility for all drilling, completion and production operation.  
#Halliburton makes no representations or warranties, either expressed or 
#implied, including, but not limited to, the implied warranties of merchantability or fitness 
#for a particular purpose, with respect to the services rendered.  In no event will 
#Halliburton be liable for failure to obtain any particular results or for 
#any damages, including, but not limited to, indirect, special or consequential damages, 
#resulting from the use of any information or interpretation provided by Halliburton.
#
~A           TIME           GTDEPTH  GTPQH  GTTQ  GTTN   GTET   GTTVD  
# ...
   11:18:49.785.09-Sep-2020 5442.01 3582.01 76.10 11.00 271.27 2600.30
   11:18:49.985.09-Sep-2020 5442.01 3582.01 76.10 11.00 271.47 2600.30
   11:18:50.185.09-Sep-2020 5442.01 3582.01 76.10 11.00 271.68 2600.30
   11:18:50.385.09-Sep-2020 5442.01 3582.02 76.10 11.00 271.88 2600.30
   11:18:50.586.09-Sep-2020 5442.01 3582.02 76.10 11.00 272.08 2600.30
   11:18:50.786.09-Sep-2020 5442.01 3582.03 76.10 11.00 272.28 2600.30
   11:18:50.986.09-Sep-2020 5442.01 3582.02 76.10 11.00 272.48 2600.30
   11:18:51.186.09-Sep-2020 5442.01 3582.03 76.10 11.00 272.68 2600.30
   11:18:51.386.09-Sep-2020 5442.01 3582.03 76.10 11.00 272.88 2600.30
   11:18:51.586.09-Sep-2020 5442.01 3582.03 76.10 11.00 273.08 2600.30
   11:18:51.786.09-Sep-2020 5442.01 3582.03 76.10 11.00 273.28 2600.30
   11:18:51.986.09-Sep-2020 5442.01 3582.03 76.10 11.00 273.48 2600.30
   11:18:52.186.09-Sep-2020 5442.01 3582.03 76.10 11.00 273.68 2600.30
   11:18:52.386.09-Sep-2020 5442.01 3581.99 76.10 11.00 273.88 2600.30
   11:18:52.586.09-Sep-2020 5442.01 3582.08 76.10 11.00 274.08 2600.30
   11:18:52.786.09-Sep-2020 5442.01 3582.08 76.10 11.00 274.28 2600.30
   11:18:52.986.09-Sep-2020 5442.01 3582.04 76.10 11.00 274.48 2600.30
   11:18:53.186.09-Sep-2020 5442.01 3582.03 76.10 11.00 274.68 2600.30
   11:18:53.386.09-Sep-2020 5442.01 3582.03 76.10 11.00 274.88 2600.30
   11:18:53.586.09-Sep-2020 5442.01 3582.04 76.10 11.00 275.08 2600.30
   11:18:53.786.09-Sep-2020 5442.01 3582.04 76.10 11.00 275.28 2600.30
   11:18:53.986.09-Sep-2020 5442.01 3582.03 76.10 11.00 275.48 2600.30
   11:18:54.187.09-Sep-2020 5442.01 3582.03 76.10 11.00 275.68 2600.30
   11:18:54.387.09-Sep-2020 5442.01 3582.04 76.10 11.00 275.88 2600.30
   11:18:54.587.09-Sep-2020 5442.01 3582.04 76.10 11.00 276.08 2600.30
   11:18:54.787.09-Sep-2020 5442.01 3582.04 76.10 11.00 276.28 2600.30
   11:18:54.987.09-Sep-2020 5442.01 3582.01 76.10 11.00 276.48 2600.30
   11:18:55.187.09-Sep-2020 5442.01 3582.05 76.10 11.00 276.68 2600.30
   11:18:55.387.09-Sep-2020 5442.01 3582.04 76.10 11.00 276.88 2600.30
   11:18:55.587.09-Sep-2020 5442.01 3582.04 76.10 11.00 277.08 2600.30
   11:18:55.787.09-Sep-2020 5442.01 3582.04 76.10 11.00 277.28 2600.30
   11:18:55.987.09-Sep-2020 5442.01 3582.03 76.10 11.00 277.48 2600.30
   11:18:56.187.09-Sep-2020 5442.01 3582.04 76.10 11.00 277.68 2600.30
   11:18:56.387.09-Sep-2020 5442.01 3582.06 76.10 11.00 277.88 2600.30
   11:18:56.587.09-Sep-2020 5442.01 3582.01 76.10 11.00 278.08 2600.30
   11:18:56.787.09-Sep-2020 5442.01 3582.01 76.10 11.00 278.28 2600.30
   11:18:56.987.09-Sep-2020 5442.01 3582.04 76.10 11.00 278.48 2600.30
   11:18:57.187.09-Sep-2020 5442.01 3582.05 76.10 11.00 278.68 2600.30
   11:18:57.387.09-Sep-2020 5442.01 3582.02 76.10 11.00 278.88 2600.30
   11:18:57.587.09-Sep-2020 5442.01 3582.04 76.10 11.00 279.08 2600.30
   11:18:57.788.09-Sep-2020 5442.01 3582.04 76.10 11.00 279.28 2600.30
   11:18:57.988.09-Sep-2020 5442.01 3582.01 76.10 11.00 279.48 2600.30
   11:18:58.188.09-Sep-2020 5442.01 3582.06 76.10 11.00 279.68 2600.30
   11:18:58.388.09-Sep-2020 5442.01 3582.04 76.10 11.00 279.88 2600.30
   11:18:58.588.09-Sep-2020 5442.01 3582.04 76.10 11.00 280.08 2600.30
   11:18:58.788.09-Sep-2020 5442.01 3582.03 76.10 11.00 280.28 2600.30
   11:18:58.988.09-Sep-2020 5442.01 3582.04 76.10 11.00 280.48 2600.30
   11:18:59.188.09-Sep-2020 5442.01 3582.03 76.10 11.00 280.68 2600.30
   11:18:59.388.09-Sep-2020 5442.01 3582.04 76.10 11.00 280.88 2600.30
   11:18:59.588.09-Sep-2020 5442.01 3582.03 76.10 11.00 281.08 2600.30
   11:18:59.788.09-Sep-2020 5442.01 3582.03 76.10 11.00 281.28 2600.30
   11:18:59.988.09-Sep-2020 5442.01 3582.04 76.10 11.00 281.48 2600.30
   11:19:00.188.09-Sep-2020 5442.01 3582.04 76.10 11.00 281.68 2600.30
   11:19:00.388.09-Sep-2020 5442.01 3582.04 76.10 11.00 281.88 2600.30
   11:19:00.588.09-Sep-2020 5442.01 3582.04 76.10 11.00 282.08 2600.30
   11:19:00.788.09-Sep-2020 5442.01 3582.04 76.10 11.00 282.28 2600.30
   11:19:00.988.09-Sep-2020 5442.01 3582.04 76.10 11.00 282.48 2600.30
   11:19:01.188.09-Sep-2020 5442.01 3582.04 76.10 11.00 282.68 2600.30
   11:19:01.389.09-Sep-2020 5442.01 3582.04 76.10 11.00 282.88 2600.30
   11:19:01.589.09-Sep-2020 5442.01 3582.05 76.10 11.00 283.08 2600.30
   11:19:01.789.09-Sep-2020 5442.01 3582.05 76.10 11.00 283.28 2600.30
   11:19:01.989.09-Sep-2020 5442.01 3582.04 76.10 11.00 283.48 2600.30
   11:19:02.189.09-Sep-2020 5442.01 3582.05 76.10 11.00 283.68 2600.30
   11:19:02.389.09-Sep-2020 5442.01 3582.03 76.10 11.00 283.88 2600.30
   11:19:02.589.09-Sep-2020 5442.01 3582.05 76.10 11.00 284.08 2600.30
   11:19:02.789.09-Sep-2020 5442.01 3582.04 76.10 11.00 284.28 2600.30
   11:19:02.989.09-Sep-2020 5442.01 3582.03 76.10 11.00 284.48 2600.30
   11:19:03.189.09-Sep-2020 5442.01 3582.04 76.10 11.00 284.68 2600.30
   11:19:03.389.09-Sep-2020 5442.01 3582.04 76.10 11.00 284.88 2600.30
   11:19:03.589.09-Sep-2020 5442.01 3582.04 76.10 11.00 285.08 2600.30
   11:19:03.789.09-Sep-2020 5442.01 3582.04 76.10 11.00 285.28 2600.30
   11:19:03.989.09-Sep-2020 5442.01 3582.04 76.10 11.00 285.48 2600.30
   11:19:04.189.09-Sep-2020 5442.01 3582.04 76.10 11.00 285.68 2600.30
   11:19:04.389.09-Sep-2020 5442.01 3582.04 76.10 11.00 285.88 2600.30
   11:19:04.589.09-Sep-2020 5442.01 3582.04 76.10 11.00 286.08 2600.30
   11:19:04.789.09-Sep-2020 5442.01 3582.04 76.10 11.00 286.28 2600.30
   11:19:04.990.09-Sep-2020 5442.01 3582.07 76.10 11.00 286.48 2600.30
   11:19:05.190.09-Sep-2020 5442.01 3582.00 76.10 11.00 286.68 2600.30
   11:19:05.390.09-Sep-2020 5442.01 3582.04 76.10 11.00 286.88 2600.30
   11:19:05.590.09-Sep-2020 5442.01 3582.04 76.10 11.00 287.08 2600.30
   11:19:05.790.09-Sep-2020 5442.01 3582.04 76.10 11.00 287.28 2600.30
   11:19:05.990.09-Sep-2020 5442.01 3582.03 76.10 11.00 287.48 2600.30
   11:19:06.190.09-Sep-2020 5442.01 3582.01 76.10 11.00 287.68 2600.30
   11:19:06.390.09-Sep-2020 5442.01 3582.06 76.10 11.00 287.88 2600.30
   11:19:06.590.09-Sep-2020 5442.01 3582.03 76.10 11.00 288.08 2600.30
   11:19:06.790.09-Sep-2020 5442.01 3582.05 76.10 11.00 288.28 2600.30
   11:19:06.990.09-Sep-2020 5442.01 3582.03 76.10 11.00 288.48 2600.30
   11:19:07.190.09-Sep-2020 5442.01 3582.03 76.10 11.00 288.68 2600.30
   11:19:07.390.09-Sep-2020 5442.01 3582.04 76.10 11.00 288.88 2600.30
   11:19:07.590.09-Sep-2020 5442.01 3582.00 76.10 11.00 289.08 2600.30
   11:19:07.790.09-Sep-2020 5442.01 3582.00 76.10 11.00 289.28 2600.30
   11:19:07.990.09-Sep-2020 5442.01 3582.03 76.10 11.00 289.48 2600.30
   11:19:08.190.09-Sep-2020 5442.01 3582.04 76.10 11.00 289.68 2600.30
   11:19:08.390.09-Sep-2020 5442.01 3582.03 76.10 11.00 289.88 2600.30
   11:19:08.590.09-Sep-2020 5442.01 3582.04 76.10 11.00 290.08 2600.30
   11:19:08.791.09-Sep-2020 5442.01 3582.04 76.10 11.00 290.28 2600.30
   11:19:08.991.09-Sep-2020 5442.01 3582.04 76.10 11.00 290.48 2600.30
   11:19:09.191.09-Sep-2020 5442.01 3582.07 76.10 11.00 290.68 2600.30
   11:19:09.391.09-Sep-2020 5442.01 3582.00 76.10 11.00 290.88 2600.30
   11:19:09.591.09-Sep-2020 5442.01 3582.03 76.10 11.00 291.08 2600.30
   11:19:09.791.09-Sep-2020 5442.01 3582.03 76.10 11.00 291.28 2600.30
   11:19:09.991.09-Sep-2020 5442.01 3582.05 76.10 11.00 291.48 2600.30
   11:19:10.191.09-Sep-2020 5442.01 3582.02 76.10 11.00 291.68 2600.30
   11:19:10.391.09-Sep-2020 5442.01 3582.04 76.10 11.00 291.88 2600.30
   11:19:10.591.09-Sep-2020 5442.01 3582.07 76.10 11.00 292.08 2600.30
   11:19:10.791.09-Sep-2020 5442.01 3582.00 76.10 11.00 292.28 2600.30
   11:19:10.991.09-Sep-2020 5442.01 3582.04 76.10 11.00 292.48 2600.30
   11:19:11.191.09-Sep-2020 5442.01 3582.03 76.10 11.00 292.68 2600.30
   11:19:11.391.09-Sep-2020 5442.01 3582.05 76.10 11.00 292.88 2600.30
   11:19:11.591.09-Sep-2020 5442.01 3582.02 76.10 11.00 293.08 2600.30
   11:19:11.791.09-Sep-2020 5442.01 3582.02 76.10 11.00 293.28 2600.30
   11:19:11.991.09-Sep-2020 5442.01 3582.03 76.10 11.00 293.48 2600.30
   11:19:12.191.09-Sep-2020 5442.01 3582.04 76.10 11.00 293.68 2600.30
