~Version Information
 VERS.                  2.0:   CWLS log ASCII Standard -VERSION 2.0
 WRAP.                   NO:   One line per depth step
~Well Information Block
#MNEM.UNIT     VALUE/NAME     DESCRIPTION
#---------     -----------    ---------------------------
 STRT.S             13:30:41 09-Sep-20: START TIME 13:30:41 09-Sep-20
 STOP.S             13:37:24 09-Sep-20: STOP TIME  13:37:24 09-Sep-20
 STEP.S                   0.00: STEP TIME
 NULL.                 -999.25: NULL VALUE
 MDS .        Operator Entered:  MAG DATA SOURCE
 PDAT.          Mean Sea Level:  PERMANENT DATUM
 DCON.         Sperry Drilling:  DIRECTNL CONTR
 RIG .              West Azeri:  RIG NAME
 WELL.           C40 (Slot 20):  WELL NAME
 SRVC.     Turan Drilling Engineering:  CONTRACTOR
 FLD .                     ACG:  FIELD NAME
 CTRY.              Azerbaijan:  COUNTRY NAME
 PROV.                    Baku:  PROVINCE
 STAT.                    Baku:  STATE NAME
 REGN.                   EESSA:  REGION
 BASE.              Azerbaijan:  LOGGING EQUIPMENT BASE LOCATION
 COMP.     BP Exploration (Caspian Sea) Ltd:  COMPANY
 WTYP.                Deviated:  WELL TYPE
 SON .        AZ-XX-0906344804:  JOB NUMBER
 FTOP.          Formation Tops:  FORM TOPS DESC
 ILTD.               Lithology:  INTERP LTH DESC
 SVYD.                  Survey:  SURVEY DESC
 DMOD.             Drill Model:  DRILL MOD DESC
 HPTY.       Minimum Curvature:  HOLE POS TYPE
 NREF.                    Grid:  NORTH REFERENCE
 SPUD.               01-Jan-20:  SPUD DATE
 DATE.      00.59.44 15-Sep-20:  END TIME
 STIM.      12.00.00 12-Jun-20:  START TIME
 DMF .             Drill Floor:  DRILL MEAS FROM
 DFST.                        :  DIST FSL TEXT
 DFWT.                        :  DIST FWL TEXT
 API .                        :  API NUMBER
 CNTY.                        :  COUNTY
 UWI .                        :  UNIQUE WELL IDENTIFIER
 LOC .                        :  LOCATION
 LMF .             Drill Floor:  LOG MEASURED FROM
 VSNS.m                   2.88:  VERT SEC N/S
 VSEW.m                  -3.84:  VERT SEC E/W
 AGAP.m                  43.42:  AIR GAP
 APD .m                  43.42:  DEPTH ABOVE PD
 WDMS.m                 118.27:  WD ELEV
 EGL .m                   0.00:  GROUND ELEVATION
 EPD .m                   0.00:  ELEVATION
 AZTC.deg                 6.23:  AZM TOTAL CORR
 GRDC.deg                 0.20:  GRID CORRECTION
 MDEC.deg                 6.43:  MAGNETIC DECL
 MDIP.deg                59.49:  MAGNETIC DIP
 MFLD.nT              50277.00:  MAGNETIC FIELD
 GVFD.g                   1.00:  GRAVITY FIELD
 VSDR.deg               173.20:  VERT SEC DIRECT
 TDD .m                5790.01:  TOTAL DEPTH (DRILLER)
 SDEP.m                5231.01:  START DEPTH
 DFSL.m                   0.00:  DISTANCE FSL
 DFWL.m                   0.00:  DISTANCE FWL
 UTMY.m             4435808.83:  UTM Y
 UTMX.m              526266.40:  UTM X
 WHEW.m                  -3.84:  WELL HEAD E/W
 WHNS.m                   2.88:  WELL HEAD N/S
 LONG.deg                51.31:  LONGITUDE
 LATI.deg                40.06:  LATITUDE
 TVDS.m                  43.42:  TVDSS CORRECTN
 DEP .m                 430.08:  DEPTH
 EKB .m                  43.42:  KB ELEVATION
 EDF .m                  43.42:  DF ELEVATION
 TDL .m                 559.00:  TOTAL DEPTH (LOGGER)
 MAGU.                 1849381:  MAGUTM CHECKSUM
 VSC .                       0:  VS TO CLOSURE
~Parameter Information Block
#MNEM.UNIT       Value        Description
#---------     -----------    ---------------------------
 AV  .mps                 4.87:  Ann Velocity 
 AVMX.mps                 7.08:  Max Ann Veloc 
 AZIF.deg               108.87:  Azm, Final 
 BHAT.                  Rotary:  BHA Type 
 BROT.°/30m               0.35:  Build Rotating 
 BS  .in                  8.50:  Bit Size 
 BSZ .in                  8.50:  Bit Size 
 BTPL.psig              360.00:  Bit Press Loss 
 CABU.                     Yes:  Customer Abuse 
 COMM.                     $ñd:  Run Comments 1 
 TCS .hr                106.24:  Time Ciculation Ended 
 CV  .mps                 1.77:  Crit Velocity 
 CVMX.mps                 2.03:  Max Crit Veloc 
 DD1 .         Aykhan Agagulov:  Direct Drillr 1 
 DD2 .            Nonso Okofor:  Direct Drillr 2 
 DDSV.               Geo-Pilot:  DD Service 
 DEFF.%                  98.00:  % Det Eff 
 DLRX.°/30m               0.50:  Dogleg Rot Max 
 DLSO.°/30m               0.40:  Dogleg Oriented 
 DLSX.°/30m               0.94:  Dogleg Str Max 
 DRET.      20.30.00 08-Sep-20:  Drill End Time 
 DRST.      22.15.00 06-Sep-20:  Drill Start Tim 
 DTIM.hr                 31.31:  Time Drilling 
 EDEP.m                5790.01:  End Depth 
 ENG1.           Amrah Tahirov:  Engineer 1 
 ENG2.         Dair Mahammadov:  Engineer 2 
 ENG3.           Emil Huseynov:  Engineer 3 
 ETIM.      04.01.04 12-Sep-20:  End Time 
 FLOI.gpm               450.00:  Flow In 
 FLON.gpm               450.00:  Flow In Min 
 FLOS.cptm                2.00:  Fluid Loss 
 FLOX.gpm               450.00:  Flow In Max 
 FTRO.       Formation Presure:  FTWD Run Obj 
 HFLO.                      No:  High Flow 
 HPRE.                      No:  High Pressure 
 HTEM.                      No:  High Temp 
 HYDO.m                   1.80:  Hydro Offset 
 IFIN.deg                72.03:  Inc, Final 
 IMAX.deg                73.72:  Inc Max 
 IMIN.deg                70.94:  Inc Min 
 IMND.m                5508.52:  Inc Min Depth 
 IMXD.m                5253.60:  Inc Max Depth 
 JARR.                      No:  Jarring 
 LETM.      20.30.00 08-Sep-20:  Log End Time 
 LOST.hr                     0:  Lost Rig Time 
 LSTM.      22.15.00 06-Sep-20:  Log Start Time 
 MDCL.ppm             36000.00:  Mud Chlorides 
 MDES.     Inversion Oil/Synthetic:  Mud Desc 
 DFD .sg                  1.44:  Mud Density 
 MDMN.sg                  1.44:  Dens Mud Min 
 MDMX.sg                  1.57:  Dens Mud Max 
 MOIL.                      70:  Run Mud Oil % 
 MOWR.                   70:30:  Run Mud OWR 
 MSND.                       0:  Run Mud Sand % 
 MSOL.                      21:  Run Mud Solids% 
 DFV .spqt               68.00:  Mud Viscosity 
 MWOD.in                  6.75:  MWD Tool OD 
 MWSI.                     Yes:  Serv Intrp, MWD 
 OTIM.hr                174.84:  Time Operating 
 PCON.           Look Like New:  Pad Condition 
 PMAX.psia            10616.93:  Press Op, Max 
 PV  .cP                 50.00:  Mud PV 
 RUN .                     700:  Run Number 
 ROPA.m/hr               14.24:  ROP Avg 
 ROPN.m/hr               10.00:  ROP Min 
 ROPX.m/hr               32.00:  ROP Max 
 RPMA.rpm               120.90:  RPM Surface Avg 
 RPMN.rpm               120.00:  RPM Surface Min 
 RPMX.rpm               140.00:  RPM Surface Max 
 RRUN.                    0700:  Rig Run Number 
 RTIM.hr                  3.20:  Time Reaming 
 SAZI.deg               109.99:  Azm, Start 
 SDEP.m                5231.01:  Start Depth 
 SIDD.                      No:  Serv Intrp, DD 
 SINC.deg                73.72:  Inc, Start 
 SPPA.psig             3051.00:  SPP Avg 
 SPPN.psig             2950.00:  SPP Min 
 SPPX.psig             3250.00:  SPP Max 
 STIM.      08.00.00 05-Sep-20:  Start Time 
 SVCS.                 DD, MWD:  Services 
 SVER.                    9.20:  Sperry Version 
 TDAT.m                 559.00:  Tot Depth Attmp 
 TDDF.                      No:  Trip for DD 
 TDLG.m                 559.00:  Tot Depth Loggd 
 TFF .                      No:  Trip for Fail 
 TQAA.f-kp               26.49:  Torque Abs Avg 
 TQAN.f-kp               25.00:  Torque Abs Min 
 TQAX.f-kp               27.00:  Torque Abs Max 
 TRRT.°/30m               1.50:  Turn Rotating 
 MRT .                    HCIM:  Maximum Recorded Temperature 
 TTMX.degC               90.20:  Max Tool Temp 
 VS01.                90542671:  Virtual Str1 SN 
 VS02.                90545185:  Virtual Str2 SN 
 VS03.                90602015:  Virtual Str3 SN 
 VS04.                90515230:  Virtual Str4 SN 
 WBMN.klb                 5.00:  WOB Min 
 WOBA.klb                14.79:  WOB Avg 
 WOBX.klb                20.00:  WOB Max 
 YP  .lhf2               29.00:  Yield Point 
~Curve Information Block
#MNEM.UNIT                 API CODE     Curve Description
#---------               -----------    ---------------------------
 TIME.HHMMSS            00 000 000 000:  GT Time & Date
 GTDEPTH.m              00 000 000 000:  GT Depth
 GTPQH.psia             00 000 000 000:  GT HR Quartz Pressure
 GTTQ.degC              00 000 000 000:  GT Quartz Temperature
 GTTN.NONE              00 000 000 000:  GT Test Number
 GTET.sec               00 000 000 000:  GT Elapsed Test Time
 GTTVD.m                00 000 000 000:  GT True Vertical Depth
#Other Information
#
#WARRANTY: Halliburton will use its best efforts to furnish customers with 
#accurate information and interpretations that are part of, and incident to, the services 
#provided.  However, Halliburton cannot and does not warrant the accuracy 
#or correctness of such information and interpretations.  Under no circumstances should any 
#such information or interpretation be relied upon as the sole basis for any drilling, 
#completion, production, or financial decision or any procedure involving any risk to the 
#safety of any drilling venture, drilling rig or its crew or any other third party.  The 
#Customer has full responsibility for all drilling, completion and production operation.  
#Halliburton makes no representations or warranties, either expressed or 
#implied, including, but not limited to, the implied warranties of merchantability or fitness 
#for a particular purpose, with respect to the services rendered.  In no event will 
#Halliburton be liable for failure to obtain any particular results or for 
#any damages, including, but not limited to, indirect, special or consequential damages, 
#resulting from the use of any information or interpretation provided by Halliburton.
#
~A           TIME           GTDEPTH  GTPQH  GTTQ  GTTN   GTET   GTTVD  
# ...
   13:32:34.554.09-Sep-2020 5408.01 3594.59 75.49 15.00 113.07 2589.60
   13:32:34.754.09-Sep-2020 5408.01 3594.59 75.49 15.00 113.27 2589.60
   13:32:34.954.09-Sep-2020 5408.01 3594.68 75.49 15.00 113.47 2589.60
   13:32:35.154.09-Sep-2020 5408.01 3594.65 75.49 15.00 113.67 2589.60
   13:32:35.354.09-Sep-2020 5408.01 3594.67 75.49 15.00 113.87 2589.60
   13:32:35.554.09-Sep-2020 5408.01 3594.68 75.49 15.00 114.07 2589.60
   13:32:35.754.09-Sep-2020 5408.01 3594.68 75.49 15.00 114.27 2589.60
   13:32:35.954.09-Sep-2020 5408.01 3594.59 75.49 15.00 114.47 2589.60
   13:32:36.155.09-Sep-2020 5408.01 3594.58 75.49 15.00 114.67 2589.60
   13:32:36.355.09-Sep-2020 5408.01 3594.54 75.49 15.00 114.87 2589.60
   13:32:36.555.09-Sep-2020 5408.01 3594.44 75.49 15.00 115.07 2589.60
   13:32:36.755.09-Sep-2020 5408.01 3594.44 75.49 15.00 115.27 2589.60
   13:32:36.955.09-Sep-2020 5408.01 3594.46 75.49 15.00 115.47 2589.60
   13:32:37.155.09-Sep-2020 5408.01 3594.48 75.49 15.00 115.67 2589.60
   13:32:37.355.09-Sep-2020 5408.01 3594.46 75.49 15.00 115.87 2589.60
   13:32:37.555.09-Sep-2020 5408.01 3593.39 75.49 15.00 116.07 2589.60
   13:32:37.756.09-Sep-2020 5408.01 3594.71 75.49 15.00 116.27 2589.60
   13:32:37.956.09-Sep-2020 5408.01 3594.62 75.49 15.00 116.47 2589.60
   13:32:38.156.09-Sep-2020 5408.01 3594.50 75.49 15.00 116.67 2589.60
   13:32:38.356.09-Sep-2020 5408.01 3594.57 75.49 15.00 116.87 2589.60
   13:32:38.556.09-Sep-2020 5408.01 3594.38 75.49 15.00 117.07 2589.60
   13:32:38.756.09-Sep-2020 5408.01 3594.38 75.49 15.00 117.27 2589.60
   13:32:38.956.09-Sep-2020 5408.01 3594.16 75.49 15.00 117.47 2589.60
   13:32:39.156.09-Sep-2020 5408.01 3594.15 75.49 15.00 117.67 2589.60
   13:32:39.356.09-Sep-2020 5408.01 3594.12 75.49 15.00 117.87 2589.60
   13:32:39.557.09-Sep-2020 5408.01 3594.12 75.49 15.00 118.07 2589.60
   13:32:39.757.09-Sep-2020 5408.01 3594.12 75.49 15.00 118.27 2589.60
   13:32:39.957.09-Sep-2020 5408.01 3593.90 75.49 15.00 118.47 2589.60
   13:32:40.157.09-Sep-2020 5408.01 3593.91 75.49 15.00 118.67 2589.60
   13:32:40.357.09-Sep-2020 5408.01 3593.94 75.49 15.00 118.87 2589.60
   13:32:40.557.09-Sep-2020 5408.01 3593.97 75.49 15.00 119.07 2589.60
   13:32:40.757.09-Sep-2020 5408.01 3593.97 75.49 15.00 119.27 2589.60
   13:32:40.957.09-Sep-2020 5408.01 3594.21 75.49 15.00 119.47 2589.60
   13:32:41.158.09-Sep-2020 5408.01 3594.27 75.49 15.00 119.67 2589.60
   13:32:41.358.09-Sep-2020 5408.01 3594.20 75.49 15.00 119.87 2589.60
   13:32:41.558.09-Sep-2020 5408.01 3594.03 75.49 15.00 120.07 2589.60
   13:32:41.758.09-Sep-2020 5408.01 3594.20 75.49 15.00 120.27 2589.60
   13:32:41.958.09-Sep-2020 5408.01 3592.23 75.49 15.00 120.47 2589.60
   13:32:42.158.09-Sep-2020 5408.01 3594.55 75.49 15.00 120.67 2589.60
   13:32:42.358.09-Sep-2020 5408.01 3594.02 75.49 15.00 120.87 2589.60
   13:32:42.558.09-Sep-2020 5408.01 3594.04 75.49 15.00 121.07 2589.60
   13:32:42.759.09-Sep-2020 5408.01 3594.04 75.49 15.00 121.27 2589.60
   13:32:42.959.09-Sep-2020 5408.01 3593.17 75.49 15.00 121.47 2589.60
   13:32:43.159.09-Sep-2020 5408.01 3594.31 75.49 15.00 121.67 2589.60
   13:32:43.359.09-Sep-2020 5408.01 3594.34 75.49 15.00 121.87 2589.60
   13:32:43.559.09-Sep-2020 5408.01 3594.41 75.49 15.00 122.07 2589.60
   13:32:43.759.09-Sep-2020 5408.01 3594.41 75.49 15.00 122.27 2589.60
   13:32:43.959.09-Sep-2020 5408.01 3594.55 75.49 15.00 122.47 2589.60
   13:32:44.159.09-Sep-2020 5408.01 3594.50 75.49 15.00 122.67 2589.60
   13:32:44.360.09-Sep-2020 5408.01 3594.55 75.49 15.00 122.88 2589.60
   13:32:44.560.09-Sep-2020 5408.01 3593.24 75.49 15.00 123.08 2589.60
   13:32:44.760.09-Sep-2020 5408.01 3593.24 75.49 15.00 123.28 2589.60
   13:32:44.960.09-Sep-2020 5408.01 3594.90 75.49 15.00 123.48 2589.60
   13:32:45.160.09-Sep-2020 5408.01 3594.82 75.49 15.00 123.68 2589.60
   13:32:45.360.09-Sep-2020 5408.01 3594.76 75.49 15.00 123.88 2589.60
   13:32:45.560.09-Sep-2020 5408.01 3595.16 75.49 15.00 124.08 2589.60
   13:32:45.760.09-Sep-2020 5408.01 3594.99 75.49 15.00 124.28 2589.60
   13:32:45.961.09-Sep-2020 5408.01 3594.95 75.49 15.00 124.48 2589.60
   13:32:46.161.09-Sep-2020 5408.01 3595.02 75.49 15.00 124.68 2589.60
   13:32:46.361.09-Sep-2020 5408.01 3594.96 75.49 15.00 124.88 2589.60
   13:32:46.561.09-Sep-2020 5408.01 3595.06 75.49 15.00 125.08 2589.60
   13:32:46.761.09-Sep-2020 5408.01 3595.06 75.49 15.00 125.28 2589.60
   13:32:46.961.09-Sep-2020 5408.01 3595.09 75.49 15.00 125.48 2589.60
   13:32:47.161.09-Sep-2020 5408.01 3595.13 75.49 15.00 125.68 2589.60
   13:32:47.361.09-Sep-2020 5408.01 3595.11 75.49 15.00 125.88 2589.60
   13:32:47.561.09-Sep-2020 5408.01 3595.10 75.49 15.00 126.08 2589.60
   13:32:47.762.09-Sep-2020 5408.01 3595.10 75.49 15.00 126.28 2589.60
   13:32:47.962.09-Sep-2020 5408.01 3594.97 75.49 15.00 126.48 2589.60
   13:32:48.162.09-Sep-2020 5408.01 3594.89 75.49 15.00 126.68 2589.60
   13:32:48.362.09-Sep-2020 5408.01 3593.89 75.50 15.00 126.88 2589.60
   13:32:48.562.09-Sep-2020 5408.01 3595.27 75.49 15.00 127.08 2589.60
   13:32:48.762.09-Sep-2020 5408.01 3595.27 75.49 15.00 127.28 2589.60
   13:32:48.962.09-Sep-2020 5408.01 3595.07 75.50 15.00 127.48 2589.60
   13:32:49.162.09-Sep-2020 5408.01 3595.18 75.49 15.00 127.68 2589.60
   13:32:49.363.09-Sep-2020 5408.01 3595.04 75.50 15.00 127.88 2589.60
   13:32:49.563.09-Sep-2020 5408.01 3594.92 75.49 15.00 128.08 2589.60
   13:32:49.763.09-Sep-2020 5408.01 3594.92 75.49 15.00 128.28 2589.60
   13:32:49.963.09-Sep-2020 5408.01 3594.84 75.50 15.00 128.48 2589.60
   13:32:50.163.09-Sep-2020 5408.01 3594.71 75.50 15.00 128.68 2589.60
   13:32:50.363.09-Sep-2020 5408.01 3594.69 75.50 15.00 128.88 2589.60
   13:32:50.563.09-Sep-2020 5408.01 3594.63 75.49 15.00 129.08 2589.60
   13:32:50.763.09-Sep-2020 5408.01 3594.63 75.49 15.00 129.28 2589.60
   13:32:50.964.09-Sep-2020 5408.01 3594.53 75.50 15.00 129.48 2589.60
   13:32:51.164.09-Sep-2020 5408.01 3594.41 75.50 15.00 129.68 2589.60
   13:32:51.364.09-Sep-2020 5408.01 3594.44 75.50 15.00 129.88 2589.60
   13:32:51.564.09-Sep-2020 5408.01 3593.48 75.49 15.00 130.08 2589.60
   13:32:51.764.09-Sep-2020 5408.01 3593.48 75.49 15.00 130.28 2589.60
   13:32:51.964.09-Sep-2020 5408.01 3594.91 75.50 15.00 130.48 2589.60
   13:32:52.164.09-Sep-2020 5408.01 3594.78 75.50 15.00 130.68 2589.60
   13:32:52.364.09-Sep-2020 5408.01 3594.51 75.50 15.00 130.88 2589.60
   13:32:52.565.09-Sep-2020 5408.01 3594.77 75.50 15.00 131.08 2589.60
   13:32:52.765.09-Sep-2020 5408.01 3594.77 75.50 15.00 131.28 2589.60
   13:32:52.965.09-Sep-2020 5408.01 3595.30 75.50 15.00 131.48 2589.60
   13:32:53.165.09-Sep-2020 5408.01 3594.73 75.50 15.00 131.68 2589.60
   13:32:53.365.09-Sep-2020 5408.01 3594.64 75.50 15.00 131.88 2589.60
   13:32:53.565.09-Sep-2020 5408.01 3594.48 75.50 15.00 132.08 2589.60
   13:32:53.765.09-Sep-2020 5408.01 3594.48 75.50 15.00 132.28 2589.60
   13:32:53.965.09-Sep-2020 5408.01 3594.76 75.50 15.00 132.48 2589.60
   13:32:54.166.09-Sep-2020 5408.01 3594.78 75.50 15.00 132.68 2589.60
   13:32:54.366.09-Sep-2020 5408.01 3594.65 75.50 15.00 132.88 2589.60
   13:32:54.566.09-Sep-2020 5408.01 3593.73 75.50 15.00 133.08 2589.60
   13:32:54.766.09-Sep-2020 5408.01 3593.73 75.50 15.00 133.28 2589.60
   13:32:54.966.09-Sep-2020 5408.01 3594.83 75.50 15.00 133.48 2589.60
   13:32:55.166.09-Sep-2020 5408.01 3594.85 75.50 15.00 133.68 2589.60
   13:32:55.366.09-Sep-2020 5408.01 3593.58 75.50 15.00 133.88 2589.60
   13:32:55.566.09-Sep-2020 5408.01 3596.01 75.50 15.00 134.08 2589.60
   13:32:55.767.09-Sep-2020 5408.01 3596.01 75.50 15.00 134.28 2589.60
   13:32:55.967.09-Sep-2020 5408.01 3595.41 75.50 15.00 134.48 2589.60
   13:32:56.167.09-Sep-2020 5408.01 3595.38 75.50 15.00 134.68 2589.60
   13:32:56.367.09-Sep-2020 5408.01 3595.73 75.50 15.00 134.88 2589.60
   13:32:56.567.09-Sep-2020 5408.01 3595.55 75.50 15.00 135.08 2589.60
   13:32:56.767.09-Sep-2020 5408.01 3595.55 75.50 15.00 135.28 2589.60
   13:32:56.967.09-Sep-2020 5408.01 3595.39 75.50 15.00 135.48 2589.60
