~Version Information
 VERS.                  2.0:   CWLS log ASCII Standard -VERSION 2.0
 WRAP.                   NO:   One line per depth step
~Well Information Block
#MNEM.UNIT     VALUE/NAME     DESCRIPTION
#---------     -----------    ---------------------------
 STRT.S             13:30:41 09-Sep-20: START TIME 13:30:41 09-Sep-20
 STOP.S             13:37:24 09-Sep-20: STOP TIME  13:37:24 09-Sep-20
 STEP.S                   0.00: STEP TIME
 NULL.                 -999.25: NULL VALUE
 MDS .        Operator Entered:  MAG DATA SOURCE
 PDAT.          Mean Sea Level:  PERMANENT DATUM
 DCON.         Sperry Drilling:  DIRECTNL CONTR
 RIG .              West Azeri:  RIG NAME
 WELL.           C40 (Slot 20):  WELL NAME
 SRVC.     Turan Drilling Engineering:  CONTRACTOR
 FLD .                     ACG:  FIELD NAME
 CTRY.              Azerbaijan:  COUNTRY NAME
 PROV.                    Baku:  PROVINCE
 STAT.                    Baku:  STATE NAME
 REGN.                   EESSA:  REGION
 BASE.              Azerbaijan:  LOGGING EQUIPMENT BASE LOCATION
 COMP.     BP Exploration (Caspian Sea) Ltd:  COMPANY
 WTYP.                Deviated:  WELL TYPE
 SON .        AZ-XX-0906344804:  JOB NUMBER
 FTOP.          Formation Tops:  FORM TOPS DESC
 ILTD.               Lithology:  INTERP LTH DESC
 SVYD.                  Survey:  SURVEY DESC
 DMOD.             Drill Model:  DRILL MOD DESC
 HPTY.       Minimum Curvature:  HOLE POS TYPE
 NREF.                    Grid:  NORTH REFERENCE
 SPUD.               01-Jan-20:  SPUD DATE
 DATE.      00.59.44 15-Sep-20:  END TIME
 STIM.      12.00.00 12-Jun-20:  START TIME
 DMF .             Drill Floor:  DRILL MEAS FROM
 DFST.                        :  DIST FSL TEXT
 DFWT.                        :  DIST FWL TEXT
 API .                        :  API NUMBER
 CNTY.                        :  COUNTY
 UWI .                        :  UNIQUE WELL IDENTIFIER
 LOC .                        :  LOCATION
 LMF .             Drill Floor:  LOG MEASURED FROM
 VSNS.m                   2.88:  VERT SEC N/S
 VSEW.m                  -3.84:  VERT SEC E/W
 AGAP.m                  43.42:  AIR GAP
 APD .m                  43.42:  DEPTH ABOVE PD
 WDMS.m                 118.27:  WD ELEV
 EGL .m                   0.00:  GROUND ELEVATION
 EPD .m                   0.00:  ELEVATION
 AZTC.deg                 6.23:  AZM TOTAL CORR
 GRDC.deg                 0.20:  GRID CORRECTION
 MDEC.deg                 6.43:  MAGNETIC DECL
 MDIP.deg                59.49:  MAGNETIC DIP
 MFLD.nT              50277.00:  MAGNETIC FIELD
 GVFD.g                   1.00:  GRAVITY FIELD
 VSDR.deg               173.20:  VERT SEC DIRECT
 TDD .m                5790.01:  TOTAL DEPTH (DRILLER)
 SDEP.m                5231.01:  START DEPTH
 DFSL.m                   0.00:  DISTANCE FSL
 DFWL.m                   0.00:  DISTANCE FWL
 UTMY.m             4435808.83:  UTM Y
 UTMX.m              526266.40:  UTM X
 WHEW.m                  -3.84:  WELL HEAD E/W
 WHNS.m                   2.88:  WELL HEAD N/S
 LONG.deg                51.31:  LONGITUDE
 LATI.deg                40.06:  LATITUDE
 TVDS.m                  43.42:  TVDSS CORRECTN
 DEP .m                 430.08:  DEPTH
 EKB .m                  43.42:  KB ELEVATION
 EDF .m                  43.42:  DF ELEVATION
 TDL .m                 559.00:  TOTAL DEPTH (LOGGER)
 MAGU.                 1849381:  MAGUTM CHECKSUM
 VSC .                       0:  VS TO CLOSURE
~Parameter Information Block
#MNEM.UNIT       Value        Description
#---------     -----------    ---------------------------
 AV  .mps                 4.87:  Ann Velocity 
 AVMX.mps                 7.08:  Max Ann Veloc 
 AZIF.deg               108.87:  Azm, Final 
 BHAT.                  Rotary:  BHA Type 
 BROT.°/30m               0.35:  Build Rotating 
 BS  .in                  8.50:  Bit Size 
 BSZ .in                  8.50:  Bit Size 
 BTPL.psig              360.00:  Bit Press Loss 
 CABU.                     Yes:  Customer Abuse 
 COMM.                     $ñd:  Run Comments 1 
 TCS .hr                106.24:  Time Ciculation Ended 
 CV  .mps                 1.77:  Crit Velocity 
 CVMX.mps                 2.03:  Max Crit Veloc 
 DD1 .         Aykhan Agagulov:  Direct Drillr 1 
 DD2 .            Nonso Okofor:  Direct Drillr 2 
 DDSV.               Geo-Pilot:  DD Service 
 DEFF.%                  98.00:  % Det Eff 
 DLRX.°/30m               0.50:  Dogleg Rot Max 
 DLSO.°/30m               0.40:  Dogleg Oriented 
 DLSX.°/30m               0.94:  Dogleg Str Max 
 DRET.      20.30.00 08-Sep-20:  Drill End Time 
 DRST.      22.15.00 06-Sep-20:  Drill Start Tim 
 DTIM.hr                 31.31:  Time Drilling 
 EDEP.m                5790.01:  End Depth 
 ENG1.           Amrah Tahirov:  Engineer 1 
 ENG2.         Dair Mahammadov:  Engineer 2 
 ENG3.           Emil Huseynov:  Engineer 3 
 ETIM.      04.01.04 12-Sep-20:  End Time 
 FLOI.gpm               450.00:  Flow In 
 FLON.gpm               450.00:  Flow In Min 
 FLOS.cptm                2.00:  Fluid Loss 
 FLOX.gpm               450.00:  Flow In Max 
 FTRO.       Formation Presure:  FTWD Run Obj 
 HFLO.                      No:  High Flow 
 HPRE.                      No:  High Pressure 
 HTEM.                      No:  High Temp 
 HYDO.m                   1.80:  Hydro Offset 
 IFIN.deg                72.03:  Inc, Final 
 IMAX.deg                73.72:  Inc Max 
 IMIN.deg                70.94:  Inc Min 
 IMND.m                5508.52:  Inc Min Depth 
 IMXD.m                5253.60:  Inc Max Depth 
 JARR.                      No:  Jarring 
 LETM.      20.30.00 08-Sep-20:  Log End Time 
 LOST.hr                     0:  Lost Rig Time 
 LSTM.      22.15.00 06-Sep-20:  Log Start Time 
 MDCL.ppm             36000.00:  Mud Chlorides 
 MDES.     Inversion Oil/Synthetic:  Mud Desc 
 DFD .sg                  1.44:  Mud Density 
 MDMN.sg                  1.44:  Dens Mud Min 
 MDMX.sg                  1.57:  Dens Mud Max 
 MOIL.                      70:  Run Mud Oil % 
 MOWR.                   70:30:  Run Mud OWR 
 MSND.                       0:  Run Mud Sand % 
 MSOL.                      21:  Run Mud Solids% 
 DFV .spqt               68.00:  Mud Viscosity 
 MWOD.in                  6.75:  MWD Tool OD 
 MWSI.                     Yes:  Serv Intrp, MWD 
 OTIM.hr                174.84:  Time Operating 
 PCON.           Look Like New:  Pad Condition 
 PMAX.psia            10616.93:  Press Op, Max 
 PV  .cP                 50.00:  Mud PV 
 RUN .                     700:  Run Number 
 ROPA.m/hr               14.24:  ROP Avg 
 ROPN.m/hr               10.00:  ROP Min 
 ROPX.m/hr               32.00:  ROP Max 
 RPMA.rpm               120.90:  RPM Surface Avg 
 RPMN.rpm               120.00:  RPM Surface Min 
 RPMX.rpm               140.00:  RPM Surface Max 
 RRUN.                    0700:  Rig Run Number 
 RTIM.hr                  3.20:  Time Reaming 
 SAZI.deg               109.99:  Azm, Start 
 SDEP.m                5231.01:  Start Depth 
 SIDD.                      No:  Serv Intrp, DD 
 SINC.deg                73.72:  Inc, Start 
 SPPA.psig             3051.00:  SPP Avg 
 SPPN.psig             2950.00:  SPP Min 
 SPPX.psig             3250.00:  SPP Max 
 STIM.      08.00.00 05-Sep-20:  Start Time 
 SVCS.                 DD, MWD:  Services 
 SVER.                    9.20:  Sperry Version 
 TDAT.m                 559.00:  Tot Depth Attmp 
 TDDF.                      No:  Trip for DD 
 TDLG.m                 559.00:  Tot Depth Loggd 
 TFF .                      No:  Trip for Fail 
 TQAA.f-kp               26.49:  Torque Abs Avg 
 TQAN.f-kp               25.00:  Torque Abs Min 
 TQAX.f-kp               27.00:  Torque Abs Max 
 TRRT.°/30m               1.50:  Turn Rotating 
 MRT .                    HCIM:  Maximum Recorded Temperature 
 TTMX.degC               90.20:  Max Tool Temp 
 VS01.                90542671:  Virtual Str1 SN 
 VS02.                90545185:  Virtual Str2 SN 
 VS03.                90602015:  Virtual Str3 SN 
 VS04.                90515230:  Virtual Str4 SN 
 WBMN.klb                 5.00:  WOB Min 
 WOBA.klb                14.79:  WOB Avg 
 WOBX.klb                20.00:  WOB Max 
 YP  .lhf2               29.00:  Yield Point 
~Curve Information Block
#MNEM.UNIT                 API CODE     Curve Description
#---------               -----------    ---------------------------
 TIME.HHMMSS            00 000 000 000:  GT Time & Date
 GTDEPTH.m              00 000 000 000:  GT Depth
 GTPQH.psia             00 000 000 000:  GT HR Quartz Pressure
 GTTQ.degC              00 000 000 000:  GT Quartz Temperature
 GTTN.NONE              00 000 000 000:  GT Test Number
 GTET.sec               00 000 000 000:  GT Elapsed Test Time
 GTTVD.m                00 000 000 000:  GT True Vertical Depth
#Other Information
#
#WARRANTY: Halliburton will use its best efforts to furnish customers with 
#accurate information and interpretations that are part of, and incident to, the services 
#provided.  However, Halliburton cannot and does not warrant the accuracy 
#or correctness of such information and interpretations.  Under no circumstances should any 
#such information or interpretation be relied upon as the sole basis for any drilling, 
#completion, production, or financial decision or any procedure involving any risk to the 
#safety of any drilling venture, drilling rig or its crew or any other third party.  The 
#Customer has full responsibility for all drilling, completion and production operation.  
#Halliburton makes no representations or warranties, either expressed or 
#implied, including, but not limited to, the implied warranties of merchantability or fitness 
#for a particular purpose, with respect to the services rendered.  In no event will 
#Halliburton be liable for failure to obtain any particular results or for 
#any damages, including, but not limited to, indirect, special or consequential damages, 
#resulting from the use of any information or interpretation provided by Halliburton.
#
~A           TIME           GTDEPTH  GTPQH  GTTQ  GTTN   GTET   GTTVD  
# ...
   13:34:05.009.09-Sep-2020 5408.01 3589.25 75.51 15.00 203.52 2589.60
   13:34:05.209.09-Sep-2020 5408.01 3589.96 75.51 15.00 203.72 2589.60
   13:34:05.409.09-Sep-2020 5408.01 3590.34 75.51 15.00 203.92 2589.60
   13:34:05.609.09-Sep-2020 5408.01 3590.41 75.51 15.00 204.12 2589.60
   13:34:05.809.09-Sep-2020 5408.01 3590.25 75.51 15.00 204.32 2589.60
   13:34:06.009.09-Sep-2020 5408.01 3590.44 75.51 15.00 204.52 2589.60
   13:34:06.210.09-Sep-2020 5408.01 3590.24 75.51 15.00 204.73 2589.60
   13:34:06.410.09-Sep-2020 5408.01 3590.25 75.51 15.00 204.93 2589.60
   13:34:06.610.09-Sep-2020 5408.01 3590.30 75.51 15.00 205.13 2589.60
   13:34:06.810.09-Sep-2020 5408.01 3590.30 75.51 15.00 205.33 2589.60
   13:34:07.010.09-Sep-2020 5408.01 3590.44 75.51 15.00 205.53 2589.60
   13:34:07.210.09-Sep-2020 5408.01 3590.50 75.51 15.00 205.73 2589.60
   13:34:07.410.09-Sep-2020 5408.01 3590.64 75.51 15.00 205.93 2589.60
   13:34:07.610.09-Sep-2020 5408.01 3590.70 75.51 15.00 206.13 2589.60
   13:34:07.811.09-Sep-2020 5408.01 3590.70 75.51 15.00 206.33 2589.60
   13:34:08.011.09-Sep-2020 5408.01 3590.70 75.51 15.00 206.53 2589.60
   13:34:08.211.09-Sep-2020 5408.01 3590.70 75.51 15.00 206.73 2589.60
   13:34:08.411.09-Sep-2020 5408.01 3590.73 75.51 15.00 206.93 2589.60
   13:34:08.611.09-Sep-2020 5408.01 3590.73 75.51 15.00 207.13 2589.60
   13:34:08.811.09-Sep-2020 5408.01 3590.73 75.51 15.00 207.33 2589.60
   13:34:09.011.09-Sep-2020 5408.01 3591.08 75.51 15.00 207.53 2589.60
   13:34:09.211.09-Sep-2020 5408.01 3590.76 75.51 15.00 207.73 2589.60
   13:34:09.412.09-Sep-2020 5408.01 3590.79 75.51 15.00 207.93 2589.60
   13:34:09.612.09-Sep-2020 5408.01 3590.66 75.51 15.00 208.13 2589.60
   13:34:09.812.09-Sep-2020 5408.01 3590.95 75.51 15.00 208.33 2589.60
   13:34:10.012.09-Sep-2020 5408.01 3590.64 75.51 15.00 208.53 2589.60
   13:34:10.212.09-Sep-2020 5408.01 3590.61 75.51 15.00 208.73 2589.60
   13:34:10.412.09-Sep-2020 5408.01 3590.68 75.51 15.00 208.93 2589.60
   13:34:10.612.09-Sep-2020 5408.01 3590.75 75.51 15.00 209.13 2589.60
   13:34:10.812.09-Sep-2020 5408.01 3590.75 75.51 15.00 209.33 2589.60
   13:34:11.012.09-Sep-2020 5408.01 3590.68 75.51 15.00 209.53 2589.60
   13:34:11.213.09-Sep-2020 5408.01 3590.57 75.51 15.00 209.73 2589.60
   13:34:11.413.09-Sep-2020 5408.01 3590.58 75.51 15.00 209.93 2589.60
   13:34:11.613.09-Sep-2020 5408.01 3590.64 75.51 15.00 210.13 2589.60
   13:34:11.813.09-Sep-2020 5408.01 3590.64 75.51 15.00 210.33 2589.60
   13:34:12.013.09-Sep-2020 5408.01 3590.78 75.51 15.00 210.53 2589.60
   13:34:12.213.09-Sep-2020 5408.01 3589.74 75.51 15.00 210.73 2589.60
   13:34:12.413.09-Sep-2020 5408.01 3590.81 75.51 15.00 210.93 2589.60
   13:34:12.613.09-Sep-2020 5408.01 3590.87 75.51 15.00 211.13 2589.60
   13:34:12.814.09-Sep-2020 5408.01 3590.87 75.51 15.00 211.33 2589.60
   13:34:13.014.09-Sep-2020 5408.01 3591.14 75.51 15.00 211.53 2589.60
   13:34:13.214.09-Sep-2020 5408.01 3590.02 75.51 15.00 211.73 2589.60
   13:34:13.414.09-Sep-2020 5408.01 3590.61 75.51 15.00 211.93 2589.60
   13:34:13.614.09-Sep-2020 5408.01 3591.07 75.51 15.00 212.13 2589.60
   13:34:13.814.09-Sep-2020 5408.01 3591.15 75.51 15.00 212.33 2589.60
   13:34:14.014.09-Sep-2020 5408.01 3590.03 75.51 15.00 212.53 2589.60
   13:34:14.214.09-Sep-2020 5408.01 3590.82 75.51 15.00 212.73 2589.60
   13:34:14.415.09-Sep-2020 5408.01 3590.97 75.51 15.00 212.93 2589.60
   13:34:14.615.09-Sep-2020 5408.01 3591.10 75.51 15.00 213.13 2589.60
   13:34:14.815.09-Sep-2020 5408.01 3591.10 75.51 15.00 213.33 2589.60
   13:34:15.015.09-Sep-2020 5408.01 3589.78 75.51 15.00 213.53 2589.60
   13:34:15.215.09-Sep-2020 5408.01 3591.48 75.51 15.00 213.73 2589.60
   13:34:15.415.09-Sep-2020 5408.01 3591.16 75.51 15.00 213.93 2589.60
   13:34:15.615.09-Sep-2020 5408.01 3591.20 75.51 15.00 214.13 2589.60
   13:34:15.815.09-Sep-2020 5408.01 3591.20 75.51 15.00 214.33 2589.60
   13:34:16.016.09-Sep-2020 5408.01 3591.63 75.51 15.00 214.53 2589.60
   13:34:16.216.09-Sep-2020 5408.01 3591.32 75.51 15.00 214.73 2589.60
   13:34:16.416.09-Sep-2020 5408.01 3590.01 75.51 15.00 214.93 2589.60
   13:34:16.616.09-Sep-2020 5408.01 3591.43 75.51 15.00 215.13 2589.60
   13:34:16.816.09-Sep-2020 5408.01 3591.43 75.51 15.00 215.33 2589.60
   13:34:17.016.09-Sep-2020 5408.01 3591.43 75.51 15.00 215.53 2589.60
   13:34:17.216.09-Sep-2020 5408.01 3591.57 75.51 15.00 215.73 2589.60
   13:34:17.416.09-Sep-2020 5408.01 3591.64 75.51 15.00 215.93 2589.60
   13:34:17.617.09-Sep-2020 5408.01 3591.53 75.51 15.00 216.13 2589.60
   13:34:17.817.09-Sep-2020 5408.01 3591.63 75.51 15.00 216.33 2589.60
   13:34:18.017.09-Sep-2020 5408.01 3591.64 75.51 15.00 216.53 2589.60
   13:34:18.217.09-Sep-2020 5408.01 3591.58 75.51 15.00 216.73 2589.60
   13:34:18.417.09-Sep-2020 5408.01 3591.62 75.51 15.00 216.93 2589.60
   13:34:18.617.09-Sep-2020 5408.01 3591.65 75.51 15.00 217.13 2589.60
   13:34:18.817.09-Sep-2020 5408.01 3591.65 75.51 15.00 217.33 2589.60
   13:34:19.017.09-Sep-2020 5408.01 3591.61 75.51 15.00 217.53 2589.60
   13:34:19.218.09-Sep-2020 5408.01 3591.57 75.51 15.00 217.73 2589.60
   13:34:19.418.09-Sep-2020 5408.01 3591.56 75.51 15.00 217.93 2589.60
   13:34:19.618.09-Sep-2020 5408.01 3591.63 75.51 15.00 218.13 2589.60
   13:34:19.818.09-Sep-2020 5408.01 3591.63 75.51 15.00 218.33 2589.60
   13:34:20.018.09-Sep-2020 5408.01 3591.76 75.51 15.00 218.53 2589.60
   13:34:20.218.09-Sep-2020 5408.01 3590.71 75.51 15.00 218.73 2589.60
   13:34:20.418.09-Sep-2020 5408.01 3591.71 75.51 15.00 218.93 2589.60
   13:34:20.618.09-Sep-2020 5408.01 3591.74 75.51 15.00 219.13 2589.60
   13:34:20.818.09-Sep-2020 5408.01 3591.74 75.51 15.00 219.33 2589.60
   13:34:21.019.09-Sep-2020 5408.01 3591.87 75.51 15.00 219.53 2589.60
   13:34:21.219.09-Sep-2020 5408.01 3591.56 75.51 15.00 219.73 2589.60
   13:34:21.419.09-Sep-2020 5408.01 3591.51 75.51 15.00 219.93 2589.60
   13:34:21.619.09-Sep-2020 5408.01 3591.46 75.51 15.00 220.13 2589.60
   13:34:21.819.09-Sep-2020 5408.01 3591.48 75.51 15.00 220.33 2589.60
   13:34:22.019.09-Sep-2020 5408.01 3591.55 75.51 15.00 220.53 2589.60
   13:34:22.219.09-Sep-2020 5408.01 3591.59 75.51 15.00 220.73 2589.60
   13:34:22.419.09-Sep-2020 5408.01 3591.49 75.51 15.00 220.94 2589.60
   13:34:22.620.09-Sep-2020 5408.01 3591.41 75.51 15.00 221.14 2589.60
   13:34:22.820.09-Sep-2020 5408.01 3591.41 75.51 15.00 221.34 2589.60
   13:34:23.020.09-Sep-2020 5408.01 3591.54 75.51 15.00 221.54 2589.60
   13:34:23.220.09-Sep-2020 5408.01 3591.60 75.51 15.00 221.74 2589.60
   13:34:23.420.09-Sep-2020 5408.01 3590.02 75.51 15.00 221.94 2589.60
   13:34:23.620.09-Sep-2020 5408.01 3592.01 75.51 15.00 222.14 2589.60
   13:34:23.820.09-Sep-2020 5408.01 3592.01 75.51 15.00 222.34 2589.60
   13:34:24.020.09-Sep-2020 5408.01 3591.73 75.51 15.00 222.54 2589.60
   13:34:24.221.09-Sep-2020 5408.01 3591.55 75.51 15.00 222.74 2589.60
   13:34:24.421.09-Sep-2020 5408.01 3591.85 75.51 15.00 222.94 2589.60
   13:34:24.621.09-Sep-2020 5408.01 3590.40 75.51 15.00 223.14 2589.60
   13:34:24.821.09-Sep-2020 5408.01 3590.40 75.51 15.00 223.34 2589.60
   13:34:25.021.09-Sep-2020 5408.01 3591.60 75.51 15.00 223.54 2589.60
   13:34:25.221.09-Sep-2020 5408.01 3591.52 75.51 15.00 223.74 2589.60
   13:34:25.421.09-Sep-2020 5408.01 3590.20 75.51 15.00 223.94 2589.60
   13:34:25.621.09-Sep-2020 5408.01 3592.22 75.51 15.00 224.14 2589.60
   13:34:25.822.09-Sep-2020 5408.01 3591.69 75.51 15.00 224.34 2589.60
   13:34:26.022.09-Sep-2020 5408.01 3591.77 75.51 15.00 224.54 2589.60
   13:34:26.222.09-Sep-2020 5408.01 3591.60 75.51 15.00 224.74 2589.60
   13:34:26.422.09-Sep-2020 5408.01 3590.77 75.51 15.00 224.94 2589.60
   13:34:26.622.09-Sep-2020 5408.01 3591.58 75.51 15.00 225.14 2589.60
   13:34:26.822.09-Sep-2020 5408.01 3591.58 75.51 15.00 225.34 2589.60
   13:34:27.022.09-Sep-2020 5408.01 3591.75 75.51 15.00 225.54 2589.60
   13:34:27.222.09-Sep-2020 5408.01 3592.04 75.51 15.00 225.74 2589.60
   13:34:27.423.09-Sep-2020 5408.01 3591.70 75.51 15.00 225.94 2589.60
