~Version Information
 VERS.                  2.0:   CWLS log ASCII Standard -VERSION 2.0
 WRAP.                   NO:   One line per depth step
~Well Information Block
#MNEM.UNIT     VALUE/NAME     DESCRIPTION
#---------     -----------    ---------------------------
 STRT.S             14:18:02 09-Sep-20: START TIME 14:18:02 09-Sep-20
 STOP.S             14:26:13 09-Sep-20: STOP TIME  14:26:13 09-Sep-20
 STEP.S                   0.00: STEP TIME
 NULL.                 -999.25: NULL VALUE
 MDS .        Operator Entered:  MAG DATA SOURCE
 PDAT.          Mean Sea Level:  PERMANENT DATUM
 DCON.         Sperry Drilling:  DIRECTNL CONTR
 RIG .              West Azeri:  RIG NAME
 WELL.           C40 (Slot 20):  WELL NAME
 SRVC.     Turan Drilling Engineering:  CONTRACTOR
 FLD .                     ACG:  FIELD NAME
 CTRY.              Azerbaijan:  COUNTRY NAME
 PROV.                    Baku:  PROVINCE
 STAT.                    Baku:  STATE NAME
 REGN.                   EESSA:  REGION
 BASE.              Azerbaijan:  LOGGING EQUIPMENT BASE LOCATION
 COMP.     BP Exploration (Caspian Sea) Ltd:  COMPANY
 WTYP.                Deviated:  WELL TYPE
 SON .        AZ-XX-0906344804:  JOB NUMBER
 FTOP.          Formation Tops:  FORM TOPS DESC
 ILTD.               Lithology:  INTERP LTH DESC
 SVYD.                  Survey:  SURVEY DESC
 DMOD.             Drill Model:  DRILL MOD DESC
 HPTY.       Minimum Curvature:  HOLE POS TYPE
 NREF.                    Grid:  NORTH REFERENCE
 SPUD.               01-Jan-20:  SPUD DATE
 DATE.      00.59.44 15-Sep-20:  END TIME
 STIM.      12.00.00 12-Jun-20:  START TIME
 DMF .             Drill Floor:  DRILL MEAS FROM
 DFST.                        :  DIST FSL TEXT
 DFWT.                        :  DIST FWL TEXT
 API .                        :  API NUMBER
 CNTY.                        :  COUNTY
 UWI .                        :  UNIQUE WELL IDENTIFIER
 LOC .                        :  LOCATION
 LMF .             Drill Floor:  LOG MEASURED FROM
 VSNS.m                   2.88:  VERT SEC N/S
 VSEW.m                  -3.84:  VERT SEC E/W
 AGAP.m                  43.42:  AIR GAP
 APD .m                  43.42:  DEPTH ABOVE PD
 WDMS.m                 118.27:  WD ELEV
 EGL .m                   0.00:  GROUND ELEVATION
 EPD .m                   0.00:  ELEVATION
 AZTC.deg                 6.23:  AZM TOTAL CORR
 GRDC.deg                 0.20:  GRID CORRECTION
 MDEC.deg                 6.43:  MAGNETIC DECL
 MDIP.deg                59.49:  MAGNETIC DIP
 MFLD.nT              50277.00:  MAGNETIC FIELD
 GVFD.g                   1.00:  GRAVITY FIELD
 VSDR.deg               173.20:  VERT SEC DIRECT
 TDD .m                5790.01:  TOTAL DEPTH (DRILLER)
 SDEP.m                5231.01:  START DEPTH
 DFSL.m                   0.00:  DISTANCE FSL
 DFWL.m                   0.00:  DISTANCE FWL
 UTMY.m             4435808.83:  UTM Y
 UTMX.m              526266.40:  UTM X
 WHEW.m                  -3.84:  WELL HEAD E/W
 WHNS.m                   2.88:  WELL HEAD N/S
 LONG.deg                51.31:  LONGITUDE
 LATI.deg                40.06:  LATITUDE
 TVDS.m                  43.42:  TVDSS CORRECTN
 DEP .m                 430.08:  DEPTH
 EKB .m                  43.42:  KB ELEVATION
 EDF .m                  43.42:  DF ELEVATION
 TDL .m                 559.00:  TOTAL DEPTH (LOGGER)
 MAGU.                 1849381:  MAGUTM CHECKSUM
 VSC .                       0:  VS TO CLOSURE
~Parameter Information Block
#MNEM.UNIT       Value        Description
#---------     -----------    ---------------------------
 AV  .mps                 4.87:  Ann Velocity 
 AVMX.mps                 7.08:  Max Ann Veloc 
 AZIF.deg               108.87:  Azm, Final 
 BHAT.                  Rotary:  BHA Type 
 BROT.°/30m               0.35:  Build Rotating 
 BS  .in                  8.50:  Bit Size 
 BSZ .in                  8.50:  Bit Size 
 BTPL.psig              360.00:  Bit Press Loss 
 CABU.                     Yes:  Customer Abuse 
 TCS .hr                106.24:  Time Ciculation Ended 
 CV  .mps                 1.77:  Crit Velocity 
 CVMX.mps                 2.03:  Max Crit Veloc 
 DD1 .         Aykhan Agagulov:  Direct Drillr 1 
 DD2 .            Nonso Okofor:  Direct Drillr 2 
 DDSV.               Geo-Pilot:  DD Service 
 DEFF.%                  98.00:  % Det Eff 
 DLRX.°/30m               0.50:  Dogleg Rot Max 
 DLSO.°/30m               0.40:  Dogleg Oriented 
 DLSX.°/30m               0.94:  Dogleg Str Max 
 DRET.      20.30.00 08-Sep-20:  Drill End Time 
 DRST.      22.15.00 06-Sep-20:  Drill Start Tim 
 DTIM.hr                 31.31:  Time Drilling 
 EDEP.m                5790.01:  End Depth 
 ENG1.           Amrah Tahirov:  Engineer 1 
 ENG2.         Dair Mahammadov:  Engineer 2 
 ENG3.           Emil Huseynov:  Engineer 3 
 ETIM.      04.01.04 12-Sep-20:  End Time 
 FLOI.gpm               450.00:  Flow In 
 FLON.gpm               450.00:  Flow In Min 
 FLOS.cptm                2.00:  Fluid Loss 
 FLOX.gpm               450.00:  Flow In Max 
 FTRO.       Formation Presure:  FTWD Run Obj 
 HFLO.                      No:  High Flow 
 HPRE.                      No:  High Pressure 
 HTEM.                      No:  High Temp 
 HYDO.m                   1.80:  Hydro Offset 
 IFIN.deg                72.03:  Inc, Final 
 IMAX.deg                73.72:  Inc Max 
 IMIN.deg                70.94:  Inc Min 
 IMND.m                5508.52:  Inc Min Depth 
 IMXD.m                5253.60:  Inc Max Depth 
 JARR.                      No:  Jarring 
 LETM.      20.30.00 08-Sep-20:  Log End Time 
 LOST.hr                     0:  Lost Rig Time 
 LSTM.      22.15.00 06-Sep-20:  Log Start Time 
 MDCL.ppm             36000.00:  Mud Chlorides 
 MDES.     Inversion Oil/Synthetic:  Mud Desc 
 DFD .sg                  1.44:  Mud Density 
 MDMN.sg                  1.44:  Dens Mud Min 
 MDMX.sg                  1.57:  Dens Mud Max 
 MOIL.                      70:  Run Mud Oil % 
 MOWR.                   70:30:  Run Mud OWR 
 MSND.                       0:  Run Mud Sand % 
 MSOL.                      21:  Run Mud Solids% 
 DFV .spqt               68.00:  Mud Viscosity 
 MWOD.in                  6.75:  MWD Tool OD 
 MWSI.                     Yes:  Serv Intrp, MWD 
 OTIM.hr                174.84:  Time Operating 
 PCON.           Look Like New:  Pad Condition 
 PMAX.psia            10616.93:  Press Op, Max 
 PV  .cP                 50.00:  Mud PV 
 RUN .                     700:  Run Number 
 ROPA.m/hr               14.24:  ROP Avg 
 ROPN.m/hr               10.00:  ROP Min 
 ROPX.m/hr               32.00:  ROP Max 
 RPMA.rpm               120.90:  RPM Surface Avg 
 RPMN.rpm               120.00:  RPM Surface Min 
 RPMX.rpm               140.00:  RPM Surface Max 
 RRUN.                    0700:  Rig Run Number 
 RTIM.hr                  3.20:  Time Reaming 
 SAZI.deg               109.99:  Azm, Start 
 SDEP.m                5231.01:  Start Depth 
 SIDD.                      No:  Serv Intrp, DD 
 SINC.deg                73.72:  Inc, Start 
 SPPA.psig             3051.00:  SPP Avg 
 SPPN.psig             2950.00:  SPP Min 
 SPPX.psig             3250.00:  SPP Max 
 STIM.      08.00.00 05-Sep-20:  Start Time 
 SVCS.                 DD, MWD:  Services 
 SVER.                    9.20:  Sperry Version 
 TDAT.m                 559.00:  Tot Depth Attmp 
 TDDF.                      No:  Trip for DD 
 TDLG.m                 559.00:  Tot Depth Loggd 
 TFF .                      No:  Trip for Fail 
 TQAA.f-kp               26.49:  Torque Abs Avg 
 TQAN.f-kp               25.00:  Torque Abs Min 
 TQAX.f-kp               27.00:  Torque Abs Max 
 TRRT.°/30m               1.50:  Turn Rotating 
 MRT .                    HCIM:  Maximum Recorded Temperature 
 TTMX.degC               90.20:  Max Tool Temp 
 VS01.                90542671:  Virtual Str1 SN 
 VS02.                90545185:  Virtual Str2 SN 
 VS03.                90602015:  Virtual Str3 SN 
 VS04.                90515230:  Virtual Str4 SN 
 WBMN.klb                 5.00:  WOB Min 
 WOBA.klb                14.79:  WOB Avg 
 WOBX.klb                20.00:  WOB Max 
 YP  .lhf2               29.00:  Yield Point 
~Curve Information Block
#MNEM.UNIT                 API CODE     Curve Description
#---------               -----------    ---------------------------
 TIME.HHMMSS            00 000 000 000:  GT Time & Date
 GTDEPTH.m              00 000 000 000:  GT Depth
 GTPQH.psia             00 000 000 000:  GT HR Quartz Pressure
 GTTQ.degC              00 000 000 000:  GT Quartz Temperature
 GTTN.NONE              00 000 000 000:  GT Test Number
 GTET.sec               00 000 000 000:  GT Elapsed Test Time
 GTTVD.m                00 000 000 000:  GT True Vertical Depth
#Other Information
#
#WARRANTY: Halliburton will use its best efforts to furnish customers with 
#accurate information and interpretations that are part of, and incident to, the services 
#provided.  However, Halliburton cannot and does not warrant the accuracy 
#or correctness of such information and interpretations.  Under no circumstances should any 
#such information or interpretation be relied upon as the sole basis for any drilling, 
#completion, production, or financial decision or any procedure involving any risk to the 
#safety of any drilling venture, drilling rig or its crew or any other third party.  The 
#Customer has full responsibility for all drilling, completion and production operation.  
#Halliburton makes no representations or warranties, either expressed or 
#implied, including, but not limited to, the implied warranties of merchantability or fitness 
#for a particular purpose, with respect to the services rendered.  In no event will 
#Halliburton be liable for failure to obtain any particular results or for 
#any damages, including, but not limited to, indirect, special or consequential damages, 
#resulting from the use of any information or interpretation provided by Halliburton.
#
~A           TIME           GTDEPTH  GTPQH  GTTQ  GTTN   GTET   GTTVD  
# ...
   14:21:48.359.09-Sep-2020 5408.01  654.09 75.20 16.00 226.14 2589.60
   14:21:48.559.09-Sep-2020 5408.01  654.09 75.20 16.00 226.34 2589.60
   14:21:48.759.09-Sep-2020 5408.01  654.46 75.20 16.00 226.54 2589.60
   14:21:48.959.09-Sep-2020 5408.01  654.77 75.20 16.00 226.74 2589.60
   14:21:49.159.09-Sep-2020 5408.01  655.15 75.20 16.00 226.94 2589.60
   14:21:49.359.09-Sep-2020 5408.01  655.64 75.20 16.00 227.14 2589.60
   14:21:49.560.09-Sep-2020 5408.01  655.64 75.20 16.00 227.34 2589.60
   14:21:49.760.09-Sep-2020 5408.01  655.44 75.20 16.00 227.54 2589.60
   14:21:49.960.09-Sep-2020 5408.01  656.34 75.20 16.00 227.74 2589.60
   14:21:50.160.09-Sep-2020 5408.01  656.54 75.20 16.00 227.94 2589.60
   14:21:50.360.09-Sep-2020 5408.01  656.73 75.20 16.00 228.14 2589.60
   14:21:50.560.09-Sep-2020 5408.01  657.35 75.20 16.00 228.34 2589.60
   14:21:50.760.09-Sep-2020 5408.01  657.38 75.20 16.00 228.54 2589.60
   14:21:50.960.09-Sep-2020 5408.01  657.60 75.20 16.00 228.74 2589.60
   14:21:51.160.09-Sep-2020 5408.01  657.10 75.20 16.00 228.94 2589.60
   14:21:51.361.09-Sep-2020 5408.01  658.36 75.20 16.00 229.14 2589.60
   14:21:51.561.09-Sep-2020 5408.01  658.36 75.20 16.00 229.34 2589.60
   14:21:51.761.09-Sep-2020 5408.01  658.89 75.20 16.00 229.54 2589.60
   14:21:51.961.09-Sep-2020 5408.01  659.00 75.20 16.00 229.74 2589.60
   14:21:52.161.09-Sep-2020 5408.01  659.43 75.20 16.00 229.94 2589.60
   14:21:52.361.09-Sep-2020 5408.01  659.60 75.20 16.00 230.14 2589.60
   14:21:52.561.09-Sep-2020 5408.01  659.60 75.20 16.00 230.34 2589.60
   14:21:52.761.09-Sep-2020 5408.01  660.09 75.20 16.00 230.54 2589.60
   14:21:52.962.09-Sep-2020 5408.01  660.44 75.20 16.00 230.74 2589.60
   14:21:53.162.09-Sep-2020 5408.01  660.81 75.20 16.00 230.94 2589.60
   14:21:53.362.09-Sep-2020 5408.01  661.22 75.20 16.00 231.14 2589.60
   14:21:53.562.09-Sep-2020 5408.01  661.22 75.20 16.00 231.34 2589.60
   14:21:53.762.09-Sep-2020 5408.01  661.57 75.20 16.00 231.54 2589.60
   14:21:53.962.09-Sep-2020 5408.01  661.91 75.20 16.00 231.74 2589.60
   14:21:54.162.09-Sep-2020 5408.01  662.15 75.20 16.00 231.94 2589.60
   14:21:54.362.09-Sep-2020 5408.01  662.28 75.20 16.00 232.14 2589.60
   14:21:54.563.09-Sep-2020 5408.01  662.53 75.20 16.00 232.34 2589.60
   14:21:54.763.09-Sep-2020 5408.01  662.84 75.20 16.00 232.54 2589.60
   14:21:54.963.09-Sep-2020 5408.01  663.14 75.20 16.00 232.74 2589.60
   14:21:55.163.09-Sep-2020 5408.01  663.37 75.20 16.00 232.94 2589.60
   14:21:55.363.09-Sep-2020 5408.01  663.63 75.20 16.00 233.14 2589.60
   14:21:55.563.09-Sep-2020 5408.01  663.63 75.20 16.00 233.34 2589.60
   14:21:55.763.09-Sep-2020 5408.01  664.07 75.20 16.00 233.54 2589.60
   14:21:55.963.09-Sep-2020 5408.01  664.30 75.20 16.00 233.74 2589.60
   14:21:56.164.09-Sep-2020 5408.01  663.75 75.20 16.00 233.94 2589.60
   14:21:56.364.09-Sep-2020 5408.01  664.96 75.20 16.00 234.14 2589.60
   14:21:56.564.09-Sep-2020 5408.01  664.96 75.20 16.00 234.34 2589.60
   14:21:56.764.09-Sep-2020 5408.01  665.56 75.20 16.00 234.54 2589.60
   14:21:56.964.09-Sep-2020 5408.01  665.57 75.20 16.00 234.74 2589.60
   14:21:57.164.09-Sep-2020 5408.01  665.98 75.20 16.00 234.94 2589.60
   14:21:57.364.09-Sep-2020 5408.01  666.13 75.20 16.00 235.14 2589.60
   14:21:57.564.09-Sep-2020 5408.01  666.13 75.20 16.00 235.34 2589.60
   14:21:57.765.09-Sep-2020 5408.01  666.58 75.20 16.00 235.54 2589.60
   14:21:57.965.09-Sep-2020 5408.01  666.83 75.20 16.00 235.74 2589.60
   14:21:58.165.09-Sep-2020 5408.01  667.17 75.20 16.00 235.94 2589.60
   14:21:58.365.09-Sep-2020 5408.01  667.38 75.20 16.00 236.14 2589.60
   14:21:58.565.09-Sep-2020 5408.01  667.54 75.20 16.00 236.34 2589.60
   14:21:58.765.09-Sep-2020 5408.01  667.78 75.20 16.00 236.54 2589.60
   14:21:58.965.09-Sep-2020 5408.01  668.04 75.20 16.00 236.74 2589.60
   14:21:59.165.09-Sep-2020 5408.01  668.28 75.20 16.00 236.94 2589.60
   14:21:59.365.09-Sep-2020 5408.01  667.73 75.20 16.00 237.14 2589.60
   14:21:59.566.09-Sep-2020 5408.01  667.73 75.20 16.00 237.35 2589.60
   14:21:59.766.09-Sep-2020 5408.01  669.08 75.20 16.00 237.55 2589.60
   14:21:59.966.09-Sep-2020 5408.01  669.38 75.20 16.00 237.75 2589.60
   14:22:00.166.09-Sep-2020 5408.01  669.43 75.20 16.00 237.95 2589.60
   14:22:00.366.09-Sep-2020 5408.01  669.88 75.20 16.00 238.15 2589.60
   14:22:00.566.09-Sep-2020 5408.01  669.88 75.20 16.00 238.35 2589.60
   14:22:00.766.09-Sep-2020 5408.01  670.26 75.20 16.00 238.55 2589.60
   14:22:00.966.09-Sep-2020 5408.01  670.53 75.20 16.00 238.75 2589.60
   14:22:01.167.09-Sep-2020 5408.01  670.77 75.20 16.00 238.95 2589.60
   14:22:01.367.09-Sep-2020 5408.01  671.22 75.20 16.00 239.15 2589.60
   14:22:01.567.09-Sep-2020 5408.01  671.22 75.20 16.00 239.35 2589.60
   14:22:01.767.09-Sep-2020 5408.01  671.31 75.20 16.00 239.55 2589.60
   14:22:01.967.09-Sep-2020 5408.01  671.33 75.20 16.00 239.75 2589.60
   14:22:02.167.09-Sep-2020 5408.01  672.25 75.20 16.00 239.95 2589.60
   14:22:02.367.09-Sep-2020 5408.01  672.26 75.20 16.00 240.15 2589.60
   14:22:02.567.09-Sep-2020 5408.01  672.26 75.20 16.00 240.35 2589.60
   14:22:02.768.09-Sep-2020 5408.01  672.20 75.20 16.00 240.55 2589.60
   14:22:02.968.09-Sep-2020 5408.01  673.16 75.20 16.00 240.75 2589.60
   14:22:03.168.09-Sep-2020 5408.01  673.43 75.20 16.00 240.95 2589.60
   14:22:03.368.09-Sep-2020 5408.01  673.76 75.20 16.00 241.15 2589.60
   14:22:03.568.09-Sep-2020 5408.01  673.76 75.20 16.00 241.35 2589.60
   14:22:03.768.09-Sep-2020 5408.01  674.28 75.20 16.00 241.55 2589.60
   14:22:03.968.09-Sep-2020 5408.01  674.57 75.20 16.00 241.75 2589.60
   14:22:04.168.09-Sep-2020 5408.01  674.80 75.20 16.00 241.95 2589.60
   14:22:04.369.09-Sep-2020 5408.01  674.80 75.20 16.00 242.15 2589.60
   14:22:04.569.09-Sep-2020 5408.01  674.80 75.20 16.00 242.35 2589.60
   14:22:04.769.09-Sep-2020 5408.01  675.53 75.20 16.00 242.55 2589.60
   14:22:04.969.09-Sep-2020 5408.01  675.72 75.20 16.00 242.75 2589.60
   14:22:05.169.09-Sep-2020 5408.01  675.87 75.20 16.00 242.95 2589.60
   14:22:05.369.09-Sep-2020 5408.01  676.10 75.20 16.00 243.15 2589.60
   14:22:05.569.09-Sep-2020 5408.01  676.10 75.20 16.00 243.35 2589.60
   14:22:05.769.09-Sep-2020 5408.01  676.63 75.20 16.00 243.55 2589.60
   14:22:05.970.09-Sep-2020 5408.01  676.86 75.20 16.00 243.75 2589.60
   14:22:06.170.09-Sep-2020 5408.01  677.04 75.20 16.00 243.95 2589.60
   14:22:06.370.09-Sep-2020 5408.01  677.23 75.20 16.00 244.15 2589.60
   14:22:06.570.09-Sep-2020 5408.01  677.43 75.20 16.00 244.35 2589.60
   14:22:06.770.09-Sep-2020 5408.01  677.66 75.20 16.00 244.55 2589.60
   14:22:06.970.09-Sep-2020 5408.01  677.92 75.20 16.00 244.75 2589.60
   14:22:07.170.09-Sep-2020 5408.01  678.05 75.20 16.00 244.95 2589.60
   14:22:07.370.09-Sep-2020 5408.01  677.89 75.20 16.00 245.15 2589.60
   14:22:07.571.09-Sep-2020 5408.01  677.89 75.20 16.00 245.35 2589.60
   14:22:07.771.09-Sep-2020 5408.01  678.82 75.20 16.00 245.55 2589.60
   14:22:07.971.09-Sep-2020 5408.01  679.04 75.20 16.00 245.75 2589.60
   14:22:08.171.09-Sep-2020 5408.01  679.63 75.20 16.00 245.95 2589.60
   14:22:08.371.09-Sep-2020 5408.01  679.62 75.20 16.00 246.15 2589.60
   14:22:08.571.09-Sep-2020 5408.01  679.81 75.20 16.00 246.35 2589.60
   14:22:08.771.09-Sep-2020 5408.01  680.01 75.20 16.00 246.55 2589.60
   14:22:08.971.09-Sep-2020 5408.01  680.30 75.20 16.00 246.75 2589.60
   14:22:09.171.09-Sep-2020 5408.01  680.44 75.20 16.00 246.95 2589.60
   14:22:09.372.09-Sep-2020 5408.01  680.61 75.20 16.00 247.15 2589.60
   14:22:09.572.09-Sep-2020 5408.01  680.61 75.20 16.00 247.35 2589.60
   14:22:09.772.09-Sep-2020 5408.01  681.03 75.20 16.00 247.55 2589.60
   14:22:09.972.09-Sep-2020 5408.01  681.26 75.20 16.00 247.75 2589.60
   14:22:10.172.09-Sep-2020 5408.01  681.50 75.20 16.00 247.95 2589.60
   14:22:10.372.09-Sep-2020 5408.01  681.60 75.20 16.00 248.15 2589.60
   14:22:10.572.09-Sep-2020 5408.01  681.36 75.20 16.00 248.35 2589.60
   14:22:10.772.09-Sep-2020 5408.01  682.16 75.20 16.00 248.55 2589.60
