~Version Information
 VERS.                  2.0:   CWLS log ASCII Standard -VERSION 2.0
 WRAP.                   NO:   One line per depth step
~Well Information Block
#MNEM.UNIT     VALUE/NAME     DESCRIPTION
#---------     -----------    ---------------------------
 STRT.S             07:31:38 09-Sep-20: START TIME 07:31:38 09-Sep-20
 STOP.S             07:38:38 09-Sep-20: STOP TIME  07:38:38 09-Sep-20
 STEP.S                   0.00: STEP TIME
 NULL.                 -999.25: NULL VALUE
 MDS .        Operator Entered:  MAG DATA SOURCE
 PDAT.          Mean Sea Level:  PERMANENT DATUM
 DCON.         Sperry Drilling:  DIRECTNL CONTR
 RIG .              West Azeri:  RIG NAME
 WELL.           C40 (Slot 20):  WELL NAME
 SRVC.     Turan Drilling Engineering:  CONTRACTOR
 FLD .                     ACG:  FIELD NAME
 CTRY.              Azerbaijan:  COUNTRY NAME
 PROV.                    Baku:  PROVINCE
 STAT.                    Baku:  STATE NAME
 REGN.                   EESSA:  REGION
 BASE.              Azerbaijan:  LOGGING EQUIPMENT BASE LOCATION
 COMP.     BP Exploration (Caspian Sea) Ltd:  COMPANY
 WTYP.                Deviated:  WELL TYPE
 SON .        AZ-XX-0906344804:  JOB NUMBER
 FTOP.          Formation Tops:  FORM TOPS DESC
 ILTD.               Lithology:  INTERP LTH DESC
 SVYD.                  Survey:  SURVEY DESC
 DMOD.             Drill Model:  DRILL MOD DESC
 HPTY.       Minimum Curvature:  HOLE POS TYPE
 NREF.                    Grid:  NORTH REFERENCE
 SPUD.               01-Jan-20:  SPUD DATE
 DATE.      00.59.44 15-Sep-20:  END TIME
 STIM.      12.00.00 12-Jun-20:  START TIME
 DMF .             Drill Floor:  DRILL MEAS FROM
 DFST.                        :  DIST FSL TEXT
 DFWT.                        :  DIST FWL TEXT
 API .                        :  API NUMBER
 CNTY.                        :  COUNTY
 UWI .                        :  UNIQUE WELL IDENTIFIER
 LOC .                        :  LOCATION
 LMF .             Drill Floor:  LOG MEASURED FROM
 VSNS.m                   2.88:  VERT SEC N/S
 VSEW.m                  -3.84:  VERT SEC E/W
 AGAP.m                  43.42:  AIR GAP
 APD .m                  43.42:  DEPTH ABOVE PD
 WDMS.m                 118.27:  WD ELEV
 EGL .m                   0.00:  GROUND ELEVATION
 EPD .m                   0.00:  ELEVATION
 AZTC.deg                 6.23:  AZM TOTAL CORR
 GRDC.deg                 0.20:  GRID CORRECTION
 MDEC.deg                 6.43:  MAGNETIC DECL
 MDIP.deg                59.49:  MAGNETIC DIP
 MFLD.nT              50277.00:  MAGNETIC FIELD
 GVFD.g                   1.00:  GRAVITY FIELD
 VSDR.deg               173.20:  VERT SEC DIRECT
 TDD .m                5790.01:  TOTAL DEPTH (DRILLER)
 SDEP.m                5231.01:  START DEPTH
 DFSL.m                   0.00:  DISTANCE FSL
 DFWL.m                   0.00:  DISTANCE FWL
 UTMY.m             4435808.83:  UTM Y
 UTMX.m              526266.40:  UTM X
 WHEW.m                  -3.84:  WELL HEAD E/W
 WHNS.m                   2.88:  WELL HEAD N/S
 LONG.deg                51.31:  LONGITUDE
 LATI.deg                40.06:  LATITUDE
 TVDS.m                  43.42:  TVDSS CORRECTN
 DEP .m                 430.08:  DEPTH
 EKB .m                  43.42:  KB ELEVATION
 EDF .m                  43.42:  DF ELEVATION
 TDL .m                 559.00:  TOTAL DEPTH (LOGGER)
 MAGU.                 1849381:  MAGUTM CHECKSUM
 VSC .                       0:  VS TO CLOSURE
~Parameter Information Block
#MNEM.UNIT       Value        Description
#---------     -----------    ---------------------------
 AV  .mps                 4.87:  Ann Velocity 
 AVMX.mps                 7.08:  Max Ann Veloc 
 AZIF.deg               108.87:  Azm, Final 
 BHAT.                  Rotary:  BHA Type 
 BROT.°/30m               0.35:  Build Rotating 
 BS  .in                  8.50:  Bit Size 
 BSZ .in                  8.50:  Bit Size 
 BTPL.psig              360.00:  Bit Press Loss 
 CABU.                     Yes:  Customer Abuse 
 COMM.                     |L:  Run Comments 1 
 TCS .hr                106.24:  Time Ciculation Ended 
 CV  .mps                 1.77:  Crit Velocity 
 CVMX.mps                 2.03:  Max Crit Veloc 
 DD1 .         Aykhan Agagulov:  Direct Drillr 1 
 DD2 .            Nonso Okofor:  Direct Drillr 2 
 DDSV.               Geo-Pilot:  DD Service 
 DEFF.%                  98.00:  % Det Eff 
 DLRX.°/30m               0.50:  Dogleg Rot Max 
 DLSO.°/30m               0.40:  Dogleg Oriented 
 DLSX.°/30m               0.94:  Dogleg Str Max 
 DRET.      20.30.00 08-Sep-20:  Drill End Time 
 DRST.      22.15.00 06-Sep-20:  Drill Start Tim 
 DTIM.hr                 31.31:  Time Drilling 
 EDEP.m                5790.01:  End Depth 
 ENG1.           Amrah Tahirov:  Engineer 1 
 ENG2.         Dair Mahammadov:  Engineer 2 
 ENG3.           Emil Huseynov:  Engineer 3 
 ETIM.      04.01.04 12-Sep-20:  End Time 
 FLOI.gpm               450.00:  Flow In 
 FLON.gpm               450.00:  Flow In Min 
 FLOS.cptm                2.00:  Fluid Loss 
 FLOX.gpm               450.00:  Flow In Max 
 FTRO.       Formation Presure:  FTWD Run Obj 
 HFLO.                      No:  High Flow 
 HPRE.                      No:  High Pressure 
 HTEM.                      No:  High Temp 
 HYDO.m                   1.80:  Hydro Offset 
 IFIN.deg                72.03:  Inc, Final 
 IMAX.deg                73.72:  Inc Max 
 IMIN.deg                70.94:  Inc Min 
 IMND.m                5508.52:  Inc Min Depth 
 IMXD.m                5253.60:  Inc Max Depth 
 JARR.                      No:  Jarring 
 LETM.      20.30.00 08-Sep-20:  Log End Time 
 LOST.hr                     0:  Lost Rig Time 
 LSTM.      22.15.00 06-Sep-20:  Log Start Time 
 MDCL.ppm             36000.00:  Mud Chlorides 
 MDES.     Inversion Oil/Synthetic:  Mud Desc 
 DFD .sg                  1.44:  Mud Density 
 MDMN.sg                  1.44:  Dens Mud Min 
 MDMX.sg                  1.57:  Dens Mud Max 
 MOIL.                      70:  Run Mud Oil % 
 MOWR.                   70:30:  Run Mud OWR 
 MSND.                       0:  Run Mud Sand % 
 MSOL.                      21:  Run Mud Solids% 
 DFV .spqt               68.00:  Mud Viscosity 
 MWOD.in                  6.75:  MWD Tool OD 
 MWSI.                     Yes:  Serv Intrp, MWD 
 OTIM.hr                174.84:  Time Operating 
 PCON.           Look Like New:  Pad Condition 
 PMAX.psia            10616.93:  Press Op, Max 
 PV  .cP                 50.00:  Mud PV 
 RUN .                     700:  Run Number 
 ROPA.m/hr               14.24:  ROP Avg 
 ROPN.m/hr               10.00:  ROP Min 
 ROPX.m/hr               32.00:  ROP Max 
 RPMA.rpm               120.90:  RPM Surface Avg 
 RPMN.rpm               120.00:  RPM Surface Min 
 RPMX.rpm               140.00:  RPM Surface Max 
 RRUN.                    0700:  Rig Run Number 
 RTIM.hr                  3.20:  Time Reaming 
 SAZI.deg               109.99:  Azm, Start 
 SDEP.m                5231.01:  Start Depth 
 SIDD.                      No:  Serv Intrp, DD 
 SINC.deg                73.72:  Inc, Start 
 SPPA.psig             3051.00:  SPP Avg 
 SPPN.psig             2950.00:  SPP Min 
 SPPX.psig             3250.00:  SPP Max 
 STIM.      08.00.00 05-Sep-20:  Start Time 
 SVCS.                 DD, MWD:  Services 
 SVER.                    9.20:  Sperry Version 
 TDAT.m                 559.00:  Tot Depth Attmp 
 TDDF.                      No:  Trip for DD 
 TDLG.m                 559.00:  Tot Depth Loggd 
 TFF .                      No:  Trip for Fail 
 TQAA.f-kp               26.49:  Torque Abs Avg 
 TQAN.f-kp               25.00:  Torque Abs Min 
 TQAX.f-kp               27.00:  Torque Abs Max 
 TRRT.°/30m               1.50:  Turn Rotating 
 MRT .                    HCIM:  Maximum Recorded Temperature 
 TTMX.degC               90.20:  Max Tool Temp 
 VS01.                90542671:  Virtual Str1 SN 
 VS02.                90545185:  Virtual Str2 SN 
 VS03.                90602015:  Virtual Str3 SN 
 VS04.                90515230:  Virtual Str4 SN 
 WBMN.klb                 5.00:  WOB Min 
 WOBA.klb                14.79:  WOB Avg 
 WOBX.klb                20.00:  WOB Max 
 YP  .lhf2               29.00:  Yield Point 
~Curve Information Block
#MNEM.UNIT                 API CODE     Curve Description
#---------               -----------    ---------------------------
 TIME.HHMMSS            00 000 000 000:  GT Time & Date
 GTDEPTH.m              00 000 000 000:  GT Depth
 GTPQH.psia             00 000 000 000:  GT HR Quartz Pressure
 GTTQ.degC              00 000 000 000:  GT Quartz Temperature
 GTTN.NONE              00 000 000 000:  GT Test Number
 GTET.sec               00 000 000 000:  GT Elapsed Test Time
 GTTVD.m                00 000 000 000:  GT True Vertical Depth
#Other Information
#
#WARRANTY: Halliburton will use its best efforts to furnish customers with 
#accurate information and interpretations that are part of, and incident to, the services 
#provided.  However, Halliburton cannot and does not warrant the accuracy 
#or correctness of such information and interpretations.  Under no circumstances should any 
#such information or interpretation be relied upon as the sole basis for any drilling, 
#completion, production, or financial decision or any procedure involving any risk to the 
#safety of any drilling venture, drilling rig or its crew or any other third party.  The 
#Customer has full responsibility for all drilling, completion and production operation.  
#Halliburton makes no representations or warranties, either expressed or 
#implied, including, but not limited to, the implied warranties of merchantability or fitness 
#for a particular purpose, with respect to the services rendered.  In no event will 
#Halliburton be liable for failure to obtain any particular results or for 
#any damages, including, but not limited to, indirect, special or consequential damages, 
#resulting from the use of any information or interpretation provided by Halliburton.
#
~A           TIME           GTDEPTH  GTPQH  GTTQ  GTTN  GTET   GTTVD  
# ...
   07:35:05.372.09-Sep-2020 5569.01 3533.48 78.52 4.00 207.08 2640.81
   07:35:05.572.09-Sep-2020 5569.01 3533.48 78.52 4.00 207.28 2640.81
   07:35:05.772.09-Sep-2020 5569.01 3533.46 78.52 4.00 207.48 2640.81
   07:35:05.972.09-Sep-2020 5569.01 3533.45 78.52 4.00 207.68 2640.81
   07:35:06.172.09-Sep-2020 5569.01 3533.46 78.52 4.00 207.88 2640.81
   07:35:06.373.09-Sep-2020 5569.01 3533.46 78.52 4.00 208.09 2640.81
   07:35:06.573.09-Sep-2020 5569.01 3533.46 78.52 4.00 208.29 2640.81
   07:35:06.773.09-Sep-2020 5569.01 3533.45 78.52 4.00 208.49 2640.81
   07:35:06.973.09-Sep-2020 5569.01 3533.46 78.52 4.00 208.69 2640.81
   07:35:07.173.09-Sep-2020 5569.01 3533.45 78.52 4.00 208.89 2640.81
   07:35:07.373.09-Sep-2020 5569.01 3533.46 78.52 4.00 209.09 2640.81
   07:35:07.573.09-Sep-2020 5569.01 3533.46 78.52 4.00 209.29 2640.81
   07:35:07.773.09-Sep-2020 5569.01 3533.46 78.52 4.00 209.49 2640.81
   07:35:07.973.09-Sep-2020 5569.01 3533.46 78.52 4.00 209.69 2640.81
   07:35:08.173.09-Sep-2020 5569.01 3533.45 78.52 4.00 209.89 2640.81
   07:35:08.373.09-Sep-2020 5569.01 3533.46 78.52 4.00 210.09 2640.81
   07:35:08.573.09-Sep-2020 5569.01 3533.46 78.52 4.00 210.29 2640.81
   07:35:08.773.09-Sep-2020 5569.01 3533.43 78.52 4.00 210.49 2640.81
   07:35:08.974.09-Sep-2020 5569.01 3533.46 78.52 4.00 210.69 2640.81
   07:35:09.174.09-Sep-2020 5569.01 3533.46 78.52 4.00 210.89 2640.81
   07:35:09.374.09-Sep-2020 5569.01 3533.46 78.52 4.00 211.09 2640.81
   07:35:09.574.09-Sep-2020 5569.01 3533.46 78.52 4.00 211.29 2640.81
   07:35:09.774.09-Sep-2020 5569.01 3533.46 78.52 4.00 211.49 2640.81
   07:35:09.974.09-Sep-2020 5569.01 3533.46 78.52 4.00 211.69 2640.81
   07:35:10.174.09-Sep-2020 5569.01 3533.46 78.52 4.00 211.89 2640.81
   07:35:10.374.09-Sep-2020 5569.01 3533.46 78.52 4.00 212.09 2640.81
   07:35:10.574.09-Sep-2020 5569.01 3533.46 78.52 4.00 212.29 2640.81
   07:35:10.774.09-Sep-2020 5569.01 3533.46 78.52 4.00 212.49 2640.81
   07:35:10.974.09-Sep-2020 5569.01 3533.46 78.52 4.00 212.69 2640.81
   07:35:11.174.09-Sep-2020 5569.01 3533.46 78.52 4.00 212.89 2640.81
   07:35:11.375.09-Sep-2020 5569.01 3533.46 78.52 4.00 213.09 2640.81
   07:35:11.575.09-Sep-2020 5569.01 3533.46 78.52 4.00 213.29 2640.81
   07:35:11.775.09-Sep-2020 5569.01 3533.46 78.52 4.00 213.49 2640.81
   07:35:11.975.09-Sep-2020 5569.01 3533.47 78.52 4.00 213.69 2640.81
   07:35:12.175.09-Sep-2020 5569.01 3533.43 78.52 4.00 213.89 2640.81
   07:35:12.375.09-Sep-2020 5569.01 3533.47 78.52 4.00 214.09 2640.81
   07:35:12.575.09-Sep-2020 5569.01 3533.47 78.52 4.00 214.29 2640.81
   07:35:12.775.09-Sep-2020 5569.01 3533.48 78.52 4.00 214.49 2640.81
   07:35:12.975.09-Sep-2020 5569.01 3533.43 78.52 4.00 214.69 2640.81
   07:35:13.175.09-Sep-2020 5569.01 3533.44 78.52 4.00 214.89 2640.81
   07:35:13.375.09-Sep-2020 5569.01 3533.47 78.52 4.00 215.09 2640.81
   07:35:13.575.09-Sep-2020 5569.01 3533.47 78.52 4.00 215.29 2640.81
   07:35:13.776.09-Sep-2020 5569.01 3533.45 78.52 4.00 215.49 2640.81
   07:35:13.976.09-Sep-2020 5569.01 3533.46 78.52 4.00 215.69 2640.81
   07:35:14.176.09-Sep-2020 5569.01 3533.44 78.52 4.00 215.89 2640.81
   07:35:14.376.09-Sep-2020 5569.01 3533.49 78.52 4.00 216.09 2640.81
   07:35:14.576.09-Sep-2020 5569.01 3533.49 78.52 4.00 216.29 2640.81
   07:35:14.776.09-Sep-2020 5569.01 3533.46 78.52 4.00 216.49 2640.81
   07:35:14.976.09-Sep-2020 5569.01 3533.46 78.52 4.00 216.69 2640.81
   07:35:15.176.09-Sep-2020 5569.01 3533.45 78.52 4.00 216.89 2640.81
   07:35:15.376.09-Sep-2020 5569.01 3533.46 78.52 4.00 217.09 2640.81
   07:35:15.576.09-Sep-2020 5569.01 3533.46 78.52 4.00 217.29 2640.81
   07:35:15.776.09-Sep-2020 5569.01 3533.49 78.52 4.00 217.49 2640.81
   07:35:15.976.09-Sep-2020 5569.01 3533.42 78.52 4.00 217.69 2640.81
   07:35:16.177.09-Sep-2020 5569.01 3533.47 78.52 4.00 217.89 2640.81
   07:35:16.377.09-Sep-2020 5569.01 3533.44 78.52 4.00 218.09 2640.81
   07:35:16.577.09-Sep-2020 5569.01 3533.44 78.52 4.00 218.29 2640.81
   07:35:16.777.09-Sep-2020 5569.01 3533.41 78.52 4.00 218.49 2640.81
   07:35:16.977.09-Sep-2020 5569.01 3533.47 78.52 4.00 218.69 2640.81
   07:35:17.177.09-Sep-2020 5569.01 3533.47 78.52 4.00 218.89 2640.81
   07:35:17.377.09-Sep-2020 5569.01 3533.44 78.52 4.00 219.09 2640.81
   07:35:17.577.09-Sep-2020 5569.01 3533.44 78.52 4.00 219.29 2640.81
   07:35:17.777.09-Sep-2020 5569.01 3533.44 78.52 4.00 219.49 2640.81
   07:35:17.977.09-Sep-2020 5569.01 3533.45 78.52 4.00 219.69 2640.81
   07:35:18.177.09-Sep-2020 5569.01 3533.45 78.52 4.00 219.89 2640.81
   07:35:18.377.09-Sep-2020 5569.01 3533.45 78.52 4.00 220.09 2640.81
   07:35:18.577.09-Sep-2020 5569.01 3533.45 78.52 4.00 220.29 2640.81
   07:35:18.778.09-Sep-2020 5569.01 3533.46 78.52 4.00 220.49 2640.81
   07:35:18.978.09-Sep-2020 5569.01 3533.45 78.52 4.00 220.69 2640.81
   07:35:19.178.09-Sep-2020 5569.01 3533.45 78.52 4.00 220.89 2640.81
   07:35:19.378.09-Sep-2020 5569.01 3533.46 78.52 4.00 221.09 2640.81
   07:35:19.578.09-Sep-2020 5569.01 3533.46 78.52 4.00 221.29 2640.81
   07:35:19.778.09-Sep-2020 5569.01 3533.45 78.52 4.00 221.49 2640.81
   07:35:19.978.09-Sep-2020 5569.01 3533.46 78.52 4.00 221.69 2640.81
   07:35:20.178.09-Sep-2020 5569.01 3533.45 78.52 4.00 221.89 2640.81
   07:35:20.378.09-Sep-2020 5569.01 3533.47 78.52 4.00 222.09 2640.81
   07:35:20.578.09-Sep-2020 5569.01 3533.47 78.52 4.00 222.29 2640.81
   07:35:20.778.09-Sep-2020 5569.01 3533.44 78.52 4.00 222.49 2640.81
   07:35:20.978.09-Sep-2020 5569.01 3533.46 78.52 4.00 222.69 2640.81
   07:35:21.179.09-Sep-2020 5569.01 3533.45 78.52 4.00 222.89 2640.81
   07:35:21.379.09-Sep-2020 5569.01 3533.45 78.52 4.00 223.09 2640.81
   07:35:21.579.09-Sep-2020 5569.01 3533.45 78.52 4.00 223.29 2640.81
   07:35:21.779.09-Sep-2020 5569.01 3533.46 78.52 4.00 223.49 2640.81
   07:35:21.979.09-Sep-2020 5569.01 3533.44 78.52 4.00 223.69 2640.81
   07:35:22.179.09-Sep-2020 5569.01 3533.46 78.52 4.00 223.89 2640.81
   07:35:22.379.09-Sep-2020 5569.01 3533.45 78.52 4.00 224.09 2640.81
   07:35:22.579.09-Sep-2020 5569.01 3533.45 78.52 4.00 224.29 2640.81
   07:35:22.779.09-Sep-2020 5569.01 3533.45 78.52 4.00 224.49 2640.81
   07:35:22.979.09-Sep-2020 5569.01 3533.45 78.52 4.00 224.69 2640.81
   07:35:23.179.09-Sep-2020 5569.01 3533.45 78.52 4.00 224.89 2640.81
   07:35:23.379.09-Sep-2020 5569.01 3533.45 78.52 4.00 225.09 2640.81
   07:35:23.580.09-Sep-2020 5569.01 3533.45 78.52 4.00 225.29 2640.81
   07:35:23.780.09-Sep-2020 5569.01 3533.47 78.52 4.00 225.49 2640.81
   07:35:23.980.09-Sep-2020 5569.01 3533.42 78.52 4.00 225.69 2640.81
   07:35:24.180.09-Sep-2020 5569.01 3533.47 78.52 4.00 225.89 2640.81
   07:35:24.380.09-Sep-2020 5569.01 3533.43 78.52 4.00 226.09 2640.81
   07:35:24.580.09-Sep-2020 5569.01 3533.43 78.52 4.00 226.29 2640.81
   07:35:24.780.09-Sep-2020 5569.01 3533.43 78.52 4.00 226.49 2640.81
   07:35:24.980.09-Sep-2020 5569.01 3533.43 78.52 4.00 226.69 2640.81
   07:35:25.180.09-Sep-2020 5569.01 3533.47 78.52 4.00 226.89 2640.81
   07:35:25.380.09-Sep-2020 5569.01 3533.47 78.52 4.00 227.09 2640.81
   07:35:25.580.09-Sep-2020 5569.01 3533.47 78.52 4.00 227.29 2640.81
   07:35:25.780.09-Sep-2020 5569.01 3533.45 78.52 4.00 227.49 2640.81
   07:35:25.981.09-Sep-2020 5569.01 3533.44 78.52 4.00 227.69 2640.81
   07:35:26.181.09-Sep-2020 5569.01 3533.48 78.52 4.00 227.89 2640.81
   07:35:26.381.09-Sep-2020 5569.01 3533.41 78.52 4.00 228.09 2640.81
   07:35:26.581.09-Sep-2020 5569.01 3533.41 78.52 4.00 228.29 2640.81
   07:35:26.781.09-Sep-2020 5569.01 3533.45 78.52 4.00 228.49 2640.81
   07:35:26.981.09-Sep-2020 5569.01 3533.45 78.52 4.00 228.69 2640.81
   07:35:27.181.09-Sep-2020 5569.01 3533.45 78.52 4.00 228.89 2640.81
   07:35:27.381.09-Sep-2020 5569.01 3533.44 78.52 4.00 229.09 2640.81
   07:35:27.581.09-Sep-2020 5569.01 3533.44 78.52 4.00 229.29 2640.81
   07:35:27.781.09-Sep-2020 5569.01 3533.41 78.52 4.00 229.49 2640.81
   07:35:27.981.09-Sep-2020 5569.01 3533.46 78.52 4.00 229.69 2640.81
   07:35:28.181.09-Sep-2020 5569.01 3533.43 78.52 4.00 229.89 2640.81
