~Version Information
 VERS.                  2.0:   CWLS log ASCII Standard -VERSION 2.0
 WRAP.                   NO:   One line per depth step
~Well Information Block
#MNEM.UNIT     VALUE/NAME     DESCRIPTION
#---------     -----------    ---------------------------
 STRT.S             18:49:58 09-Sep-20: START TIME 18:49:58 09-Sep-20
 STOP.S             18:58:03 09-Sep-20: STOP TIME  18:58:03 09-Sep-20
 STEP.S                   0.00: STEP TIME
 NULL.                 -999.25: NULL VALUE
 MDS .        Operator Entered:  MAG DATA SOURCE
 PDAT.          Mean Sea Level:  PERMANENT DATUM
 DCON.         Sperry Drilling:  DIRECTNL CONTR
 RIG .              West Azeri:  RIG NAME
 WELL.           C40 (Slot 20):  WELL NAME
 SRVC.     Turan Drilling Engineering:  CONTRACTOR
 FLD .                     ACG:  FIELD NAME
 CTRY.              Azerbaijan:  COUNTRY NAME
 PROV.                    Baku:  PROVINCE
 STAT.                    Baku:  STATE NAME
 REGN.                   EESSA:  REGION
 BASE.              Azerbaijan:  LOGGING EQUIPMENT BASE LOCATION
 COMP.     BP Exploration (Caspian Sea) Ltd:  COMPANY
 WTYP.                Deviated:  WELL TYPE
 SON .        AZ-XX-0906344804:  JOB NUMBER
 FTOP.          Formation Tops:  FORM TOPS DESC
 ILTD.               Lithology:  INTERP LTH DESC
 SVYD.                  Survey:  SURVEY DESC
 DMOD.             Drill Model:  DRILL MOD DESC
 HPTY.       Minimum Curvature:  HOLE POS TYPE
 NREF.                    Grid:  NORTH REFERENCE
 SPUD.               01-Jan-20:  SPUD DATE
 DATE.      00.59.44 15-Sep-20:  END TIME
 STIM.      12.00.00 12-Jun-20:  START TIME
 DMF .             Drill Floor:  DRILL MEAS FROM
 DFST.                        :  DIST FSL TEXT
 DFWT.                        :  DIST FWL TEXT
 API .                        :  API NUMBER
 CNTY.                        :  COUNTY
 UWI .                        :  UNIQUE WELL IDENTIFIER
 LOC .                        :  LOCATION
 LMF .             Drill Floor:  LOG MEASURED FROM
 VSNS.m                   2.88:  VERT SEC N/S
 VSEW.m                  -3.84:  VERT SEC E/W
 AGAP.m                  43.42:  AIR GAP
 APD .m                  43.42:  DEPTH ABOVE PD
 WDMS.m                 118.27:  WD ELEV
 EGL .m                   0.00:  GROUND ELEVATION
 EPD .m                   0.00:  ELEVATION
 AZTC.deg                 6.23:  AZM TOTAL CORR
 GRDC.deg                 0.20:  GRID CORRECTION
 MDEC.deg                 6.43:  MAGNETIC DECL
 MDIP.deg                59.49:  MAGNETIC DIP
 MFLD.nT              50277.00:  MAGNETIC FIELD
 GVFD.g                   1.00:  GRAVITY FIELD
 VSDR.deg               173.20:  VERT SEC DIRECT
 TDD .m                5790.01:  TOTAL DEPTH (DRILLER)
 SDEP.m                5231.01:  START DEPTH
 DFSL.m                   0.00:  DISTANCE FSL
 DFWL.m                   0.00:  DISTANCE FWL
 UTMY.m             4435808.83:  UTM Y
 UTMX.m              526266.40:  UTM X
 WHEW.m                  -3.84:  WELL HEAD E/W
 WHNS.m                   2.88:  WELL HEAD N/S
 LONG.deg                51.31:  LONGITUDE
 LATI.deg                40.06:  LATITUDE
 TVDS.m                  43.42:  TVDSS CORRECTN
 DEP .m                 430.08:  DEPTH
 EKB .m                  43.42:  KB ELEVATION
 EDF .m                  43.42:  DF ELEVATION
 TDL .m                 559.00:  TOTAL DEPTH (LOGGER)
 MAGU.                 1849381:  MAGUTM CHECKSUM
 VSC .                       0:  VS TO CLOSURE
~Parameter Information Block
#MNEM.UNIT       Value        Description
#---------     -----------    ---------------------------
 AV  .mps                 4.87:  Ann Velocity 
 AVMX.mps                 7.08:  Max Ann Veloc 
 AZIF.deg               108.87:  Azm, Final 
 BHAT.                  Rotary:  BHA Type 
 BROT.°/30m               0.35:  Build Rotating 
 BS  .in                  8.50:  Bit Size 
 BSZ .in                  8.50:  Bit Size 
 BTPL.psig              360.00:  Bit Press Loss 
 CABU.                     Yes:  Customer Abuse 
 COMM.                     „T:  Run Comments 1 
 TCS .hr                106.24:  Time Ciculation Ended 
 CV  .mps                 1.77:  Crit Velocity 
 CVMX.mps                 2.03:  Max Crit Veloc 
 DD1 .         Aykhan Agagulov:  Direct Drillr 1 
 DD2 .            Nonso Okofor:  Direct Drillr 2 
 DDSV.               Geo-Pilot:  DD Service 
 DEFF.%                  98.00:  % Det Eff 
 DLRX.°/30m               0.50:  Dogleg Rot Max 
 DLSO.°/30m               0.40:  Dogleg Oriented 
 DLSX.°/30m               0.94:  Dogleg Str Max 
 DRET.      20.30.00 08-Sep-20:  Drill End Time 
 DRST.      22.15.00 06-Sep-20:  Drill Start Tim 
 DTIM.hr                 31.31:  Time Drilling 
 EDEP.m                5790.01:  End Depth 
 ENG1.           Amrah Tahirov:  Engineer 1 
 ENG2.         Dair Mahammadov:  Engineer 2 
 ENG3.           Emil Huseynov:  Engineer 3 
 ETIM.      04.01.04 12-Sep-20:  End Time 
 FLOI.gpm               450.00:  Flow In 
 FLON.gpm               450.00:  Flow In Min 
 FLOS.cptm                2.00:  Fluid Loss 
 FLOX.gpm               450.00:  Flow In Max 
 FTRO.       Formation Presure:  FTWD Run Obj 
 HFLO.                      No:  High Flow 
 HPRE.                      No:  High Pressure 
 HTEM.                      No:  High Temp 
 HYDO.m                   1.80:  Hydro Offset 
 IFIN.deg                72.03:  Inc, Final 
 IMAX.deg                73.72:  Inc Max 
 IMIN.deg                70.94:  Inc Min 
 IMND.m                5508.52:  Inc Min Depth 
 IMXD.m                5253.60:  Inc Max Depth 
 JARR.                      No:  Jarring 
 LETM.      20.30.00 08-Sep-20:  Log End Time 
 LOST.hr                     0:  Lost Rig Time 
 LSTM.      22.15.00 06-Sep-20:  Log Start Time 
 MDCL.ppm             36000.00:  Mud Chlorides 
 MDES.     Inversion Oil/Synthetic:  Mud Desc 
 DFD .sg                  1.44:  Mud Density 
 MDMN.sg                  1.44:  Dens Mud Min 
 MDMX.sg                  1.57:  Dens Mud Max 
 MOIL.                      70:  Run Mud Oil % 
 MOWR.                   70:30:  Run Mud OWR 
 MSND.                       0:  Run Mud Sand % 
 MSOL.                      21:  Run Mud Solids% 
 DFV .spqt               68.00:  Mud Viscosity 
 MWOD.in                  6.75:  MWD Tool OD 
 MWSI.                     Yes:  Serv Intrp, MWD 
 OTIM.hr                174.84:  Time Operating 
 PCON.           Look Like New:  Pad Condition 
 PMAX.psia            10616.93:  Press Op, Max 
 PV  .cP                 50.00:  Mud PV 
 RUN .                     700:  Run Number 
 ROPA.m/hr               14.24:  ROP Avg 
 ROPN.m/hr               10.00:  ROP Min 
 ROPX.m/hr               32.00:  ROP Max 
 RPMA.rpm               120.90:  RPM Surface Avg 
 RPMN.rpm               120.00:  RPM Surface Min 
 RPMX.rpm               140.00:  RPM Surface Max 
 RRUN.                    0700:  Rig Run Number 
 RTIM.hr                  3.20:  Time Reaming 
 SAZI.deg               109.99:  Azm, Start 
 SDEP.m                5231.01:  Start Depth 
 SIDD.                      No:  Serv Intrp, DD 
 SINC.deg                73.72:  Inc, Start 
 SPPA.psig             3051.00:  SPP Avg 
 SPPN.psig             2950.00:  SPP Min 
 SPPX.psig             3250.00:  SPP Max 
 STIM.      08.00.00 05-Sep-20:  Start Time 
 SVCS.                 DD, MWD:  Services 
 SVER.                    9.20:  Sperry Version 
 TDAT.m                 559.00:  Tot Depth Attmp 
 TDDF.                      No:  Trip for DD 
 TDLG.m                 559.00:  Tot Depth Loggd 
 TFF .                      No:  Trip for Fail 
 TQAA.f-kp               26.49:  Torque Abs Avg 
 TQAN.f-kp               25.00:  Torque Abs Min 
 TQAX.f-kp               27.00:  Torque Abs Max 
 TRRT.°/30m               1.50:  Turn Rotating 
 MRT .                    HCIM:  Maximum Recorded Temperature 
 TTMX.degC               90.20:  Max Tool Temp 
 VS01.                90542671:  Virtual Str1 SN 
 VS02.                90545185:  Virtual Str2 SN 
 VS03.                90602015:  Virtual Str3 SN 
 VS04.                90515230:  Virtual Str4 SN 
 WBMN.klb                 5.00:  WOB Min 
 WOBA.klb                14.79:  WOB Avg 
 WOBX.klb                20.00:  WOB Max 
 YP  .lhf2               29.00:  Yield Point 
~Curve Information Block
#MNEM.UNIT                 API CODE     Curve Description
#---------               -----------    ---------------------------
 TIME.HHMMSS            00 000 000 000:  GT Time & Date
 GTDEPTH.m              00 000 000 000:  GT Depth
 GTPQH.psia             00 000 000 000:  GT HR Quartz Pressure
 GTTQ.degC              00 000 000 000:  GT Quartz Temperature
 GTTN.NONE              00 000 000 000:  GT Test Number
 GTET.sec               00 000 000 000:  GT Elapsed Test Time
 GTTVD.m                00 000 000 000:  GT True Vertical Depth
#Other Information
#
#WARRANTY: Halliburton will use its best efforts to furnish customers with 
#accurate information and interpretations that are part of, and incident to, the services 
#provided.  However, Halliburton cannot and does not warrant the accuracy 
#or correctness of such information and interpretations.  Under no circumstances should any 
#such information or interpretation be relied upon as the sole basis for any drilling, 
#completion, production, or financial decision or any procedure involving any risk to the 
#safety of any drilling venture, drilling rig or its crew or any other third party.  The 
#Customer has full responsibility for all drilling, completion and production operation.  
#Halliburton makes no representations or warranties, either expressed or 
#implied, including, but not limited to, the implied warranties of merchantability or fitness 
#for a particular purpose, with respect to the services rendered.  In no event will 
#Halliburton be liable for failure to obtain any particular results or for 
#any damages, including, but not limited to, indirect, special or consequential damages, 
#resulting from the use of any information or interpretation provided by Halliburton.
#
~A           TIME           GTDEPTH  GTPQH  GTTQ  GTTN   GTET   GTTVD  
# ...
   18:53:44.323.09-Sep-2020 5280.51  488.89 74.29 22.00 225.82 2550.44
   18:53:44.522.09-Sep-2020 5280.51  489.11 74.29 22.00 226.02 2550.44
   18:53:44.722.09-Sep-2020 5280.51  489.35 74.29 22.00 226.22 2550.44
   18:53:44.922.09-Sep-2020 5280.51  489.54 74.29 22.00 226.42 2550.44
   18:53:45.122.09-Sep-2020 5280.51  489.92 74.29 22.00 226.62 2550.44
   18:53:45.322.09-Sep-2020 5280.51  490.06 74.29 22.00 226.82 2550.44
   18:53:45.522.09-Sep-2020 5280.51  490.06 74.29 22.00 227.02 2550.44
   18:53:45.722.09-Sep-2020 5280.51  490.57 74.29 22.00 227.22 2550.44
   18:53:45.921.09-Sep-2020 5280.51  490.75 74.29 22.00 227.42 2550.44
   18:53:46.121.09-Sep-2020 5280.51  490.98 74.29 22.00 227.62 2550.44
   18:53:46.321.09-Sep-2020 5280.51  491.23 74.29 22.00 227.82 2550.44
   18:53:46.521.09-Sep-2020 5280.51  491.23 74.29 22.00 228.02 2550.44
   18:53:46.721.09-Sep-2020 5280.51  491.73 74.29 22.00 228.22 2550.44
   18:53:46.921.09-Sep-2020 5280.51  491.97 74.29 22.00 228.42 2550.44
   18:53:47.120.09-Sep-2020 5280.51  492.20 74.29 22.00 228.62 2550.44
   18:53:47.320.09-Sep-2020 5280.51  492.42 74.29 22.00 228.82 2550.44
   18:53:47.520.09-Sep-2020 5280.51  492.42 74.29 22.00 229.02 2550.44
   18:53:47.720.09-Sep-2020 5280.51  492.26 74.29 22.00 229.22 2550.44
   18:53:47.920.09-Sep-2020 5280.51  492.97 74.29 22.00 229.42 2550.44
   18:53:48.120.09-Sep-2020 5280.51  493.15 74.29 22.00 229.62 2550.44
   18:53:48.320.09-Sep-2020 5280.51  493.39 74.29 22.00 229.82 2550.44
   18:53:48.519.09-Sep-2020 5280.51  493.58 74.29 22.00 230.02 2550.44
   18:53:48.719.09-Sep-2020 5280.51  494.00 74.29 22.00 230.22 2550.44
   18:53:48.919.09-Sep-2020 5280.51  494.12 74.29 22.00 230.42 2550.44
   18:53:49.119.09-Sep-2020 5280.51  494.34 74.29 22.00 230.62 2550.44
   18:53:49.319.09-Sep-2020 5280.51  494.55 74.29 22.00 230.82 2550.44
   18:53:49.519.09-Sep-2020 5280.51  494.76 74.29 22.00 231.02 2550.44
   18:53:49.718.09-Sep-2020 5280.51  495.01 74.29 22.00 231.22 2550.44
   18:53:49.918.09-Sep-2020 5280.51  495.28 74.29 22.00 231.42 2550.44
   18:53:50.118.09-Sep-2020 5280.51  495.54 74.29 22.00 231.62 2550.44
   18:53:50.318.09-Sep-2020 5280.51  495.72 74.29 22.00 231.82 2550.44
   18:53:50.518.09-Sep-2020 5280.51  495.93 74.29 22.00 232.02 2550.44
   18:53:50.718.09-Sep-2020 5280.51  496.15 74.29 22.00 232.22 2550.44
   18:53:50.917.09-Sep-2020 5280.51  496.39 74.29 22.00 232.42 2550.44
   18:53:51.117.09-Sep-2020 5280.51  495.91 74.29 22.00 232.62 2550.44
   18:53:51.317.09-Sep-2020 5280.51  496.70 74.29 22.00 232.82 2550.44
   18:53:51.517.09-Sep-2020 5280.51  496.94 74.29 22.00 233.02 2550.44
   18:53:51.717.09-Sep-2020 5280.51  497.07 74.29 22.00 233.22 2550.44
   18:53:51.917.09-Sep-2020 5280.51  497.46 74.29 22.00 233.42 2550.44
   18:53:52.117.09-Sep-2020 5280.51  496.95 74.29 22.00 233.62 2550.44
   18:53:52.316.09-Sep-2020 5280.51  497.72 74.29 22.00 233.82 2550.44
   18:53:52.516.09-Sep-2020 5280.51  497.92 74.29 22.00 234.02 2550.44
   18:53:52.716.09-Sep-2020 5280.51  498.19 74.29 22.00 234.22 2550.44
   18:53:52.916.09-Sep-2020 5280.51  498.32 74.29 22.00 234.42 2550.44
   18:53:53.116.09-Sep-2020 5280.51  498.69 74.29 22.00 234.62 2550.44
   18:53:53.316.09-Sep-2020 5280.51  498.79 74.29 22.00 234.82 2550.44
   18:53:53.515.09-Sep-2020 5280.51  498.79 74.29 22.00 235.02 2550.44
   18:53:53.715.09-Sep-2020 5280.51  499.20 74.29 22.00 235.22 2550.44
   18:53:53.915.09-Sep-2020 5280.51  499.39 74.29 22.00 235.42 2550.44
   18:53:54.115.09-Sep-2020 5280.51  499.59 74.29 22.00 235.62 2550.44
   18:53:54.315.09-Sep-2020 5280.51  499.78 74.29 22.00 235.82 2550.44
   18:53:54.515.09-Sep-2020 5280.51  499.78 74.29 22.00 236.01 2550.44
   18:53:54.714.09-Sep-2020 5280.51  500.28 74.29 22.00 236.21 2550.44
   18:53:54.914.09-Sep-2020 5280.51  499.52 74.29 22.00 236.41 2550.44
   18:53:55.114.09-Sep-2020 5280.51  500.95 74.29 22.00 236.61 2550.44
   18:53:55.314.09-Sep-2020 5280.51  500.77 74.29 22.00 236.81 2550.44
   18:53:55.514.09-Sep-2020 5280.51  500.77 74.29 22.00 237.01 2550.44
   18:53:55.714.09-Sep-2020 5280.51  501.16 74.29 22.00 237.21 2550.44
   18:53:55.914.09-Sep-2020 5280.51  501.64 74.29 22.00 237.41 2550.44
   18:53:56.113.09-Sep-2020 5280.51  501.73 74.29 22.00 237.61 2550.44
   18:53:56.313.09-Sep-2020 5280.51  500.90 74.29 22.00 237.81 2550.44
   18:53:56.513.09-Sep-2020 5280.51  502.36 74.29 22.00 238.01 2550.44
   18:53:56.713.09-Sep-2020 5280.51  502.19 74.29 22.00 238.21 2550.44
   18:53:56.913.09-Sep-2020 5280.51  502.46 74.29 22.00 238.41 2550.44
   18:53:57.113.09-Sep-2020 5280.51  502.58 74.29 22.00 238.61 2550.44
   18:53:57.312.09-Sep-2020 5280.51  503.07 74.29 22.00 238.81 2550.44
   18:53:57.512.09-Sep-2020 5280.51  503.07 74.29 22.00 239.01 2550.44
   18:53:57.712.09-Sep-2020 5280.51  503.31 74.29 22.00 239.21 2550.44
   18:53:57.912.09-Sep-2020 5280.51  503.54 74.29 22.00 239.41 2550.44
   18:53:58.112.09-Sep-2020 5280.51  503.76 74.29 22.00 239.61 2550.44
   18:53:58.312.09-Sep-2020 5280.51  504.02 74.29 22.00 239.81 2550.44
   18:53:58.512.09-Sep-2020 5280.51  504.02 74.29 22.00 240.01 2550.44
   18:53:58.711.09-Sep-2020 5280.51  504.44 74.29 22.00 240.21 2550.44
   18:53:58.911.09-Sep-2020 5280.51  504.66 74.29 22.00 240.41 2550.44
   18:53:59.111.09-Sep-2020 5280.51  504.88 74.29 22.00 240.61 2550.44
   18:53:59.311.09-Sep-2020 5280.51  505.11 74.29 22.00 240.81 2550.44
   18:53:59.511.09-Sep-2020 5280.51  505.11 74.29 22.00 241.01 2550.44
   18:53:59.711.09-Sep-2020 5280.51  505.54 74.29 22.00 241.21 2550.44
   18:53:59.910.09-Sep-2020 5280.51  504.76 74.29 22.00 241.41 2550.44
   18:54:00.110.09-Sep-2020 5280.51  506.23 74.29 22.00 241.61 2550.44
   18:54:00.310.09-Sep-2020 5280.51  506.07 74.29 22.00 241.81 2550.44
   18:54:00.510.09-Sep-2020 5280.51  506.32 74.29 22.00 242.01 2550.44
   18:54:00.710.09-Sep-2020 5280.51  506.43 74.29 22.00 242.21 2550.44
   18:54:00.910.09-Sep-2020 5280.51  506.84 74.29 22.00 242.41 2550.44
   18:54:01.109.09-Sep-2020 5280.51  506.92 74.29 22.00 242.61 2550.44
   18:54:01.309.09-Sep-2020 5280.51  507.12 74.29 22.00 242.81 2550.44
   18:54:01.509.09-Sep-2020 5280.51  507.36 74.29 22.00 243.01 2550.44
   18:54:01.709.09-Sep-2020 5280.51  507.59 74.29 22.00 243.21 2550.44
   18:54:01.909.09-Sep-2020 5280.51  507.85 74.29 22.00 243.41 2550.44
   18:54:02.109.09-Sep-2020 5280.51  508.00 74.29 22.00 243.61 2550.44
   18:54:02.309.09-Sep-2020 5280.51  508.19 74.29 22.00 243.81 2550.44
   18:54:02.508.09-Sep-2020 5280.51  508.19 74.29 22.00 244.01 2550.44
   18:54:02.708.09-Sep-2020 5280.51  508.66 74.29 22.00 244.21 2550.44
   18:54:02.908.09-Sep-2020 5280.51  508.90 74.29 22.00 244.41 2550.44
   18:54:03.108.09-Sep-2020 5280.51  508.50 74.29 22.00 244.61 2550.44
   18:54:03.308.09-Sep-2020 5280.51  509.17 74.29 22.00 244.81 2550.44
   18:54:03.508.09-Sep-2020 5280.51  509.17 74.29 22.00 245.01 2550.44
   18:54:03.707.09-Sep-2020 5280.51  509.57 74.29 22.00 245.21 2550.44
   18:54:03.907.09-Sep-2020 5280.51  509.75 74.29 22.00 245.41 2550.44
   18:54:04.107.09-Sep-2020 5280.51  510.11 74.29 22.00 245.61 2550.44
   18:54:04.307.09-Sep-2020 5280.51  509.27 74.29 22.00 245.81 2550.44
   18:54:04.507.09-Sep-2020 5280.51  510.74 74.29 22.00 246.01 2550.44
   18:54:04.707.09-Sep-2020 5280.51  510.55 74.29 22.00 246.21 2550.44
   18:54:04.906.09-Sep-2020 5280.51  510.73 74.29 22.00 246.41 2550.44
   18:54:05.106.09-Sep-2020 5280.51  510.86 74.29 22.00 246.61 2550.44
   18:54:05.306.09-Sep-2020 5280.51  511.35 74.29 22.00 246.81 2550.44
   18:54:05.506.09-Sep-2020 5280.51  511.35 74.29 22.00 247.01 2550.44
   18:54:05.706.09-Sep-2020 5280.51  511.08 74.29 22.00 247.21 2550.44
   18:54:05.906.09-Sep-2020 5280.51  511.79 74.29 22.00 247.41 2550.44
   18:54:06.106.09-Sep-2020 5280.51  511.99 74.29 22.00 247.61 2550.44
   18:54:06.305.09-Sep-2020 5280.51  512.18 74.29 22.00 247.81 2550.44
   18:54:06.505.09-Sep-2020 5280.51  512.18 74.29 22.00 248.01 2550.44
   18:54:06.705.09-Sep-2020 5280.51  512.71 74.29 22.00 248.21 2550.44
