~Version Information
 VERS.                  2.0:   CWLS log ASCII Standard -VERSION 2.0
 WRAP.                   NO:   One line per depth step
~Well Information Block
#MNEM.UNIT     VALUE/NAME     DESCRIPTION
#---------     -----------    ---------------------------
 STRT.S             13:30:41 09-Sep-20: START TIME 13:30:41 09-Sep-20
 STOP.S             13:37:24 09-Sep-20: STOP TIME  13:37:24 09-Sep-20
 STEP.S                   0.00: STEP TIME
 NULL.                 -999.25: NULL VALUE
 MDS .        Operator Entered:  MAG DATA SOURCE
 PDAT.          Mean Sea Level:  PERMANENT DATUM
 DCON.         Sperry Drilling:  DIRECTNL CONTR
 RIG .              West Azeri:  RIG NAME
 WELL.           C40 (Slot 20):  WELL NAME
 SRVC.     Turan Drilling Engineering:  CONTRACTOR
 FLD .                     ACG:  FIELD NAME
 CTRY.              Azerbaijan:  COUNTRY NAME
 PROV.                    Baku:  PROVINCE
 STAT.                    Baku:  STATE NAME
 REGN.                   EESSA:  REGION
 BASE.              Azerbaijan:  LOGGING EQUIPMENT BASE LOCATION
 COMP.     BP Exploration (Caspian Sea) Ltd:  COMPANY
 WTYP.                Deviated:  WELL TYPE
 SON .        AZ-XX-0906344804:  JOB NUMBER
 FTOP.          Formation Tops:  FORM TOPS DESC
 ILTD.               Lithology:  INTERP LTH DESC
 SVYD.                  Survey:  SURVEY DESC
 DMOD.             Drill Model:  DRILL MOD DESC
 HPTY.       Minimum Curvature:  HOLE POS TYPE
 NREF.                    Grid:  NORTH REFERENCE
 SPUD.               01-Jan-20:  SPUD DATE
 DATE.      00.59.44 15-Sep-20:  END TIME
 STIM.      12.00.00 12-Jun-20:  START TIME
 DMF .             Drill Floor:  DRILL MEAS FROM
 DFST.                        :  DIST FSL TEXT
 DFWT.                        :  DIST FWL TEXT
 API .                        :  API NUMBER
 CNTY.                        :  COUNTY
 UWI .                        :  UNIQUE WELL IDENTIFIER
 LOC .                        :  LOCATION
 LMF .             Drill Floor:  LOG MEASURED FROM
 VSNS.m                   2.88:  VERT SEC N/S
 VSEW.m                  -3.84:  VERT SEC E/W
 AGAP.m                  43.42:  AIR GAP
 APD .m                  43.42:  DEPTH ABOVE PD
 WDMS.m                 118.27:  WD ELEV
 EGL .m                   0.00:  GROUND ELEVATION
 EPD .m                   0.00:  ELEVATION
 AZTC.deg                 6.23:  AZM TOTAL CORR
 GRDC.deg                 0.20:  GRID CORRECTION
 MDEC.deg                 6.43:  MAGNETIC DECL
 MDIP.deg                59.49:  MAGNETIC DIP
 MFLD.nT              50277.00:  MAGNETIC FIELD
 GVFD.g                   1.00:  GRAVITY FIELD
 VSDR.deg               173.20:  VERT SEC DIRECT
 TDD .m                5790.01:  TOTAL DEPTH (DRILLER)
 SDEP.m                5231.01:  START DEPTH
 DFSL.m                   0.00:  DISTANCE FSL
 DFWL.m                   0.00:  DISTANCE FWL
 UTMY.m             4435808.83:  UTM Y
 UTMX.m              526266.40:  UTM X
 WHEW.m                  -3.84:  WELL HEAD E/W
 WHNS.m                   2.88:  WELL HEAD N/S
 LONG.deg                51.31:  LONGITUDE
 LATI.deg                40.06:  LATITUDE
 TVDS.m                  43.42:  TVDSS CORRECTN
 DEP .m                 430.08:  DEPTH
 EKB .m                  43.42:  KB ELEVATION
 EDF .m                  43.42:  DF ELEVATION
 TDL .m                 559.00:  TOTAL DEPTH (LOGGER)
 MAGU.                 1849381:  MAGUTM CHECKSUM
 VSC .                       0:  VS TO CLOSURE
~Parameter Information Block
#MNEM.UNIT       Value        Description
#---------     -----------    ---------------------------
 AV  .mps                 4.87:  Ann Velocity 
 AVMX.mps                 7.08:  Max Ann Veloc 
 AZIF.deg               108.87:  Azm, Final 
 BHAT.                  Rotary:  BHA Type 
 BROT.°/30m               0.35:  Build Rotating 
 BS  .in                  8.50:  Bit Size 
 BSZ .in                  8.50:  Bit Size 
 BTPL.psig              360.00:  Bit Press Loss 
 CABU.                     Yes:  Customer Abuse 
 COMM.                     $ñd:  Run Comments 1 
 TCS .hr                106.24:  Time Ciculation Ended 
 CV  .mps                 1.77:  Crit Velocity 
 CVMX.mps                 2.03:  Max Crit Veloc 
 DD1 .         Aykhan Agagulov:  Direct Drillr 1 
 DD2 .            Nonso Okofor:  Direct Drillr 2 
 DDSV.               Geo-Pilot:  DD Service 
 DEFF.%                  98.00:  % Det Eff 
 DLRX.°/30m               0.50:  Dogleg Rot Max 
 DLSO.°/30m               0.40:  Dogleg Oriented 
 DLSX.°/30m               0.94:  Dogleg Str Max 
 DRET.      20.30.00 08-Sep-20:  Drill End Time 
 DRST.      22.15.00 06-Sep-20:  Drill Start Tim 
 DTIM.hr                 31.31:  Time Drilling 
 EDEP.m                5790.01:  End Depth 
 ENG1.           Amrah Tahirov:  Engineer 1 
 ENG2.         Dair Mahammadov:  Engineer 2 
 ENG3.           Emil Huseynov:  Engineer 3 
 ETIM.      04.01.04 12-Sep-20:  End Time 
 FLOI.gpm               450.00:  Flow In 
 FLON.gpm               450.00:  Flow In Min 
 FLOS.cptm                2.00:  Fluid Loss 
 FLOX.gpm               450.00:  Flow In Max 
 FTRO.       Formation Presure:  FTWD Run Obj 
 HFLO.                      No:  High Flow 
 HPRE.                      No:  High Pressure 
 HTEM.                      No:  High Temp 
 HYDO.m                   1.80:  Hydro Offset 
 IFIN.deg                72.03:  Inc, Final 
 IMAX.deg                73.72:  Inc Max 
 IMIN.deg                70.94:  Inc Min 
 IMND.m                5508.52:  Inc Min Depth 
 IMXD.m                5253.60:  Inc Max Depth 
 JARR.                      No:  Jarring 
 LETM.      20.30.00 08-Sep-20:  Log End Time 
 LOST.hr                     0:  Lost Rig Time 
 LSTM.      22.15.00 06-Sep-20:  Log Start Time 
 MDCL.ppm             36000.00:  Mud Chlorides 
 MDES.     Inversion Oil/Synthetic:  Mud Desc 
 DFD .sg                  1.44:  Mud Density 
 MDMN.sg                  1.44:  Dens Mud Min 
 MDMX.sg                  1.57:  Dens Mud Max 
 MOIL.                      70:  Run Mud Oil % 
 MOWR.                   70:30:  Run Mud OWR 
 MSND.                       0:  Run Mud Sand % 
 MSOL.                      21:  Run Mud Solids% 
 DFV .spqt               68.00:  Mud Viscosity 
 MWOD.in                  6.75:  MWD Tool OD 
 MWSI.                     Yes:  Serv Intrp, MWD 
 OTIM.hr                174.84:  Time Operating 
 PCON.           Look Like New:  Pad Condition 
 PMAX.psia            10616.93:  Press Op, Max 
 PV  .cP                 50.00:  Mud PV 
 RUN .                     700:  Run Number 
 ROPA.m/hr               14.24:  ROP Avg 
 ROPN.m/hr               10.00:  ROP Min 
 ROPX.m/hr               32.00:  ROP Max 
 RPMA.rpm               120.90:  RPM Surface Avg 
 RPMN.rpm               120.00:  RPM Surface Min 
 RPMX.rpm               140.00:  RPM Surface Max 
 RRUN.                    0700:  Rig Run Number 
 RTIM.hr                  3.20:  Time Reaming 
 SAZI.deg               109.99:  Azm, Start 
 SDEP.m                5231.01:  Start Depth 
 SIDD.                      No:  Serv Intrp, DD 
 SINC.deg                73.72:  Inc, Start 
 SPPA.psig             3051.00:  SPP Avg 
 SPPN.psig             2950.00:  SPP Min 
 SPPX.psig             3250.00:  SPP Max 
 STIM.      08.00.00 05-Sep-20:  Start Time 
 SVCS.                 DD, MWD:  Services 
 SVER.                    9.20:  Sperry Version 
 TDAT.m                 559.00:  Tot Depth Attmp 
 TDDF.                      No:  Trip for DD 
 TDLG.m                 559.00:  Tot Depth Loggd 
 TFF .                      No:  Trip for Fail 
 TQAA.f-kp               26.49:  Torque Abs Avg 
 TQAN.f-kp               25.00:  Torque Abs Min 
 TQAX.f-kp               27.00:  Torque Abs Max 
 TRRT.°/30m               1.50:  Turn Rotating 
 MRT .                    HCIM:  Maximum Recorded Temperature 
 TTMX.degC               90.20:  Max Tool Temp 
 VS01.                90542671:  Virtual Str1 SN 
 VS02.                90545185:  Virtual Str2 SN 
 VS03.                90602015:  Virtual Str3 SN 
 VS04.                90515230:  Virtual Str4 SN 
 WBMN.klb                 5.00:  WOB Min 
 WOBA.klb                14.79:  WOB Avg 
 WOBX.klb                20.00:  WOB Max 
 YP  .lhf2               29.00:  Yield Point 
~Curve Information Block
#MNEM.UNIT                 API CODE     Curve Description
#---------               -----------    ---------------------------
 TIME.HHMMSS            00 000 000 000:  GT Time & Date
 GTDEPTH.m              00 000 000 000:  GT Depth
 GTPQH.psia             00 000 000 000:  GT HR Quartz Pressure
 GTTQ.degC              00 000 000 000:  GT Quartz Temperature
 GTTN.NONE              00 000 000 000:  GT Test Number
 GTET.sec               00 000 000 000:  GT Elapsed Test Time
 GTTVD.m                00 000 000 000:  GT True Vertical Depth
#Other Information
#
#WARRANTY: Halliburton will use its best efforts to furnish customers with 
#accurate information and interpretations that are part of, and incident to, the services 
#provided.  However, Halliburton cannot and does not warrant the accuracy 
#or correctness of such information and interpretations.  Under no circumstances should any 
#such information or interpretation be relied upon as the sole basis for any drilling, 
#completion, production, or financial decision or any procedure involving any risk to the 
#safety of any drilling venture, drilling rig or its crew or any other third party.  The 
#Customer has full responsibility for all drilling, completion and production operation.  
#Halliburton makes no representations or warranties, either expressed or 
#implied, including, but not limited to, the implied warranties of merchantability or fitness 
#for a particular purpose, with respect to the services rendered.  In no event will 
#Halliburton be liable for failure to obtain any particular results or for 
#any damages, including, but not limited to, indirect, special or consequential damages, 
#resulting from the use of any information or interpretation provided by Halliburton.
#
~A           TIME           GTDEPTH  GTPQH  GTTQ  GTTN   GTET   GTTVD  
# ...
   13:32:57.167.09-Sep-2020 5408.01 3595.33 75.50 15.00 135.68 2589.60
   13:32:57.367.09-Sep-2020 5408.01 3595.44 75.50 15.00 135.88 2589.60
   13:32:57.568.09-Sep-2020 5408.01 3595.63 75.50 15.00 136.08 2589.60
   13:32:57.768.09-Sep-2020 5408.01 3595.63 75.50 15.00 136.28 2589.60
   13:32:57.968.09-Sep-2020 5408.01 3595.63 75.50 15.00 136.48 2589.60
   13:32:58.168.09-Sep-2020 5408.01 3595.60 75.50 15.00 136.68 2589.60
   13:32:58.368.09-Sep-2020 5408.01 3595.59 75.50 15.00 136.88 2589.60
   13:32:58.568.09-Sep-2020 5408.01 3595.58 75.50 15.00 137.08 2589.60
   13:32:58.768.09-Sep-2020 5408.01 3595.58 75.50 15.00 137.28 2589.60
   13:32:58.968.09-Sep-2020 5408.01 3595.45 75.50 15.00 137.48 2589.60
   13:32:59.169.09-Sep-2020 5408.01 3594.33 75.50 15.00 137.68 2589.60
   13:32:59.369.09-Sep-2020 5408.01 3595.65 75.50 15.00 137.88 2589.60
   13:32:59.569.09-Sep-2020 5408.01 3595.54 75.50 15.00 138.08 2589.60
   13:32:59.769.09-Sep-2020 5408.01 3595.54 75.50 15.00 138.28 2589.60
   13:32:59.969.09-Sep-2020 5408.01 3595.47 75.50 15.00 138.48 2589.60
   13:33:00.169.09-Sep-2020 5408.01 3595.33 75.50 15.00 138.68 2589.60
   13:33:00.369.09-Sep-2020 5408.01 3595.31 75.50 15.00 138.88 2589.60
   13:33:00.569.09-Sep-2020 5408.01 3595.32 75.50 15.00 139.09 2589.60
   13:33:00.770.09-Sep-2020 5408.01 3595.32 75.50 15.00 139.29 2589.60
   13:33:00.970.09-Sep-2020 5408.01 3595.08 75.50 15.00 139.49 2589.60
   13:33:01.170.09-Sep-2020 5408.01 3595.15 75.50 15.00 139.69 2589.60
   13:33:01.370.09-Sep-2020 5408.01 3595.13 75.50 15.00 139.89 2589.60
   13:33:01.570.09-Sep-2020 5408.01 3595.09 75.50 15.00 140.09 2589.60
   13:33:01.770.09-Sep-2020 5408.01 3595.00 75.50 15.00 140.29 2589.60
   13:33:01.970.09-Sep-2020 5408.01 3594.97 75.50 15.00 140.49 2589.60
   13:33:02.170.09-Sep-2020 5408.01 3594.94 75.50 15.00 140.69 2589.60
   13:33:02.371.09-Sep-2020 5408.01 3593.94 75.50 15.00 140.89 2589.60
   13:33:02.571.09-Sep-2020 5408.01 3595.07 75.50 15.00 141.09 2589.60
   13:33:02.771.09-Sep-2020 5408.01 3595.07 75.50 15.00 141.29 2589.60
   13:33:02.971.09-Sep-2020 5408.01 3595.10 75.50 15.00 141.49 2589.60
   13:33:03.171.09-Sep-2020 5408.01 3594.95 75.50 15.00 141.69 2589.60
   13:33:03.371.09-Sep-2020 5408.01 3595.15 75.50 15.00 141.89 2589.60
   13:33:03.571.09-Sep-2020 5408.01 3593.30 75.50 15.00 142.09 2589.60
   13:33:03.771.09-Sep-2020 5408.01 3593.30 75.50 15.00 142.29 2589.60
   13:33:03.972.09-Sep-2020 5408.01 3595.02 75.50 15.00 142.49 2589.60
   13:33:04.172.09-Sep-2020 5408.01 3594.97 75.50 15.00 142.69 2589.60
   13:33:04.372.09-Sep-2020 5408.01 3594.80 75.50 15.00 142.89 2589.60
   13:33:04.572.09-Sep-2020 5408.01 3594.01 75.50 15.00 143.09 2589.60
   13:33:04.772.09-Sep-2020 5408.01 3594.01 75.50 15.00 143.29 2589.60
   13:33:04.972.09-Sep-2020 5408.01 3595.00 75.50 15.00 143.49 2589.60
   13:33:05.172.09-Sep-2020 5408.01 3594.92 75.50 15.00 143.69 2589.60
   13:33:05.372.09-Sep-2020 5408.01 3593.89 75.50 15.00 143.89 2589.60
   13:33:05.573.09-Sep-2020 5408.01 3595.08 75.50 15.00 144.09 2589.60
   13:33:05.773.09-Sep-2020 5408.01 3594.98 75.50 15.00 144.29 2589.60
   13:33:05.973.09-Sep-2020 5408.01 3595.00 75.50 15.00 144.49 2589.60
   13:33:06.173.09-Sep-2020 5408.01 3593.70 75.50 15.00 144.69 2589.60
   13:33:06.373.09-Sep-2020 5408.01 3595.97 75.50 15.00 144.89 2589.60
   13:33:06.573.09-Sep-2020 5408.01 3595.39 75.50 15.00 145.09 2589.60
   13:33:06.773.09-Sep-2020 5408.01 3595.39 75.50 15.00 145.29 2589.60
   13:33:06.973.09-Sep-2020 5408.01 3595.45 75.50 15.00 145.49 2589.60
   13:33:07.173.09-Sep-2020 5408.01 3595.80 75.50 15.00 145.69 2589.60
   13:33:07.374.09-Sep-2020 5408.01 3595.59 75.50 15.00 145.89 2589.60
   13:33:07.574.09-Sep-2020 5408.01 3595.54 75.50 15.00 146.09 2589.60
   13:33:07.774.09-Sep-2020 5408.01 3595.54 75.50 15.00 146.29 2589.60
   13:33:07.974.09-Sep-2020 5408.01 3595.43 75.50 15.00 146.49 2589.60
   13:33:08.174.09-Sep-2020 5408.01 3595.51 75.50 15.00 146.69 2589.60
   13:33:08.374.09-Sep-2020 5408.01 3595.57 75.50 15.00 146.89 2589.60
   13:33:08.574.09-Sep-2020 5408.01 3595.53 75.50 15.00 147.09 2589.60
   13:33:08.774.09-Sep-2020 5408.01 3595.53 75.50 15.00 147.29 2589.60
   13:33:08.975.09-Sep-2020 5408.01 3595.53 75.50 15.00 147.49 2589.60
   13:33:09.175.09-Sep-2020 5408.01 3595.45 75.50 15.00 147.69 2589.60
   13:33:09.375.09-Sep-2020 5408.01 3595.44 75.50 15.00 147.89 2589.60
   13:33:09.575.09-Sep-2020 5408.01 3595.54 75.50 15.00 148.09 2589.60
   13:33:09.775.09-Sep-2020 5408.01 3481.50 75.50 15.00 148.29 2589.60
   13:33:09.975.09-Sep-2020 5408.01 2679.37 75.50 15.00 148.49 2589.60
   13:33:10.175.09-Sep-2020 5408.01 1879.98 75.50 15.00 148.69 2589.60
   13:33:10.375.09-Sep-2020 5408.01 1198.35 75.50 15.00 148.89 2589.60
   13:33:10.576.09-Sep-2020 5408.01  803.05 75.50 15.00 149.09 2589.60
   13:33:10.776.09-Sep-2020 5408.01  803.05 75.50 15.00 149.29 2589.60
   13:33:10.976.09-Sep-2020 5408.01  698.99 75.49 15.00 149.49 2589.60
   13:33:11.176.09-Sep-2020 5408.01  688.54 75.49 15.00 149.69 2589.60
   13:33:11.376.09-Sep-2020 5408.01  685.86 75.49 15.00 149.89 2589.60
   13:33:11.576.09-Sep-2020 5408.01  687.08 75.49 15.00 150.09 2589.60
   13:33:11.776.09-Sep-2020 5408.01  687.08 75.49 15.00 150.29 2589.60
   13:33:11.976.09-Sep-2020 5408.01  679.50 75.49 15.00 150.49 2589.60
   13:33:12.177.09-Sep-2020 5408.01  676.24 75.49 15.00 150.69 2589.60
   13:33:12.377.09-Sep-2020 5408.01  680.70 75.48 15.00 150.89 2589.60
   13:33:12.577.09-Sep-2020 5408.01  675.13 75.48 15.00 151.09 2589.60
   13:33:12.777.09-Sep-2020 5408.01  675.13 75.48 15.00 151.29 2589.60
   13:33:12.977.09-Sep-2020 5408.01  665.38 75.48 15.00 151.49 2589.60
   13:33:13.177.09-Sep-2020 5408.01  669.17 75.47 15.00 151.69 2589.60
   13:33:13.377.09-Sep-2020 5408.01  673.43 75.47 15.00 151.89 2589.60
   13:33:13.577.09-Sep-2020 5408.01  662.30 75.47 15.00 152.09 2589.60
   13:33:13.778.09-Sep-2020 5408.01  653.48 75.47 15.00 152.29 2589.60
   13:33:13.978.09-Sep-2020 5408.01  652.96 75.46 15.00 152.49 2589.60
   13:33:14.178.09-Sep-2020 5408.01  656.92 75.46 15.00 152.69 2589.60
   13:33:14.378.09-Sep-2020 5408.01  657.58 75.46 15.00 152.89 2589.60
   13:33:14.578.09-Sep-2020 5408.01  661.48 75.46 15.00 153.09 2589.60
   13:33:14.778.09-Sep-2020 5408.01  661.48 75.46 15.00 153.29 2589.60
   13:33:14.978.09-Sep-2020 5408.01  647.25 75.45 15.00 153.49 2589.60
   13:33:15.178.09-Sep-2020 5408.01  647.37 75.45 15.00 153.69 2589.60
   13:33:15.378.09-Sep-2020 5408.01  657.29 75.45 15.00 153.89 2589.60
   13:33:15.579.09-Sep-2020 5408.01  644.91 75.44 15.00 154.09 2589.60
   13:33:15.779.09-Sep-2020 5408.01  644.91 75.44 15.00 154.29 2589.60
   13:33:15.979.09-Sep-2020 5408.01  635.26 75.44 15.00 154.49 2589.60
   13:33:16.179.09-Sep-2020 5408.01  637.56 75.44 15.00 154.69 2589.60
   13:33:16.379.09-Sep-2020 5408.01  639.33 75.43 15.00 154.89 2589.60
   13:33:16.579.09-Sep-2020 5408.01  636.68 75.43 15.00 155.09 2589.60
   13:33:16.779.09-Sep-2020 5408.01  636.68 75.43 15.00 155.29 2589.60
   13:33:16.979.09-Sep-2020 5408.01  636.85 75.43 15.00 155.50 2589.60
   13:33:17.180.09-Sep-2020 5408.01  643.15 75.43 15.00 155.70 2589.60
   13:33:17.380.09-Sep-2020 5408.01  647.26 75.43 15.00 155.90 2589.60
   13:33:17.580.09-Sep-2020 5408.01  669.81 75.42 15.00 156.10 2589.60
   13:33:17.780.09-Sep-2020 5408.01  670.93 75.42 15.00 156.30 2589.60
   13:33:17.980.09-Sep-2020 5408.01  670.71 75.42 15.00 156.50 2589.60
   13:33:18.180.09-Sep-2020 5408.01  672.51 75.42 15.00 156.70 2589.60
   13:33:18.380.09-Sep-2020 5408.01  667.81 75.42 15.00 156.90 2589.60
   13:33:18.580.09-Sep-2020 5408.01  668.98 75.42 15.00 157.10 2589.60
   13:33:18.781.09-Sep-2020 5408.01  668.98 75.42 15.00 157.30 2589.60
   13:33:18.981.09-Sep-2020 5408.01  670.48 75.41 15.00 157.50 2589.60
   13:33:19.181.09-Sep-2020 5408.01  673.10 75.41 15.00 157.70 2589.60
   13:33:19.381.09-Sep-2020 5408.01  671.51 75.41 15.00 157.90 2589.60
   13:33:19.581.09-Sep-2020 5408.01  674.17 75.41 15.00 158.10 2589.60
