~Version Information
 VERS.                  2.0:   CWLS log ASCII Standard -VERSION 2.0
 WRAP.                   NO:   One line per depth step
~Well Information Block
#MNEM.UNIT     VALUE/NAME     DESCRIPTION
#---------     -----------    ---------------------------
 STRT.S             13:30:41 09-Sep-20: START TIME 13:30:41 09-Sep-20
 STOP.S             13:37:24 09-Sep-20: STOP TIME  13:37:24 09-Sep-20
 STEP.S                   0.00: STEP TIME
 NULL.                 -999.25: NULL VALUE
 MDS .        Operator Entered:  MAG DATA SOURCE
 PDAT.          Mean Sea Level:  PERMANENT DATUM
 DCON.         Sperry Drilling:  DIRECTNL CONTR
 RIG .              West Azeri:  RIG NAME
 WELL.           C40 (Slot 20):  WELL NAME
 SRVC.     Turan Drilling Engineering:  CONTRACTOR
 FLD .                     ACG:  FIELD NAME
 CTRY.              Azerbaijan:  COUNTRY NAME
 PROV.                    Baku:  PROVINCE
 STAT.                    Baku:  STATE NAME
 REGN.                   EESSA:  REGION
 BASE.              Azerbaijan:  LOGGING EQUIPMENT BASE LOCATION
 COMP.     BP Exploration (Caspian Sea) Ltd:  COMPANY
 WTYP.                Deviated:  WELL TYPE
 SON .        AZ-XX-0906344804:  JOB NUMBER
 FTOP.          Formation Tops:  FORM TOPS DESC
 ILTD.               Lithology:  INTERP LTH DESC
 SVYD.                  Survey:  SURVEY DESC
 DMOD.             Drill Model:  DRILL MOD DESC
 HPTY.       Minimum Curvature:  HOLE POS TYPE
 NREF.                    Grid:  NORTH REFERENCE
 SPUD.               01-Jan-20:  SPUD DATE
 DATE.      00.59.44 15-Sep-20:  END TIME
 STIM.      12.00.00 12-Jun-20:  START TIME
 DMF .             Drill Floor:  DRILL MEAS FROM
 DFST.                        :  DIST FSL TEXT
 DFWT.                        :  DIST FWL TEXT
 API .                        :  API NUMBER
 CNTY.                        :  COUNTY
 UWI .                        :  UNIQUE WELL IDENTIFIER
 LOC .                        :  LOCATION
 LMF .             Drill Floor:  LOG MEASURED FROM
 VSNS.m                   2.88:  VERT SEC N/S
 VSEW.m                  -3.84:  VERT SEC E/W
 AGAP.m                  43.42:  AIR GAP
 APD .m                  43.42:  DEPTH ABOVE PD
 WDMS.m                 118.27:  WD ELEV
 EGL .m                   0.00:  GROUND ELEVATION
 EPD .m                   0.00:  ELEVATION
 AZTC.deg                 6.23:  AZM TOTAL CORR
 GRDC.deg                 0.20:  GRID CORRECTION
 MDEC.deg                 6.43:  MAGNETIC DECL
 MDIP.deg                59.49:  MAGNETIC DIP
 MFLD.nT              50277.00:  MAGNETIC FIELD
 GVFD.g                   1.00:  GRAVITY FIELD
 VSDR.deg               173.20:  VERT SEC DIRECT
 TDD .m                5790.01:  TOTAL DEPTH (DRILLER)
 SDEP.m                5231.01:  START DEPTH
 DFSL.m                   0.00:  DISTANCE FSL
 DFWL.m                   0.00:  DISTANCE FWL
 UTMY.m             4435808.83:  UTM Y
 UTMX.m              526266.40:  UTM X
 WHEW.m                  -3.84:  WELL HEAD E/W
 WHNS.m                   2.88:  WELL HEAD N/S
 LONG.deg                51.31:  LONGITUDE
 LATI.deg                40.06:  LATITUDE
 TVDS.m                  43.42:  TVDSS CORRECTN
 DEP .m                 430.08:  DEPTH
 EKB .m                  43.42:  KB ELEVATION
 EDF .m                  43.42:  DF ELEVATION
 TDL .m                 559.00:  TOTAL DEPTH (LOGGER)
 MAGU.                 1849381:  MAGUTM CHECKSUM
 VSC .                       0:  VS TO CLOSURE
~Parameter Information Block
#MNEM.UNIT       Value        Description
#---------     -----------    ---------------------------
 AV  .mps                 4.87:  Ann Velocity 
 AVMX.mps                 7.08:  Max Ann Veloc 
 AZIF.deg               108.87:  Azm, Final 
 BHAT.                  Rotary:  BHA Type 
 BROT.°/30m               0.35:  Build Rotating 
 BS  .in                  8.50:  Bit Size 
 BSZ .in                  8.50:  Bit Size 
 BTPL.psig              360.00:  Bit Press Loss 
 CABU.                     Yes:  Customer Abuse 
 COMM.                     $ñd:  Run Comments 1 
 TCS .hr                106.24:  Time Ciculation Ended 
 CV  .mps                 1.77:  Crit Velocity 
 CVMX.mps                 2.03:  Max Crit Veloc 
 DD1 .         Aykhan Agagulov:  Direct Drillr 1 
 DD2 .            Nonso Okofor:  Direct Drillr 2 
 DDSV.               Geo-Pilot:  DD Service 
 DEFF.%                  98.00:  % Det Eff 
 DLRX.°/30m               0.50:  Dogleg Rot Max 
 DLSO.°/30m               0.40:  Dogleg Oriented 
 DLSX.°/30m               0.94:  Dogleg Str Max 
 DRET.      20.30.00 08-Sep-20:  Drill End Time 
 DRST.      22.15.00 06-Sep-20:  Drill Start Tim 
 DTIM.hr                 31.31:  Time Drilling 
 EDEP.m                5790.01:  End Depth 
 ENG1.           Amrah Tahirov:  Engineer 1 
 ENG2.         Dair Mahammadov:  Engineer 2 
 ENG3.           Emil Huseynov:  Engineer 3 
 ETIM.      04.01.04 12-Sep-20:  End Time 
 FLOI.gpm               450.00:  Flow In 
 FLON.gpm               450.00:  Flow In Min 
 FLOS.cptm                2.00:  Fluid Loss 
 FLOX.gpm               450.00:  Flow In Max 
 FTRO.       Formation Presure:  FTWD Run Obj 
 HFLO.                      No:  High Flow 
 HPRE.                      No:  High Pressure 
 HTEM.                      No:  High Temp 
 HYDO.m                   1.80:  Hydro Offset 
 IFIN.deg                72.03:  Inc, Final 
 IMAX.deg                73.72:  Inc Max 
 IMIN.deg                70.94:  Inc Min 
 IMND.m                5508.52:  Inc Min Depth 
 IMXD.m                5253.60:  Inc Max Depth 
 JARR.                      No:  Jarring 
 LETM.      20.30.00 08-Sep-20:  Log End Time 
 LOST.hr                     0:  Lost Rig Time 
 LSTM.      22.15.00 06-Sep-20:  Log Start Time 
 MDCL.ppm             36000.00:  Mud Chlorides 
 MDES.     Inversion Oil/Synthetic:  Mud Desc 
 DFD .sg                  1.44:  Mud Density 
 MDMN.sg                  1.44:  Dens Mud Min 
 MDMX.sg                  1.57:  Dens Mud Max 
 MOIL.                      70:  Run Mud Oil % 
 MOWR.                   70:30:  Run Mud OWR 
 MSND.                       0:  Run Mud Sand % 
 MSOL.                      21:  Run Mud Solids% 
 DFV .spqt               68.00:  Mud Viscosity 
 MWOD.in                  6.75:  MWD Tool OD 
 MWSI.                     Yes:  Serv Intrp, MWD 
 OTIM.hr                174.84:  Time Operating 
 PCON.           Look Like New:  Pad Condition 
 PMAX.psia            10616.93:  Press Op, Max 
 PV  .cP                 50.00:  Mud PV 
 RUN .                     700:  Run Number 
 ROPA.m/hr               14.24:  ROP Avg 
 ROPN.m/hr               10.00:  ROP Min 
 ROPX.m/hr               32.00:  ROP Max 
 RPMA.rpm               120.90:  RPM Surface Avg 
 RPMN.rpm               120.00:  RPM Surface Min 
 RPMX.rpm               140.00:  RPM Surface Max 
 RRUN.                    0700:  Rig Run Number 
 RTIM.hr                  3.20:  Time Reaming 
 SAZI.deg               109.99:  Azm, Start 
 SDEP.m                5231.01:  Start Depth 
 SIDD.                      No:  Serv Intrp, DD 
 SINC.deg                73.72:  Inc, Start 
 SPPA.psig             3051.00:  SPP Avg 
 SPPN.psig             2950.00:  SPP Min 
 SPPX.psig             3250.00:  SPP Max 
 STIM.      08.00.00 05-Sep-20:  Start Time 
 SVCS.                 DD, MWD:  Services 
 SVER.                    9.20:  Sperry Version 
 TDAT.m                 559.00:  Tot Depth Attmp 
 TDDF.                      No:  Trip for DD 
 TDLG.m                 559.00:  Tot Depth Loggd 
 TFF .                      No:  Trip for Fail 
 TQAA.f-kp               26.49:  Torque Abs Avg 
 TQAN.f-kp               25.00:  Torque Abs Min 
 TQAX.f-kp               27.00:  Torque Abs Max 
 TRRT.°/30m               1.50:  Turn Rotating 
 MRT .                    HCIM:  Maximum Recorded Temperature 
 TTMX.degC               90.20:  Max Tool Temp 
 VS01.                90542671:  Virtual Str1 SN 
 VS02.                90545185:  Virtual Str2 SN 
 VS03.                90602015:  Virtual Str3 SN 
 VS04.                90515230:  Virtual Str4 SN 
 WBMN.klb                 5.00:  WOB Min 
 WOBA.klb                14.79:  WOB Avg 
 WOBX.klb                20.00:  WOB Max 
 YP  .lhf2               29.00:  Yield Point 
~Curve Information Block
#MNEM.UNIT                 API CODE     Curve Description
#---------               -----------    ---------------------------
 TIME.HHMMSS            00 000 000 000:  GT Time & Date
 GTDEPTH.m              00 000 000 000:  GT Depth
 GTPQH.psia             00 000 000 000:  GT HR Quartz Pressure
 GTTQ.degC              00 000 000 000:  GT Quartz Temperature
 GTTN.NONE              00 000 000 000:  GT Test Number
 GTET.sec               00 000 000 000:  GT Elapsed Test Time
 GTTVD.m                00 000 000 000:  GT True Vertical Depth
#Other Information
#
#WARRANTY: Halliburton will use its best efforts to furnish customers with 
#accurate information and interpretations that are part of, and incident to, the services 
#provided.  However, Halliburton cannot and does not warrant the accuracy 
#or correctness of such information and interpretations.  Under no circumstances should any 
#such information or interpretation be relied upon as the sole basis for any drilling, 
#completion, production, or financial decision or any procedure involving any risk to the 
#safety of any drilling venture, drilling rig or its crew or any other third party.  The 
#Customer has full responsibility for all drilling, completion and production operation.  
#Halliburton makes no representations or warranties, either expressed or 
#implied, including, but not limited to, the implied warranties of merchantability or fitness 
#for a particular purpose, with respect to the services rendered.  In no event will 
#Halliburton be liable for failure to obtain any particular results or for 
#any damages, including, but not limited to, indirect, special or consequential damages, 
#resulting from the use of any information or interpretation provided by Halliburton.
#
~A           TIME           GTDEPTH  GTPQH  GTTQ  GTTN   GTET   GTTVD  
# ...
   13:36:43.306.09-Sep-2020 5408.01 3590.37 75.51 15.00 361.82 2589.60
   13:36:43.506.09-Sep-2020 5408.01 3590.79 75.51 15.00 362.02 2589.60
   13:36:43.706.09-Sep-2020 5408.01 3591.06 75.51 15.00 362.22 2589.60
   13:36:43.906.09-Sep-2020 5408.01 3591.06 75.51 15.00 362.42 2589.60
   13:36:44.106.09-Sep-2020 5408.01 3559.10 75.51 15.00 362.62 2589.60
   13:36:44.306.09-Sep-2020 5408.01 3913.40 75.51 15.00 362.82 2589.60
   13:36:44.506.09-Sep-2020 5408.01 4312.01 75.51 15.00 363.02 2589.60
   13:36:44.706.09-Sep-2020 5408.01 6003.62 75.51 15.00 363.22 2589.60
   13:36:44.907.09-Sep-2020 5408.01 6003.62 75.51 15.00 363.42 2589.60
   13:36:45.107.09-Sep-2020 5408.01 6401.35 75.51 15.00 363.62 2589.60
   13:36:45.307.09-Sep-2020 5408.01 6396.76 75.51 15.00 363.82 2589.60
   13:36:45.507.09-Sep-2020 5408.01 6400.42 75.51 15.00 364.02 2589.60
   13:36:45.707.09-Sep-2020 5408.01 6404.07 75.51 15.00 364.22 2589.60
   13:36:45.907.09-Sep-2020 5408.01 6404.07 75.51 15.00 364.42 2589.60
   13:36:46.107.09-Sep-2020 5408.01 6402.46 75.51 15.00 364.62 2589.60
   13:36:46.307.09-Sep-2020 5408.01 6399.97 75.52 15.00 364.82 2589.60
   13:36:46.508.09-Sep-2020 5408.01 6404.32 75.52 15.00 365.02 2589.60
   13:36:46.708.09-Sep-2020 5408.01 6402.05 75.52 15.00 365.22 2589.60
   13:36:46.908.09-Sep-2020 5408.01 6402.05 75.52 15.00 365.42 2589.60
   13:36:47.108.09-Sep-2020 5408.01 6403.80 75.52 15.00 365.62 2589.60
   13:36:47.308.09-Sep-2020 5408.01 6403.39 75.53 15.00 365.82 2589.60
   13:36:47.508.09-Sep-2020 5408.01 6403.02 75.53 15.00 366.02 2589.60
   13:36:47.708.09-Sep-2020 5408.01 6403.76 75.53 15.00 366.22 2589.60
   13:36:47.908.09-Sep-2020 5408.01 6403.76 75.53 15.00 366.42 2589.60
   13:36:48.109.09-Sep-2020 5408.01 6403.38 75.54 15.00 366.62 2589.60
   13:36:48.309.09-Sep-2020 5408.01 6402.79 75.54 15.00 366.82 2589.60
   13:36:48.509.09-Sep-2020 5408.01 6403.09 75.54 15.00 367.02 2589.60
   13:36:48.709.09-Sep-2020 5408.01 6403.25 75.54 15.00 367.22 2589.60
   13:36:48.909.09-Sep-2020 5408.01 6403.25 75.54 15.00 367.42 2589.60
   13:36:49.109.09-Sep-2020 5408.01 6403.35 75.55 15.00 367.62 2589.60
   13:36:49.309.09-Sep-2020 5408.01 6410.87 75.55 15.00 367.82 2589.60
   13:36:49.509.09-Sep-2020 5408.01 6403.09 75.55 15.00 368.02 2589.60
   13:36:49.709.09-Sep-2020 5408.01 6402.85 75.55 15.00 368.23 2589.60
   13:36:49.910.09-Sep-2020 5408.01 6402.85 75.55 15.00 368.43 2589.60
   13:36:50.110.09-Sep-2020 5408.01 6403.64 75.56 15.00 368.63 2589.60
   13:36:50.310.09-Sep-2020 5408.01 6406.73 75.56 15.00 368.83 2589.60
   13:36:50.510.09-Sep-2020 5408.01 6403.09 75.56 15.00 369.03 2589.60
   13:36:50.710.09-Sep-2020 5408.01 6404.72 75.57 15.00 369.23 2589.60
   13:36:50.910.09-Sep-2020 5408.01 6404.72 75.57 15.00 369.43 2589.60
   13:36:51.110.09-Sep-2020 5408.01 6404.65 75.57 15.00 369.63 2589.60
   13:36:51.310.09-Sep-2020 5408.01 6403.58 75.57 15.00 369.83 2589.60
   13:36:51.511.09-Sep-2020 5408.01 6403.02 75.57 15.00 370.03 2589.60
   13:36:51.711.09-Sep-2020 5408.01 6402.97 75.57 15.00 370.23 2589.60
   13:36:51.911.09-Sep-2020 5408.01 6402.97 75.57 15.00 370.43 2589.60
   13:36:52.111.09-Sep-2020 5408.01 6403.16 75.58 15.00 370.63 2589.60
   13:36:52.311.09-Sep-2020 5408.01 6403.41 75.58 15.00 370.83 2589.60
   13:36:52.511.09-Sep-2020 5408.01 6403.53 75.58 15.00 371.03 2589.60
   13:36:52.711.09-Sep-2020 5408.01 6410.87 75.58 15.00 371.23 2589.60
   13:36:52.911.09-Sep-2020 5408.01 6410.87 75.58 15.00 371.43 2589.60
   13:36:53.112.09-Sep-2020 5408.01 6405.92 75.58 15.00 371.63 2589.60
   13:36:53.312.09-Sep-2020 5408.01 6402.61 75.58 15.00 371.83 2589.60
   13:36:53.512.09-Sep-2020 5408.01 6405.02 75.58 15.00 372.03 2589.60
   13:36:53.712.09-Sep-2020 5408.01 6404.76 75.58 15.00 372.23 2589.60
   13:36:53.912.09-Sep-2020 5408.01 6404.76 75.58 15.00 372.43 2589.60
   13:36:54.112.09-Sep-2020 5408.01 6401.67 75.59 15.00 372.63 2589.60
   13:36:54.312.09-Sep-2020 5408.01 6405.54 75.59 15.00 372.83 2589.60
   13:36:54.512.09-Sep-2020 5408.01 6401.52 75.59 15.00 373.03 2589.60
   13:36:54.713.09-Sep-2020 5408.01 6413.15 75.59 15.00 373.23 2589.60
   13:36:54.913.09-Sep-2020 5408.01 6413.15 75.59 15.00 373.43 2589.60
   13:36:55.113.09-Sep-2020 5408.01 6406.32 75.59 15.00 373.63 2589.60
   13:36:55.313.09-Sep-2020 5408.01 6401.79 75.59 15.00 373.83 2589.60
   13:36:55.513.09-Sep-2020 5408.01 6413.16 75.59 15.00 374.03 2589.60
   13:36:55.713.09-Sep-2020 5408.01 6402.77 75.59 15.00 374.23 2589.60
   13:36:55.913.09-Sep-2020 5408.01 6402.77 75.59 15.00 374.43 2589.60
   13:36:56.113.09-Sep-2020 5408.01 6404.98 75.59 15.00 374.63 2589.60
   13:36:56.314.09-Sep-2020 5408.01 6403.78 75.59 15.00 374.83 2589.60
   13:36:56.514.09-Sep-2020 5408.01 6407.47 75.59 15.00 375.03 2589.60
   13:36:56.714.09-Sep-2020 5408.01 6403.10 75.59 15.00 375.23 2589.60
   13:36:56.914.09-Sep-2020 5408.01 6403.10 75.59 15.00 375.43 2589.60
   13:36:57.114.09-Sep-2020 5408.01 6410.06 75.59 15.00 375.63 2589.60
   13:36:57.314.09-Sep-2020 5408.01 6403.79 75.59 15.00 375.83 2589.60
   13:36:57.514.09-Sep-2020 5408.01 6407.18 75.59 15.00 376.03 2589.60
   13:36:57.714.09-Sep-2020 5408.01 6404.04 75.59 15.00 376.23 2589.60
   13:36:57.914.09-Sep-2020 5408.01 6404.04 75.59 15.00 376.43 2589.60
   13:36:58.115.09-Sep-2020 5408.01 6405.12 75.59 15.00 376.63 2589.60
   13:36:58.315.09-Sep-2020 5408.01 6406.24 75.59 15.00 376.83 2589.60
   13:36:58.515.09-Sep-2020 5408.01 6404.99 75.59 15.00 377.03 2589.60
   13:36:58.715.09-Sep-2020 5408.01 6405.24 75.59 15.00 377.23 2589.60
   13:36:58.915.09-Sep-2020 5408.01 6405.24 75.59 15.00 377.43 2589.60
   13:36:59.115.09-Sep-2020 5408.01 6404.77 75.59 15.00 377.63 2589.60
   13:36:59.315.09-Sep-2020 5408.01 6404.93 75.59 15.00 377.83 2589.60
   13:36:59.515.09-Sep-2020 5408.01 6404.25 75.59 15.00 378.03 2589.60
   13:36:59.716.09-Sep-2020 5408.01 6403.54 75.59 15.00 378.23 2589.60
   13:36:59.916.09-Sep-2020 5408.01 6403.54 75.59 15.00 378.43 2589.60
   13:37:00.116.09-Sep-2020 5408.01 6403.47 75.59 15.00 378.63 2589.60
   13:37:00.316.09-Sep-2020 5408.01 6403.83 75.59 15.00 378.83 2589.60
   13:37:00.516.09-Sep-2020 5408.01 6404.02 75.59 15.00 379.03 2589.60
   13:37:00.716.09-Sep-2020 5408.01 6414.48 75.59 15.00 379.23 2589.60
   13:37:00.916.09-Sep-2020 5408.01 6414.48 75.59 15.00 379.43 2589.60
   13:37:01.116.09-Sep-2020 5408.01 6404.85 75.59 15.00 379.63 2589.60
   13:37:01.317.09-Sep-2020 5408.01 6404.77 75.59 15.00 379.83 2589.60
   13:37:01.517.09-Sep-2020 5408.01 6406.16 75.59 15.00 380.03 2589.60
   13:37:01.717.09-Sep-2020 5408.01 6405.83 75.59 15.00 380.23 2589.60
   13:37:01.917.09-Sep-2020 5408.01 6405.83 75.59 15.00 380.43 2589.60
   13:37:02.117.09-Sep-2020 5408.01 6404.80 75.59 15.00 380.63 2589.60
   13:37:02.317.09-Sep-2020 5408.01 6404.17 75.59 15.00 380.83 2589.60
   13:37:02.517.09-Sep-2020 5408.01 6404.56 75.59 15.00 381.03 2589.60
   13:37:02.717.09-Sep-2020 5408.01 6403.37 75.59 15.00 381.23 2589.60
   13:37:02.918.09-Sep-2020 5408.01 6403.37 75.59 15.00 381.43 2589.60
   13:37:03.118.09-Sep-2020 5408.01 6402.40 75.59 15.00 381.63 2589.60
   13:37:03.318.09-Sep-2020 5408.01 6402.18 75.59 15.00 381.83 2589.60
   13:37:03.518.09-Sep-2020 5408.01 6402.51 75.59 15.00 382.03 2589.60
   13:37:03.718.09-Sep-2020 5408.01 6402.59 75.59 15.00 382.23 2589.60
   13:37:03.918.09-Sep-2020 5408.01 6402.59 75.59 15.00 382.43 2589.60
   13:37:04.118.09-Sep-2020 5408.01 6408.48 75.59 15.00 382.63 2589.60
   13:37:04.318.09-Sep-2020 5408.01 6401.47 75.59 15.00 382.83 2589.60
   13:37:04.519.09-Sep-2020 5408.01 6401.15 75.59 15.00 383.03 2589.60
   13:37:04.719.09-Sep-2020 5408.01 6403.78 75.59 15.00 383.23 2589.60
   13:37:04.919.09-Sep-2020 5408.01 6403.78 75.59 15.00 383.43 2589.60
   13:37:05.119.09-Sep-2020 5408.01 6404.59 75.59 15.00 383.63 2589.60
   13:37:05.319.09-Sep-2020 5408.01 6412.19 75.59 15.00 383.83 2589.60
   13:37:05.519.09-Sep-2020 5408.01 6398.15 75.59 15.00 384.03 2589.60
   13:37:05.719.09-Sep-2020 5408.01 6402.76 75.59 15.00 384.23 2589.60
