~Version Information
 VERS.                  2.0:   CWLS log ASCII Standard -VERSION 2.0
 WRAP.                   NO:   One line per depth step
~Well Information Block
#MNEM.UNIT     VALUE/NAME     DESCRIPTION
#---------     -----------    ---------------------------
 STRT.S             18:49:58 09-Sep-20: START TIME 18:49:58 09-Sep-20
 STOP.S             18:58:03 09-Sep-20: STOP TIME  18:58:03 09-Sep-20
 STEP.S                   0.00: STEP TIME
 NULL.                 -999.25: NULL VALUE
 MDS .        Operator Entered:  MAG DATA SOURCE
 PDAT.          Mean Sea Level:  PERMANENT DATUM
 DCON.         Sperry Drilling:  DIRECTNL CONTR
 RIG .              West Azeri:  RIG NAME
 WELL.           C40 (Slot 20):  WELL NAME
 SRVC.     Turan Drilling Engineering:  CONTRACTOR
 FLD .                     ACG:  FIELD NAME
 CTRY.              Azerbaijan:  COUNTRY NAME
 PROV.                    Baku:  PROVINCE
 STAT.                    Baku:  STATE NAME
 REGN.                   EESSA:  REGION
 BASE.              Azerbaijan:  LOGGING EQUIPMENT BASE LOCATION
 COMP.     BP Exploration (Caspian Sea) Ltd:  COMPANY
 WTYP.                Deviated:  WELL TYPE
 SON .        AZ-XX-0906344804:  JOB NUMBER
 FTOP.          Formation Tops:  FORM TOPS DESC
 ILTD.               Lithology:  INTERP LTH DESC
 SVYD.                  Survey:  SURVEY DESC
 DMOD.             Drill Model:  DRILL MOD DESC
 HPTY.       Minimum Curvature:  HOLE POS TYPE
 NREF.                    Grid:  NORTH REFERENCE
 SPUD.               01-Jan-20:  SPUD DATE
 DATE.      00.59.44 15-Sep-20:  END TIME
 STIM.      12.00.00 12-Jun-20:  START TIME
 DMF .             Drill Floor:  DRILL MEAS FROM
 DFST.                        :  DIST FSL TEXT
 DFWT.                        :  DIST FWL TEXT
 API .                        :  API NUMBER
 CNTY.                        :  COUNTY
 UWI .                        :  UNIQUE WELL IDENTIFIER
 LOC .                        :  LOCATION
 LMF .             Drill Floor:  LOG MEASURED FROM
 VSNS.m                   2.88:  VERT SEC N/S
 VSEW.m                  -3.84:  VERT SEC E/W
 AGAP.m                  43.42:  AIR GAP
 APD .m                  43.42:  DEPTH ABOVE PD
 WDMS.m                 118.27:  WD ELEV
 EGL .m                   0.00:  GROUND ELEVATION
 EPD .m                   0.00:  ELEVATION
 AZTC.deg                 6.23:  AZM TOTAL CORR
 GRDC.deg                 0.20:  GRID CORRECTION
 MDEC.deg                 6.43:  MAGNETIC DECL
 MDIP.deg                59.49:  MAGNETIC DIP
 MFLD.nT              50277.00:  MAGNETIC FIELD
 GVFD.g                   1.00:  GRAVITY FIELD
 VSDR.deg               173.20:  VERT SEC DIRECT
 TDD .m                5790.01:  TOTAL DEPTH (DRILLER)
 SDEP.m                5231.01:  START DEPTH
 DFSL.m                   0.00:  DISTANCE FSL
 DFWL.m                   0.00:  DISTANCE FWL
 UTMY.m             4435808.83:  UTM Y
 UTMX.m              526266.40:  UTM X
 WHEW.m                  -3.84:  WELL HEAD E/W
 WHNS.m                   2.88:  WELL HEAD N/S
 LONG.deg                51.31:  LONGITUDE
 LATI.deg                40.06:  LATITUDE
 TVDS.m                  43.42:  TVDSS CORRECTN
 DEP .m                 430.08:  DEPTH
 EKB .m                  43.42:  KB ELEVATION
 EDF .m                  43.42:  DF ELEVATION
 TDL .m                 559.00:  TOTAL DEPTH (LOGGER)
 MAGU.                 1849381:  MAGUTM CHECKSUM
 VSC .                       0:  VS TO CLOSURE
~Parameter Information Block
#MNEM.UNIT       Value        Description
#---------     -----------    ---------------------------
 AV  .mps                 4.87:  Ann Velocity 
 AVMX.mps                 7.08:  Max Ann Veloc 
 AZIF.deg               108.87:  Azm, Final 
 BHAT.                  Rotary:  BHA Type 
 BROT.°/30m               0.35:  Build Rotating 
 BS  .in                  8.50:  Bit Size 
 BSZ .in                  8.50:  Bit Size 
 BTPL.psig              360.00:  Bit Press Loss 
 CABU.                     Yes:  Customer Abuse 
 COMM.                     „T:  Run Comments 1 
 TCS .hr                106.24:  Time Ciculation Ended 
 CV  .mps                 1.77:  Crit Velocity 
 CVMX.mps                 2.03:  Max Crit Veloc 
 DD1 .         Aykhan Agagulov:  Direct Drillr 1 
 DD2 .            Nonso Okofor:  Direct Drillr 2 
 DDSV.               Geo-Pilot:  DD Service 
 DEFF.%                  98.00:  % Det Eff 
 DLRX.°/30m               0.50:  Dogleg Rot Max 
 DLSO.°/30m               0.40:  Dogleg Oriented 
 DLSX.°/30m               0.94:  Dogleg Str Max 
 DRET.      20.30.00 08-Sep-20:  Drill End Time 
 DRST.      22.15.00 06-Sep-20:  Drill Start Tim 
 DTIM.hr                 31.31:  Time Drilling 
 EDEP.m                5790.01:  End Depth 
 ENG1.           Amrah Tahirov:  Engineer 1 
 ENG2.         Dair Mahammadov:  Engineer 2 
 ENG3.           Emil Huseynov:  Engineer 3 
 ETIM.      04.01.04 12-Sep-20:  End Time 
 FLOI.gpm               450.00:  Flow In 
 FLON.gpm               450.00:  Flow In Min 
 FLOS.cptm                2.00:  Fluid Loss 
 FLOX.gpm               450.00:  Flow In Max 
 FTRO.       Formation Presure:  FTWD Run Obj 
 HFLO.                      No:  High Flow 
 HPRE.                      No:  High Pressure 
 HTEM.                      No:  High Temp 
 HYDO.m                   1.80:  Hydro Offset 
 IFIN.deg                72.03:  Inc, Final 
 IMAX.deg                73.72:  Inc Max 
 IMIN.deg                70.94:  Inc Min 
 IMND.m                5508.52:  Inc Min Depth 
 IMXD.m                5253.60:  Inc Max Depth 
 JARR.                      No:  Jarring 
 LETM.      20.30.00 08-Sep-20:  Log End Time 
 LOST.hr                     0:  Lost Rig Time 
 LSTM.      22.15.00 06-Sep-20:  Log Start Time 
 MDCL.ppm             36000.00:  Mud Chlorides 
 MDES.     Inversion Oil/Synthetic:  Mud Desc 
 DFD .sg                  1.44:  Mud Density 
 MDMN.sg                  1.44:  Dens Mud Min 
 MDMX.sg                  1.57:  Dens Mud Max 
 MOIL.                      70:  Run Mud Oil % 
 MOWR.                   70:30:  Run Mud OWR 
 MSND.                       0:  Run Mud Sand % 
 MSOL.                      21:  Run Mud Solids% 
 DFV .spqt               68.00:  Mud Viscosity 
 MWOD.in                  6.75:  MWD Tool OD 
 MWSI.                     Yes:  Serv Intrp, MWD 
 OTIM.hr                174.84:  Time Operating 
 PCON.           Look Like New:  Pad Condition 
 PMAX.psia            10616.93:  Press Op, Max 
 PV  .cP                 50.00:  Mud PV 
 RUN .                     700:  Run Number 
 ROPA.m/hr               14.24:  ROP Avg 
 ROPN.m/hr               10.00:  ROP Min 
 ROPX.m/hr               32.00:  ROP Max 
 RPMA.rpm               120.90:  RPM Surface Avg 
 RPMN.rpm               120.00:  RPM Surface Min 
 RPMX.rpm               140.00:  RPM Surface Max 
 RRUN.                    0700:  Rig Run Number 
 RTIM.hr                  3.20:  Time Reaming 
 SAZI.deg               109.99:  Azm, Start 
 SDEP.m                5231.01:  Start Depth 
 SIDD.                      No:  Serv Intrp, DD 
 SINC.deg                73.72:  Inc, Start 
 SPPA.psig             3051.00:  SPP Avg 
 SPPN.psig             2950.00:  SPP Min 
 SPPX.psig             3250.00:  SPP Max 
 STIM.      08.00.00 05-Sep-20:  Start Time 
 SVCS.                 DD, MWD:  Services 
 SVER.                    9.20:  Sperry Version 
 TDAT.m                 559.00:  Tot Depth Attmp 
 TDDF.                      No:  Trip for DD 
 TDLG.m                 559.00:  Tot Depth Loggd 
 TFF .                      No:  Trip for Fail 
 TQAA.f-kp               26.49:  Torque Abs Avg 
 TQAN.f-kp               25.00:  Torque Abs Min 
 TQAX.f-kp               27.00:  Torque Abs Max 
 TRRT.°/30m               1.50:  Turn Rotating 
 MRT .                    HCIM:  Maximum Recorded Temperature 
 TTMX.degC               90.20:  Max Tool Temp 
 VS01.                90542671:  Virtual Str1 SN 
 VS02.                90545185:  Virtual Str2 SN 
 VS03.                90602015:  Virtual Str3 SN 
 VS04.                90515230:  Virtual Str4 SN 
 WBMN.klb                 5.00:  WOB Min 
 WOBA.klb                14.79:  WOB Avg 
 WOBX.klb                20.00:  WOB Max 
 YP  .lhf2               29.00:  Yield Point 
~Curve Information Block
#MNEM.UNIT                 API CODE     Curve Description
#---------               -----------    ---------------------------
 TIME.HHMMSS            00 000 000 000:  GT Time & Date
 GTDEPTH.m              00 000 000 000:  GT Depth
 GTPQH.psia             00 000 000 000:  GT HR Quartz Pressure
 GTTQ.degC              00 000 000 000:  GT Quartz Temperature
 GTTN.NONE              00 000 000 000:  GT Test Number
 GTET.sec               00 000 000 000:  GT Elapsed Test Time
 GTTVD.m                00 000 000 000:  GT True Vertical Depth
#Other Information
#
#WARRANTY: Halliburton will use its best efforts to furnish customers with 
#accurate information and interpretations that are part of, and incident to, the services 
#provided.  However, Halliburton cannot and does not warrant the accuracy 
#or correctness of such information and interpretations.  Under no circumstances should any 
#such information or interpretation be relied upon as the sole basis for any drilling, 
#completion, production, or financial decision or any procedure involving any risk to the 
#safety of any drilling venture, drilling rig or its crew or any other third party.  The 
#Customer has full responsibility for all drilling, completion and production operation.  
#Halliburton makes no representations or warranties, either expressed or 
#implied, including, but not limited to, the implied warranties of merchantability or fitness 
#for a particular purpose, with respect to the services rendered.  In no event will 
#Halliburton be liable for failure to obtain any particular results or for 
#any damages, including, but not limited to, indirect, special or consequential damages, 
#resulting from the use of any information or interpretation provided by Halliburton.
#
~A           TIME           GTDEPTH  GTPQH  GTTQ  GTTN   GTET   GTTVD  
# ...
   18:55:37.234.09-Sep-2020 5280.51  496.04 74.30 22.00 338.73 2550.44
   18:55:37.434.09-Sep-2020 5280.51  496.04 74.30 22.00 338.93 2550.44
   18:55:37.634.09-Sep-2020 5280.51  496.21 74.30 22.00 339.13 2550.44
   18:55:37.834.09-Sep-2020 5280.51  496.20 74.30 22.00 339.33 2550.44
   18:55:38.033.09-Sep-2020 5280.51  496.37 74.30 22.00 339.53 2550.44
   18:55:38.233.09-Sep-2020 5280.51  496.53 74.30 22.00 339.73 2550.44
   18:55:38.433.09-Sep-2020 5280.51  496.53 74.30 22.00 339.93 2550.44
   18:55:38.633.09-Sep-2020 5280.51  496.10 74.30 22.00 340.13 2550.44
   18:55:38.833.09-Sep-2020 5280.51  497.05 74.30 22.00 340.33 2550.44
   18:55:39.033.09-Sep-2020 5280.51  497.08 74.30 22.00 340.53 2550.44
   18:55:39.233.09-Sep-2020 5280.51  497.17 74.30 22.00 340.73 2550.44
   18:55:39.432.09-Sep-2020 5280.51  497.17 74.30 22.00 340.93 2550.44
   18:55:39.632.09-Sep-2020 5280.51  497.68 74.30 22.00 341.13 2550.44
   18:55:39.832.09-Sep-2020 5280.51  497.79 74.30 22.00 341.33 2550.44
   18:55:40.032.09-Sep-2020 5280.51  497.87 74.30 22.00 341.53 2550.44
   18:55:40.232.09-Sep-2020 5280.51  498.04 74.30 22.00 341.73 2550.44
   18:55:40.432.09-Sep-2020 5280.51  498.18 74.30 22.00 341.93 2550.44
   18:55:40.631.09-Sep-2020 5280.51  498.38 74.30 22.00 342.13 2550.44
   18:55:40.831.09-Sep-2020 5280.51  498.57 74.30 22.00 342.33 2550.44
   18:55:41.031.09-Sep-2020 5280.51  498.74 74.30 22.00 342.53 2550.44
   18:55:41.231.09-Sep-2020 5280.51  498.87 74.30 22.00 342.73 2550.44
   18:55:41.431.09-Sep-2020 5280.51  498.87 74.30 22.00 342.93 2550.44
   18:55:41.631.09-Sep-2020 5280.51  499.19 74.30 22.00 343.13 2550.44
   18:55:41.830.09-Sep-2020 5280.51  499.37 74.30 22.00 343.33 2550.44
   18:55:42.030.09-Sep-2020 5280.51  499.52 74.30 22.00 343.53 2550.44
   18:55:42.230.09-Sep-2020 5280.51  498.82 74.30 22.00 343.73 2550.44
   18:55:42.430.09-Sep-2020 5280.51  498.82 74.30 22.00 343.93 2550.44
   18:55:42.630.09-Sep-2020 5280.51  499.75 74.30 22.00 344.13 2550.44
   18:55:42.830.09-Sep-2020 5280.51  499.87 74.30 22.00 344.33 2550.44
   18:55:43.030.09-Sep-2020 5280.51  500.07 74.30 22.00 344.53 2550.44
   18:55:43.229.09-Sep-2020 5280.51  500.35 74.30 22.00 344.73 2550.44
   18:55:43.429.09-Sep-2020 5280.51  500.35 74.30 22.00 344.93 2550.44
   18:55:43.629.09-Sep-2020 5280.51  500.52 74.30 22.00 345.13 2550.44
   18:55:43.829.09-Sep-2020 5280.51  500.71 74.30 22.00 345.33 2550.44
   18:55:44.029.09-Sep-2020 5280.51  500.89 74.30 22.00 345.53 2550.44
   18:55:44.229.09-Sep-2020 5280.51  501.10 74.30 22.00 345.73 2550.44
   18:55:44.428.09-Sep-2020 5280.51  501.21 74.30 22.00 345.93 2550.44
   18:55:44.628.09-Sep-2020 5280.51  501.33 74.30 22.00 346.13 2550.44
   18:55:44.828.09-Sep-2020 5280.51  501.48 74.30 22.00 346.33 2550.44
   18:55:45.028.09-Sep-2020 5280.51  501.66 74.30 22.00 346.53 2550.44
   18:55:45.228.09-Sep-2020 5280.51  501.83 74.30 22.00 346.73 2550.44
   18:55:45.428.09-Sep-2020 5280.51  501.83 74.30 22.00 346.93 2550.44
   18:55:45.627.09-Sep-2020 5280.51  502.30 74.30 22.00 347.13 2550.44
   18:55:45.827.09-Sep-2020 5280.51  502.06 74.30 22.00 347.33 2550.44
   18:55:46.027.09-Sep-2020 5280.51  502.20 74.30 22.00 347.53 2550.44
   18:55:46.227.09-Sep-2020 5280.51  502.28 74.30 22.00 347.73 2550.44
   18:55:46.427.09-Sep-2020 5280.51  502.28 74.30 22.00 347.93 2550.44
   18:55:46.627.09-Sep-2020 5280.51  501.88 74.30 22.00 348.13 2550.44
   18:55:46.827.09-Sep-2020 5280.51  502.89 74.30 22.00 348.33 2550.44
   18:55:47.026.09-Sep-2020 5280.51  502.91 74.30 22.00 348.53 2550.44
   18:55:47.226.09-Sep-2020 5280.51  502.95 74.30 22.00 348.73 2550.44
   18:55:47.426.09-Sep-2020 5280.51  502.95 74.30 22.00 348.93 2550.44
   18:55:47.626.09-Sep-2020 5280.51  503.41 74.30 22.00 349.13 2550.44
   18:55:47.826.09-Sep-2020 5280.51  503.49 74.30 22.00 349.33 2550.44
   18:55:48.026.09-Sep-2020 5280.51  503.64 74.30 22.00 349.53 2550.44
   18:55:48.225.09-Sep-2020 5280.51  503.18 74.30 22.00 349.73 2550.44
   18:55:48.425.09-Sep-2020 5280.51  503.18 74.30 22.00 349.93 2550.44
   18:55:48.625.09-Sep-2020 5280.51  503.94 74.30 22.00 350.13 2550.44
   18:55:48.825.09-Sep-2020 5280.51  504.03 74.30 22.00 350.33 2550.44
   18:55:49.025.09-Sep-2020 5280.51  504.35 74.30 22.00 350.53 2550.44
   18:55:49.225.09-Sep-2020 5280.51  504.41 74.30 22.00 350.72 2550.44
   18:55:49.425.09-Sep-2020 5280.51  504.41 74.30 22.00 350.92 2550.44
   18:55:49.624.09-Sep-2020 5280.51  504.84 74.30 22.00 351.12 2550.44
   18:55:49.824.09-Sep-2020 5280.51  504.67 74.30 22.00 351.32 2550.44
   18:55:50.024.09-Sep-2020 5280.51  504.80 74.30 22.00 351.52 2550.44
   18:55:50.224.09-Sep-2020 5280.51  504.90 74.30 22.00 351.72 2550.44
   18:55:50.424.09-Sep-2020 5280.51  504.90 74.30 22.00 351.92 2550.44
   18:55:50.624.09-Sep-2020 5280.51  505.06 74.30 22.00 352.12 2550.44
   18:55:50.823.09-Sep-2020 5280.51  505.31 74.30 22.00 352.32 2550.44
   18:55:51.023.09-Sep-2020 5280.51  505.37 74.30 22.00 352.52 2550.44
   18:55:51.223.09-Sep-2020 5280.51  505.68 74.30 22.00 352.72 2550.44
   18:55:51.423.09-Sep-2020 5280.51  505.68 74.30 22.00 352.92 2550.44
   18:55:51.623.09-Sep-2020 5280.51  505.92 74.30 22.00 353.12 2550.44
   18:55:51.823.09-Sep-2020 5280.51  506.04 74.30 22.00 353.32 2550.44
   18:55:52.022.09-Sep-2020 5280.51  506.19 74.30 22.00 353.52 2550.44
   18:55:52.222.09-Sep-2020 5280.51  506.27 74.30 22.00 353.72 2550.44
   18:55:52.422.09-Sep-2020 5280.51  506.46 74.30 22.00 353.92 2550.44
   18:55:52.622.09-Sep-2020 5280.51  506.63 74.30 22.00 354.12 2550.44
   18:55:52.822.09-Sep-2020 5280.51  506.77 74.30 22.00 354.32 2550.44
   18:55:53.022.09-Sep-2020 5280.51  506.94 74.30 22.00 354.52 2550.44
   18:55:53.222.09-Sep-2020 5280.51  507.09 74.30 22.00 354.72 2550.44
   18:55:53.421.09-Sep-2020 5280.51  507.09 74.30 22.00 354.92 2550.44
   18:55:53.621.09-Sep-2020 5280.51  507.39 74.30 22.00 355.12 2550.44
   18:55:53.821.09-Sep-2020 5280.51  507.54 74.30 22.00 355.32 2550.44
   18:55:54.021.09-Sep-2020 5280.51  507.03 74.30 22.00 355.52 2550.44
   18:55:54.221.09-Sep-2020 5280.51  507.63 74.30 22.00 355.72 2550.44
   18:55:54.421.09-Sep-2020 5280.51  507.63 74.30 22.00 355.92 2550.44
   18:55:54.620.09-Sep-2020 5280.51  507.94 74.30 22.00 356.12 2550.44
   18:55:54.820.09-Sep-2020 5280.51  508.27 74.30 22.00 356.32 2550.44
   18:55:55.020.09-Sep-2020 5280.51  508.30 74.30 22.00 356.52 2550.44
   18:55:55.220.09-Sep-2020 5280.51  508.45 74.30 22.00 356.72 2550.44
   18:55:55.420.09-Sep-2020 5280.51  508.45 74.30 22.00 356.92 2550.44
   18:55:55.620.09-Sep-2020 5280.51  508.72 74.30 22.00 357.12 2550.44
   18:55:55.819.09-Sep-2020 5280.51  508.83 74.30 22.00 357.32 2550.44
   18:55:56.019.09-Sep-2020 5280.51  509.06 74.30 22.00 357.52 2550.44
   18:55:56.219.09-Sep-2020 5280.51  509.21 74.30 22.00 357.72 2550.44
   18:55:56.419.09-Sep-2020 5280.51  509.33 74.30 22.00 357.92 2550.44
   18:55:56.619.09-Sep-2020 5280.51  509.42 74.30 22.00 358.12 2550.44
   18:55:56.819.09-Sep-2020 5280.51  509.57 74.30 22.00 358.32 2550.44
   18:55:57.019.09-Sep-2020 5280.51  509.73 74.30 22.00 358.52 2550.44
   18:55:57.218.09-Sep-2020 5280.51  509.02 74.30 22.00 358.72 2550.44
   18:55:57.418.09-Sep-2020 5280.51  510.02 74.30 22.00 358.92 2550.44
   18:55:57.618.09-Sep-2020 5280.51  510.03 74.30 22.00 359.12 2550.44
   18:55:57.818.09-Sep-2020 5280.51  510.13 74.30 22.00 359.32 2550.44
   18:55:58.018.09-Sep-2020 5280.51  510.24 74.30 22.00 359.52 2550.44
   18:55:58.218.09-Sep-2020 5280.51  510.52 74.30 22.00 359.72 2550.44
   18:55:58.417.09-Sep-2020 5280.51  510.52 74.30 22.00 359.92 2550.44
   18:55:58.617.09-Sep-2020 5280.51  510.52 74.30 22.00 360.12 2550.44
   18:55:58.817.09-Sep-2020 5280.51  510.79 74.30 22.00 360.32 2550.44
   18:55:59.017.09-Sep-2020 5280.51  510.86 74.30 22.00 360.52 2550.44
   18:55:59.217.09-Sep-2020 5280.51  511.16 74.30 22.00 360.72 2550.44
   18:55:59.417.09-Sep-2020 5280.51  511.16 74.30 22.00 360.92 2550.44
   18:55:59.617.09-Sep-2020 5280.51  511.34 74.30 22.00 361.12 2550.44
