~Version Information
 VERS.                  2.0:   CWLS log ASCII Standard -VERSION 2.0
 WRAP.                   NO:   One line per depth step
~Well Information Block
#MNEM.UNIT     VALUE/NAME     DESCRIPTION
#---------     -----------    ---------------------------
 STRT.S             10:16:33 09-Sep-20: START TIME 10:16:33 09-Sep-20
 STOP.S             10:23:34 09-Sep-20: STOP TIME  10:23:34 09-Sep-20
 STEP.S                   0.00: STEP TIME
 NULL.                 -999.25: NULL VALUE
 MDS .        Operator Entered:  MAG DATA SOURCE
 PDAT.          Mean Sea Level:  PERMANENT DATUM
 DCON.         Sperry Drilling:  DIRECTNL CONTR
 RIG .              West Azeri:  RIG NAME
 WELL.           C40 (Slot 20):  WELL NAME
 SRVC.     Turan Drilling Engineering:  CONTRACTOR
 FLD .                     ACG:  FIELD NAME
 CTRY.              Azerbaijan:  COUNTRY NAME
 PROV.                    Baku:  PROVINCE
 STAT.                    Baku:  STATE NAME
 REGN.                   EESSA:  REGION
 BASE.              Azerbaijan:  LOGGING EQUIPMENT BASE LOCATION
 COMP.     BP Exploration (Caspian Sea) Ltd:  COMPANY
 WTYP.                Deviated:  WELL TYPE
 SON .        AZ-XX-0906344804:  JOB NUMBER
 FTOP.          Formation Tops:  FORM TOPS DESC
 ILTD.               Lithology:  INTERP LTH DESC
 SVYD.                  Survey:  SURVEY DESC
 DMOD.             Drill Model:  DRILL MOD DESC
 HPTY.       Minimum Curvature:  HOLE POS TYPE
 NREF.                    Grid:  NORTH REFERENCE
 SPUD.               01-Jan-20:  SPUD DATE
 DATE.      00.59.44 15-Sep-20:  END TIME
 STIM.      12.00.00 12-Jun-20:  START TIME
 DMF .             Drill Floor:  DRILL MEAS FROM
 DFST.                        :  DIST FSL TEXT
 DFWT.                        :  DIST FWL TEXT
 API .                        :  API NUMBER
 CNTY.                        :  COUNTY
 UWI .                        :  UNIQUE WELL IDENTIFIER
 LOC .                        :  LOCATION
 LMF .             Drill Floor:  LOG MEASURED FROM
 VSNS.m                   2.88:  VERT SEC N/S
 VSEW.m                  -3.84:  VERT SEC E/W
 AGAP.m                  43.42:  AIR GAP
 APD .m                  43.42:  DEPTH ABOVE PD
 WDMS.m                 118.27:  WD ELEV
 EGL .m                   0.00:  GROUND ELEVATION
 EPD .m                   0.00:  ELEVATION
 AZTC.deg                 6.23:  AZM TOTAL CORR
 GRDC.deg                 0.20:  GRID CORRECTION
 MDEC.deg                 6.43:  MAGNETIC DECL
 MDIP.deg                59.49:  MAGNETIC DIP
 MFLD.nT              50277.00:  MAGNETIC FIELD
 GVFD.g                   1.00:  GRAVITY FIELD
 VSDR.deg               173.20:  VERT SEC DIRECT
 TDD .m                5790.01:  TOTAL DEPTH (DRILLER)
 SDEP.m                5231.01:  START DEPTH
 DFSL.m                   0.00:  DISTANCE FSL
 DFWL.m                   0.00:  DISTANCE FWL
 UTMY.m             4435808.83:  UTM Y
 UTMX.m              526266.40:  UTM X
 WHEW.m                  -3.84:  WELL HEAD E/W
 WHNS.m                   2.88:  WELL HEAD N/S
 LONG.deg                51.31:  LONGITUDE
 LATI.deg                40.06:  LATITUDE
 TVDS.m                  43.42:  TVDSS CORRECTN
 DEP .m                 430.08:  DEPTH
 EKB .m                  43.42:  KB ELEVATION
 EDF .m                  43.42:  DF ELEVATION
 TDL .m                 559.00:  TOTAL DEPTH (LOGGER)
 MAGU.                 1849381:  MAGUTM CHECKSUM
 VSC .                       0:  VS TO CLOSURE
~Parameter Information Block
#MNEM.UNIT       Value        Description
#---------     -----------    ---------------------------
 AV  .mps                 4.87:  Ann Velocity 
 AVMX.mps                 7.08:  Max Ann Veloc 
 AZIF.deg               108.87:  Azm, Final 
 BHAT.                  Rotary:  BHA Type 
 BROT.°/30m               0.35:  Build Rotating 
 BS  .in                  8.50:  Bit Size 
 BSZ .in                  8.50:  Bit Size 
 BTPL.psig              360.00:  Bit Press Loss 
 CABU.                     Yes:  Customer Abuse 
 COMM.                     \Gp:  Run Comments 1 
 TCS .hr                106.24:  Time Ciculation Ended 
 CV  .mps                 1.77:  Crit Velocity 
 CVMX.mps                 2.03:  Max Crit Veloc 
 DD1 .         Aykhan Agagulov:  Direct Drillr 1 
 DD2 .            Nonso Okofor:  Direct Drillr 2 
 DDSV.               Geo-Pilot:  DD Service 
 DEFF.%                  98.00:  % Det Eff 
 DLRX.°/30m               0.50:  Dogleg Rot Max 
 DLSO.°/30m               0.40:  Dogleg Oriented 
 DLSX.°/30m               0.94:  Dogleg Str Max 
 DRET.      20.30.00 08-Sep-20:  Drill End Time 
 DRST.      22.15.00 06-Sep-20:  Drill Start Tim 
 DTIM.hr                 31.31:  Time Drilling 
 EDEP.m                5790.01:  End Depth 
 ENG1.           Amrah Tahirov:  Engineer 1 
 ENG2.         Dair Mahammadov:  Engineer 2 
 ENG3.           Emil Huseynov:  Engineer 3 
 ETIM.      04.01.04 12-Sep-20:  End Time 
 FLOI.gpm               450.00:  Flow In 
 FLON.gpm               450.00:  Flow In Min 
 FLOS.cptm                2.00:  Fluid Loss 
 FLOX.gpm               450.00:  Flow In Max 
 FTRO.       Formation Presure:  FTWD Run Obj 
 HFLO.                      No:  High Flow 
 HPRE.                      No:  High Pressure 
 HTEM.                      No:  High Temp 
 HYDO.m                   1.80:  Hydro Offset 
 IFIN.deg                72.03:  Inc, Final 
 IMAX.deg                73.72:  Inc Max 
 IMIN.deg                70.94:  Inc Min 
 IMND.m                5508.52:  Inc Min Depth 
 IMXD.m                5253.60:  Inc Max Depth 
 JARR.                      No:  Jarring 
 LETM.      20.30.00 08-Sep-20:  Log End Time 
 LOST.hr                     0:  Lost Rig Time 
 LSTM.      22.15.00 06-Sep-20:  Log Start Time 
 MDCL.ppm             36000.00:  Mud Chlorides 
 MDES.     Inversion Oil/Synthetic:  Mud Desc 
 DFD .sg                  1.44:  Mud Density 
 MDMN.sg                  1.44:  Dens Mud Min 
 MDMX.sg                  1.57:  Dens Mud Max 
 MOIL.                      70:  Run Mud Oil % 
 MOWR.                   70:30:  Run Mud OWR 
 MSND.                       0:  Run Mud Sand % 
 MSOL.                      21:  Run Mud Solids% 
 DFV .spqt               68.00:  Mud Viscosity 
 MWOD.in                  6.75:  MWD Tool OD 
 MWSI.                     Yes:  Serv Intrp, MWD 
 OTIM.hr                174.84:  Time Operating 
 PCON.           Look Like New:  Pad Condition 
 PMAX.psia            10616.93:  Press Op, Max 
 PV  .cP                 50.00:  Mud PV 
 RUN .                     700:  Run Number 
 ROPA.m/hr               14.24:  ROP Avg 
 ROPN.m/hr               10.00:  ROP Min 
 ROPX.m/hr               32.00:  ROP Max 
 RPMA.rpm               120.90:  RPM Surface Avg 
 RPMN.rpm               120.00:  RPM Surface Min 
 RPMX.rpm               140.00:  RPM Surface Max 
 RRUN.                    0700:  Rig Run Number 
 RTIM.hr                  3.20:  Time Reaming 
 SAZI.deg               109.99:  Azm, Start 
 SDEP.m                5231.01:  Start Depth 
 SIDD.                      No:  Serv Intrp, DD 
 SINC.deg                73.72:  Inc, Start 
 SPPA.psig             3051.00:  SPP Avg 
 SPPN.psig             2950.00:  SPP Min 
 SPPX.psig             3250.00:  SPP Max 
 STIM.      08.00.00 05-Sep-20:  Start Time 
 SVCS.                 DD, MWD:  Services 
 SVER.                    9.20:  Sperry Version 
 TDAT.m                 559.00:  Tot Depth Attmp 
 TDDF.                      No:  Trip for DD 
 TDLG.m                 559.00:  Tot Depth Loggd 
 TFF .                      No:  Trip for Fail 
 TQAA.f-kp               26.49:  Torque Abs Avg 
 TQAN.f-kp               25.00:  Torque Abs Min 
 TQAX.f-kp               27.00:  Torque Abs Max 
 TRRT.°/30m               1.50:  Turn Rotating 
 MRT .                    HCIM:  Maximum Recorded Temperature 
 TTMX.degC               90.20:  Max Tool Temp 
 VS01.                90542671:  Virtual Str1 SN 
 VS02.                90545185:  Virtual Str2 SN 
 VS03.                90602015:  Virtual Str3 SN 
 VS04.                90515230:  Virtual Str4 SN 
 WBMN.klb                 5.00:  WOB Min 
 WOBA.klb                14.79:  WOB Avg 
 WOBX.klb                20.00:  WOB Max 
 YP  .lhf2               29.00:  Yield Point 
~Curve Information Block
#MNEM.UNIT                 API CODE     Curve Description
#---------               -----------    ---------------------------
 TIME.HHMMSS            00 000 000 000:  GT Time & Date
 GTDEPTH.m              00 000 000 000:  GT Depth
 GTPQH.psia             00 000 000 000:  GT HR Quartz Pressure
 GTTQ.degC              00 000 000 000:  GT Quartz Temperature
 GTTN.NONE              00 000 000 000:  GT Test Number
 GTET.sec               00 000 000 000:  GT Elapsed Test Time
 GTTVD.m                00 000 000 000:  GT True Vertical Depth
#Other Information
#
#WARRANTY: Halliburton will use its best efforts to furnish customers with 
#accurate information and interpretations that are part of, and incident to, the services 
#provided.  However, Halliburton cannot and does not warrant the accuracy 
#or correctness of such information and interpretations.  Under no circumstances should any 
#such information or interpretation be relied upon as the sole basis for any drilling, 
#completion, production, or financial decision or any procedure involving any risk to the 
#safety of any drilling venture, drilling rig or its crew or any other third party.  The 
#Customer has full responsibility for all drilling, completion and production operation.  
#Halliburton makes no representations or warranties, either expressed or 
#implied, including, but not limited to, the implied warranties of merchantability or fitness 
#for a particular purpose, with respect to the services rendered.  In no event will 
#Halliburton be liable for failure to obtain any particular results or for 
#any damages, including, but not limited to, indirect, special or consequential damages, 
#resulting from the use of any information or interpretation provided by Halliburton.
#
~A           TIME           GTDEPTH  GTPQH  GTTQ  GTTN  GTET   GTTVD  
# ...
   10:18:28.000.09-Sep-2020 5468.01 3582.17 76.57 9.00 115.00 2608.52
   10:18:28.200.09-Sep-2020 5468.01 3582.17 76.57 9.00 115.20 2608.52
   10:18:28.400.09-Sep-2020 5468.01 3582.30 76.57 9.00 115.40 2608.52
   10:18:28.600.09-Sep-2020 5468.01 3582.35 76.57 9.00 115.60 2608.52
   10:18:28.800.09-Sep-2020 5468.01 3582.22 76.57 9.00 115.80 2608.52
   10:18:29.000.09-Sep-2020 5468.01 3582.29 76.57 9.00 116.00 2608.52
   10:18:29.200.09-Sep-2020 5468.01 3582.29 76.57 9.00 116.20 2608.52
   10:18:29.400.09-Sep-2020 5468.01 3582.31 76.57 9.00 116.40 2608.52
   10:18:29.600.09-Sep-2020 5468.01 3582.30 76.57 9.00 116.60 2608.52
   10:18:29.800.09-Sep-2020 5468.01 3582.29 76.57 9.00 116.80 2608.52
   10:18:30.000.09-Sep-2020 5468.01 3582.29 76.57 9.00 117.00 2608.52
   10:18:30.200.09-Sep-2020 5468.01 3582.29 76.57 9.00 117.20 2608.52
   10:18:30.400.09-Sep-2020 5468.01 3582.30 76.57 9.00 117.40 2608.52
   10:18:30.600.09-Sep-2020 5468.01 3582.30 76.57 9.00 117.60 2608.52
   10:18:30.800.09-Sep-2020 5468.01 3582.30 76.57 9.00 117.80 2608.52
   10:18:31.000.09-Sep-2020 5468.01 3582.26 76.57 9.00 118.00 2608.52
   10:18:31.200.09-Sep-2020 5468.01 3582.26 76.57 9.00 118.20 2608.52
   10:18:31.400.09-Sep-2020 5468.01 3582.35 76.57 9.00 118.40 2608.52
   10:18:31.600.09-Sep-2020 5468.01 3582.28 76.57 9.00 118.60 2608.52
   10:18:31.800.09-Sep-2020 5468.01 3582.32 76.57 9.00 118.80 2608.52
   10:18:32.000.09-Sep-2020 5468.01 3582.32 76.57 9.00 119.00 2608.52
   10:18:32.200.09-Sep-2020 5468.01 3582.32 76.57 9.00 119.20 2608.52
   10:18:32.400.09-Sep-2020 5468.01 3582.56 76.57 9.00 119.40 2608.52
   10:18:32.600.09-Sep-2020 5468.01 3582.31 76.57 9.00 119.60 2608.52
   10:18:32.800.09-Sep-2020 5468.01 3582.28 76.57 9.00 119.80 2608.52
   10:18:33.000.09-Sep-2020 5468.01 3582.27 76.57 9.00 120.00 2608.52
   10:18:33.200.09-Sep-2020 5468.01 3582.27 76.57 9.00 120.20 2608.52
   10:18:33.400.09-Sep-2020 5468.01 3582.32 76.57 9.00 120.40 2608.52
   10:18:33.600.09-Sep-2020 5468.01 3582.30 76.57 9.00 120.60 2608.52
   10:18:33.800.09-Sep-2020 5468.01 3582.20 76.57 9.00 120.80 2608.52
   10:18:34.000.09-Sep-2020 5468.01 3582.38 76.57 9.00 121.00 2608.52
   10:18:34.200.09-Sep-2020 5468.01 3582.30 76.57 9.00 121.20 2608.52
   10:18:34.400.09-Sep-2020 5468.01 3582.31 76.57 9.00 121.40 2608.52
   10:18:34.600.09-Sep-2020 5468.01 3582.26 76.57 9.00 121.60 2608.52
   10:18:34.800.09-Sep-2020 5468.01 3582.33 76.57 9.00 121.80 2608.52
   10:18:35.000.09-Sep-2020 5468.01 3582.31 76.57 9.00 122.00 2608.52
   10:18:35.200.09-Sep-2020 5468.01 3582.31 76.57 9.00 122.20 2608.52
   10:18:35.400.09-Sep-2020 5468.01 3582.27 76.57 9.00 122.40 2608.52
   10:18:35.600.09-Sep-2020 5468.01 3582.36 76.57 9.00 122.60 2608.52
   10:18:35.800.09-Sep-2020 5468.01 3582.30 76.57 9.00 122.80 2608.52
   10:18:36.000.09-Sep-2020 5468.01 3582.33 76.57 9.00 123.00 2608.52
   10:18:36.200.09-Sep-2020 5468.01 3582.33 76.57 9.00 123.20 2608.52
   10:18:36.400.09-Sep-2020 5468.01 3582.27 76.57 9.00 123.40 2608.52
   10:18:36.600.09-Sep-2020 5468.01 3582.28 76.57 9.00 123.60 2608.52
   10:18:36.800.09-Sep-2020 5468.01 3582.27 76.57 9.00 123.80 2608.52
   10:18:37.000.09-Sep-2020 5468.01 3582.35 76.57 9.00 124.00 2608.52
   10:18:37.200.09-Sep-2020 5468.01 3582.35 76.57 9.00 124.20 2608.52
   10:18:37.400.09-Sep-2020 5468.01 3582.33 76.57 9.00 124.40 2608.52
   10:18:37.600.09-Sep-2020 5468.01 3582.31 76.57 9.00 124.60 2608.52
   10:18:37.800.09-Sep-2020 5468.01 3582.27 76.57 9.00 124.80 2608.52
   10:18:38.000.09-Sep-2020 5468.01 3582.30 76.57 9.00 125.00 2608.52
   10:18:38.200.09-Sep-2020 5468.01 3582.31 76.57 9.00 125.20 2608.52
   10:18:38.400.09-Sep-2020 5468.01 3582.31 76.57 9.00 125.40 2608.52
   10:18:38.600.09-Sep-2020 5468.01 3582.31 76.57 9.00 125.60 2608.52
   10:18:38.800.09-Sep-2020 5468.01 3582.31 76.57 9.00 125.80 2608.52
   10:18:39.000.09-Sep-2020 5468.01 3582.30 76.57 9.00 126.00 2608.52
   10:18:39.200.09-Sep-2020 5468.01 3582.30 76.57 9.00 126.20 2608.52
   10:18:39.400.09-Sep-2020 5468.01 3582.31 76.57 9.00 126.40 2608.52
   10:18:39.600.09-Sep-2020 5468.01 3582.30 76.57 9.00 126.60 2608.52
   10:18:39.800.09-Sep-2020 5468.01 3582.31 76.57 9.00 126.80 2608.52
   10:18:40.000.09-Sep-2020 5468.01 3582.31 76.57 9.00 127.00 2608.52
   10:18:40.200.09-Sep-2020 5468.01 3582.31 76.57 9.00 127.20 2608.52
   10:18:40.400.09-Sep-2020 5468.01 3582.20 76.57 9.00 127.40 2608.52
   10:18:40.600.09-Sep-2020 5468.01 3582.41 76.57 9.00 127.60 2608.52
   10:18:40.800.09-Sep-2020 5468.01 3582.31 76.57 9.00 127.80 2608.52
   10:18:41.000.09-Sep-2020 5468.01 3582.32 76.57 9.00 128.00 2608.52
   10:18:41.200.09-Sep-2020 5468.01 3582.32 76.57 9.00 128.20 2608.52
   10:18:41.400.09-Sep-2020 5468.01 3582.32 76.57 9.00 128.40 2608.52
   10:18:41.600.09-Sep-2020 5468.01 3582.32 76.57 9.00 128.60 2608.52
   10:18:41.800.09-Sep-2020 5468.01 3582.31 76.57 9.00 128.80 2608.52
   10:18:42.000.09-Sep-2020 5468.01 3582.32 76.57 9.00 129.00 2608.52
   10:18:42.200.09-Sep-2020 5468.01 3582.32 76.57 9.00 129.20 2608.52
   10:18:42.400.09-Sep-2020 5468.01 3582.30 76.57 9.00 129.40 2608.52
   10:18:42.600.09-Sep-2020 5468.01 3582.31 76.57 9.00 129.60 2608.52
   10:18:42.800.09-Sep-2020 5468.01 3582.31 76.57 9.00 129.80 2608.52
   10:18:43.000.09-Sep-2020 5468.01 3582.31 76.57 9.00 130.00 2608.52
   10:18:43.200.09-Sep-2020 5468.01 3582.31 76.57 9.00 130.20 2608.52
   10:18:43.400.09-Sep-2020 5468.01 3582.31 76.57 9.00 130.40 2608.52
   10:18:43.600.09-Sep-2020 5468.01 3582.31 76.57 9.00 130.60 2608.52
   10:18:43.800.09-Sep-2020 5468.01 3582.44 76.57 9.00 130.80 2608.52
   10:18:44.000.09-Sep-2020 5468.01 3582.16 76.57 9.00 131.00 2608.52
   10:18:44.200.09-Sep-2020 5468.01 3582.16 76.57 9.00 131.20 2608.52
   10:18:44.400.09-Sep-2020 5468.01 3582.31 76.57 9.00 131.40 2608.52
   10:18:44.600.09-Sep-2020 5468.01 3582.38 76.57 9.00 131.60 2608.52
   10:18:44.800.09-Sep-2020 5468.01 3582.24 76.57 9.00 131.80 2608.52
   10:18:45.000.09-Sep-2020 5468.01 3582.26 76.57 9.00 132.00 2608.52
   10:18:45.200.09-Sep-2020 5468.01 3582.26 76.57 9.00 132.20 2608.52
   10:18:45.400.09-Sep-2020 5468.01 3582.30 76.57 9.00 132.40 2608.52
   10:18:45.600.09-Sep-2020 5468.01 3582.32 76.57 9.00 132.60 2608.52
   10:18:45.800.09-Sep-2020 5468.01 3582.32 76.57 9.00 132.80 2608.52
   10:18:46.000.09-Sep-2020 5468.01 3582.28 76.57 9.00 133.00 2608.52
   10:18:46.200.09-Sep-2020 5468.01 3582.32 76.57 9.00 133.20 2608.52
   10:18:46.400.09-Sep-2020 5468.01 3582.05 76.57 9.00 133.40 2608.52
   10:18:46.600.09-Sep-2020 5468.01 3582.57 76.57 9.00 133.60 2608.52
   10:18:46.800.09-Sep-2020 5468.01 3582.31 76.57 9.00 133.80 2608.52
   10:18:47.000.09-Sep-2020 5468.01 3582.30 76.57 9.00 134.00 2608.52
   10:18:47.200.09-Sep-2020 5468.01 3582.30 76.57 9.00 134.20 2608.52
   10:18:47.400.09-Sep-2020 5468.01 3582.32 76.57 9.00 134.40 2608.52
   10:18:47.600.09-Sep-2020 5468.01 3582.33 76.57 9.00 134.60 2608.52
   10:18:47.800.09-Sep-2020 5468.01 3582.32 76.57 9.00 134.80 2608.52
   10:18:48.000.09-Sep-2020 5468.01 3582.45 76.57 9.00 135.00 2608.52
   10:18:48.200.09-Sep-2020 5468.01 3582.45 76.57 9.00 135.20 2608.52
   10:18:48.400.09-Sep-2020 5468.01 3582.32 76.57 9.00 135.40 2608.52
   10:18:48.600.09-Sep-2020 5468.01 3582.32 76.57 9.00 135.60 2608.52
   10:18:48.800.09-Sep-2020 5468.01 3582.38 76.57 9.00 135.80 2608.52
   10:18:49.000.09-Sep-2020 5468.01 3582.24 76.57 9.00 136.00 2608.52
   10:18:49.200.09-Sep-2020 5468.01 3582.24 76.57 9.00 136.20 2608.52
   10:18:49.400.09-Sep-2020 5468.01 3582.44 76.57 9.00 136.40 2608.52
   10:18:49.600.09-Sep-2020 5468.01 3582.17 76.57 9.00 136.60 2608.52
   10:18:49.800.09-Sep-2020 5468.01 3582.32 76.57 9.00 136.80 2608.52
   10:18:50.000.09-Sep-2020 5468.01 3582.31 76.57 9.00 137.00 2608.52
   10:18:50.200.09-Sep-2020 5468.01 3582.38 76.57 9.00 137.20 2608.52
   10:18:50.400.09-Sep-2020 5468.01 3582.24 76.57 9.00 137.40 2608.52
   10:18:50.600.09-Sep-2020 5468.01 3582.31 76.57 9.00 137.60 2608.52
   10:18:50.800.09-Sep-2020 5468.01 3582.31 76.57 9.00 137.80 2608.52
