~Version Information
 VERS.                  2.0:   CWLS log ASCII Standard -VERSION 2.0
 WRAP.                   NO:   One line per depth step
~Well Information Block
#MNEM.UNIT     VALUE/NAME     DESCRIPTION
#---------     -----------    ---------------------------
 STRT.S             09:56:49 09-Sep-20: START TIME 09:56:49 09-Sep-20
 STOP.S             10:03:50 09-Sep-20: STOP TIME  10:03:50 09-Sep-20
 STEP.S                   0.00: STEP TIME
 NULL.                 -999.25: NULL VALUE
 MDS .        Operator Entered:  MAG DATA SOURCE
 PDAT.          Mean Sea Level:  PERMANENT DATUM
 DCON.         Sperry Drilling:  DIRECTNL CONTR
 RIG .              West Azeri:  RIG NAME
 WELL.           C40 (Slot 20):  WELL NAME
 SRVC.     Turan Drilling Engineering:  CONTRACTOR
 FLD .                     ACG:  FIELD NAME
 CTRY.              Azerbaijan:  COUNTRY NAME
 PROV.                    Baku:  PROVINCE
 STAT.                    Baku:  STATE NAME
 REGN.                   EESSA:  REGION
 BASE.              Azerbaijan:  LOGGING EQUIPMENT BASE LOCATION
 COMP.     BP Exploration (Caspian Sea) Ltd:  COMPANY
 WTYP.                Deviated:  WELL TYPE
 SON .        AZ-XX-0906344804:  JOB NUMBER
 FTOP.          Formation Tops:  FORM TOPS DESC
 ILTD.               Lithology:  INTERP LTH DESC
 SVYD.                  Survey:  SURVEY DESC
 DMOD.             Drill Model:  DRILL MOD DESC
 HPTY.       Minimum Curvature:  HOLE POS TYPE
 NREF.                    Grid:  NORTH REFERENCE
 SPUD.               01-Jan-20:  SPUD DATE
 DATE.      00.59.44 15-Sep-20:  END TIME
 STIM.      12.00.00 12-Jun-20:  START TIME
 DMF .             Drill Floor:  DRILL MEAS FROM
 DFST.                        :  DIST FSL TEXT
 DFWT.                        :  DIST FWL TEXT
 API .                        :  API NUMBER
 CNTY.                        :  COUNTY
 UWI .                        :  UNIQUE WELL IDENTIFIER
 LOC .                        :  LOCATION
 LMF .             Drill Floor:  LOG MEASURED FROM
 VSNS.m                   2.88:  VERT SEC N/S
 VSEW.m                  -3.84:  VERT SEC E/W
 AGAP.m                  43.42:  AIR GAP
 APD .m                  43.42:  DEPTH ABOVE PD
 WDMS.m                 118.27:  WD ELEV
 EGL .m                   0.00:  GROUND ELEVATION
 EPD .m                   0.00:  ELEVATION
 AZTC.deg                 6.23:  AZM TOTAL CORR
 GRDC.deg                 0.20:  GRID CORRECTION
 MDEC.deg                 6.43:  MAGNETIC DECL
 MDIP.deg                59.49:  MAGNETIC DIP
 MFLD.nT              50277.00:  MAGNETIC FIELD
 GVFD.g                   1.00:  GRAVITY FIELD
 VSDR.deg               173.20:  VERT SEC DIRECT
 TDD .m                5790.01:  TOTAL DEPTH (DRILLER)
 SDEP.m                5231.01:  START DEPTH
 DFSL.m                   0.00:  DISTANCE FSL
 DFWL.m                   0.00:  DISTANCE FWL
 UTMY.m             4435808.83:  UTM Y
 UTMX.m              526266.40:  UTM X
 WHEW.m                  -3.84:  WELL HEAD E/W
 WHNS.m                   2.88:  WELL HEAD N/S
 LONG.deg                51.31:  LONGITUDE
 LATI.deg                40.06:  LATITUDE
 TVDS.m                  43.42:  TVDSS CORRECTN
 DEP .m                 430.08:  DEPTH
 EKB .m                  43.42:  KB ELEVATION
 EDF .m                  43.42:  DF ELEVATION
 TDL .m                 559.00:  TOTAL DEPTH (LOGGER)
 MAGU.                 1849381:  MAGUTM CHECKSUM
 VSC .                       0:  VS TO CLOSURE
~Parameter Information Block
#MNEM.UNIT       Value        Description
#---------     -----------    ---------------------------
 AV  .mps                 4.87:  Ann Velocity 
 AVMX.mps                 7.08:  Max Ann Veloc 
 AZIF.deg               108.87:  Azm, Final 
 BHAT.                  Rotary:  BHA Type 
 BROT.°/30m               0.35:  Build Rotating 
 BS  .in                  8.50:  Bit Size 
 BSZ .in                  8.50:  Bit Size 
 BTPL.psig              360.00:  Bit Press Loss 
 CABU.                     Yes:  Customer Abuse 
 COMM.                     ÜQ{:  Run Comments 1 
 TCS .hr                106.24:  Time Ciculation Ended 
 CV  .mps                 1.77:  Crit Velocity 
 CVMX.mps                 2.03:  Max Crit Veloc 
 DD1 .         Aykhan Agagulov:  Direct Drillr 1 
 DD2 .            Nonso Okofor:  Direct Drillr 2 
 DDSV.               Geo-Pilot:  DD Service 
 DEFF.%                  98.00:  % Det Eff 
 DLRX.°/30m               0.50:  Dogleg Rot Max 
 DLSO.°/30m               0.40:  Dogleg Oriented 
 DLSX.°/30m               0.94:  Dogleg Str Max 
 DRET.      20.30.00 08-Sep-20:  Drill End Time 
 DRST.      22.15.00 06-Sep-20:  Drill Start Tim 
 DTIM.hr                 31.31:  Time Drilling 
 EDEP.m                5790.01:  End Depth 
 ENG1.           Amrah Tahirov:  Engineer 1 
 ENG2.         Dair Mahammadov:  Engineer 2 
 ENG3.           Emil Huseynov:  Engineer 3 
 ETIM.      04.01.04 12-Sep-20:  End Time 
 FLOI.gpm               450.00:  Flow In 
 FLON.gpm               450.00:  Flow In Min 
 FLOS.cptm                2.00:  Fluid Loss 
 FLOX.gpm               450.00:  Flow In Max 
 FTRO.       Formation Presure:  FTWD Run Obj 
 HFLO.                      No:  High Flow 
 HPRE.                      No:  High Pressure 
 HTEM.                      No:  High Temp 
 HYDO.m                   1.80:  Hydro Offset 
 IFIN.deg                72.03:  Inc, Final 
 IMAX.deg                73.72:  Inc Max 
 IMIN.deg                70.94:  Inc Min 
 IMND.m                5508.52:  Inc Min Depth 
 IMXD.m                5253.60:  Inc Max Depth 
 JARR.                      No:  Jarring 
 LETM.      20.30.00 08-Sep-20:  Log End Time 
 LOST.hr                     0:  Lost Rig Time 
 LSTM.      22.15.00 06-Sep-20:  Log Start Time 
 MDCL.ppm             36000.00:  Mud Chlorides 
 MDES.     Inversion Oil/Synthetic:  Mud Desc 
 DFD .sg                  1.44:  Mud Density 
 MDMN.sg                  1.44:  Dens Mud Min 
 MDMX.sg                  1.57:  Dens Mud Max 
 MOIL.                      70:  Run Mud Oil % 
 MOWR.                   70:30:  Run Mud OWR 
 MSND.                       0:  Run Mud Sand % 
 MSOL.                      21:  Run Mud Solids% 
 DFV .spqt               68.00:  Mud Viscosity 
 MWOD.in                  6.75:  MWD Tool OD 
 MWSI.                     Yes:  Serv Intrp, MWD 
 OTIM.hr                174.84:  Time Operating 
 PCON.           Look Like New:  Pad Condition 
 PMAX.psia            10616.93:  Press Op, Max 
 PV  .cP                 50.00:  Mud PV 
 RUN .                     700:  Run Number 
 ROPA.m/hr               14.24:  ROP Avg 
 ROPN.m/hr               10.00:  ROP Min 
 ROPX.m/hr               32.00:  ROP Max 
 RPMA.rpm               120.90:  RPM Surface Avg 
 RPMN.rpm               120.00:  RPM Surface Min 
 RPMX.rpm               140.00:  RPM Surface Max 
 RRUN.                    0700:  Rig Run Number 
 RTIM.hr                  3.20:  Time Reaming 
 SAZI.deg               109.99:  Azm, Start 
 SDEP.m                5231.01:  Start Depth 
 SIDD.                      No:  Serv Intrp, DD 
 SINC.deg                73.72:  Inc, Start 
 SPPA.psig             3051.00:  SPP Avg 
 SPPN.psig             2950.00:  SPP Min 
 SPPX.psig             3250.00:  SPP Max 
 STIM.      08.00.00 05-Sep-20:  Start Time 
 SVCS.                 DD, MWD:  Services 
 SVER.                    9.20:  Sperry Version 
 TDAT.m                 559.00:  Tot Depth Attmp 
 TDDF.                      No:  Trip for DD 
 TDLG.m                 559.00:  Tot Depth Loggd 
 TFF .                      No:  Trip for Fail 
 TQAA.f-kp               26.49:  Torque Abs Avg 
 TQAN.f-kp               25.00:  Torque Abs Min 
 TQAX.f-kp               27.00:  Torque Abs Max 
 TRRT.°/30m               1.50:  Turn Rotating 
 MRT .                    HCIM:  Maximum Recorded Temperature 
 TTMX.degC               90.20:  Max Tool Temp 
 VS01.                90542671:  Virtual Str1 SN 
 VS02.                90545185:  Virtual Str2 SN 
 VS03.                90602015:  Virtual Str3 SN 
 VS04.                90515230:  Virtual Str4 SN 
 WBMN.klb                 5.00:  WOB Min 
 WOBA.klb                14.79:  WOB Avg 
 WOBX.klb                20.00:  WOB Max 
 YP  .lhf2               29.00:  Yield Point 
~Curve Information Block
#MNEM.UNIT                 API CODE     Curve Description
#---------               -----------    ---------------------------
 TIME.HHMMSS            00 000 000 000:  GT Time & Date
 GTDEPTH.m              00 000 000 000:  GT Depth
 GTPQH.psia             00 000 000 000:  GT HR Quartz Pressure
 GTTQ.degC              00 000 000 000:  GT Quartz Temperature
 GTTN.NONE              00 000 000 000:  GT Test Number
 GTET.sec               00 000 000 000:  GT Elapsed Test Time
 GTTVD.m                00 000 000 000:  GT True Vertical Depth
#Other Information
#
#WARRANTY: Halliburton will use its best efforts to furnish customers with 
#accurate information and interpretations that are part of, and incident to, the services 
#provided.  However, Halliburton cannot and does not warrant the accuracy 
#or correctness of such information and interpretations.  Under no circumstances should any 
#such information or interpretation be relied upon as the sole basis for any drilling, 
#completion, production, or financial decision or any procedure involving any risk to the 
#safety of any drilling venture, drilling rig or its crew or any other third party.  The 
#Customer has full responsibility for all drilling, completion and production operation.  
#Halliburton makes no representations or warranties, either expressed or 
#implied, including, but not limited to, the implied warranties of merchantability or fitness 
#for a particular purpose, with respect to the services rendered.  In no event will 
#Halliburton be liable for failure to obtain any particular results or for 
#any damages, including, but not limited to, indirect, special or consequential damages, 
#resulting from the use of any information or interpretation provided by Halliburton.
#
~A           TIME           GTDEPTH  GTPQH  GTTQ  GTTN  GTET   GTTVD  
# ...
   10:02:57.000.09-Sep-2020 5480.01 6441.11 77.02 8.00 368.00 2612.34
   10:02:57.200.09-Sep-2020 5480.01 6441.11 77.02 8.00 368.20 2612.34
   10:02:57.400.09-Sep-2020 5480.01 6434.96 77.03 8.00 368.40 2612.34
   10:02:57.600.09-Sep-2020 5480.01 6440.88 77.03 8.00 368.60 2612.34
   10:02:57.800.09-Sep-2020 5480.01 6443.37 77.03 8.00 368.80 2612.34
   10:02:58.000.09-Sep-2020 5480.01 6443.50 77.03 8.00 369.00 2612.34
   10:02:58.200.09-Sep-2020 5480.01 6443.50 77.03 8.00 369.20 2612.34
   10:02:58.400.09-Sep-2020 5480.01 6441.24 77.04 8.00 369.40 2612.34
   10:02:58.600.09-Sep-2020 5480.01 6443.01 77.04 8.00 369.60 2612.34
   10:02:58.800.09-Sep-2020 5480.01 6442.92 77.04 8.00 369.80 2612.34
   10:02:59.000.09-Sep-2020 5480.01 6445.48 77.05 8.00 370.00 2612.34
   10:02:59.200.09-Sep-2020 5480.01 6445.48 77.05 8.00 370.20 2612.34
   10:02:59.400.09-Sep-2020 5480.01 6442.43 77.05 8.00 370.40 2612.34
   10:02:59.600.09-Sep-2020 5480.01 6443.71 77.05 8.00 370.60 2612.34
   10:02:59.800.09-Sep-2020 5480.01 6442.86 77.05 8.00 370.80 2612.34
   10:03:00.000.09-Sep-2020 5480.01 6442.49 77.06 8.00 371.00 2612.34
   10:03:00.200.09-Sep-2020 5480.01 6442.49 77.06 8.00 371.20 2612.34
   10:03:00.400.09-Sep-2020 5480.01 6442.71 77.06 8.00 371.40 2612.34
   10:03:00.600.09-Sep-2020 5480.01 6442.71 77.06 8.00 371.60 2612.34
   10:03:00.800.09-Sep-2020 5480.01 6442.81 77.06 8.00 371.80 2612.34
   10:03:01.000.09-Sep-2020 5480.01 6443.12 77.07 8.00 372.00 2612.34
   10:03:01.200.09-Sep-2020 5480.01 6443.12 77.07 8.00 372.20 2612.34
   10:03:01.400.09-Sep-2020 5480.01 6442.44 77.07 8.00 372.40 2612.34
   10:03:01.600.09-Sep-2020 5480.01 6442.33 77.07 8.00 372.60 2612.34
   10:03:01.800.09-Sep-2020 5480.01 6442.21 77.07 8.00 372.80 2612.34
   10:03:02.000.09-Sep-2020 5480.01 6451.49 77.07 8.00 373.00 2612.34
   10:03:02.200.09-Sep-2020 5480.01 6451.49 77.07 8.00 373.20 2612.34
   10:03:02.400.09-Sep-2020 5480.01 6442.39 77.07 8.00 373.40 2612.34
   10:03:02.600.09-Sep-2020 5480.01 6447.16 77.08 8.00 373.60 2612.34
   10:03:02.800.09-Sep-2020 5480.01 6441.69 77.08 8.00 373.80 2612.34
   10:03:03.000.09-Sep-2020 5480.01 6443.92 77.08 8.00 374.00 2612.34
   10:03:03.200.09-Sep-2020 5480.01 6443.92 77.08 8.00 374.20 2612.34
   10:03:03.400.09-Sep-2020 5480.01 6442.35 77.08 8.00 374.40 2612.34
   10:03:03.600.09-Sep-2020 5480.01 6443.37 77.08 8.00 374.60 2612.34
   10:03:03.800.09-Sep-2020 5480.01 6442.23 77.08 8.00 374.80 2612.34
   10:03:04.000.09-Sep-2020 5480.01 6442.48 77.08 8.00 375.00 2612.34
   10:03:04.200.09-Sep-2020 5480.01 6442.48 77.08 8.00 375.20 2612.34
   10:03:04.400.09-Sep-2020 5480.01 6442.38 77.08 8.00 375.40 2612.34
   10:03:04.600.09-Sep-2020 5480.01 6442.03 77.08 8.00 375.60 2612.34
   10:03:04.800.09-Sep-2020 5480.01 6441.50 77.08 8.00 375.80 2612.34
   10:03:05.000.09-Sep-2020 5480.01 6441.45 77.08 8.00 376.00 2612.34
   10:03:05.200.09-Sep-2020 5480.01 6441.45 77.08 8.00 376.20 2612.34
   10:03:05.400.09-Sep-2020 5480.01 6453.87 77.08 8.00 376.40 2612.34
   10:03:05.600.09-Sep-2020 5480.01 6434.93 77.08 8.00 376.60 2612.34
   10:03:05.800.09-Sep-2020 5480.01 6442.37 77.08 8.00 376.80 2612.34
   10:03:06.000.09-Sep-2020 5480.01 6443.50 77.09 8.00 377.00 2612.34
   10:03:06.200.09-Sep-2020 5480.01 6443.50 77.09 8.00 377.20 2612.34
   10:03:06.400.09-Sep-2020 5480.01 6443.86 77.09 8.00 377.40 2612.34
   10:03:06.600.09-Sep-2020 5480.01 6451.06 77.09 8.00 377.60 2612.34
   10:03:06.800.09-Sep-2020 5480.01 6438.01 77.09 8.00 377.80 2612.34
   10:03:07.000.09-Sep-2020 5480.01 6442.47 77.09 8.00 378.00 2612.34
   10:03:07.200.09-Sep-2020 5480.01 6442.47 77.09 8.00 378.20 2612.34
   10:03:07.400.09-Sep-2020 5480.01 6440.92 77.09 8.00 378.40 2612.34
   10:03:07.600.09-Sep-2020 5480.01 6442.48 77.09 8.00 378.60 2612.34
   10:03:07.800.09-Sep-2020 5480.01 6448.17 77.09 8.00 378.80 2612.34
   10:03:08.000.09-Sep-2020 5480.01 6441.47 77.09 8.00 379.00 2612.34
   10:03:08.200.09-Sep-2020 5480.01 6441.47 77.09 8.00 379.20 2612.34
   10:03:08.400.09-Sep-2020 5480.01 6447.01 77.09 8.00 379.40 2612.34
   10:03:08.600.09-Sep-2020 5480.01 6449.73 77.09 8.00 379.60 2612.34
   10:03:08.800.09-Sep-2020 5480.01 6438.15 77.09 8.00 379.80 2612.34
   10:03:09.000.09-Sep-2020 5480.01 6443.48 77.09 8.00 380.00 2612.34
   10:03:09.200.09-Sep-2020 5480.01 6443.48 77.09 8.00 380.20 2612.34
   10:03:09.400.09-Sep-2020 5480.01 6441.59 77.09 8.00 380.40 2612.34
   10:03:09.600.09-Sep-2020 5480.01 6443.23 77.08 8.00 380.60 2612.34
   10:03:09.800.09-Sep-2020 5480.01 6448.64 77.08 8.00 380.80 2612.34
   10:03:10.000.09-Sep-2020 5480.01 6442.23 77.08 8.00 381.00 2612.34
   10:03:10.200.09-Sep-2020 5480.01 6442.23 77.08 8.00 381.20 2612.34
   10:03:10.400.09-Sep-2020 5480.01 6447.51 77.08 8.00 381.40 2612.34
   10:03:10.600.09-Sep-2020 5480.01 6441.22 77.08 8.00 381.60 2612.34
   10:03:10.800.09-Sep-2020 5480.01 6443.25 77.08 8.00 381.80 2612.34
   10:03:11.000.09-Sep-2020 5480.01 6444.03 77.08 8.00 382.00 2612.34
   10:03:11.200.09-Sep-2020 5480.01 6444.03 77.08 8.00 382.20 2612.34
   10:03:11.400.09-Sep-2020 5480.01 6443.54 77.08 8.00 382.40 2612.34
   10:03:11.600.09-Sep-2020 5480.01 6443.05 77.08 8.00 382.60 2612.34
   10:03:11.800.09-Sep-2020 5480.01 6443.32 77.08 8.00 382.80 2612.34
   10:03:12.000.09-Sep-2020 5480.01 6443.58 77.08 8.00 383.00 2612.34
   10:03:12.200.09-Sep-2020 5480.01 6443.58 77.08 8.00 383.20 2612.34
   10:03:12.400.09-Sep-2020 5480.01 6442.63 77.08 8.00 383.40 2612.34
   10:03:12.600.09-Sep-2020 5480.01 6442.71 77.08 8.00 383.60 2612.34
   10:03:12.800.09-Sep-2020 5480.01 6442.66 77.08 8.00 383.80 2612.34
   10:03:13.000.09-Sep-2020 5480.01 6442.61 77.08 8.00 384.00 2612.34
   10:03:13.200.09-Sep-2020 5480.01 6442.61 77.08 8.00 384.20 2612.34
   10:03:13.400.09-Sep-2020 5480.01 6454.86 77.08 8.00 384.40 2612.34
   10:03:13.600.09-Sep-2020 5480.01 6435.63 77.08 8.00 384.60 2612.34
   10:03:13.800.09-Sep-2020 5480.01 6443.26 77.08 8.00 384.80 2612.34
   10:03:14.000.09-Sep-2020 5480.01 6444.32 77.08 8.00 385.00 2612.34
   10:03:14.200.09-Sep-2020 5480.01 6444.32 77.08 8.00 385.20 2612.34
   10:03:14.400.09-Sep-2020 5480.01 6444.42 77.08 8.00 385.40 2612.34
   10:03:14.600.09-Sep-2020 5480.01 6442.40 77.08 8.00 385.60 2612.34
   10:03:14.800.09-Sep-2020 5480.01 6443.22 77.08 8.00 385.80 2612.34
   10:03:15.000.09-Sep-2020 5480.01 6443.09 77.08 8.00 386.00 2612.34
   10:03:15.200.09-Sep-2020 5480.01 6443.09 77.08 8.00 386.20 2612.34
   10:03:15.400.09-Sep-2020 5480.01 6442.56 77.08 8.00 386.40 2612.34
   10:03:15.600.09-Sep-2020 5480.01 6442.37 77.08 8.00 386.60 2612.34
   10:03:15.800.09-Sep-2020 5480.01 6441.38 77.08 8.00 386.80 2612.34
   10:03:16.000.09-Sep-2020 5480.01 6441.30 77.08 8.00 387.00 2612.34
   10:03:16.200.09-Sep-2020 5480.01 6441.30 77.08 8.00 387.20 2612.34
   10:03:16.400.09-Sep-2020 5480.01 6441.02 77.08 8.00 387.40 2612.34
   10:03:16.600.09-Sep-2020 5480.01 6441.23 77.07 8.00 387.60 2612.34
   10:03:16.800.09-Sep-2020 5480.01 6446.61 77.07 8.00 387.80 2612.34
   10:03:17.000.09-Sep-2020 5480.01 6440.68 77.07 8.00 388.00 2612.34
   10:03:17.200.09-Sep-2020 5480.01 6440.68 77.07 8.00 388.20 2612.34
   10:03:17.400.09-Sep-2020 5480.01 6440.79 77.07 8.00 388.40 2612.34
   10:03:17.600.09-Sep-2020 5480.01 6444.25 77.07 8.00 388.60 2612.34
   10:03:17.800.09-Sep-2020 5480.01 6441.95 77.07 8.00 388.80 2612.34
   10:03:18.000.09-Sep-2020 5480.01 6452.62 77.07 8.00 389.00 2612.34
   10:03:18.200.09-Sep-2020 5480.01 6452.62 77.07 8.00 389.20 2612.34
   10:03:18.400.09-Sep-2020 5480.01 6442.14 77.07 8.00 389.40 2612.34
   10:03:18.600.09-Sep-2020 5480.01 6443.00 77.07 8.00 389.60 2612.34
   10:03:18.800.09-Sep-2020 5480.01 6442.35 77.07 8.00 389.80 2612.34
   10:03:19.000.09-Sep-2020 5480.01 6442.72 77.07 8.00 390.00 2612.34
   10:03:19.200.09-Sep-2020 5480.01 6442.72 77.07 8.00 390.20 2612.34
   10:03:19.400.09-Sep-2020 5480.01 6437.39 77.07 8.00 390.40 2612.34
   10:03:19.600.09-Sep-2020 5480.01 6442.25 77.07 8.00 390.60 2612.34
   10:03:19.800.09-Sep-2020 5480.01 6446.06 77.07 8.00 390.80 2612.34
