~Version Information
 VERS.                  2.0:   CWLS log ASCII Standard -VERSION 2.0
 WRAP.                   NO:   One line per depth step
~Well Information Block
#MNEM.UNIT     VALUE/NAME     DESCRIPTION
#---------     -----------    ---------------------------
 STRT.S             07:31:38 09-Sep-20: START TIME 07:31:38 09-Sep-20
 STOP.S             07:38:38 09-Sep-20: STOP TIME  07:38:38 09-Sep-20
 STEP.S                   0.00: STEP TIME
 NULL.                 -999.25: NULL VALUE
 MDS .        Operator Entered:  MAG DATA SOURCE
 PDAT.          Mean Sea Level:  PERMANENT DATUM
 DCON.         Sperry Drilling:  DIRECTNL CONTR
 RIG .              West Azeri:  RIG NAME
 WELL.           C40 (Slot 20):  WELL NAME
 SRVC.     Turan Drilling Engineering:  CONTRACTOR
 FLD .                     ACG:  FIELD NAME
 CTRY.              Azerbaijan:  COUNTRY NAME
 PROV.                    Baku:  PROVINCE
 STAT.                    Baku:  STATE NAME
 REGN.                   EESSA:  REGION
 BASE.              Azerbaijan:  LOGGING EQUIPMENT BASE LOCATION
 COMP.     BP Exploration (Caspian Sea) Ltd:  COMPANY
 WTYP.                Deviated:  WELL TYPE
 SON .        AZ-XX-0906344804:  JOB NUMBER
 FTOP.          Formation Tops:  FORM TOPS DESC
 ILTD.               Lithology:  INTERP LTH DESC
 SVYD.                  Survey:  SURVEY DESC
 DMOD.             Drill Model:  DRILL MOD DESC
 HPTY.       Minimum Curvature:  HOLE POS TYPE
 NREF.                    Grid:  NORTH REFERENCE
 SPUD.               01-Jan-20:  SPUD DATE
 DATE.      00.59.44 15-Sep-20:  END TIME
 STIM.      12.00.00 12-Jun-20:  START TIME
 DMF .             Drill Floor:  DRILL MEAS FROM
 DFST.                        :  DIST FSL TEXT
 DFWT.                        :  DIST FWL TEXT
 API .                        :  API NUMBER
 CNTY.                        :  COUNTY
 UWI .                        :  UNIQUE WELL IDENTIFIER
 LOC .                        :  LOCATION
 LMF .             Drill Floor:  LOG MEASURED FROM
 VSNS.m                   2.88:  VERT SEC N/S
 VSEW.m                  -3.84:  VERT SEC E/W
 AGAP.m                  43.42:  AIR GAP
 APD .m                  43.42:  DEPTH ABOVE PD
 WDMS.m                 118.27:  WD ELEV
 EGL .m                   0.00:  GROUND ELEVATION
 EPD .m                   0.00:  ELEVATION
 AZTC.deg                 6.23:  AZM TOTAL CORR
 GRDC.deg                 0.20:  GRID CORRECTION
 MDEC.deg                 6.43:  MAGNETIC DECL
 MDIP.deg                59.49:  MAGNETIC DIP
 MFLD.nT              50277.00:  MAGNETIC FIELD
 GVFD.g                   1.00:  GRAVITY FIELD
 VSDR.deg               173.20:  VERT SEC DIRECT
 TDD .m                5790.01:  TOTAL DEPTH (DRILLER)
 SDEP.m                5231.01:  START DEPTH
 DFSL.m                   0.00:  DISTANCE FSL
 DFWL.m                   0.00:  DISTANCE FWL
 UTMY.m             4435808.83:  UTM Y
 UTMX.m              526266.40:  UTM X
 WHEW.m                  -3.84:  WELL HEAD E/W
 WHNS.m                   2.88:  WELL HEAD N/S
 LONG.deg                51.31:  LONGITUDE
 LATI.deg                40.06:  LATITUDE
 TVDS.m                  43.42:  TVDSS CORRECTN
 DEP .m                 430.08:  DEPTH
 EKB .m                  43.42:  KB ELEVATION
 EDF .m                  43.42:  DF ELEVATION
 TDL .m                 559.00:  TOTAL DEPTH (LOGGER)
 MAGU.                 1849381:  MAGUTM CHECKSUM
 VSC .                       0:  VS TO CLOSURE
~Parameter Information Block
#MNEM.UNIT       Value        Description
#---------     -----------    ---------------------------
 AV  .mps                 4.87:  Ann Velocity 
 AVMX.mps                 7.08:  Max Ann Veloc 
 AZIF.deg               108.87:  Azm, Final 
 BHAT.                  Rotary:  BHA Type 
 BROT.°/30m               0.35:  Build Rotating 
 BS  .in                  8.50:  Bit Size 
 BSZ .in                  8.50:  Bit Size 
 BTPL.psig              360.00:  Bit Press Loss 
 CABU.                     Yes:  Customer Abuse 
 COMM.                     |L:  Run Comments 1 
 TCS .hr                106.24:  Time Ciculation Ended 
 CV  .mps                 1.77:  Crit Velocity 
 CVMX.mps                 2.03:  Max Crit Veloc 
 DD1 .         Aykhan Agagulov:  Direct Drillr 1 
 DD2 .            Nonso Okofor:  Direct Drillr 2 
 DDSV.               Geo-Pilot:  DD Service 
 DEFF.%                  98.00:  % Det Eff 
 DLRX.°/30m               0.50:  Dogleg Rot Max 
 DLSO.°/30m               0.40:  Dogleg Oriented 
 DLSX.°/30m               0.94:  Dogleg Str Max 
 DRET.      20.30.00 08-Sep-20:  Drill End Time 
 DRST.      22.15.00 06-Sep-20:  Drill Start Tim 
 DTIM.hr                 31.31:  Time Drilling 
 EDEP.m                5790.01:  End Depth 
 ENG1.           Amrah Tahirov:  Engineer 1 
 ENG2.         Dair Mahammadov:  Engineer 2 
 ENG3.           Emil Huseynov:  Engineer 3 
 ETIM.      04.01.04 12-Sep-20:  End Time 
 FLOI.gpm               450.00:  Flow In 
 FLON.gpm               450.00:  Flow In Min 
 FLOS.cptm                2.00:  Fluid Loss 
 FLOX.gpm               450.00:  Flow In Max 
 FTRO.       Formation Presure:  FTWD Run Obj 
 HFLO.                      No:  High Flow 
 HPRE.                      No:  High Pressure 
 HTEM.                      No:  High Temp 
 HYDO.m                   1.80:  Hydro Offset 
 IFIN.deg                72.03:  Inc, Final 
 IMAX.deg                73.72:  Inc Max 
 IMIN.deg                70.94:  Inc Min 
 IMND.m                5508.52:  Inc Min Depth 
 IMXD.m                5253.60:  Inc Max Depth 
 JARR.                      No:  Jarring 
 LETM.      20.30.00 08-Sep-20:  Log End Time 
 LOST.hr                     0:  Lost Rig Time 
 LSTM.      22.15.00 06-Sep-20:  Log Start Time 
 MDCL.ppm             36000.00:  Mud Chlorides 
 MDES.     Inversion Oil/Synthetic:  Mud Desc 
 DFD .sg                  1.44:  Mud Density 
 MDMN.sg                  1.44:  Dens Mud Min 
 MDMX.sg                  1.57:  Dens Mud Max 
 MOIL.                      70:  Run Mud Oil % 
 MOWR.                   70:30:  Run Mud OWR 
 MSND.                       0:  Run Mud Sand % 
 MSOL.                      21:  Run Mud Solids% 
 DFV .spqt               68.00:  Mud Viscosity 
 MWOD.in                  6.75:  MWD Tool OD 
 MWSI.                     Yes:  Serv Intrp, MWD 
 OTIM.hr                174.84:  Time Operating 
 PCON.           Look Like New:  Pad Condition 
 PMAX.psia            10616.93:  Press Op, Max 
 PV  .cP                 50.00:  Mud PV 
 RUN .                     700:  Run Number 
 ROPA.m/hr               14.24:  ROP Avg 
 ROPN.m/hr               10.00:  ROP Min 
 ROPX.m/hr               32.00:  ROP Max 
 RPMA.rpm               120.90:  RPM Surface Avg 
 RPMN.rpm               120.00:  RPM Surface Min 
 RPMX.rpm               140.00:  RPM Surface Max 
 RRUN.                    0700:  Rig Run Number 
 RTIM.hr                  3.20:  Time Reaming 
 SAZI.deg               109.99:  Azm, Start 
 SDEP.m                5231.01:  Start Depth 
 SIDD.                      No:  Serv Intrp, DD 
 SINC.deg                73.72:  Inc, Start 
 SPPA.psig             3051.00:  SPP Avg 
 SPPN.psig             2950.00:  SPP Min 
 SPPX.psig             3250.00:  SPP Max 
 STIM.      08.00.00 05-Sep-20:  Start Time 
 SVCS.                 DD, MWD:  Services 
 SVER.                    9.20:  Sperry Version 
 TDAT.m                 559.00:  Tot Depth Attmp 
 TDDF.                      No:  Trip for DD 
 TDLG.m                 559.00:  Tot Depth Loggd 
 TFF .                      No:  Trip for Fail 
 TQAA.f-kp               26.49:  Torque Abs Avg 
 TQAN.f-kp               25.00:  Torque Abs Min 
 TQAX.f-kp               27.00:  Torque Abs Max 
 TRRT.°/30m               1.50:  Turn Rotating 
 MRT .                    HCIM:  Maximum Recorded Temperature 
 TTMX.degC               90.20:  Max Tool Temp 
 VS01.                90542671:  Virtual Str1 SN 
 VS02.                90545185:  Virtual Str2 SN 
 VS03.                90602015:  Virtual Str3 SN 
 VS04.                90515230:  Virtual Str4 SN 
 WBMN.klb                 5.00:  WOB Min 
 WOBA.klb                14.79:  WOB Avg 
 WOBX.klb                20.00:  WOB Max 
 YP  .lhf2               29.00:  Yield Point 
~Curve Information Block
#MNEM.UNIT                 API CODE     Curve Description
#---------               -----------    ---------------------------
 TIME.HHMMSS            00 000 000 000:  GT Time & Date
 GTDEPTH.m              00 000 000 000:  GT Depth
 GTPQH.psia             00 000 000 000:  GT HR Quartz Pressure
 GTTQ.degC              00 000 000 000:  GT Quartz Temperature
 GTTN.NONE              00 000 000 000:  GT Test Number
 GTET.sec               00 000 000 000:  GT Elapsed Test Time
 GTTVD.m                00 000 000 000:  GT True Vertical Depth
#Other Information
#
#WARRANTY: Halliburton will use its best efforts to furnish customers with 
#accurate information and interpretations that are part of, and incident to, the services 
#provided.  However, Halliburton cannot and does not warrant the accuracy 
#or correctness of such information and interpretations.  Under no circumstances should any 
#such information or interpretation be relied upon as the sole basis for any drilling, 
#completion, production, or financial decision or any procedure involving any risk to the 
#safety of any drilling venture, drilling rig or its crew or any other third party.  The 
#Customer has full responsibility for all drilling, completion and production operation.  
#Halliburton makes no representations or warranties, either expressed or 
#implied, including, but not limited to, the implied warranties of merchantability or fitness 
#for a particular purpose, with respect to the services rendered.  In no event will 
#Halliburton be liable for failure to obtain any particular results or for 
#any damages, including, but not limited to, indirect, special or consequential damages, 
#resulting from the use of any information or interpretation provided by Halliburton.
#
~A           TIME           GTDEPTH  GTPQH  GTTQ  GTTN  GTET   GTTVD  
# ...
   07:33:56.344.09-Sep-2020 5569.01 3533.50 78.52 4.00 138.06 2640.81
   07:33:56.544.09-Sep-2020 5569.01 3533.50 78.52 4.00 138.26 2640.81
   07:33:56.744.09-Sep-2020 5569.01 3533.51 78.52 4.00 138.46 2640.81
   07:33:56.944.09-Sep-2020 5569.01 3533.50 78.52 4.00 138.66 2640.81
   07:33:57.144.09-Sep-2020 5569.01 3533.51 78.52 4.00 138.86 2640.81
   07:33:57.344.09-Sep-2020 5569.01 3533.51 78.52 4.00 139.06 2640.81
   07:33:57.544.09-Sep-2020 5569.01 3533.51 78.52 4.00 139.26 2640.81
   07:33:57.744.09-Sep-2020 5569.01 3533.51 78.52 4.00 139.46 2640.81
   07:33:57.945.09-Sep-2020 5569.01 3533.53 78.52 4.00 139.66 2640.81
   07:33:58.145.09-Sep-2020 5569.01 3533.49 78.52 4.00 139.86 2640.81
   07:33:58.345.09-Sep-2020 5569.01 3533.52 78.52 4.00 140.06 2640.81
   07:33:58.545.09-Sep-2020 5569.01 3533.52 78.52 4.00 140.26 2640.81
   07:33:58.745.09-Sep-2020 5569.01 3533.51 78.52 4.00 140.46 2640.81
   07:33:58.945.09-Sep-2020 5569.01 3533.50 78.52 4.00 140.66 2640.81
   07:33:59.145.09-Sep-2020 5569.01 3533.50 78.52 4.00 140.86 2640.81
   07:33:59.345.09-Sep-2020 5569.01 3533.51 78.52 4.00 141.06 2640.81
   07:33:59.545.09-Sep-2020 5569.01 3533.51 78.52 4.00 141.26 2640.81
   07:33:59.745.09-Sep-2020 5569.01 3533.51 78.52 4.00 141.46 2640.81
   07:33:59.945.09-Sep-2020 5569.01 3533.50 78.52 4.00 141.66 2640.81
   07:34:00.145.09-Sep-2020 5569.01 3533.51 78.52 4.00 141.86 2640.81
   07:34:00.346.09-Sep-2020 5569.01 3533.51 78.52 4.00 142.06 2640.81
   07:34:00.546.09-Sep-2020 5569.01 3533.51 78.52 4.00 142.26 2640.81
   07:34:00.746.09-Sep-2020 5569.01 3533.47 78.52 4.00 142.46 2640.81
   07:34:00.946.09-Sep-2020 5569.01 3533.55 78.52 4.00 142.66 2640.81
   07:34:01.146.09-Sep-2020 5569.01 3533.51 78.52 4.00 142.86 2640.81
   07:34:01.346.09-Sep-2020 5569.01 3533.53 78.52 4.00 143.06 2640.81
   07:34:01.546.09-Sep-2020 5569.01 3533.53 78.52 4.00 143.26 2640.81
   07:34:01.746.09-Sep-2020 5569.01 3533.51 78.52 4.00 143.46 2640.81
   07:34:01.946.09-Sep-2020 5569.01 3533.50 78.52 4.00 143.66 2640.81
   07:34:02.146.09-Sep-2020 5569.01 3533.53 78.52 4.00 143.86 2640.81
   07:34:02.346.09-Sep-2020 5569.01 3533.49 78.52 4.00 144.06 2640.81
   07:34:02.546.09-Sep-2020 5569.01 3533.49 78.52 4.00 144.26 2640.81
   07:34:02.746.09-Sep-2020 5569.01 3533.50 78.52 4.00 144.46 2640.81
   07:34:02.947.09-Sep-2020 5569.01 3533.51 78.52 4.00 144.66 2640.81
   07:34:03.147.09-Sep-2020 5569.01 3533.51 78.52 4.00 144.86 2640.81
   07:34:03.347.09-Sep-2020 5569.01 3533.51 78.52 4.00 145.06 2640.81
   07:34:03.547.09-Sep-2020 5569.01 3533.51 78.52 4.00 145.26 2640.81
   07:34:03.747.09-Sep-2020 5569.01 3533.53 78.52 4.00 145.46 2640.81
   07:34:03.947.09-Sep-2020 5569.01 3533.49 78.52 4.00 145.66 2640.81
   07:34:04.147.09-Sep-2020 5569.01 3533.53 78.52 4.00 145.86 2640.81
   07:34:04.347.09-Sep-2020 5569.01 3533.48 78.52 4.00 146.06 2640.81
   07:34:04.547.09-Sep-2020 5569.01 3533.48 78.52 4.00 146.26 2640.81
   07:34:04.747.09-Sep-2020 5569.01 3533.55 78.52 4.00 146.46 2640.81
   07:34:04.947.09-Sep-2020 5569.01 3533.51 78.52 4.00 146.66 2640.81
   07:34:05.147.09-Sep-2020 5569.01 3533.52 78.52 4.00 146.86 2640.81
   07:34:05.348.09-Sep-2020 5569.01 3533.50 78.52 4.00 147.06 2640.81
   07:34:05.548.09-Sep-2020 5569.01 3533.50 78.52 4.00 147.26 2640.81
   07:34:05.748.09-Sep-2020 5569.01 3533.51 78.52 4.00 147.46 2640.81
   07:34:05.948.09-Sep-2020 5569.01 3533.51 78.52 4.00 147.66 2640.81
   07:34:06.148.09-Sep-2020 5569.01 3533.50 78.52 4.00 147.86 2640.81
   07:34:06.348.09-Sep-2020 5569.01 3533.50 78.52 4.00 148.06 2640.81
   07:34:06.548.09-Sep-2020 5569.01 3533.50 78.52 4.00 148.26 2640.81
   07:34:06.748.09-Sep-2020 5569.01 3533.51 78.52 4.00 148.46 2640.81
   07:34:06.948.09-Sep-2020 5569.01 3533.51 78.52 4.00 148.66 2640.81
   07:34:07.148.09-Sep-2020 5569.01 3533.51 78.52 4.00 148.86 2640.81
   07:34:07.348.09-Sep-2020 5569.01 3533.51 78.52 4.00 149.06 2640.81
   07:34:07.548.09-Sep-2020 5569.01 3533.51 78.52 4.00 149.26 2640.81
   07:34:07.749.09-Sep-2020 5569.01 3526.02 78.52 4.00 149.46 2640.81
   07:34:07.949.09-Sep-2020 5569.01 3518.36 78.52 4.00 149.66 2640.81
   07:34:08.149.09-Sep-2020 5569.01 3517.70 78.52 4.00 149.86 2640.81
   07:34:08.349.09-Sep-2020 5569.01 3518.03 78.52 4.00 150.06 2640.81
   07:34:08.549.09-Sep-2020 5569.01 3518.03 78.52 4.00 150.26 2640.81
   07:34:08.749.09-Sep-2020 5569.01 3517.90 78.52 4.00 150.46 2640.81
   07:34:08.949.09-Sep-2020 5569.01 3517.69 78.52 4.00 150.66 2640.81
   07:34:09.149.09-Sep-2020 5569.01 3517.77 78.52 4.00 150.86 2640.81
   07:34:09.349.09-Sep-2020 5569.01 3517.66 78.52 4.00 151.06 2640.81
   07:34:09.549.09-Sep-2020 5569.01 3517.66 78.52 4.00 151.26 2640.81
   07:34:09.749.09-Sep-2020 5569.01 3517.97 78.52 4.00 151.46 2640.81
   07:34:09.949.09-Sep-2020 5569.01 3517.57 78.52 4.00 151.66 2640.81
   07:34:10.150.09-Sep-2020 5569.01 3517.79 78.52 4.00 151.86 2640.81
   07:34:10.350.09-Sep-2020 5569.01 3517.61 78.52 4.00 152.06 2640.81
   07:34:10.550.09-Sep-2020 5569.01 3517.61 78.52 4.00 152.26 2640.81
   07:34:10.750.09-Sep-2020 5569.01 3517.42 78.52 4.00 152.46 2640.81
   07:34:10.950.09-Sep-2020 5569.01 3517.40 78.52 4.00 152.66 2640.81
   07:34:11.150.09-Sep-2020 5569.01 3517.22 78.52 4.00 152.86 2640.81
   07:34:11.350.09-Sep-2020 5569.01 3516.71 78.52 4.00 153.06 2640.81
   07:34:11.550.09-Sep-2020 5569.01 3516.71 78.52 4.00 153.26 2640.81
   07:34:11.750.09-Sep-2020 5569.01 3516.84 78.52 4.00 153.46 2640.81
   07:34:11.950.09-Sep-2020 5569.01 3517.08 78.52 4.00 153.66 2640.81
   07:34:12.150.09-Sep-2020 5569.01 3516.90 78.52 4.00 153.86 2640.81
   07:34:12.350.09-Sep-2020 5569.01 3516.59 78.52 4.00 154.06 2640.81
   07:34:12.551.09-Sep-2020 5569.01 3516.59 78.52 4.00 154.26 2640.81
   07:34:12.751.09-Sep-2020 5569.01 3516.58 78.52 4.00 154.46 2640.81
   07:34:12.951.09-Sep-2020 5569.01 3516.84 78.52 4.00 154.66 2640.81
   07:34:13.151.09-Sep-2020 5569.01 3517.03 78.52 4.00 154.86 2640.81
   07:34:13.351.09-Sep-2020 5569.01 3516.42 78.52 4.00 155.06 2640.81
   07:34:13.551.09-Sep-2020 5569.01 3516.42 78.52 4.00 155.26 2640.81
   07:34:13.751.09-Sep-2020 5569.01 3516.53 78.52 4.00 155.46 2640.81
   07:34:13.951.09-Sep-2020 5569.01 3516.64 78.52 4.00 155.66 2640.81
   07:34:14.151.09-Sep-2020 5569.01 3516.54 78.52 4.00 155.86 2640.81
   07:34:14.351.09-Sep-2020 5569.01 3516.74 78.52 4.00 156.06 2640.81
   07:34:14.551.09-Sep-2020 5569.01 3516.74 78.52 4.00 156.26 2640.81
   07:34:14.751.09-Sep-2020 5569.01 3516.10 78.52 4.00 156.46 2640.81
   07:34:14.951.09-Sep-2020 5569.01 3515.80 78.52 4.00 156.66 2640.81
   07:34:15.152.09-Sep-2020 5569.01 3516.13 78.52 4.00 156.86 2640.81
   07:34:15.352.09-Sep-2020 5569.01 3516.65 78.52 4.00 157.06 2640.81
   07:34:15.552.09-Sep-2020 5569.01 3516.65 78.52 4.00 157.26 2640.81
   07:34:15.752.09-Sep-2020 5569.01 3516.07 78.52 4.00 157.46 2640.81
   07:34:15.952.09-Sep-2020 5569.01 3516.82 78.52 4.00 157.66 2640.81
   07:34:16.152.09-Sep-2020 5569.01 3516.36 78.52 4.00 157.86 2640.81
   07:34:16.352.09-Sep-2020 5569.01 3516.15 78.52 4.00 158.06 2640.81
   07:34:16.552.09-Sep-2020 5569.01 3516.15 78.52 4.00 158.26 2640.81
   07:34:16.752.09-Sep-2020 5569.01 3515.77 78.52 4.00 158.46 2640.81
   07:34:16.952.09-Sep-2020 5569.01 3516.51 78.52 4.00 158.66 2640.81
   07:34:17.152.09-Sep-2020 5569.01 3517.04 78.52 4.00 158.86 2640.81
   07:34:17.352.09-Sep-2020 5569.01 3516.21 78.52 4.00 159.07 2640.81
   07:34:17.553.09-Sep-2020 5569.01 3516.21 78.52 4.00 159.27 2640.81
   07:34:17.753.09-Sep-2020 5569.01 3516.13 78.52 4.00 159.47 2640.81
   07:34:17.953.09-Sep-2020 5569.01 3532.80 78.52 4.00 159.67 2640.81
   07:34:18.153.09-Sep-2020 5569.01 3533.39 78.52 4.00 159.87 2640.81
   07:34:18.353.09-Sep-2020 5569.01 3533.43 78.52 4.00 160.07 2640.81
   07:34:18.553.09-Sep-2020 5569.01 3533.43 78.52 4.00 160.27 2640.81
   07:34:18.753.09-Sep-2020 5569.01 3533.43 78.52 4.00 160.47 2640.81
   07:34:18.953.09-Sep-2020 5569.01 3533.42 78.52 4.00 160.67 2640.81
   07:34:19.153.09-Sep-2020 5569.01 3533.43 78.52 4.00 160.87 2640.81
