~Version Information
 VERS.                  2.0:   CWLS log ASCII Standard -VERSION 2.0
 WRAP.                   NO:   One line per depth step
~Well Information Block
#MNEM.UNIT     VALUE/NAME     DESCRIPTION
#---------     -----------    ---------------------------
 STRT.S             17:25:53 09-Sep-20: START TIME 17:25:53 09-Sep-20
 STOP.S             17:34:04 09-Sep-20: STOP TIME  17:34:04 09-Sep-20
 STEP.S                   0.00: STEP TIME
 NULL.                 -999.25: NULL VALUE
 MDS .        Operator Entered:  MAG DATA SOURCE
 PDAT.          Mean Sea Level:  PERMANENT DATUM
 DCON.         Sperry Drilling:  DIRECTNL CONTR
 RIG .              West Azeri:  RIG NAME
 WELL.           C40 (Slot 20):  WELL NAME
 SRVC.     Turan Drilling Engineering:  CONTRACTOR
 FLD .                     ACG:  FIELD NAME
 CTRY.              Azerbaijan:  COUNTRY NAME
 PROV.                    Baku:  PROVINCE
 STAT.                    Baku:  STATE NAME
 REGN.                   EESSA:  REGION
 BASE.              Azerbaijan:  LOGGING EQUIPMENT BASE LOCATION
 COMP.     BP Exploration (Caspian Sea) Ltd:  COMPANY
 WTYP.                Deviated:  WELL TYPE
 SON .        AZ-XX-0906344804:  JOB NUMBER
 FTOP.          Formation Tops:  FORM TOPS DESC
 ILTD.               Lithology:  INTERP LTH DESC
 SVYD.                  Survey:  SURVEY DESC
 DMOD.             Drill Model:  DRILL MOD DESC
 HPTY.       Minimum Curvature:  HOLE POS TYPE
 NREF.                    Grid:  NORTH REFERENCE
 SPUD.               01-Jan-20:  SPUD DATE
 DATE.      00.59.44 15-Sep-20:  END TIME
 STIM.      12.00.00 12-Jun-20:  START TIME
 DMF .             Drill Floor:  DRILL MEAS FROM
 DFST.                        :  DIST FSL TEXT
 DFWT.                        :  DIST FWL TEXT
 API .                        :  API NUMBER
 CNTY.                        :  COUNTY
 UWI .                        :  UNIQUE WELL IDENTIFIER
 LOC .                        :  LOCATION
 LMF .             Drill Floor:  LOG MEASURED FROM
 VSNS.m                   2.88:  VERT SEC N/S
 VSEW.m                  -3.84:  VERT SEC E/W
 AGAP.m                  43.42:  AIR GAP
 APD .m                  43.42:  DEPTH ABOVE PD
 WDMS.m                 118.27:  WD ELEV
 EGL .m                   0.00:  GROUND ELEVATION
 EPD .m                   0.00:  ELEVATION
 AZTC.deg                 6.23:  AZM TOTAL CORR
 GRDC.deg                 0.20:  GRID CORRECTION
 MDEC.deg                 6.43:  MAGNETIC DECL
 MDIP.deg                59.49:  MAGNETIC DIP
 MFLD.nT              50277.00:  MAGNETIC FIELD
 GVFD.g                   1.00:  GRAVITY FIELD
 VSDR.deg               173.20:  VERT SEC DIRECT
 TDD .m                5790.01:  TOTAL DEPTH (DRILLER)
 SDEP.m                5231.01:  START DEPTH
 DFSL.m                   0.00:  DISTANCE FSL
 DFWL.m                   0.00:  DISTANCE FWL
 UTMY.m             4435808.83:  UTM Y
 UTMX.m              526266.40:  UTM X
 WHEW.m                  -3.84:  WELL HEAD E/W
 WHNS.m                   2.88:  WELL HEAD N/S
 LONG.deg                51.31:  LONGITUDE
 LATI.deg                40.06:  LATITUDE
 TVDS.m                  43.42:  TVDSS CORRECTN
 DEP .m                 430.08:  DEPTH
 EKB .m                  43.42:  KB ELEVATION
 EDF .m                  43.42:  DF ELEVATION
 TDL .m                 559.00:  TOTAL DEPTH (LOGGER)
 MAGU.                 1849381:  MAGUTM CHECKSUM
 VSC .                       0:  VS TO CLOSURE
~Parameter Information Block
#MNEM.UNIT       Value        Description
#---------     -----------    ---------------------------
 AV  .mps                 4.87:  Ann Velocity 
 AVMX.mps                 7.08:  Max Ann Veloc 
 AZIF.deg               108.87:  Azm, Final 
 BHAT.                  Rotary:  BHA Type 
 BROT.°/30m               0.35:  Build Rotating 
 BS  .in                  8.50:  Bit Size 
 BSZ .in                  8.50:  Bit Size 
 BTPL.psig              360.00:  Bit Press Loss 
 CABU.                     Yes:  Customer Abuse 
 COMM.                     ô¸n:  Run Comments 1 
 TCS .hr                106.24:  Time Ciculation Ended 
 CV  .mps                 1.77:  Crit Velocity 
 CVMX.mps                 2.03:  Max Crit Veloc 
 DD1 .         Aykhan Agagulov:  Direct Drillr 1 
 DD2 .            Nonso Okofor:  Direct Drillr 2 
 DDSV.               Geo-Pilot:  DD Service 
 DEFF.%                  98.00:  % Det Eff 
 DLRX.°/30m               0.50:  Dogleg Rot Max 
 DLSO.°/30m               0.40:  Dogleg Oriented 
 DLSX.°/30m               0.94:  Dogleg Str Max 
 DRET.      20.30.00 08-Sep-20:  Drill End Time 
 DRST.      22.15.00 06-Sep-20:  Drill Start Tim 
 DTIM.hr                 31.31:  Time Drilling 
 EDEP.m                5790.01:  End Depth 
 ENG1.           Amrah Tahirov:  Engineer 1 
 ENG2.         Dair Mahammadov:  Engineer 2 
 ENG3.           Emil Huseynov:  Engineer 3 
 ETIM.      04.01.04 12-Sep-20:  End Time 
 FLOI.gpm               450.00:  Flow In 
 FLON.gpm               450.00:  Flow In Min 
 FLOS.cptm                2.00:  Fluid Loss 
 FLOX.gpm               450.00:  Flow In Max 
 FTRO.       Formation Presure:  FTWD Run Obj 
 HFLO.                      No:  High Flow 
 HPRE.                      No:  High Pressure 
 HTEM.                      No:  High Temp 
 HYDO.m                   1.80:  Hydro Offset 
 IFIN.deg                72.03:  Inc, Final 
 IMAX.deg                73.72:  Inc Max 
 IMIN.deg                70.94:  Inc Min 
 IMND.m                5508.52:  Inc Min Depth 
 IMXD.m                5253.60:  Inc Max Depth 
 JARR.                      No:  Jarring 
 LETM.      20.30.00 08-Sep-20:  Log End Time 
 LOST.hr                     0:  Lost Rig Time 
 LSTM.      22.15.00 06-Sep-20:  Log Start Time 
 MDCL.ppm             36000.00:  Mud Chlorides 
 MDES.     Inversion Oil/Synthetic:  Mud Desc 
 DFD .sg                  1.44:  Mud Density 
 MDMN.sg                  1.44:  Dens Mud Min 
 MDMX.sg                  1.57:  Dens Mud Max 
 MOIL.                      70:  Run Mud Oil % 
 MOWR.                   70:30:  Run Mud OWR 
 MSND.                       0:  Run Mud Sand % 
 MSOL.                      21:  Run Mud Solids% 
 DFV .spqt               68.00:  Mud Viscosity 
 MWOD.in                  6.75:  MWD Tool OD 
 MWSI.                     Yes:  Serv Intrp, MWD 
 OTIM.hr                174.84:  Time Operating 
 PCON.           Look Like New:  Pad Condition 
 PMAX.psia            10616.93:  Press Op, Max 
 PV  .cP                 50.00:  Mud PV 
 RUN .                     700:  Run Number 
 ROPA.m/hr               14.24:  ROP Avg 
 ROPN.m/hr               10.00:  ROP Min 
 ROPX.m/hr               32.00:  ROP Max 
 RPMA.rpm               120.90:  RPM Surface Avg 
 RPMN.rpm               120.00:  RPM Surface Min 
 RPMX.rpm               140.00:  RPM Surface Max 
 RRUN.                    0700:  Rig Run Number 
 RTIM.hr                  3.20:  Time Reaming 
 SAZI.deg               109.99:  Azm, Start 
 SDEP.m                5231.01:  Start Depth 
 SIDD.                      No:  Serv Intrp, DD 
 SINC.deg                73.72:  Inc, Start 
 SPPA.psig             3051.00:  SPP Avg 
 SPPN.psig             2950.00:  SPP Min 
 SPPX.psig             3250.00:  SPP Max 
 STIM.      08.00.00 05-Sep-20:  Start Time 
 SVCS.                 DD, MWD:  Services 
 SVER.                    9.20:  Sperry Version 
 TDAT.m                 559.00:  Tot Depth Attmp 
 TDDF.                      No:  Trip for DD 
 TDLG.m                 559.00:  Tot Depth Loggd 
 TFF .                      No:  Trip for Fail 
 TQAA.f-kp               26.49:  Torque Abs Avg 
 TQAN.f-kp               25.00:  Torque Abs Min 
 TQAX.f-kp               27.00:  Torque Abs Max 
 TRRT.°/30m               1.50:  Turn Rotating 
 MRT .                    HCIM:  Maximum Recorded Temperature 
 TTMX.degC               90.20:  Max Tool Temp 
 VS01.                90542671:  Virtual Str1 SN 
 VS02.                90545185:  Virtual Str2 SN 
 VS03.                90602015:  Virtual Str3 SN 
 VS04.                90515230:  Virtual Str4 SN 
 WBMN.klb                 5.00:  WOB Min 
 WOBA.klb                14.79:  WOB Avg 
 WOBX.klb                20.00:  WOB Max 
 YP  .lhf2               29.00:  Yield Point 
~Curve Information Block
#MNEM.UNIT                 API CODE     Curve Description
#---------               -----------    ---------------------------
 TIME.HHMMSS            00 000 000 000:  GT Time & Date
 GTDEPTH.m              00 000 000 000:  GT Depth
 GTPQH.psia             00 000 000 000:  GT HR Quartz Pressure
 GTTQ.degC              00 000 000 000:  GT Quartz Temperature
 GTTN.NONE              00 000 000 000:  GT Test Number
 GTET.sec               00 000 000 000:  GT Elapsed Test Time
 GTTVD.m                00 000 000 000:  GT True Vertical Depth
#Other Information
#
#WARRANTY: Halliburton will use its best efforts to furnish customers with 
#accurate information and interpretations that are part of, and incident to, the services 
#provided.  However, Halliburton cannot and does not warrant the accuracy 
#or correctness of such information and interpretations.  Under no circumstances should any 
#such information or interpretation be relied upon as the sole basis for any drilling, 
#completion, production, or financial decision or any procedure involving any risk to the 
#safety of any drilling venture, drilling rig or its crew or any other third party.  The 
#Customer has full responsibility for all drilling, completion and production operation.  
#Halliburton makes no representations or warranties, either expressed or 
#implied, including, but not limited to, the implied warranties of merchantability or fitness 
#for a particular purpose, with respect to the services rendered.  In no event will 
#Halliburton be liable for failure to obtain any particular results or for 
#any damages, including, but not limited to, indirect, special or consequential damages, 
#resulting from the use of any information or interpretation provided by Halliburton.
#
~A           TIME           GTDEPTH  GTPQH  GTTQ  GTTN   GTET   GTTVD  
# ...
   17:31:09.660.09-Sep-2020 5302.51  590.36 74.54 20.00 316.55 2556.93
   17:31:09.860.09-Sep-2020 5302.51  588.71 74.54 20.00 316.75 2556.93
   17:31:10.061.09-Sep-2020 5302.51  587.72 74.53 20.00 316.95 2556.93
   17:31:10.261.09-Sep-2020 5302.51  586.33 74.53 20.00 317.15 2556.93
   17:31:10.461.09-Sep-2020 5302.51  586.33 74.53 20.00 317.35 2556.93
   17:31:10.661.09-Sep-2020 5302.51  583.73 74.53 20.00 317.55 2556.93
   17:31:10.861.09-Sep-2020 5302.51  582.88 74.53 20.00 317.75 2556.93
   17:31:11.061.09-Sep-2020 5302.51  582.35 74.53 20.00 317.95 2556.93
   17:31:11.261.09-Sep-2020 5302.51  581.84 74.53 20.00 318.15 2556.93
   17:31:11.461.09-Sep-2020 5302.51  581.84 74.53 20.00 318.35 2556.93
   17:31:11.661.09-Sep-2020 5302.51  579.71 74.53 20.00 318.55 2556.93
   17:31:11.861.09-Sep-2020 5302.51  577.94 74.53 20.00 318.75 2556.93
   17:31:12.062.09-Sep-2020 5302.51  577.13 74.53 20.00 318.95 2556.93
   17:31:12.262.09-Sep-2020 5302.51  576.30 74.53 20.00 319.15 2556.93
   17:31:12.462.09-Sep-2020 5302.51  576.30 74.53 20.00 319.35 2556.93
   17:31:12.662.09-Sep-2020 5302.51  574.86 74.53 20.00 319.55 2556.93
   17:31:12.862.09-Sep-2020 5302.51  573.75 74.53 20.00 319.75 2556.93
   17:31:13.062.09-Sep-2020 5302.51  573.39 74.53 20.00 319.95 2556.93
   17:31:13.262.09-Sep-2020 5302.51  572.82 74.53 20.00 320.15 2556.93
   17:31:13.462.09-Sep-2020 5302.51  572.82 74.53 20.00 320.35 2556.93
   17:31:13.662.09-Sep-2020 5302.51  573.10 74.53 20.00 320.55 2556.93
   17:31:13.862.09-Sep-2020 5302.51  573.10 74.53 20.00 320.75 2556.93
   17:31:14.062.09-Sep-2020 5302.51  572.98 74.53 20.00 320.95 2556.93
   17:31:14.263.09-Sep-2020 5302.51  572.54 74.53 20.00 321.15 2556.93
   17:31:14.463.09-Sep-2020 5302.51  572.54 74.53 20.00 321.35 2556.93
   17:31:14.663.09-Sep-2020 5302.51  571.01 74.53 20.00 321.55 2556.93
   17:31:14.863.09-Sep-2020 5302.51  570.93 74.53 20.00 321.75 2556.93
   17:31:15.063.09-Sep-2020 5302.51  570.85 74.53 20.00 321.95 2556.93
   17:31:15.263.09-Sep-2020 5302.51  571.25 74.53 20.00 322.15 2556.93
   17:31:15.463.09-Sep-2020 5302.51  571.25 74.53 20.00 322.35 2556.93
   17:31:15.663.09-Sep-2020 5302.51  573.61 74.53 20.00 322.55 2556.93
   17:31:15.863.09-Sep-2020 5302.51  573.87 74.53 20.00 322.75 2556.93
   17:31:16.063.09-Sep-2020 5302.51  574.04 74.53 20.00 322.95 2556.93
   17:31:16.264.09-Sep-2020 5302.51  574.09 74.53 20.00 323.15 2556.93
   17:31:16.464.09-Sep-2020 5302.51  574.09 74.53 20.00 323.35 2556.93
   17:31:16.664.09-Sep-2020 5302.51  574.63 74.53 20.00 323.56 2556.93
   17:31:16.864.09-Sep-2020 5302.51  574.88 74.53 20.00 323.76 2556.93
   17:31:17.064.09-Sep-2020 5302.51  575.13 74.53 20.00 323.96 2556.93
   17:31:17.264.09-Sep-2020 5302.51  575.38 74.53 20.00 324.16 2556.93
   17:31:17.464.09-Sep-2020 5302.51  575.38 74.53 20.00 324.36 2556.93
   17:31:17.664.09-Sep-2020 5302.51  575.54 74.53 20.00 324.56 2556.93
   17:31:17.864.09-Sep-2020 5302.51  575.59 74.53 20.00 324.76 2556.93
   17:31:18.064.09-Sep-2020 5302.51  575.87 74.53 20.00 324.96 2556.93
   17:31:18.264.09-Sep-2020 5302.51  576.20 74.53 20.00 325.16 2556.93
   17:31:18.465.09-Sep-2020 5302.51  576.20 74.53 20.00 325.36 2556.93
   17:31:18.665.09-Sep-2020 5302.51  576.57 74.53 20.00 325.56 2556.93
   17:31:18.865.09-Sep-2020 5302.51  576.93 74.53 20.00 325.76 2556.93
   17:31:19.065.09-Sep-2020 5302.51  576.98 74.53 20.00 325.96 2556.93
   17:31:19.265.09-Sep-2020 5302.51  577.25 74.53 20.00 326.16 2556.93
   17:31:19.465.09-Sep-2020 5302.51  577.25 74.53 20.00 326.36 2556.93
   17:31:19.665.09-Sep-2020 5302.51  577.71 74.53 20.00 326.56 2556.93
   17:31:19.865.09-Sep-2020 5302.51  577.93 74.53 20.00 326.76 2556.93
   17:31:20.065.09-Sep-2020 5302.51  578.11 74.53 20.00 326.96 2556.93
   17:31:20.265.09-Sep-2020 5302.51  578.30 74.53 20.00 327.16 2556.93
   17:31:20.466.09-Sep-2020 5302.51  578.30 74.53 20.00 327.36 2556.93
   17:31:20.666.09-Sep-2020 5302.51  578.75 74.53 20.00 327.56 2556.93
   17:31:20.866.09-Sep-2020 5302.51  578.96 74.53 20.00 327.76 2556.93
   17:31:21.066.09-Sep-2020 5302.51  579.00 74.53 20.00 327.96 2556.93
   17:31:21.266.09-Sep-2020 5302.51  578.45 74.53 20.00 328.16 2556.93
   17:31:21.466.09-Sep-2020 5302.51  578.45 74.53 20.00 328.36 2556.93
   17:31:21.666.09-Sep-2020 5302.51  578.83 74.53 20.00 328.56 2556.93
   17:31:21.866.09-Sep-2020 5302.51  578.99 74.53 20.00 328.76 2556.93
   17:31:22.066.09-Sep-2020 5302.51  579.35 74.53 20.00 328.96 2556.93
   17:31:22.266.09-Sep-2020 5302.51  578.64 74.53 20.00 329.16 2556.93
   17:31:22.466.09-Sep-2020 5302.51  578.64 74.53 20.00 329.36 2556.93
   17:31:22.667.09-Sep-2020 5302.51  579.37 74.53 20.00 329.56 2556.93
   17:31:22.867.09-Sep-2020 5302.51  579.48 74.53 20.00 329.76 2556.93
   17:31:23.067.09-Sep-2020 5302.51  579.41 74.53 20.00 329.96 2556.93
   17:31:23.267.09-Sep-2020 5302.51  579.30 74.53 20.00 330.16 2556.93
   17:31:23.467.09-Sep-2020 5302.51  579.30 74.53 20.00 330.36 2556.93
   17:31:23.667.09-Sep-2020 5302.51  579.89 74.53 20.00 330.56 2556.93
   17:31:23.867.09-Sep-2020 5302.51  580.02 74.53 20.00 330.76 2556.93
   17:31:24.067.09-Sep-2020 5302.51  580.33 74.53 20.00 330.96 2556.93
   17:31:24.267.09-Sep-2020 5302.51  580.38 74.53 20.00 331.16 2556.93
   17:31:24.467.09-Sep-2020 5302.51  580.38 74.53 20.00 331.36 2556.93
   17:31:24.668.09-Sep-2020 5302.51  580.74 74.53 20.00 331.56 2556.93
   17:31:24.868.09-Sep-2020 5302.51  580.65 74.53 20.00 331.76 2556.93
   17:31:25.068.09-Sep-2020 5302.51  580.83 74.53 20.00 331.96 2556.93
   17:31:25.268.09-Sep-2020 5302.51  580.98 74.53 20.00 332.16 2556.93
   17:31:25.468.09-Sep-2020 5302.51  580.98 74.53 20.00 332.36 2556.93
   17:31:25.668.09-Sep-2020 5302.51  581.25 74.53 20.00 332.56 2556.93
   17:31:25.868.09-Sep-2020 5302.51  580.96 74.53 20.00 332.76 2556.93
   17:31:26.068.09-Sep-2020 5302.51  581.56 74.53 20.00 332.96 2556.93
   17:31:26.268.09-Sep-2020 5302.51  581.68 74.53 20.00 333.16 2556.93
   17:31:26.468.09-Sep-2020 5302.51  581.68 74.53 20.00 333.36 2556.93
   17:31:26.669.09-Sep-2020 5302.51  582.19 74.53 20.00 333.56 2556.93
   17:31:26.869.09-Sep-2020 5302.51  582.24 74.53 20.00 333.76 2556.93
   17:31:27.069.09-Sep-2020 5302.51  582.45 74.53 20.00 333.96 2556.93
   17:31:27.269.09-Sep-2020 5302.51  582.60 74.53 20.00 334.16 2556.93
   17:31:27.469.09-Sep-2020 5302.51  582.60 74.53 20.00 334.36 2556.93
   17:31:27.669.09-Sep-2020 5302.51  582.94 74.53 20.00 334.56 2556.93
   17:31:27.869.09-Sep-2020 5302.51  583.09 74.53 20.00 334.76 2556.93
   17:31:28.069.09-Sep-2020 5302.51  583.23 74.53 20.00 334.96 2556.93
   17:31:28.269.09-Sep-2020 5302.51  583.40 74.53 20.00 335.16 2556.93
   17:31:28.469.09-Sep-2020 5302.51  583.40 74.53 20.00 335.36 2556.93
   17:31:28.669.09-Sep-2020 5302.51  583.76 74.53 20.00 335.56 2556.93
   17:31:28.870.09-Sep-2020 5302.51  583.94 74.53 20.00 335.76 2556.93
   17:31:29.070.09-Sep-2020 5302.51  584.07 74.53 20.00 335.96 2556.93
   17:31:29.270.09-Sep-2020 5302.51  584.22 74.53 20.00 336.16 2556.93
   17:31:29.470.09-Sep-2020 5302.51  583.71 74.53 20.00 336.36 2556.93
   17:31:29.670.09-Sep-2020 5302.51  584.19 74.53 20.00 336.56 2556.93
   17:31:29.870.09-Sep-2020 5302.51  584.37 74.53 20.00 336.76 2556.93
   17:31:30.070.09-Sep-2020 5302.51  584.49 74.53 20.00 336.96 2556.93
   17:31:30.270.09-Sep-2020 5302.51  584.79 74.53 20.00 337.16 2556.93
   17:31:30.470.09-Sep-2020 5302.51  584.79 74.53 20.00 337.36 2556.93
   17:31:30.670.09-Sep-2020 5302.51  585.03 74.53 20.00 337.56 2556.93
   17:31:30.871.09-Sep-2020 5302.51  585.15 74.53 20.00 337.76 2556.93
   17:31:31.071.09-Sep-2020 5302.51  585.28 74.53 20.00 337.96 2556.93
   17:31:31.271.09-Sep-2020 5302.51  585.37 74.53 20.00 338.16 2556.93
   17:31:31.471.09-Sep-2020 5302.51  585.37 74.53 20.00 338.36 2556.93
   17:31:31.671.09-Sep-2020 5302.51  585.73 74.53 20.00 338.56 2556.93
   17:31:31.871.09-Sep-2020 5302.51  585.91 74.53 20.00 338.76 2556.93
   17:31:32.071.09-Sep-2020 5302.51  586.04 74.53 20.00 338.96 2556.93
