~Version Information
 VERS.                  2.0:   CWLS log ASCII Standard -VERSION 2.0
 WRAP.                   NO:   One line per depth step
~Well Information Block
#MNEM.UNIT     VALUE/NAME     DESCRIPTION
#---------     -----------    ---------------------------
 STRT.S             16:52:14 09-Sep-20: START TIME 16:52:14 09-Sep-20
 STOP.S             17:00:39 09-Sep-20: STOP TIME  17:00:39 09-Sep-20
 STEP.S                   0.00: STEP TIME
 NULL.                 -999.25: NULL VALUE
 MDS .        Operator Entered:  MAG DATA SOURCE
 PDAT.          Mean Sea Level:  PERMANENT DATUM
 DCON.         Sperry Drilling:  DIRECTNL CONTR
 RIG .              West Azeri:  RIG NAME
 WELL.           C40 (Slot 20):  WELL NAME
 SRVC.     Turan Drilling Engineering:  CONTRACTOR
 FLD .                     ACG:  FIELD NAME
 CTRY.              Azerbaijan:  COUNTRY NAME
 PROV.                    Baku:  PROVINCE
 STAT.                    Baku:  STATE NAME
 REGN.                   EESSA:  REGION
 BASE.              Azerbaijan:  LOGGING EQUIPMENT BASE LOCATION
 COMP.     BP Exploration (Caspian Sea) Ltd:  COMPANY
 WTYP.                Deviated:  WELL TYPE
 SON .        AZ-XX-0906344804:  JOB NUMBER
 FTOP.          Formation Tops:  FORM TOPS DESC
 ILTD.               Lithology:  INTERP LTH DESC
 SVYD.                  Survey:  SURVEY DESC
 DMOD.             Drill Model:  DRILL MOD DESC
 HPTY.       Minimum Curvature:  HOLE POS TYPE
 NREF.                    Grid:  NORTH REFERENCE
 SPUD.               01-Jan-20:  SPUD DATE
 DATE.      00.59.44 15-Sep-20:  END TIME
 STIM.      12.00.00 12-Jun-20:  START TIME
 DMF .             Drill Floor:  DRILL MEAS FROM
 DFST.                        :  DIST FSL TEXT
 DFWT.                        :  DIST FWL TEXT
 API .                        :  API NUMBER
 CNTY.                        :  COUNTY
 UWI .                        :  UNIQUE WELL IDENTIFIER
 LOC .                        :  LOCATION
 LMF .             Drill Floor:  LOG MEASURED FROM
 VSNS.m                   2.88:  VERT SEC N/S
 VSEW.m                  -3.84:  VERT SEC E/W
 AGAP.m                  43.42:  AIR GAP
 APD .m                  43.42:  DEPTH ABOVE PD
 WDMS.m                 118.27:  WD ELEV
 EGL .m                   0.00:  GROUND ELEVATION
 EPD .m                   0.00:  ELEVATION
 AZTC.deg                 6.23:  AZM TOTAL CORR
 GRDC.deg                 0.20:  GRID CORRECTION
 MDEC.deg                 6.43:  MAGNETIC DECL
 MDIP.deg                59.49:  MAGNETIC DIP
 MFLD.nT              50277.00:  MAGNETIC FIELD
 GVFD.g                   1.00:  GRAVITY FIELD
 VSDR.deg               173.20:  VERT SEC DIRECT
 TDD .m                5790.01:  TOTAL DEPTH (DRILLER)
 SDEP.m                5231.01:  START DEPTH
 DFSL.m                   0.00:  DISTANCE FSL
 DFWL.m                   0.00:  DISTANCE FWL
 UTMY.m             4435808.83:  UTM Y
 UTMX.m              526266.40:  UTM X
 WHEW.m                  -3.84:  WELL HEAD E/W
 WHNS.m                   2.88:  WELL HEAD N/S
 LONG.deg                51.31:  LONGITUDE
 LATI.deg                40.06:  LATITUDE
 TVDS.m                  43.42:  TVDSS CORRECTN
 DEP .m                 430.08:  DEPTH
 EKB .m                  43.42:  KB ELEVATION
 EDF .m                  43.42:  DF ELEVATION
 TDL .m                 559.00:  TOTAL DEPTH (LOGGER)
 MAGU.                 1849381:  MAGUTM CHECKSUM
 VSC .                       0:  VS TO CLOSURE
~Parameter Information Block
#MNEM.UNIT       Value        Description
#---------     -----------    ---------------------------
 AV  .mps                 4.87:  Ann Velocity 
 AVMX.mps                 7.08:  Max Ann Veloc 
 AZIF.deg               108.87:  Azm, Final 
 BHAT.                  Rotary:  BHA Type 
 BROT.°/30m               0.35:  Build Rotating 
 BS  .in                  8.50:  Bit Size 
 BSZ .in                  8.50:  Bit Size 
 BTPL.psig              360.00:  Bit Press Loss 
 CABU.                     Yes:  Customer Abuse 
 TCS .hr                106.24:  Time Ciculation Ended 
 CV  .mps                 1.77:  Crit Velocity 
 CVMX.mps                 2.03:  Max Crit Veloc 
 DD1 .         Aykhan Agagulov:  Direct Drillr 1 
 DD2 .            Nonso Okofor:  Direct Drillr 2 
 DDSV.               Geo-Pilot:  DD Service 
 DEFF.%                  98.00:  % Det Eff 
 DLRX.°/30m               0.50:  Dogleg Rot Max 
 DLSO.°/30m               0.40:  Dogleg Oriented 
 DLSX.°/30m               0.94:  Dogleg Str Max 
 DRET.      20.30.00 08-Sep-20:  Drill End Time 
 DRST.      22.15.00 06-Sep-20:  Drill Start Tim 
 DTIM.hr                 31.31:  Time Drilling 
 EDEP.m                5790.01:  End Depth 
 ENG1.           Amrah Tahirov:  Engineer 1 
 ENG2.         Dair Mahammadov:  Engineer 2 
 ENG3.           Emil Huseynov:  Engineer 3 
 ETIM.      04.01.04 12-Sep-20:  End Time 
 FLOI.gpm               450.00:  Flow In 
 FLON.gpm               450.00:  Flow In Min 
 FLOS.cptm                2.00:  Fluid Loss 
 FLOX.gpm               450.00:  Flow In Max 
 FTRO.       Formation Presure:  FTWD Run Obj 
 HFLO.                      No:  High Flow 
 HPRE.                      No:  High Pressure 
 HTEM.                      No:  High Temp 
 HYDO.m                   1.80:  Hydro Offset 
 IFIN.deg                72.03:  Inc, Final 
 IMAX.deg                73.72:  Inc Max 
 IMIN.deg                70.94:  Inc Min 
 IMND.m                5508.52:  Inc Min Depth 
 IMXD.m                5253.60:  Inc Max Depth 
 JARR.                      No:  Jarring 
 LETM.      20.30.00 08-Sep-20:  Log End Time 
 LOST.hr                     0:  Lost Rig Time 
 LSTM.      22.15.00 06-Sep-20:  Log Start Time 
 MDCL.ppm             36000.00:  Mud Chlorides 
 MDES.     Inversion Oil/Synthetic:  Mud Desc 
 DFD .sg                  1.44:  Mud Density 
 MDMN.sg                  1.44:  Dens Mud Min 
 MDMX.sg                  1.57:  Dens Mud Max 
 MOIL.                      70:  Run Mud Oil % 
 MOWR.                   70:30:  Run Mud OWR 
 MSND.                       0:  Run Mud Sand % 
 MSOL.                      21:  Run Mud Solids% 
 DFV .spqt               68.00:  Mud Viscosity 
 MWOD.in                  6.75:  MWD Tool OD 
 MWSI.                     Yes:  Serv Intrp, MWD 
 OTIM.hr                174.84:  Time Operating 
 PCON.           Look Like New:  Pad Condition 
 PMAX.psia            10616.93:  Press Op, Max 
 PV  .cP                 50.00:  Mud PV 
 RUN .                     700:  Run Number 
 ROPA.m/hr               14.24:  ROP Avg 
 ROPN.m/hr               10.00:  ROP Min 
 ROPX.m/hr               32.00:  ROP Max 
 RPMA.rpm               120.90:  RPM Surface Avg 
 RPMN.rpm               120.00:  RPM Surface Min 
 RPMX.rpm               140.00:  RPM Surface Max 
 RRUN.                    0700:  Rig Run Number 
 RTIM.hr                  3.20:  Time Reaming 
 SAZI.deg               109.99:  Azm, Start 
 SDEP.m                5231.01:  Start Depth 
 SIDD.                      No:  Serv Intrp, DD 
 SINC.deg                73.72:  Inc, Start 
 SPPA.psig             3051.00:  SPP Avg 
 SPPN.psig             2950.00:  SPP Min 
 SPPX.psig             3250.00:  SPP Max 
 STIM.      08.00.00 05-Sep-20:  Start Time 
 SVCS.                 DD, MWD:  Services 
 SVER.                    9.20:  Sperry Version 
 TDAT.m                 559.00:  Tot Depth Attmp 
 TDDF.                      No:  Trip for DD 
 TDLG.m                 559.00:  Tot Depth Loggd 
 TFF .                      No:  Trip for Fail 
 TQAA.f-kp               26.49:  Torque Abs Avg 
 TQAN.f-kp               25.00:  Torque Abs Min 
 TQAX.f-kp               27.00:  Torque Abs Max 
 TRRT.°/30m               1.50:  Turn Rotating 
 MRT .                    HCIM:  Maximum Recorded Temperature 
 TTMX.degC               90.20:  Max Tool Temp 
 VS01.                90542671:  Virtual Str1 SN 
 VS02.                90545185:  Virtual Str2 SN 
 VS03.                90602015:  Virtual Str3 SN 
 VS04.                90515230:  Virtual Str4 SN 
 WBMN.klb                 5.00:  WOB Min 
 WOBA.klb                14.79:  WOB Avg 
 WOBX.klb                20.00:  WOB Max 
 YP  .lhf2               29.00:  Yield Point 
~Curve Information Block
#MNEM.UNIT                 API CODE     Curve Description
#---------               -----------    ---------------------------
 TIME.HHMMSS            00 000 000 000:  GT Time & Date
 GTDEPTH.m              00 000 000 000:  GT Depth
 GTPQH.psia             00 000 000 000:  GT HR Quartz Pressure
 GTTQ.degC              00 000 000 000:  GT Quartz Temperature
 GTTN.NONE              00 000 000 000:  GT Test Number
 GTET.sec               00 000 000 000:  GT Elapsed Test Time
 GTTVD.m                00 000 000 000:  GT True Vertical Depth
#Other Information
#
#WARRANTY: Halliburton will use its best efforts to furnish customers with 
#accurate information and interpretations that are part of, and incident to, the services 
#provided.  However, Halliburton cannot and does not warrant the accuracy 
#or correctness of such information and interpretations.  Under no circumstances should any 
#such information or interpretation be relied upon as the sole basis for any drilling, 
#completion, production, or financial decision or any procedure involving any risk to the 
#safety of any drilling venture, drilling rig or its crew or any other third party.  The 
#Customer has full responsibility for all drilling, completion and production operation.  
#Halliburton makes no representations or warranties, either expressed or 
#implied, including, but not limited to, the implied warranties of merchantability or fitness 
#for a particular purpose, with respect to the services rendered.  In no event will 
#Halliburton be liable for failure to obtain any particular results or for 
#any damages, including, but not limited to, indirect, special or consequential damages, 
#resulting from the use of any information or interpretation provided by Halliburton.
#
~A           TIME           GTDEPTH  GTPQH  GTTQ  GTTN   GTET   GTTVD  
# ...
   16:53:44.584.09-Sep-2020 5303.01 6300.84 74.72 19.00  90.44 2557.08
   16:53:44.785.09-Sep-2020 5303.01 6297.80 74.72 19.00  90.64 2557.08
   16:53:44.985.09-Sep-2020 5303.01 6295.25 74.72 19.00  90.84 2557.08
   16:53:45.185.09-Sep-2020 5303.01 6296.97 74.72 19.00  91.04 2557.08
   16:53:45.385.09-Sep-2020 5303.01 6296.97 74.72 19.00  91.24 2557.08
   16:53:45.585.09-Sep-2020 5303.01 6296.51 74.72 19.00  91.44 2557.08
   16:53:45.785.09-Sep-2020 5303.01 6295.76 74.72 19.00  91.64 2557.08
   16:53:45.985.09-Sep-2020 5303.01 6307.19 74.72 19.00  91.84 2557.08
   16:53:46.185.09-Sep-2020 5303.01 6293.99 74.72 19.00  92.04 2557.08
   16:53:46.385.09-Sep-2020 5303.01 6293.99 74.72 19.00  92.24 2557.08
   16:53:46.585.09-Sep-2020 5303.01 6297.50 74.72 19.00  92.44 2557.08
   16:53:46.786.09-Sep-2020 5303.01 6296.94 74.72 19.00  92.64 2557.08
   16:53:46.986.09-Sep-2020 5303.01 6308.32 74.72 19.00  92.84 2557.08
   16:53:47.186.09-Sep-2020 5303.01 6294.91 74.72 19.00  93.04 2557.08
   16:53:47.386.09-Sep-2020 5303.01 6294.91 74.72 19.00  93.24 2557.08
   16:53:47.586.09-Sep-2020 5303.01 6298.77 74.72 19.00  93.44 2557.08
   16:53:47.786.09-Sep-2020 5303.01 6298.54 74.72 19.00  93.64 2557.08
   16:53:47.986.09-Sep-2020 5303.01 6299.18 74.72 19.00  93.84 2557.08
   16:53:48.186.09-Sep-2020 5303.01 6298.38 74.72 19.00  94.05 2557.08
   16:53:48.386.09-Sep-2020 5303.01 6298.38 74.72 19.00  94.25 2557.08
   16:53:48.586.09-Sep-2020 5303.01 6307.70 74.72 19.00  94.45 2557.08
   16:53:48.786.09-Sep-2020 5303.01 6298.31 74.72 19.00  94.65 2557.08
   16:53:48.987.09-Sep-2020 5303.01 6298.72 74.72 19.00  94.85 2557.08
   16:53:49.187.09-Sep-2020 5303.01 6299.98 74.72 19.00  95.05 2557.08
   16:53:49.387.09-Sep-2020 5303.01 6299.98 74.72 19.00  95.25 2557.08
   16:53:49.587.09-Sep-2020 5303.01 6300.54 74.72 19.00  95.45 2557.08
   16:53:49.787.09-Sep-2020 5303.01 6300.26 74.72 19.00  95.65 2557.08
   16:53:49.987.09-Sep-2020 5303.01 6299.89 74.72 19.00  95.85 2557.08
   16:53:50.187.09-Sep-2020 5303.01 6299.70 74.72 19.00  96.05 2557.08
   16:53:50.387.09-Sep-2020 5303.01 6299.70 74.72 19.00  96.25 2557.08
   16:53:50.587.09-Sep-2020 5303.01 6299.59 74.72 19.00  96.45 2557.08
   16:53:50.787.09-Sep-2020 5303.01 6299.78 74.72 19.00  96.65 2557.08
   16:53:50.988.09-Sep-2020 5303.01 6300.02 74.72 19.00  96.85 2557.08
   16:53:51.188.09-Sep-2020 5303.01 6300.20 74.72 19.00  97.05 2557.08
   16:53:51.388.09-Sep-2020 5303.01 6300.20 74.72 19.00  97.25 2557.08
   16:53:51.588.09-Sep-2020 5303.01 6300.48 74.72 19.00  97.45 2557.08
   16:53:51.788.09-Sep-2020 5303.01 6300.44 74.72 19.00  97.65 2557.08
   16:53:51.988.09-Sep-2020 5303.01 6300.59 74.72 19.00  97.85 2557.08
   16:53:52.188.09-Sep-2020 5303.01 6305.62 74.72 19.00  98.05 2557.08
   16:53:52.388.09-Sep-2020 5303.01 6305.62 74.72 19.00  98.25 2557.08
   16:53:52.588.09-Sep-2020 5303.01 6300.41 74.72 19.00  98.45 2557.08
   16:53:52.788.09-Sep-2020 5303.01 6302.14 74.72 19.00  98.65 2557.08
   16:53:52.988.09-Sep-2020 5303.01 6301.68 74.72 19.00  98.85 2557.08
   16:53:53.189.09-Sep-2020 5303.01 6302.00 74.72 19.00  99.05 2557.08
   16:53:53.389.09-Sep-2020 5303.01 6302.00 74.72 19.00  99.25 2557.08
   16:53:53.589.09-Sep-2020 5303.01 6300.72 74.72 19.00  99.45 2557.08
   16:53:53.789.09-Sep-2020 5303.01 6300.46 74.72 19.00  99.65 2557.08
   16:53:53.989.09-Sep-2020 5303.01 6300.52 74.72 19.00  99.85 2557.08
   16:53:54.189.09-Sep-2020 5303.01 6300.77 74.72 19.00 100.05 2557.08
   16:53:54.389.09-Sep-2020 5303.01 6300.77 74.72 19.00 100.25 2557.08
   16:53:54.589.09-Sep-2020 5303.01 6301.14 74.72 19.00 100.45 2557.08
   16:53:54.789.09-Sep-2020 5303.01 6300.57 74.72 19.00 100.65 2557.08
   16:53:54.989.09-Sep-2020 5303.01 6300.67 74.72 19.00 100.85 2557.08
   16:53:55.190.09-Sep-2020 5303.01 6300.70 74.72 19.00 101.05 2557.08
   16:53:55.390.09-Sep-2020 5303.01 6300.70 74.72 19.00 101.25 2557.08
   16:53:55.590.09-Sep-2020 5303.01 6306.51 74.72 19.00 101.45 2557.08
   16:53:55.790.09-Sep-2020 5303.01 6303.62 74.72 19.00 101.65 2557.08
   16:53:55.990.09-Sep-2020 5303.01 6301.02 74.72 19.00 101.85 2557.08
   16:53:56.190.09-Sep-2020 5303.01 6302.35 74.72 19.00 102.05 2557.08
   16:53:56.390.09-Sep-2020 5303.01 6302.35 74.72 19.00 102.25 2557.08
   16:53:56.590.09-Sep-2020 5303.01 6302.27 74.72 19.00 102.45 2557.08
   16:53:56.790.09-Sep-2020 5303.01 6312.15 74.72 19.00 102.65 2557.08
   16:53:56.990.09-Sep-2020 5303.01 6299.07 74.72 19.00 102.85 2557.08
   16:53:57.190.09-Sep-2020 5303.01 6300.30 74.72 19.00 103.05 2557.08
   16:53:57.391.09-Sep-2020 5303.01 6300.30 74.72 19.00 103.25 2557.08
   16:53:57.591.09-Sep-2020 5303.01 6302.08 74.72 19.00 103.45 2557.08
   16:53:57.791.09-Sep-2020 5303.01 6302.52 74.71 19.00 103.65 2557.08
   16:53:57.991.09-Sep-2020 5303.01 6302.05 74.71 19.00 103.85 2557.08
   16:53:58.191.09-Sep-2020 5303.01 6308.81 74.72 19.00 104.05 2557.08
   16:53:58.391.09-Sep-2020 5303.01 6308.81 74.72 19.00 104.25 2557.08
   16:53:58.591.09-Sep-2020 5303.01 6303.03 74.71 19.00 104.45 2557.08
   16:53:58.791.09-Sep-2020 5303.01 6302.94 74.71 19.00 104.65 2557.08
   16:53:58.991.09-Sep-2020 5303.01 6303.00 74.71 19.00 104.85 2557.08
   16:53:59.191.09-Sep-2020 5303.01 6309.50 74.71 19.00 105.05 2557.08
   16:53:59.392.09-Sep-2020 5303.01 6309.50 74.71 19.00 105.25 2557.08
   16:53:59.592.09-Sep-2020 5303.01 6303.70 74.71 19.00 105.45 2557.08
   16:53:59.792.09-Sep-2020 5303.01 6304.18 74.71 19.00 105.65 2557.08
   16:53:59.992.09-Sep-2020 5303.01 6304.36 74.71 19.00 105.85 2557.08
   16:54:00.192.09-Sep-2020 5303.01 6304.08 74.71 19.00 106.05 2557.08
   16:54:00.392.09-Sep-2020 5303.01 6304.08 74.71 19.00 106.25 2557.08
   16:54:00.592.09-Sep-2020 5303.01 6305.79 74.71 19.00 106.45 2557.08
   16:54:00.792.09-Sep-2020 5303.01 6304.10 74.71 19.00 106.65 2557.08
   16:54:00.992.09-Sep-2020 5303.01 6305.71 74.71 19.00 106.85 2557.08
   16:54:01.192.09-Sep-2020 5303.01 6305.29 74.71 19.00 107.05 2557.08
   16:54:01.393.09-Sep-2020 5303.01 6305.29 74.71 19.00 107.25 2557.08
   16:54:01.593.09-Sep-2020 5303.01 6305.11 74.71 19.00 107.45 2557.08
   16:54:01.793.09-Sep-2020 5303.01 6305.54 74.71 19.00 107.65 2557.08
   16:54:01.993.09-Sep-2020 5303.01 6305.20 74.71 19.00 107.85 2557.08
   16:54:02.193.09-Sep-2020 5303.01 6305.20 74.71 19.00 108.05 2557.08
   16:54:02.393.09-Sep-2020 5303.01 6305.20 74.71 19.00 108.25 2557.08
   16:54:02.593.09-Sep-2020 5303.01 6304.57 74.71 19.00 108.45 2557.08
   16:54:02.793.09-Sep-2020 5303.01 6304.79 74.71 19.00 108.65 2557.08
   16:54:02.993.09-Sep-2020 5303.01 6304.90 74.71 19.00 108.85 2557.08
   16:54:03.193.09-Sep-2020 5303.01 6305.14 74.71 19.00 109.05 2557.08
   16:54:03.393.09-Sep-2020 5303.01 6305.31 74.71 19.00 109.25 2557.08
   16:54:03.594.09-Sep-2020 5303.01 6305.42 74.71 19.00 109.45 2557.08
   16:54:03.794.09-Sep-2020 5303.01 6305.45 74.71 19.00 109.65 2557.08
   16:54:03.994.09-Sep-2020 5303.01 6305.40 74.71 19.00 109.85 2557.08
   16:54:04.194.09-Sep-2020 5303.01 6314.63 74.71 19.00 110.05 2557.08
   16:54:04.394.09-Sep-2020 5303.01 6314.63 74.71 19.00 110.25 2557.08
   16:54:04.594.09-Sep-2020 5303.01 6305.55 74.71 19.00 110.45 2557.08
   16:54:04.794.09-Sep-2020 5303.01 6306.90 74.71 19.00 110.65 2557.08
   16:54:04.994.09-Sep-2020 5303.01 6306.37 74.71 19.00 110.85 2557.08
   16:54:05.194.09-Sep-2020 5303.01 6307.05 74.71 19.00 111.05 2557.08
   16:54:05.394.09-Sep-2020 5303.01 6307.05 74.71 19.00 111.25 2557.08
   16:54:05.595.09-Sep-2020 5303.01 6306.20 74.71 19.00 111.45 2557.08
   16:54:05.795.09-Sep-2020 5303.01 6305.74 74.71 19.00 111.65 2557.08
   16:54:05.995.09-Sep-2020 5303.01 6305.70 74.71 19.00 111.85 2557.08
   16:54:06.195.09-Sep-2020 5303.01 6305.48 74.71 19.00 112.05 2557.08
   16:54:06.395.09-Sep-2020 5303.01 6305.48 74.71 19.00 112.25 2557.08
   16:54:06.595.09-Sep-2020 5303.01 6305.94 74.71 19.00 112.45 2557.08
   16:54:06.795.09-Sep-2020 5303.01 6305.68 74.71 19.00 112.65 2557.08
   16:54:06.995.09-Sep-2020 5303.01 6305.24 74.71 19.00 112.85 2557.08
