~Version Information
 VERS.                  2.0:   CWLS log ASCII Standard -VERSION 2.0
 WRAP.                   NO:   One line per depth step
~Well Information Block
#MNEM.UNIT     VALUE/NAME     DESCRIPTION
#---------     -----------    ---------------------------
 STRT.S             19:35:07 09-Sep-20: START TIME 19:35:07 09-Sep-20
 STOP.S             19:43:27 09-Sep-20: STOP TIME  19:43:27 09-Sep-20
 STEP.S                   0.00: STEP TIME
 NULL.                 -999.25: NULL VALUE
 MDS .        Operator Entered:  MAG DATA SOURCE
 PDAT.          Mean Sea Level:  PERMANENT DATUM
 DCON.         Sperry Drilling:  DIRECTNL CONTR
 RIG .              West Azeri:  RIG NAME
 WELL.           C40 (Slot 20):  WELL NAME
 SRVC.     Turan Drilling Engineering:  CONTRACTOR
 FLD .                     ACG:  FIELD NAME
 CTRY.              Azerbaijan:  COUNTRY NAME
 PROV.                    Baku:  PROVINCE
 STAT.                    Baku:  STATE NAME
 REGN.                   EESSA:  REGION
 BASE.              Azerbaijan:  LOGGING EQUIPMENT BASE LOCATION
 COMP.     BP Exploration (Caspian Sea) Ltd:  COMPANY
 WTYP.                Deviated:  WELL TYPE
 SON .        AZ-XX-0906344804:  JOB NUMBER
 FTOP.          Formation Tops:  FORM TOPS DESC
 ILTD.               Lithology:  INTERP LTH DESC
 SVYD.                  Survey:  SURVEY DESC
 DMOD.             Drill Model:  DRILL MOD DESC
 HPTY.       Minimum Curvature:  HOLE POS TYPE
 NREF.                    Grid:  NORTH REFERENCE
 SPUD.               01-Jan-20:  SPUD DATE
 DATE.      00.59.44 15-Sep-20:  END TIME
 STIM.      12.00.00 12-Jun-20:  START TIME
 DMF .             Drill Floor:  DRILL MEAS FROM
 DFST.                        :  DIST FSL TEXT
 DFWT.                        :  DIST FWL TEXT
 API .                        :  API NUMBER
 CNTY.                        :  COUNTY
 UWI .                        :  UNIQUE WELL IDENTIFIER
 LOC .                        :  LOCATION
 LMF .             Drill Floor:  LOG MEASURED FROM
 VSNS.m                   2.88:  VERT SEC N/S
 VSEW.m                  -3.84:  VERT SEC E/W
 AGAP.m                  43.42:  AIR GAP
 APD .m                  43.42:  DEPTH ABOVE PD
 WDMS.m                 118.27:  WD ELEV
 EGL .m                   0.00:  GROUND ELEVATION
 EPD .m                   0.00:  ELEVATION
 AZTC.deg                 6.23:  AZM TOTAL CORR
 GRDC.deg                 0.20:  GRID CORRECTION
 MDEC.deg                 6.43:  MAGNETIC DECL
 MDIP.deg                59.49:  MAGNETIC DIP
 MFLD.nT              50277.00:  MAGNETIC FIELD
 GVFD.g                   1.00:  GRAVITY FIELD
 VSDR.deg               173.20:  VERT SEC DIRECT
 TDD .m                5790.01:  TOTAL DEPTH (DRILLER)
 SDEP.m                5231.01:  START DEPTH
 DFSL.m                   0.00:  DISTANCE FSL
 DFWL.m                   0.00:  DISTANCE FWL
 UTMY.m             4435808.83:  UTM Y
 UTMX.m              526266.40:  UTM X
 WHEW.m                  -3.84:  WELL HEAD E/W
 WHNS.m                   2.88:  WELL HEAD N/S
 LONG.deg                51.31:  LONGITUDE
 LATI.deg                40.06:  LATITUDE
 TVDS.m                  43.42:  TVDSS CORRECTN
 DEP .m                 430.08:  DEPTH
 EKB .m                  43.42:  KB ELEVATION
 EDF .m                  43.42:  DF ELEVATION
 TDL .m                 559.00:  TOTAL DEPTH (LOGGER)
 MAGU.                 1849381:  MAGUTM CHECKSUM
 VSC .                       0:  VS TO CLOSURE
~Parameter Information Block
#MNEM.UNIT       Value        Description
#---------     -----------    ---------------------------
 AV  .mps                 4.87:  Ann Velocity 
 AVMX.mps                 7.08:  Max Ann Veloc 
 AZIF.deg               108.87:  Azm, Final 
 BHAT.                  Rotary:  BHA Type 
 BROT.°/30m               0.35:  Build Rotating 
 BS  .in                  8.50:  Bit Size 
 BSZ .in                  8.50:  Bit Size 
 BTPL.psig              360.00:  Bit Press Loss 
 CABU.                     Yes:  Customer Abuse 
 COMM.                     ¼«|:  Run Comments 1 
 TCS .hr                106.24:  Time Ciculation Ended 
 CV  .mps                 1.77:  Crit Velocity 
 CVMX.mps                 2.03:  Max Crit Veloc 
 DD1 .         Aykhan Agagulov:  Direct Drillr 1 
 DD2 .            Nonso Okofor:  Direct Drillr 2 
 DDSV.               Geo-Pilot:  DD Service 
 DEFF.%                  98.00:  % Det Eff 
 DLRX.°/30m               0.50:  Dogleg Rot Max 
 DLSO.°/30m               0.40:  Dogleg Oriented 
 DLSX.°/30m               0.94:  Dogleg Str Max 
 DRET.      20.30.00 08-Sep-20:  Drill End Time 
 DRST.      22.15.00 06-Sep-20:  Drill Start Tim 
 DTIM.hr                 31.31:  Time Drilling 
 EDEP.m                5790.01:  End Depth 
 ENG1.           Amrah Tahirov:  Engineer 1 
 ENG2.         Dair Mahammadov:  Engineer 2 
 ENG3.           Emil Huseynov:  Engineer 3 
 ETIM.      04.01.04 12-Sep-20:  End Time 
 FLOI.gpm               450.00:  Flow In 
 FLON.gpm               450.00:  Flow In Min 
 FLOS.cptm                2.00:  Fluid Loss 
 FLOX.gpm               450.00:  Flow In Max 
 FTRO.       Formation Presure:  FTWD Run Obj 
 HFLO.                      No:  High Flow 
 HPRE.                      No:  High Pressure 
 HTEM.                      No:  High Temp 
 HYDO.m                   1.80:  Hydro Offset 
 IFIN.deg                72.03:  Inc, Final 
 IMAX.deg                73.72:  Inc Max 
 IMIN.deg                70.94:  Inc Min 
 IMND.m                5508.52:  Inc Min Depth 
 IMXD.m                5253.60:  Inc Max Depth 
 JARR.                      No:  Jarring 
 LETM.      20.30.00 08-Sep-20:  Log End Time 
 LOST.hr                     0:  Lost Rig Time 
 LSTM.      22.15.00 06-Sep-20:  Log Start Time 
 MDCL.ppm             36000.00:  Mud Chlorides 
 MDES.     Inversion Oil/Synthetic:  Mud Desc 
 DFD .sg                  1.44:  Mud Density 
 MDMN.sg                  1.44:  Dens Mud Min 
 MDMX.sg                  1.57:  Dens Mud Max 
 MOIL.                      70:  Run Mud Oil % 
 MOWR.                   70:30:  Run Mud OWR 
 MSND.                       0:  Run Mud Sand % 
 MSOL.                      21:  Run Mud Solids% 
 DFV .spqt               68.00:  Mud Viscosity 
 MWOD.in                  6.75:  MWD Tool OD 
 MWSI.                     Yes:  Serv Intrp, MWD 
 OTIM.hr                174.84:  Time Operating 
 PCON.           Look Like New:  Pad Condition 
 PMAX.psia            10616.93:  Press Op, Max 
 PV  .cP                 50.00:  Mud PV 
 RUN .                     700:  Run Number 
 ROPA.m/hr               14.24:  ROP Avg 
 ROPN.m/hr               10.00:  ROP Min 
 ROPX.m/hr               32.00:  ROP Max 
 RPMA.rpm               120.90:  RPM Surface Avg 
 RPMN.rpm               120.00:  RPM Surface Min 
 RPMX.rpm               140.00:  RPM Surface Max 
 RRUN.                    0700:  Rig Run Number 
 RTIM.hr                  3.20:  Time Reaming 
 SAZI.deg               109.99:  Azm, Start 
 SDEP.m                5231.01:  Start Depth 
 SIDD.                      No:  Serv Intrp, DD 
 SINC.deg                73.72:  Inc, Start 
 SPPA.psig             3051.00:  SPP Avg 
 SPPN.psig             2950.00:  SPP Min 
 SPPX.psig             3250.00:  SPP Max 
 STIM.      08.00.00 05-Sep-20:  Start Time 
 SVCS.                 DD, MWD:  Services 
 SVER.                    9.20:  Sperry Version 
 TDAT.m                 559.00:  Tot Depth Attmp 
 TDDF.                      No:  Trip for DD 
 TDLG.m                 559.00:  Tot Depth Loggd 
 TFF .                      No:  Trip for Fail 
 TQAA.f-kp               26.49:  Torque Abs Avg 
 TQAN.f-kp               25.00:  Torque Abs Min 
 TQAX.f-kp               27.00:  Torque Abs Max 
 TRRT.°/30m               1.50:  Turn Rotating 
 MRT .                    HCIM:  Maximum Recorded Temperature 
 TTMX.degC               90.20:  Max Tool Temp 
 VS01.                90542671:  Virtual Str1 SN 
 VS02.                90545185:  Virtual Str2 SN 
 VS03.                90602015:  Virtual Str3 SN 
 VS04.                90515230:  Virtual Str4 SN 
 WBMN.klb                 5.00:  WOB Min 
 WOBA.klb                14.79:  WOB Avg 
 WOBX.klb                20.00:  WOB Max 
 YP  .lhf2               29.00:  Yield Point 
~Curve Information Block
#MNEM.UNIT                 API CODE     Curve Description
#---------               -----------    ---------------------------
 TIME.HHMMSS            00 000 000 000:  GT Time & Date
 GTDEPTH.m              00 000 000 000:  GT Depth
 GTPQH.psia             00 000 000 000:  GT HR Quartz Pressure
 GTTQ.degC              00 000 000 000:  GT Quartz Temperature
 GTTN.NONE              00 000 000 000:  GT Test Number
 GTET.sec               00 000 000 000:  GT Elapsed Test Time
 GTTVD.m                00 000 000 000:  GT True Vertical Depth
#Other Information
#
#WARRANTY: Halliburton will use its best efforts to furnish customers with 
#accurate information and interpretations that are part of, and incident to, the services 
#provided.  However, Halliburton cannot and does not warrant the accuracy 
#or correctness of such information and interpretations.  Under no circumstances should any 
#such information or interpretation be relied upon as the sole basis for any drilling, 
#completion, production, or financial decision or any procedure involving any risk to the 
#safety of any drilling venture, drilling rig or its crew or any other third party.  The 
#Customer has full responsibility for all drilling, completion and production operation.  
#Halliburton makes no representations or warranties, either expressed or 
#implied, including, but not limited to, the implied warranties of merchantability or fitness 
#for a particular purpose, with respect to the services rendered.  In no event will 
#Halliburton be liable for failure to obtain any particular results or for 
#any damages, including, but not limited to, indirect, special or consequential damages, 
#resulting from the use of any information or interpretation provided by Halliburton.
#
~A           TIME           GTDEPTH  GTPQH  GTTQ  GTTN   GTET   GTTVD  
# ...
   19:40:23.912.09-Sep-2020 5260.01 6284.00 74.29 23.00 316.55 2544.55
   19:40:24.113.09-Sep-2020 5260.01 6284.13 74.29 23.00 316.75 2544.55
   19:40:24.313.09-Sep-2020 5260.01 6295.07 74.29 23.00 316.95 2544.55
   19:40:24.513.09-Sep-2020 5260.01 6280.08 74.29 23.00 317.15 2544.55
   19:40:24.713.09-Sep-2020 5260.01 6280.08 74.29 23.00 317.35 2544.55
   19:40:24.913.09-Sep-2020 5260.01 6285.08 74.29 23.00 317.55 2544.55
   19:40:25.113.09-Sep-2020 5260.01 6284.63 74.29 23.00 317.75 2544.55
   19:40:25.313.09-Sep-2020 5260.01 6285.32 74.29 23.00 317.95 2544.55
   19:40:25.513.09-Sep-2020 5260.01 6287.03 74.29 23.00 318.15 2544.55
   19:40:25.713.09-Sep-2020 5260.01 6285.03 74.29 23.00 318.35 2544.55
   19:40:25.913.09-Sep-2020 5260.01 6284.83 74.29 23.00 318.55 2544.55
   19:40:26.113.09-Sep-2020 5260.01 6283.93 74.29 23.00 318.75 2544.55
   19:40:26.314.09-Sep-2020 5260.01 6283.80 74.29 23.00 318.95 2544.55
   19:40:26.514.09-Sep-2020 5260.01 6283.60 74.29 23.00 319.15 2544.55
   19:40:26.714.09-Sep-2020 5260.01 6282.88 74.29 23.00 319.35 2544.55
   19:40:26.914.09-Sep-2020 5260.01 6283.14 74.29 23.00 319.55 2544.55
   19:40:27.114.09-Sep-2020 5260.01 6283.18 74.29 23.00 319.75 2544.55
   19:40:27.314.09-Sep-2020 5260.01 6282.63 74.29 23.00 319.95 2544.55
   19:40:27.514.09-Sep-2020 5260.01 6281.75 74.29 23.00 320.15 2544.55
   19:40:27.714.09-Sep-2020 5260.01 6281.75 74.29 23.00 320.35 2544.55
   19:40:27.914.09-Sep-2020 5260.01 6278.26 74.29 23.00 320.55 2544.55
   19:40:28.114.09-Sep-2020 5260.01 6283.85 74.29 23.00 320.75 2544.55
   19:40:28.314.09-Sep-2020 5260.01 6283.92 74.29 23.00 320.95 2544.55
   19:40:28.515.09-Sep-2020 5260.01 6283.42 74.29 23.00 321.15 2544.55
   19:40:28.715.09-Sep-2020 5260.01 6283.42 74.29 23.00 321.35 2544.55
   19:40:28.915.09-Sep-2020 5260.01 6295.97 74.29 23.00 321.55 2544.55
   19:40:29.115.09-Sep-2020 5260.01 6278.46 74.29 23.00 321.75 2544.55
   19:40:29.315.09-Sep-2020 5260.01 6284.92 74.29 23.00 321.95 2544.55
   19:40:29.515.09-Sep-2020 5260.01 6283.12 74.29 23.00 322.15 2544.55
   19:40:29.715.09-Sep-2020 5260.01 6283.63 74.29 23.00 322.35 2544.55
   19:40:29.915.09-Sep-2020 5260.01 6283.46 74.29 23.00 322.55 2544.55
   19:40:30.115.09-Sep-2020 5260.01 6289.99 74.29 23.00 322.75 2544.55
   19:40:30.315.09-Sep-2020 5260.01 6286.80 74.29 23.00 322.95 2544.55
   19:40:30.515.09-Sep-2020 5260.01 6283.03 74.29 23.00 323.15 2544.55
   19:40:30.716.09-Sep-2020 5260.01 6283.03 74.29 23.00 323.35 2544.55
   19:40:30.916.09-Sep-2020 5260.01 6283.56 74.29 23.00 323.55 2544.55
   19:40:31.116.09-Sep-2020 5260.01 6287.72 74.29 23.00 323.75 2544.55
   19:40:31.316.09-Sep-2020 5260.01 6287.99 74.29 23.00 323.95 2544.55
   19:40:31.516.09-Sep-2020 5260.01 6284.57 74.29 23.00 324.15 2544.55
   19:40:31.716.09-Sep-2020 5260.01 6284.57 74.29 23.00 324.35 2544.55
   19:40:31.916.09-Sep-2020 5260.01 6283.12 74.29 23.00 324.55 2544.55
   19:40:32.116.09-Sep-2020 5260.01 6284.01 74.29 23.00 324.75 2544.55
   19:40:32.316.09-Sep-2020 5260.01 6285.22 74.29 23.00 324.95 2544.55
   19:40:32.516.09-Sep-2020 5260.01 6296.31 74.29 23.00 325.15 2544.55
   19:40:32.717.09-Sep-2020 5260.01 6296.31 74.29 23.00 325.35 2544.55
   19:40:32.917.09-Sep-2020 5260.01 6285.29 74.29 23.00 325.55 2544.55
   19:40:33.117.09-Sep-2020 5260.01 6284.78 74.29 23.00 325.75 2544.55
   19:40:33.317.09-Sep-2020 5260.01 6285.25 74.29 23.00 325.95 2544.55
   19:40:33.517.09-Sep-2020 5260.01 6285.41 74.29 23.00 326.15 2544.55
   19:40:33.717.09-Sep-2020 5260.01 6285.41 74.29 23.00 326.35 2544.55
   19:40:33.917.09-Sep-2020 5260.01 6288.26 74.29 23.00 326.55 2544.55
   19:40:34.117.09-Sep-2020 5260.01 6287.89 74.29 23.00 326.75 2544.55
   19:40:34.317.09-Sep-2020 5260.01 6287.19 74.29 23.00 326.95 2544.55
   19:40:34.517.09-Sep-2020 5260.01 6287.59 74.29 23.00 327.15 2544.55
   19:40:34.717.09-Sep-2020 5260.01 6287.59 74.29 23.00 327.35 2544.55
   19:40:34.918.09-Sep-2020 5260.01 6287.69 74.29 23.00 327.55 2544.55
   19:40:35.118.09-Sep-2020 5260.01 6287.78 74.29 23.00 327.75 2544.55
   19:40:35.318.09-Sep-2020 5260.01 6287.62 74.29 23.00 327.95 2544.55
   19:40:35.518.09-Sep-2020 5260.01 6287.67 74.29 23.00 328.15 2544.55
   19:40:35.718.09-Sep-2020 5260.01 6287.67 74.29 23.00 328.35 2544.55
   19:40:35.918.09-Sep-2020 5260.01 6287.51 74.29 23.00 328.55 2544.55
   19:40:36.118.09-Sep-2020 5260.01 6287.18 74.29 23.00 328.75 2544.55
   19:40:36.318.09-Sep-2020 5260.01 6295.24 74.29 23.00 328.95 2544.55
   19:40:36.518.09-Sep-2020 5260.01 6284.63 74.29 23.00 329.15 2544.55
   19:40:36.718.09-Sep-2020 5260.01 6284.63 74.29 23.00 329.35 2544.55
   19:40:36.918.09-Sep-2020 5260.01 6286.83 74.29 23.00 329.55 2544.55
   19:40:37.119.09-Sep-2020 5260.01 6288.00 74.29 23.00 329.75 2544.55
   19:40:37.319.09-Sep-2020 5260.01 6287.56 74.29 23.00 329.95 2544.55
   19:40:37.519.09-Sep-2020 5260.01 6289.96 74.29 23.00 330.15 2544.55
   19:40:37.719.09-Sep-2020 5260.01 6289.96 74.29 23.00 330.35 2544.55
   19:40:37.919.09-Sep-2020 5260.01 6286.69 74.29 23.00 330.55 2544.55
   19:40:38.119.09-Sep-2020 5260.01 6286.39 74.29 23.00 330.75 2544.55
   19:40:38.319.09-Sep-2020 5260.01 6287.20 74.29 23.00 330.95 2544.55
   19:40:38.519.09-Sep-2020 5260.01 6287.18 74.29 23.00 331.15 2544.55
   19:40:38.719.09-Sep-2020 5260.01 6287.18 74.29 23.00 331.35 2544.55
   19:40:38.919.09-Sep-2020 5260.01 6286.13 74.29 23.00 331.55 2544.55
   19:40:39.119.09-Sep-2020 5260.01 6286.03 74.29 23.00 331.75 2544.55
   19:40:39.320.09-Sep-2020 5260.01 6286.22 74.29 23.00 331.95 2544.55
   19:40:39.520.09-Sep-2020 5260.01 6286.20 74.29 23.00 332.15 2544.55
   19:40:39.720.09-Sep-2020 5260.01 6286.20 74.29 23.00 332.35 2544.55
   19:40:39.920.09-Sep-2020 5260.01 6283.78 74.29 23.00 332.55 2544.55
   19:40:40.120.09-Sep-2020 5260.01 6286.95 74.29 23.00 332.75 2544.55
   19:40:40.320.09-Sep-2020 5260.01 6285.72 74.29 23.00 332.95 2544.55
   19:40:40.520.09-Sep-2020 5260.01 6286.74 74.29 23.00 333.15 2544.55
   19:40:40.720.09-Sep-2020 5260.01 6286.74 74.29 23.00 333.35 2544.55
   19:40:40.920.09-Sep-2020 5260.01 6292.39 74.29 23.00 333.55 2544.55
   19:40:41.120.09-Sep-2020 5260.01 6284.76 74.29 23.00 333.75 2544.55
   19:40:41.320.09-Sep-2020 5260.01 6286.93 74.29 23.00 333.95 2544.55
   19:40:41.521.09-Sep-2020 5260.01 6285.62 74.29 23.00 334.15 2544.55
   19:40:41.721.09-Sep-2020 5260.01 6285.62 74.29 23.00 334.35 2544.55
   19:40:41.921.09-Sep-2020 5260.01 6287.76 74.29 23.00 334.55 2544.55
   19:40:42.121.09-Sep-2020 5260.01 6299.37 74.29 23.00 334.75 2544.55
   19:40:42.321.09-Sep-2020 5260.01 6281.33 74.29 23.00 334.95 2544.55
   19:40:42.521.09-Sep-2020 5260.01 6286.86 74.29 23.00 335.15 2544.55
   19:40:42.721.09-Sep-2020 5260.01 6286.86 74.29 23.00 335.35 2544.55
   19:40:42.921.09-Sep-2020 5260.01 6290.96 74.29 23.00 335.55 2544.55
   19:40:43.121.09-Sep-2020 5260.01 6290.22 74.29 23.00 335.75 2544.55
   19:40:43.321.09-Sep-2020 5260.01 6289.22 74.29 23.00 335.95 2544.55
   19:40:43.521.09-Sep-2020 5260.01 6287.41 74.29 23.00 336.15 2544.55
   19:40:43.722.09-Sep-2020 5260.01 6287.41 74.29 23.00 336.36 2544.55
   19:40:43.922.09-Sep-2020 5260.01 6287.36 74.29 23.00 336.56 2544.55
   19:40:44.122.09-Sep-2020 5260.01 6299.17 74.29 23.00 336.76 2544.55
   19:40:44.322.09-Sep-2020 5260.01 6284.90 74.29 23.00 336.96 2544.55
   19:40:44.522.09-Sep-2020 5260.01 6288.07 74.29 23.00 337.16 2544.55
   19:40:44.722.09-Sep-2020 5260.01 6288.04 74.29 23.00 337.36 2544.55
   19:40:44.922.09-Sep-2020 5260.01 6287.15 74.29 23.00 337.56 2544.55
   19:40:45.122.09-Sep-2020 5260.01 6288.79 74.29 23.00 337.76 2544.55
   19:40:45.322.09-Sep-2020 5260.01 6290.27 74.29 23.00 337.96 2544.55
   19:40:45.522.09-Sep-2020 5260.01 6288.75 74.29 23.00 338.16 2544.55
   19:40:45.722.09-Sep-2020 5260.01 6288.35 74.29 23.00 338.36 2544.55
   19:40:45.923.09-Sep-2020 5260.01 6288.34 74.29 23.00 338.56 2544.55
   19:40:46.123.09-Sep-2020 5260.01 6287.92 74.29 23.00 338.76 2544.55
   19:40:46.323.09-Sep-2020 5260.01 6288.14 74.29 23.00 338.96 2544.55
