~Version Information
 VERS.                  2.0:   CWLS log ASCII Standard -VERSION 2.0
 WRAP.                   NO:   One line per depth step
~Well Information Block
#MNEM.UNIT     VALUE/NAME     DESCRIPTION
#---------     -----------    ---------------------------
 STRT.S             19:35:07 09-Sep-20: START TIME 19:35:07 09-Sep-20
 STOP.S             19:43:27 09-Sep-20: STOP TIME  19:43:27 09-Sep-20
 STEP.S                   0.00: STEP TIME
 NULL.                 -999.25: NULL VALUE
 MDS .        Operator Entered:  MAG DATA SOURCE
 PDAT.          Mean Sea Level:  PERMANENT DATUM
 DCON.         Sperry Drilling:  DIRECTNL CONTR
 RIG .              West Azeri:  RIG NAME
 WELL.           C40 (Slot 20):  WELL NAME
 SRVC.     Turan Drilling Engineering:  CONTRACTOR
 FLD .                     ACG:  FIELD NAME
 CTRY.              Azerbaijan:  COUNTRY NAME
 PROV.                    Baku:  PROVINCE
 STAT.                    Baku:  STATE NAME
 REGN.                   EESSA:  REGION
 BASE.              Azerbaijan:  LOGGING EQUIPMENT BASE LOCATION
 COMP.     BP Exploration (Caspian Sea) Ltd:  COMPANY
 WTYP.                Deviated:  WELL TYPE
 SON .        AZ-XX-0906344804:  JOB NUMBER
 FTOP.          Formation Tops:  FORM TOPS DESC
 ILTD.               Lithology:  INTERP LTH DESC
 SVYD.                  Survey:  SURVEY DESC
 DMOD.             Drill Model:  DRILL MOD DESC
 HPTY.       Minimum Curvature:  HOLE POS TYPE
 NREF.                    Grid:  NORTH REFERENCE
 SPUD.               01-Jan-20:  SPUD DATE
 DATE.      00.59.44 15-Sep-20:  END TIME
 STIM.      12.00.00 12-Jun-20:  START TIME
 DMF .             Drill Floor:  DRILL MEAS FROM
 DFST.                        :  DIST FSL TEXT
 DFWT.                        :  DIST FWL TEXT
 API .                        :  API NUMBER
 CNTY.                        :  COUNTY
 UWI .                        :  UNIQUE WELL IDENTIFIER
 LOC .                        :  LOCATION
 LMF .             Drill Floor:  LOG MEASURED FROM
 VSNS.m                   2.88:  VERT SEC N/S
 VSEW.m                  -3.84:  VERT SEC E/W
 AGAP.m                  43.42:  AIR GAP
 APD .m                  43.42:  DEPTH ABOVE PD
 WDMS.m                 118.27:  WD ELEV
 EGL .m                   0.00:  GROUND ELEVATION
 EPD .m                   0.00:  ELEVATION
 AZTC.deg                 6.23:  AZM TOTAL CORR
 GRDC.deg                 0.20:  GRID CORRECTION
 MDEC.deg                 6.43:  MAGNETIC DECL
 MDIP.deg                59.49:  MAGNETIC DIP
 MFLD.nT              50277.00:  MAGNETIC FIELD
 GVFD.g                   1.00:  GRAVITY FIELD
 VSDR.deg               173.20:  VERT SEC DIRECT
 TDD .m                5790.01:  TOTAL DEPTH (DRILLER)
 SDEP.m                5231.01:  START DEPTH
 DFSL.m                   0.00:  DISTANCE FSL
 DFWL.m                   0.00:  DISTANCE FWL
 UTMY.m             4435808.83:  UTM Y
 UTMX.m              526266.40:  UTM X
 WHEW.m                  -3.84:  WELL HEAD E/W
 WHNS.m                   2.88:  WELL HEAD N/S
 LONG.deg                51.31:  LONGITUDE
 LATI.deg                40.06:  LATITUDE
 TVDS.m                  43.42:  TVDSS CORRECTN
 DEP .m                 430.08:  DEPTH
 EKB .m                  43.42:  KB ELEVATION
 EDF .m                  43.42:  DF ELEVATION
 TDL .m                 559.00:  TOTAL DEPTH (LOGGER)
 MAGU.                 1849381:  MAGUTM CHECKSUM
 VSC .                       0:  VS TO CLOSURE
~Parameter Information Block
#MNEM.UNIT       Value        Description
#---------     -----------    ---------------------------
 AV  .mps                 4.87:  Ann Velocity 
 AVMX.mps                 7.08:  Max Ann Veloc 
 AZIF.deg               108.87:  Azm, Final 
 BHAT.                  Rotary:  BHA Type 
 BROT.°/30m               0.35:  Build Rotating 
 BS  .in                  8.50:  Bit Size 
 BSZ .in                  8.50:  Bit Size 
 BTPL.psig              360.00:  Bit Press Loss 
 CABU.                     Yes:  Customer Abuse 
 COMM.                     ¼«|:  Run Comments 1 
 TCS .hr                106.24:  Time Ciculation Ended 
 CV  .mps                 1.77:  Crit Velocity 
 CVMX.mps                 2.03:  Max Crit Veloc 
 DD1 .         Aykhan Agagulov:  Direct Drillr 1 
 DD2 .            Nonso Okofor:  Direct Drillr 2 
 DDSV.               Geo-Pilot:  DD Service 
 DEFF.%                  98.00:  % Det Eff 
 DLRX.°/30m               0.50:  Dogleg Rot Max 
 DLSO.°/30m               0.40:  Dogleg Oriented 
 DLSX.°/30m               0.94:  Dogleg Str Max 
 DRET.      20.30.00 08-Sep-20:  Drill End Time 
 DRST.      22.15.00 06-Sep-20:  Drill Start Tim 
 DTIM.hr                 31.31:  Time Drilling 
 EDEP.m                5790.01:  End Depth 
 ENG1.           Amrah Tahirov:  Engineer 1 
 ENG2.         Dair Mahammadov:  Engineer 2 
 ENG3.           Emil Huseynov:  Engineer 3 
 ETIM.      04.01.04 12-Sep-20:  End Time 
 FLOI.gpm               450.00:  Flow In 
 FLON.gpm               450.00:  Flow In Min 
 FLOS.cptm                2.00:  Fluid Loss 
 FLOX.gpm               450.00:  Flow In Max 
 FTRO.       Formation Presure:  FTWD Run Obj 
 HFLO.                      No:  High Flow 
 HPRE.                      No:  High Pressure 
 HTEM.                      No:  High Temp 
 HYDO.m                   1.80:  Hydro Offset 
 IFIN.deg                72.03:  Inc, Final 
 IMAX.deg                73.72:  Inc Max 
 IMIN.deg                70.94:  Inc Min 
 IMND.m                5508.52:  Inc Min Depth 
 IMXD.m                5253.60:  Inc Max Depth 
 JARR.                      No:  Jarring 
 LETM.      20.30.00 08-Sep-20:  Log End Time 
 LOST.hr                     0:  Lost Rig Time 
 LSTM.      22.15.00 06-Sep-20:  Log Start Time 
 MDCL.ppm             36000.00:  Mud Chlorides 
 MDES.     Inversion Oil/Synthetic:  Mud Desc 
 DFD .sg                  1.44:  Mud Density 
 MDMN.sg                  1.44:  Dens Mud Min 
 MDMX.sg                  1.57:  Dens Mud Max 
 MOIL.                      70:  Run Mud Oil % 
 MOWR.                   70:30:  Run Mud OWR 
 MSND.                       0:  Run Mud Sand % 
 MSOL.                      21:  Run Mud Solids% 
 DFV .spqt               68.00:  Mud Viscosity 
 MWOD.in                  6.75:  MWD Tool OD 
 MWSI.                     Yes:  Serv Intrp, MWD 
 OTIM.hr                174.84:  Time Operating 
 PCON.           Look Like New:  Pad Condition 
 PMAX.psia            10616.93:  Press Op, Max 
 PV  .cP                 50.00:  Mud PV 
 RUN .                     700:  Run Number 
 ROPA.m/hr               14.24:  ROP Avg 
 ROPN.m/hr               10.00:  ROP Min 
 ROPX.m/hr               32.00:  ROP Max 
 RPMA.rpm               120.90:  RPM Surface Avg 
 RPMN.rpm               120.00:  RPM Surface Min 
 RPMX.rpm               140.00:  RPM Surface Max 
 RRUN.                    0700:  Rig Run Number 
 RTIM.hr                  3.20:  Time Reaming 
 SAZI.deg               109.99:  Azm, Start 
 SDEP.m                5231.01:  Start Depth 
 SIDD.                      No:  Serv Intrp, DD 
 SINC.deg                73.72:  Inc, Start 
 SPPA.psig             3051.00:  SPP Avg 
 SPPN.psig             2950.00:  SPP Min 
 SPPX.psig             3250.00:  SPP Max 
 STIM.      08.00.00 05-Sep-20:  Start Time 
 SVCS.                 DD, MWD:  Services 
 SVER.                    9.20:  Sperry Version 
 TDAT.m                 559.00:  Tot Depth Attmp 
 TDDF.                      No:  Trip for DD 
 TDLG.m                 559.00:  Tot Depth Loggd 
 TFF .                      No:  Trip for Fail 
 TQAA.f-kp               26.49:  Torque Abs Avg 
 TQAN.f-kp               25.00:  Torque Abs Min 
 TQAX.f-kp               27.00:  Torque Abs Max 
 TRRT.°/30m               1.50:  Turn Rotating 
 MRT .                    HCIM:  Maximum Recorded Temperature 
 TTMX.degC               90.20:  Max Tool Temp 
 VS01.                90542671:  Virtual Str1 SN 
 VS02.                90545185:  Virtual Str2 SN 
 VS03.                90602015:  Virtual Str3 SN 
 VS04.                90515230:  Virtual Str4 SN 
 WBMN.klb                 5.00:  WOB Min 
 WOBA.klb                14.79:  WOB Avg 
 WOBX.klb                20.00:  WOB Max 
 YP  .lhf2               29.00:  Yield Point 
~Curve Information Block
#MNEM.UNIT                 API CODE     Curve Description
#---------               -----------    ---------------------------
 TIME.HHMMSS            00 000 000 000:  GT Time & Date
 GTDEPTH.m              00 000 000 000:  GT Depth
 GTPQH.psia             00 000 000 000:  GT HR Quartz Pressure
 GTTQ.degC              00 000 000 000:  GT Quartz Temperature
 GTTN.NONE              00 000 000 000:  GT Test Number
 GTET.sec               00 000 000 000:  GT Elapsed Test Time
 GTTVD.m                00 000 000 000:  GT True Vertical Depth
#Other Information
#
#WARRANTY: Halliburton will use its best efforts to furnish customers with 
#accurate information and interpretations that are part of, and incident to, the services 
#provided.  However, Halliburton cannot and does not warrant the accuracy 
#or correctness of such information and interpretations.  Under no circumstances should any 
#such information or interpretation be relied upon as the sole basis for any drilling, 
#completion, production, or financial decision or any procedure involving any risk to the 
#safety of any drilling venture, drilling rig or its crew or any other third party.  The 
#Customer has full responsibility for all drilling, completion and production operation.  
#Halliburton makes no representations or warranties, either expressed or 
#implied, including, but not limited to, the implied warranties of merchantability or fitness 
#for a particular purpose, with respect to the services rendered.  In no event will 
#Halliburton be liable for failure to obtain any particular results or for 
#any damages, including, but not limited to, indirect, special or consequential damages, 
#resulting from the use of any information or interpretation provided by Halliburton.
#
~A           TIME           GTDEPTH  GTPQH  GTTQ  GTTN   GTET   GTTVD  
   19:35:07.367.09-Sep-2020 5260.01 6139.54 74.31 23.00   0.00 2544.55
   19:35:07.567.09-Sep-2020 5260.01 6139.54 74.31 23.00   0.20 2544.55
   19:35:07.767.09-Sep-2020 5260.01 6140.34 74.31 23.00   0.40 2544.55
   19:35:07.967.09-Sep-2020 5260.01 6140.52 74.31 23.00   0.60 2544.55
   19:35:08.167.09-Sep-2020 5260.01 6141.45 74.31 23.00   0.80 2544.55
   19:35:08.367.09-Sep-2020 5260.01 6141.77 74.31 23.00   1.00 2544.55
   19:35:08.567.09-Sep-2020 5260.01 6141.77 74.31 23.00   1.20 2544.55
   19:35:08.767.09-Sep-2020 5260.01 6142.15 74.31 23.00   1.40 2544.55
   19:35:08.967.09-Sep-2020 5260.01 6142.54 74.31 23.00   1.60 2544.55
   19:35:09.167.09-Sep-2020 5260.01 6143.10 74.31 23.00   1.80 2544.55
   19:35:09.367.09-Sep-2020 5260.01 6143.68 74.31 23.00   2.00 2544.55
   19:35:09.568.09-Sep-2020 5260.01 6143.68 74.31 23.00   2.20 2544.55
   19:35:09.768.09-Sep-2020 5260.01 6148.88 74.31 23.00   2.40 2544.55
   19:35:09.968.09-Sep-2020 5260.01 6149.07 74.31 23.00   2.60 2544.55
   19:35:10.168.09-Sep-2020 5260.01 6144.24 74.31 23.00   2.80 2544.55
   19:35:10.368.09-Sep-2020 5260.01 6146.20 74.31 23.00   3.00 2544.55
   19:35:10.568.09-Sep-2020 5260.01 6146.20 74.31 23.00   3.20 2544.55
   19:35:10.768.09-Sep-2020 5260.01 6149.80 74.31 23.00   3.40 2544.55
   19:35:10.968.09-Sep-2020 5260.01 6149.20 74.31 23.00   3.60 2544.55
   19:35:11.168.09-Sep-2020 5260.01 6146.13 74.31 23.00   3.80 2544.55
   19:35:11.368.09-Sep-2020 5260.01 6146.26 74.31 23.00   4.00 2544.55
   19:35:11.568.09-Sep-2020 5260.01 6146.26 74.31 23.00   4.20 2544.55
   19:35:11.769.09-Sep-2020 5260.01 6146.26 74.31 23.00   4.40 2544.55
   19:35:11.969.09-Sep-2020 5260.01 6144.69 74.31 23.00   4.60 2544.55
   19:35:12.169.09-Sep-2020 5260.01 6147.50 74.31 23.00   4.80 2544.55
   19:35:12.369.09-Sep-2020 5260.01 6144.88 74.31 23.00   5.00 2544.55
   19:35:12.569.09-Sep-2020 5260.01 6144.88 74.31 23.00   5.20 2544.55
   19:35:12.769.09-Sep-2020 5260.01 6144.84 74.31 23.00   5.40 2544.55
   19:35:12.969.09-Sep-2020 5260.01 6155.85 74.31 23.00   5.60 2544.55
   19:35:13.169.09-Sep-2020 5260.01 6142.07 74.31 23.00   5.80 2544.55
   19:35:13.369.09-Sep-2020 5260.01 6146.26 74.31 23.00   6.00 2544.55
   19:35:13.569.09-Sep-2020 5260.01 6146.72 74.31 23.00   6.20 2544.55
   19:35:13.769.09-Sep-2020 5260.01 6146.72 74.31 23.00   6.40 2544.55
   19:35:13.970.09-Sep-2020 5260.01 6146.72 74.31 23.00   6.60 2544.55
   19:35:14.170.09-Sep-2020 5260.01 6160.11 74.31 23.00   6.80 2544.55
   19:35:14.370.09-Sep-2020 5260.01 6144.67 74.31 23.00   7.00 2544.55
   19:35:14.570.09-Sep-2020 5260.01 6144.67 74.31 23.00   7.20 2544.55
   19:35:14.770.09-Sep-2020 5260.01 6151.27 74.31 23.00   7.40 2544.55
   19:35:14.970.09-Sep-2020 5260.01 6151.83 74.31 23.00   7.60 2544.55
   19:35:15.170.09-Sep-2020 5260.01 6163.79 74.31 23.00   7.80 2544.55
   19:35:15.370.09-Sep-2020 5260.01 6150.12 74.31 23.00   8.00 2544.55
   19:35:15.570.09-Sep-2020 5260.01 6150.12 74.31 23.00   8.20 2544.55
   19:35:15.770.09-Sep-2020 5260.01 6154.30 74.31 23.00   8.40 2544.55
   19:35:15.971.09-Sep-2020 5260.01 6155.34 74.31 23.00   8.60 2544.55
   19:35:16.171.09-Sep-2020 5260.01 6156.32 74.31 23.00   8.80 2544.55
   19:35:16.371.09-Sep-2020 5260.01 6157.68 74.31 23.00   9.00 2544.55
   19:35:16.571.09-Sep-2020 5260.01 6157.68 74.31 23.00   9.20 2544.55
   19:35:16.771.09-Sep-2020 5260.01 6153.71 74.31 23.00   9.40 2544.55
   19:35:16.971.09-Sep-2020 5260.01 6158.13 74.31 23.00   9.60 2544.55
   19:35:17.171.09-Sep-2020 5260.01 6158.61 74.31 23.00   9.80 2544.55
   19:35:17.371.09-Sep-2020 5260.01 6158.52 74.31 23.00  10.00 2544.55
   19:35:17.571.09-Sep-2020 5260.01 6158.52 74.31 23.00  10.20 2544.55
   19:35:17.771.09-Sep-2020 5260.01 6160.07 74.31 23.00  10.40 2544.55
   19:35:17.971.09-Sep-2020 5260.01 6160.02 74.31 23.00  10.60 2544.55
   19:35:18.172.09-Sep-2020 5260.01 6160.44 74.31 23.00  10.80 2544.55
   19:35:18.372.09-Sep-2020 5260.01 6160.81 74.31 23.00  11.01 2544.55
   19:35:18.572.09-Sep-2020 5260.01 6160.81 74.31 23.00  11.21 2544.55
   19:35:18.772.09-Sep-2020 5260.01 6161.59 74.31 23.00  11.41 2544.55
   19:35:18.972.09-Sep-2020 5260.01 6161.95 74.31 23.00  11.61 2544.55
   19:35:19.172.09-Sep-2020 5260.01 6162.57 74.31 23.00  11.81 2544.55
   19:35:19.372.09-Sep-2020 5260.01 6163.05 74.31 23.00  12.01 2544.55
   19:35:19.572.09-Sep-2020 5260.01 6163.05 74.31 23.00  12.21 2544.55
   19:35:19.772.09-Sep-2020 5260.01 6163.22 74.31 23.00  12.41 2544.55
   19:35:19.972.09-Sep-2020 5260.01 6163.15 74.31 23.00  12.61 2544.55
   19:35:20.172.09-Sep-2020 5260.01 6163.32 74.31 23.00  12.81 2544.55
   19:35:20.373.09-Sep-2020 5260.01 6172.08 74.31 23.00  13.01 2544.55
   19:35:20.573.09-Sep-2020 5260.01 6162.02 74.31 23.00  13.21 2544.55
   19:35:20.773.09-Sep-2020 5260.01 6165.46 74.31 23.00  13.41 2544.55
   19:35:20.973.09-Sep-2020 5260.01 6163.84 74.31 23.00  13.61 2544.55
   19:35:21.173.09-Sep-2020 5260.01 6165.25 74.31 23.00  13.81 2544.55
   19:35:21.373.09-Sep-2020 5260.01 6165.28 74.31 23.00  14.01 2544.55
   19:35:21.573.09-Sep-2020 5260.01 6166.58 74.31 23.00  14.21 2544.55
   19:35:21.773.09-Sep-2020 5260.01 6165.64 74.31 23.00  14.41 2544.55
   19:35:21.973.09-Sep-2020 5260.01 6166.20 74.31 23.00  14.61 2544.55
   19:35:22.173.09-Sep-2020 5260.01 6166.37 74.31 23.00  14.81 2544.55
   19:35:22.373.09-Sep-2020 5260.01 6166.80 74.31 23.00  15.01 2544.55
   19:35:22.574.09-Sep-2020 5260.01 6166.80 74.31 23.00  15.21 2544.55
   19:35:22.774.09-Sep-2020 5260.01 6167.68 74.31 23.00  15.41 2544.55
   19:35:22.974.09-Sep-2020 5260.01 6167.41 74.31 23.00  15.61 2544.55
   19:35:23.174.09-Sep-2020 5260.01 6167.35 74.31 23.00  15.81 2544.55
   19:35:23.374.09-Sep-2020 5260.01 6167.73 74.31 23.00  16.01 2544.55
   19:35:23.574.09-Sep-2020 5260.01 6167.73 74.31 23.00  16.21 2544.55
   19:35:23.774.09-Sep-2020 5260.01 6168.83 74.31 23.00  16.41 2544.55
   19:35:23.974.09-Sep-2020 5260.01 6177.28 74.31 23.00  16.61 2544.55
   19:35:24.174.09-Sep-2020 5260.01 6166.41 74.30 23.00  16.81 2544.55
   19:35:24.374.09-Sep-2020 5260.01 6169.82 74.31 23.00  17.01 2544.55
   19:35:24.574.09-Sep-2020 5260.01 6168.62 74.30 23.00  17.21 2544.55
   19:35:24.775.09-Sep-2020 5260.01 6169.88 74.30 23.00  17.41 2544.55
   19:35:24.975.09-Sep-2020 5260.01 6169.92 74.30 23.00  17.61 2544.55
   19:35:25.175.09-Sep-2020 5260.01 6181.50 74.30 23.00  17.81 2544.55
   19:35:25.375.09-Sep-2020 5260.01 6165.77 74.30 23.00  18.01 2544.55
   19:35:25.575.09-Sep-2020 5260.01 6171.87 74.30 23.00  18.21 2544.55
   19:35:25.775.09-Sep-2020 5260.01 6171.15 74.30 23.00  18.41 2544.55
   19:35:25.975.09-Sep-2020 5260.01 6172.26 74.30 23.00  18.61 2544.55
   19:35:26.175.09-Sep-2020 5260.01 6173.11 74.30 23.00  18.81 2544.55
   19:35:26.375.09-Sep-2020 5260.01 6183.77 74.30 23.00  19.01 2544.55
   19:35:26.575.09-Sep-2020 5260.01 6183.77 74.30 23.00  19.21 2544.55
   19:35:26.775.09-Sep-2020 5260.01 6173.64 74.30 23.00  19.41 2544.55
   19:35:26.976.09-Sep-2020 5260.01 6173.92 74.30 23.00  19.61 2544.55
   19:35:27.176.09-Sep-2020 5260.01 6174.14 74.30 23.00  19.81 2544.55
   19:35:27.376.09-Sep-2020 5260.01 6175.31 74.30 23.00  20.01 2544.55
   19:35:27.576.09-Sep-2020 5260.01 6175.31 74.30 23.00  20.21 2544.55
   19:35:27.776.09-Sep-2020 5260.01 6172.32 74.30 23.00  20.41 2544.55
   19:35:27.976.09-Sep-2020 5260.01 6176.54 74.30 23.00  20.61 2544.55
   19:35:28.176.09-Sep-2020 5260.01 6177.18 74.30 23.00  20.81 2544.55
   19:35:28.376.09-Sep-2020 5260.01 6180.60 74.30 23.00  21.01 2544.55
   19:35:28.576.09-Sep-2020 5260.01 6180.60 74.30 23.00  21.21 2544.55
   19:35:28.776.09-Sep-2020 5260.01 6177.40 74.30 23.00  21.41 2544.55
   19:35:28.977.09-Sep-2020 5260.01 6179.20 74.30 23.00  21.61 2544.55
   19:35:29.177.09-Sep-2020 5260.01 6178.61 74.30 23.00  21.81 2544.55
   19:35:29.377.09-Sep-2020 5260.01 6179.72 74.30 23.00  22.01 2544.55
   19:35:29.577.09-Sep-2020 5260.01 6183.22 74.30 23.00  22.21 2544.55
   19:35:29.777.09-Sep-2020 5260.01 6184.44 74.30 23.00  22.41 2544.55
