~Version Information
 VERS.                  2.0:   CWLS log ASCII Standard -VERSION 2.0
 WRAP.                   NO:   One line per depth step
~Well Information Block
#MNEM.UNIT     VALUE/NAME     DESCRIPTION
#---------     -----------    ---------------------------
 STRT.S             18:19:19 09-Sep-20: START TIME 18:19:19 09-Sep-20
 STOP.S             18:27:34 09-Sep-20: STOP TIME  18:27:34 09-Sep-20
 STEP.S                   0.00: STEP TIME
 NULL.                 -999.25: NULL VALUE
 MDS .        Operator Entered:  MAG DATA SOURCE
 PDAT.          Mean Sea Level:  PERMANENT DATUM
 DCON.         Sperry Drilling:  DIRECTNL CONTR
 RIG .              West Azeri:  RIG NAME
 WELL.           C40 (Slot 20):  WELL NAME
 SRVC.     Turan Drilling Engineering:  CONTRACTOR
 FLD .                     ACG:  FIELD NAME
 CTRY.              Azerbaijan:  COUNTRY NAME
 PROV.                    Baku:  PROVINCE
 STAT.                    Baku:  STATE NAME
 REGN.                   EESSA:  REGION
 BASE.              Azerbaijan:  LOGGING EQUIPMENT BASE LOCATION
 COMP.     BP Exploration (Caspian Sea) Ltd:  COMPANY
 WTYP.                Deviated:  WELL TYPE
 SON .        AZ-XX-0906344804:  JOB NUMBER
 FTOP.          Formation Tops:  FORM TOPS DESC
 ILTD.               Lithology:  INTERP LTH DESC
 SVYD.                  Survey:  SURVEY DESC
 DMOD.             Drill Model:  DRILL MOD DESC
 HPTY.       Minimum Curvature:  HOLE POS TYPE
 NREF.                    Grid:  NORTH REFERENCE
 SPUD.               01-Jan-20:  SPUD DATE
 DATE.      00.59.44 15-Sep-20:  END TIME
 STIM.      12.00.00 12-Jun-20:  START TIME
 DMF .             Drill Floor:  DRILL MEAS FROM
 DFST.                        :  DIST FSL TEXT
 DFWT.                        :  DIST FWL TEXT
 API .                        :  API NUMBER
 CNTY.                        :  COUNTY
 UWI .                        :  UNIQUE WELL IDENTIFIER
 LOC .                        :  LOCATION
 LMF .             Drill Floor:  LOG MEASURED FROM
 VSNS.m                   2.88:  VERT SEC N/S
 VSEW.m                  -3.84:  VERT SEC E/W
 AGAP.m                  43.42:  AIR GAP
 APD .m                  43.42:  DEPTH ABOVE PD
 WDMS.m                 118.27:  WD ELEV
 EGL .m                   0.00:  GROUND ELEVATION
 EPD .m                   0.00:  ELEVATION
 AZTC.deg                 6.23:  AZM TOTAL CORR
 GRDC.deg                 0.20:  GRID CORRECTION
 MDEC.deg                 6.43:  MAGNETIC DECL
 MDIP.deg                59.49:  MAGNETIC DIP
 MFLD.nT              50277.00:  MAGNETIC FIELD
 GVFD.g                   1.00:  GRAVITY FIELD
 VSDR.deg               173.20:  VERT SEC DIRECT
 TDD .m                5790.01:  TOTAL DEPTH (DRILLER)
 SDEP.m                5231.01:  START DEPTH
 DFSL.m                   0.00:  DISTANCE FSL
 DFWL.m                   0.00:  DISTANCE FWL
 UTMY.m             4435808.83:  UTM Y
 UTMX.m              526266.40:  UTM X
 WHEW.m                  -3.84:  WELL HEAD E/W
 WHNS.m                   2.88:  WELL HEAD N/S
 LONG.deg                51.31:  LONGITUDE
 LATI.deg                40.06:  LATITUDE
 TVDS.m                  43.42:  TVDSS CORRECTN
 DEP .m                 430.08:  DEPTH
 EKB .m                  43.42:  KB ELEVATION
 EDF .m                  43.42:  DF ELEVATION
 TDL .m                 559.00:  TOTAL DEPTH (LOGGER)
 MAGU.                 1849381:  MAGUTM CHECKSUM
 VSC .                       0:  VS TO CLOSURE
~Parameter Information Block
#MNEM.UNIT       Value        Description
#---------     -----------    ---------------------------
 AV  .mps                 4.87:  Ann Velocity 
 AVMX.mps                 7.08:  Max Ann Veloc 
 AZIF.deg               108.87:  Azm, Final 
 BHAT.                  Rotary:  BHA Type 
 BROT.°/30m               0.35:  Build Rotating 
 BS  .in                  8.50:  Bit Size 
 BSZ .in                  8.50:  Bit Size 
 BTPL.psig              360.00:  Bit Press Loss 
 CABU.                     Yes:  Customer Abuse 
 TCS .hr                106.24:  Time Ciculation Ended 
 CV  .mps                 1.77:  Crit Velocity 
 CVMX.mps                 2.03:  Max Crit Veloc 
 DD1 .         Aykhan Agagulov:  Direct Drillr 1 
 DD2 .            Nonso Okofor:  Direct Drillr 2 
 DDSV.               Geo-Pilot:  DD Service 
 DEFF.%                  98.00:  % Det Eff 
 DLRX.°/30m               0.50:  Dogleg Rot Max 
 DLSO.°/30m               0.40:  Dogleg Oriented 
 DLSX.°/30m               0.94:  Dogleg Str Max 
 DRET.      20.30.00 08-Sep-20:  Drill End Time 
 DRST.      22.15.00 06-Sep-20:  Drill Start Tim 
 DTIM.hr                 31.31:  Time Drilling 
 EDEP.m                5790.01:  End Depth 
 ENG1.           Amrah Tahirov:  Engineer 1 
 ENG2.         Dair Mahammadov:  Engineer 2 
 ENG3.           Emil Huseynov:  Engineer 3 
 ETIM.      04.01.04 12-Sep-20:  End Time 
 FLOI.gpm               450.00:  Flow In 
 FLON.gpm               450.00:  Flow In Min 
 FLOS.cptm                2.00:  Fluid Loss 
 FLOX.gpm               450.00:  Flow In Max 
 FTRO.       Formation Presure:  FTWD Run Obj 
 HFLO.                      No:  High Flow 
 HPRE.                      No:  High Pressure 
 HTEM.                      No:  High Temp 
 HYDO.m                   1.80:  Hydro Offset 
 IFIN.deg                72.03:  Inc, Final 
 IMAX.deg                73.72:  Inc Max 
 IMIN.deg                70.94:  Inc Min 
 IMND.m                5508.52:  Inc Min Depth 
 IMXD.m                5253.60:  Inc Max Depth 
 JARR.                      No:  Jarring 
 LETM.      20.30.00 08-Sep-20:  Log End Time 
 LOST.hr                     0:  Lost Rig Time 
 LSTM.      22.15.00 06-Sep-20:  Log Start Time 
 MDCL.ppm             36000.00:  Mud Chlorides 
 MDES.     Inversion Oil/Synthetic:  Mud Desc 
 DFD .sg                  1.44:  Mud Density 
 MDMN.sg                  1.44:  Dens Mud Min 
 MDMX.sg                  1.57:  Dens Mud Max 
 MOIL.                      70:  Run Mud Oil % 
 MOWR.                   70:30:  Run Mud OWR 
 MSND.                       0:  Run Mud Sand % 
 MSOL.                      21:  Run Mud Solids% 
 DFV .spqt               68.00:  Mud Viscosity 
 MWOD.in                  6.75:  MWD Tool OD 
 MWSI.                     Yes:  Serv Intrp, MWD 
 OTIM.hr                174.84:  Time Operating 
 PCON.           Look Like New:  Pad Condition 
 PMAX.psia            10616.93:  Press Op, Max 
 PV  .cP                 50.00:  Mud PV 
 RUN .                     700:  Run Number 
 ROPA.m/hr               14.24:  ROP Avg 
 ROPN.m/hr               10.00:  ROP Min 
 ROPX.m/hr               32.00:  ROP Max 
 RPMA.rpm               120.90:  RPM Surface Avg 
 RPMN.rpm               120.00:  RPM Surface Min 
 RPMX.rpm               140.00:  RPM Surface Max 
 RRUN.                    0700:  Rig Run Number 
 RTIM.hr                  3.20:  Time Reaming 
 SAZI.deg               109.99:  Azm, Start 
 SDEP.m                5231.01:  Start Depth 
 SIDD.                      No:  Serv Intrp, DD 
 SINC.deg                73.72:  Inc, Start 
 SPPA.psig             3051.00:  SPP Avg 
 SPPN.psig             2950.00:  SPP Min 
 SPPX.psig             3250.00:  SPP Max 
 STIM.      08.00.00 05-Sep-20:  Start Time 
 SVCS.                 DD, MWD:  Services 
 SVER.                    9.20:  Sperry Version 
 TDAT.m                 559.00:  Tot Depth Attmp 
 TDDF.                      No:  Trip for DD 
 TDLG.m                 559.00:  Tot Depth Loggd 
 TFF .                      No:  Trip for Fail 
 TQAA.f-kp               26.49:  Torque Abs Avg 
 TQAN.f-kp               25.00:  Torque Abs Min 
 TQAX.f-kp               27.00:  Torque Abs Max 
 TRRT.°/30m               1.50:  Turn Rotating 
 MRT .                    HCIM:  Maximum Recorded Temperature 
 TTMX.degC               90.20:  Max Tool Temp 
 VS01.                90542671:  Virtual Str1 SN 
 VS02.                90545185:  Virtual Str2 SN 
 VS03.                90602015:  Virtual Str3 SN 
 VS04.                90515230:  Virtual Str4 SN 
 WBMN.klb                 5.00:  WOB Min 
 WOBA.klb                14.79:  WOB Avg 
 WOBX.klb                20.00:  WOB Max 
 YP  .lhf2               29.00:  Yield Point 
~Curve Information Block
#MNEM.UNIT                 API CODE     Curve Description
#---------               -----------    ---------------------------
 TIME.HHMMSS            00 000 000 000:  GT Time & Date
 GTDEPTH.m              00 000 000 000:  GT Depth
 GTPQH.psia             00 000 000 000:  GT HR Quartz Pressure
 GTTQ.degC              00 000 000 000:  GT Quartz Temperature
 GTTN.NONE              00 000 000 000:  GT Test Number
 GTET.sec               00 000 000 000:  GT Elapsed Test Time
 GTTVD.m                00 000 000 000:  GT True Vertical Depth
#Other Information
#
#WARRANTY: Halliburton will use its best efforts to furnish customers with 
#accurate information and interpretations that are part of, and incident to, the services 
#provided.  However, Halliburton cannot and does not warrant the accuracy 
#or correctness of such information and interpretations.  Under no circumstances should any 
#such information or interpretation be relied upon as the sole basis for any drilling, 
#completion, production, or financial decision or any procedure involving any risk to the 
#safety of any drilling venture, drilling rig or its crew or any other third party.  The 
#Customer has full responsibility for all drilling, completion and production operation.  
#Halliburton makes no representations or warranties, either expressed or 
#implied, including, but not limited to, the implied warranties of merchantability or fitness 
#for a particular purpose, with respect to the services rendered.  In no event will 
#Halliburton be liable for failure to obtain any particular results or for 
#any damages, including, but not limited to, indirect, special or consequential damages, 
#resulting from the use of any information or interpretation provided by Halliburton.
#
~A           TIME           GTDEPTH  GTPQH  GTTQ  GTTN   GTET   GTTVD  
# ...
   18:20:27.689.09-Sep-2020 5281.01 4048.57 74.60 21.00  67.75 2550.59
   18:20:27.889.09-Sep-2020 5281.01 4048.77 74.60 21.00  67.95 2550.59
   18:20:28.089.09-Sep-2020 5281.01 4048.77 74.60 21.00  68.15 2550.59
   18:20:28.288.09-Sep-2020 5281.01 4048.96 74.60 21.00  68.35 2550.59
   18:20:28.488.09-Sep-2020 5281.01 4049.01 74.60 21.00  68.55 2550.59
   18:20:28.688.09-Sep-2020 5281.01 4049.15 74.60 21.00  68.75 2550.59
   18:20:28.888.09-Sep-2020 5281.01 4049.31 74.60 21.00  68.95 2550.59
   18:20:29.088.09-Sep-2020 5281.01 4049.31 74.60 21.00  69.15 2550.59
   18:20:29.288.09-Sep-2020 5281.01 4049.55 74.60 21.00  69.35 2550.59
   18:20:29.488.09-Sep-2020 5281.01 4049.65 74.60 21.00  69.55 2550.59
   18:20:29.687.09-Sep-2020 5281.01 4049.75 74.60 21.00  69.75 2550.59
   18:20:29.887.09-Sep-2020 5281.01 4049.87 74.60 21.00  69.95 2550.59
   18:20:30.087.09-Sep-2020 5281.01 4049.87 74.60 21.00  70.14 2550.59
   18:20:30.287.09-Sep-2020 5281.01 4049.30 74.60 21.00  70.34 2550.59
   18:20:30.487.09-Sep-2020 5281.01 4050.15 74.60 21.00  70.54 2550.59
   18:20:30.687.09-Sep-2020 5281.01 4050.53 74.60 21.00  70.74 2550.59
   18:20:30.886.09-Sep-2020 5281.01 4050.91 74.60 21.00  70.94 2550.59
   18:20:31.086.09-Sep-2020 5281.01 4051.19 74.60 21.00  71.14 2550.59
   18:20:31.286.09-Sep-2020 5281.01 4051.22 74.60 21.00  71.34 2550.59
   18:20:31.486.09-Sep-2020 5281.01 4051.24 74.60 21.00  71.54 2550.59
   18:20:31.686.09-Sep-2020 5281.01 4051.34 74.60 21.00  71.74 2550.59
   18:20:31.886.09-Sep-2020 5281.01 4051.41 74.60 21.00  71.94 2550.59
   18:20:32.085.09-Sep-2020 5281.01 4051.41 74.60 21.00  72.14 2550.59
   18:20:32.285.09-Sep-2020 5281.01 4051.68 74.60 21.00  72.34 2550.59
   18:20:32.485.09-Sep-2020 5281.01 4051.63 74.60 21.00  72.54 2550.59
   18:20:32.685.09-Sep-2020 5281.01 4051.70 74.60 21.00  72.74 2550.59
   18:20:32.885.09-Sep-2020 5281.01 4051.73 74.60 21.00  72.94 2550.59
   18:20:33.085.09-Sep-2020 5281.01 4051.73 74.60 21.00  73.14 2550.59
   18:20:33.285.09-Sep-2020 5281.01 4051.88 74.60 21.00  73.34 2550.59
   18:20:33.484.09-Sep-2020 5281.01 4051.11 74.60 21.00  73.54 2550.59
   18:20:33.684.09-Sep-2020 5281.01 4051.62 74.60 21.00  73.74 2550.59
   18:20:33.884.09-Sep-2020 5281.01 4052.35 74.60 21.00  73.94 2550.59
   18:20:34.084.09-Sep-2020 5281.01 4052.35 74.60 21.00  74.14 2550.59
   18:20:34.284.09-Sep-2020 5281.01 4053.03 74.60 21.00  74.34 2550.59
   18:20:34.484.09-Sep-2020 5281.01 4052.18 74.60 21.00  74.54 2550.59
   18:20:34.683.09-Sep-2020 5281.01 4052.95 74.60 21.00  74.74 2550.59
   18:20:34.883.09-Sep-2020 5281.01 4053.21 74.60 21.00  74.94 2550.59
   18:20:35.083.09-Sep-2020 5281.01 4053.21 74.60 21.00  75.14 2550.59
   18:20:35.283.09-Sep-2020 5281.01 4053.94 74.60 21.00  75.34 2550.59
   18:20:35.483.09-Sep-2020 5281.01 4054.32 74.60 21.00  75.54 2550.59
   18:20:35.683.09-Sep-2020 5281.01 4054.23 74.60 21.00  75.74 2550.59
   18:20:35.883.09-Sep-2020 5281.01 4053.50 74.60 21.00  75.94 2550.59
   18:20:36.082.09-Sep-2020 5281.01 4053.50 74.60 21.00  76.14 2550.59
   18:20:36.282.09-Sep-2020 5281.01 4054.49 74.60 21.00  76.34 2550.59
   18:20:36.482.09-Sep-2020 5281.01 4054.77 74.60 21.00  76.54 2550.59
   18:20:36.682.09-Sep-2020 5281.01 4055.01 74.60 21.00  76.74 2550.59
   18:20:36.882.09-Sep-2020 5281.01 4055.16 74.60 21.00  76.94 2550.59
   18:20:37.082.09-Sep-2020 5281.01 4055.16 74.60 21.00  77.14 2550.59
   18:20:37.281.09-Sep-2020 5281.01 4054.46 74.60 21.00  77.34 2550.59
   18:20:37.481.09-Sep-2020 5281.01 4055.30 74.60 21.00  77.54 2550.59
   18:20:37.681.09-Sep-2020 5281.01 4055.51 74.60 21.00  77.74 2550.59
   18:20:37.881.09-Sep-2020 5281.01 4055.68 74.60 21.00  77.94 2550.59
   18:20:38.081.09-Sep-2020 5281.01 4055.68 74.60 21.00  78.14 2550.59
   18:20:38.281.09-Sep-2020 5281.01 4054.82 74.60 21.00  78.34 2550.59
   18:20:38.480.09-Sep-2020 5281.01 4055.17 74.60 21.00  78.54 2550.59
   18:20:38.680.09-Sep-2020 5281.01 4056.00 74.60 21.00  78.74 2550.59
   18:20:38.880.09-Sep-2020 5281.01 4056.16 74.60 21.00  78.94 2550.59
   18:20:39.080.09-Sep-2020 5281.01 4056.16 74.60 21.00  79.14 2550.59
   18:20:39.280.09-Sep-2020 5281.01 4056.28 74.60 21.00  79.34 2550.59
   18:20:39.480.09-Sep-2020 5281.01 4056.34 74.60 21.00  79.54 2550.59
   18:20:39.680.09-Sep-2020 5281.01 4056.33 74.60 21.00  79.74 2550.59
   18:20:39.879.09-Sep-2020 5281.01 4056.24 74.60 21.00  79.94 2550.59
   18:20:40.079.09-Sep-2020 5281.01 4056.24 74.60 21.00  80.14 2550.59
   18:20:40.279.09-Sep-2020 5281.01 4056.06 74.60 21.00  80.34 2550.59
   18:20:40.479.09-Sep-2020 5281.01 4055.98 74.60 21.00  80.54 2550.59
   18:20:40.679.09-Sep-2020 5281.01 4055.93 74.60 21.00  80.74 2550.59
   18:20:40.879.09-Sep-2020 5281.01 4055.93 74.60 21.00  80.94 2550.59
   18:20:41.078.09-Sep-2020 5281.01 4055.93 74.60 21.00  81.14 2550.59
   18:20:41.278.09-Sep-2020 5281.01 4055.90 74.60 21.00  81.34 2550.59
   18:20:41.478.09-Sep-2020 5281.01 4055.83 74.60 21.00  81.54 2550.59
   18:20:41.678.09-Sep-2020 5281.01 4055.80 74.60 21.00  81.74 2550.59
   18:20:41.878.09-Sep-2020 5281.01 4054.91 74.60 21.00  81.94 2550.59
   18:20:42.078.09-Sep-2020 5281.01 4054.91 74.60 21.00  82.14 2550.59
   18:20:42.277.09-Sep-2020 5281.01 4055.29 74.60 21.00  82.34 2550.59
   18:20:42.477.09-Sep-2020 5281.01 4055.80 74.60 21.00  82.54 2550.59
   18:20:42.677.09-Sep-2020 5281.01 4055.93 74.60 21.00  82.74 2550.59
   18:20:42.877.09-Sep-2020 5281.01 4056.30 74.60 21.00  82.93 2550.59
   18:20:43.077.09-Sep-2020 5281.01 4056.30 74.60 21.00  83.13 2550.59
   18:20:43.277.09-Sep-2020 5281.01 4056.21 74.60 21.00  83.33 2550.59
   18:20:43.477.09-Sep-2020 5281.01 4056.20 74.60 21.00  83.53 2550.59
   18:20:43.676.09-Sep-2020 5281.01 4056.20 74.59 21.00  83.73 2550.59
   18:20:43.876.09-Sep-2020 5281.01 4056.21 74.59 21.00  83.93 2550.59
   18:20:44.076.09-Sep-2020 5281.01 4056.21 74.60 21.00  84.13 2550.59
   18:20:44.276.09-Sep-2020 5281.01 4056.21 74.60 21.00  84.33 2550.59
   18:20:44.476.09-Sep-2020 5281.01 4056.13 74.59 21.00  84.53 2550.59
   18:20:44.676.09-Sep-2020 5281.01 4056.12 74.59 21.00  84.73 2550.59
   18:20:44.875.09-Sep-2020 5281.01 4056.12 74.59 21.00  84.93 2550.59
   18:20:45.075.09-Sep-2020 5281.01 4056.12 74.59 21.00  85.13 2550.59
   18:20:45.275.09-Sep-2020 5281.01 4054.78 74.59 21.00  85.33 2550.59
   18:20:45.475.09-Sep-2020 5281.01 4056.21 74.59 21.00  85.53 2550.59
   18:20:45.675.09-Sep-2020 5281.01 4055.81 74.59 21.00  85.73 2550.59
   18:20:45.875.09-Sep-2020 5281.01 4056.14 74.59 21.00  85.93 2550.59
   18:20:46.075.09-Sep-2020 5281.01 4056.14 74.59 21.00  86.13 2550.59
   18:20:46.274.09-Sep-2020 5281.01 4056.72 74.59 21.00  86.33 2550.59
   18:20:46.474.09-Sep-2020 5281.01 4055.76 74.59 21.00  86.53 2550.59
   18:20:46.674.09-Sep-2020 5281.01 4056.22 74.59 21.00  86.73 2550.59
   18:20:46.874.09-Sep-2020 5281.01 4056.73 74.59 21.00  86.93 2550.59
   18:20:47.074.09-Sep-2020 5281.01 4056.73 74.59 21.00  87.13 2550.59
   18:20:47.274.09-Sep-2020 5281.01 4057.21 74.59 21.00  87.33 2550.59
   18:20:47.473.09-Sep-2020 5281.01 4057.40 74.59 21.00  87.53 2550.59
   18:20:47.673.09-Sep-2020 5281.01 4056.50 74.59 21.00  87.73 2550.59
   18:20:47.873.09-Sep-2020 5281.01 4057.03 74.59 21.00  87.93 2550.59
   18:20:48.073.09-Sep-2020 5281.01 4057.03 74.59 21.00  88.13 2550.59
   18:20:48.273.09-Sep-2020 5281.01 4057.76 74.59 21.00  88.33 2550.59
   18:20:48.473.09-Sep-2020 5281.01 4057.96 74.59 21.00  88.53 2550.59
   18:20:48.672.09-Sep-2020 5281.01 4058.10 74.59 21.00  88.73 2550.59
   18:20:48.872.09-Sep-2020 5281.01 4058.00 74.59 21.00  88.93 2550.59
   18:20:49.072.09-Sep-2020 5281.01 4058.00 74.59 21.00  89.13 2550.59
   18:20:49.272.09-Sep-2020 5281.01 4057.16 74.59 21.00  89.33 2550.59
   18:20:49.472.09-Sep-2020 5281.01 4057.58 74.59 21.00  89.53 2550.59
   18:20:49.672.09-Sep-2020 5281.01 4058.22 74.59 21.00  89.73 2550.59
   18:20:49.872.09-Sep-2020 5281.01 4058.26 74.59 21.00  89.93 2550.59
   18:20:50.071.09-Sep-2020 5281.01 4058.26 74.59 21.00  90.13 2550.59
