~Version Information
 VERS.                  2.0:   CWLS log ASCII Standard -VERSION 2.0
 WRAP.                   NO:   One line per depth step
~Well Information Block
#MNEM.UNIT     VALUE/NAME     DESCRIPTION
#---------     -----------    ---------------------------
 STRT.S             21:21:48 09-Sep-20: START TIME 21:21:48 09-Sep-20
 STOP.S             21:29:57 09-Sep-20: STOP TIME  21:29:57 09-Sep-20
 STEP.S                   0.00: STEP TIME
 NULL.                 -999.25: NULL VALUE
 MDS .        Operator Entered:  MAG DATA SOURCE
 PDAT.          Mean Sea Level:  PERMANENT DATUM
 DCON.         Sperry Drilling:  DIRECTNL CONTR
 RIG .              West Azeri:  RIG NAME
 WELL.           C40 (Slot 20):  WELL NAME
 SRVC.     Turan Drilling Engineering:  CONTRACTOR
 FLD .                     ACG:  FIELD NAME
 CTRY.              Azerbaijan:  COUNTRY NAME
 PROV.                    Baku:  PROVINCE
 STAT.                    Baku:  STATE NAME
 REGN.                   EESSA:  REGION
 BASE.              Azerbaijan:  LOGGING EQUIPMENT BASE LOCATION
 COMP.     BP Exploration (Caspian Sea) Ltd:  COMPANY
 WTYP.                Deviated:  WELL TYPE
 SON .        AZ-XX-0906344804:  JOB NUMBER
 FTOP.          Formation Tops:  FORM TOPS DESC
 ILTD.               Lithology:  INTERP LTH DESC
 SVYD.                  Survey:  SURVEY DESC
 DMOD.             Drill Model:  DRILL MOD DESC
 HPTY.       Minimum Curvature:  HOLE POS TYPE
 NREF.                    Grid:  NORTH REFERENCE
 SPUD.               01-Jan-20:  SPUD DATE
 DATE.      00.59.44 15-Sep-20:  END TIME
 STIM.      12.00.00 12-Jun-20:  START TIME
 DMF .             Drill Floor:  DRILL MEAS FROM
 DFST.                        :  DIST FSL TEXT
 DFWT.                        :  DIST FWL TEXT
 API .                        :  API NUMBER
 CNTY.                        :  COUNTY
 UWI .                        :  UNIQUE WELL IDENTIFIER
 LOC .                        :  LOCATION
 LMF .             Drill Floor:  LOG MEASURED FROM
 VSNS.m                   2.88:  VERT SEC N/S
 VSEW.m                  -3.84:  VERT SEC E/W
 AGAP.m                  43.42:  AIR GAP
 APD .m                  43.42:  DEPTH ABOVE PD
 WDMS.m                 118.27:  WD ELEV
 EGL .m                   0.00:  GROUND ELEVATION
 EPD .m                   0.00:  ELEVATION
 AZTC.deg                 6.23:  AZM TOTAL CORR
 GRDC.deg                 0.20:  GRID CORRECTION
 MDEC.deg                 6.43:  MAGNETIC DECL
 MDIP.deg                59.49:  MAGNETIC DIP
 MFLD.nT              50277.00:  MAGNETIC FIELD
 GVFD.g                   1.00:  GRAVITY FIELD
 VSDR.deg               173.20:  VERT SEC DIRECT
 TDD .m                5790.01:  TOTAL DEPTH (DRILLER)
 SDEP.m                5231.01:  START DEPTH
 DFSL.m                   0.00:  DISTANCE FSL
 DFWL.m                   0.00:  DISTANCE FWL
 UTMY.m             4435808.83:  UTM Y
 UTMX.m              526266.40:  UTM X
 WHEW.m                  -3.84:  WELL HEAD E/W
 WHNS.m                   2.88:  WELL HEAD N/S
 LONG.deg                51.31:  LONGITUDE
 LATI.deg                40.06:  LATITUDE
 TVDS.m                  43.42:  TVDSS CORRECTN
 DEP .m                 430.08:  DEPTH
 EKB .m                  43.42:  KB ELEVATION
 EDF .m                  43.42:  DF ELEVATION
 TDL .m                 559.00:  TOTAL DEPTH (LOGGER)
 MAGU.                 1849381:  MAGUTM CHECKSUM
 VSC .                       0:  VS TO CLOSURE
~Parameter Information Block
#MNEM.UNIT       Value        Description
#---------     -----------    ---------------------------
 AV  .mps                 4.87:  Ann Velocity 
 AVMX.mps                 7.08:  Max Ann Veloc 
 AZIF.deg               108.87:  Azm, Final 
 BHAT.                  Rotary:  BHA Type 
 BROT.°/30m               0.35:  Build Rotating 
 BS  .in                  8.50:  Bit Size 
 BSZ .in                  8.50:  Bit Size 
 BTPL.psig              360.00:  Bit Press Loss 
 CABU.                     Yes:  Customer Abuse 
 COMM.                     ¼¥|:  Run Comments 1 
 TCS .hr                106.24:  Time Ciculation Ended 
 CV  .mps                 1.77:  Crit Velocity 
 CVMX.mps                 2.03:  Max Crit Veloc 
 DD1 .         Aykhan Agagulov:  Direct Drillr 1 
 DD2 .            Nonso Okofor:  Direct Drillr 2 
 DDSV.               Geo-Pilot:  DD Service 
 DEFF.%                  98.00:  % Det Eff 
 DLRX.°/30m               0.50:  Dogleg Rot Max 
 DLSO.°/30m               0.40:  Dogleg Oriented 
 DLSX.°/30m               0.94:  Dogleg Str Max 
 DRET.      20.30.00 08-Sep-20:  Drill End Time 
 DRST.      22.15.00 06-Sep-20:  Drill Start Tim 
 DTIM.hr                 31.31:  Time Drilling 
 EDEP.m                5790.01:  End Depth 
 ENG1.           Amrah Tahirov:  Engineer 1 
 ENG2.         Dair Mahammadov:  Engineer 2 
 ENG3.           Emil Huseynov:  Engineer 3 
 ETIM.      04.01.04 12-Sep-20:  End Time 
 FLOI.gpm               450.00:  Flow In 
 FLON.gpm               450.00:  Flow In Min 
 FLOS.cptm                2.00:  Fluid Loss 
 FLOX.gpm               450.00:  Flow In Max 
 FTRO.       Formation Presure:  FTWD Run Obj 
 HFLO.                      No:  High Flow 
 HPRE.                      No:  High Pressure 
 HTEM.                      No:  High Temp 
 HYDO.m                   1.80:  Hydro Offset 
 IFIN.deg                72.03:  Inc, Final 
 IMAX.deg                73.72:  Inc Max 
 IMIN.deg                70.94:  Inc Min 
 IMND.m                5508.52:  Inc Min Depth 
 IMXD.m                5253.60:  Inc Max Depth 
 JARR.                      No:  Jarring 
 LETM.      20.30.00 08-Sep-20:  Log End Time 
 LOST.hr                     0:  Lost Rig Time 
 LSTM.      22.15.00 06-Sep-20:  Log Start Time 
 MDCL.ppm             36000.00:  Mud Chlorides 
 MDES.     Inversion Oil/Synthetic:  Mud Desc 
 DFD .sg                  1.44:  Mud Density 
 MDMN.sg                  1.44:  Dens Mud Min 
 MDMX.sg                  1.57:  Dens Mud Max 
 MOIL.                      70:  Run Mud Oil % 
 MOWR.                   70:30:  Run Mud OWR 
 MSND.                       0:  Run Mud Sand % 
 MSOL.                      21:  Run Mud Solids% 
 DFV .spqt               68.00:  Mud Viscosity 
 MWOD.in                  6.75:  MWD Tool OD 
 MWSI.                     Yes:  Serv Intrp, MWD 
 OTIM.hr                174.84:  Time Operating 
 PCON.           Look Like New:  Pad Condition 
 PMAX.psia            10616.93:  Press Op, Max 
 PV  .cP                 50.00:  Mud PV 
 RUN .                     700:  Run Number 
 ROPA.m/hr               14.24:  ROP Avg 
 ROPN.m/hr               10.00:  ROP Min 
 ROPX.m/hr               32.00:  ROP Max 
 RPMA.rpm               120.90:  RPM Surface Avg 
 RPMN.rpm               120.00:  RPM Surface Min 
 RPMX.rpm               140.00:  RPM Surface Max 
 RRUN.                    0700:  Rig Run Number 
 RTIM.hr                  3.20:  Time Reaming 
 SAZI.deg               109.99:  Azm, Start 
 SDEP.m                5231.01:  Start Depth 
 SIDD.                      No:  Serv Intrp, DD 
 SINC.deg                73.72:  Inc, Start 
 SPPA.psig             3051.00:  SPP Avg 
 SPPN.psig             2950.00:  SPP Min 
 SPPX.psig             3250.00:  SPP Max 
 STIM.      08.00.00 05-Sep-20:  Start Time 
 SVCS.                 DD, MWD:  Services 
 SVER.                    9.20:  Sperry Version 
 TDAT.m                 559.00:  Tot Depth Attmp 
 TDDF.                      No:  Trip for DD 
 TDLG.m                 559.00:  Tot Depth Loggd 
 TFF .                      No:  Trip for Fail 
 TQAA.f-kp               26.49:  Torque Abs Avg 
 TQAN.f-kp               25.00:  Torque Abs Min 
 TQAX.f-kp               27.00:  Torque Abs Max 
 TRRT.°/30m               1.50:  Turn Rotating 
 MRT .                    HCIM:  Maximum Recorded Temperature 
 TTMX.degC               90.20:  Max Tool Temp 
 VS01.                90542671:  Virtual Str1 SN 
 VS02.                90545185:  Virtual Str2 SN 
 VS03.                90602015:  Virtual Str3 SN 
 VS04.                90515230:  Virtual Str4 SN 
 WBMN.klb                 5.00:  WOB Min 
 WOBA.klb                14.79:  WOB Avg 
 WOBX.klb                20.00:  WOB Max 
 YP  .lhf2               29.00:  Yield Point 
~Curve Information Block
#MNEM.UNIT                 API CODE     Curve Description
#---------               -----------    ---------------------------
 TIME.HHMMSS            00 000 000 000:  GT Time & Date
 GTDEPTH.m              00 000 000 000:  GT Depth
 GTPQH.psia             00 000 000 000:  GT HR Quartz Pressure
 GTTQ.degC              00 000 000 000:  GT Quartz Temperature
 GTTN.NONE              00 000 000 000:  GT Test Number
 GTET.sec               00 000 000 000:  GT Elapsed Test Time
 GTTVD.m                00 000 000 000:  GT True Vertical Depth
#Other Information
#
#WARRANTY: Halliburton will use its best efforts to furnish customers with 
#accurate information and interpretations that are part of, and incident to, the services 
#provided.  However, Halliburton cannot and does not warrant the accuracy 
#or correctness of such information and interpretations.  Under no circumstances should any 
#such information or interpretation be relied upon as the sole basis for any drilling, 
#completion, production, or financial decision or any procedure involving any risk to the 
#safety of any drilling venture, drilling rig or its crew or any other third party.  The 
#Customer has full responsibility for all drilling, completion and production operation.  
#Halliburton makes no representations or warranties, either expressed or 
#implied, including, but not limited to, the implied warranties of merchantability or fitness 
#for a particular purpose, with respect to the services rendered.  In no event will 
#Halliburton be liable for failure to obtain any particular results or for 
#any damages, including, but not limited to, indirect, special or consequential damages, 
#resulting from the use of any information or interpretation provided by Halliburton.
#
~A           TIME           GTDEPTH  GTPQH  GTTQ  GTTN   GTET   GTTVD  
# ...
   21:24:49.200.09-Sep-2020 5252.22  226.75 73.49 26.00 180.88 2542.36
   21:24:49.400.09-Sep-2020 5252.22  227.87 73.49 26.00 181.08 2542.36
   21:24:49.600.09-Sep-2020 5252.22  227.87 73.49 26.00 181.28 2542.36
   21:24:49.800.09-Sep-2020 5252.22  227.75 73.49 26.00 181.48 2542.36
   21:24:50.000.09-Sep-2020 5252.22  225.68 73.49 26.00 181.68 2542.36
   21:24:50.201.09-Sep-2020 5252.22  222.90 73.49 26.00 181.88 2542.36
   21:24:50.401.09-Sep-2020 5252.22  218.47 73.48 26.00 182.08 2542.36
   21:24:50.601.09-Sep-2020 5252.22  216.20 73.49 26.00 182.28 2542.36
   21:24:50.801.09-Sep-2020 5252.22  207.39 73.48 26.00 182.48 2542.36
   21:24:51.001.09-Sep-2020 5252.22  205.81 73.48 26.00 182.68 2542.36
   21:24:51.201.09-Sep-2020 5252.22  204.22 73.48 26.00 182.88 2542.36
   21:24:51.401.09-Sep-2020 5252.22  200.16 73.48 26.00 183.08 2542.36
   21:24:51.601.09-Sep-2020 5252.22  200.90 73.48 26.00 183.28 2542.36
   21:24:51.801.09-Sep-2020 5252.22  202.10 73.48 26.00 183.48 2542.36
   21:24:52.001.09-Sep-2020 5252.22  203.27 73.48 26.00 183.68 2542.36
   21:24:52.201.09-Sep-2020 5252.22  203.98 73.48 26.00 183.88 2542.36
   21:24:52.402.09-Sep-2020 5252.22  202.31 73.48 26.00 184.08 2542.36
   21:24:52.602.09-Sep-2020 5252.22  202.59 73.48 26.00 184.28 2542.36
   21:24:52.802.09-Sep-2020 5252.22  203.79 73.48 26.00 184.49 2542.36
   21:24:53.002.09-Sep-2020 5252.22  204.68 73.48 26.00 184.69 2542.36
   21:24:53.202.09-Sep-2020 5252.22  205.62 73.48 26.00 184.89 2542.36
   21:24:53.402.09-Sep-2020 5252.22  206.13 73.48 26.00 185.09 2542.36
   21:24:53.602.09-Sep-2020 5252.22  206.13 73.48 26.00 185.29 2542.36
   21:24:53.802.09-Sep-2020 5252.22  207.18 73.48 26.00 185.49 2542.36
   21:24:54.002.09-Sep-2020 5252.22  207.95 73.48 26.00 185.69 2542.36
   21:24:54.202.09-Sep-2020 5252.22  208.71 73.48 26.00 185.89 2542.36
   21:24:54.403.09-Sep-2020 5252.22  209.30 73.48 26.00 186.09 2542.36
   21:24:54.603.09-Sep-2020 5252.22  209.94 73.48 26.00 186.29 2542.36
   21:24:54.803.09-Sep-2020 5252.22  209.49 73.48 26.00 186.49 2542.36
   21:24:55.003.09-Sep-2020 5252.22  204.26 73.48 26.00 186.69 2542.36
   21:24:55.203.09-Sep-2020 5252.22  204.80 73.48 26.00 186.89 2542.36
   21:24:55.403.09-Sep-2020 5252.22  205.60 73.48 26.00 187.09 2542.36
   21:24:55.603.09-Sep-2020 5252.22  206.14 73.48 26.00 187.29 2542.36
   21:24:55.803.09-Sep-2020 5252.22  207.06 73.48 26.00 187.49 2542.36
   21:24:56.003.09-Sep-2020 5252.22  208.30 73.48 26.00 187.69 2542.36
   21:24:56.203.09-Sep-2020 5252.22  210.02 73.48 26.00 187.89 2542.36
   21:24:56.403.09-Sep-2020 5252.22  210.67 73.48 26.00 188.09 2542.36
   21:24:56.604.09-Sep-2020 5252.22  211.46 73.48 26.00 188.29 2542.36
   21:24:56.804.09-Sep-2020 5252.22  212.21 73.48 26.00 188.49 2542.36
   21:24:57.004.09-Sep-2020 5252.22  213.52 73.48 26.00 188.69 2542.36
   21:24:57.204.09-Sep-2020 5252.22  214.36 73.48 26.00 188.89 2542.36
   21:24:57.404.09-Sep-2020 5252.22  215.18 73.48 26.00 189.09 2542.36
   21:24:57.604.09-Sep-2020 5252.22  216.23 73.48 26.00 189.29 2542.36
   21:24:57.804.09-Sep-2020 5252.22  217.05 73.48 26.00 189.49 2542.36
   21:24:58.004.09-Sep-2020 5252.22  217.85 73.48 26.00 189.69 2542.36
   21:24:58.204.09-Sep-2020 5252.22  218.14 73.48 26.00 189.89 2542.36
   21:24:58.404.09-Sep-2020 5252.22  219.49 73.48 26.00 190.09 2542.36
   21:24:58.604.09-Sep-2020 5252.22  220.31 73.48 26.00 190.29 2542.36
   21:24:58.805.09-Sep-2020 5252.22  221.31 73.48 26.00 190.49 2542.36
   21:24:59.005.09-Sep-2020 5252.22  222.11 73.48 26.00 190.69 2542.36
   21:24:59.205.09-Sep-2020 5252.22  222.85 73.48 26.00 190.89 2542.36
   21:24:59.405.09-Sep-2020 5252.22  224.12 73.48 26.00 191.09 2542.36
   21:24:59.605.09-Sep-2020 5252.22  225.35 73.48 26.00 191.29 2542.36
   21:24:59.805.09-Sep-2020 5252.22  226.42 73.48 26.00 191.49 2542.36
   21:25:00.005.09-Sep-2020 5252.22  227.04 73.48 26.00 191.69 2542.36
   21:25:00.205.09-Sep-2020 5252.22  228.03 73.48 26.00 191.89 2542.36
   21:25:00.405.09-Sep-2020 5252.22  228.96 73.48 26.00 192.09 2542.36
   21:25:00.605.09-Sep-2020 5252.22  229.61 73.48 26.00 192.29 2542.36
   21:25:00.805.09-Sep-2020 5252.22  230.33 73.48 26.00 192.49 2542.36
   21:25:01.006.09-Sep-2020 5252.22  230.88 73.48 26.00 192.69 2542.36
   21:25:01.206.09-Sep-2020 5252.22  231.51 73.48 26.00 192.89 2542.36
   21:25:01.406.09-Sep-2020 5252.22  232.05 73.48 26.00 193.09 2542.36
   21:25:01.606.09-Sep-2020 5252.22  232.62 73.48 26.00 193.29 2542.36
   21:25:01.806.09-Sep-2020 5252.22  233.15 73.48 26.00 193.49 2542.36
   21:25:02.006.09-Sep-2020 5252.22  233.75 73.48 26.00 193.69 2542.36
   21:25:02.206.09-Sep-2020 5252.22  234.28 73.48 26.00 193.89 2542.36
   21:25:02.406.09-Sep-2020 5252.22  234.74 73.48 26.00 194.09 2542.36
   21:25:02.606.09-Sep-2020 5252.22  235.20 73.48 26.00 194.29 2542.36
   21:25:02.806.09-Sep-2020 5252.22  235.63 73.48 26.00 194.49 2542.36
   21:25:03.006.09-Sep-2020 5252.22  236.05 73.48 26.00 194.69 2542.36
   21:25:03.207.09-Sep-2020 5252.22  236.44 73.48 26.00 194.89 2542.36
   21:25:03.407.09-Sep-2020 5252.22  236.80 73.48 26.00 195.09 2542.36
   21:25:03.607.09-Sep-2020 5252.22  236.84 73.48 26.00 195.29 2542.36
   21:25:03.807.09-Sep-2020 5252.22  237.44 73.48 26.00 195.49 2542.36
   21:25:04.007.09-Sep-2020 5252.22  237.86 73.48 26.00 195.69 2542.36
   21:25:04.207.09-Sep-2020 5252.22  238.16 73.48 26.00 195.89 2542.36
   21:25:04.407.09-Sep-2020 5252.22  238.57 73.48 26.00 196.09 2542.36
   21:25:04.607.09-Sep-2020 5252.22  238.84 73.48 26.00 196.29 2542.36
   21:25:04.807.09-Sep-2020 5252.22  239.17 73.48 26.00 196.49 2542.36
   21:25:05.007.09-Sep-2020 5252.22  239.47 73.48 26.00 196.69 2542.36
   21:25:05.207.09-Sep-2020 5252.22  239.79 73.48 26.00 196.89 2542.36
   21:25:05.408.09-Sep-2020 5252.22  240.05 73.48 26.00 197.09 2542.36
   21:25:05.608.09-Sep-2020 5252.22  240.05 73.48 26.00 197.29 2542.36
   21:25:05.808.09-Sep-2020 5252.22  240.62 73.48 26.00 197.49 2542.36
   21:25:06.008.09-Sep-2020 5252.22  240.91 73.48 26.00 197.69 2542.36
   21:25:06.208.09-Sep-2020 5252.22  241.22 73.48 26.00 197.89 2542.36
   21:25:06.408.09-Sep-2020 5252.22  241.52 73.48 26.00 198.09 2542.36
   21:25:06.608.09-Sep-2020 5252.22  241.79 73.48 26.00 198.29 2542.36
   21:25:06.808.09-Sep-2020 5252.22  241.73 73.48 26.00 198.49 2542.36
   21:25:07.008.09-Sep-2020 5252.22  242.26 73.48 26.00 198.69 2542.36
   21:25:07.208.09-Sep-2020 5252.22  242.61 73.48 26.00 198.89 2542.36
   21:25:07.409.09-Sep-2020 5252.22  242.90 73.48 26.00 199.09 2542.36
   21:25:07.609.09-Sep-2020 5252.22  243.32 73.48 26.00 199.29 2542.36
   21:25:07.809.09-Sep-2020 5252.22  243.54 73.48 26.00 199.49 2542.36
   21:25:08.009.09-Sep-2020 5252.22  243.67 73.48 26.00 199.69 2542.36
   21:25:08.209.09-Sep-2020 5252.22  244.28 73.48 26.00 199.89 2542.36
   21:25:08.409.09-Sep-2020 5252.22  244.67 73.48 26.00 200.09 2542.36
   21:25:08.609.09-Sep-2020 5252.22  244.67 73.48 26.00 200.29 2542.36
   21:25:08.809.09-Sep-2020 5252.22  245.46 73.48 26.00 200.49 2542.36
   21:25:09.009.09-Sep-2020 5252.22  245.67 73.48 26.00 200.69 2542.36
   21:25:09.209.09-Sep-2020 5252.22  245.50 73.48 26.00 200.89 2542.36
   21:25:09.409.09-Sep-2020 5252.22  246.57 73.48 26.00 201.09 2542.36
   21:25:09.610.09-Sep-2020 5252.22  246.77 73.48 26.00 201.29 2542.36
   21:25:09.810.09-Sep-2020 5252.22  247.14 73.48 26.00 201.49 2542.36
   21:25:10.010.09-Sep-2020 5252.22  247.47 73.48 26.00 201.69 2542.36
   21:25:10.210.09-Sep-2020 5252.22  247.98 73.48 26.00 201.89 2542.36
   21:25:10.410.09-Sep-2020 5252.22  248.25 73.48 26.00 202.09 2542.36
   21:25:10.610.09-Sep-2020 5252.22  248.26 73.48 26.00 202.29 2542.36
   21:25:10.810.09-Sep-2020 5252.22  248.91 73.48 26.00 202.49 2542.36
   21:25:11.010.09-Sep-2020 5252.22  249.38 73.48 26.00 202.69 2542.36
   21:25:11.210.09-Sep-2020 5252.22  249.76 73.48 26.00 202.89 2542.36
   21:25:11.410.09-Sep-2020 5252.22  250.21 73.48 26.00 203.09 2542.36
   21:25:11.610.09-Sep-2020 5252.22  250.25 73.48 26.00 203.29 2542.36
