~Version Information
 VERS.                  2.0:   CWLS log ASCII Standard -VERSION 2.0
 WRAP.                   NO:   One line per depth step
~Well Information Block
#MNEM.UNIT     VALUE/NAME     DESCRIPTION
#---------     -----------    ---------------------------
 STRT.S             17:25:53 09-Sep-20: START TIME 17:25:53 09-Sep-20
 STOP.S             17:34:04 09-Sep-20: STOP TIME  17:34:04 09-Sep-20
 STEP.S                   0.00: STEP TIME
 NULL.                 -999.25: NULL VALUE
 MDS .        Operator Entered:  MAG DATA SOURCE
 PDAT.          Mean Sea Level:  PERMANENT DATUM
 DCON.         Sperry Drilling:  DIRECTNL CONTR
 RIG .              West Azeri:  RIG NAME
 WELL.           C40 (Slot 20):  WELL NAME
 SRVC.     Turan Drilling Engineering:  CONTRACTOR
 FLD .                     ACG:  FIELD NAME
 CTRY.              Azerbaijan:  COUNTRY NAME
 PROV.                    Baku:  PROVINCE
 STAT.                    Baku:  STATE NAME
 REGN.                   EESSA:  REGION
 BASE.              Azerbaijan:  LOGGING EQUIPMENT BASE LOCATION
 COMP.     BP Exploration (Caspian Sea) Ltd:  COMPANY
 WTYP.                Deviated:  WELL TYPE
 SON .        AZ-XX-0906344804:  JOB NUMBER
 FTOP.          Formation Tops:  FORM TOPS DESC
 ILTD.               Lithology:  INTERP LTH DESC
 SVYD.                  Survey:  SURVEY DESC
 DMOD.             Drill Model:  DRILL MOD DESC
 HPTY.       Minimum Curvature:  HOLE POS TYPE
 NREF.                    Grid:  NORTH REFERENCE
 SPUD.               01-Jan-20:  SPUD DATE
 DATE.      00.59.44 15-Sep-20:  END TIME
 STIM.      12.00.00 12-Jun-20:  START TIME
 DMF .             Drill Floor:  DRILL MEAS FROM
 DFST.                        :  DIST FSL TEXT
 DFWT.                        :  DIST FWL TEXT
 API .                        :  API NUMBER
 CNTY.                        :  COUNTY
 UWI .                        :  UNIQUE WELL IDENTIFIER
 LOC .                        :  LOCATION
 LMF .             Drill Floor:  LOG MEASURED FROM
 VSNS.m                   2.88:  VERT SEC N/S
 VSEW.m                  -3.84:  VERT SEC E/W
 AGAP.m                  43.42:  AIR GAP
 APD .m                  43.42:  DEPTH ABOVE PD
 WDMS.m                 118.27:  WD ELEV
 EGL .m                   0.00:  GROUND ELEVATION
 EPD .m                   0.00:  ELEVATION
 AZTC.deg                 6.23:  AZM TOTAL CORR
 GRDC.deg                 0.20:  GRID CORRECTION
 MDEC.deg                 6.43:  MAGNETIC DECL
 MDIP.deg                59.49:  MAGNETIC DIP
 MFLD.nT              50277.00:  MAGNETIC FIELD
 GVFD.g                   1.00:  GRAVITY FIELD
 VSDR.deg               173.20:  VERT SEC DIRECT
 TDD .m                5790.01:  TOTAL DEPTH (DRILLER)
 SDEP.m                5231.01:  START DEPTH
 DFSL.m                   0.00:  DISTANCE FSL
 DFWL.m                   0.00:  DISTANCE FWL
 UTMY.m             4435808.83:  UTM Y
 UTMX.m              526266.40:  UTM X
 WHEW.m                  -3.84:  WELL HEAD E/W
 WHNS.m                   2.88:  WELL HEAD N/S
 LONG.deg                51.31:  LONGITUDE
 LATI.deg                40.06:  LATITUDE
 TVDS.m                  43.42:  TVDSS CORRECTN
 DEP .m                 430.08:  DEPTH
 EKB .m                  43.42:  KB ELEVATION
 EDF .m                  43.42:  DF ELEVATION
 TDL .m                 559.00:  TOTAL DEPTH (LOGGER)
 MAGU.                 1849381:  MAGUTM CHECKSUM
 VSC .                       0:  VS TO CLOSURE
~Parameter Information Block
#MNEM.UNIT       Value        Description
#---------     -----------    ---------------------------
 AV  .mps                 4.87:  Ann Velocity 
 AVMX.mps                 7.08:  Max Ann Veloc 
 AZIF.deg               108.87:  Azm, Final 
 BHAT.                  Rotary:  BHA Type 
 BROT.°/30m               0.35:  Build Rotating 
 BS  .in                  8.50:  Bit Size 
 BSZ .in                  8.50:  Bit Size 
 BTPL.psig              360.00:  Bit Press Loss 
 CABU.                     Yes:  Customer Abuse 
 COMM.                     ô¸n:  Run Comments 1 
 TCS .hr                106.24:  Time Ciculation Ended 
 CV  .mps                 1.77:  Crit Velocity 
 CVMX.mps                 2.03:  Max Crit Veloc 
 DD1 .         Aykhan Agagulov:  Direct Drillr 1 
 DD2 .            Nonso Okofor:  Direct Drillr 2 
 DDSV.               Geo-Pilot:  DD Service 
 DEFF.%                  98.00:  % Det Eff 
 DLRX.°/30m               0.50:  Dogleg Rot Max 
 DLSO.°/30m               0.40:  Dogleg Oriented 
 DLSX.°/30m               0.94:  Dogleg Str Max 
 DRET.      20.30.00 08-Sep-20:  Drill End Time 
 DRST.      22.15.00 06-Sep-20:  Drill Start Tim 
 DTIM.hr                 31.31:  Time Drilling 
 EDEP.m                5790.01:  End Depth 
 ENG1.           Amrah Tahirov:  Engineer 1 
 ENG2.         Dair Mahammadov:  Engineer 2 
 ENG3.           Emil Huseynov:  Engineer 3 
 ETIM.      04.01.04 12-Sep-20:  End Time 
 FLOI.gpm               450.00:  Flow In 
 FLON.gpm               450.00:  Flow In Min 
 FLOS.cptm                2.00:  Fluid Loss 
 FLOX.gpm               450.00:  Flow In Max 
 FTRO.       Formation Presure:  FTWD Run Obj 
 HFLO.                      No:  High Flow 
 HPRE.                      No:  High Pressure 
 HTEM.                      No:  High Temp 
 HYDO.m                   1.80:  Hydro Offset 
 IFIN.deg                72.03:  Inc, Final 
 IMAX.deg                73.72:  Inc Max 
 IMIN.deg                70.94:  Inc Min 
 IMND.m                5508.52:  Inc Min Depth 
 IMXD.m                5253.60:  Inc Max Depth 
 JARR.                      No:  Jarring 
 LETM.      20.30.00 08-Sep-20:  Log End Time 
 LOST.hr                     0:  Lost Rig Time 
 LSTM.      22.15.00 06-Sep-20:  Log Start Time 
 MDCL.ppm             36000.00:  Mud Chlorides 
 MDES.     Inversion Oil/Synthetic:  Mud Desc 
 DFD .sg                  1.44:  Mud Density 
 MDMN.sg                  1.44:  Dens Mud Min 
 MDMX.sg                  1.57:  Dens Mud Max 
 MOIL.                      70:  Run Mud Oil % 
 MOWR.                   70:30:  Run Mud OWR 
 MSND.                       0:  Run Mud Sand % 
 MSOL.                      21:  Run Mud Solids% 
 DFV .spqt               68.00:  Mud Viscosity 
 MWOD.in                  6.75:  MWD Tool OD 
 MWSI.                     Yes:  Serv Intrp, MWD 
 OTIM.hr                174.84:  Time Operating 
 PCON.           Look Like New:  Pad Condition 
 PMAX.psia            10616.93:  Press Op, Max 
 PV  .cP                 50.00:  Mud PV 
 RUN .                     700:  Run Number 
 ROPA.m/hr               14.24:  ROP Avg 
 ROPN.m/hr               10.00:  ROP Min 
 ROPX.m/hr               32.00:  ROP Max 
 RPMA.rpm               120.90:  RPM Surface Avg 
 RPMN.rpm               120.00:  RPM Surface Min 
 RPMX.rpm               140.00:  RPM Surface Max 
 RRUN.                    0700:  Rig Run Number 
 RTIM.hr                  3.20:  Time Reaming 
 SAZI.deg               109.99:  Azm, Start 
 SDEP.m                5231.01:  Start Depth 
 SIDD.                      No:  Serv Intrp, DD 
 SINC.deg                73.72:  Inc, Start 
 SPPA.psig             3051.00:  SPP Avg 
 SPPN.psig             2950.00:  SPP Min 
 SPPX.psig             3250.00:  SPP Max 
 STIM.      08.00.00 05-Sep-20:  Start Time 
 SVCS.                 DD, MWD:  Services 
 SVER.                    9.20:  Sperry Version 
 TDAT.m                 559.00:  Tot Depth Attmp 
 TDDF.                      No:  Trip for DD 
 TDLG.m                 559.00:  Tot Depth Loggd 
 TFF .                      No:  Trip for Fail 
 TQAA.f-kp               26.49:  Torque Abs Avg 
 TQAN.f-kp               25.00:  Torque Abs Min 
 TQAX.f-kp               27.00:  Torque Abs Max 
 TRRT.°/30m               1.50:  Turn Rotating 
 MRT .                    HCIM:  Maximum Recorded Temperature 
 TTMX.degC               90.20:  Max Tool Temp 
 VS01.                90542671:  Virtual Str1 SN 
 VS02.                90545185:  Virtual Str2 SN 
 VS03.                90602015:  Virtual Str3 SN 
 VS04.                90515230:  Virtual Str4 SN 
 WBMN.klb                 5.00:  WOB Min 
 WOBA.klb                14.79:  WOB Avg 
 WOBX.klb                20.00:  WOB Max 
 YP  .lhf2               29.00:  Yield Point 
~Curve Information Block
#MNEM.UNIT                 API CODE     Curve Description
#---------               -----------    ---------------------------
 TIME.HHMMSS            00 000 000 000:  GT Time & Date
 GTDEPTH.m              00 000 000 000:  GT Depth
 GTPQH.psia             00 000 000 000:  GT HR Quartz Pressure
 GTTQ.degC              00 000 000 000:  GT Quartz Temperature
 GTTN.NONE              00 000 000 000:  GT Test Number
 GTET.sec               00 000 000 000:  GT Elapsed Test Time
 GTTVD.m                00 000 000 000:  GT True Vertical Depth
#Other Information
#
#WARRANTY: Halliburton will use its best efforts to furnish customers with 
#accurate information and interpretations that are part of, and incident to, the services 
#provided.  However, Halliburton cannot and does not warrant the accuracy 
#or correctness of such information and interpretations.  Under no circumstances should any 
#such information or interpretation be relied upon as the sole basis for any drilling, 
#completion, production, or financial decision or any procedure involving any risk to the 
#safety of any drilling venture, drilling rig or its crew or any other third party.  The 
#Customer has full responsibility for all drilling, completion and production operation.  
#Halliburton makes no representations or warranties, either expressed or 
#implied, including, but not limited to, the implied warranties of merchantability or fitness 
#for a particular purpose, with respect to the services rendered.  In no event will 
#Halliburton be liable for failure to obtain any particular results or for 
#any damages, including, but not limited to, indirect, special or consequential damages, 
#resulting from the use of any information or interpretation provided by Halliburton.
#
~A           TIME           GTDEPTH  GTPQH  GTTQ  GTTN   GTET   GTTVD  
# ...
   17:29:39.217.09-Sep-2020 5302.51  882.64 74.48 20.00 226.11 2556.93
   17:29:39.417.09-Sep-2020 5302.51  882.64 74.48 20.00 226.31 2556.93
   17:29:39.617.09-Sep-2020 5302.51  883.64 74.48 20.00 226.51 2556.93
   17:29:39.817.09-Sep-2020 5302.51  883.58 74.48 20.00 226.71 2556.93
   17:29:40.017.09-Sep-2020 5302.51  884.04 74.48 20.00 226.91 2556.93
   17:29:40.217.09-Sep-2020 5302.51  884.76 74.49 20.00 227.11 2556.93
   17:29:40.418.09-Sep-2020 5302.51  884.76 74.49 20.00 227.31 2556.93
   17:29:40.618.09-Sep-2020 5302.51  885.56 74.49 20.00 227.51 2556.93
   17:29:40.818.09-Sep-2020 5302.51  885.56 74.49 20.00 227.71 2556.93
   17:29:41.018.09-Sep-2020 5302.51  886.33 74.49 20.00 227.91 2556.93
   17:29:41.218.09-Sep-2020 5302.51  886.82 74.49 20.00 228.11 2556.93
   17:29:41.418.09-Sep-2020 5302.51  886.82 74.49 20.00 228.31 2556.93
   17:29:41.618.09-Sep-2020 5302.51  887.79 74.49 20.00 228.51 2556.93
   17:29:41.818.09-Sep-2020 5302.51  888.08 74.49 20.00 228.71 2556.93
   17:29:42.018.09-Sep-2020 5302.51  888.49 74.49 20.00 228.91 2556.93
   17:29:42.218.09-Sep-2020 5302.51  888.02 74.49 20.00 229.11 2556.93
   17:29:42.419.09-Sep-2020 5302.51  888.02 74.49 20.00 229.31 2556.93
   17:29:42.619.09-Sep-2020 5302.51  889.61 74.49 20.00 229.51 2556.93
   17:29:42.819.09-Sep-2020 5302.51  890.08 74.49 20.00 229.71 2556.93
   17:29:43.019.09-Sep-2020 5302.51  890.40 74.49 20.00 229.91 2556.93
   17:29:43.219.09-Sep-2020 5302.51  890.40 74.49 20.00 230.11 2556.93
   17:29:43.419.09-Sep-2020 5302.51  890.40 74.49 20.00 230.31 2556.93
   17:29:43.619.09-Sep-2020 5302.51  891.95 74.49 20.00 230.51 2556.93
   17:29:43.819.09-Sep-2020 5302.51  892.35 74.49 20.00 230.71 2556.93
   17:29:44.019.09-Sep-2020 5302.51  892.80 74.49 20.00 230.91 2556.93
   17:29:44.219.09-Sep-2020 5302.51  893.37 74.49 20.00 231.11 2556.93
   17:29:44.420.09-Sep-2020 5302.51  893.37 74.49 20.00 231.31 2556.93
   17:29:44.620.09-Sep-2020 5302.51  894.02 74.49 20.00 231.51 2556.93
   17:29:44.820.09-Sep-2020 5302.51  894.42 74.49 20.00 231.71 2556.93
   17:29:45.020.09-Sep-2020 5302.51  894.80 74.49 20.00 231.91 2556.93
   17:29:45.220.09-Sep-2020 5302.51  895.19 74.49 20.00 232.11 2556.93
   17:29:45.420.09-Sep-2020 5302.51  895.19 74.49 20.00 232.31 2556.93
   17:29:45.620.09-Sep-2020 5302.51  895.83 74.49 20.00 232.51 2556.93
   17:29:45.820.09-Sep-2020 5302.51  896.21 74.49 20.00 232.71 2556.93
   17:29:46.020.09-Sep-2020 5302.51  896.61 74.49 20.00 232.91 2556.93
   17:29:46.220.09-Sep-2020 5302.51  897.02 74.49 20.00 233.11 2556.93
   17:29:46.420.09-Sep-2020 5302.51  897.40 74.49 20.00 233.31 2556.93
   17:29:46.621.09-Sep-2020 5302.51  897.74 74.49 20.00 233.51 2556.93
   17:29:46.821.09-Sep-2020 5302.51  897.25 74.49 20.00 233.71 2556.93
   17:29:47.021.09-Sep-2020 5302.51  898.70 74.49 20.00 233.91 2556.93
   17:29:47.221.09-Sep-2020 5302.51  898.77 74.49 20.00 234.11 2556.93
   17:29:47.421.09-Sep-2020 5302.51  898.77 74.49 20.00 234.31 2556.93
   17:29:47.621.09-Sep-2020 5302.51  899.42 74.49 20.00 234.51 2556.93
   17:29:47.821.09-Sep-2020 5302.51  900.00 74.49 20.00 234.71 2556.93
   17:29:48.021.09-Sep-2020 5302.51  900.23 74.49 20.00 234.91 2556.93
   17:29:48.221.09-Sep-2020 5302.51  900.58 74.49 20.00 235.11 2556.93
   17:29:48.421.09-Sep-2020 5302.51  900.58 74.49 20.00 235.31 2556.93
   17:29:48.622.09-Sep-2020 5302.51  901.24 74.50 20.00 235.51 2556.93
   17:29:48.822.09-Sep-2020 5302.51  901.55 74.50 20.00 235.71 2556.93
   17:29:49.022.09-Sep-2020 5302.51  901.88 74.50 20.00 235.91 2556.93
   17:29:49.222.09-Sep-2020 5302.51  902.23 74.50 20.00 236.11 2556.93
   17:29:49.422.09-Sep-2020 5302.51  902.23 74.50 20.00 236.31 2556.93
   17:29:49.622.09-Sep-2020 5302.51  902.98 74.50 20.00 236.51 2556.93
   17:29:49.822.09-Sep-2020 5302.51  903.26 74.50 20.00 236.71 2556.93
   17:29:50.022.09-Sep-2020 5302.51  903.22 74.50 20.00 236.91 2556.93
   17:29:50.222.09-Sep-2020 5302.51  903.57 74.50 20.00 237.11 2556.93
   17:29:50.422.09-Sep-2020 5302.51  903.57 74.50 20.00 237.31 2556.93
   17:29:50.622.09-Sep-2020 5302.51  904.54 74.50 20.00 237.51 2556.93
   17:29:50.823.09-Sep-2020 5302.51  904.82 74.50 20.00 237.71 2556.93
   17:29:51.023.09-Sep-2020 5302.51  905.28 74.50 20.00 237.91 2556.93
   17:29:51.223.09-Sep-2020 5302.51  904.68 74.50 20.00 238.11 2556.93
   17:29:51.423.09-Sep-2020 5302.51  904.68 74.50 20.00 238.31 2556.93
   17:29:51.623.09-Sep-2020 5302.51  906.23 74.50 20.00 238.51 2556.93
   17:29:51.823.09-Sep-2020 5302.51  906.57 74.50 20.00 238.71 2556.93
   17:29:52.023.09-Sep-2020 5302.51  906.82 74.50 20.00 238.91 2556.93
   17:29:52.223.09-Sep-2020 5302.51  906.48 74.50 20.00 239.11 2556.93
   17:29:52.423.09-Sep-2020 5302.51  906.48 74.50 20.00 239.31 2556.93
   17:29:52.623.09-Sep-2020 5302.51  907.89 74.50 20.00 239.51 2556.93
   17:29:52.824.09-Sep-2020 5302.51  908.26 74.50 20.00 239.71 2556.93
   17:29:53.024.09-Sep-2020 5302.51  908.49 74.50 20.00 239.91 2556.93
   17:29:53.224.09-Sep-2020 5302.51  909.00 74.50 20.00 240.12 2556.93
   17:29:53.424.09-Sep-2020 5302.51  909.00 74.50 20.00 240.32 2556.93
   17:29:53.624.09-Sep-2020 5302.51  909.54 74.50 20.00 240.52 2556.93
   17:29:53.824.09-Sep-2020 5302.51  909.38 74.50 20.00 240.72 2556.93
   17:29:54.024.09-Sep-2020 5302.51  910.20 74.50 20.00 240.92 2556.93
   17:29:54.224.09-Sep-2020 5302.51  910.64 74.50 20.00 241.12 2556.93
   17:29:54.424.09-Sep-2020 5302.51  910.64 74.50 20.00 241.32 2556.93
   17:29:54.624.09-Sep-2020 5302.51  911.40 74.50 20.00 241.52 2556.93
   17:29:54.824.09-Sep-2020 5302.51  910.79 74.50 20.00 241.72 2556.93
   17:29:55.025.09-Sep-2020 5302.51  912.31 74.50 20.00 241.92 2556.93
   17:29:55.225.09-Sep-2020 5302.51  912.38 74.50 20.00 242.12 2556.93
   17:29:55.425.09-Sep-2020 5302.51  912.38 74.50 20.00 242.32 2556.93
   17:29:55.625.09-Sep-2020 5302.51  913.02 74.50 20.00 242.52 2556.93
   17:29:55.825.09-Sep-2020 5302.51  913.58 74.50 20.00 242.72 2556.93
   17:29:56.025.09-Sep-2020 5302.51  913.79 74.50 20.00 242.92 2556.93
   17:29:56.225.09-Sep-2020 5302.51  914.12 74.50 20.00 243.12 2556.93
   17:29:56.425.09-Sep-2020 5302.51  914.12 74.50 20.00 243.32 2556.93
   17:29:56.625.09-Sep-2020 5302.51  914.75 74.50 20.00 243.52 2556.93
   17:29:56.825.09-Sep-2020 5302.51  915.04 74.50 20.00 243.72 2556.93
   17:29:57.026.09-Sep-2020 5302.51  915.35 74.50 20.00 243.92 2556.93
   17:29:57.226.09-Sep-2020 5302.51  915.66 74.50 20.00 244.12 2556.93
   17:29:57.426.09-Sep-2020 5302.51  915.66 74.50 20.00 244.32 2556.93
   17:29:57.626.09-Sep-2020 5302.51  916.33 74.50 20.00 244.52 2556.93
   17:29:57.826.09-Sep-2020 5302.51  916.62 74.50 20.00 244.72 2556.93
   17:29:58.026.09-Sep-2020 5302.51  916.94 74.50 20.00 244.92 2556.93
   17:29:58.226.09-Sep-2020 5302.51  917.22 74.50 20.00 245.12 2556.93
   17:29:58.426.09-Sep-2020 5302.51  917.22 74.50 20.00 245.32 2556.93
   17:29:58.626.09-Sep-2020 5302.51  917.57 74.50 20.00 245.52 2556.93
   17:29:58.826.09-Sep-2020 5302.51  918.29 74.50 20.00 245.72 2556.93
   17:29:59.027.09-Sep-2020 5302.51  918.54 74.51 20.00 245.92 2556.93
   17:29:59.227.09-Sep-2020 5302.51  918.82 74.51 20.00 246.12 2556.93
   17:29:59.427.09-Sep-2020 5302.51  918.82 74.51 20.00 246.32 2556.93
   17:29:59.627.09-Sep-2020 5302.51  919.45 74.51 20.00 246.52 2556.93
   17:29:59.827.09-Sep-2020 5302.51  919.75 74.51 20.00 246.72 2556.93
   17:30:00.027.09-Sep-2020 5302.51  920.00 74.51 20.00 246.92 2556.93
   17:30:00.227.09-Sep-2020 5302.51  921.58 74.51 20.00 247.12 2556.93
   17:30:00.427.09-Sep-2020 5302.51  921.58 74.51 20.00 247.32 2556.93
   17:30:00.627.09-Sep-2020 5302.51  922.14 74.51 20.00 247.52 2556.93
   17:30:00.827.09-Sep-2020 5302.51  921.87 74.51 20.00 247.72 2556.93
   17:30:01.027.09-Sep-2020 5302.51  922.61 74.51 20.00 247.92 2556.93
   17:30:01.228.09-Sep-2020 5302.51  922.90 74.51 20.00 248.12 2556.93
   17:30:01.428.09-Sep-2020 5302.51  922.90 74.51 20.00 248.32 2556.93
   17:30:01.628.09-Sep-2020 5302.51  923.55 74.51 20.00 248.52 2556.93
