~Version Information
 VERS.                  2.0:   CWLS log ASCII Standard -VERSION 2.0
 WRAP.                   NO:   One line per depth step
~Well Information Block
#MNEM.UNIT     VALUE/NAME     DESCRIPTION
#---------     -----------    ---------------------------
 STRT.S             21:21:48 09-Sep-20: START TIME 21:21:48 09-Sep-20
 STOP.S             21:29:57 09-Sep-20: STOP TIME  21:29:57 09-Sep-20
 STEP.S                   0.00: STEP TIME
 NULL.                 -999.25: NULL VALUE
 MDS .        Operator Entered:  MAG DATA SOURCE
 PDAT.          Mean Sea Level:  PERMANENT DATUM
 DCON.         Sperry Drilling:  DIRECTNL CONTR
 RIG .              West Azeri:  RIG NAME
 WELL.           C40 (Slot 20):  WELL NAME
 SRVC.     Turan Drilling Engineering:  CONTRACTOR
 FLD .                     ACG:  FIELD NAME
 CTRY.              Azerbaijan:  COUNTRY NAME
 PROV.                    Baku:  PROVINCE
 STAT.                    Baku:  STATE NAME
 REGN.                   EESSA:  REGION
 BASE.              Azerbaijan:  LOGGING EQUIPMENT BASE LOCATION
 COMP.     BP Exploration (Caspian Sea) Ltd:  COMPANY
 WTYP.                Deviated:  WELL TYPE
 SON .        AZ-XX-0906344804:  JOB NUMBER
 FTOP.          Formation Tops:  FORM TOPS DESC
 ILTD.               Lithology:  INTERP LTH DESC
 SVYD.                  Survey:  SURVEY DESC
 DMOD.             Drill Model:  DRILL MOD DESC
 HPTY.       Minimum Curvature:  HOLE POS TYPE
 NREF.                    Grid:  NORTH REFERENCE
 SPUD.               01-Jan-20:  SPUD DATE
 DATE.      00.59.44 15-Sep-20:  END TIME
 STIM.      12.00.00 12-Jun-20:  START TIME
 DMF .             Drill Floor:  DRILL MEAS FROM
 DFST.                        :  DIST FSL TEXT
 DFWT.                        :  DIST FWL TEXT
 API .                        :  API NUMBER
 CNTY.                        :  COUNTY
 UWI .                        :  UNIQUE WELL IDENTIFIER
 LOC .                        :  LOCATION
 LMF .             Drill Floor:  LOG MEASURED FROM
 VSNS.m                   2.88:  VERT SEC N/S
 VSEW.m                  -3.84:  VERT SEC E/W
 AGAP.m                  43.42:  AIR GAP
 APD .m                  43.42:  DEPTH ABOVE PD
 WDMS.m                 118.27:  WD ELEV
 EGL .m                   0.00:  GROUND ELEVATION
 EPD .m                   0.00:  ELEVATION
 AZTC.deg                 6.23:  AZM TOTAL CORR
 GRDC.deg                 0.20:  GRID CORRECTION
 MDEC.deg                 6.43:  MAGNETIC DECL
 MDIP.deg                59.49:  MAGNETIC DIP
 MFLD.nT              50277.00:  MAGNETIC FIELD
 GVFD.g                   1.00:  GRAVITY FIELD
 VSDR.deg               173.20:  VERT SEC DIRECT
 TDD .m                5790.01:  TOTAL DEPTH (DRILLER)
 SDEP.m                5231.01:  START DEPTH
 DFSL.m                   0.00:  DISTANCE FSL
 DFWL.m                   0.00:  DISTANCE FWL
 UTMY.m             4435808.83:  UTM Y
 UTMX.m              526266.40:  UTM X
 WHEW.m                  -3.84:  WELL HEAD E/W
 WHNS.m                   2.88:  WELL HEAD N/S
 LONG.deg                51.31:  LONGITUDE
 LATI.deg                40.06:  LATITUDE
 TVDS.m                  43.42:  TVDSS CORRECTN
 DEP .m                 430.08:  DEPTH
 EKB .m                  43.42:  KB ELEVATION
 EDF .m                  43.42:  DF ELEVATION
 TDL .m                 559.00:  TOTAL DEPTH (LOGGER)
 MAGU.                 1849381:  MAGUTM CHECKSUM
 VSC .                       0:  VS TO CLOSURE
~Parameter Information Block
#MNEM.UNIT       Value        Description
#---------     -----------    ---------------------------
 AV  .mps                 4.87:  Ann Velocity 
 AVMX.mps                 7.08:  Max Ann Veloc 
 AZIF.deg               108.87:  Azm, Final 
 BHAT.                  Rotary:  BHA Type 
 BROT.°/30m               0.35:  Build Rotating 
 BS  .in                  8.50:  Bit Size 
 BSZ .in                  8.50:  Bit Size 
 BTPL.psig              360.00:  Bit Press Loss 
 CABU.                     Yes:  Customer Abuse 
 COMM.                     ¼¥|:  Run Comments 1 
 TCS .hr                106.24:  Time Ciculation Ended 
 CV  .mps                 1.77:  Crit Velocity 
 CVMX.mps                 2.03:  Max Crit Veloc 
 DD1 .         Aykhan Agagulov:  Direct Drillr 1 
 DD2 .            Nonso Okofor:  Direct Drillr 2 
 DDSV.               Geo-Pilot:  DD Service 
 DEFF.%                  98.00:  % Det Eff 
 DLRX.°/30m               0.50:  Dogleg Rot Max 
 DLSO.°/30m               0.40:  Dogleg Oriented 
 DLSX.°/30m               0.94:  Dogleg Str Max 
 DRET.      20.30.00 08-Sep-20:  Drill End Time 
 DRST.      22.15.00 06-Sep-20:  Drill Start Tim 
 DTIM.hr                 31.31:  Time Drilling 
 EDEP.m                5790.01:  End Depth 
 ENG1.           Amrah Tahirov:  Engineer 1 
 ENG2.         Dair Mahammadov:  Engineer 2 
 ENG3.           Emil Huseynov:  Engineer 3 
 ETIM.      04.01.04 12-Sep-20:  End Time 
 FLOI.gpm               450.00:  Flow In 
 FLON.gpm               450.00:  Flow In Min 
 FLOS.cptm                2.00:  Fluid Loss 
 FLOX.gpm               450.00:  Flow In Max 
 FTRO.       Formation Presure:  FTWD Run Obj 
 HFLO.                      No:  High Flow 
 HPRE.                      No:  High Pressure 
 HTEM.                      No:  High Temp 
 HYDO.m                   1.80:  Hydro Offset 
 IFIN.deg                72.03:  Inc, Final 
 IMAX.deg                73.72:  Inc Max 
 IMIN.deg                70.94:  Inc Min 
 IMND.m                5508.52:  Inc Min Depth 
 IMXD.m                5253.60:  Inc Max Depth 
 JARR.                      No:  Jarring 
 LETM.      20.30.00 08-Sep-20:  Log End Time 
 LOST.hr                     0:  Lost Rig Time 
 LSTM.      22.15.00 06-Sep-20:  Log Start Time 
 MDCL.ppm             36000.00:  Mud Chlorides 
 MDES.     Inversion Oil/Synthetic:  Mud Desc 
 DFD .sg                  1.44:  Mud Density 
 MDMN.sg                  1.44:  Dens Mud Min 
 MDMX.sg                  1.57:  Dens Mud Max 
 MOIL.                      70:  Run Mud Oil % 
 MOWR.                   70:30:  Run Mud OWR 
 MSND.                       0:  Run Mud Sand % 
 MSOL.                      21:  Run Mud Solids% 
 DFV .spqt               68.00:  Mud Viscosity 
 MWOD.in                  6.75:  MWD Tool OD 
 MWSI.                     Yes:  Serv Intrp, MWD 
 OTIM.hr                174.84:  Time Operating 
 PCON.           Look Like New:  Pad Condition 
 PMAX.psia            10616.93:  Press Op, Max 
 PV  .cP                 50.00:  Mud PV 
 RUN .                     700:  Run Number 
 ROPA.m/hr               14.24:  ROP Avg 
 ROPN.m/hr               10.00:  ROP Min 
 ROPX.m/hr               32.00:  ROP Max 
 RPMA.rpm               120.90:  RPM Surface Avg 
 RPMN.rpm               120.00:  RPM Surface Min 
 RPMX.rpm               140.00:  RPM Surface Max 
 RRUN.                    0700:  Rig Run Number 
 RTIM.hr                  3.20:  Time Reaming 
 SAZI.deg               109.99:  Azm, Start 
 SDEP.m                5231.01:  Start Depth 
 SIDD.                      No:  Serv Intrp, DD 
 SINC.deg                73.72:  Inc, Start 
 SPPA.psig             3051.00:  SPP Avg 
 SPPN.psig             2950.00:  SPP Min 
 SPPX.psig             3250.00:  SPP Max 
 STIM.      08.00.00 05-Sep-20:  Start Time 
 SVCS.                 DD, MWD:  Services 
 SVER.                    9.20:  Sperry Version 
 TDAT.m                 559.00:  Tot Depth Attmp 
 TDDF.                      No:  Trip for DD 
 TDLG.m                 559.00:  Tot Depth Loggd 
 TFF .                      No:  Trip for Fail 
 TQAA.f-kp               26.49:  Torque Abs Avg 
 TQAN.f-kp               25.00:  Torque Abs Min 
 TQAX.f-kp               27.00:  Torque Abs Max 
 TRRT.°/30m               1.50:  Turn Rotating 
 MRT .                    HCIM:  Maximum Recorded Temperature 
 TTMX.degC               90.20:  Max Tool Temp 
 VS01.                90542671:  Virtual Str1 SN 
 VS02.                90545185:  Virtual Str2 SN 
 VS03.                90602015:  Virtual Str3 SN 
 VS04.                90515230:  Virtual Str4 SN 
 WBMN.klb                 5.00:  WOB Min 
 WOBA.klb                14.79:  WOB Avg 
 WOBX.klb                20.00:  WOB Max 
 YP  .lhf2               29.00:  Yield Point 
~Curve Information Block
#MNEM.UNIT                 API CODE     Curve Description
#---------               -----------    ---------------------------
 TIME.HHMMSS            00 000 000 000:  GT Time & Date
 GTDEPTH.m              00 000 000 000:  GT Depth
 GTPQH.psia             00 000 000 000:  GT HR Quartz Pressure
 GTTQ.degC              00 000 000 000:  GT Quartz Temperature
 GTTN.NONE              00 000 000 000:  GT Test Number
 GTET.sec               00 000 000 000:  GT Elapsed Test Time
 GTTVD.m                00 000 000 000:  GT True Vertical Depth
#Other Information
#
#WARRANTY: Halliburton will use its best efforts to furnish customers with 
#accurate information and interpretations that are part of, and incident to, the services 
#provided.  However, Halliburton cannot and does not warrant the accuracy 
#or correctness of such information and interpretations.  Under no circumstances should any 
#such information or interpretation be relied upon as the sole basis for any drilling, 
#completion, production, or financial decision or any procedure involving any risk to the 
#safety of any drilling venture, drilling rig or its crew or any other third party.  The 
#Customer has full responsibility for all drilling, completion and production operation.  
#Halliburton makes no representations or warranties, either expressed or 
#implied, including, but not limited to, the implied warranties of merchantability or fitness 
#for a particular purpose, with respect to the services rendered.  In no event will 
#Halliburton be liable for failure to obtain any particular results or for 
#any damages, including, but not limited to, indirect, special or consequential damages, 
#resulting from the use of any information or interpretation provided by Halliburton.
#
~A           TIME           GTDEPTH  GTPQH  GTTQ  GTTN   GTET   GTTVD  
# ...
   21:29:43.136.09-Sep-2020 5252.22 6109.35 73.62 26.00 474.82 2542.36
   21:29:43.336.09-Sep-2020 5252.22 6109.70 73.62 26.00 475.02 2542.36
   21:29:43.536.09-Sep-2020 5252.22 6110.56 73.61 26.00 475.22 2542.36
   21:29:43.736.09-Sep-2020 5252.22 6113.89 73.61 26.00 475.42 2542.36
   21:29:43.936.09-Sep-2020 5252.22 6109.76 73.61 26.00 475.62 2542.36
   21:29:44.136.09-Sep-2020 5252.22 6109.49 73.61 26.00 475.82 2542.36
   21:29:44.336.09-Sep-2020 5252.22 6108.93 73.61 26.00 476.02 2542.36
   21:29:44.536.09-Sep-2020 5252.22 6109.58 73.61 26.00 476.22 2542.36
   21:29:44.736.09-Sep-2020 5252.22 6109.37 73.61 26.00 476.42 2542.36
   21:29:44.936.09-Sep-2020 5252.22 6109.62 73.61 26.00 476.62 2542.36
   21:29:45.137.09-Sep-2020 5252.22 6109.37 73.61 26.00 476.82 2542.36
   21:29:45.337.09-Sep-2020 5252.22 6109.46 73.61 26.00 477.02 2542.36
   21:29:45.537.09-Sep-2020 5252.22 6109.44 73.61 26.00 477.22 2542.36
   21:29:45.737.09-Sep-2020 5252.22 6109.44 73.61 26.00 477.42 2542.36
   21:29:45.937.09-Sep-2020 5252.22 6109.32 73.61 26.00 477.62 2542.36
   21:29:46.137.09-Sep-2020 5252.22 6119.97 73.61 26.00 477.82 2542.36
   21:29:46.337.09-Sep-2020 5252.22 6103.51 73.61 26.00 478.02 2542.36
   21:29:46.537.09-Sep-2020 5252.22 6109.89 73.61 26.00 478.22 2542.36
   21:29:46.737.09-Sep-2020 5252.22 6109.17 73.61 26.00 478.42 2542.36
   21:29:46.937.09-Sep-2020 5252.22 6109.07 73.60 26.00 478.62 2542.36
   21:29:47.137.09-Sep-2020 5252.22 6109.62 73.60 26.00 478.82 2542.36
   21:29:47.338.09-Sep-2020 5252.22 6112.39 73.60 26.00 479.02 2542.36
   21:29:47.538.09-Sep-2020 5252.22 6108.67 73.60 26.00 479.22 2542.36
   21:29:47.738.09-Sep-2020 5252.22 6108.73 73.60 26.00 479.42 2542.36
   21:29:47.938.09-Sep-2020 5252.22 6108.18 73.60 26.00 479.62 2542.36
   21:29:48.138.09-Sep-2020 5252.22 6108.37 73.60 26.00 479.82 2542.36
   21:29:48.338.09-Sep-2020 5252.22 6108.60 73.60 26.00 480.02 2542.36
   21:29:48.538.09-Sep-2020 5252.22 6108.55 73.60 26.00 480.22 2542.36
   21:29:48.738.09-Sep-2020 5252.22 6108.55 73.60 26.00 480.42 2542.36
   21:29:48.938.09-Sep-2020 5252.22 6107.60 73.60 26.00 480.62 2542.36
   21:29:49.138.09-Sep-2020 5252.22 6107.46 73.60 26.00 480.82 2542.36
   21:29:49.338.09-Sep-2020 5252.22 6107.58 73.60 26.00 481.02 2542.36
   21:29:49.539.09-Sep-2020 5252.22 6107.64 73.60 26.00 481.22 2542.36
   21:29:49.739.09-Sep-2020 5252.22 6107.64 73.60 26.00 481.42 2542.36
   21:29:49.939.09-Sep-2020 5252.22 6104.36 73.60 26.00 481.62 2542.36
   21:29:50.139.09-Sep-2020 5252.22 6109.16 73.60 26.00 481.82 2542.36
   21:29:50.339.09-Sep-2020 5252.22 6107.75 73.60 26.00 482.02 2542.36
   21:29:50.539.09-Sep-2020 5252.22 6107.94 73.60 26.00 482.22 2542.36
   21:29:50.739.09-Sep-2020 5252.22 6107.94 73.59 26.00 482.42 2542.36
   21:29:50.939.09-Sep-2020 5252.22 6116.77 73.59 26.00 482.62 2542.36
   21:29:51.139.09-Sep-2020 5252.22 6107.08 73.59 26.00 482.82 2542.36
   21:29:51.339.09-Sep-2020 5252.22 6109.09 73.59 26.00 483.02 2542.36
   21:29:51.539.09-Sep-2020 5252.22 6107.53 73.59 26.00 483.22 2542.36
   21:29:51.740.09-Sep-2020 5252.22 6108.60 73.59 26.00 483.42 2542.36
   21:29:51.940.09-Sep-2020 5252.22 6108.10 73.59 26.00 483.62 2542.36
   21:29:52.140.09-Sep-2020 5252.22 6117.41 73.59 26.00 483.82 2542.36
   21:29:52.340.09-Sep-2020 5252.22 6107.90 73.59 26.00 484.02 2542.36
   21:29:52.540.09-Sep-2020 5252.22 6107.91 73.59 26.00 484.22 2542.36
   21:29:52.740.09-Sep-2020 5252.22 6107.91 73.59 26.00 484.42 2542.36
   21:29:52.940.09-Sep-2020 5252.22 6108.24 73.59 26.00 484.62 2542.36
   21:29:53.140.09-Sep-2020 5252.22 6108.31 73.59 26.00 484.82 2542.36
   21:29:53.340.09-Sep-2020 5252.22 6111.19 73.59 26.00 485.02 2542.36
   21:29:53.540.09-Sep-2020 5252.22 6109.75 73.59 26.00 485.22 2542.36
   21:29:53.740.09-Sep-2020 5252.22 6109.75 73.59 26.00 485.42 2542.36
   21:29:53.941.09-Sep-2020 5252.22 6104.75 73.59 26.00 485.62 2542.36
   21:29:54.141.09-Sep-2020 5252.22 6109.51 73.59 26.00 485.82 2542.36
   21:29:54.341.09-Sep-2020 5252.22 6108.60 73.59 26.00 486.02 2542.36
   21:29:54.541.09-Sep-2020 5252.22 6108.67 73.59 26.00 486.22 2542.36
   21:29:54.741.09-Sep-2020 5252.22 6108.67 73.58 26.00 486.42 2542.36
   21:29:54.941.09-Sep-2020 5252.22 6111.71 73.58 26.00 486.62 2542.36
   21:29:55.141.09-Sep-2020 5252.22 6108.99 73.58 26.00 486.82 2542.36
   21:29:55.341.09-Sep-2020 5252.22 6114.23 73.58 26.00 487.02 2542.36
   21:29:55.541.09-Sep-2020 5252.22 6106.96 73.58 26.00 487.22 2542.36
   21:29:55.741.09-Sep-2020 5252.22 6110.02 73.58 26.00 487.42 2542.36
   21:29:55.941.09-Sep-2020 5252.22 6108.78 73.58 26.00 487.62 2542.36
   21:29:56.142.09-Sep-2020 5252.22 6109.41 73.58 26.00 487.82 2542.36
   21:29:56.342.09-Sep-2020 5252.22 6108.61 73.58 26.00 488.02 2542.36
   21:29:56.542.09-Sep-2020 5252.22 6110.76 73.58 26.00 488.23 2542.36
   21:29:56.742.09-Sep-2020 5252.22 6108.45 73.58 26.00 488.43 2542.36
   21:29:56.942.09-Sep-2020 5252.22 6108.98 73.58 26.00 488.63 2542.36
   21:29:57.142.09-Sep-2020 5252.22 6108.76 73.58 26.00 488.83 2542.36
   21:29:57.342.09-Sep-2020 5252.22 6109.53 73.58 26.00 489.03 2542.36
