~Version Information
 VERS.                  2.0:   CWLS log ASCII Standard -VERSION 2.0
 WRAP.                   NO:   One line per depth step
~Well Information Block
#MNEM.UNIT     VALUE/NAME     DESCRIPTION
#---------     -----------    ---------------------------
 STRT.S             11:53:26 09-Sep-20: START TIME 11:53:26 09-Sep-20
 STOP.S             12:00:27 09-Sep-20: STOP TIME  12:00:27 09-Sep-20
 STEP.S                   0.00: STEP TIME
 NULL.                 -999.25: NULL VALUE
 MDS .        Operator Entered:  MAG DATA SOURCE
 PDAT.          Mean Sea Level:  PERMANENT DATUM
 DCON.         Sperry Drilling:  DIRECTNL CONTR
 RIG .              West Azeri:  RIG NAME
 WELL.           C40 (Slot 20):  WELL NAME
 SRVC.     Turan Drilling Engineering:  CONTRACTOR
 FLD .                     ACG:  FIELD NAME
 CTRY.              Azerbaijan:  COUNTRY NAME
 PROV.                    Baku:  PROVINCE
 STAT.                    Baku:  STATE NAME
 REGN.                   EESSA:  REGION
 BASE.              Azerbaijan:  LOGGING EQUIPMENT BASE LOCATION
 COMP.     BP Exploration (Caspian Sea) Ltd:  COMPANY
 WTYP.                Deviated:  WELL TYPE
 SON .        AZ-XX-0906344804:  JOB NUMBER
 FTOP.          Formation Tops:  FORM TOPS DESC
 ILTD.               Lithology:  INTERP LTH DESC
 SVYD.                  Survey:  SURVEY DESC
 DMOD.             Drill Model:  DRILL MOD DESC
 HPTY.       Minimum Curvature:  HOLE POS TYPE
 NREF.                    Grid:  NORTH REFERENCE
 SPUD.               01-Jan-20:  SPUD DATE
 DATE.      00.59.44 15-Sep-20:  END TIME
 STIM.      12.00.00 12-Jun-20:  START TIME
 DMF .             Drill Floor:  DRILL MEAS FROM
 DFST.                        :  DIST FSL TEXT
 DFWT.                        :  DIST FWL TEXT
 API .                        :  API NUMBER
 CNTY.                        :  COUNTY
 UWI .                        :  UNIQUE WELL IDENTIFIER
 LOC .                        :  LOCATION
 LMF .             Drill Floor:  LOG MEASURED FROM
 VSNS.m                   2.88:  VERT SEC N/S
 VSEW.m                  -3.84:  VERT SEC E/W
 AGAP.m                  43.42:  AIR GAP
 APD .m                  43.42:  DEPTH ABOVE PD
 WDMS.m                 118.27:  WD ELEV
 EGL .m                   0.00:  GROUND ELEVATION
 EPD .m                   0.00:  ELEVATION
 AZTC.deg                 6.23:  AZM TOTAL CORR
 GRDC.deg                 0.20:  GRID CORRECTION
 MDEC.deg                 6.43:  MAGNETIC DECL
 MDIP.deg                59.49:  MAGNETIC DIP
 MFLD.nT              50277.00:  MAGNETIC FIELD
 GVFD.g                   1.00:  GRAVITY FIELD
 VSDR.deg               173.20:  VERT SEC DIRECT
 TDD .m                5790.01:  TOTAL DEPTH (DRILLER)
 SDEP.m                5231.01:  START DEPTH
 DFSL.m                   0.00:  DISTANCE FSL
 DFWL.m                   0.00:  DISTANCE FWL
 UTMY.m             4435808.83:  UTM Y
 UTMX.m              526266.40:  UTM X
 WHEW.m                  -3.84:  WELL HEAD E/W
 WHNS.m                   2.88:  WELL HEAD N/S
 LONG.deg                51.31:  LONGITUDE
 LATI.deg                40.06:  LATITUDE
 TVDS.m                  43.42:  TVDSS CORRECTN
 DEP .m                 430.08:  DEPTH
 EKB .m                  43.42:  KB ELEVATION
 EDF .m                  43.42:  DF ELEVATION
 TDL .m                 559.00:  TOTAL DEPTH (LOGGER)
 MAGU.                 1849381:  MAGUTM CHECKSUM
 VSC .                       0:  VS TO CLOSURE
~Parameter Information Block
#MNEM.UNIT       Value        Description
#---------     -----------    ---------------------------
 AV  .mps                 4.87:  Ann Velocity 
 AVMX.mps                 7.08:  Max Ann Veloc 
 AZIF.deg               108.87:  Azm, Final 
 BHAT.                  Rotary:  BHA Type 
 BROT.°/30m               0.35:  Build Rotating 
 BS  .in                  8.50:  Bit Size 
 BSZ .in                  8.50:  Bit Size 
 BTPL.psig              360.00:  Bit Press Loss 
 CABU.                     Yes:  Customer Abuse 
 COMM.                     dãƒ:  Run Comments 1 
 TCS .hr                106.24:  Time Ciculation Ended 
 CV  .mps                 1.77:  Crit Velocity 
 CVMX.mps                 2.03:  Max Crit Veloc 
 DD1 .         Aykhan Agagulov:  Direct Drillr 1 
 DD2 .            Nonso Okofor:  Direct Drillr 2 
 DDSV.               Geo-Pilot:  DD Service 
 DEFF.%                  98.00:  % Det Eff 
 DLRX.°/30m               0.50:  Dogleg Rot Max 
 DLSO.°/30m               0.40:  Dogleg Oriented 
 DLSX.°/30m               0.94:  Dogleg Str Max 
 DRET.      20.30.00 08-Sep-20:  Drill End Time 
 DRST.      22.15.00 06-Sep-20:  Drill Start Tim 
 DTIM.hr                 31.31:  Time Drilling 
 EDEP.m                5790.01:  End Depth 
 ENG1.           Amrah Tahirov:  Engineer 1 
 ENG2.         Dair Mahammadov:  Engineer 2 
 ENG3.           Emil Huseynov:  Engineer 3 
 ETIM.      04.01.04 12-Sep-20:  End Time 
 FLOI.gpm               450.00:  Flow In 
 FLON.gpm               450.00:  Flow In Min 
 FLOS.cptm                2.00:  Fluid Loss 
 FLOX.gpm               450.00:  Flow In Max 
 FTRO.       Formation Presure:  FTWD Run Obj 
 HFLO.                      No:  High Flow 
 HPRE.                      No:  High Pressure 
 HTEM.                      No:  High Temp 
 HYDO.m                   1.80:  Hydro Offset 
 IFIN.deg                72.03:  Inc, Final 
 IMAX.deg                73.72:  Inc Max 
 IMIN.deg                70.94:  Inc Min 
 IMND.m                5508.52:  Inc Min Depth 
 IMXD.m                5253.60:  Inc Max Depth 
 JARR.                      No:  Jarring 
 LETM.      20.30.00 08-Sep-20:  Log End Time 
 LOST.hr                     0:  Lost Rig Time 
 LSTM.      22.15.00 06-Sep-20:  Log Start Time 
 MDCL.ppm             36000.00:  Mud Chlorides 
 MDES.     Inversion Oil/Synthetic:  Mud Desc 
 DFD .sg                  1.44:  Mud Density 
 MDMN.sg                  1.44:  Dens Mud Min 
 MDMX.sg                  1.57:  Dens Mud Max 
 MOIL.                      70:  Run Mud Oil % 
 MOWR.                   70:30:  Run Mud OWR 
 MSND.                       0:  Run Mud Sand % 
 MSOL.                      21:  Run Mud Solids% 
 DFV .spqt               68.00:  Mud Viscosity 
 MWOD.in                  6.75:  MWD Tool OD 
 MWSI.                     Yes:  Serv Intrp, MWD 
 OTIM.hr                174.84:  Time Operating 
 PCON.           Look Like New:  Pad Condition 
 PMAX.psia            10616.93:  Press Op, Max 
 PV  .cP                 50.00:  Mud PV 
 RUN .                     700:  Run Number 
 ROPA.m/hr               14.24:  ROP Avg 
 ROPN.m/hr               10.00:  ROP Min 
 ROPX.m/hr               32.00:  ROP Max 
 RPMA.rpm               120.90:  RPM Surface Avg 
 RPMN.rpm               120.00:  RPM Surface Min 
 RPMX.rpm               140.00:  RPM Surface Max 
 RRUN.                    0700:  Rig Run Number 
 RTIM.hr                  3.20:  Time Reaming 
 SAZI.deg               109.99:  Azm, Start 
 SDEP.m                5231.01:  Start Depth 
 SIDD.                      No:  Serv Intrp, DD 
 SINC.deg                73.72:  Inc, Start 
 SPPA.psig             3051.00:  SPP Avg 
 SPPN.psig             2950.00:  SPP Min 
 SPPX.psig             3250.00:  SPP Max 
 STIM.      08.00.00 05-Sep-20:  Start Time 
 SVCS.                 DD, MWD:  Services 
 SVER.                    9.20:  Sperry Version 
 TDAT.m                 559.00:  Tot Depth Attmp 
 TDDF.                      No:  Trip for DD 
 TDLG.m                 559.00:  Tot Depth Loggd 
 TFF .                      No:  Trip for Fail 
 TQAA.f-kp               26.49:  Torque Abs Avg 
 TQAN.f-kp               25.00:  Torque Abs Min 
 TQAX.f-kp               27.00:  Torque Abs Max 
 TRRT.°/30m               1.50:  Turn Rotating 
 MRT .                    HCIM:  Maximum Recorded Temperature 
 TTMX.degC               90.20:  Max Tool Temp 
 VS01.                90542671:  Virtual Str1 SN 
 VS02.                90545185:  Virtual Str2 SN 
 VS03.                90602015:  Virtual Str3 SN 
 VS04.                90515230:  Virtual Str4 SN 
 WBMN.klb                 5.00:  WOB Min 
 WOBA.klb                14.79:  WOB Avg 
 WOBX.klb                20.00:  WOB Max 
 YP  .lhf2               29.00:  Yield Point 
~Curve Information Block
#MNEM.UNIT                 API CODE     Curve Description
#---------               -----------    ---------------------------
 TIME.HHMMSS            00 000 000 000:  GT Time & Date
 GTDEPTH.m              00 000 000 000:  GT Depth
 GTPQH.psia             00 000 000 000:  GT HR Quartz Pressure
 GTTQ.degC              00 000 000 000:  GT Quartz Temperature
 GTTN.NONE              00 000 000 000:  GT Test Number
 GTET.sec               00 000 000 000:  GT Elapsed Test Time
 GTTVD.m                00 000 000 000:  GT True Vertical Depth
#Other Information
#
#WARRANTY: Halliburton will use its best efforts to furnish customers with 
#accurate information and interpretations that are part of, and incident to, the services 
#provided.  However, Halliburton cannot and does not warrant the accuracy 
#or correctness of such information and interpretations.  Under no circumstances should any 
#such information or interpretation be relied upon as the sole basis for any drilling, 
#completion, production, or financial decision or any procedure involving any risk to the 
#safety of any drilling venture, drilling rig or its crew or any other third party.  The 
#Customer has full responsibility for all drilling, completion and production operation.  
#Halliburton makes no representations or warranties, either expressed or 
#implied, including, but not limited to, the implied warranties of merchantability or fitness 
#for a particular purpose, with respect to the services rendered.  In no event will 
#Halliburton be liable for failure to obtain any particular results or for 
#any damages, including, but not limited to, indirect, special or consequential damages, 
#resulting from the use of any information or interpretation provided by Halliburton.
#
~A           TIME           GTDEPTH  GTPQH  GTTQ  GTTN   GTET   GTTVD  
# ...
   11:54:56.400.09-Sep-2020 5430.01 3577.34 75.90 12.00  90.40 2596.52
   11:54:56.600.09-Sep-2020 5430.01 3577.45 75.90 12.00  90.60 2596.52
   11:54:56.800.09-Sep-2020 5430.01 3577.23 75.90 12.00  90.80 2596.52
   11:54:57.000.09-Sep-2020 5430.01 3577.33 75.90 12.00  91.00 2596.52
   11:54:57.200.09-Sep-2020 5430.01 3577.31 75.90 12.00  91.20 2596.52
   11:54:57.400.09-Sep-2020 5430.01 3577.39 75.90 12.00  91.40 2596.52
   11:54:57.600.09-Sep-2020 5430.01 3577.31 75.90 12.00  91.60 2596.52
   11:54:57.800.09-Sep-2020 5430.01 3577.35 75.90 12.00  91.80 2596.52
   11:54:58.000.09-Sep-2020 5430.01 3577.25 75.90 12.00  92.00 2596.52
   11:54:58.200.09-Sep-2020 5430.01 3577.25 75.90 12.00  92.20 2596.52
   11:54:58.400.09-Sep-2020 5430.01 3577.33 75.90 12.00  92.40 2596.52
   11:54:58.600.09-Sep-2020 5430.01 3577.35 75.90 12.00  92.60 2596.52
   11:54:58.800.09-Sep-2020 5430.01 3577.33 75.90 12.00  92.80 2596.52
   11:54:59.000.09-Sep-2020 5430.01 3577.36 75.90 12.00  93.00 2596.52
   11:54:59.200.09-Sep-2020 5430.01 3577.36 75.90 12.00  93.20 2596.52
   11:54:59.400.09-Sep-2020 5430.01 3577.35 75.90 12.00  93.40 2596.52
   11:54:59.600.09-Sep-2020 5430.01 3577.39 75.90 12.00  93.60 2596.52
   11:54:59.800.09-Sep-2020 5430.01 3577.33 75.90 12.00  93.80 2596.52
   11:55:00.000.09-Sep-2020 5430.01 3577.35 75.90 12.00  94.00 2596.52
   11:55:00.200.09-Sep-2020 5430.01 3577.35 75.90 12.00  94.20 2596.52
   11:55:00.400.09-Sep-2020 5430.01 3577.40 75.90 12.00  94.40 2596.52
   11:55:00.600.09-Sep-2020 5430.01 3577.33 75.90 12.00  94.60 2596.52
   11:55:00.800.09-Sep-2020 5430.01 3577.36 75.90 12.00  94.80 2596.52
   11:55:01.000.09-Sep-2020 5430.01 3577.36 75.90 12.00  95.00 2596.52
   11:55:01.200.09-Sep-2020 5430.01 3577.36 75.90 12.00  95.20 2596.52
   11:55:01.400.09-Sep-2020 5430.01 3577.36 75.90 12.00  95.40 2596.52
   11:55:01.600.09-Sep-2020 5430.01 3577.37 75.90 12.00  95.60 2596.52
   11:55:01.800.09-Sep-2020 5430.01 3577.37 75.90 12.00  95.80 2596.52
   11:55:02.000.09-Sep-2020 5430.01 3577.36 75.90 12.00  96.00 2596.52
   11:55:02.200.09-Sep-2020 5430.01 3577.36 75.90 12.00  96.20 2596.52
   11:55:02.400.09-Sep-2020 5430.01 3577.37 75.90 12.00  96.40 2596.52
   11:55:02.600.09-Sep-2020 5430.01 3577.37 75.90 12.00  96.60 2596.52
   11:55:02.800.09-Sep-2020 5430.01 3577.38 75.90 12.00  96.80 2596.52
   11:55:03.000.09-Sep-2020 5430.01 3577.37 75.90 12.00  97.00 2596.52
   11:55:03.200.09-Sep-2020 5430.01 3577.37 75.90 12.00  97.20 2596.52
   11:55:03.400.09-Sep-2020 5430.01 3577.50 75.90 12.00  97.40 2596.52
   11:55:03.600.09-Sep-2020 5430.01 3577.37 75.90 12.00  97.60 2596.52
   11:55:03.800.09-Sep-2020 5430.01 3577.38 75.90 12.00  97.80 2596.52
   11:55:04.000.09-Sep-2020 5430.01 3577.35 75.90 12.00  98.00 2596.52
   11:55:04.200.09-Sep-2020 5430.01 3577.35 75.90 12.00  98.20 2596.52
   11:55:04.400.09-Sep-2020 5430.01 3577.38 75.90 12.00  98.40 2596.52
   11:55:04.600.09-Sep-2020 5430.01 3577.38 75.90 12.00  98.60 2596.52
   11:55:04.800.09-Sep-2020 5430.01 3577.38 75.90 12.00  98.80 2596.52
   11:55:05.000.09-Sep-2020 5430.01 3577.38 75.90 12.00  99.00 2596.52
   11:55:05.200.09-Sep-2020 5430.01 3577.39 75.90 12.00  99.20 2596.52
   11:55:05.400.09-Sep-2020 5430.01 3577.38 75.90 12.00  99.40 2596.52
   11:55:05.600.09-Sep-2020 5430.01 3577.39 75.90 12.00  99.60 2596.52
   11:55:05.800.09-Sep-2020 5430.01 3577.38 75.90 12.00  99.80 2596.52
   11:55:06.000.09-Sep-2020 5430.01 3577.39 75.90 12.00 100.00 2596.52
   11:55:06.200.09-Sep-2020 5430.01 3577.39 75.90 12.00 100.20 2596.52
   11:55:06.400.09-Sep-2020 5430.01 3577.39 75.90 12.00 100.40 2596.52
   11:55:06.600.09-Sep-2020 5430.01 3577.51 75.90 12.00 100.60 2596.52
   11:55:06.800.09-Sep-2020 5430.01 3577.28 75.90 12.00 100.80 2596.52
   11:55:07.000.09-Sep-2020 5430.01 3577.38 75.90 12.00 101.00 2596.52
   11:55:07.200.09-Sep-2020 5430.01 3577.38 75.90 12.00 101.20 2596.52
   11:55:07.400.09-Sep-2020 5430.01 3577.43 75.90 12.00 101.40 2596.52
   11:55:07.600.09-Sep-2020 5430.01 3577.38 75.90 12.00 101.60 2596.52
   11:55:07.800.09-Sep-2020 5430.01 3577.43 75.90 12.00 101.80 2596.52
   11:55:08.000.09-Sep-2020 5430.01 3577.35 75.90 12.00 102.00 2596.52
   11:55:08.200.09-Sep-2020 5430.01 3577.39 75.90 12.00 102.20 2596.52
   11:55:08.400.09-Sep-2020 5430.01 3577.38 75.90 12.00 102.40 2596.52
   11:55:08.600.09-Sep-2020 5430.01 3577.43 75.90 12.00 102.60 2596.52
   11:55:08.800.09-Sep-2020 5430.01 3577.37 75.90 12.00 102.80 2596.52
   11:55:09.000.09-Sep-2020 5430.01 3577.39 75.90 12.00 103.00 2596.52
   11:55:09.200.09-Sep-2020 5430.01 3577.39 75.90 12.00 103.20 2596.52
   11:55:09.400.09-Sep-2020 5430.01 3577.53 75.90 12.00 103.40 2596.52
   11:55:09.600.09-Sep-2020 5430.01 3577.38 75.90 12.00 103.60 2596.52
   11:55:09.800.09-Sep-2020 5430.01 3577.40 75.90 12.00 103.80 2596.52
   11:55:10.000.09-Sep-2020 5430.01 3577.38 75.90 12.00 104.00 2596.52
   11:55:10.200.09-Sep-2020 5430.01 3577.38 75.90 12.00 104.20 2596.52
   11:55:10.400.09-Sep-2020 5430.01 3577.40 75.90 12.00 104.40 2596.52
   11:55:10.600.09-Sep-2020 5430.01 3577.24 75.90 12.00 104.60 2596.52
   11:55:10.800.09-Sep-2020 5430.01 3577.55 75.90 12.00 104.80 2596.52
   11:55:11.000.09-Sep-2020 5430.01 3577.42 75.90 12.00 105.00 2596.52
   11:55:11.200.09-Sep-2020 5430.01 3577.42 75.90 12.00 105.20 2596.52
   11:55:11.400.09-Sep-2020 5430.01 3577.41 75.90 12.00 105.40 2596.52
   11:55:11.600.09-Sep-2020 5430.01 3577.38 75.90 12.00 105.60 2596.52
   11:55:11.800.09-Sep-2020 5430.01 3577.41 75.90 12.00 105.80 2596.52
   11:55:12.000.09-Sep-2020 5430.01 3577.41 75.90 12.00 106.00 2596.52
   11:55:12.200.09-Sep-2020 5430.01 3577.54 75.90 12.00 106.20 2596.52
   11:55:12.400.09-Sep-2020 5430.01 3577.29 75.90 12.00 106.40 2596.52
   11:55:12.600.09-Sep-2020 5430.01 3577.41 75.90 12.00 106.60 2596.52
   11:55:12.800.09-Sep-2020 5430.01 3577.38 75.90 12.00 106.80 2596.52
   11:55:13.000.09-Sep-2020 5430.01 3577.46 75.90 12.00 107.00 2596.52
   11:55:13.200.09-Sep-2020 5430.01 3577.38 75.90 12.00 107.20 2596.52
   11:55:13.400.09-Sep-2020 5430.01 3577.40 75.90 12.00 107.40 2596.52
   11:55:13.600.09-Sep-2020 5430.01 3577.41 75.90 12.00 107.60 2596.52
   11:55:13.800.09-Sep-2020 5430.01 3577.41 75.90 12.00 107.80 2596.52
   11:55:14.000.09-Sep-2020 5430.01 3577.41 75.90 12.00 108.00 2596.52
   11:55:14.200.09-Sep-2020 5430.01 3577.41 75.90 12.00 108.20 2596.52
   11:55:14.400.09-Sep-2020 5430.01 3577.41 75.90 12.00 108.40 2596.52
   11:55:14.600.09-Sep-2020 5430.01 3577.41 75.90 12.00 108.60 2596.52
   11:55:14.800.09-Sep-2020 5430.01 3577.41 75.90 12.00 108.80 2596.52
   11:55:15.000.09-Sep-2020 5430.01 3577.42 75.90 12.00 109.00 2596.52
   11:55:15.200.09-Sep-2020 5430.01 3577.42 75.90 12.00 109.20 2596.52
   11:55:15.400.09-Sep-2020 5430.01 3577.42 75.90 12.00 109.40 2596.52
   11:55:15.600.09-Sep-2020 5430.01 3577.42 75.90 12.00 109.60 2596.52
   11:55:15.800.09-Sep-2020 5430.01 3577.26 75.90 12.00 109.80 2596.52
   11:55:16.000.09-Sep-2020 5430.01 3577.57 75.90 12.00 110.00 2596.52
   11:55:16.200.09-Sep-2020 5430.01 3577.44 75.91 12.00 110.20 2596.52
   11:55:16.400.09-Sep-2020 5430.01 3577.43 75.91 12.00 110.40 2596.52
   11:55:16.600.09-Sep-2020 5430.01 3577.41 75.91 12.00 110.60 2596.52
   11:55:16.800.09-Sep-2020 5430.01 3577.40 75.91 12.00 110.80 2596.52
   11:55:17.000.09-Sep-2020 5430.01 3577.41 75.91 12.00 111.00 2596.52
   11:55:17.200.09-Sep-2020 5430.01 3577.42 75.91 12.00 111.20 2596.52
   11:55:17.400.09-Sep-2020 5430.01 3577.42 75.91 12.00 111.40 2596.52
   11:55:17.600.09-Sep-2020 5430.01 3577.41 75.91 12.00 111.60 2596.52
   11:55:17.800.09-Sep-2020 5430.01 3577.42 75.91 12.00 111.80 2596.52
   11:55:18.000.09-Sep-2020 5430.01 3577.42 75.91 12.00 112.00 2596.52
   11:55:18.200.09-Sep-2020 5430.01 3577.42 75.91 12.00 112.20 2596.52
   11:55:18.400.09-Sep-2020 5430.01 3577.43 75.91 12.00 112.40 2596.52
   11:55:18.600.09-Sep-2020 5430.01 3577.42 75.91 12.00 112.60 2596.52
   11:55:18.800.09-Sep-2020 5430.01 3577.43 75.91 12.00 112.80 2596.52
