~Version Information
 VERS.                  2.0:   CWLS log ASCII Standard -VERSION 2.0
 WRAP.                   NO:   One line per depth step
~Well Information Block
#MNEM.UNIT     VALUE/NAME     DESCRIPTION
#---------     -----------    ---------------------------
 STRT.S             13:30:41 09-Sep-20: START TIME 13:30:41 09-Sep-20
 STOP.S             13:37:24 09-Sep-20: STOP TIME  13:37:24 09-Sep-20
 STEP.S                   0.00: STEP TIME
 NULL.                 -999.25: NULL VALUE
 MDS .        Operator Entered:  MAG DATA SOURCE
 PDAT.          Mean Sea Level:  PERMANENT DATUM
 DCON.         Sperry Drilling:  DIRECTNL CONTR
 RIG .              West Azeri:  RIG NAME
 WELL.           C40 (Slot 20):  WELL NAME
 SRVC.     Turan Drilling Engineering:  CONTRACTOR
 FLD .                     ACG:  FIELD NAME
 CTRY.              Azerbaijan:  COUNTRY NAME
 PROV.                    Baku:  PROVINCE
 STAT.                    Baku:  STATE NAME
 REGN.                   EESSA:  REGION
 BASE.              Azerbaijan:  LOGGING EQUIPMENT BASE LOCATION
 COMP.     BP Exploration (Caspian Sea) Ltd:  COMPANY
 WTYP.                Deviated:  WELL TYPE
 SON .        AZ-XX-0906344804:  JOB NUMBER
 FTOP.          Formation Tops:  FORM TOPS DESC
 ILTD.               Lithology:  INTERP LTH DESC
 SVYD.                  Survey:  SURVEY DESC
 DMOD.             Drill Model:  DRILL MOD DESC
 HPTY.       Minimum Curvature:  HOLE POS TYPE
 NREF.                    Grid:  NORTH REFERENCE
 SPUD.               01-Jan-20:  SPUD DATE
 DATE.      00.59.44 15-Sep-20:  END TIME
 STIM.      12.00.00 12-Jun-20:  START TIME
 DMF .             Drill Floor:  DRILL MEAS FROM
 DFST.                        :  DIST FSL TEXT
 DFWT.                        :  DIST FWL TEXT
 API .                        :  API NUMBER
 CNTY.                        :  COUNTY
 UWI .                        :  UNIQUE WELL IDENTIFIER
 LOC .                        :  LOCATION
 LMF .             Drill Floor:  LOG MEASURED FROM
 VSNS.m                   2.88:  VERT SEC N/S
 VSEW.m                  -3.84:  VERT SEC E/W
 AGAP.m                  43.42:  AIR GAP
 APD .m                  43.42:  DEPTH ABOVE PD
 WDMS.m                 118.27:  WD ELEV
 EGL .m                   0.00:  GROUND ELEVATION
 EPD .m                   0.00:  ELEVATION
 AZTC.deg                 6.23:  AZM TOTAL CORR
 GRDC.deg                 0.20:  GRID CORRECTION
 MDEC.deg                 6.43:  MAGNETIC DECL
 MDIP.deg                59.49:  MAGNETIC DIP
 MFLD.nT              50277.00:  MAGNETIC FIELD
 GVFD.g                   1.00:  GRAVITY FIELD
 VSDR.deg               173.20:  VERT SEC DIRECT
 TDD .m                5790.01:  TOTAL DEPTH (DRILLER)
 SDEP.m                5231.01:  START DEPTH
 DFSL.m                   0.00:  DISTANCE FSL
 DFWL.m                   0.00:  DISTANCE FWL
 UTMY.m             4435808.83:  UTM Y
 UTMX.m              526266.40:  UTM X
 WHEW.m                  -3.84:  WELL HEAD E/W
 WHNS.m                   2.88:  WELL HEAD N/S
 LONG.deg                51.31:  LONGITUDE
 LATI.deg                40.06:  LATITUDE
 TVDS.m                  43.42:  TVDSS CORRECTN
 DEP .m                 430.08:  DEPTH
 EKB .m                  43.42:  KB ELEVATION
 EDF .m                  43.42:  DF ELEVATION
 TDL .m                 559.00:  TOTAL DEPTH (LOGGER)
 MAGU.                 1849381:  MAGUTM CHECKSUM
 VSC .                       0:  VS TO CLOSURE
~Parameter Information Block
#MNEM.UNIT       Value        Description
#---------     -----------    ---------------------------
 AV  .mps                 4.87:  Ann Velocity 
 AVMX.mps                 7.08:  Max Ann Veloc 
 AZIF.deg               108.87:  Azm, Final 
 BHAT.                  Rotary:  BHA Type 
 BROT.°/30m               0.35:  Build Rotating 
 BS  .in                  8.50:  Bit Size 
 BSZ .in                  8.50:  Bit Size 
 BTPL.psig              360.00:  Bit Press Loss 
 CABU.                     Yes:  Customer Abuse 
 COMM.                     $ñd:  Run Comments 1 
 TCS .hr                106.24:  Time Ciculation Ended 
 CV  .mps                 1.77:  Crit Velocity 
 CVMX.mps                 2.03:  Max Crit Veloc 
 DD1 .         Aykhan Agagulov:  Direct Drillr 1 
 DD2 .            Nonso Okofor:  Direct Drillr 2 
 DDSV.               Geo-Pilot:  DD Service 
 DEFF.%                  98.00:  % Det Eff 
 DLRX.°/30m               0.50:  Dogleg Rot Max 
 DLSO.°/30m               0.40:  Dogleg Oriented 
 DLSX.°/30m               0.94:  Dogleg Str Max 
 DRET.      20.30.00 08-Sep-20:  Drill End Time 
 DRST.      22.15.00 06-Sep-20:  Drill Start Tim 
 DTIM.hr                 31.31:  Time Drilling 
 EDEP.m                5790.01:  End Depth 
 ENG1.           Amrah Tahirov:  Engineer 1 
 ENG2.         Dair Mahammadov:  Engineer 2 
 ENG3.           Emil Huseynov:  Engineer 3 
 ETIM.      04.01.04 12-Sep-20:  End Time 
 FLOI.gpm               450.00:  Flow In 
 FLON.gpm               450.00:  Flow In Min 
 FLOS.cptm                2.00:  Fluid Loss 
 FLOX.gpm               450.00:  Flow In Max 
 FTRO.       Formation Presure:  FTWD Run Obj 
 HFLO.                      No:  High Flow 
 HPRE.                      No:  High Pressure 
 HTEM.                      No:  High Temp 
 HYDO.m                   1.80:  Hydro Offset 
 IFIN.deg                72.03:  Inc, Final 
 IMAX.deg                73.72:  Inc Max 
 IMIN.deg                70.94:  Inc Min 
 IMND.m                5508.52:  Inc Min Depth 
 IMXD.m                5253.60:  Inc Max Depth 
 JARR.                      No:  Jarring 
 LETM.      20.30.00 08-Sep-20:  Log End Time 
 LOST.hr                     0:  Lost Rig Time 
 LSTM.      22.15.00 06-Sep-20:  Log Start Time 
 MDCL.ppm             36000.00:  Mud Chlorides 
 MDES.     Inversion Oil/Synthetic:  Mud Desc 
 DFD .sg                  1.44:  Mud Density 
 MDMN.sg                  1.44:  Dens Mud Min 
 MDMX.sg                  1.57:  Dens Mud Max 
 MOIL.                      70:  Run Mud Oil % 
 MOWR.                   70:30:  Run Mud OWR 
 MSND.                       0:  Run Mud Sand % 
 MSOL.                      21:  Run Mud Solids% 
 DFV .spqt               68.00:  Mud Viscosity 
 MWOD.in                  6.75:  MWD Tool OD 
 MWSI.                     Yes:  Serv Intrp, MWD 
 OTIM.hr                174.84:  Time Operating 
 PCON.           Look Like New:  Pad Condition 
 PMAX.psia            10616.93:  Press Op, Max 
 PV  .cP                 50.00:  Mud PV 
 RUN .                     700:  Run Number 
 ROPA.m/hr               14.24:  ROP Avg 
 ROPN.m/hr               10.00:  ROP Min 
 ROPX.m/hr               32.00:  ROP Max 
 RPMA.rpm               120.90:  RPM Surface Avg 
 RPMN.rpm               120.00:  RPM Surface Min 
 RPMX.rpm               140.00:  RPM Surface Max 
 RRUN.                    0700:  Rig Run Number 
 RTIM.hr                  3.20:  Time Reaming 
 SAZI.deg               109.99:  Azm, Start 
 SDEP.m                5231.01:  Start Depth 
 SIDD.                      No:  Serv Intrp, DD 
 SINC.deg                73.72:  Inc, Start 
 SPPA.psig             3051.00:  SPP Avg 
 SPPN.psig             2950.00:  SPP Min 
 SPPX.psig             3250.00:  SPP Max 
 STIM.      08.00.00 05-Sep-20:  Start Time 
 SVCS.                 DD, MWD:  Services 
 SVER.                    9.20:  Sperry Version 
 TDAT.m                 559.00:  Tot Depth Attmp 
 TDDF.                      No:  Trip for DD 
 TDLG.m                 559.00:  Tot Depth Loggd 
 TFF .                      No:  Trip for Fail 
 TQAA.f-kp               26.49:  Torque Abs Avg 
 TQAN.f-kp               25.00:  Torque Abs Min 
 TQAX.f-kp               27.00:  Torque Abs Max 
 TRRT.°/30m               1.50:  Turn Rotating 
 MRT .                    HCIM:  Maximum Recorded Temperature 
 TTMX.degC               90.20:  Max Tool Temp 
 VS01.                90542671:  Virtual Str1 SN 
 VS02.                90545185:  Virtual Str2 SN 
 VS03.                90602015:  Virtual Str3 SN 
 VS04.                90515230:  Virtual Str4 SN 
 WBMN.klb                 5.00:  WOB Min 
 WOBA.klb                14.79:  WOB Avg 
 WOBX.klb                20.00:  WOB Max 
 YP  .lhf2               29.00:  Yield Point 
~Curve Information Block
#MNEM.UNIT                 API CODE     Curve Description
#---------               -----------    ---------------------------
 TIME.HHMMSS            00 000 000 000:  GT Time & Date
 GTDEPTH.m              00 000 000 000:  GT Depth
 GTPQH.psia             00 000 000 000:  GT HR Quartz Pressure
 GTTQ.degC              00 000 000 000:  GT Quartz Temperature
 GTTN.NONE              00 000 000 000:  GT Test Number
 GTET.sec               00 000 000 000:  GT Elapsed Test Time
 GTTVD.m                00 000 000 000:  GT True Vertical Depth
#Other Information
#
#WARRANTY: Halliburton will use its best efforts to furnish customers with 
#accurate information and interpretations that are part of, and incident to, the services 
#provided.  However, Halliburton cannot and does not warrant the accuracy 
#or correctness of such information and interpretations.  Under no circumstances should any 
#such information or interpretation be relied upon as the sole basis for any drilling, 
#completion, production, or financial decision or any procedure involving any risk to the 
#safety of any drilling venture, drilling rig or its crew or any other third party.  The 
#Customer has full responsibility for all drilling, completion and production operation.  
#Halliburton makes no representations or warranties, either expressed or 
#implied, including, but not limited to, the implied warranties of merchantability or fitness 
#for a particular purpose, with respect to the services rendered.  In no event will 
#Halliburton be liable for failure to obtain any particular results or for 
#any damages, including, but not limited to, indirect, special or consequential damages, 
#resulting from the use of any information or interpretation provided by Halliburton.
#
~A           TIME           GTDEPTH  GTPQH  GTTQ  GTTN   GTET   GTTVD  
# ...
   13:33:19.781.09-Sep-2020 5408.01  674.17 75.41 15.00 158.30 2589.60
   13:33:19.981.09-Sep-2020 5408.01  773.36 75.41 15.00 158.50 2589.60
   13:33:20.181.09-Sep-2020 5408.01  907.24 75.41 15.00 158.70 2589.60
   13:33:20.382.09-Sep-2020 5408.01 1041.73 75.41 15.00 158.90 2589.60
   13:33:20.582.09-Sep-2020 5408.01 1169.77 75.41 15.00 159.10 2589.60
   13:33:20.782.09-Sep-2020 5408.01 1169.77 75.41 15.00 159.30 2589.60
   13:33:20.982.09-Sep-2020 5408.01 1400.76 75.41 15.00 159.50 2589.60
   13:33:21.182.09-Sep-2020 5408.01 1505.53 75.41 15.00 159.70 2589.60
   13:33:21.382.09-Sep-2020 5408.01 1604.02 75.41 15.00 159.90 2589.60
   13:33:21.582.09-Sep-2020 5408.01 1696.33 75.41 15.00 160.10 2589.60
   13:33:21.782.09-Sep-2020 5408.01 1784.24 75.41 15.00 160.30 2589.60
   13:33:21.983.09-Sep-2020 5408.01 1867.04 75.41 15.00 160.50 2589.60
   13:33:22.183.09-Sep-2020 5408.01 1945.33 75.41 15.00 160.70 2589.60
   13:33:22.383.09-Sep-2020 5408.01 2020.30 75.41 15.00 160.90 2589.60
   13:33:22.583.09-Sep-2020 5408.01 2091.11 75.41 15.00 161.10 2589.60
   13:33:22.783.09-Sep-2020 5408.01 2091.11 75.41 15.00 161.30 2589.60
   13:33:22.983.09-Sep-2020 5408.01 2222.47 75.41 15.00 161.50 2589.60
   13:33:23.183.09-Sep-2020 5408.01 2283.05 75.41 15.00 161.70 2589.60
   13:33:23.383.09-Sep-2020 5408.01 2340.69 75.41 15.00 161.90 2589.60
   13:33:23.584.09-Sep-2020 5408.01 2395.53 75.41 15.00 162.10 2589.60
   13:33:23.784.09-Sep-2020 5408.01 2395.53 75.41 15.00 162.30 2589.60
   13:33:23.984.09-Sep-2020 5408.01 2495.82 75.41 15.00 162.50 2589.60
   13:33:24.184.09-Sep-2020 5408.01 2545.29 75.41 15.00 162.70 2589.60
   13:33:24.384.09-Sep-2020 5408.01 2590.45 75.42 15.00 162.90 2589.60
   13:33:24.584.09-Sep-2020 5408.01 2633.44 75.42 15.00 163.10 2589.60
   13:33:24.784.09-Sep-2020 5408.01 2633.44 75.42 15.00 163.30 2589.60
   13:33:24.984.09-Sep-2020 5408.01 2714.03 75.42 15.00 163.50 2589.60
   13:33:25.184.09-Sep-2020 5408.01 2750.02 75.42 15.00 163.70 2589.60
   13:33:25.385.09-Sep-2020 5408.01 2787.13 75.42 15.00 163.90 2589.60
   13:33:25.585.09-Sep-2020 5408.01 2820.88 75.43 15.00 164.10 2589.60
   13:33:25.785.09-Sep-2020 5408.01 2853.12 75.43 15.00 164.30 2589.60
   13:33:25.985.09-Sep-2020 5408.01 2884.58 75.43 15.00 164.50 2589.60
   13:33:26.185.09-Sep-2020 5408.01 2913.29 75.43 15.00 164.70 2589.60
   13:33:26.385.09-Sep-2020 5408.01 2941.88 75.43 15.00 164.90 2589.60
   13:33:26.585.09-Sep-2020 5408.01 2967.04 75.43 15.00 165.10 2589.60
   13:33:26.785.09-Sep-2020 5408.01 2967.04 75.43 15.00 165.30 2589.60
   13:33:26.986.09-Sep-2020 5408.01 3018.58 75.44 15.00 165.50 2589.60
   13:33:27.186.09-Sep-2020 5408.01 3042.58 75.44 15.00 165.70 2589.60
   13:33:27.386.09-Sep-2020 5408.01 3063.02 75.44 15.00 165.90 2589.60
   13:33:27.586.09-Sep-2020 5408.01 3087.15 75.44 15.00 166.10 2589.60
   13:33:27.786.09-Sep-2020 5408.01 3087.15 75.44 15.00 166.30 2589.60
   13:33:27.986.09-Sep-2020 5408.01 3126.45 75.45 15.00 166.50 2589.60
   13:33:28.186.09-Sep-2020 5408.01 3145.44 75.45 15.00 166.70 2589.60
   13:33:28.386.09-Sep-2020 5408.01 3162.83 75.45 15.00 166.90 2589.60
   13:33:28.587.09-Sep-2020 5408.01 3180.51 75.45 15.00 167.10 2589.60
   13:33:28.787.09-Sep-2020 5408.01 3180.51 75.45 15.00 167.30 2589.60
   13:33:28.987.09-Sep-2020 5408.01 3212.40 75.46 15.00 167.50 2589.60
   13:33:29.187.09-Sep-2020 5408.01 3228.18 75.46 15.00 167.70 2589.60
   13:33:29.387.09-Sep-2020 5408.01 3241.75 75.46 15.00 167.90 2589.60
   13:33:29.587.09-Sep-2020 5408.01 3255.83 75.46 15.00 168.10 2589.60
   13:33:29.787.09-Sep-2020 5408.01 3255.83 75.46 15.00 168.30 2589.60
   13:33:29.987.09-Sep-2020 5408.01 3282.45 75.47 15.00 168.50 2589.60
   13:33:30.188.09-Sep-2020 5408.01 3292.99 75.47 15.00 168.70 2589.60
   13:33:30.388.09-Sep-2020 5408.01 3305.02 75.47 15.00 168.90 2589.60
   13:33:30.588.09-Sep-2020 5408.01 3316.43 75.47 15.00 169.10 2589.60
   13:33:30.788.09-Sep-2020 5408.01 3316.43 75.47 15.00 169.30 2589.60
   13:33:30.988.09-Sep-2020 5408.01 3337.68 75.47 15.00 169.50 2589.60
   13:33:31.188.09-Sep-2020 5408.01 3345.57 75.47 15.00 169.70 2589.60
   13:33:31.388.09-Sep-2020 5408.01 3354.96 75.48 15.00 169.90 2589.60
   13:33:31.588.09-Sep-2020 5408.01 3364.21 75.48 15.00 170.10 2589.60
   13:33:31.789.09-Sep-2020 5408.01 3364.21 75.48 15.00 170.30 2589.60
   13:33:31.989.09-Sep-2020 5408.01 3381.52 75.48 15.00 170.50 2589.60
   13:33:32.189.09-Sep-2020 5408.01 3389.58 75.48 15.00 170.70 2589.60
   13:33:32.389.09-Sep-2020 5408.01 3395.78 75.48 15.00 170.90 2589.60
   13:33:32.589.09-Sep-2020 5408.01 3401.72 75.48 15.00 171.10 2589.60
   13:33:32.789.09-Sep-2020 5408.01 3401.72 75.48 15.00 171.30 2589.60
   13:33:32.989.09-Sep-2020 5408.01 3416.36 75.49 15.00 171.50 2589.60
   13:33:33.189.09-Sep-2020 5408.01 3422.98 75.49 15.00 171.70 2589.60
   13:33:33.390.09-Sep-2020 5408.01 3429.62 75.49 15.00 171.91 2589.60
   13:33:33.590.09-Sep-2020 5408.01 3435.45 75.49 15.00 172.11 2589.60
   13:33:33.790.09-Sep-2020 5408.01 3441.37 75.49 15.00 172.31 2589.60
   13:33:33.990.09-Sep-2020 5408.01 3446.95 75.49 15.00 172.51 2589.60
   13:33:34.190.09-Sep-2020 5408.01 3452.26 75.49 15.00 172.71 2589.60
   13:33:34.390.09-Sep-2020 5408.01 3457.38 75.49 15.00 172.91 2589.60
   13:33:34.590.09-Sep-2020 5408.01 3462.21 75.49 15.00 173.11 2589.60
   13:33:34.790.09-Sep-2020 5408.01 3462.21 75.49 15.00 173.31 2589.60
   13:33:34.990.09-Sep-2020 5408.01 3469.86 75.50 15.00 173.51 2589.60
   13:33:35.191.09-Sep-2020 5408.01 3473.27 75.50 15.00 173.71 2589.60
   13:33:35.391.09-Sep-2020 5408.01 3477.52 75.50 15.00 173.91 2589.60
   13:33:35.591.09-Sep-2020 5408.01 3481.59 75.50 15.00 174.11 2589.60
   13:33:35.791.09-Sep-2020 5408.01 3481.59 75.50 15.00 174.31 2589.60
   13:33:35.991.09-Sep-2020 5408.01 3489.40 75.50 15.00 174.51 2589.60
   13:33:36.191.09-Sep-2020 5408.01 3493.39 75.50 15.00 174.71 2589.60
   13:33:36.391.09-Sep-2020 5408.01 3496.91 75.50 15.00 174.91 2589.60
   13:33:36.591.09-Sep-2020 5408.01 3500.57 75.50 15.00 175.11 2589.60
   13:33:36.792.09-Sep-2020 5408.01 3500.57 75.50 15.00 175.31 2589.60
   13:33:36.992.09-Sep-2020 5408.01 3506.28 75.50 15.00 175.51 2589.60
   13:33:37.192.09-Sep-2020 5408.01 3509.52 75.50 15.00 175.71 2589.60
   13:33:37.392.09-Sep-2020 5408.01 3512.56 75.50 15.00 175.91 2589.60
   13:33:37.592.09-Sep-2020 5408.01 3515.26 75.50 15.00 176.11 2589.60
   13:33:37.792.09-Sep-2020 5408.01 3517.40 75.50 15.00 176.31 2589.60
   13:33:37.992.09-Sep-2020 5408.01 3520.51 75.50 15.00 176.51 2589.60
   13:33:38.192.09-Sep-2020 5408.01 3523.26 75.51 15.00 176.71 2589.60
   13:33:38.393.09-Sep-2020 5408.01 3525.82 75.51 15.00 176.91 2589.60
   13:33:38.593.09-Sep-2020 5408.01 3528.09 75.51 15.00 177.11 2589.60
   13:33:38.793.09-Sep-2020 5408.01 3528.09 75.51 15.00 177.31 2589.60
   13:33:38.993.09-Sep-2020 5408.01 3532.55 75.51 15.00 177.51 2589.60
   13:33:39.193.09-Sep-2020 5408.01 3532.81 75.51 15.00 177.71 2589.60
   13:33:39.393.09-Sep-2020 5408.01 3534.81 75.51 15.00 177.91 2589.60
   13:33:39.593.09-Sep-2020 5408.01 3536.98 75.51 15.00 178.11 2589.60
   13:33:39.793.09-Sep-2020 5408.01 3536.98 75.51 15.00 178.31 2589.60
   13:33:39.994.09-Sep-2020 5408.01 3541.01 75.51 15.00 178.51 2589.60
   13:33:40.194.09-Sep-2020 5408.01 3542.55 75.51 15.00 178.71 2589.60
   13:33:40.394.09-Sep-2020 5408.01 3544.32 75.51 15.00 178.91 2589.60
   13:33:40.594.09-Sep-2020 5408.01 3544.80 75.51 15.00 179.11 2589.60
   13:33:40.794.09-Sep-2020 5408.01 3544.80 75.51 15.00 179.31 2589.60
   13:33:40.994.09-Sep-2020 5408.01 3549.12 75.51 15.00 179.51 2589.60
   13:33:41.194.09-Sep-2020 5408.01 3550.61 75.51 15.00 179.71 2589.60
   13:33:41.394.09-Sep-2020 5408.01 3552.37 75.51 15.00 179.91 2589.60
   13:33:41.595.09-Sep-2020 5408.01 3553.45 75.51 15.00 180.11 2589.60
   13:33:41.795.09-Sep-2020 5408.01 3554.79 75.51 15.00 180.31 2589.60
   13:33:41.995.09-Sep-2020 5408.01 3556.09 75.51 15.00 180.51 2589.60
   13:33:42.195.09-Sep-2020 5408.01 3557.30 75.51 15.00 180.71 2589.60
