~Version Information
 VERS.                  2.0:   CWLS log ASCII Standard -VERSION 2.0
 WRAP.                   NO:   One line per depth step
~Well Information Block
#MNEM.UNIT     VALUE/NAME     DESCRIPTION
#---------     -----------    ---------------------------
 STRT.S             09:56:49 09-Sep-20: START TIME 09:56:49 09-Sep-20
 STOP.S             10:03:50 09-Sep-20: STOP TIME  10:03:50 09-Sep-20
 STEP.S                   0.00: STEP TIME
 NULL.                 -999.25: NULL VALUE
 MDS .        Operator Entered:  MAG DATA SOURCE
 PDAT.          Mean Sea Level:  PERMANENT DATUM
 DCON.         Sperry Drilling:  DIRECTNL CONTR
 RIG .              West Azeri:  RIG NAME
 WELL.           C40 (Slot 20):  WELL NAME
 SRVC.     Turan Drilling Engineering:  CONTRACTOR
 FLD .                     ACG:  FIELD NAME
 CTRY.              Azerbaijan:  COUNTRY NAME
 PROV.                    Baku:  PROVINCE
 STAT.                    Baku:  STATE NAME
 REGN.                   EESSA:  REGION
 BASE.              Azerbaijan:  LOGGING EQUIPMENT BASE LOCATION
 COMP.     BP Exploration (Caspian Sea) Ltd:  COMPANY
 WTYP.                Deviated:  WELL TYPE
 SON .        AZ-XX-0906344804:  JOB NUMBER
 FTOP.          Formation Tops:  FORM TOPS DESC
 ILTD.               Lithology:  INTERP LTH DESC
 SVYD.                  Survey:  SURVEY DESC
 DMOD.             Drill Model:  DRILL MOD DESC
 HPTY.       Minimum Curvature:  HOLE POS TYPE
 NREF.                    Grid:  NORTH REFERENCE
 SPUD.               01-Jan-20:  SPUD DATE
 DATE.      00.59.44 15-Sep-20:  END TIME
 STIM.      12.00.00 12-Jun-20:  START TIME
 DMF .             Drill Floor:  DRILL MEAS FROM
 DFST.                        :  DIST FSL TEXT
 DFWT.                        :  DIST FWL TEXT
 API .                        :  API NUMBER
 CNTY.                        :  COUNTY
 UWI .                        :  UNIQUE WELL IDENTIFIER
 LOC .                        :  LOCATION
 LMF .             Drill Floor:  LOG MEASURED FROM
 VSNS.m                   2.88:  VERT SEC N/S
 VSEW.m                  -3.84:  VERT SEC E/W
 AGAP.m                  43.42:  AIR GAP
 APD .m                  43.42:  DEPTH ABOVE PD
 WDMS.m                 118.27:  WD ELEV
 EGL .m                   0.00:  GROUND ELEVATION
 EPD .m                   0.00:  ELEVATION
 AZTC.deg                 6.23:  AZM TOTAL CORR
 GRDC.deg                 0.20:  GRID CORRECTION
 MDEC.deg                 6.43:  MAGNETIC DECL
 MDIP.deg                59.49:  MAGNETIC DIP
 MFLD.nT              50277.00:  MAGNETIC FIELD
 GVFD.g                   1.00:  GRAVITY FIELD
 VSDR.deg               173.20:  VERT SEC DIRECT
 TDD .m                5790.01:  TOTAL DEPTH (DRILLER)
 SDEP.m                5231.01:  START DEPTH
 DFSL.m                   0.00:  DISTANCE FSL
 DFWL.m                   0.00:  DISTANCE FWL
 UTMY.m             4435808.83:  UTM Y
 UTMX.m              526266.40:  UTM X
 WHEW.m                  -3.84:  WELL HEAD E/W
 WHNS.m                   2.88:  WELL HEAD N/S
 LONG.deg                51.31:  LONGITUDE
 LATI.deg                40.06:  LATITUDE
 TVDS.m                  43.42:  TVDSS CORRECTN
 DEP .m                 430.08:  DEPTH
 EKB .m                  43.42:  KB ELEVATION
 EDF .m                  43.42:  DF ELEVATION
 TDL .m                 559.00:  TOTAL DEPTH (LOGGER)
 MAGU.                 1849381:  MAGUTM CHECKSUM
 VSC .                       0:  VS TO CLOSURE
~Parameter Information Block
#MNEM.UNIT       Value        Description
#---------     -----------    ---------------------------
 AV  .mps                 4.87:  Ann Velocity 
 AVMX.mps                 7.08:  Max Ann Veloc 
 AZIF.deg               108.87:  Azm, Final 
 BHAT.                  Rotary:  BHA Type 
 BROT.°/30m               0.35:  Build Rotating 
 BS  .in                  8.50:  Bit Size 
 BSZ .in                  8.50:  Bit Size 
 BTPL.psig              360.00:  Bit Press Loss 
 CABU.                     Yes:  Customer Abuse 
 COMM.                     ÜQ{:  Run Comments 1 
 TCS .hr                106.24:  Time Ciculation Ended 
 CV  .mps                 1.77:  Crit Velocity 
 CVMX.mps                 2.03:  Max Crit Veloc 
 DD1 .         Aykhan Agagulov:  Direct Drillr 1 
 DD2 .            Nonso Okofor:  Direct Drillr 2 
 DDSV.               Geo-Pilot:  DD Service 
 DEFF.%                  98.00:  % Det Eff 
 DLRX.°/30m               0.50:  Dogleg Rot Max 
 DLSO.°/30m               0.40:  Dogleg Oriented 
 DLSX.°/30m               0.94:  Dogleg Str Max 
 DRET.      20.30.00 08-Sep-20:  Drill End Time 
 DRST.      22.15.00 06-Sep-20:  Drill Start Tim 
 DTIM.hr                 31.31:  Time Drilling 
 EDEP.m                5790.01:  End Depth 
 ENG1.           Amrah Tahirov:  Engineer 1 
 ENG2.         Dair Mahammadov:  Engineer 2 
 ENG3.           Emil Huseynov:  Engineer 3 
 ETIM.      04.01.04 12-Sep-20:  End Time 
 FLOI.gpm               450.00:  Flow In 
 FLON.gpm               450.00:  Flow In Min 
 FLOS.cptm                2.00:  Fluid Loss 
 FLOX.gpm               450.00:  Flow In Max 
 FTRO.       Formation Presure:  FTWD Run Obj 
 HFLO.                      No:  High Flow 
 HPRE.                      No:  High Pressure 
 HTEM.                      No:  High Temp 
 HYDO.m                   1.80:  Hydro Offset 
 IFIN.deg                72.03:  Inc, Final 
 IMAX.deg                73.72:  Inc Max 
 IMIN.deg                70.94:  Inc Min 
 IMND.m                5508.52:  Inc Min Depth 
 IMXD.m                5253.60:  Inc Max Depth 
 JARR.                      No:  Jarring 
 LETM.      20.30.00 08-Sep-20:  Log End Time 
 LOST.hr                     0:  Lost Rig Time 
 LSTM.      22.15.00 06-Sep-20:  Log Start Time 
 MDCL.ppm             36000.00:  Mud Chlorides 
 MDES.     Inversion Oil/Synthetic:  Mud Desc 
 DFD .sg                  1.44:  Mud Density 
 MDMN.sg                  1.44:  Dens Mud Min 
 MDMX.sg                  1.57:  Dens Mud Max 
 MOIL.                      70:  Run Mud Oil % 
 MOWR.                   70:30:  Run Mud OWR 
 MSND.                       0:  Run Mud Sand % 
 MSOL.                      21:  Run Mud Solids% 
 DFV .spqt               68.00:  Mud Viscosity 
 MWOD.in                  6.75:  MWD Tool OD 
 MWSI.                     Yes:  Serv Intrp, MWD 
 OTIM.hr                174.84:  Time Operating 
 PCON.           Look Like New:  Pad Condition 
 PMAX.psia            10616.93:  Press Op, Max 
 PV  .cP                 50.00:  Mud PV 
 RUN .                     700:  Run Number 
 ROPA.m/hr               14.24:  ROP Avg 
 ROPN.m/hr               10.00:  ROP Min 
 ROPX.m/hr               32.00:  ROP Max 
 RPMA.rpm               120.90:  RPM Surface Avg 
 RPMN.rpm               120.00:  RPM Surface Min 
 RPMX.rpm               140.00:  RPM Surface Max 
 RRUN.                    0700:  Rig Run Number 
 RTIM.hr                  3.20:  Time Reaming 
 SAZI.deg               109.99:  Azm, Start 
 SDEP.m                5231.01:  Start Depth 
 SIDD.                      No:  Serv Intrp, DD 
 SINC.deg                73.72:  Inc, Start 
 SPPA.psig             3051.00:  SPP Avg 
 SPPN.psig             2950.00:  SPP Min 
 SPPX.psig             3250.00:  SPP Max 
 STIM.      08.00.00 05-Sep-20:  Start Time 
 SVCS.                 DD, MWD:  Services 
 SVER.                    9.20:  Sperry Version 
 TDAT.m                 559.00:  Tot Depth Attmp 
 TDDF.                      No:  Trip for DD 
 TDLG.m                 559.00:  Tot Depth Loggd 
 TFF .                      No:  Trip for Fail 
 TQAA.f-kp               26.49:  Torque Abs Avg 
 TQAN.f-kp               25.00:  Torque Abs Min 
 TQAX.f-kp               27.00:  Torque Abs Max 
 TRRT.°/30m               1.50:  Turn Rotating 
 MRT .                    HCIM:  Maximum Recorded Temperature 
 TTMX.degC               90.20:  Max Tool Temp 
 VS01.                90542671:  Virtual Str1 SN 
 VS02.                90545185:  Virtual Str2 SN 
 VS03.                90602015:  Virtual Str3 SN 
 VS04.                90515230:  Virtual Str4 SN 
 WBMN.klb                 5.00:  WOB Min 
 WOBA.klb                14.79:  WOB Avg 
 WOBX.klb                20.00:  WOB Max 
 YP  .lhf2               29.00:  Yield Point 
~Curve Information Block
#MNEM.UNIT                 API CODE     Curve Description
#---------               -----------    ---------------------------
 TIME.HHMMSS            00 000 000 000:  GT Time & Date
 GTDEPTH.m              00 000 000 000:  GT Depth
 GTPQH.psia             00 000 000 000:  GT HR Quartz Pressure
 GTTQ.degC              00 000 000 000:  GT Quartz Temperature
 GTTN.NONE              00 000 000 000:  GT Test Number
 GTET.sec               00 000 000 000:  GT Elapsed Test Time
 GTTVD.m                00 000 000 000:  GT True Vertical Depth
#Other Information
#
#WARRANTY: Halliburton will use its best efforts to furnish customers with 
#accurate information and interpretations that are part of, and incident to, the services 
#provided.  However, Halliburton cannot and does not warrant the accuracy 
#or correctness of such information and interpretations.  Under no circumstances should any 
#such information or interpretation be relied upon as the sole basis for any drilling, 
#completion, production, or financial decision or any procedure involving any risk to the 
#safety of any drilling venture, drilling rig or its crew or any other third party.  The 
#Customer has full responsibility for all drilling, completion and production operation.  
#Halliburton makes no representations or warranties, either expressed or 
#implied, including, but not limited to, the implied warranties of merchantability or fitness 
#for a particular purpose, with respect to the services rendered.  In no event will 
#Halliburton be liable for failure to obtain any particular results or for 
#any damages, including, but not limited to, indirect, special or consequential damages, 
#resulting from the use of any information or interpretation provided by Halliburton.
#
~A           TIME           GTDEPTH  GTPQH  GTTQ  GTTN  GTET   GTTVD  
# ...
   09:57:12.000.09-Sep-2020 5480.01 6336.24 77.19 8.00  23.00 2612.34
   09:57:12.200.09-Sep-2020 5480.01 6336.24 77.19 8.00  23.20 2612.34
   09:57:12.400.09-Sep-2020 5480.01 6336.70 77.19 8.00  23.40 2612.34
   09:57:12.600.09-Sep-2020 5480.01 6338.01 77.19 8.00  23.60 2612.34
   09:57:12.800.09-Sep-2020 5480.01 6338.23 77.19 8.00  23.80 2612.34
   09:57:13.000.09-Sep-2020 5480.01 6337.91 77.19 8.00  24.00 2612.34
   09:57:13.200.09-Sep-2020 5480.01 6337.91 77.19 8.00  24.20 2612.34
   09:57:13.400.09-Sep-2020 5480.01 6338.63 77.19 8.00  24.40 2612.34
   09:57:13.600.09-Sep-2020 5480.01 6339.45 77.19 8.00  24.60 2612.34
   09:57:13.800.09-Sep-2020 5480.01 6340.10 77.19 8.00  24.80 2612.34
   09:57:14.000.09-Sep-2020 5480.01 6340.32 77.19 8.00  25.00 2612.34
   09:57:14.200.09-Sep-2020 5480.01 6340.32 77.19 8.00  25.20 2612.34
   09:57:14.400.09-Sep-2020 5480.01 6341.01 77.19 8.00  25.40 2612.34
   09:57:14.600.09-Sep-2020 5480.01 6341.51 77.19 8.00  25.60 2612.34
   09:57:14.800.09-Sep-2020 5480.01 6341.94 77.19 8.00  25.80 2612.34
   09:57:15.000.09-Sep-2020 5480.01 6342.42 77.19 8.00  26.00 2612.34
   09:57:15.200.09-Sep-2020 5480.01 6342.42 77.19 8.00  26.20 2612.34
   09:57:15.400.09-Sep-2020 5480.01 6335.80 77.19 8.00  26.40 2612.34
   09:57:15.600.09-Sep-2020 5480.01 6343.43 77.19 8.00  26.60 2612.34
   09:57:15.800.09-Sep-2020 5480.01 6344.59 77.19 8.00  26.80 2612.34
   09:57:16.000.09-Sep-2020 5480.01 6344.40 77.19 8.00  27.00 2612.34
   09:57:16.200.09-Sep-2020 5480.01 6344.40 77.19 8.00  27.20 2612.34
   09:57:16.400.09-Sep-2020 5480.01 6343.21 77.19 8.00  27.40 2612.34
   09:57:16.600.09-Sep-2020 5480.01 6343.96 77.19 8.00  27.60 2612.34
   09:57:16.800.09-Sep-2020 5480.01 6344.17 77.19 8.00  27.80 2612.34
   09:57:17.000.09-Sep-2020 5480.01 6344.73 77.19 8.00  28.00 2612.34
   09:57:17.200.09-Sep-2020 5480.01 6344.73 77.19 8.00  28.20 2612.34
   09:57:17.400.09-Sep-2020 5480.01 6345.21 77.19 8.00  28.40 2612.34
   09:57:17.600.09-Sep-2020 5480.01 6344.94 77.19 8.00  28.60 2612.34
   09:57:17.800.09-Sep-2020 5480.01 6345.05 77.19 8.00  28.80 2612.34
   09:57:18.000.09-Sep-2020 5480.01 6345.37 77.19 8.00  29.00 2612.34
   09:57:18.200.09-Sep-2020 5480.01 6345.37 77.19 8.00  29.20 2612.34
   09:57:18.400.09-Sep-2020 5480.01 6346.47 77.19 8.00  29.40 2612.34
   09:57:18.600.09-Sep-2020 5480.01 6357.99 77.19 8.00  29.60 2612.34
   09:57:18.800.09-Sep-2020 5480.01 6338.91 77.19 8.00  29.80 2612.34
   09:57:19.000.09-Sep-2020 5480.01 6346.57 77.19 8.00  30.00 2612.34
   09:57:19.200.09-Sep-2020 5480.01 6346.57 77.19 8.00  30.20 2612.34
   09:57:19.400.09-Sep-2020 5480.01 6347.22 77.19 8.00  30.40 2612.34
   09:57:19.600.09-Sep-2020 5480.01 6348.38 77.19 8.00  30.60 2612.34
   09:57:19.800.09-Sep-2020 5480.01 6355.71 77.19 8.00  30.80 2612.34
   09:57:20.000.09-Sep-2020 5480.01 6343.91 77.19 8.00  31.00 2612.34
   09:57:20.200.09-Sep-2020 5480.01 6343.91 77.19 8.00  31.20 2612.34
   09:57:20.400.09-Sep-2020 5480.01 6351.03 77.19 8.00  31.40 2612.34
   09:57:20.600.09-Sep-2020 5480.01 6346.97 77.19 8.00  31.60 2612.34
   09:57:20.800.09-Sep-2020 5480.01 6348.84 77.19 8.00  31.80 2612.34
   09:57:21.000.09-Sep-2020 5480.01 6348.41 77.19 8.00  32.00 2612.34
   09:57:21.200.09-Sep-2020 5480.01 6348.41 77.19 8.00  32.20 2612.34
   09:57:21.400.09-Sep-2020 5480.01 6349.07 77.19 8.00  32.40 2612.34
   09:57:21.600.09-Sep-2020 5480.01 6349.85 77.19 8.00  32.60 2612.34
   09:57:21.800.09-Sep-2020 5480.01 6349.64 77.19 8.00  32.80 2612.34
   09:57:22.000.09-Sep-2020 5480.01 6352.18 77.19 8.00  33.00 2612.34
   09:57:22.200.09-Sep-2020 5480.01 6352.18 77.19 8.00  33.20 2612.34
   09:57:22.400.09-Sep-2020 5480.01 6355.72 77.19 8.00  33.40 2612.34
   09:57:22.600.09-Sep-2020 5480.01 6351.88 77.19 8.00  33.60 2612.34
   09:57:22.800.09-Sep-2020 5480.01 6350.90 77.19 8.00  33.80 2612.34
   09:57:23.000.09-Sep-2020 5480.01 6356.01 77.19 8.00  34.00 2612.34
   09:57:23.200.09-Sep-2020 5480.01 6356.01 77.19 8.00  34.20 2612.34
   09:57:23.400.09-Sep-2020 5480.01 6353.57 77.18 8.00  34.40 2612.34
   09:57:23.600.09-Sep-2020 5480.01 6359.63 77.18 8.00  34.60 2612.34
   09:57:23.800.09-Sep-2020 5480.01 6353.90 77.18 8.00  34.80 2612.34
   09:57:24.000.09-Sep-2020 5480.01 6353.61 77.18 8.00  35.00 2612.34
   09:57:24.200.09-Sep-2020 5480.01 6353.61 77.18 8.00  35.20 2612.34
   09:57:24.400.09-Sep-2020 5480.01 6353.63 77.18 8.00  35.40 2612.34
   09:57:24.600.09-Sep-2020 5480.01 6355.57 77.18 8.00  35.60 2612.34
   09:57:24.800.09-Sep-2020 5480.01 6355.98 77.18 8.00  35.80 2612.34
   09:57:25.000.09-Sep-2020 5480.01 6355.63 77.18 8.00  36.00 2612.34
   09:57:25.200.09-Sep-2020 5480.01 6355.63 77.18 8.00  36.20 2612.34
   09:57:25.400.09-Sep-2020 5480.01 6356.17 77.18 8.00  36.40 2612.34
   09:57:25.600.09-Sep-2020 5480.01 6356.27 77.18 8.00  36.60 2612.34
   09:57:25.800.09-Sep-2020 5480.01 6356.42 77.18 8.00  36.80 2612.34
   09:57:26.000.09-Sep-2020 5480.01 6356.48 77.18 8.00  37.00 2612.34
   09:57:26.200.09-Sep-2020 5480.01 6356.48 77.18 8.00  37.20 2612.34
   09:57:26.400.09-Sep-2020 5480.01 6357.74 77.18 8.00  37.40 2612.34
   09:57:26.600.09-Sep-2020 5480.01 6358.41 77.18 8.00  37.60 2612.34
   09:57:26.800.09-Sep-2020 5480.01 6358.75 77.18 8.00  37.80 2612.34
   09:57:27.000.09-Sep-2020 5480.01 6359.20 77.18 8.00  38.00 2612.34
   09:57:27.200.09-Sep-2020 5480.01 6359.20 77.18 8.00  38.20 2612.34
   09:57:27.400.09-Sep-2020 5480.01 6353.19 77.18 8.00  38.40 2612.34
   09:57:27.600.09-Sep-2020 5480.01 6418.94 77.18 8.00  38.60 2612.34
   09:57:27.800.09-Sep-2020 5480.01 6458.95 77.18 8.00  38.80 2612.34
   09:57:28.000.09-Sep-2020 5480.01 6468.81 77.18 8.00  39.00 2612.34
   09:57:28.200.09-Sep-2020 5480.01 6468.81 77.18 8.00  39.20 2612.34
   09:57:28.400.09-Sep-2020 5480.01 6492.05 77.18 8.00  39.40 2612.34
   09:57:28.600.09-Sep-2020 5480.01 6497.52 77.18 8.00  39.60 2612.34
   09:57:28.800.09-Sep-2020 5480.01 6489.91 77.18 8.00  39.80 2612.34
   09:57:29.000.09-Sep-2020 5480.01 6472.28 77.18 8.00  40.00 2612.34
   09:57:29.200.09-Sep-2020 5480.01 6472.28 77.18 8.00  40.20 2612.34
   09:57:29.400.09-Sep-2020 5480.01 6393.17 77.18 8.00  40.40 2612.34
   09:57:29.600.09-Sep-2020 5480.01 6353.82 77.18 8.00  40.60 2612.34
   09:57:29.800.09-Sep-2020 5480.01 6315.25 77.18 8.00  40.80 2612.34
   09:57:30.000.09-Sep-2020 5480.01 6281.06 77.18 8.00  41.00 2612.34
   09:57:30.200.09-Sep-2020 5480.01 6281.06 77.18 8.00  41.20 2612.34
   09:57:30.400.09-Sep-2020 5480.01 6222.42 77.18 8.00  41.40 2612.34
   09:57:30.600.09-Sep-2020 5480.01 6200.90 77.18 8.00  41.60 2612.34
   09:57:30.800.09-Sep-2020 5480.01 6184.72 77.18 8.00  41.80 2612.34
   09:57:31.000.09-Sep-2020 5480.01 6170.79 77.18 8.00  42.00 2612.34
   09:57:31.200.09-Sep-2020 5480.01 6170.79 77.18 8.00  42.20 2612.34
   09:57:31.400.09-Sep-2020 5480.01 6146.73 77.18 8.00  42.40 2612.34
   09:57:31.600.09-Sep-2020 5480.01 6133.22 77.18 8.00  42.60 2612.34
   09:57:31.800.09-Sep-2020 5480.01 6122.02 77.18 8.00  42.80 2612.34
   09:57:32.000.09-Sep-2020 5480.01 6112.62 77.18 8.00  43.00 2612.34
   09:57:32.200.09-Sep-2020 5480.01 6112.62 77.18 8.00  43.20 2612.34
   09:57:32.400.09-Sep-2020 5480.01 6103.98 77.18 8.00  43.40 2612.34
   09:57:32.600.09-Sep-2020 5480.01 6099.04 77.18 8.00  43.60 2612.34
   09:57:32.800.09-Sep-2020 5480.01 6100.42 77.18 8.00  43.80 2612.34
   09:57:33.000.09-Sep-2020 5480.01 5608.42 77.18 8.00  44.00 2612.34
   09:57:33.200.09-Sep-2020 5480.01 5608.42 77.18 8.00  44.20 2612.34
   09:57:33.400.09-Sep-2020 5480.01 4309.36 77.17 8.00  44.40 2612.34
   09:57:33.600.09-Sep-2020 5480.01 3676.04 77.17 8.00  44.60 2612.34
   09:57:33.800.09-Sep-2020 5480.01 3583.22 77.17 8.00  44.80 2612.34
   09:57:34.000.09-Sep-2020 5480.01 3585.77 77.17 8.00  45.00 2612.34
   09:57:34.200.09-Sep-2020 5480.01 3585.77 77.17 8.00  45.20 2612.34
   09:57:34.400.09-Sep-2020 5480.01 3579.71 77.17 8.00  45.40 2612.34
   09:57:34.600.09-Sep-2020 5480.01 3576.28 77.17 8.00  45.60 2612.34
   09:57:34.800.09-Sep-2020 5480.01 3570.82 77.17 8.00  45.80 2612.34
