~Version Information
 VERS.                  2.0:   CWLS log ASCII Standard -VERSION 2.0
 WRAP.                   NO:   One line per depth step
~Well Information Block
#MNEM.UNIT     VALUE/NAME     DESCRIPTION
#---------     -----------    ---------------------------
 STRT.S             10:16:33 09-Sep-20: START TIME 10:16:33 09-Sep-20
 STOP.S             10:23:34 09-Sep-20: STOP TIME  10:23:34 09-Sep-20
 STEP.S                   0.00: STEP TIME
 NULL.                 -999.25: NULL VALUE
 MDS .        Operator Entered:  MAG DATA SOURCE
 PDAT.          Mean Sea Level:  PERMANENT DATUM
 DCON.         Sperry Drilling:  DIRECTNL CONTR
 RIG .              West Azeri:  RIG NAME
 WELL.           C40 (Slot 20):  WELL NAME
 SRVC.     Turan Drilling Engineering:  CONTRACTOR
 FLD .                     ACG:  FIELD NAME
 CTRY.              Azerbaijan:  COUNTRY NAME
 PROV.                    Baku:  PROVINCE
 STAT.                    Baku:  STATE NAME
 REGN.                   EESSA:  REGION
 BASE.              Azerbaijan:  LOGGING EQUIPMENT BASE LOCATION
 COMP.     BP Exploration (Caspian Sea) Ltd:  COMPANY
 WTYP.                Deviated:  WELL TYPE
 SON .        AZ-XX-0906344804:  JOB NUMBER
 FTOP.          Formation Tops:  FORM TOPS DESC
 ILTD.               Lithology:  INTERP LTH DESC
 SVYD.                  Survey:  SURVEY DESC
 DMOD.             Drill Model:  DRILL MOD DESC
 HPTY.       Minimum Curvature:  HOLE POS TYPE
 NREF.                    Grid:  NORTH REFERENCE
 SPUD.               01-Jan-20:  SPUD DATE
 DATE.      00.59.44 15-Sep-20:  END TIME
 STIM.      12.00.00 12-Jun-20:  START TIME
 DMF .             Drill Floor:  DRILL MEAS FROM
 DFST.                        :  DIST FSL TEXT
 DFWT.                        :  DIST FWL TEXT
 API .                        :  API NUMBER
 CNTY.                        :  COUNTY
 UWI .                        :  UNIQUE WELL IDENTIFIER
 LOC .                        :  LOCATION
 LMF .             Drill Floor:  LOG MEASURED FROM
 VSNS.m                   2.88:  VERT SEC N/S
 VSEW.m                  -3.84:  VERT SEC E/W
 AGAP.m                  43.42:  AIR GAP
 APD .m                  43.42:  DEPTH ABOVE PD
 WDMS.m                 118.27:  WD ELEV
 EGL .m                   0.00:  GROUND ELEVATION
 EPD .m                   0.00:  ELEVATION
 AZTC.deg                 6.23:  AZM TOTAL CORR
 GRDC.deg                 0.20:  GRID CORRECTION
 MDEC.deg                 6.43:  MAGNETIC DECL
 MDIP.deg                59.49:  MAGNETIC DIP
 MFLD.nT              50277.00:  MAGNETIC FIELD
 GVFD.g                   1.00:  GRAVITY FIELD
 VSDR.deg               173.20:  VERT SEC DIRECT
 TDD .m                5790.01:  TOTAL DEPTH (DRILLER)
 SDEP.m                5231.01:  START DEPTH
 DFSL.m                   0.00:  DISTANCE FSL
 DFWL.m                   0.00:  DISTANCE FWL
 UTMY.m             4435808.83:  UTM Y
 UTMX.m              526266.40:  UTM X
 WHEW.m                  -3.84:  WELL HEAD E/W
 WHNS.m                   2.88:  WELL HEAD N/S
 LONG.deg                51.31:  LONGITUDE
 LATI.deg                40.06:  LATITUDE
 TVDS.m                  43.42:  TVDSS CORRECTN
 DEP .m                 430.08:  DEPTH
 EKB .m                  43.42:  KB ELEVATION
 EDF .m                  43.42:  DF ELEVATION
 TDL .m                 559.00:  TOTAL DEPTH (LOGGER)
 MAGU.                 1849381:  MAGUTM CHECKSUM
 VSC .                       0:  VS TO CLOSURE
~Parameter Information Block
#MNEM.UNIT       Value        Description
#---------     -----------    ---------------------------
 AV  .mps                 4.87:  Ann Velocity 
 AVMX.mps                 7.08:  Max Ann Veloc 
 AZIF.deg               108.87:  Azm, Final 
 BHAT.                  Rotary:  BHA Type 
 BROT.°/30m               0.35:  Build Rotating 
 BS  .in                  8.50:  Bit Size 
 BSZ .in                  8.50:  Bit Size 
 BTPL.psig              360.00:  Bit Press Loss 
 CABU.                     Yes:  Customer Abuse 
 COMM.                     \Gp:  Run Comments 1 
 TCS .hr                106.24:  Time Ciculation Ended 
 CV  .mps                 1.77:  Crit Velocity 
 CVMX.mps                 2.03:  Max Crit Veloc 
 DD1 .         Aykhan Agagulov:  Direct Drillr 1 
 DD2 .            Nonso Okofor:  Direct Drillr 2 
 DDSV.               Geo-Pilot:  DD Service 
 DEFF.%                  98.00:  % Det Eff 
 DLRX.°/30m               0.50:  Dogleg Rot Max 
 DLSO.°/30m               0.40:  Dogleg Oriented 
 DLSX.°/30m               0.94:  Dogleg Str Max 
 DRET.      20.30.00 08-Sep-20:  Drill End Time 
 DRST.      22.15.00 06-Sep-20:  Drill Start Tim 
 DTIM.hr                 31.31:  Time Drilling 
 EDEP.m                5790.01:  End Depth 
 ENG1.           Amrah Tahirov:  Engineer 1 
 ENG2.         Dair Mahammadov:  Engineer 2 
 ENG3.           Emil Huseynov:  Engineer 3 
 ETIM.      04.01.04 12-Sep-20:  End Time 
 FLOI.gpm               450.00:  Flow In 
 FLON.gpm               450.00:  Flow In Min 
 FLOS.cptm                2.00:  Fluid Loss 
 FLOX.gpm               450.00:  Flow In Max 
 FTRO.       Formation Presure:  FTWD Run Obj 
 HFLO.                      No:  High Flow 
 HPRE.                      No:  High Pressure 
 HTEM.                      No:  High Temp 
 HYDO.m                   1.80:  Hydro Offset 
 IFIN.deg                72.03:  Inc, Final 
 IMAX.deg                73.72:  Inc Max 
 IMIN.deg                70.94:  Inc Min 
 IMND.m                5508.52:  Inc Min Depth 
 IMXD.m                5253.60:  Inc Max Depth 
 JARR.                      No:  Jarring 
 LETM.      20.30.00 08-Sep-20:  Log End Time 
 LOST.hr                     0:  Lost Rig Time 
 LSTM.      22.15.00 06-Sep-20:  Log Start Time 
 MDCL.ppm             36000.00:  Mud Chlorides 
 MDES.     Inversion Oil/Synthetic:  Mud Desc 
 DFD .sg                  1.44:  Mud Density 
 MDMN.sg                  1.44:  Dens Mud Min 
 MDMX.sg                  1.57:  Dens Mud Max 
 MOIL.                      70:  Run Mud Oil % 
 MOWR.                   70:30:  Run Mud OWR 
 MSND.                       0:  Run Mud Sand % 
 MSOL.                      21:  Run Mud Solids% 
 DFV .spqt               68.00:  Mud Viscosity 
 MWOD.in                  6.75:  MWD Tool OD 
 MWSI.                     Yes:  Serv Intrp, MWD 
 OTIM.hr                174.84:  Time Operating 
 PCON.           Look Like New:  Pad Condition 
 PMAX.psia            10616.93:  Press Op, Max 
 PV  .cP                 50.00:  Mud PV 
 RUN .                     700:  Run Number 
 ROPA.m/hr               14.24:  ROP Avg 
 ROPN.m/hr               10.00:  ROP Min 
 ROPX.m/hr               32.00:  ROP Max 
 RPMA.rpm               120.90:  RPM Surface Avg 
 RPMN.rpm               120.00:  RPM Surface Min 
 RPMX.rpm               140.00:  RPM Surface Max 
 RRUN.                    0700:  Rig Run Number 
 RTIM.hr                  3.20:  Time Reaming 
 SAZI.deg               109.99:  Azm, Start 
 SDEP.m                5231.01:  Start Depth 
 SIDD.                      No:  Serv Intrp, DD 
 SINC.deg                73.72:  Inc, Start 
 SPPA.psig             3051.00:  SPP Avg 
 SPPN.psig             2950.00:  SPP Min 
 SPPX.psig             3250.00:  SPP Max 
 STIM.      08.00.00 05-Sep-20:  Start Time 
 SVCS.                 DD, MWD:  Services 
 SVER.                    9.20:  Sperry Version 
 TDAT.m                 559.00:  Tot Depth Attmp 
 TDDF.                      No:  Trip for DD 
 TDLG.m                 559.00:  Tot Depth Loggd 
 TFF .                      No:  Trip for Fail 
 TQAA.f-kp               26.49:  Torque Abs Avg 
 TQAN.f-kp               25.00:  Torque Abs Min 
 TQAX.f-kp               27.00:  Torque Abs Max 
 TRRT.°/30m               1.50:  Turn Rotating 
 MRT .                    HCIM:  Maximum Recorded Temperature 
 TTMX.degC               90.20:  Max Tool Temp 
 VS01.                90542671:  Virtual Str1 SN 
 VS02.                90545185:  Virtual Str2 SN 
 VS03.                90602015:  Virtual Str3 SN 
 VS04.                90515230:  Virtual Str4 SN 
 WBMN.klb                 5.00:  WOB Min 
 WOBA.klb                14.79:  WOB Avg 
 WOBX.klb                20.00:  WOB Max 
 YP  .lhf2               29.00:  Yield Point 
~Curve Information Block
#MNEM.UNIT                 API CODE     Curve Description
#---------               -----------    ---------------------------
 TIME.HHMMSS            00 000 000 000:  GT Time & Date
 GTDEPTH.m              00 000 000 000:  GT Depth
 GTPQH.psia             00 000 000 000:  GT HR Quartz Pressure
 GTTQ.degC              00 000 000 000:  GT Quartz Temperature
 GTTN.NONE              00 000 000 000:  GT Test Number
 GTET.sec               00 000 000 000:  GT Elapsed Test Time
 GTTVD.m                00 000 000 000:  GT True Vertical Depth
#Other Information
#
#WARRANTY: Halliburton will use its best efforts to furnish customers with 
#accurate information and interpretations that are part of, and incident to, the services 
#provided.  However, Halliburton cannot and does not warrant the accuracy 
#or correctness of such information and interpretations.  Under no circumstances should any 
#such information or interpretation be relied upon as the sole basis for any drilling, 
#completion, production, or financial decision or any procedure involving any risk to the 
#safety of any drilling venture, drilling rig or its crew or any other third party.  The 
#Customer has full responsibility for all drilling, completion and production operation.  
#Halliburton makes no representations or warranties, either expressed or 
#implied, including, but not limited to, the implied warranties of merchantability or fitness 
#for a particular purpose, with respect to the services rendered.  In no event will 
#Halliburton be liable for failure to obtain any particular results or for 
#any damages, including, but not limited to, indirect, special or consequential damages, 
#resulting from the use of any information or interpretation provided by Halliburton.
#
~A           TIME           GTDEPTH  GTPQH  GTTQ  GTTN  GTET   GTTVD  
# ...
   10:16:56.000.09-Sep-2020 5468.01 6336.40 76.67 9.00  23.00 2608.52
   10:16:56.200.09-Sep-2020 5468.01 6336.40 76.67 9.00  23.20 2608.52
   10:16:56.400.09-Sep-2020 5468.01 6336.26 76.67 9.00  23.40 2608.52
   10:16:56.600.09-Sep-2020 5468.01 6346.81 76.67 9.00  23.60 2608.52
   10:16:56.800.09-Sep-2020 5468.01 6330.42 76.67 9.00  23.80 2608.52
   10:16:57.000.09-Sep-2020 5468.01 6336.98 76.67 9.00  24.00 2608.52
   10:16:57.200.09-Sep-2020 5468.01 6339.50 76.67 9.00  24.20 2608.52
   10:16:57.400.09-Sep-2020 5468.01 6337.70 76.67 9.00  24.40 2608.52
   10:16:57.600.09-Sep-2020 5468.01 6338.88 76.67 9.00  24.60 2608.52
   10:16:57.800.09-Sep-2020 5468.01 6337.45 76.67 9.00  24.80 2608.52
   10:16:58.000.09-Sep-2020 5468.01 6337.95 76.67 9.00  25.00 2608.52
   10:16:58.200.09-Sep-2020 5468.01 6337.95 76.67 9.00  25.20 2608.52
   10:16:58.400.09-Sep-2020 5468.01 6338.56 76.67 9.00  25.40 2608.52
   10:16:58.600.09-Sep-2020 5468.01 6339.35 76.67 9.00  25.60 2608.52
   10:16:58.800.09-Sep-2020 5468.01 6340.01 76.67 9.00  25.80 2608.52
   10:16:59.000.09-Sep-2020 5468.01 6340.43 76.67 9.00  26.00 2608.52
   10:16:59.200.09-Sep-2020 5468.01 6340.43 76.67 9.00  26.20 2608.52
   10:16:59.400.09-Sep-2020 5468.01 6341.07 76.67 9.00  26.40 2608.52
   10:16:59.600.09-Sep-2020 5468.01 6341.32 76.67 9.00  26.60 2608.52
   10:16:59.800.09-Sep-2020 5468.01 6341.81 76.67 9.00  26.80 2608.52
   10:17:00.000.09-Sep-2020 5468.01 6342.09 76.67 9.00  27.00 2608.52
   10:17:00.200.09-Sep-2020 5468.01 6342.09 76.67 9.00  27.20 2608.52
   10:17:00.400.09-Sep-2020 5468.01 6346.21 76.67 9.00  27.40 2608.52
   10:17:00.600.09-Sep-2020 5468.01 6343.45 76.67 9.00  27.60 2608.52
   10:17:00.800.09-Sep-2020 5468.01 6342.85 76.67 9.00  27.80 2608.52
   10:17:01.000.09-Sep-2020 5468.01 6346.34 76.67 9.00  28.00 2608.52
   10:17:01.200.09-Sep-2020 5468.01 6343.45 76.67 9.00  28.20 2608.52
   10:17:01.400.09-Sep-2020 5468.01 6343.59 76.67 9.00  28.40 2608.52
   10:17:01.600.09-Sep-2020 5468.01 6344.24 76.66 9.00  28.60 2608.52
   10:17:01.800.09-Sep-2020 5468.01 6343.90 76.66 9.00  28.80 2608.52
   10:17:02.000.09-Sep-2020 5468.01 6344.81 76.66 9.00  29.00 2608.52
   10:17:02.200.09-Sep-2020 5468.01 6344.81 76.66 9.00  29.20 2608.52
   10:17:02.400.09-Sep-2020 5468.01 6345.81 76.66 9.00  29.40 2608.52
   10:17:02.600.09-Sep-2020 5468.01 6345.76 76.66 9.00  29.60 2608.52
   10:17:02.800.09-Sep-2020 5468.01 6345.78 76.66 9.00  29.80 2608.52
   10:17:03.000.09-Sep-2020 5468.01 6346.19 76.66 9.00  30.00 2608.52
   10:17:03.200.09-Sep-2020 5468.01 6346.19 76.66 9.00  30.20 2608.52
   10:17:03.400.09-Sep-2020 5468.01 6347.48 76.66 9.00  30.40 2608.52
   10:17:03.600.09-Sep-2020 5468.01 6349.57 76.66 9.00  30.60 2608.52
   10:17:03.800.09-Sep-2020 5468.01 6350.89 76.66 9.00  30.80 2608.52
   10:17:04.000.09-Sep-2020 5468.01 6347.90 76.66 9.00  31.00 2608.52
   10:17:04.200.09-Sep-2020 5468.01 6347.90 76.66 9.00  31.20 2608.52
   10:17:04.400.09-Sep-2020 5468.01 6350.10 76.66 9.00  31.40 2608.52
   10:17:04.600.09-Sep-2020 5468.01 6348.03 76.66 9.00  31.60 2608.52
   10:17:04.800.09-Sep-2020 5468.01 6357.81 76.66 9.00  31.80 2608.52
   10:17:05.000.09-Sep-2020 5468.01 6345.60 76.66 9.00  32.00 2608.52
   10:17:05.200.09-Sep-2020 5468.01 6349.29 76.66 9.00  32.20 2608.52
   10:17:05.400.09-Sep-2020 5468.01 6350.54 76.66 9.00  32.40 2608.52
   10:17:05.600.09-Sep-2020 5468.01 6350.51 76.66 9.00  32.60 2608.52
   10:17:05.800.09-Sep-2020 5468.01 6350.65 76.66 9.00  32.80 2608.52
   10:17:06.000.09-Sep-2020 5468.01 6349.87 76.66 9.00  33.00 2608.52
   10:17:06.200.09-Sep-2020 5468.01 6350.79 76.66 9.00  33.20 2608.52
   10:17:06.400.09-Sep-2020 5468.01 6357.90 76.66 9.00  33.40 2608.52
   10:17:06.600.09-Sep-2020 5468.01 6350.36 76.66 9.00  33.60 2608.52
   10:17:06.800.09-Sep-2020 5468.01 6351.56 76.66 9.00  33.80 2608.52
   10:17:07.000.09-Sep-2020 5468.01 6354.73 76.66 9.00  34.00 2608.52
   10:17:07.200.09-Sep-2020 5468.01 6354.73 76.66 9.00  34.20 2608.52
   10:17:07.400.09-Sep-2020 5468.01 6360.09 76.66 9.00  34.40 2608.52
   10:17:07.600.09-Sep-2020 5468.01 6352.55 76.66 9.00  34.60 2608.52
   10:17:07.800.09-Sep-2020 5468.01 6352.92 76.66 9.00  34.80 2608.52
   10:17:08.000.09-Sep-2020 5468.01 6357.12 76.66 9.00  35.00 2608.52
   10:17:08.200.09-Sep-2020 5468.01 6357.12 76.66 9.00  35.20 2608.52
   10:17:08.400.09-Sep-2020 5468.01 6355.04 76.66 9.00  35.40 2608.52
   10:17:08.600.09-Sep-2020 5468.01 6364.11 76.66 9.00  35.60 2608.52
   10:17:08.800.09-Sep-2020 5468.01 6351.27 76.66 9.00  35.80 2608.52
   10:17:09.000.09-Sep-2020 5468.01 6356.21 76.66 9.00  36.00 2608.52
   10:17:09.200.09-Sep-2020 5468.01 6356.89 76.66 9.00  36.20 2608.52
   10:17:09.400.09-Sep-2020 5468.01 6357.14 76.66 9.00  36.40 2608.52
   10:17:09.600.09-Sep-2020 5468.01 6357.65 76.66 9.00  36.60 2608.52
   10:17:09.800.09-Sep-2020 5468.01 6356.44 76.66 9.00  36.80 2608.52
   10:17:10.000.09-Sep-2020 5468.01 6357.60 76.66 9.00  37.00 2608.52
   10:17:10.200.09-Sep-2020 5468.01 6357.81 76.66 9.00  37.20 2608.52
   10:17:10.400.09-Sep-2020 5468.01 6358.16 76.66 9.00  37.40 2608.52
   10:17:10.600.09-Sep-2020 5468.01 6358.37 76.66 9.00  37.60 2608.52
   10:17:10.800.09-Sep-2020 5468.01 6358.17 76.66 9.00  37.80 2608.52
   10:17:11.000.09-Sep-2020 5468.01 6358.22 76.66 9.00  38.00 2608.52
   10:17:11.200.09-Sep-2020 5468.01 6358.22 76.66 9.00  38.20 2608.52
   10:17:11.400.09-Sep-2020 5468.01 6359.74 76.66 9.00  38.40 2608.52
   10:17:11.600.09-Sep-2020 5468.01 6360.16 76.66 9.00  38.60 2608.52
   10:17:11.800.09-Sep-2020 5468.01 6360.58 76.66 9.00  38.80 2608.52
   10:17:12.000.09-Sep-2020 5468.01 6399.76 76.66 9.00  39.00 2608.52
   10:17:12.200.09-Sep-2020 5468.01 6399.76 76.66 9.00  39.20 2608.52
   10:17:12.400.09-Sep-2020 5468.01 6474.49 76.66 9.00  39.40 2608.52
   10:17:12.600.09-Sep-2020 5468.01 6480.20 76.66 9.00  39.60 2608.52
   10:17:12.800.09-Sep-2020 5468.01 6494.71 76.66 9.00  39.80 2608.52
   10:17:13.000.09-Sep-2020 5468.01 6499.18 76.66 9.00  40.00 2608.52
   10:17:13.200.09-Sep-2020 5468.01 6494.77 76.66 9.00  40.20 2608.52
   10:17:13.400.09-Sep-2020 5468.01 6484.72 76.66 9.00  40.40 2608.52
   10:17:13.600.09-Sep-2020 5468.01 6459.87 76.66 9.00  40.60 2608.52
   10:17:13.800.09-Sep-2020 5468.01 6424.49 76.66 9.00  40.80 2608.52
   10:17:14.000.09-Sep-2020 5468.01 6391.60 76.66 9.00  41.00 2608.52
   10:17:14.200.09-Sep-2020 5468.01 6365.00 76.66 9.00  41.20 2608.52
   10:17:14.400.09-Sep-2020 5468.01 6345.85 76.66 9.00  41.40 2608.52
   10:17:14.600.09-Sep-2020 5468.01 6328.22 76.66 9.00  41.60 2608.52
   10:17:14.800.09-Sep-2020 5468.01 6313.10 76.66 9.00  41.80 2608.52
   10:17:15.000.09-Sep-2020 5468.01 6299.18 76.66 9.00  42.00 2608.52
   10:17:15.200.09-Sep-2020 5468.01 6299.18 76.66 9.00  42.20 2608.52
   10:17:15.400.09-Sep-2020 5468.01 6274.52 76.66 9.00  42.40 2608.52
   10:17:15.600.09-Sep-2020 5468.01 6264.51 76.66 9.00  42.60 2608.52
   10:17:15.800.09-Sep-2020 5468.01 6255.78 76.66 9.00  42.80 2608.52
   10:17:16.000.09-Sep-2020 5468.01 6251.23 76.66 9.00  43.00 2608.52
   10:17:16.200.09-Sep-2020 5468.01 6251.23 76.66 9.00  43.20 2608.52
   10:17:16.400.09-Sep-2020 5468.01 6239.40 76.65 9.00  43.40 2608.52
   10:17:16.600.09-Sep-2020 5468.01 6234.76 76.65 9.00  43.60 2608.52
   10:17:16.800.09-Sep-2020 5468.01 6228.17 76.65 9.00  43.80 2608.52
   10:17:17.000.09-Sep-2020 5468.01 6222.39 76.65 9.00  44.00 2608.52
   10:17:17.200.09-Sep-2020 5468.01 6218.87 76.65 9.00  44.20 2608.52
   10:17:17.400.09-Sep-2020 5468.01 6012.50 76.65 9.00  44.40 2608.52
   10:17:17.600.09-Sep-2020 5468.01 5228.71 76.65 9.00  44.60 2608.52
   10:17:17.800.09-Sep-2020 5468.01 4489.37 76.65 9.00  44.80 2608.52
   10:17:18.000.09-Sep-2020 5468.01 3935.96 76.65 9.00  45.00 2608.52
   10:17:18.200.09-Sep-2020 5468.01 3935.96 76.65 9.00  45.20 2608.52
   10:17:18.400.09-Sep-2020 5468.01 3488.64 76.65 9.00  45.40 2608.52
   10:17:18.600.09-Sep-2020 5468.01 3484.74 76.65 9.00  45.60 2608.52
   10:17:18.800.09-Sep-2020 5468.01 3485.11 76.65 9.00  45.80 2608.52
