~Version Information
 VERS.                  2.0:   CWLS log ASCII Standard -VERSION 2.0
 WRAP.                   NO:   One line per depth step
~Well Information Block
#MNEM.UNIT     VALUE/NAME     DESCRIPTION
#---------     -----------    ---------------------------
 STRT.S             21:21:48 09-Sep-20: START TIME 21:21:48 09-Sep-20
 STOP.S             21:29:57 09-Sep-20: STOP TIME  21:29:57 09-Sep-20
 STEP.S                   0.00: STEP TIME
 NULL.                 -999.25: NULL VALUE
 MDS .        Operator Entered:  MAG DATA SOURCE
 PDAT.          Mean Sea Level:  PERMANENT DATUM
 DCON.         Sperry Drilling:  DIRECTNL CONTR
 RIG .              West Azeri:  RIG NAME
 WELL.           C40 (Slot 20):  WELL NAME
 SRVC.     Turan Drilling Engineering:  CONTRACTOR
 FLD .                     ACG:  FIELD NAME
 CTRY.              Azerbaijan:  COUNTRY NAME
 PROV.                    Baku:  PROVINCE
 STAT.                    Baku:  STATE NAME
 REGN.                   EESSA:  REGION
 BASE.              Azerbaijan:  LOGGING EQUIPMENT BASE LOCATION
 COMP.     BP Exploration (Caspian Sea) Ltd:  COMPANY
 WTYP.                Deviated:  WELL TYPE
 SON .        AZ-XX-0906344804:  JOB NUMBER
 FTOP.          Formation Tops:  FORM TOPS DESC
 ILTD.               Lithology:  INTERP LTH DESC
 SVYD.                  Survey:  SURVEY DESC
 DMOD.             Drill Model:  DRILL MOD DESC
 HPTY.       Minimum Curvature:  HOLE POS TYPE
 NREF.                    Grid:  NORTH REFERENCE
 SPUD.               01-Jan-20:  SPUD DATE
 DATE.      00.59.44 15-Sep-20:  END TIME
 STIM.      12.00.00 12-Jun-20:  START TIME
 DMF .             Drill Floor:  DRILL MEAS FROM
 DFST.                        :  DIST FSL TEXT
 DFWT.                        :  DIST FWL TEXT
 API .                        :  API NUMBER
 CNTY.                        :  COUNTY
 UWI .                        :  UNIQUE WELL IDENTIFIER
 LOC .                        :  LOCATION
 LMF .             Drill Floor:  LOG MEASURED FROM
 VSNS.m                   2.88:  VERT SEC N/S
 VSEW.m                  -3.84:  VERT SEC E/W
 AGAP.m                  43.42:  AIR GAP
 APD .m                  43.42:  DEPTH ABOVE PD
 WDMS.m                 118.27:  WD ELEV
 EGL .m                   0.00:  GROUND ELEVATION
 EPD .m                   0.00:  ELEVATION
 AZTC.deg                 6.23:  AZM TOTAL CORR
 GRDC.deg                 0.20:  GRID CORRECTION
 MDEC.deg                 6.43:  MAGNETIC DECL
 MDIP.deg                59.49:  MAGNETIC DIP
 MFLD.nT              50277.00:  MAGNETIC FIELD
 GVFD.g                   1.00:  GRAVITY FIELD
 VSDR.deg               173.20:  VERT SEC DIRECT
 TDD .m                5790.01:  TOTAL DEPTH (DRILLER)
 SDEP.m                5231.01:  START DEPTH
 DFSL.m                   0.00:  DISTANCE FSL
 DFWL.m                   0.00:  DISTANCE FWL
 UTMY.m             4435808.83:  UTM Y
 UTMX.m              526266.40:  UTM X
 WHEW.m                  -3.84:  WELL HEAD E/W
 WHNS.m                   2.88:  WELL HEAD N/S
 LONG.deg                51.31:  LONGITUDE
 LATI.deg                40.06:  LATITUDE
 TVDS.m                  43.42:  TVDSS CORRECTN
 DEP .m                 430.08:  DEPTH
 EKB .m                  43.42:  KB ELEVATION
 EDF .m                  43.42:  DF ELEVATION
 TDL .m                 559.00:  TOTAL DEPTH (LOGGER)
 MAGU.                 1849381:  MAGUTM CHECKSUM
 VSC .                       0:  VS TO CLOSURE
~Parameter Information Block
#MNEM.UNIT       Value        Description
#---------     -----------    ---------------------------
 AV  .mps                 4.87:  Ann Velocity 
 AVMX.mps                 7.08:  Max Ann Veloc 
 AZIF.deg               108.87:  Azm, Final 
 BHAT.                  Rotary:  BHA Type 
 BROT.°/30m               0.35:  Build Rotating 
 BS  .in                  8.50:  Bit Size 
 BSZ .in                  8.50:  Bit Size 
 BTPL.psig              360.00:  Bit Press Loss 
 CABU.                     Yes:  Customer Abuse 
 COMM.                     ¼¥|:  Run Comments 1 
 TCS .hr                106.24:  Time Ciculation Ended 
 CV  .mps                 1.77:  Crit Velocity 
 CVMX.mps                 2.03:  Max Crit Veloc 
 DD1 .         Aykhan Agagulov:  Direct Drillr 1 
 DD2 .            Nonso Okofor:  Direct Drillr 2 
 DDSV.               Geo-Pilot:  DD Service 
 DEFF.%                  98.00:  % Det Eff 
 DLRX.°/30m               0.50:  Dogleg Rot Max 
 DLSO.°/30m               0.40:  Dogleg Oriented 
 DLSX.°/30m               0.94:  Dogleg Str Max 
 DRET.      20.30.00 08-Sep-20:  Drill End Time 
 DRST.      22.15.00 06-Sep-20:  Drill Start Tim 
 DTIM.hr                 31.31:  Time Drilling 
 EDEP.m                5790.01:  End Depth 
 ENG1.           Amrah Tahirov:  Engineer 1 
 ENG2.         Dair Mahammadov:  Engineer 2 
 ENG3.           Emil Huseynov:  Engineer 3 
 ETIM.      04.01.04 12-Sep-20:  End Time 
 FLOI.gpm               450.00:  Flow In 
 FLON.gpm               450.00:  Flow In Min 
 FLOS.cptm                2.00:  Fluid Loss 
 FLOX.gpm               450.00:  Flow In Max 
 FTRO.       Formation Presure:  FTWD Run Obj 
 HFLO.                      No:  High Flow 
 HPRE.                      No:  High Pressure 
 HTEM.                      No:  High Temp 
 HYDO.m                   1.80:  Hydro Offset 
 IFIN.deg                72.03:  Inc, Final 
 IMAX.deg                73.72:  Inc Max 
 IMIN.deg                70.94:  Inc Min 
 IMND.m                5508.52:  Inc Min Depth 
 IMXD.m                5253.60:  Inc Max Depth 
 JARR.                      No:  Jarring 
 LETM.      20.30.00 08-Sep-20:  Log End Time 
 LOST.hr                     0:  Lost Rig Time 
 LSTM.      22.15.00 06-Sep-20:  Log Start Time 
 MDCL.ppm             36000.00:  Mud Chlorides 
 MDES.     Inversion Oil/Synthetic:  Mud Desc 
 DFD .sg                  1.44:  Mud Density 
 MDMN.sg                  1.44:  Dens Mud Min 
 MDMX.sg                  1.57:  Dens Mud Max 
 MOIL.                      70:  Run Mud Oil % 
 MOWR.                   70:30:  Run Mud OWR 
 MSND.                       0:  Run Mud Sand % 
 MSOL.                      21:  Run Mud Solids% 
 DFV .spqt               68.00:  Mud Viscosity 
 MWOD.in                  6.75:  MWD Tool OD 
 MWSI.                     Yes:  Serv Intrp, MWD 
 OTIM.hr                174.84:  Time Operating 
 PCON.           Look Like New:  Pad Condition 
 PMAX.psia            10616.93:  Press Op, Max 
 PV  .cP                 50.00:  Mud PV 
 RUN .                     700:  Run Number 
 ROPA.m/hr               14.24:  ROP Avg 
 ROPN.m/hr               10.00:  ROP Min 
 ROPX.m/hr               32.00:  ROP Max 
 RPMA.rpm               120.90:  RPM Surface Avg 
 RPMN.rpm               120.00:  RPM Surface Min 
 RPMX.rpm               140.00:  RPM Surface Max 
 RRUN.                    0700:  Rig Run Number 
 RTIM.hr                  3.20:  Time Reaming 
 SAZI.deg               109.99:  Azm, Start 
 SDEP.m                5231.01:  Start Depth 
 SIDD.                      No:  Serv Intrp, DD 
 SINC.deg                73.72:  Inc, Start 
 SPPA.psig             3051.00:  SPP Avg 
 SPPN.psig             2950.00:  SPP Min 
 SPPX.psig             3250.00:  SPP Max 
 STIM.      08.00.00 05-Sep-20:  Start Time 
 SVCS.                 DD, MWD:  Services 
 SVER.                    9.20:  Sperry Version 
 TDAT.m                 559.00:  Tot Depth Attmp 
 TDDF.                      No:  Trip for DD 
 TDLG.m                 559.00:  Tot Depth Loggd 
 TFF .                      No:  Trip for Fail 
 TQAA.f-kp               26.49:  Torque Abs Avg 
 TQAN.f-kp               25.00:  Torque Abs Min 
 TQAX.f-kp               27.00:  Torque Abs Max 
 TRRT.°/30m               1.50:  Turn Rotating 
 MRT .                    HCIM:  Maximum Recorded Temperature 
 TTMX.degC               90.20:  Max Tool Temp 
 VS01.                90542671:  Virtual Str1 SN 
 VS02.                90545185:  Virtual Str2 SN 
 VS03.                90602015:  Virtual Str3 SN 
 VS04.                90515230:  Virtual Str4 SN 
 WBMN.klb                 5.00:  WOB Min 
 WOBA.klb                14.79:  WOB Avg 
 WOBX.klb                20.00:  WOB Max 
 YP  .lhf2               29.00:  Yield Point 
~Curve Information Block
#MNEM.UNIT                 API CODE     Curve Description
#---------               -----------    ---------------------------
 TIME.HHMMSS            00 000 000 000:  GT Time & Date
 GTDEPTH.m              00 000 000 000:  GT Depth
 GTPQH.psia             00 000 000 000:  GT HR Quartz Pressure
 GTTQ.degC              00 000 000 000:  GT Quartz Temperature
 GTTN.NONE              00 000 000 000:  GT Test Number
 GTET.sec               00 000 000 000:  GT Elapsed Test Time
 GTTVD.m                00 000 000 000:  GT True Vertical Depth
#Other Information
#
#WARRANTY: Halliburton will use its best efforts to furnish customers with 
#accurate information and interpretations that are part of, and incident to, the services 
#provided.  However, Halliburton cannot and does not warrant the accuracy 
#or correctness of such information and interpretations.  Under no circumstances should any 
#such information or interpretation be relied upon as the sole basis for any drilling, 
#completion, production, or financial decision or any procedure involving any risk to the 
#safety of any drilling venture, drilling rig or its crew or any other third party.  The 
#Customer has full responsibility for all drilling, completion and production operation.  
#Halliburton makes no representations or warranties, either expressed or 
#implied, including, but not limited to, the implied warranties of merchantability or fitness 
#for a particular purpose, with respect to the services rendered.  In no event will 
#Halliburton be liable for failure to obtain any particular results or for 
#any damages, including, but not limited to, indirect, special or consequential damages, 
#resulting from the use of any information or interpretation provided by Halliburton.
#
~A           TIME           GTDEPTH  GTPQH  GTTQ  GTTN   GTET   GTTVD  
   21:21:48.317.09-Sep-2020 5252.22 6028.47 73.64 26.00   0.00 2542.36
   21:21:48.517.09-Sep-2020 5252.22 6028.47 73.64 26.00   0.20 2542.36
   21:21:48.717.09-Sep-2020 5252.22 6033.70 73.64 26.00   0.40 2542.36
   21:21:48.917.09-Sep-2020 5252.22 6029.13 73.64 26.00   0.60 2542.36
   21:21:49.117.09-Sep-2020 5252.22 6030.24 73.64 26.00   0.80 2542.36
   21:21:49.317.09-Sep-2020 5252.22 6030.40 73.64 26.00   1.00 2542.36
   21:21:49.517.09-Sep-2020 5252.22 6030.40 73.64 26.00   1.20 2542.36
   21:21:49.717.09-Sep-2020 5252.22 6039.75 73.64 26.00   1.40 2542.36
   21:21:49.917.09-Sep-2020 5252.22 6030.13 73.64 26.00   1.60 2542.36
   21:21:50.118.09-Sep-2020 5252.22 6033.35 73.64 26.00   1.80 2542.36
   21:21:50.318.09-Sep-2020 5252.22 6033.38 73.64 26.00   2.00 2542.36
   21:21:50.518.09-Sep-2020 5252.22 6033.38 73.64 26.00   2.20 2542.36
   21:21:50.718.09-Sep-2020 5252.22 6034.60 73.64 26.00   2.40 2542.36
   21:21:50.918.09-Sep-2020 5252.22 6042.37 73.64 26.00   2.60 2542.36
   21:21:51.118.09-Sep-2020 5252.22 6030.60 73.64 26.00   2.80 2542.36
   21:21:51.318.09-Sep-2020 5252.22 6034.19 73.64 26.00   3.00 2542.36
   21:21:51.518.09-Sep-2020 5252.22 6033.74 73.64 26.00   3.20 2542.36
   21:21:51.718.09-Sep-2020 5252.22 6033.70 73.64 26.00   3.40 2542.36
   21:21:51.918.09-Sep-2020 5252.22 6043.56 73.64 26.00   3.60 2542.36
   21:21:52.118.09-Sep-2020 5252.22 6028.72 73.64 26.00   3.80 2542.36
   21:21:52.319.09-Sep-2020 5252.22 6033.55 73.64 26.00   4.00 2542.36
   21:21:52.519.09-Sep-2020 5252.22 6033.55 73.64 26.00   4.20 2542.36
   21:21:52.719.09-Sep-2020 5252.22 6032.50 73.64 26.00   4.40 2542.36
   21:21:52.919.09-Sep-2020 5252.22 6032.95 73.64 26.00   4.60 2542.36
   21:21:53.119.09-Sep-2020 5252.22 6034.37 73.64 26.00   4.80 2542.36
   21:21:53.319.09-Sep-2020 5252.22 6032.39 73.64 26.00   5.00 2542.36
   21:21:53.519.09-Sep-2020 5252.22 6032.39 73.64 26.00   5.20 2542.36
   21:21:53.719.09-Sep-2020 5252.22 6032.39 73.64 26.00   5.40 2542.36
   21:21:53.919.09-Sep-2020 5252.22 6035.24 73.64 26.00   5.60 2542.36
   21:21:54.119.09-Sep-2020 5252.22 6034.73 73.64 26.00   5.80 2542.36
   21:21:54.320.09-Sep-2020 5252.22 6035.87 73.64 26.00   6.00 2542.36
   21:21:54.520.09-Sep-2020 5252.22 6035.98 73.64 26.00   6.20 2542.36
   21:21:54.720.09-Sep-2020 5252.22 6038.10 73.64 26.00   6.40 2542.36
   21:21:54.920.09-Sep-2020 5252.22 6037.49 73.64 26.00   6.60 2542.36
   21:21:55.120.09-Sep-2020 5252.22 6038.61 73.64 26.00   6.80 2542.36
   21:21:55.320.09-Sep-2020 5252.22 6039.28 73.64 26.00   7.00 2542.36
   21:21:55.520.09-Sep-2020 5252.22 6039.28 73.64 26.00   7.20 2542.36
   21:21:55.720.09-Sep-2020 5252.22 6040.74 73.64 26.00   7.40 2542.36
   21:21:55.920.09-Sep-2020 5252.22 6041.27 73.64 26.00   7.60 2542.36
   21:21:56.120.09-Sep-2020 5252.22 6041.49 73.64 26.00   7.80 2542.36
   21:21:56.320.09-Sep-2020 5252.22 6041.73 73.64 26.00   8.00 2542.36
   21:21:56.521.09-Sep-2020 5252.22 6041.91 73.64 26.00   8.20 2542.36
   21:21:56.721.09-Sep-2020 5252.22 6042.48 73.64 26.00   8.40 2542.36
   21:21:56.921.09-Sep-2020 5252.22 6043.15 73.64 26.00   8.60 2542.36
   21:21:57.121.09-Sep-2020 5252.22 6051.94 73.64 26.00   8.80 2542.36
   21:21:57.321.09-Sep-2020 5252.22 6041.07 73.63 26.00   9.00 2542.36
   21:21:57.521.09-Sep-2020 5252.22 6041.07 73.63 26.00   9.20 2542.36
   21:21:57.721.09-Sep-2020 5252.22 6043.80 73.63 26.00   9.40 2542.36
   21:21:57.921.09-Sep-2020 5252.22 6043.66 73.63 26.00   9.60 2542.36
   21:21:58.121.09-Sep-2020 5252.22 6044.78 73.63 26.00   9.80 2542.36
   21:21:58.321.09-Sep-2020 5252.22 6045.69 73.63 26.00  10.00 2542.36
   21:21:58.521.09-Sep-2020 5252.22 6045.81 73.63 26.00  10.20 2542.36
   21:21:58.722.09-Sep-2020 5252.22 6045.48 73.63 26.00  10.40 2542.36
   21:21:58.922.09-Sep-2020 5252.22 6045.96 73.63 26.00  10.60 2542.36
   21:21:59.122.09-Sep-2020 5252.22 6045.95 73.63 26.00  10.80 2542.36
   21:21:59.322.09-Sep-2020 5252.22 6046.54 73.63 26.00  11.01 2542.36
   21:21:59.522.09-Sep-2020 5252.22 6047.00 73.63 26.00  11.21 2542.36
   21:21:59.722.09-Sep-2020 5252.22 6047.50 73.63 26.00  11.41 2542.36
   21:21:59.922.09-Sep-2020 5252.22 6047.52 73.63 26.00  11.61 2542.36
   21:22:00.122.09-Sep-2020 5252.22 6047.69 73.63 26.00  11.81 2542.36
   21:22:00.322.09-Sep-2020 5252.22 6047.82 73.63 26.00  12.01 2542.36
   21:22:00.522.09-Sep-2020 5252.22 6047.82 73.63 26.00  12.21 2542.36
   21:22:00.722.09-Sep-2020 5252.22 6056.81 73.63 26.00  12.41 2542.36
   21:22:00.923.09-Sep-2020 5252.22 6045.69 73.63 26.00  12.61 2542.36
   21:22:01.123.09-Sep-2020 5252.22 6048.66 73.63 26.00  12.81 2542.36
   21:22:01.323.09-Sep-2020 5252.22 6048.30 73.63 26.00  13.01 2542.36
   21:22:01.523.09-Sep-2020 5252.22 6048.30 73.63 26.00  13.21 2542.36
   21:22:01.723.09-Sep-2020 5252.22 6049.49 73.63 26.00  13.41 2542.36
   21:22:01.923.09-Sep-2020 5252.22 6052.24 73.63 26.00  13.61 2542.36
   21:22:02.123.09-Sep-2020 5252.22 6052.43 73.63 26.00  13.81 2542.36
   21:22:02.323.09-Sep-2020 5252.22 6048.61 73.63 26.00  14.01 2542.36
   21:22:02.523.09-Sep-2020 5252.22 6048.61 73.63 26.00  14.21 2542.36
   21:22:02.723.09-Sep-2020 5252.22 6049.56 73.63 26.00  14.41 2542.36
   21:22:02.923.09-Sep-2020 5252.22 6050.46 73.63 26.00  14.61 2542.36
   21:22:03.124.09-Sep-2020 5252.22 6050.25 73.63 26.00  14.81 2542.36
   21:22:03.324.09-Sep-2020 5252.22 6058.53 73.63 26.00  15.01 2542.36
   21:22:03.524.09-Sep-2020 5252.22 6048.22 73.63 26.00  15.21 2542.36
   21:22:03.724.09-Sep-2020 5252.22 6051.18 73.63 26.00  15.41 2542.36
   21:22:03.924.09-Sep-2020 5252.22 6050.42 73.63 26.00  15.61 2542.36
   21:22:04.124.09-Sep-2020 5252.22 6051.18 73.63 26.00  15.81 2542.36
   21:22:04.324.09-Sep-2020 5252.22 6050.55 73.63 26.00  16.01 2542.36
   21:22:04.524.09-Sep-2020 5252.22 6059.59 73.63 26.00  16.21 2542.36
   21:22:04.724.09-Sep-2020 5252.22 6049.29 73.63 26.00  16.41 2542.36
   21:22:04.924.09-Sep-2020 5252.22 6052.90 73.63 26.00  16.61 2542.36
   21:22:05.124.09-Sep-2020 5252.22 6052.58 73.63 26.00  16.81 2542.36
   21:22:05.325.09-Sep-2020 5252.22 6063.89 73.63 26.00  17.01 2542.36
   21:22:05.525.09-Sep-2020 5252.22 6063.89 73.63 26.00  17.21 2542.36
   21:22:05.725.09-Sep-2020 5252.22 6055.49 73.63 26.00  17.41 2542.36
   21:22:05.925.09-Sep-2020 5252.22 6053.51 73.63 26.00  17.61 2542.36
   21:22:06.125.09-Sep-2020 5252.22 6053.96 73.63 26.00  17.81 2542.36
   21:22:06.325.09-Sep-2020 5252.22 6054.70 73.63 26.00  18.01 2542.36
   21:22:06.525.09-Sep-2020 5252.22 6054.70 73.63 26.00  18.21 2542.36
   21:22:06.725.09-Sep-2020 5252.22 6049.75 73.63 26.00  18.41 2542.36
   21:22:06.925.09-Sep-2020 5252.22 6056.30 73.63 26.00  18.61 2542.36
   21:22:07.125.09-Sep-2020 5252.22 6055.77 73.63 26.00  18.81 2542.36
   21:22:07.326.09-Sep-2020 5252.22 6055.97 73.63 26.00  19.01 2542.36
   21:22:07.526.09-Sep-2020 5252.22 6055.97 73.63 26.00  19.21 2542.36
   21:22:07.726.09-Sep-2020 5252.22 6057.16 73.63 26.00  19.41 2542.36
   21:22:07.926.09-Sep-2020 5252.22 6056.00 73.63 26.00  19.61 2542.36
   21:22:08.126.09-Sep-2020 5252.22 6056.62 73.63 26.00  19.81 2542.36
   21:22:08.326.09-Sep-2020 5252.22 6057.34 73.63 26.00  20.01 2542.36
   21:22:08.526.09-Sep-2020 5252.22 6057.34 73.63 26.00  20.21 2542.36
   21:22:08.726.09-Sep-2020 5252.22 6058.36 73.63 26.00  20.41 2542.36
   21:22:08.926.09-Sep-2020 5252.22 6058.90 73.63 26.00  20.61 2542.36
   21:22:09.126.09-Sep-2020 5252.22 6059.33 73.63 26.00  20.81 2542.36
   21:22:09.326.09-Sep-2020 5252.22 6059.66 73.63 26.00  21.01 2542.36
   21:22:09.527.09-Sep-2020 5252.22 6059.66 73.63 26.00  21.21 2542.36
   21:22:09.727.09-Sep-2020 5252.22 6060.25 73.63 26.00  21.41 2542.36
   21:22:09.927.09-Sep-2020 5252.22 6060.31 73.63 26.00  21.61 2542.36
   21:22:10.127.09-Sep-2020 5252.22 6068.62 73.63 26.00  21.81 2542.36
   21:22:10.327.09-Sep-2020 5252.22 6057.77 73.63 26.00  22.01 2542.36
   21:22:10.527.09-Sep-2020 5252.22 6057.77 73.63 26.00  22.21 2542.36
   21:22:10.727.09-Sep-2020 5252.22 6060.70 73.63 26.00  22.41 2542.36
