~Version Information
 VERS.                  2.0:   CWLS log ASCII Standard -VERSION 2.0
 WRAP.                   NO:   One line per depth step
~Well Information Block
#MNEM.UNIT     VALUE/NAME     DESCRIPTION
#---------     -----------    ---------------------------
 STRT.S             20:00:32 09-Sep-20: START TIME 20:00:32 09-Sep-20
 STOP.S             20:08:52 09-Sep-20: STOP TIME  20:08:52 09-Sep-20
 STEP.S                   0.00: STEP TIME
 NULL.                 -999.25: NULL VALUE
 MDS .        Operator Entered:  MAG DATA SOURCE
 PDAT.          Mean Sea Level:  PERMANENT DATUM
 DCON.         Sperry Drilling:  DIRECTNL CONTR
 RIG .              West Azeri:  RIG NAME
 WELL.           C40 (Slot 20):  WELL NAME
 SRVC.     Turan Drilling Engineering:  CONTRACTOR
 FLD .                     ACG:  FIELD NAME
 CTRY.              Azerbaijan:  COUNTRY NAME
 PROV.                    Baku:  PROVINCE
 STAT.                    Baku:  STATE NAME
 REGN.                   EESSA:  REGION
 BASE.              Azerbaijan:  LOGGING EQUIPMENT BASE LOCATION
 COMP.     BP Exploration (Caspian Sea) Ltd:  COMPANY
 WTYP.                Deviated:  WELL TYPE
 SON .        AZ-XX-0906344804:  JOB NUMBER
 FTOP.          Formation Tops:  FORM TOPS DESC
 ILTD.               Lithology:  INTERP LTH DESC
 SVYD.                  Survey:  SURVEY DESC
 DMOD.             Drill Model:  DRILL MOD DESC
 HPTY.       Minimum Curvature:  HOLE POS TYPE
 NREF.                    Grid:  NORTH REFERENCE
 SPUD.               01-Jan-20:  SPUD DATE
 DATE.      00.59.44 15-Sep-20:  END TIME
 STIM.      12.00.00 12-Jun-20:  START TIME
 DMF .             Drill Floor:  DRILL MEAS FROM
 DFST.                        :  DIST FSL TEXT
 DFWT.                        :  DIST FWL TEXT
 API .                        :  API NUMBER
 CNTY.                        :  COUNTY
 UWI .                        :  UNIQUE WELL IDENTIFIER
 LOC .                        :  LOCATION
 LMF .             Drill Floor:  LOG MEASURED FROM
 VSNS.m                   2.88:  VERT SEC N/S
 VSEW.m                  -3.84:  VERT SEC E/W
 AGAP.m                  43.42:  AIR GAP
 APD .m                  43.42:  DEPTH ABOVE PD
 WDMS.m                 118.27:  WD ELEV
 EGL .m                   0.00:  GROUND ELEVATION
 EPD .m                   0.00:  ELEVATION
 AZTC.deg                 6.23:  AZM TOTAL CORR
 GRDC.deg                 0.20:  GRID CORRECTION
 MDEC.deg                 6.43:  MAGNETIC DECL
 MDIP.deg                59.49:  MAGNETIC DIP
 MFLD.nT              50277.00:  MAGNETIC FIELD
 GVFD.g                   1.00:  GRAVITY FIELD
 VSDR.deg               173.20:  VERT SEC DIRECT
 TDD .m                5790.01:  TOTAL DEPTH (DRILLER)
 SDEP.m                5231.01:  START DEPTH
 DFSL.m                   0.00:  DISTANCE FSL
 DFWL.m                   0.00:  DISTANCE FWL
 UTMY.m             4435808.83:  UTM Y
 UTMX.m              526266.40:  UTM X
 WHEW.m                  -3.84:  WELL HEAD E/W
 WHNS.m                   2.88:  WELL HEAD N/S
 LONG.deg                51.31:  LONGITUDE
 LATI.deg                40.06:  LATITUDE
 TVDS.m                  43.42:  TVDSS CORRECTN
 DEP .m                 430.08:  DEPTH
 EKB .m                  43.42:  KB ELEVATION
 EDF .m                  43.42:  DF ELEVATION
 TDL .m                 559.00:  TOTAL DEPTH (LOGGER)
 MAGU.                 1849381:  MAGUTM CHECKSUM
 VSC .                       0:  VS TO CLOSURE
~Parameter Information Block
#MNEM.UNIT       Value        Description
#---------     -----------    ---------------------------
 AV  .mps                 4.87:  Ann Velocity 
 AVMX.mps                 7.08:  Max Ann Veloc 
 AZIF.deg               108.87:  Azm, Final 
 BHAT.                  Rotary:  BHA Type 
 BROT.°/30m               0.35:  Build Rotating 
 BS  .in                  8.50:  Bit Size 
 BSZ .in                  8.50:  Bit Size 
 BTPL.psig              360.00:  Bit Press Loss 
 CABU.                     Yes:  Customer Abuse 
 TCS .hr                106.24:  Time Ciculation Ended 
 CV  .mps                 1.77:  Crit Velocity 
 CVMX.mps                 2.03:  Max Crit Veloc 
 DD1 .         Aykhan Agagulov:  Direct Drillr 1 
 DD2 .            Nonso Okofor:  Direct Drillr 2 
 DDSV.               Geo-Pilot:  DD Service 
 DEFF.%                  98.00:  % Det Eff 
 DLRX.°/30m               0.50:  Dogleg Rot Max 
 DLSO.°/30m               0.40:  Dogleg Oriented 
 DLSX.°/30m               0.94:  Dogleg Str Max 
 DRET.      20.30.00 08-Sep-20:  Drill End Time 
 DRST.      22.15.00 06-Sep-20:  Drill Start Tim 
 DTIM.hr                 31.31:  Time Drilling 
 EDEP.m                5790.01:  End Depth 
 ENG1.           Amrah Tahirov:  Engineer 1 
 ENG2.         Dair Mahammadov:  Engineer 2 
 ENG3.           Emil Huseynov:  Engineer 3 
 ETIM.      04.01.04 12-Sep-20:  End Time 
 FLOI.gpm               450.00:  Flow In 
 FLON.gpm               450.00:  Flow In Min 
 FLOS.cptm                2.00:  Fluid Loss 
 FLOX.gpm               450.00:  Flow In Max 
 FTRO.       Formation Presure:  FTWD Run Obj 
 HFLO.                      No:  High Flow 
 HPRE.                      No:  High Pressure 
 HTEM.                      No:  High Temp 
 HYDO.m                   1.80:  Hydro Offset 
 IFIN.deg                72.03:  Inc, Final 
 IMAX.deg                73.72:  Inc Max 
 IMIN.deg                70.94:  Inc Min 
 IMND.m                5508.52:  Inc Min Depth 
 IMXD.m                5253.60:  Inc Max Depth 
 JARR.                      No:  Jarring 
 LETM.      20.30.00 08-Sep-20:  Log End Time 
 LOST.hr                     0:  Lost Rig Time 
 LSTM.      22.15.00 06-Sep-20:  Log Start Time 
 MDCL.ppm             36000.00:  Mud Chlorides 
 MDES.     Inversion Oil/Synthetic:  Mud Desc 
 DFD .sg                  1.44:  Mud Density 
 MDMN.sg                  1.44:  Dens Mud Min 
 MDMX.sg                  1.57:  Dens Mud Max 
 MOIL.                      70:  Run Mud Oil % 
 MOWR.                   70:30:  Run Mud OWR 
 MSND.                       0:  Run Mud Sand % 
 MSOL.                      21:  Run Mud Solids% 
 DFV .spqt               68.00:  Mud Viscosity 
 MWOD.in                  6.75:  MWD Tool OD 
 MWSI.                     Yes:  Serv Intrp, MWD 
 OTIM.hr                174.84:  Time Operating 
 PCON.           Look Like New:  Pad Condition 
 PMAX.psia            10616.93:  Press Op, Max 
 PV  .cP                 50.00:  Mud PV 
 RUN .                     700:  Run Number 
 ROPA.m/hr               14.24:  ROP Avg 
 ROPN.m/hr               10.00:  ROP Min 
 ROPX.m/hr               32.00:  ROP Max 
 RPMA.rpm               120.90:  RPM Surface Avg 
 RPMN.rpm               120.00:  RPM Surface Min 
 RPMX.rpm               140.00:  RPM Surface Max 
 RRUN.                    0700:  Rig Run Number 
 RTIM.hr                  3.20:  Time Reaming 
 SAZI.deg               109.99:  Azm, Start 
 SDEP.m                5231.01:  Start Depth 
 SIDD.                      No:  Serv Intrp, DD 
 SINC.deg                73.72:  Inc, Start 
 SPPA.psig             3051.00:  SPP Avg 
 SPPN.psig             2950.00:  SPP Min 
 SPPX.psig             3250.00:  SPP Max 
 STIM.      08.00.00 05-Sep-20:  Start Time 
 SVCS.                 DD, MWD:  Services 
 SVER.                    9.20:  Sperry Version 
 TDAT.m                 559.00:  Tot Depth Attmp 
 TDDF.                      No:  Trip for DD 
 TDLG.m                 559.00:  Tot Depth Loggd 
 TFF .                      No:  Trip for Fail 
 TQAA.f-kp               26.49:  Torque Abs Avg 
 TQAN.f-kp               25.00:  Torque Abs Min 
 TQAX.f-kp               27.00:  Torque Abs Max 
 TRRT.°/30m               1.50:  Turn Rotating 
 MRT .                    HCIM:  Maximum Recorded Temperature 
 TTMX.degC               90.20:  Max Tool Temp 
 VS01.                90542671:  Virtual Str1 SN 
 VS02.                90545185:  Virtual Str2 SN 
 VS03.                90602015:  Virtual Str3 SN 
 VS04.                90515230:  Virtual Str4 SN 
 WBMN.klb                 5.00:  WOB Min 
 WOBA.klb                14.79:  WOB Avg 
 WOBX.klb                20.00:  WOB Max 
 YP  .lhf2               29.00:  Yield Point 
~Curve Information Block
#MNEM.UNIT                 API CODE     Curve Description
#---------               -----------    ---------------------------
 TIME.HHMMSS            00 000 000 000:  GT Time & Date
 GTDEPTH.m              00 000 000 000:  GT Depth
 GTPQH.psia             00 000 000 000:  GT HR Quartz Pressure
 GTTQ.degC              00 000 000 000:  GT Quartz Temperature
 GTTN.NONE              00 000 000 000:  GT Test Number
 GTET.sec               00 000 000 000:  GT Elapsed Test Time
 GTTVD.m                00 000 000 000:  GT True Vertical Depth
#Other Information
#
#WARRANTY: Halliburton will use its best efforts to furnish customers with 
#accurate information and interpretations that are part of, and incident to, the services 
#provided.  However, Halliburton cannot and does not warrant the accuracy 
#or correctness of such information and interpretations.  Under no circumstances should any 
#such information or interpretation be relied upon as the sole basis for any drilling, 
#completion, production, or financial decision or any procedure involving any risk to the 
#safety of any drilling venture, drilling rig or its crew or any other third party.  The 
#Customer has full responsibility for all drilling, completion and production operation.  
#Halliburton makes no representations or warranties, either expressed or 
#implied, including, but not limited to, the implied warranties of merchantability or fitness 
#for a particular purpose, with respect to the services rendered.  In no event will 
#Halliburton be liable for failure to obtain any particular results or for 
#any damages, including, but not limited to, indirect, special or consequential damages, 
#resulting from the use of any information or interpretation provided by Halliburton.
#
~A           TIME           GTDEPTH  GTPQH  GTTQ  GTTN   GTET   GTTVD  
# ...
   20:02:02.511.09-Sep-2020 5259.51 4140.01 74.12 24.00  90.44 2544.41
   20:02:02.711.09-Sep-2020 5259.51 4140.06 74.12 24.00  90.64 2544.41
   20:02:02.911.09-Sep-2020 5259.51 4140.09 74.12 24.00  90.84 2544.41
   20:02:03.111.09-Sep-2020 5259.51 4139.26 74.12 24.00  91.04 2544.41
   20:02:03.311.09-Sep-2020 5259.51 4139.26 74.12 24.00  91.24 2544.41
   20:02:03.511.09-Sep-2020 5259.51 4140.69 74.12 24.00  91.44 2544.41
   20:02:03.712.09-Sep-2020 5259.51 4140.42 74.12 24.00  91.64 2544.41
   20:02:03.912.09-Sep-2020 5259.51 4140.24 74.12 24.00  91.84 2544.41
   20:02:04.112.09-Sep-2020 5259.51 4140.35 74.12 24.00  92.04 2544.41
   20:02:04.312.09-Sep-2020 5259.51 4140.35 74.12 24.00  92.24 2544.41
   20:02:04.512.09-Sep-2020 5259.51 4140.05 74.12 24.00  92.44 2544.41
   20:02:04.712.09-Sep-2020 5259.51 4140.06 74.12 24.00  92.64 2544.41
   20:02:04.912.09-Sep-2020 5259.51 4140.04 74.12 24.00  92.84 2544.41
   20:02:05.112.09-Sep-2020 5259.51 4140.08 74.12 24.00  93.04 2544.41
   20:02:05.312.09-Sep-2020 5259.51 4140.08 74.12 24.00  93.24 2544.41
   20:02:05.512.09-Sep-2020 5259.51 4140.00 74.12 24.00  93.44 2544.41
   20:02:05.712.09-Sep-2020 5259.51 4139.99 74.12 24.00  93.64 2544.41
   20:02:05.913.09-Sep-2020 5259.51 4140.00 74.12 24.00  93.84 2544.41
   20:02:06.113.09-Sep-2020 5259.51 4140.05 74.12 24.00  94.04 2544.41
   20:02:06.313.09-Sep-2020 5259.51 4140.05 74.12 24.00  94.24 2544.41
   20:02:06.513.09-Sep-2020 5259.51 4139.24 74.12 24.00  94.44 2544.41
   20:02:06.713.09-Sep-2020 5259.51 4140.73 74.12 24.00  94.64 2544.41
   20:02:06.913.09-Sep-2020 5259.51 4140.50 74.12 24.00  94.84 2544.41
   20:02:07.113.09-Sep-2020 5259.51 4140.27 74.12 24.00  95.04 2544.41
   20:02:07.313.09-Sep-2020 5259.51 4140.27 74.12 24.00  95.24 2544.41
   20:02:07.513.09-Sep-2020 5259.51 4140.25 74.12 24.00  95.44 2544.41
   20:02:07.713.09-Sep-2020 5259.51 4138.81 74.12 24.00  95.64 2544.41
   20:02:07.913.09-Sep-2020 5259.51 4140.93 74.12 24.00  95.84 2544.41
   20:02:08.114.09-Sep-2020 5259.51 4140.20 74.12 24.00  96.04 2544.41
   20:02:08.314.09-Sep-2020 5259.51 4140.20 74.12 24.00  96.24 2544.41
   20:02:08.514.09-Sep-2020 5259.51 4139.96 74.12 24.00  96.44 2544.41
   20:02:08.714.09-Sep-2020 5259.51 4140.18 74.12 24.00  96.64 2544.41
   20:02:08.914.09-Sep-2020 5259.51 4140.16 74.12 24.00  96.84 2544.41
   20:02:09.114.09-Sep-2020 5259.51 4140.89 74.12 24.00  97.04 2544.41
   20:02:09.314.09-Sep-2020 5259.51 4140.89 74.12 24.00  97.24 2544.41
   20:02:09.514.09-Sep-2020 5259.51 4140.22 74.12 24.00  97.44 2544.41
   20:02:09.714.09-Sep-2020 5259.51 4139.17 74.12 24.00  97.65 2544.41
   20:02:09.914.09-Sep-2020 5259.51 4141.14 74.12 24.00  97.85 2544.41
   20:02:10.114.09-Sep-2020 5259.51 4140.37 74.12 24.00  98.05 2544.41
   20:02:10.315.09-Sep-2020 5259.51 4140.37 74.12 24.00  98.25 2544.41
   20:02:10.515.09-Sep-2020 5259.51 4138.93 74.12 24.00  98.45 2544.41
   20:02:10.715.09-Sep-2020 5259.51 4141.31 74.12 24.00  98.65 2544.41
   20:02:10.915.09-Sep-2020 5259.51 4140.38 74.12 24.00  98.85 2544.41
   20:02:11.115.09-Sep-2020 5259.51 4140.15 74.12 24.00  99.05 2544.41
   20:02:11.315.09-Sep-2020 5259.51 4140.15 74.12 24.00  99.25 2544.41
   20:02:11.515.09-Sep-2020 5259.51 4140.25 74.12 24.00  99.45 2544.41
   20:02:11.715.09-Sep-2020 5259.51 4140.14 74.12 24.00  99.65 2544.41
   20:02:11.915.09-Sep-2020 5259.51 4140.13 74.12 24.00  99.85 2544.41
   20:02:12.115.09-Sep-2020 5259.51 4140.12 74.12 24.00 100.05 2544.41
   20:02:12.315.09-Sep-2020 5259.51 4140.12 74.12 24.00 100.25 2544.41
   20:02:12.516.09-Sep-2020 5259.51 4140.12 74.12 24.00 100.45 2544.41
   20:02:12.716.09-Sep-2020 5259.51 4140.14 74.12 24.00 100.65 2544.41
   20:02:12.916.09-Sep-2020 5259.51 4140.09 74.12 24.00 100.85 2544.41
   20:02:13.116.09-Sep-2020 5259.51 4140.07 74.12 24.00 101.05 2544.41
   20:02:13.316.09-Sep-2020 5259.51 4140.07 74.12 24.00 101.25 2544.41
   20:02:13.516.09-Sep-2020 5259.51 4140.11 74.12 24.00 101.45 2544.41
   20:02:13.716.09-Sep-2020 5259.51 4140.13 74.12 24.00 101.65 2544.41
   20:02:13.916.09-Sep-2020 5259.51 4140.15 74.12 24.00 101.85 2544.41
   20:02:14.116.09-Sep-2020 5259.51 4139.00 74.12 24.00 102.05 2544.41
   20:02:14.316.09-Sep-2020 5259.51 4139.00 74.12 24.00 102.25 2544.41
   20:02:14.517.09-Sep-2020 5259.51 4140.62 74.12 24.00 102.45 2544.41
   20:02:14.717.09-Sep-2020 5259.51 4140.40 74.12 24.00 102.65 2544.41
   20:02:14.917.09-Sep-2020 5259.51 4140.24 74.12 24.00 102.85 2544.41
   20:02:15.117.09-Sep-2020 5259.51 4140.43 74.12 24.00 103.05 2544.41
   20:02:15.317.09-Sep-2020 5259.51 4140.43 74.12 24.00 103.25 2544.41
   20:02:15.517.09-Sep-2020 5259.51 4140.14 74.12 24.00 103.45 2544.41
   20:02:15.717.09-Sep-2020 5259.51 4140.14 74.12 24.00 103.65 2544.41
   20:02:15.917.09-Sep-2020 5259.51 4140.14 74.12 24.00 103.85 2544.41
   20:02:16.117.09-Sep-2020 5259.51 4140.18 74.12 24.00 104.05 2544.41
   20:02:16.317.09-Sep-2020 5259.51 4140.18 74.12 24.00 104.25 2544.41
   20:02:16.517.09-Sep-2020 5259.51 4140.06 74.12 24.00 104.45 2544.41
   20:02:16.718.09-Sep-2020 5259.51 4140.09 74.12 24.00 104.65 2544.41
   20:02:16.918.09-Sep-2020 5259.51 4140.11 74.12 24.00 104.85 2544.41
   20:02:17.118.09-Sep-2020 5259.51 4140.15 74.12 24.00 105.05 2544.41
   20:02:17.318.09-Sep-2020 5259.51 4140.15 74.12 24.00 105.25 2544.41
   20:02:17.518.09-Sep-2020 5259.51 4138.97 74.12 24.00 105.45 2544.41
   20:02:17.718.09-Sep-2020 5259.51 4141.17 74.12 24.00 105.65 2544.41
   20:02:17.918.09-Sep-2020 5259.51 4140.52 74.12 24.00 105.85 2544.41
   20:02:18.118.09-Sep-2020 5259.51 4140.32 74.12 24.00 106.05 2544.41
   20:02:18.318.09-Sep-2020 5259.51 4140.32 74.12 24.00 106.25 2544.41
   20:02:18.518.09-Sep-2020 5259.51 4140.35 74.12 24.00 106.45 2544.41
   20:02:18.718.09-Sep-2020 5259.51 4139.51 74.12 24.00 106.65 2544.41
   20:02:18.919.09-Sep-2020 5259.51 4140.36 74.12 24.00 106.85 2544.41
   20:02:19.119.09-Sep-2020 5259.51 4140.18 74.12 24.00 107.05 2544.41
   20:02:19.319.09-Sep-2020 5259.51 4140.18 74.12 24.00 107.25 2544.41
   20:02:19.519.09-Sep-2020 5259.51 4140.21 74.12 24.00 107.45 2544.41
   20:02:19.719.09-Sep-2020 5259.51 4139.23 74.12 24.00 107.65 2544.41
   20:02:19.919.09-Sep-2020 5259.51 4140.69 74.12 24.00 107.85 2544.41
   20:02:20.119.09-Sep-2020 5259.51 4140.45 74.12 24.00 108.05 2544.41
   20:02:20.319.09-Sep-2020 5259.51 4140.45 74.12 24.00 108.25 2544.41
   20:02:20.519.09-Sep-2020 5259.51 4140.10 74.12 24.00 108.45 2544.41
   20:02:20.719.09-Sep-2020 5259.51 4139.75 74.12 24.00 108.65 2544.41
   20:02:20.919.09-Sep-2020 5259.51 4140.61 74.12 24.00 108.85 2544.41
   20:02:21.120.09-Sep-2020 5259.51 4140.35 74.12 24.00 109.05 2544.41
   20:02:21.320.09-Sep-2020 5259.51 4140.35 74.12 24.00 109.25 2544.41
   20:02:21.520.09-Sep-2020 5259.51 4139.70 74.12 24.00 109.45 2544.41
   20:02:21.720.09-Sep-2020 5259.51 4140.57 74.12 24.00 109.65 2544.41
   20:02:21.920.09-Sep-2020 5259.51 4140.30 74.12 24.00 109.85 2544.41
   20:02:22.120.09-Sep-2020 5259.51 4140.10 74.12 24.00 110.05 2544.41
   20:02:22.320.09-Sep-2020 5259.51 4140.10 74.12 24.00 110.25 2544.41
   20:02:22.520.09-Sep-2020 5259.51 4140.15 74.12 24.00 110.45 2544.41
   20:02:22.720.09-Sep-2020 5259.51 4140.18 74.12 24.00 110.65 2544.41
   20:02:22.920.09-Sep-2020 5259.51 4140.13 74.12 24.00 110.85 2544.41
   20:02:23.120.09-Sep-2020 5259.51 4140.14 74.12 24.00 111.05 2544.41
   20:02:23.321.09-Sep-2020 5259.51 4140.14 74.12 24.00 111.25 2544.41
   20:02:23.521.09-Sep-2020 5259.51 4140.15 74.12 24.00 111.45 2544.41
   20:02:23.721.09-Sep-2020 5259.51 4140.17 74.12 24.00 111.65 2544.41
   20:02:23.921.09-Sep-2020 5259.51 4140.14 74.12 24.00 111.85 2544.41
   20:02:24.121.09-Sep-2020 5259.51 4140.12 74.12 24.00 112.05 2544.41
   20:02:24.321.09-Sep-2020 5259.51 4140.12 74.12 24.00 112.25 2544.41
   20:02:24.521.09-Sep-2020 5259.51 4140.17 74.12 24.00 112.45 2544.41
   20:02:24.721.09-Sep-2020 5259.51 4140.16 74.12 24.00 112.65 2544.41
   20:02:24.921.09-Sep-2020 5259.51 4140.17 74.12 24.00 112.85 2544.41
