~Version Information
 VERS.                  2.0:   CWLS log ASCII Standard -VERSION 2.0
 WRAP.                   NO:   One line per depth step
~Well Information Block
#MNEM.UNIT     VALUE/NAME     DESCRIPTION
#---------     -----------    ---------------------------
 STRT.S             20:20:33 09-Sep-20: START TIME 20:20:33 09-Sep-20
 STOP.S             20:28:41 09-Sep-20: STOP TIME  20:28:41 09-Sep-20
 STEP.S                   0.00: STEP TIME
 NULL.                 -999.25: NULL VALUE
 MDS .        Operator Entered:  MAG DATA SOURCE
 PDAT.          Mean Sea Level:  PERMANENT DATUM
 DCON.         Sperry Drilling:  DIRECTNL CONTR
 RIG .              West Azeri:  RIG NAME
 WELL.           C40 (Slot 20):  WELL NAME
 SRVC.     Turan Drilling Engineering:  CONTRACTOR
 FLD .                     ACG:  FIELD NAME
 CTRY.              Azerbaijan:  COUNTRY NAME
 PROV.                    Baku:  PROVINCE
 STAT.                    Baku:  STATE NAME
 REGN.                   EESSA:  REGION
 BASE.              Azerbaijan:  LOGGING EQUIPMENT BASE LOCATION
 COMP.     BP Exploration (Caspian Sea) Ltd:  COMPANY
 WTYP.                Deviated:  WELL TYPE
 SON .        AZ-XX-0906344804:  JOB NUMBER
 FTOP.          Formation Tops:  FORM TOPS DESC
 ILTD.               Lithology:  INTERP LTH DESC
 SVYD.                  Survey:  SURVEY DESC
 DMOD.             Drill Model:  DRILL MOD DESC
 HPTY.       Minimum Curvature:  HOLE POS TYPE
 NREF.                    Grid:  NORTH REFERENCE
 SPUD.               01-Jan-20:  SPUD DATE
 DATE.      00.59.44 15-Sep-20:  END TIME
 STIM.      12.00.00 12-Jun-20:  START TIME
 DMF .             Drill Floor:  DRILL MEAS FROM
 DFST.                        :  DIST FSL TEXT
 DFWT.                        :  DIST FWL TEXT
 API .                        :  API NUMBER
 CNTY.                        :  COUNTY
 UWI .                        :  UNIQUE WELL IDENTIFIER
 LOC .                        :  LOCATION
 LMF .             Drill Floor:  LOG MEASURED FROM
 VSNS.m                   2.88:  VERT SEC N/S
 VSEW.m                  -3.84:  VERT SEC E/W
 AGAP.m                  43.42:  AIR GAP
 APD .m                  43.42:  DEPTH ABOVE PD
 WDMS.m                 118.27:  WD ELEV
 EGL .m                   0.00:  GROUND ELEVATION
 EPD .m                   0.00:  ELEVATION
 AZTC.deg                 6.23:  AZM TOTAL CORR
 GRDC.deg                 0.20:  GRID CORRECTION
 MDEC.deg                 6.43:  MAGNETIC DECL
 MDIP.deg                59.49:  MAGNETIC DIP
 MFLD.nT              50277.00:  MAGNETIC FIELD
 GVFD.g                   1.00:  GRAVITY FIELD
 VSDR.deg               173.20:  VERT SEC DIRECT
 TDD .m                5790.01:  TOTAL DEPTH (DRILLER)
 SDEP.m                5231.01:  START DEPTH
 DFSL.m                   0.00:  DISTANCE FSL
 DFWL.m                   0.00:  DISTANCE FWL
 UTMY.m             4435808.83:  UTM Y
 UTMX.m              526266.40:  UTM X
 WHEW.m                  -3.84:  WELL HEAD E/W
 WHNS.m                   2.88:  WELL HEAD N/S
 LONG.deg                51.31:  LONGITUDE
 LATI.deg                40.06:  LATITUDE
 TVDS.m                  43.42:  TVDSS CORRECTN
 DEP .m                 430.08:  DEPTH
 EKB .m                  43.42:  KB ELEVATION
 EDF .m                  43.42:  DF ELEVATION
 TDL .m                 559.00:  TOTAL DEPTH (LOGGER)
 MAGU.                 1849381:  MAGUTM CHECKSUM
 VSC .                       0:  VS TO CLOSURE
~Parameter Information Block
#MNEM.UNIT       Value        Description
#---------     -----------    ---------------------------
 AV  .mps                 4.87:  Ann Velocity 
 AVMX.mps                 7.08:  Max Ann Veloc 
 AZIF.deg               108.87:  Azm, Final 
 BHAT.                  Rotary:  BHA Type 
 BROT.°/30m               0.35:  Build Rotating 
 BS  .in                  8.50:  Bit Size 
 BSZ .in                  8.50:  Bit Size 
 BTPL.psig              360.00:  Bit Press Loss 
 CABU.                     Yes:  Customer Abuse 
 COMM.                     ÄìU:  Run Comments 1 
 TCS .hr                106.24:  Time Ciculation Ended 
 CV  .mps                 1.77:  Crit Velocity 
 CVMX.mps                 2.03:  Max Crit Veloc 
 DD1 .         Aykhan Agagulov:  Direct Drillr 1 
 DD2 .            Nonso Okofor:  Direct Drillr 2 
 DDSV.               Geo-Pilot:  DD Service 
 DEFF.%                  98.00:  % Det Eff 
 DLRX.°/30m               0.50:  Dogleg Rot Max 
 DLSO.°/30m               0.40:  Dogleg Oriented 
 DLSX.°/30m               0.94:  Dogleg Str Max 
 DRET.      20.30.00 08-Sep-20:  Drill End Time 
 DRST.      22.15.00 06-Sep-20:  Drill Start Tim 
 DTIM.hr                 31.31:  Time Drilling 
 EDEP.m                5790.01:  End Depth 
 ENG1.           Amrah Tahirov:  Engineer 1 
 ENG2.         Dair Mahammadov:  Engineer 2 
 ENG3.           Emil Huseynov:  Engineer 3 
 ETIM.      04.01.04 12-Sep-20:  End Time 
 FLOI.gpm               450.00:  Flow In 
 FLON.gpm               450.00:  Flow In Min 
 FLOS.cptm                2.00:  Fluid Loss 
 FLOX.gpm               450.00:  Flow In Max 
 FTRO.       Formation Presure:  FTWD Run Obj 
 HFLO.                      No:  High Flow 
 HPRE.                      No:  High Pressure 
 HTEM.                      No:  High Temp 
 HYDO.m                   1.80:  Hydro Offset 
 IFIN.deg                72.03:  Inc, Final 
 IMAX.deg                73.72:  Inc Max 
 IMIN.deg                70.94:  Inc Min 
 IMND.m                5508.52:  Inc Min Depth 
 IMXD.m                5253.60:  Inc Max Depth 
 JARR.                      No:  Jarring 
 LETM.      20.30.00 08-Sep-20:  Log End Time 
 LOST.hr                     0:  Lost Rig Time 
 LSTM.      22.15.00 06-Sep-20:  Log Start Time 
 MDCL.ppm             36000.00:  Mud Chlorides 
 MDES.     Inversion Oil/Synthetic:  Mud Desc 
 DFD .sg                  1.44:  Mud Density 
 MDMN.sg                  1.44:  Dens Mud Min 
 MDMX.sg                  1.57:  Dens Mud Max 
 MOIL.                      70:  Run Mud Oil % 
 MOWR.                   70:30:  Run Mud OWR 
 MSND.                       0:  Run Mud Sand % 
 MSOL.                      21:  Run Mud Solids% 
 DFV .spqt               68.00:  Mud Viscosity 
 MWOD.in                  6.75:  MWD Tool OD 
 MWSI.                     Yes:  Serv Intrp, MWD 
 OTIM.hr                174.84:  Time Operating 
 PCON.           Look Like New:  Pad Condition 
 PMAX.psia            10616.93:  Press Op, Max 
 PV  .cP                 50.00:  Mud PV 
 RUN .                     700:  Run Number 
 ROPA.m/hr               14.24:  ROP Avg 
 ROPN.m/hr               10.00:  ROP Min 
 ROPX.m/hr               32.00:  ROP Max 
 RPMA.rpm               120.90:  RPM Surface Avg 
 RPMN.rpm               120.00:  RPM Surface Min 
 RPMX.rpm               140.00:  RPM Surface Max 
 RRUN.                    0700:  Rig Run Number 
 RTIM.hr                  3.20:  Time Reaming 
 SAZI.deg               109.99:  Azm, Start 
 SDEP.m                5231.01:  Start Depth 
 SIDD.                      No:  Serv Intrp, DD 
 SINC.deg                73.72:  Inc, Start 
 SPPA.psig             3051.00:  SPP Avg 
 SPPN.psig             2950.00:  SPP Min 
 SPPX.psig             3250.00:  SPP Max 
 STIM.      08.00.00 05-Sep-20:  Start Time 
 SVCS.                 DD, MWD:  Services 
 SVER.                    9.20:  Sperry Version 
 TDAT.m                 559.00:  Tot Depth Attmp 
 TDDF.                      No:  Trip for DD 
 TDLG.m                 559.00:  Tot Depth Loggd 
 TFF .                      No:  Trip for Fail 
 TQAA.f-kp               26.49:  Torque Abs Avg 
 TQAN.f-kp               25.00:  Torque Abs Min 
 TQAX.f-kp               27.00:  Torque Abs Max 
 TRRT.°/30m               1.50:  Turn Rotating 
 MRT .                    HCIM:  Maximum Recorded Temperature 
 TTMX.degC               90.20:  Max Tool Temp 
 VS01.                90542671:  Virtual Str1 SN 
 VS02.                90545185:  Virtual Str2 SN 
 VS03.                90602015:  Virtual Str3 SN 
 VS04.                90515230:  Virtual Str4 SN 
 WBMN.klb                 5.00:  WOB Min 
 WOBA.klb                14.79:  WOB Avg 
 WOBX.klb                20.00:  WOB Max 
 YP  .lhf2               29.00:  Yield Point 
~Curve Information Block
#MNEM.UNIT                 API CODE     Curve Description
#---------               -----------    ---------------------------
 TIME.HHMMSS            00 000 000 000:  GT Time & Date
 GTDEPTH.m              00 000 000 000:  GT Depth
 GTPQH.psia             00 000 000 000:  GT HR Quartz Pressure
 GTTQ.degC              00 000 000 000:  GT Quartz Temperature
 GTTN.NONE              00 000 000 000:  GT Test Number
 GTET.sec               00 000 000 000:  GT Elapsed Test Time
 GTTVD.m                00 000 000 000:  GT True Vertical Depth
#Other Information
#
#WARRANTY: Halliburton will use its best efforts to furnish customers with 
#accurate information and interpretations that are part of, and incident to, the services 
#provided.  However, Halliburton cannot and does not warrant the accuracy 
#or correctness of such information and interpretations.  Under no circumstances should any 
#such information or interpretation be relied upon as the sole basis for any drilling, 
#completion, production, or financial decision or any procedure involving any risk to the 
#safety of any drilling venture, drilling rig or its crew or any other third party.  The 
#Customer has full responsibility for all drilling, completion and production operation.  
#Halliburton makes no representations or warranties, either expressed or 
#implied, including, but not limited to, the implied warranties of merchantability or fitness 
#for a particular purpose, with respect to the services rendered.  In no event will 
#Halliburton be liable for failure to obtain any particular results or for 
#any damages, including, but not limited to, indirect, special or consequential damages, 
#resulting from the use of any information or interpretation provided by Halliburton.
#
~A           TIME           GTDEPTH  GTPQH  GTTQ  GTTN   GTET   GTTVD  
# ...
   20:22:49.286.09-Sep-2020 5252.51  629.65 73.95 25.00 135.66 2542.44
   20:22:49.486.09-Sep-2020 5252.51  629.76 73.95 25.00 135.86 2542.44
   20:22:49.686.09-Sep-2020 5252.51  629.89 73.95 25.00 136.06 2542.44
   20:22:49.886.09-Sep-2020 5252.51  629.89 73.95 25.00 136.26 2542.44
   20:22:50.086.09-Sep-2020 5252.51  630.14 73.95 25.00 136.46 2542.44
   20:22:50.286.09-Sep-2020 5252.51  630.23 73.95 25.00 136.66 2542.44
   20:22:50.486.09-Sep-2020 5252.51  630.36 73.95 25.00 136.86 2542.44
   20:22:50.686.09-Sep-2020 5252.51  630.48 73.95 25.00 137.06 2542.44
   20:22:50.886.09-Sep-2020 5252.51  630.48 73.95 25.00 137.26 2542.44
   20:22:51.086.09-Sep-2020 5252.51  630.66 73.95 25.00 137.46 2542.44
   20:22:51.287.09-Sep-2020 5252.51  630.77 73.95 25.00 137.66 2542.44
   20:22:51.487.09-Sep-2020 5252.51  630.68 73.95 25.00 137.86 2542.44
   20:22:51.687.09-Sep-2020 5252.51  630.50 73.95 25.00 138.06 2542.44
   20:22:51.887.09-Sep-2020 5252.51  631.12 73.95 25.00 138.26 2542.44
   20:22:52.087.09-Sep-2020 5252.51  631.21 73.95 25.00 138.46 2542.44
   20:22:52.287.09-Sep-2020 5252.51  631.24 73.95 25.00 138.66 2542.44
   20:22:52.487.09-Sep-2020 5252.51  631.50 73.95 25.00 138.86 2542.44
   20:22:52.687.09-Sep-2020 5252.51  631.44 73.95 25.00 139.06 2542.44
   20:22:52.887.09-Sep-2020 5252.51  631.44 73.95 25.00 139.26 2542.44
   20:22:53.087.09-Sep-2020 5252.51  631.71 73.95 25.00 139.46 2542.44
   20:22:53.287.09-Sep-2020 5252.51  631.80 73.95 25.00 139.66 2542.44
   20:22:53.488.09-Sep-2020 5252.51  631.83 73.95 25.00 139.86 2542.44
   20:22:53.688.09-Sep-2020 5252.51  632.33 73.95 25.00 140.06 2542.44
   20:22:53.888.09-Sep-2020 5252.51  632.33 73.95 25.00 140.26 2542.44
   20:22:54.088.09-Sep-2020 5252.51  632.74 73.95 25.00 140.46 2542.44
   20:22:54.288.09-Sep-2020 5252.51  632.88 73.95 25.00 140.66 2542.44
   20:22:54.488.09-Sep-2020 5252.51  632.94 73.95 25.00 140.86 2542.44
   20:22:54.688.09-Sep-2020 5252.51  633.14 73.95 25.00 141.07 2542.44
   20:22:54.888.09-Sep-2020 5252.51  632.25 73.95 25.00 141.27 2542.44
   20:22:55.088.09-Sep-2020 5252.51  633.43 73.96 25.00 141.47 2542.44
   20:22:55.288.09-Sep-2020 5252.51  633.41 73.96 25.00 141.67 2542.44
   20:22:55.488.09-Sep-2020 5252.51  633.53 73.96 25.00 141.87 2542.44
   20:22:55.689.09-Sep-2020 5252.51  633.56 73.96 25.00 142.07 2542.44
   20:22:55.889.09-Sep-2020 5252.51  633.56 73.96 25.00 142.27 2542.44
   20:22:56.089.09-Sep-2020 5252.51  633.97 73.96 25.00 142.47 2542.44
   20:22:56.289.09-Sep-2020 5252.51  633.96 73.96 25.00 142.67 2542.44
   20:22:56.489.09-Sep-2020 5252.51  634.08 73.96 25.00 142.87 2542.44
   20:22:56.689.09-Sep-2020 5252.51  634.07 73.96 25.00 143.07 2542.44
   20:22:56.889.09-Sep-2020 5252.51  634.07 73.96 25.00 143.27 2542.44
   20:22:57.089.09-Sep-2020 5252.51  634.36 73.96 25.00 143.47 2542.44
   20:22:57.289.09-Sep-2020 5252.51  634.30 73.96 25.00 143.67 2542.44
   20:22:57.489.09-Sep-2020 5252.51  634.12 73.96 25.00 143.87 2542.44
   20:22:57.689.09-Sep-2020 5252.51  634.75 73.96 25.00 144.07 2542.44
   20:22:57.890.09-Sep-2020 5252.51  634.75 73.96 25.00 144.27 2542.44
   20:22:58.090.09-Sep-2020 5252.51  634.93 73.96 25.00 144.47 2542.44
   20:22:58.290.09-Sep-2020 5252.51  634.66 73.96 25.00 144.67 2542.44
   20:22:58.490.09-Sep-2020 5252.51  635.08 73.96 25.00 144.87 2542.44
   20:22:58.690.09-Sep-2020 5252.51  635.41 73.96 25.00 145.07 2542.44
   20:22:58.890.09-Sep-2020 5252.51  635.40 73.96 25.00 145.27 2542.44
   20:22:59.090.09-Sep-2020 5252.51  635.65 73.96 25.00 145.47 2542.44
   20:22:59.290.09-Sep-2020 5252.51  635.63 73.96 25.00 145.67 2542.44
   20:22:59.490.09-Sep-2020 5252.51  635.79 73.96 25.00 145.87 2542.44
   20:22:59.690.09-Sep-2020 5252.51  635.85 73.96 25.00 146.07 2542.44
   20:22:59.890.09-Sep-2020 5252.51  635.85 73.96 25.00 146.27 2542.44
   20:23:00.091.09-Sep-2020 5252.51  636.05 73.96 25.00 146.47 2542.44
   20:23:00.291.09-Sep-2020 5252.51  636.17 73.96 25.00 146.67 2542.44
   20:23:00.491.09-Sep-2020 5252.51  636.23 73.96 25.00 146.87 2542.44
   20:23:00.691.09-Sep-2020 5252.51  636.32 73.96 25.00 147.07 2542.44
   20:23:00.891.09-Sep-2020 5252.51  636.32 73.96 25.00 147.27 2542.44
   20:23:01.091.09-Sep-2020 5252.51  636.56 73.96 25.00 147.47 2542.44
   20:23:01.291.09-Sep-2020 5252.51  636.67 73.96 25.00 147.67 2542.44
   20:23:01.491.09-Sep-2020 5252.51  636.75 73.96 25.00 147.87 2542.44
   20:23:01.691.09-Sep-2020 5252.51  636.85 73.96 25.00 148.07 2542.44
   20:23:01.891.09-Sep-2020 5252.51  636.85 73.96 25.00 148.27 2542.44
   20:23:02.092.09-Sep-2020 5252.51  637.32 73.96 25.00 148.47 2542.44
   20:23:02.292.09-Sep-2020 5252.51  637.20 73.96 25.00 148.67 2542.44
   20:23:02.492.09-Sep-2020 5252.51  637.27 73.96 25.00 148.87 2542.44
   20:23:02.692.09-Sep-2020 5252.51  637.31 73.96 25.00 149.07 2542.44
   20:23:02.892.09-Sep-2020 5252.51  637.60 73.96 25.00 149.27 2542.44
   20:23:03.092.09-Sep-2020 5252.51  637.61 73.96 25.00 149.47 2542.44
   20:23:03.292.09-Sep-2020 5252.51  637.68 73.96 25.00 149.67 2542.44
   20:23:03.492.09-Sep-2020 5252.51  637.76 73.96 25.00 149.87 2542.44
   20:23:03.692.09-Sep-2020 5252.51  637.78 73.96 25.00 150.07 2542.44
   20:23:03.892.09-Sep-2020 5252.51  637.78 73.96 25.00 150.27 2542.44
   20:23:04.092.09-Sep-2020 5252.51  638.00 73.96 25.00 150.47 2542.44
   20:23:04.293.09-Sep-2020 5252.51  638.13 73.96 25.00 150.67 2542.44
   20:23:04.493.09-Sep-2020 5252.51  638.25 73.96 25.00 150.87 2542.44
   20:23:04.693.09-Sep-2020 5252.51  638.31 73.96 25.00 151.07 2542.44
   20:23:04.893.09-Sep-2020 5252.51  638.31 73.96 25.00 151.27 2542.44
   20:23:05.093.09-Sep-2020 5252.51  637.61 73.96 25.00 151.47 2542.44
   20:23:05.293.09-Sep-2020 5252.51  638.99 73.96 25.00 151.67 2542.44
   20:23:05.493.09-Sep-2020 5252.51  638.88 73.96 25.00 151.87 2542.44
   20:23:05.693.09-Sep-2020 5252.51  638.91 73.96 25.00 152.07 2542.44
   20:23:05.893.09-Sep-2020 5252.51  638.91 73.96 25.00 152.27 2542.44
   20:23:06.093.09-Sep-2020 5252.51  639.20 73.96 25.00 152.47 2542.44
   20:23:06.293.09-Sep-2020 5252.51  638.69 73.96 25.00 152.67 2542.44
   20:23:06.494.09-Sep-2020 5252.51  639.26 73.96 25.00 152.87 2542.44
   20:23:06.694.09-Sep-2020 5252.51  639.52 73.96 25.00 153.07 2542.44
   20:23:06.894.09-Sep-2020 5252.51  639.52 73.96 25.00 153.27 2542.44
   20:23:07.094.09-Sep-2020 5252.51  639.74 73.96 25.00 153.47 2542.44
   20:23:07.294.09-Sep-2020 5252.51  638.86 73.96 25.00 153.67 2542.44
   20:23:07.494.09-Sep-2020 5252.51  640.02 73.96 25.00 153.87 2542.44
   20:23:07.694.09-Sep-2020 5252.51  639.96 73.96 25.00 154.07 2542.44
   20:23:07.894.09-Sep-2020 5252.51  639.96 73.96 25.00 154.27 2542.44
   20:23:08.094.09-Sep-2020 5252.51  640.04 73.96 25.00 154.47 2542.44
   20:23:08.294.09-Sep-2020 5252.51  640.35 73.96 25.00 154.67 2542.44
   20:23:08.494.09-Sep-2020 5252.51  640.32 73.96 25.00 154.87 2542.44
   20:23:08.695.09-Sep-2020 5252.51  640.27 73.96 25.00 155.07 2542.44
   20:23:08.895.09-Sep-2020 5252.51  640.27 73.96 25.00 155.27 2542.44
   20:23:09.095.09-Sep-2020 5252.51  640.61 73.96 25.00 155.47 2542.44
   20:23:09.295.09-Sep-2020 5252.51  640.72 73.96 25.00 155.67 2542.44
   20:23:09.495.09-Sep-2020 5252.51  640.74 73.96 25.00 155.87 2542.44
   20:23:09.695.09-Sep-2020 5252.51  641.00 73.96 25.00 156.07 2542.44
   20:23:09.895.09-Sep-2020 5252.51  641.00 73.96 25.00 156.27 2542.44
   20:23:10.095.09-Sep-2020 5252.51  640.60 73.96 25.00 156.47 2542.44
   20:23:10.295.09-Sep-2020 5252.51  641.18 73.96 25.00 156.67 2542.44
   20:23:10.495.09-Sep-2020 5252.51  641.41 73.96 25.00 156.87 2542.44
   20:23:10.695.09-Sep-2020 5252.51  641.39 73.96 25.00 157.07 2542.44
   20:23:10.896.09-Sep-2020 5252.51  641.39 73.96 25.00 157.27 2542.44
   20:23:11.096.09-Sep-2020 5252.51  641.64 73.96 25.00 157.47 2542.44
   20:23:11.296.09-Sep-2020 5252.51  641.81 73.96 25.00 157.67 2542.44
   20:23:11.496.09-Sep-2020 5252.51  641.83 73.96 25.00 157.87 2542.44
   20:23:11.696.09-Sep-2020 5252.51  641.88 73.96 25.00 158.07 2542.44
