~Version Information
 VERS.                  2.0:   CWLS log ASCII Standard -VERSION 2.0
 WRAP.                   NO:   One line per depth step
~Well Information Block
#MNEM.UNIT     VALUE/NAME     DESCRIPTION
#---------     -----------    ---------------------------
 STRT.S             16:28:49 09-Sep-20: START TIME 16:28:49 09-Sep-20
 STOP.S             16:37:06 09-Sep-20: STOP TIME  16:37:06 09-Sep-20
 STEP.S                   0.00: STEP TIME
 NULL.                 -999.25: NULL VALUE
 MDS .        Operator Entered:  MAG DATA SOURCE
 PDAT.          Mean Sea Level:  PERMANENT DATUM
 DCON.         Sperry Drilling:  DIRECTNL CONTR
 RIG .              West Azeri:  RIG NAME
 WELL.           C40 (Slot 20):  WELL NAME
 SRVC.     Turan Drilling Engineering:  CONTRACTOR
 FLD .                     ACG:  FIELD NAME
 CTRY.              Azerbaijan:  COUNTRY NAME
 PROV.                    Baku:  PROVINCE
 STAT.                    Baku:  STATE NAME
 REGN.                   EESSA:  REGION
 BASE.              Azerbaijan:  LOGGING EQUIPMENT BASE LOCATION
 COMP.     BP Exploration (Caspian Sea) Ltd:  COMPANY
 WTYP.                Deviated:  WELL TYPE
 SON .        AZ-XX-0906344804:  JOB NUMBER
 FTOP.          Formation Tops:  FORM TOPS DESC
 ILTD.               Lithology:  INTERP LTH DESC
 SVYD.                  Survey:  SURVEY DESC
 DMOD.             Drill Model:  DRILL MOD DESC
 HPTY.       Minimum Curvature:  HOLE POS TYPE
 NREF.                    Grid:  NORTH REFERENCE
 SPUD.               01-Jan-20:  SPUD DATE
 DATE.      00.59.44 15-Sep-20:  END TIME
 STIM.      12.00.00 12-Jun-20:  START TIME
 DMF .             Drill Floor:  DRILL MEAS FROM
 DFST.                        :  DIST FSL TEXT
 DFWT.                        :  DIST FWL TEXT
 API .                        :  API NUMBER
 CNTY.                        :  COUNTY
 UWI .                        :  UNIQUE WELL IDENTIFIER
 LOC .                        :  LOCATION
 LMF .             Drill Floor:  LOG MEASURED FROM
 VSNS.m                   2.88:  VERT SEC N/S
 VSEW.m                  -3.84:  VERT SEC E/W
 AGAP.m                  43.42:  AIR GAP
 APD .m                  43.42:  DEPTH ABOVE PD
 WDMS.m                 118.27:  WD ELEV
 EGL .m                   0.00:  GROUND ELEVATION
 EPD .m                   0.00:  ELEVATION
 AZTC.deg                 6.23:  AZM TOTAL CORR
 GRDC.deg                 0.20:  GRID CORRECTION
 MDEC.deg                 6.43:  MAGNETIC DECL
 MDIP.deg                59.49:  MAGNETIC DIP
 MFLD.nT              50277.00:  MAGNETIC FIELD
 GVFD.g                   1.00:  GRAVITY FIELD
 VSDR.deg               173.20:  VERT SEC DIRECT
 TDD .m                5790.01:  TOTAL DEPTH (DRILLER)
 SDEP.m                5231.01:  START DEPTH
 DFSL.m                   0.00:  DISTANCE FSL
 DFWL.m                   0.00:  DISTANCE FWL
 UTMY.m             4435808.83:  UTM Y
 UTMX.m              526266.40:  UTM X
 WHEW.m                  -3.84:  WELL HEAD E/W
 WHNS.m                   2.88:  WELL HEAD N/S
 LONG.deg                51.31:  LONGITUDE
 LATI.deg                40.06:  LATITUDE
 TVDS.m                  43.42:  TVDSS CORRECTN
 DEP .m                 430.08:  DEPTH
 EKB .m                  43.42:  KB ELEVATION
 EDF .m                  43.42:  DF ELEVATION
 TDL .m                 559.00:  TOTAL DEPTH (LOGGER)
 MAGU.                 1849381:  MAGUTM CHECKSUM
 VSC .                       0:  VS TO CLOSURE
~Parameter Information Block
#MNEM.UNIT       Value        Description
#---------     -----------    ---------------------------
 AV  .mps                 4.87:  Ann Velocity 
 AVMX.mps                 7.08:  Max Ann Veloc 
 AZIF.deg               108.87:  Azm, Final 
 BHAT.                  Rotary:  BHA Type 
 BROT.°/30m               0.35:  Build Rotating 
 BS  .in                  8.50:  Bit Size 
 BSZ .in                  8.50:  Bit Size 
 BTPL.psig              360.00:  Bit Press Loss 
 CABU.                     Yes:  Customer Abuse 
 TCS .hr                106.24:  Time Ciculation Ended 
 CV  .mps                 1.77:  Crit Velocity 
 CVMX.mps                 2.03:  Max Crit Veloc 
 DD1 .         Aykhan Agagulov:  Direct Drillr 1 
 DD2 .            Nonso Okofor:  Direct Drillr 2 
 DDSV.               Geo-Pilot:  DD Service 
 DEFF.%                  98.00:  % Det Eff 
 DLRX.°/30m               0.50:  Dogleg Rot Max 
 DLSO.°/30m               0.40:  Dogleg Oriented 
 DLSX.°/30m               0.94:  Dogleg Str Max 
 DRET.      20.30.00 08-Sep-20:  Drill End Time 
 DRST.      22.15.00 06-Sep-20:  Drill Start Tim 
 DTIM.hr                 31.31:  Time Drilling 
 EDEP.m                5790.01:  End Depth 
 ENG1.           Amrah Tahirov:  Engineer 1 
 ENG2.         Dair Mahammadov:  Engineer 2 
 ENG3.           Emil Huseynov:  Engineer 3 
 ETIM.      04.01.04 12-Sep-20:  End Time 
 FLOI.gpm               450.00:  Flow In 
 FLON.gpm               450.00:  Flow In Min 
 FLOS.cptm                2.00:  Fluid Loss 
 FLOX.gpm               450.00:  Flow In Max 
 FTRO.       Formation Presure:  FTWD Run Obj 
 HFLO.                      No:  High Flow 
 HPRE.                      No:  High Pressure 
 HTEM.                      No:  High Temp 
 HYDO.m                   1.80:  Hydro Offset 
 IFIN.deg                72.03:  Inc, Final 
 IMAX.deg                73.72:  Inc Max 
 IMIN.deg                70.94:  Inc Min 
 IMND.m                5508.52:  Inc Min Depth 
 IMXD.m                5253.60:  Inc Max Depth 
 JARR.                      No:  Jarring 
 LETM.      20.30.00 08-Sep-20:  Log End Time 
 LOST.hr                     0:  Lost Rig Time 
 LSTM.      22.15.00 06-Sep-20:  Log Start Time 
 MDCL.ppm             36000.00:  Mud Chlorides 
 MDES.     Inversion Oil/Synthetic:  Mud Desc 
 DFD .sg                  1.44:  Mud Density 
 MDMN.sg                  1.44:  Dens Mud Min 
 MDMX.sg                  1.57:  Dens Mud Max 
 MOIL.                      70:  Run Mud Oil % 
 MOWR.                   70:30:  Run Mud OWR 
 MSND.                       0:  Run Mud Sand % 
 MSOL.                      21:  Run Mud Solids% 
 DFV .spqt               68.00:  Mud Viscosity 
 MWOD.in                  6.75:  MWD Tool OD 
 MWSI.                     Yes:  Serv Intrp, MWD 
 OTIM.hr                174.84:  Time Operating 
 PCON.           Look Like New:  Pad Condition 
 PMAX.psia            10616.93:  Press Op, Max 
 PV  .cP                 50.00:  Mud PV 
 RUN .                     700:  Run Number 
 ROPA.m/hr               14.24:  ROP Avg 
 ROPN.m/hr               10.00:  ROP Min 
 ROPX.m/hr               32.00:  ROP Max 
 RPMA.rpm               120.90:  RPM Surface Avg 
 RPMN.rpm               120.00:  RPM Surface Min 
 RPMX.rpm               140.00:  RPM Surface Max 
 RRUN.                    0700:  Rig Run Number 
 RTIM.hr                  3.20:  Time Reaming 
 SAZI.deg               109.99:  Azm, Start 
 SDEP.m                5231.01:  Start Depth 
 SIDD.                      No:  Serv Intrp, DD 
 SINC.deg                73.72:  Inc, Start 
 SPPA.psig             3051.00:  SPP Avg 
 SPPN.psig             2950.00:  SPP Min 
 SPPX.psig             3250.00:  SPP Max 
 STIM.      08.00.00 05-Sep-20:  Start Time 
 SVCS.                 DD, MWD:  Services 
 SVER.                    9.20:  Sperry Version 
 TDAT.m                 559.00:  Tot Depth Attmp 
 TDDF.                      No:  Trip for DD 
 TDLG.m                 559.00:  Tot Depth Loggd 
 TFF .                      No:  Trip for Fail 
 TQAA.f-kp               26.49:  Torque Abs Avg 
 TQAN.f-kp               25.00:  Torque Abs Min 
 TQAX.f-kp               27.00:  Torque Abs Max 
 TRRT.°/30m               1.50:  Turn Rotating 
 MRT .                    HCIM:  Maximum Recorded Temperature 
 TTMX.degC               90.20:  Max Tool Temp 
 VS01.                90542671:  Virtual Str1 SN 
 VS02.                90545185:  Virtual Str2 SN 
 VS03.                90602015:  Virtual Str3 SN 
 VS04.                90515230:  Virtual Str4 SN 
 WBMN.klb                 5.00:  WOB Min 
 WOBA.klb                14.79:  WOB Avg 
 WOBX.klb                20.00:  WOB Max 
 YP  .lhf2               29.00:  Yield Point 
~Curve Information Block
#MNEM.UNIT                 API CODE     Curve Description
#---------               -----------    ---------------------------
 TIME.HHMMSS            00 000 000 000:  GT Time & Date
 GTDEPTH.m              00 000 000 000:  GT Depth
 GTPQH.psia             00 000 000 000:  GT HR Quartz Pressure
 GTTQ.degC              00 000 000 000:  GT Quartz Temperature
 GTTN.NONE              00 000 000 000:  GT Test Number
 GTET.sec               00 000 000 000:  GT Elapsed Test Time
 GTTVD.m                00 000 000 000:  GT True Vertical Depth
#Other Information
#
#WARRANTY: Halliburton will use its best efforts to furnish customers with 
#accurate information and interpretations that are part of, and incident to, the services 
#provided.  However, Halliburton cannot and does not warrant the accuracy 
#or correctness of such information and interpretations.  Under no circumstances should any 
#such information or interpretation be relied upon as the sole basis for any drilling, 
#completion, production, or financial decision or any procedure involving any risk to the 
#safety of any drilling venture, drilling rig or its crew or any other third party.  The 
#Customer has full responsibility for all drilling, completion and production operation.  
#Halliburton makes no representations or warranties, either expressed or 
#implied, including, but not limited to, the implied warranties of merchantability or fitness 
#for a particular purpose, with respect to the services rendered.  In no event will 
#Halliburton be liable for failure to obtain any particular results or for 
#any damages, including, but not limited to, indirect, special or consequential damages, 
#resulting from the use of any information or interpretation provided by Halliburton.
#
~A           TIME           GTDEPTH  GTPQH  GTTQ  GTTN   GTET   GTTVD  
# ...
   16:29:12.079.09-Sep-2020 5323.01 6244.31 74.97 18.00  22.61 2563.11
   16:29:12.279.09-Sep-2020 5323.01 6244.47 74.97 18.00  22.81 2563.11
   16:29:12.479.09-Sep-2020 5323.01 6244.88 74.97 18.00  23.01 2563.11
   16:29:12.679.09-Sep-2020 5323.01 6244.88 74.97 18.00  23.21 2563.11
   16:29:12.879.09-Sep-2020 5323.01 6247.83 74.97 18.00  23.41 2563.11
   16:29:13.079.09-Sep-2020 5323.01 6251.93 74.97 18.00  23.61 2563.11
   16:29:13.279.09-Sep-2020 5323.01 6247.47 74.97 18.00  23.81 2563.11
   16:29:13.479.09-Sep-2020 5323.01 6246.16 74.97 18.00  24.01 2563.11
   16:29:13.680.09-Sep-2020 5323.01 6246.16 74.97 18.00  24.21 2563.11
   16:29:13.880.09-Sep-2020 5323.01 6246.76 74.97 18.00  24.41 2563.11
   16:29:14.080.09-Sep-2020 5323.01 6246.57 74.97 18.00  24.61 2563.11
   16:29:14.280.09-Sep-2020 5323.01 6247.37 74.97 18.00  24.81 2563.11
   16:29:14.480.09-Sep-2020 5323.01 6248.06 74.97 18.00  25.01 2563.11
   16:29:14.680.09-Sep-2020 5323.01 6248.06 74.97 18.00  25.21 2563.11
   16:29:14.880.09-Sep-2020 5323.01 6248.05 74.97 18.00  25.41 2563.11
   16:29:15.080.09-Sep-2020 5323.01 6248.08 74.97 18.00  25.61 2563.11
   16:29:15.280.09-Sep-2020 5323.01 6248.52 74.97 18.00  25.81 2563.11
   16:29:15.480.09-Sep-2020 5323.01 6249.10 74.97 18.00  26.01 2563.11
   16:29:15.680.09-Sep-2020 5323.01 6249.10 74.97 18.00  26.21 2563.11
   16:29:15.881.09-Sep-2020 5323.01 6250.25 74.97 18.00  26.41 2563.11
   16:29:16.081.09-Sep-2020 5323.01 6249.86 74.97 18.00  26.61 2563.11
   16:29:16.281.09-Sep-2020 5323.01 6252.01 74.97 18.00  26.81 2563.11
   16:29:16.481.09-Sep-2020 5323.01 6255.85 74.97 18.00  27.01 2563.11
   16:29:16.681.09-Sep-2020 5323.01 6255.85 74.97 18.00  27.21 2563.11
   16:29:16.881.09-Sep-2020 5323.01 6250.94 74.97 18.00  27.41 2563.11
   16:29:17.081.09-Sep-2020 5323.01 6251.45 74.97 18.00  27.61 2563.11
   16:29:17.281.09-Sep-2020 5323.01 6251.91 74.97 18.00  27.81 2563.11
   16:29:17.481.09-Sep-2020 5323.01 6259.14 74.97 18.00  28.01 2563.11
   16:29:17.681.09-Sep-2020 5323.01 6259.14 74.97 18.00  28.21 2563.11
   16:29:17.882.09-Sep-2020 5323.01 6253.67 74.97 18.00  28.41 2563.11
   16:29:18.082.09-Sep-2020 5323.01 6253.34 74.97 18.00  28.61 2563.11
   16:29:18.282.09-Sep-2020 5323.01 6252.95 74.97 18.00  28.81 2563.11
   16:29:18.482.09-Sep-2020 5323.01 6261.78 74.97 18.00  29.01 2563.11
   16:29:18.682.09-Sep-2020 5323.01 6261.78 74.97 18.00  29.21 2563.11
   16:29:18.882.09-Sep-2020 5323.01 6255.31 74.97 18.00  29.41 2563.11
   16:29:19.082.09-Sep-2020 5323.01 6255.68 74.97 18.00  29.61 2563.11
   16:29:19.282.09-Sep-2020 5323.01 6255.36 74.97 18.00  29.81 2563.11
   16:29:19.482.09-Sep-2020 5323.01 6256.02 74.97 18.00  30.01 2563.11
   16:29:19.682.09-Sep-2020 5323.01 6256.02 74.97 18.00  30.21 2563.11
   16:29:19.883.09-Sep-2020 5323.01 6257.17 74.97 18.00  30.41 2563.11
   16:29:20.083.09-Sep-2020 5323.01 6257.67 74.97 18.00  30.61 2563.11
   16:29:20.283.09-Sep-2020 5323.01 6257.69 74.97 18.00  30.81 2563.11
   16:29:20.483.09-Sep-2020 5323.01 6257.78 74.97 18.00  31.01 2563.11
   16:29:20.683.09-Sep-2020 5323.01 6257.78 74.97 18.00  31.21 2563.11
   16:29:20.883.09-Sep-2020 5323.01 6260.44 74.97 18.00  31.42 2563.11
   16:29:21.083.09-Sep-2020 5323.01 6264.92 74.97 18.00  31.62 2563.11
   16:29:21.283.09-Sep-2020 5323.01 6260.72 74.97 18.00  31.82 2563.11
   16:29:21.483.09-Sep-2020 5323.01 6259.60 74.97 18.00  32.02 2563.11
   16:29:21.683.09-Sep-2020 5323.01 6259.60 74.97 18.00  32.22 2563.11
   16:29:21.883.09-Sep-2020 5323.01 6261.15 74.97 18.00  32.42 2563.11
   16:29:22.084.09-Sep-2020 5323.01 6261.18 74.97 18.00  32.62 2563.11
   16:29:22.284.09-Sep-2020 5323.01 6261.63 74.97 18.00  32.82 2563.11
   16:29:22.484.09-Sep-2020 5323.01 6262.33 74.97 18.00  33.02 2563.11
   16:29:22.684.09-Sep-2020 5323.01 6263.12 74.97 18.00  33.22 2563.11
   16:29:22.884.09-Sep-2020 5323.01 6263.31 74.97 18.00  33.42 2563.11
   16:29:23.084.09-Sep-2020 5323.01 6262.95 74.97 18.00  33.62 2563.11
   16:29:23.284.09-Sep-2020 5323.01 6262.97 74.97 18.00  33.82 2563.11
   16:29:23.484.09-Sep-2020 5323.01 6263.34 74.97 18.00  34.02 2563.11
   16:29:23.684.09-Sep-2020 5323.01 6263.34 74.97 18.00  34.22 2563.11
   16:29:23.884.09-Sep-2020 5323.01 6303.05 74.97 18.00  34.42 2563.11
   16:29:24.085.09-Sep-2020 5323.01 6306.25 74.97 18.00  34.62 2563.11
   16:29:24.285.09-Sep-2020 5323.01 6312.43 74.97 18.00  34.82 2563.11
   16:29:24.485.09-Sep-2020 5323.01 6320.55 74.97 18.00  35.02 2563.11
   16:29:24.685.09-Sep-2020 5323.01 6320.55 74.97 18.00  35.22 2563.11
   16:29:24.885.09-Sep-2020 5323.01 6326.96 74.97 18.00  35.42 2563.11
   16:29:25.085.09-Sep-2020 5323.01 6326.19 74.97 18.00  35.62 2563.11
   16:29:25.285.09-Sep-2020 5323.01 6321.65 74.97 18.00  35.82 2563.11
   16:29:25.485.09-Sep-2020 5323.01 6315.45 74.97 18.00  36.02 2563.11
   16:29:25.685.09-Sep-2020 5323.01 6315.45 74.97 18.00  36.22 2563.11
   16:29:25.885.09-Sep-2020 5323.01 6287.94 74.97 18.00  36.42 2563.11
   16:29:26.085.09-Sep-2020 5323.01 6266.92 74.97 18.00  36.62 2563.11
   16:29:26.286.09-Sep-2020 5323.01 6245.28 74.97 18.00  36.82 2563.11
   16:29:26.486.09-Sep-2020 5323.01 6221.36 74.97 18.00  37.02 2563.11
   16:29:26.686.09-Sep-2020 5323.01 6221.36 74.97 18.00  37.22 2563.11
   16:29:26.886.09-Sep-2020 5323.01 6174.80 74.97 18.00  37.42 2563.11
   16:29:27.086.09-Sep-2020 5323.01 6150.71 74.97 18.00  37.62 2563.11
   16:29:27.286.09-Sep-2020 5323.01 6126.80 74.97 18.00  37.82 2563.11
   16:29:27.486.09-Sep-2020 5323.01 6103.36 74.97 18.00  38.02 2563.11
   16:29:27.686.09-Sep-2020 5323.01 6103.36 74.97 18.00  38.22 2563.11
   16:29:27.886.09-Sep-2020 5323.01 6058.56 74.97 18.00  38.42 2563.11
   16:29:28.086.09-Sep-2020 5323.01 6039.70 74.97 18.00  38.62 2563.11
   16:29:28.287.09-Sep-2020 5323.01 6029.83 74.97 18.00  38.82 2563.11
   16:29:28.487.09-Sep-2020 5323.01 6017.94 74.97 18.00  39.02 2563.11
   16:29:28.687.09-Sep-2020 5323.01 6017.94 74.97 18.00  39.22 2563.11
   16:29:28.887.09-Sep-2020 5323.01 5992.47 74.97 18.00  39.42 2563.11
   16:29:29.087.09-Sep-2020 5323.01 5930.70 74.97 18.00  39.62 2563.11
   16:29:29.287.09-Sep-2020 5323.01 5381.91 74.97 18.00  39.82 2563.11
   16:29:29.487.09-Sep-2020 5323.01 4698.86 74.97 18.00  40.02 2563.11
   16:29:29.687.09-Sep-2020 5323.01 4698.86 74.97 18.00  40.22 2563.11
   16:29:29.887.09-Sep-2020 5323.01 4310.96 74.96 18.00  40.42 2563.11
   16:29:30.087.09-Sep-2020 5323.01 3994.52 74.96 18.00  40.62 2563.11
   16:29:30.287.09-Sep-2020 5323.01 3890.03 74.96 18.00  40.82 2563.11
   16:29:30.488.09-Sep-2020 5323.01 3897.17 74.96 18.00  41.02 2563.11
   16:29:30.688.09-Sep-2020 5323.01 3897.17 74.96 18.00  41.22 2563.11
   16:29:30.888.09-Sep-2020 5323.01 3896.51 74.96 18.00  41.42 2563.11
   16:29:31.088.09-Sep-2020 5323.01 3895.71 74.96 18.00  41.62 2563.11
   16:29:31.288.09-Sep-2020 5323.01 3894.59 74.96 18.00  41.82 2563.11
   16:29:31.488.09-Sep-2020 5323.01 3895.43 74.95 18.00  42.02 2563.11
   16:29:31.688.09-Sep-2020 5323.01 3900.32 74.95 18.00  42.22 2563.11
   16:29:31.888.09-Sep-2020 5323.01 3902.88 74.95 18.00  42.42 2563.11
   16:29:32.088.09-Sep-2020 5323.01 3902.76 74.95 18.00  42.62 2563.11
   16:29:32.288.09-Sep-2020 5323.01 3904.18 74.95 18.00  42.82 2563.11
   16:29:32.489.09-Sep-2020 5323.01 3903.83 74.94 18.00  43.02 2563.11
   16:29:32.689.09-Sep-2020 5323.01 3903.83 74.94 18.00  43.22 2563.11
   16:29:32.889.09-Sep-2020 5323.01 3901.91 74.94 18.00  43.42 2563.11
   16:29:33.089.09-Sep-2020 5323.01 3900.25 74.94 18.00  43.62 2563.11
   16:29:33.289.09-Sep-2020 5323.01 3900.74 74.94 18.00  43.82 2563.11
   16:29:33.489.09-Sep-2020 5323.01 3901.71 74.93 18.00  44.02 2563.11
   16:29:33.689.09-Sep-2020 5323.01 3901.71 74.93 18.00  44.22 2563.11
   16:29:33.889.09-Sep-2020 5323.01 3902.22 74.93 18.00  44.42 2563.11
   16:29:34.089.09-Sep-2020 5323.01 3901.27 74.93 18.00  44.62 2563.11
   16:29:34.289.09-Sep-2020 5323.01 3899.88 74.93 18.00  44.82 2563.11
   16:29:34.490.09-Sep-2020 5323.01 3901.35 74.92 18.00  45.02 2563.11
