~Version Information
 VERS.                  2.0:   CWLS log ASCII Standard -VERSION 2.0
 WRAP.                   NO:   One line per depth step
~Well Information Block
#MNEM.UNIT     VALUE/NAME     DESCRIPTION
#---------     -----------    ---------------------------
 STRT.S             12:11:10 09-Sep-20: START TIME 12:11:10 09-Sep-20
 STOP.S             12:17:44 09-Sep-20: STOP TIME  12:17:44 09-Sep-20
 STEP.S                   0.00: STEP TIME
 NULL.                 -999.25: NULL VALUE
 MDS .        Operator Entered:  MAG DATA SOURCE
 PDAT.          Mean Sea Level:  PERMANENT DATUM
 DCON.         Sperry Drilling:  DIRECTNL CONTR
 RIG .              West Azeri:  RIG NAME
 WELL.           C40 (Slot 20):  WELL NAME
 SRVC.     Turan Drilling Engineering:  CONTRACTOR
 FLD .                     ACG:  FIELD NAME
 CTRY.              Azerbaijan:  COUNTRY NAME
 PROV.                    Baku:  PROVINCE
 STAT.                    Baku:  STATE NAME
 REGN.                   EESSA:  REGION
 BASE.              Azerbaijan:  LOGGING EQUIPMENT BASE LOCATION
 COMP.     BP Exploration (Caspian Sea) Ltd:  COMPANY
 WTYP.                Deviated:  WELL TYPE
 SON .        AZ-XX-0906344804:  JOB NUMBER
 FTOP.          Formation Tops:  FORM TOPS DESC
 ILTD.               Lithology:  INTERP LTH DESC
 SVYD.                  Survey:  SURVEY DESC
 DMOD.             Drill Model:  DRILL MOD DESC
 HPTY.       Minimum Curvature:  HOLE POS TYPE
 NREF.                    Grid:  NORTH REFERENCE
 SPUD.               01-Jan-20:  SPUD DATE
 DATE.      00.59.44 15-Sep-20:  END TIME
 STIM.      12.00.00 12-Jun-20:  START TIME
 DMF .             Drill Floor:  DRILL MEAS FROM
 DFST.                        :  DIST FSL TEXT
 DFWT.                        :  DIST FWL TEXT
 API .                        :  API NUMBER
 CNTY.                        :  COUNTY
 UWI .                        :  UNIQUE WELL IDENTIFIER
 LOC .                        :  LOCATION
 LMF .             Drill Floor:  LOG MEASURED FROM
 VSNS.m                   2.88:  VERT SEC N/S
 VSEW.m                  -3.84:  VERT SEC E/W
 AGAP.m                  43.42:  AIR GAP
 APD .m                  43.42:  DEPTH ABOVE PD
 WDMS.m                 118.27:  WD ELEV
 EGL .m                   0.00:  GROUND ELEVATION
 EPD .m                   0.00:  ELEVATION
 AZTC.deg                 6.23:  AZM TOTAL CORR
 GRDC.deg                 0.20:  GRID CORRECTION
 MDEC.deg                 6.43:  MAGNETIC DECL
 MDIP.deg                59.49:  MAGNETIC DIP
 MFLD.nT              50277.00:  MAGNETIC FIELD
 GVFD.g                   1.00:  GRAVITY FIELD
 VSDR.deg               173.20:  VERT SEC DIRECT
 TDD .m                5790.01:  TOTAL DEPTH (DRILLER)
 SDEP.m                5231.01:  START DEPTH
 DFSL.m                   0.00:  DISTANCE FSL
 DFWL.m                   0.00:  DISTANCE FWL
 UTMY.m             4435808.83:  UTM Y
 UTMX.m              526266.40:  UTM X
 WHEW.m                  -3.84:  WELL HEAD E/W
 WHNS.m                   2.88:  WELL HEAD N/S
 LONG.deg                51.31:  LONGITUDE
 LATI.deg                40.06:  LATITUDE
 TVDS.m                  43.42:  TVDSS CORRECTN
 DEP .m                 430.08:  DEPTH
 EKB .m                  43.42:  KB ELEVATION
 EDF .m                  43.42:  DF ELEVATION
 TDL .m                 559.00:  TOTAL DEPTH (LOGGER)
 MAGU.                 1849381:  MAGUTM CHECKSUM
 VSC .                       0:  VS TO CLOSURE
~Parameter Information Block
#MNEM.UNIT       Value        Description
#---------     -----------    ---------------------------
 AV  .mps                 4.87:  Ann Velocity 
 AVMX.mps                 7.08:  Max Ann Veloc 
 AZIF.deg               108.87:  Azm, Final 
 BHAT.                  Rotary:  BHA Type 
 BROT.°/30m               0.35:  Build Rotating 
 BS  .in                  8.50:  Bit Size 
 BSZ .in                  8.50:  Bit Size 
 BTPL.psig              360.00:  Bit Press Loss 
 CABU.                     Yes:  Customer Abuse 
 COMM.                     œ-L:  Run Comments 1 
 TCS .hr                106.24:  Time Ciculation Ended 
 CV  .mps                 1.77:  Crit Velocity 
 CVMX.mps                 2.03:  Max Crit Veloc 
 DD1 .         Aykhan Agagulov:  Direct Drillr 1 
 DD2 .            Nonso Okofor:  Direct Drillr 2 
 DDSV.               Geo-Pilot:  DD Service 
 DEFF.%                  98.00:  % Det Eff 
 DLRX.°/30m               0.50:  Dogleg Rot Max 
 DLSO.°/30m               0.40:  Dogleg Oriented 
 DLSX.°/30m               0.94:  Dogleg Str Max 
 DRET.      20.30.00 08-Sep-20:  Drill End Time 
 DRST.      22.15.00 06-Sep-20:  Drill Start Tim 
 DTIM.hr                 31.31:  Time Drilling 
 EDEP.m                5790.01:  End Depth 
 ENG1.           Amrah Tahirov:  Engineer 1 
 ENG2.         Dair Mahammadov:  Engineer 2 
 ENG3.           Emil Huseynov:  Engineer 3 
 ETIM.      04.01.04 12-Sep-20:  End Time 
 FLOI.gpm               450.00:  Flow In 
 FLON.gpm               450.00:  Flow In Min 
 FLOS.cptm                2.00:  Fluid Loss 
 FLOX.gpm               450.00:  Flow In Max 
 FTRO.       Formation Presure:  FTWD Run Obj 
 HFLO.                      No:  High Flow 
 HPRE.                      No:  High Pressure 
 HTEM.                      No:  High Temp 
 HYDO.m                   1.80:  Hydro Offset 
 IFIN.deg                72.03:  Inc, Final 
 IMAX.deg                73.72:  Inc Max 
 IMIN.deg                70.94:  Inc Min 
 IMND.m                5508.52:  Inc Min Depth 
 IMXD.m                5253.60:  Inc Max Depth 
 JARR.                      No:  Jarring 
 LETM.      20.30.00 08-Sep-20:  Log End Time 
 LOST.hr                     0:  Lost Rig Time 
 LSTM.      22.15.00 06-Sep-20:  Log Start Time 
 MDCL.ppm             36000.00:  Mud Chlorides 
 MDES.     Inversion Oil/Synthetic:  Mud Desc 
 DFD .sg                  1.44:  Mud Density 
 MDMN.sg                  1.44:  Dens Mud Min 
 MDMX.sg                  1.57:  Dens Mud Max 
 MOIL.                      70:  Run Mud Oil % 
 MOWR.                   70:30:  Run Mud OWR 
 MSND.                       0:  Run Mud Sand % 
 MSOL.                      21:  Run Mud Solids% 
 DFV .spqt               68.00:  Mud Viscosity 
 MWOD.in                  6.75:  MWD Tool OD 
 MWSI.                     Yes:  Serv Intrp, MWD 
 OTIM.hr                174.84:  Time Operating 
 PCON.           Look Like New:  Pad Condition 
 PMAX.psia            10616.93:  Press Op, Max 
 PV  .cP                 50.00:  Mud PV 
 RUN .                     700:  Run Number 
 ROPA.m/hr               14.24:  ROP Avg 
 ROPN.m/hr               10.00:  ROP Min 
 ROPX.m/hr               32.00:  ROP Max 
 RPMA.rpm               120.90:  RPM Surface Avg 
 RPMN.rpm               120.00:  RPM Surface Min 
 RPMX.rpm               140.00:  RPM Surface Max 
 RRUN.                    0700:  Rig Run Number 
 RTIM.hr                  3.20:  Time Reaming 
 SAZI.deg               109.99:  Azm, Start 
 SDEP.m                5231.01:  Start Depth 
 SIDD.                      No:  Serv Intrp, DD 
 SINC.deg                73.72:  Inc, Start 
 SPPA.psig             3051.00:  SPP Avg 
 SPPN.psig             2950.00:  SPP Min 
 SPPX.psig             3250.00:  SPP Max 
 STIM.      08.00.00 05-Sep-20:  Start Time 
 SVCS.                 DD, MWD:  Services 
 SVER.                    9.20:  Sperry Version 
 TDAT.m                 559.00:  Tot Depth Attmp 
 TDDF.                      No:  Trip for DD 
 TDLG.m                 559.00:  Tot Depth Loggd 
 TFF .                      No:  Trip for Fail 
 TQAA.f-kp               26.49:  Torque Abs Avg 
 TQAN.f-kp               25.00:  Torque Abs Min 
 TQAX.f-kp               27.00:  Torque Abs Max 
 TRRT.°/30m               1.50:  Turn Rotating 
 MRT .                    HCIM:  Maximum Recorded Temperature 
 TTMX.degC               90.20:  Max Tool Temp 
 VS01.                90542671:  Virtual Str1 SN 
 VS02.                90545185:  Virtual Str2 SN 
 VS03.                90602015:  Virtual Str3 SN 
 VS04.                90515230:  Virtual Str4 SN 
 WBMN.klb                 5.00:  WOB Min 
 WOBA.klb                14.79:  WOB Avg 
 WOBX.klb                20.00:  WOB Max 
 YP  .lhf2               29.00:  Yield Point 
~Curve Information Block
#MNEM.UNIT                 API CODE     Curve Description
#---------               -----------    ---------------------------
 TIME.HHMMSS            00 000 000 000:  GT Time & Date
 GTDEPTH.m              00 000 000 000:  GT Depth
 GTPQH.psia             00 000 000 000:  GT HR Quartz Pressure
 GTTQ.degC              00 000 000 000:  GT Quartz Temperature
 GTTN.NONE              00 000 000 000:  GT Test Number
 GTET.sec               00 000 000 000:  GT Elapsed Test Time
 GTTVD.m                00 000 000 000:  GT True Vertical Depth
#Other Information
#
#WARRANTY: Halliburton will use its best efforts to furnish customers with 
#accurate information and interpretations that are part of, and incident to, the services 
#provided.  However, Halliburton cannot and does not warrant the accuracy 
#or correctness of such information and interpretations.  Under no circumstances should any 
#such information or interpretation be relied upon as the sole basis for any drilling, 
#completion, production, or financial decision or any procedure involving any risk to the 
#safety of any drilling venture, drilling rig or its crew or any other third party.  The 
#Customer has full responsibility for all drilling, completion and production operation.  
#Halliburton makes no representations or warranties, either expressed or 
#implied, including, but not limited to, the implied warranties of merchantability or fitness 
#for a particular purpose, with respect to the services rendered.  In no event will 
#Halliburton be liable for failure to obtain any particular results or for 
#any damages, including, but not limited to, indirect, special or consequential damages, 
#resulting from the use of any information or interpretation provided by Halliburton.
#
~A           TIME           GTDEPTH  GTPQH  GTTQ  GTTN   GTET   GTTVD  
# ...
   12:12:17.800.09-Sep-2020 5424.01  635.59 75.63 13.00  67.80 2594.63
   12:12:18.000.09-Sep-2020 5424.01  636.98 75.63 13.00  68.00 2594.63
   12:12:18.200.09-Sep-2020 5424.01  636.98 75.63 13.00  68.20 2594.63
   12:12:18.400.09-Sep-2020 5424.01  639.96 75.64 13.00  68.40 2594.63
   12:12:18.600.09-Sep-2020 5424.01  640.46 75.64 13.00  68.60 2594.63
   12:12:18.800.09-Sep-2020 5424.01  642.33 75.64 13.00  68.80 2594.63
   12:12:19.000.09-Sep-2020 5424.01  643.78 75.64 13.00  69.00 2594.63
   12:12:19.200.09-Sep-2020 5424.01  643.78 75.64 13.00  69.20 2594.63
   12:12:19.400.09-Sep-2020 5424.01  646.66 75.64 13.00  69.40 2594.63
   12:12:19.600.09-Sep-2020 5424.01  647.16 75.64 13.00  69.60 2594.63
   12:12:19.800.09-Sep-2020 5424.01  648.98 75.64 13.00  69.80 2594.63
   12:12:20.000.09-Sep-2020 5424.01  650.36 75.64 13.00  70.00 2594.63
   12:12:20.200.09-Sep-2020 5424.01  651.70 75.64 13.00  70.20 2594.63
   12:12:20.400.09-Sep-2020 5424.01  652.17 75.64 13.00  70.40 2594.63
   12:12:20.600.09-Sep-2020 5424.01  654.55 75.64 13.00  70.60 2594.63
   12:12:20.800.09-Sep-2020 5424.01  655.59 75.64 13.00  70.80 2594.63
   12:12:21.000.09-Sep-2020 5424.01  656.88 75.64 13.00  71.00 2594.63
   12:12:21.200.09-Sep-2020 5424.01  656.88 75.64 13.00  71.20 2594.63
   12:12:21.400.09-Sep-2020 5424.01  659.60 75.64 13.00  71.40 2594.63
   12:12:21.600.09-Sep-2020 5424.01  659.78 75.64 13.00  71.60 2594.63
   12:12:21.800.09-Sep-2020 5424.01  662.08 75.64 13.00  71.80 2594.63
   12:12:22.000.09-Sep-2020 5424.01  663.14 75.64 13.00  72.00 2594.63
   12:12:22.200.09-Sep-2020 5424.01  663.14 75.64 13.00  72.20 2594.63
   12:12:22.400.09-Sep-2020 5424.01  665.58 75.65 13.00  72.40 2594.63
   12:12:22.600.09-Sep-2020 5424.01  666.98 75.65 13.00  72.60 2594.63
   12:12:22.800.09-Sep-2020 5424.01  668.12 75.65 13.00  72.80 2594.63
   12:12:23.000.09-Sep-2020 5424.01  669.34 75.65 13.00  73.00 2594.63
   12:12:23.200.09-Sep-2020 5424.01  669.34 75.65 13.00  73.20 2594.63
   12:12:23.400.09-Sep-2020 5424.01  671.79 75.65 13.00  73.40 2594.63
   12:12:23.600.09-Sep-2020 5424.01  673.01 75.65 13.00  73.60 2594.63
   12:12:23.800.09-Sep-2020 5424.01  674.23 75.65 13.00  73.80 2594.63
   12:12:24.000.09-Sep-2020 5424.01  675.45 75.65 13.00  74.00 2594.63
   12:12:24.200.09-Sep-2020 5424.01  675.45 75.65 13.00  74.20 2594.63
   12:12:24.400.09-Sep-2020 5424.01  677.83 75.65 13.00  74.40 2594.63
   12:12:24.600.09-Sep-2020 5424.01  679.04 75.65 13.00  74.60 2594.63
   12:12:24.800.09-Sep-2020 5424.01  680.25 75.65 13.00  74.80 2594.63
   12:12:25.000.09-Sep-2020 5424.01  681.52 75.65 13.00  75.00 2594.63
   12:12:25.200.09-Sep-2020 5424.01  681.52 75.65 13.00  75.20 2594.63
   12:12:25.400.09-Sep-2020 5424.01  684.22 75.65 13.00  75.40 2594.63
   12:12:25.600.09-Sep-2020 5424.01  685.38 75.65 13.00  75.60 2594.63
   12:12:25.800.09-Sep-2020 5424.01  686.66 75.65 13.00  75.80 2594.63
   12:12:26.000.09-Sep-2020 5424.01  687.94 75.65 13.00  76.00 2594.63
   12:12:26.200.09-Sep-2020 5424.01  687.94 75.65 13.00  76.20 2594.63
   12:12:26.400.09-Sep-2020 5424.01  690.57 75.65 13.00  76.40 2594.63
   12:12:26.600.09-Sep-2020 5424.01  691.85 75.65 13.00  76.60 2594.63
   12:12:26.800.09-Sep-2020 5424.01  693.10 75.65 13.00  76.80 2594.63
   12:12:27.000.09-Sep-2020 5424.01  694.34 75.65 13.00  77.00 2594.63
   12:12:27.200.09-Sep-2020 5424.01  695.61 75.66 13.00  77.20 2594.63
   12:12:27.400.09-Sep-2020 5424.01  696.82 75.66 13.00  77.40 2594.63
   12:12:27.600.09-Sep-2020 5424.01  698.00 75.66 13.00  77.60 2594.63
   12:12:27.800.09-Sep-2020 5424.01  699.22 75.66 13.00  77.80 2594.63
   12:12:28.000.09-Sep-2020 5424.01  700.44 75.66 13.00  78.00 2594.63
   12:12:28.200.09-Sep-2020 5424.01  701.70 75.66 13.00  78.20 2594.63
   12:12:28.400.09-Sep-2020 5424.01  701.95 75.66 13.00  78.40 2594.63
   12:12:28.600.09-Sep-2020 5424.01  704.22 75.66 13.00  78.60 2594.63
   12:12:28.800.09-Sep-2020 5424.01  705.29 75.66 13.00  78.80 2594.63
   12:12:29.000.09-Sep-2020 5424.01  706.50 75.66 13.00  79.00 2594.63
   12:12:29.200.09-Sep-2020 5424.01  706.50 75.66 13.00  79.20 2594.63
   12:12:29.400.09-Sep-2020 5424.01  709.09 75.66 13.00  79.40 2594.63
   12:12:29.600.09-Sep-2020 5424.01  709.15 75.66 13.00  79.60 2594.63
   12:12:29.800.09-Sep-2020 5424.01  711.52 75.66 13.00  79.80 2594.63
   12:12:30.000.09-Sep-2020 5424.01  712.55 75.66 13.00  80.00 2594.63
   12:12:30.200.09-Sep-2020 5424.01  712.55 75.66 13.00  80.20 2594.63
   12:12:30.400.09-Sep-2020 5424.01  714.93 75.66 13.00  80.40 2594.63
   12:12:30.600.09-Sep-2020 5424.01  716.32 75.66 13.00  80.60 2594.63
   12:12:30.800.09-Sep-2020 5424.01  716.51 75.66 13.00  80.80 2594.63
   12:12:31.000.09-Sep-2020 5424.01  718.94 75.66 13.00  81.00 2594.63
   12:12:31.200.09-Sep-2020 5424.01  720.10 75.66 13.00  81.20 2594.63
   12:12:31.400.09-Sep-2020 5424.01  721.32 75.66 13.00  81.40 2594.63
   12:12:31.600.09-Sep-2020 5424.01  721.58 75.66 13.00  81.60 2594.63
   12:12:31.800.09-Sep-2020 5424.01  723.98 75.66 13.00  81.80 2594.63
   12:12:32.000.09-Sep-2020 5424.01  724.96 75.66 13.00  82.00 2594.63
   12:12:32.200.09-Sep-2020 5424.01  726.01 75.66 13.00  82.20 2594.63
   12:12:32.400.09-Sep-2020 5424.01  726.90 75.66 13.00  82.40 2594.63
   12:12:32.600.09-Sep-2020 5424.01  728.12 75.66 13.00  82.60 2594.63
   12:12:32.800.09-Sep-2020 5424.01  729.13 75.66 13.00  82.80 2594.63
   12:12:33.000.09-Sep-2020 5424.01  735.85 75.67 13.00  83.00 2594.63
   12:12:33.200.09-Sep-2020 5424.01  735.85 75.67 13.00  83.20 2594.63
   12:12:33.400.09-Sep-2020 5424.01  737.87 75.67 13.00  83.40 2594.63
   12:12:33.600.09-Sep-2020 5424.01  738.96 75.67 13.00  83.60 2594.63
   12:12:33.800.09-Sep-2020 5424.01  740.01 75.67 13.00  83.80 2594.63
   12:12:34.000.09-Sep-2020 5424.01  741.07 75.67 13.00  84.00 2594.63
   12:12:34.200.09-Sep-2020 5424.01  741.07 75.67 13.00  84.20 2594.63
   12:12:34.400.09-Sep-2020 5424.01  743.15 75.67 13.00  84.40 2594.63
   12:12:34.600.09-Sep-2020 5424.01  744.19 75.67 13.00  84.60 2594.63
   12:12:34.800.09-Sep-2020 5424.01  745.26 75.67 13.00  84.80 2594.63
   12:12:35.000.09-Sep-2020 5424.01  746.31 75.67 13.00  85.00 2594.63
   12:12:35.200.09-Sep-2020 5424.01  747.35 75.67 13.00  85.20 2594.63
   12:12:35.400.09-Sep-2020 5424.01  748.40 75.67 13.00  85.40 2594.63
   12:12:35.600.09-Sep-2020 5424.01  749.42 75.67 13.00  85.60 2594.63
   12:12:35.800.09-Sep-2020 5424.01  749.69 75.67 13.00  85.80 2594.63
   12:12:36.000.09-Sep-2020 5424.01  751.37 75.67 13.00  86.00 2594.63
   12:12:36.200.09-Sep-2020 5424.01  751.37 75.67 13.00  86.20 2594.63
   12:12:36.400.09-Sep-2020 5424.01  753.49 75.67 13.00  86.40 2594.63
   12:12:36.600.09-Sep-2020 5424.01  754.66 75.67 13.00  86.60 2594.63
   12:12:36.800.09-Sep-2020 5424.01  755.54 75.67 13.00  86.80 2594.63
   12:12:37.000.09-Sep-2020 5424.01  756.56 75.67 13.00  87.00 2594.63
   12:12:37.200.09-Sep-2020 5424.01  756.56 75.67 13.00  87.20 2594.63
   12:12:37.400.09-Sep-2020 5424.01  758.56 75.67 13.00  87.40 2594.63
   12:12:37.600.09-Sep-2020 5424.01  759.47 75.67 13.00  87.60 2594.63
   12:12:37.800.09-Sep-2020 5424.01  760.46 75.67 13.00  87.80 2594.63
   12:12:38.000.09-Sep-2020 5424.01  761.45 75.67 13.00  88.00 2594.63
   12:12:38.200.09-Sep-2020 5424.01  761.45 75.67 13.00  88.20 2594.63
   12:12:38.400.09-Sep-2020 5424.01  763.43 75.67 13.00  88.40 2594.63
   12:12:38.600.09-Sep-2020 5424.01  764.38 75.67 13.00  88.60 2594.63
   12:12:38.800.09-Sep-2020 5424.01  765.29 75.67 13.00  88.80 2594.63
   12:12:39.000.09-Sep-2020 5424.01  765.44 75.67 13.00  89.00 2594.63
   12:12:39.200.09-Sep-2020 5424.01  767.07 75.67 13.00  89.20 2594.63
   12:12:39.400.09-Sep-2020 5424.01  768.11 75.67 13.00  89.40 2594.63
   12:12:39.600.09-Sep-2020 5424.01  769.08 75.67 13.00  89.60 2594.63
   12:12:39.800.09-Sep-2020 5424.01  770.18 75.67 13.00  89.80 2594.63
   12:12:40.000.09-Sep-2020 5424.01  770.76 75.67 13.00  90.00 2594.63
   12:12:40.200.09-Sep-2020 5424.01  770.76 75.67 13.00  90.20 2594.63
