~Version Information
 VERS.                  2.0:   CWLS log ASCII Standard -VERSION 2.0
 WRAP.                   NO:   One line per depth step
~Well Information Block
#MNEM.UNIT     VALUE/NAME     DESCRIPTION
#---------     -----------    ---------------------------
 STRT.S             18:19:19 09-Sep-20: START TIME 18:19:19 09-Sep-20
 STOP.S             18:27:34 09-Sep-20: STOP TIME  18:27:34 09-Sep-20
 STEP.S                   0.00: STEP TIME
 NULL.                 -999.25: NULL VALUE
 MDS .        Operator Entered:  MAG DATA SOURCE
 PDAT.          Mean Sea Level:  PERMANENT DATUM
 DCON.         Sperry Drilling:  DIRECTNL CONTR
 RIG .              West Azeri:  RIG NAME
 WELL.           C40 (Slot 20):  WELL NAME
 SRVC.     Turan Drilling Engineering:  CONTRACTOR
 FLD .                     ACG:  FIELD NAME
 CTRY.              Azerbaijan:  COUNTRY NAME
 PROV.                    Baku:  PROVINCE
 STAT.                    Baku:  STATE NAME
 REGN.                   EESSA:  REGION
 BASE.              Azerbaijan:  LOGGING EQUIPMENT BASE LOCATION
 COMP.     BP Exploration (Caspian Sea) Ltd:  COMPANY
 WTYP.                Deviated:  WELL TYPE
 SON .        AZ-XX-0906344804:  JOB NUMBER
 FTOP.          Formation Tops:  FORM TOPS DESC
 ILTD.               Lithology:  INTERP LTH DESC
 SVYD.                  Survey:  SURVEY DESC
 DMOD.             Drill Model:  DRILL MOD DESC
 HPTY.       Minimum Curvature:  HOLE POS TYPE
 NREF.                    Grid:  NORTH REFERENCE
 SPUD.               01-Jan-20:  SPUD DATE
 DATE.      00.59.44 15-Sep-20:  END TIME
 STIM.      12.00.00 12-Jun-20:  START TIME
 DMF .             Drill Floor:  DRILL MEAS FROM
 DFST.                        :  DIST FSL TEXT
 DFWT.                        :  DIST FWL TEXT
 API .                        :  API NUMBER
 CNTY.                        :  COUNTY
 UWI .                        :  UNIQUE WELL IDENTIFIER
 LOC .                        :  LOCATION
 LMF .             Drill Floor:  LOG MEASURED FROM
 VSNS.m                   2.88:  VERT SEC N/S
 VSEW.m                  -3.84:  VERT SEC E/W
 AGAP.m                  43.42:  AIR GAP
 APD .m                  43.42:  DEPTH ABOVE PD
 WDMS.m                 118.27:  WD ELEV
 EGL .m                   0.00:  GROUND ELEVATION
 EPD .m                   0.00:  ELEVATION
 AZTC.deg                 6.23:  AZM TOTAL CORR
 GRDC.deg                 0.20:  GRID CORRECTION
 MDEC.deg                 6.43:  MAGNETIC DECL
 MDIP.deg                59.49:  MAGNETIC DIP
 MFLD.nT              50277.00:  MAGNETIC FIELD
 GVFD.g                   1.00:  GRAVITY FIELD
 VSDR.deg               173.20:  VERT SEC DIRECT
 TDD .m                5790.01:  TOTAL DEPTH (DRILLER)
 SDEP.m                5231.01:  START DEPTH
 DFSL.m                   0.00:  DISTANCE FSL
 DFWL.m                   0.00:  DISTANCE FWL
 UTMY.m             4435808.83:  UTM Y
 UTMX.m              526266.40:  UTM X
 WHEW.m                  -3.84:  WELL HEAD E/W
 WHNS.m                   2.88:  WELL HEAD N/S
 LONG.deg                51.31:  LONGITUDE
 LATI.deg                40.06:  LATITUDE
 TVDS.m                  43.42:  TVDSS CORRECTN
 DEP .m                 430.08:  DEPTH
 EKB .m                  43.42:  KB ELEVATION
 EDF .m                  43.42:  DF ELEVATION
 TDL .m                 559.00:  TOTAL DEPTH (LOGGER)
 MAGU.                 1849381:  MAGUTM CHECKSUM
 VSC .                       0:  VS TO CLOSURE
~Parameter Information Block
#MNEM.UNIT       Value        Description
#---------     -----------    ---------------------------
 AV  .mps                 4.87:  Ann Velocity 
 AVMX.mps                 7.08:  Max Ann Veloc 
 AZIF.deg               108.87:  Azm, Final 
 BHAT.                  Rotary:  BHA Type 
 BROT.°/30m               0.35:  Build Rotating 
 BS  .in                  8.50:  Bit Size 
 BSZ .in                  8.50:  Bit Size 
 BTPL.psig              360.00:  Bit Press Loss 
 CABU.                     Yes:  Customer Abuse 
 TCS .hr                106.24:  Time Ciculation Ended 
 CV  .mps                 1.77:  Crit Velocity 
 CVMX.mps                 2.03:  Max Crit Veloc 
 DD1 .         Aykhan Agagulov:  Direct Drillr 1 
 DD2 .            Nonso Okofor:  Direct Drillr 2 
 DDSV.               Geo-Pilot:  DD Service 
 DEFF.%                  98.00:  % Det Eff 
 DLRX.°/30m               0.50:  Dogleg Rot Max 
 DLSO.°/30m               0.40:  Dogleg Oriented 
 DLSX.°/30m               0.94:  Dogleg Str Max 
 DRET.      20.30.00 08-Sep-20:  Drill End Time 
 DRST.      22.15.00 06-Sep-20:  Drill Start Tim 
 DTIM.hr                 31.31:  Time Drilling 
 EDEP.m                5790.01:  End Depth 
 ENG1.           Amrah Tahirov:  Engineer 1 
 ENG2.         Dair Mahammadov:  Engineer 2 
 ENG3.           Emil Huseynov:  Engineer 3 
 ETIM.      04.01.04 12-Sep-20:  End Time 
 FLOI.gpm               450.00:  Flow In 
 FLON.gpm               450.00:  Flow In Min 
 FLOS.cptm                2.00:  Fluid Loss 
 FLOX.gpm               450.00:  Flow In Max 
 FTRO.       Formation Presure:  FTWD Run Obj 
 HFLO.                      No:  High Flow 
 HPRE.                      No:  High Pressure 
 HTEM.                      No:  High Temp 
 HYDO.m                   1.80:  Hydro Offset 
 IFIN.deg                72.03:  Inc, Final 
 IMAX.deg                73.72:  Inc Max 
 IMIN.deg                70.94:  Inc Min 
 IMND.m                5508.52:  Inc Min Depth 
 IMXD.m                5253.60:  Inc Max Depth 
 JARR.                      No:  Jarring 
 LETM.      20.30.00 08-Sep-20:  Log End Time 
 LOST.hr                     0:  Lost Rig Time 
 LSTM.      22.15.00 06-Sep-20:  Log Start Time 
 MDCL.ppm             36000.00:  Mud Chlorides 
 MDES.     Inversion Oil/Synthetic:  Mud Desc 
 DFD .sg                  1.44:  Mud Density 
 MDMN.sg                  1.44:  Dens Mud Min 
 MDMX.sg                  1.57:  Dens Mud Max 
 MOIL.                      70:  Run Mud Oil % 
 MOWR.                   70:30:  Run Mud OWR 
 MSND.                       0:  Run Mud Sand % 
 MSOL.                      21:  Run Mud Solids% 
 DFV .spqt               68.00:  Mud Viscosity 
 MWOD.in                  6.75:  MWD Tool OD 
 MWSI.                     Yes:  Serv Intrp, MWD 
 OTIM.hr                174.84:  Time Operating 
 PCON.           Look Like New:  Pad Condition 
 PMAX.psia            10616.93:  Press Op, Max 
 PV  .cP                 50.00:  Mud PV 
 RUN .                     700:  Run Number 
 ROPA.m/hr               14.24:  ROP Avg 
 ROPN.m/hr               10.00:  ROP Min 
 ROPX.m/hr               32.00:  ROP Max 
 RPMA.rpm               120.90:  RPM Surface Avg 
 RPMN.rpm               120.00:  RPM Surface Min 
 RPMX.rpm               140.00:  RPM Surface Max 
 RRUN.                    0700:  Rig Run Number 
 RTIM.hr                  3.20:  Time Reaming 
 SAZI.deg               109.99:  Azm, Start 
 SDEP.m                5231.01:  Start Depth 
 SIDD.                      No:  Serv Intrp, DD 
 SINC.deg                73.72:  Inc, Start 
 SPPA.psig             3051.00:  SPP Avg 
 SPPN.psig             2950.00:  SPP Min 
 SPPX.psig             3250.00:  SPP Max 
 STIM.      08.00.00 05-Sep-20:  Start Time 
 SVCS.                 DD, MWD:  Services 
 SVER.                    9.20:  Sperry Version 
 TDAT.m                 559.00:  Tot Depth Attmp 
 TDDF.                      No:  Trip for DD 
 TDLG.m                 559.00:  Tot Depth Loggd 
 TFF .                      No:  Trip for Fail 
 TQAA.f-kp               26.49:  Torque Abs Avg 
 TQAN.f-kp               25.00:  Torque Abs Min 
 TQAX.f-kp               27.00:  Torque Abs Max 
 TRRT.°/30m               1.50:  Turn Rotating 
 MRT .                    HCIM:  Maximum Recorded Temperature 
 TTMX.degC               90.20:  Max Tool Temp 
 VS01.                90542671:  Virtual Str1 SN 
 VS02.                90545185:  Virtual Str2 SN 
 VS03.                90602015:  Virtual Str3 SN 
 VS04.                90515230:  Virtual Str4 SN 
 WBMN.klb                 5.00:  WOB Min 
 WOBA.klb                14.79:  WOB Avg 
 WOBX.klb                20.00:  WOB Max 
 YP  .lhf2               29.00:  Yield Point 
~Curve Information Block
#MNEM.UNIT                 API CODE     Curve Description
#---------               -----------    ---------------------------
 TIME.HHMMSS            00 000 000 000:  GT Time & Date
 GTDEPTH.m              00 000 000 000:  GT Depth
 GTPQH.psia             00 000 000 000:  GT HR Quartz Pressure
 GTTQ.degC              00 000 000 000:  GT Quartz Temperature
 GTTN.NONE              00 000 000 000:  GT Test Number
 GTET.sec               00 000 000 000:  GT Elapsed Test Time
 GTTVD.m                00 000 000 000:  GT True Vertical Depth
#Other Information
#
#WARRANTY: Halliburton will use its best efforts to furnish customers with 
#accurate information and interpretations that are part of, and incident to, the services 
#provided.  However, Halliburton cannot and does not warrant the accuracy 
#or correctness of such information and interpretations.  Under no circumstances should any 
#such information or interpretation be relied upon as the sole basis for any drilling, 
#completion, production, or financial decision or any procedure involving any risk to the 
#safety of any drilling venture, drilling rig or its crew or any other third party.  The 
#Customer has full responsibility for all drilling, completion and production operation.  
#Halliburton makes no representations or warranties, either expressed or 
#implied, including, but not limited to, the implied warranties of merchantability or fitness 
#for a particular purpose, with respect to the services rendered.  In no event will 
#Halliburton be liable for failure to obtain any particular results or for 
#any damages, including, but not limited to, indirect, special or consequential damages, 
#resulting from the use of any information or interpretation provided by Halliburton.
#
~A           TIME           GTDEPTH  GTPQH  GTTQ  GTTN   GTET   GTTVD  
   18:19:19.942.09-Sep-2020 5281.01 6154.03 74.68 21.00   0.00 2550.59
   18:19:20.142.09-Sep-2020 5281.01 6154.03 74.68 21.00   0.20 2550.59
   18:19:20.342.09-Sep-2020 5281.01 6153.65 74.68 21.00   0.40 2550.59
   18:19:20.542.09-Sep-2020 5281.01 6155.68 74.68 21.00   0.60 2550.59
   18:19:20.741.09-Sep-2020 5281.01 6155.46 74.68 21.00   0.80 2550.59
   18:19:20.941.09-Sep-2020 5281.01 6155.93 74.68 21.00   1.00 2550.59
   18:19:21.141.09-Sep-2020 5281.01 6155.93 74.68 21.00   1.20 2550.59
   18:19:21.341.09-Sep-2020 5281.01 6155.23 74.68 21.00   1.40 2550.59
   18:19:21.541.09-Sep-2020 5281.01 6157.73 74.68 21.00   1.60 2550.59
   18:19:21.741.09-Sep-2020 5281.01 6158.63 74.68 21.00   1.80 2550.59
   18:19:21.941.09-Sep-2020 5281.01 6158.24 74.68 21.00   2.00 2550.59
   18:19:22.140.09-Sep-2020 5281.01 6158.24 74.68 21.00   2.20 2550.59
   18:19:22.340.09-Sep-2020 5281.01 6167.47 74.68 21.00   2.40 2550.59
   18:19:22.540.09-Sep-2020 5281.01 6158.77 74.68 21.00   2.60 2550.59
   18:19:22.740.09-Sep-2020 5281.01 6161.18 74.68 21.00   2.80 2550.59
   18:19:22.940.09-Sep-2020 5281.01 6159.95 74.68 21.00   3.00 2550.59
   18:19:23.140.09-Sep-2020 5281.01 6160.63 74.68 21.00   3.20 2550.59
   18:19:23.339.09-Sep-2020 5281.01 6164.44 74.68 21.00   3.40 2550.59
   18:19:23.539.09-Sep-2020 5281.01 6162.80 74.68 21.00   3.60 2550.59
   18:19:23.739.09-Sep-2020 5281.01 6158.37 74.68 21.00   3.80 2550.59
   18:19:23.939.09-Sep-2020 5281.01 6160.60 74.68 21.00   4.00 2550.59
   18:19:24.139.09-Sep-2020 5281.01 6160.60 74.68 21.00   4.20 2550.59
   18:19:24.339.09-Sep-2020 5281.01 6164.48 74.68 21.00   4.40 2550.59
   18:19:24.538.09-Sep-2020 5281.01 6161.42 74.68 21.00   4.60 2550.59
   18:19:24.738.09-Sep-2020 5281.01 6158.77 74.68 21.00   4.80 2550.59
   18:19:24.938.09-Sep-2020 5281.01 6160.18 74.68 21.00   5.00 2550.59
   18:19:25.138.09-Sep-2020 5281.01 6160.18 74.68 21.00   5.20 2550.59
   18:19:25.338.09-Sep-2020 5281.01 6161.33 74.67 21.00   5.40 2550.59
   18:19:25.538.09-Sep-2020 5281.01 6170.70 74.67 21.00   5.60 2550.59
   18:19:25.738.09-Sep-2020 5281.01 6158.95 74.67 21.00   5.80 2550.59
   18:19:25.937.09-Sep-2020 5281.01 6163.10 74.67 21.00   6.00 2550.59
   18:19:26.137.09-Sep-2020 5281.01 6163.10 74.67 21.00   6.20 2550.59
   18:19:26.337.09-Sep-2020 5281.01 6165.23 74.67 21.00   6.39 2550.59
   18:19:26.537.09-Sep-2020 5281.01 6167.21 74.67 21.00   6.59 2550.59
   18:19:26.737.09-Sep-2020 5281.01 6167.96 74.67 21.00   6.79 2550.59
   18:19:26.937.09-Sep-2020 5281.01 6168.72 74.67 21.00   6.99 2550.59
   18:19:27.136.09-Sep-2020 5281.01 6169.16 74.67 21.00   7.19 2550.59
   18:19:27.336.09-Sep-2020 5281.01 6169.37 74.67 21.00   7.39 2550.59
   18:19:27.536.09-Sep-2020 5281.01 6169.98 74.67 21.00   7.59 2550.59
   18:19:27.736.09-Sep-2020 5281.01 6170.68 74.67 21.00   7.79 2550.59
   18:19:27.936.09-Sep-2020 5281.01 6171.13 74.67 21.00   7.99 2550.59
   18:19:28.136.09-Sep-2020 5281.01 6171.13 74.67 21.00   8.19 2550.59
   18:19:28.335.09-Sep-2020 5281.01 6171.36 74.67 21.00   8.39 2550.59
   18:19:28.535.09-Sep-2020 5281.01 6171.52 74.67 21.00   8.59 2550.59
   18:19:28.735.09-Sep-2020 5281.01 6171.80 74.67 21.00   8.79 2550.59
   18:19:28.935.09-Sep-2020 5281.01 6172.02 74.67 21.00   8.99 2550.59
   18:19:29.135.09-Sep-2020 5281.01 6172.02 74.67 21.00   9.19 2550.59
   18:19:29.335.09-Sep-2020 5281.01 6172.02 74.67 21.00   9.39 2550.59
   18:19:29.535.09-Sep-2020 5281.01 6170.61 74.67 21.00   9.59 2550.59
   18:19:29.734.09-Sep-2020 5281.01 6173.26 74.67 21.00   9.79 2550.59
   18:19:29.934.09-Sep-2020 5281.01 6172.36 74.67 21.00   9.99 2550.59
   18:19:30.134.09-Sep-2020 5281.01 6172.36 74.67 21.00  10.19 2550.59
   18:19:30.334.09-Sep-2020 5281.01 6172.83 74.67 21.00  10.39 2550.59
   18:19:30.534.09-Sep-2020 5281.01 6173.70 74.67 21.00  10.59 2550.59
   18:19:30.734.09-Sep-2020 5281.01 6173.51 74.67 21.00  10.79 2550.59
   18:19:30.933.09-Sep-2020 5281.01 6174.39 74.67 21.00  10.99 2550.59
   18:19:31.133.09-Sep-2020 5281.01 6174.52 74.67 21.00  11.19 2550.59
   18:19:31.333.09-Sep-2020 5281.01 6174.65 74.67 21.00  11.39 2550.59
   18:19:31.533.09-Sep-2020 5281.01 6174.71 74.67 21.00  11.59 2550.59
   18:19:31.733.09-Sep-2020 5281.01 6175.37 74.67 21.00  11.79 2550.59
   18:19:31.933.09-Sep-2020 5281.01 6175.87 74.67 21.00  11.99 2550.59
   18:19:32.133.09-Sep-2020 5281.01 6175.87 74.67 21.00  12.19 2550.59
   18:19:32.332.09-Sep-2020 5281.01 6175.85 74.67 21.00  12.39 2550.59
   18:19:32.532.09-Sep-2020 5281.01 6175.91 74.67 21.00  12.59 2550.59
   18:19:32.732.09-Sep-2020 5281.01 6175.90 74.67 21.00  12.79 2550.59
   18:19:32.932.09-Sep-2020 5281.01 6183.95 74.67 21.00  12.99 2550.59
   18:19:33.132.09-Sep-2020 5281.01 6183.95 74.67 21.00  13.19 2550.59
   18:19:33.332.09-Sep-2020 5281.01 6177.42 74.67 21.00  13.39 2550.59
   18:19:33.531.09-Sep-2020 5281.01 6175.83 74.67 21.00  13.59 2550.59
   18:19:33.731.09-Sep-2020 5281.01 6176.79 74.67 21.00  13.79 2550.59
   18:19:33.931.09-Sep-2020 5281.01 6176.93 74.67 21.00  13.99 2550.59
   18:19:34.131.09-Sep-2020 5281.01 6176.93 74.67 21.00  14.19 2550.59
   18:19:34.331.09-Sep-2020 5281.01 6174.58 74.67 21.00  14.39 2550.59
   18:19:34.531.09-Sep-2020 5281.01 6178.63 74.67 21.00  14.59 2550.59
   18:19:34.730.09-Sep-2020 5281.01 6178.07 74.67 21.00  14.79 2550.59
   18:19:34.930.09-Sep-2020 5281.01 6178.41 74.67 21.00  14.99 2550.59
   18:19:35.130.09-Sep-2020 5281.01 6178.41 74.67 21.00  15.19 2550.59
   18:19:35.330.09-Sep-2020 5281.01 6189.98 74.67 21.00  15.39 2550.59
   18:19:35.530.09-Sep-2020 5281.01 6176.48 74.67 21.00  15.59 2550.59
   18:19:35.730.09-Sep-2020 5281.01 6180.02 74.67 21.00  15.79 2550.59
   18:19:35.930.09-Sep-2020 5281.01 6181.02 74.67 21.00  15.99 2550.59
   18:19:36.129.09-Sep-2020 5281.01 6181.02 74.67 21.00  16.19 2550.59
   18:19:36.329.09-Sep-2020 5281.01 6182.12 74.67 21.00  16.39 2550.59
   18:19:36.529.09-Sep-2020 5281.01 6191.98 74.67 21.00  16.59 2550.59
   18:19:36.729.09-Sep-2020 5281.01 6179.63 74.67 21.00  16.79 2550.59
   18:19:36.929.09-Sep-2020 5281.01 6183.35 74.67 21.00  16.99 2550.59
   18:19:37.129.09-Sep-2020 5281.01 6183.35 74.67 21.00  17.19 2550.59
   18:19:37.328.09-Sep-2020 5281.01 6188.62 74.67 21.00  17.39 2550.59
   18:19:37.528.09-Sep-2020 5281.01 6188.35 74.67 21.00  17.59 2550.59
   18:19:37.728.09-Sep-2020 5281.01 6184.40 74.67 21.00  17.79 2550.59
   18:19:37.928.09-Sep-2020 5281.01 6186.35 74.67 21.00  17.99 2550.59
   18:19:38.128.09-Sep-2020 5281.01 6186.35 74.67 21.00  18.19 2550.59
   18:19:38.328.09-Sep-2020 5281.01 6187.46 74.67 21.00  18.39 2550.59
   18:19:38.528.09-Sep-2020 5281.01 6191.65 74.67 21.00  18.59 2550.59
   18:19:38.727.09-Sep-2020 5281.01 6190.83 74.67 21.00  18.79 2550.59
   18:19:38.927.09-Sep-2020 5281.01 6186.82 74.67 21.00  18.99 2550.59
   18:19:39.127.09-Sep-2020 5281.01 6186.82 74.67 21.00  19.18 2550.59
   18:19:39.327.09-Sep-2020 5281.01 6188.09 74.67 21.00  19.38 2550.59
   18:19:39.527.09-Sep-2020 5281.01 6189.55 74.67 21.00  19.58 2550.59
   18:19:39.727.09-Sep-2020 5281.01 6189.01 74.67 21.00  19.78 2550.59
   18:19:39.926.09-Sep-2020 5281.01 6189.99 74.67 21.00  19.98 2550.59
   18:19:40.126.09-Sep-2020 5281.01 6189.99 74.67 21.00  20.18 2550.59
   18:19:40.326.09-Sep-2020 5281.01 6191.21 74.67 21.00  20.38 2550.59
   18:19:40.526.09-Sep-2020 5281.01 6191.83 74.67 21.00  20.58 2550.59
   18:19:40.726.09-Sep-2020 5281.01 6192.75 74.67 21.00  20.78 2550.59
   18:19:40.926.09-Sep-2020 5281.01 6193.09 74.67 21.00  20.98 2550.59
   18:19:41.125.09-Sep-2020 5281.01 6193.09 74.67 21.00  21.18 2550.59
   18:19:41.325.09-Sep-2020 5281.01 6193.82 74.67 21.00  21.38 2550.59
   18:19:41.525.09-Sep-2020 5281.01 6194.07 74.67 21.00  21.58 2550.59
   18:19:41.725.09-Sep-2020 5281.01 6194.30 74.66 21.00  21.78 2550.59
   18:19:41.925.09-Sep-2020 5281.01 6194.44 74.67 21.00  21.98 2550.59
   18:19:42.125.09-Sep-2020 5281.01 6194.44 74.67 21.00  22.18 2550.59
   18:19:42.325.09-Sep-2020 5281.01 6203.57 74.66 21.00  22.38 2550.59
