~Version Information
 VERS.                  2.0:   CWLS log ASCII Standard -VERSION 2.0
 WRAP.                   NO:   One line per depth step
~Well Information Block
#MNEM.UNIT     VALUE/NAME     DESCRIPTION
#---------     -----------    ---------------------------
 STRT.S             14:18:02 09-Sep-20: START TIME 14:18:02 09-Sep-20
 STOP.S             14:26:13 09-Sep-20: STOP TIME  14:26:13 09-Sep-20
 STEP.S                   0.00: STEP TIME
 NULL.                 -999.25: NULL VALUE
 MDS .        Operator Entered:  MAG DATA SOURCE
 PDAT.          Mean Sea Level:  PERMANENT DATUM
 DCON.         Sperry Drilling:  DIRECTNL CONTR
 RIG .              West Azeri:  RIG NAME
 WELL.           C40 (Slot 20):  WELL NAME
 SRVC.     Turan Drilling Engineering:  CONTRACTOR
 FLD .                     ACG:  FIELD NAME
 CTRY.              Azerbaijan:  COUNTRY NAME
 PROV.                    Baku:  PROVINCE
 STAT.                    Baku:  STATE NAME
 REGN.                   EESSA:  REGION
 BASE.              Azerbaijan:  LOGGING EQUIPMENT BASE LOCATION
 COMP.     BP Exploration (Caspian Sea) Ltd:  COMPANY
 WTYP.                Deviated:  WELL TYPE
 SON .        AZ-XX-0906344804:  JOB NUMBER
 FTOP.          Formation Tops:  FORM TOPS DESC
 ILTD.               Lithology:  INTERP LTH DESC
 SVYD.                  Survey:  SURVEY DESC
 DMOD.             Drill Model:  DRILL MOD DESC
 HPTY.       Minimum Curvature:  HOLE POS TYPE
 NREF.                    Grid:  NORTH REFERENCE
 SPUD.               01-Jan-20:  SPUD DATE
 DATE.      00.59.44 15-Sep-20:  END TIME
 STIM.      12.00.00 12-Jun-20:  START TIME
 DMF .             Drill Floor:  DRILL MEAS FROM
 DFST.                        :  DIST FSL TEXT
 DFWT.                        :  DIST FWL TEXT
 API .                        :  API NUMBER
 CNTY.                        :  COUNTY
 UWI .                        :  UNIQUE WELL IDENTIFIER
 LOC .                        :  LOCATION
 LMF .             Drill Floor:  LOG MEASURED FROM
 VSNS.m                   2.88:  VERT SEC N/S
 VSEW.m                  -3.84:  VERT SEC E/W
 AGAP.m                  43.42:  AIR GAP
 APD .m                  43.42:  DEPTH ABOVE PD
 WDMS.m                 118.27:  WD ELEV
 EGL .m                   0.00:  GROUND ELEVATION
 EPD .m                   0.00:  ELEVATION
 AZTC.deg                 6.23:  AZM TOTAL CORR
 GRDC.deg                 0.20:  GRID CORRECTION
 MDEC.deg                 6.43:  MAGNETIC DECL
 MDIP.deg                59.49:  MAGNETIC DIP
 MFLD.nT              50277.00:  MAGNETIC FIELD
 GVFD.g                   1.00:  GRAVITY FIELD
 VSDR.deg               173.20:  VERT SEC DIRECT
 TDD .m                5790.01:  TOTAL DEPTH (DRILLER)
 SDEP.m                5231.01:  START DEPTH
 DFSL.m                   0.00:  DISTANCE FSL
 DFWL.m                   0.00:  DISTANCE FWL
 UTMY.m             4435808.83:  UTM Y
 UTMX.m              526266.40:  UTM X
 WHEW.m                  -3.84:  WELL HEAD E/W
 WHNS.m                   2.88:  WELL HEAD N/S
 LONG.deg                51.31:  LONGITUDE
 LATI.deg                40.06:  LATITUDE
 TVDS.m                  43.42:  TVDSS CORRECTN
 DEP .m                 430.08:  DEPTH
 EKB .m                  43.42:  KB ELEVATION
 EDF .m                  43.42:  DF ELEVATION
 TDL .m                 559.00:  TOTAL DEPTH (LOGGER)
 MAGU.                 1849381:  MAGUTM CHECKSUM
 VSC .                       0:  VS TO CLOSURE
~Parameter Information Block
#MNEM.UNIT       Value        Description
#---------     -----------    ---------------------------
 AV  .mps                 4.87:  Ann Velocity 
 AVMX.mps                 7.08:  Max Ann Veloc 
 AZIF.deg               108.87:  Azm, Final 
 BHAT.                  Rotary:  BHA Type 
 BROT.°/30m               0.35:  Build Rotating 
 BS  .in                  8.50:  Bit Size 
 BSZ .in                  8.50:  Bit Size 
 BTPL.psig              360.00:  Bit Press Loss 
 CABU.                     Yes:  Customer Abuse 
 TCS .hr                106.24:  Time Ciculation Ended 
 CV  .mps                 1.77:  Crit Velocity 
 CVMX.mps                 2.03:  Max Crit Veloc 
 DD1 .         Aykhan Agagulov:  Direct Drillr 1 
 DD2 .            Nonso Okofor:  Direct Drillr 2 
 DDSV.               Geo-Pilot:  DD Service 
 DEFF.%                  98.00:  % Det Eff 
 DLRX.°/30m               0.50:  Dogleg Rot Max 
 DLSO.°/30m               0.40:  Dogleg Oriented 
 DLSX.°/30m               0.94:  Dogleg Str Max 
 DRET.      20.30.00 08-Sep-20:  Drill End Time 
 DRST.      22.15.00 06-Sep-20:  Drill Start Tim 
 DTIM.hr                 31.31:  Time Drilling 
 EDEP.m                5790.01:  End Depth 
 ENG1.           Amrah Tahirov:  Engineer 1 
 ENG2.         Dair Mahammadov:  Engineer 2 
 ENG3.           Emil Huseynov:  Engineer 3 
 ETIM.      04.01.04 12-Sep-20:  End Time 
 FLOI.gpm               450.00:  Flow In 
 FLON.gpm               450.00:  Flow In Min 
 FLOS.cptm                2.00:  Fluid Loss 
 FLOX.gpm               450.00:  Flow In Max 
 FTRO.       Formation Presure:  FTWD Run Obj 
 HFLO.                      No:  High Flow 
 HPRE.                      No:  High Pressure 
 HTEM.                      No:  High Temp 
 HYDO.m                   1.80:  Hydro Offset 
 IFIN.deg                72.03:  Inc, Final 
 IMAX.deg                73.72:  Inc Max 
 IMIN.deg                70.94:  Inc Min 
 IMND.m                5508.52:  Inc Min Depth 
 IMXD.m                5253.60:  Inc Max Depth 
 JARR.                      No:  Jarring 
 LETM.      20.30.00 08-Sep-20:  Log End Time 
 LOST.hr                     0:  Lost Rig Time 
 LSTM.      22.15.00 06-Sep-20:  Log Start Time 
 MDCL.ppm             36000.00:  Mud Chlorides 
 MDES.     Inversion Oil/Synthetic:  Mud Desc 
 DFD .sg                  1.44:  Mud Density 
 MDMN.sg                  1.44:  Dens Mud Min 
 MDMX.sg                  1.57:  Dens Mud Max 
 MOIL.                      70:  Run Mud Oil % 
 MOWR.                   70:30:  Run Mud OWR 
 MSND.                       0:  Run Mud Sand % 
 MSOL.                      21:  Run Mud Solids% 
 DFV .spqt               68.00:  Mud Viscosity 
 MWOD.in                  6.75:  MWD Tool OD 
 MWSI.                     Yes:  Serv Intrp, MWD 
 OTIM.hr                174.84:  Time Operating 
 PCON.           Look Like New:  Pad Condition 
 PMAX.psia            10616.93:  Press Op, Max 
 PV  .cP                 50.00:  Mud PV 
 RUN .                     700:  Run Number 
 ROPA.m/hr               14.24:  ROP Avg 
 ROPN.m/hr               10.00:  ROP Min 
 ROPX.m/hr               32.00:  ROP Max 
 RPMA.rpm               120.90:  RPM Surface Avg 
 RPMN.rpm               120.00:  RPM Surface Min 
 RPMX.rpm               140.00:  RPM Surface Max 
 RRUN.                    0700:  Rig Run Number 
 RTIM.hr                  3.20:  Time Reaming 
 SAZI.deg               109.99:  Azm, Start 
 SDEP.m                5231.01:  Start Depth 
 SIDD.                      No:  Serv Intrp, DD 
 SINC.deg                73.72:  Inc, Start 
 SPPA.psig             3051.00:  SPP Avg 
 SPPN.psig             2950.00:  SPP Min 
 SPPX.psig             3250.00:  SPP Max 
 STIM.      08.00.00 05-Sep-20:  Start Time 
 SVCS.                 DD, MWD:  Services 
 SVER.                    9.20:  Sperry Version 
 TDAT.m                 559.00:  Tot Depth Attmp 
 TDDF.                      No:  Trip for DD 
 TDLG.m                 559.00:  Tot Depth Loggd 
 TFF .                      No:  Trip for Fail 
 TQAA.f-kp               26.49:  Torque Abs Avg 
 TQAN.f-kp               25.00:  Torque Abs Min 
 TQAX.f-kp               27.00:  Torque Abs Max 
 TRRT.°/30m               1.50:  Turn Rotating 
 MRT .                    HCIM:  Maximum Recorded Temperature 
 TTMX.degC               90.20:  Max Tool Temp 
 VS01.                90542671:  Virtual Str1 SN 
 VS02.                90545185:  Virtual Str2 SN 
 VS03.                90602015:  Virtual Str3 SN 
 VS04.                90515230:  Virtual Str4 SN 
 WBMN.klb                 5.00:  WOB Min 
 WOBA.klb                14.79:  WOB Avg 
 WOBX.klb                20.00:  WOB Max 
 YP  .lhf2               29.00:  Yield Point 
~Curve Information Block
#MNEM.UNIT                 API CODE     Curve Description
#---------               -----------    ---------------------------
 TIME.HHMMSS            00 000 000 000:  GT Time & Date
 GTDEPTH.m              00 000 000 000:  GT Depth
 GTPQH.psia             00 000 000 000:  GT HR Quartz Pressure
 GTTQ.degC              00 000 000 000:  GT Quartz Temperature
 GTTN.NONE              00 000 000 000:  GT Test Number
 GTET.sec               00 000 000 000:  GT Elapsed Test Time
 GTTVD.m                00 000 000 000:  GT True Vertical Depth
#Other Information
#
#WARRANTY: Halliburton will use its best efforts to furnish customers with 
#accurate information and interpretations that are part of, and incident to, the services 
#provided.  However, Halliburton cannot and does not warrant the accuracy 
#or correctness of such information and interpretations.  Under no circumstances should any 
#such information or interpretation be relied upon as the sole basis for any drilling, 
#completion, production, or financial decision or any procedure involving any risk to the 
#safety of any drilling venture, drilling rig or its crew or any other third party.  The 
#Customer has full responsibility for all drilling, completion and production operation.  
#Halliburton makes no representations or warranties, either expressed or 
#implied, including, but not limited to, the implied warranties of merchantability or fitness 
#for a particular purpose, with respect to the services rendered.  In no event will 
#Halliburton be liable for failure to obtain any particular results or for 
#any damages, including, but not limited to, indirect, special or consequential damages, 
#resulting from the use of any information or interpretation provided by Halliburton.
#
~A           TIME           GTDEPTH  GTPQH  GTTQ  GTTN   GTET   GTTVD  
# ...
   14:20:17.903.09-Sep-2020 5408.01 1203.25 75.21 16.00 135.68 2589.60
   14:20:18.104.09-Sep-2020 5408.01 1203.98 75.21 16.00 135.88 2589.60
   14:20:18.304.09-Sep-2020 5408.01 1204.67 75.21 16.00 136.08 2589.60
   14:20:18.504.09-Sep-2020 5408.01 1204.89 75.21 16.00 136.28 2589.60
   14:20:18.704.09-Sep-2020 5408.01 1205.66 75.21 16.00 136.48 2589.60
   14:20:18.904.09-Sep-2020 5408.01 1206.62 75.21 16.00 136.68 2589.60
   14:20:19.104.09-Sep-2020 5408.01 1207.24 75.21 16.00 136.88 2589.60
   14:20:19.304.09-Sep-2020 5408.01 1207.84 75.21 16.00 137.08 2589.60
   14:20:19.504.09-Sep-2020 5408.01 1207.84 75.21 16.00 137.28 2589.60
   14:20:19.705.09-Sep-2020 5408.01 1209.13 75.21 16.00 137.48 2589.60
   14:20:19.905.09-Sep-2020 5408.01 1209.71 75.21 16.00 137.68 2589.60
   14:20:20.105.09-Sep-2020 5408.01 1209.85 75.21 16.00 137.88 2589.60
   14:20:20.305.09-Sep-2020 5408.01 1210.91 75.21 16.00 138.08 2589.60
   14:20:20.505.09-Sep-2020 5408.01 1210.91 75.21 16.00 138.28 2589.60
   14:20:20.705.09-Sep-2020 5408.01 1212.31 75.21 16.00 138.48 2589.60
   14:20:20.905.09-Sep-2020 5408.01 1213.15 75.21 16.00 138.68 2589.60
   14:20:21.105.09-Sep-2020 5408.01 1213.53 75.21 16.00 138.88 2589.60
   14:20:21.306.09-Sep-2020 5408.01 1214.11 75.21 16.00 139.09 2589.60
   14:20:21.506.09-Sep-2020 5408.01 1214.11 75.21 16.00 139.29 2589.60
   14:20:21.706.09-Sep-2020 5408.01 1215.32 75.21 16.00 139.49 2589.60
   14:20:21.906.09-Sep-2020 5408.01 1215.85 75.21 16.00 139.69 2589.60
   14:20:22.106.09-Sep-2020 5408.01 1216.38 75.21 16.00 139.89 2589.60
   14:20:22.306.09-Sep-2020 5408.01 1216.88 75.21 16.00 140.09 2589.60
   14:20:22.506.09-Sep-2020 5408.01 1216.88 75.21 16.00 140.29 2589.60
   14:20:22.706.09-Sep-2020 5408.01 1217.99 75.21 16.00 140.49 2589.60
   14:20:22.907.09-Sep-2020 5408.01 1218.57 75.21 16.00 140.69 2589.60
   14:20:23.107.09-Sep-2020 5408.01 1219.14 75.21 16.00 140.89 2589.60
   14:20:23.307.09-Sep-2020 5408.01 1219.69 75.21 16.00 141.09 2589.60
   14:20:23.507.09-Sep-2020 5408.01 1219.69 75.21 16.00 141.29 2589.60
   14:20:23.707.09-Sep-2020 5408.01 1219.60 75.21 16.00 141.49 2589.60
   14:20:23.907.09-Sep-2020 5408.01 1219.89 75.21 16.00 141.69 2589.60
   14:20:24.107.09-Sep-2020 5408.01 1220.64 75.21 16.00 141.89 2589.60
   14:20:24.307.09-Sep-2020 5408.01 1221.22 75.21 16.00 142.09 2589.60
   14:20:24.508.09-Sep-2020 5408.01 1221.22 75.21 16.00 142.29 2589.60
   14:20:24.708.09-Sep-2020 5408.01 1222.30 75.21 16.00 142.49 2589.60
   14:20:24.908.09-Sep-2020 5408.01 1222.86 75.21 16.00 142.69 2589.60
   14:20:25.108.09-Sep-2020 5408.01 1223.39 75.21 16.00 142.89 2589.60
   14:20:25.308.09-Sep-2020 5408.01 1223.96 75.21 16.00 143.09 2589.60
   14:20:25.508.09-Sep-2020 5408.01 1223.96 75.21 16.00 143.29 2589.60
   14:20:25.708.09-Sep-2020 5408.01 1224.88 75.21 16.00 143.49 2589.60
   14:20:25.908.09-Sep-2020 5408.01 1225.41 75.21 16.00 143.69 2589.60
   14:20:26.109.09-Sep-2020 5408.01 1225.97 75.21 16.00 143.89 2589.60
   14:20:26.309.09-Sep-2020 5408.01 1226.49 75.21 16.00 144.09 2589.60
   14:20:26.509.09-Sep-2020 5408.01 1226.49 75.21 16.00 144.29 2589.60
   14:20:26.709.09-Sep-2020 5408.01 1227.48 75.21 16.00 144.49 2589.60
   14:20:26.909.09-Sep-2020 5408.01 1227.07 75.21 16.00 144.69 2589.60
   14:20:27.109.09-Sep-2020 5408.01 1228.72 75.21 16.00 144.89 2589.60
   14:20:27.309.09-Sep-2020 5408.01 1229.27 75.21 16.00 145.09 2589.60
   14:20:27.509.09-Sep-2020 5408.01 1229.27 75.21 16.00 145.29 2589.60
   14:20:27.709.09-Sep-2020 5408.01 1230.19 75.21 16.00 145.49 2589.60
   14:20:27.910.09-Sep-2020 5408.01 1230.95 75.21 16.00 145.69 2589.60
   14:20:28.110.09-Sep-2020 5408.01 1230.53 75.21 16.00 145.89 2589.60
   14:20:28.310.09-Sep-2020 5408.01 1232.02 75.21 16.00 146.09 2589.60
   14:20:28.510.09-Sep-2020 5408.01 1232.02 75.21 16.00 146.29 2589.60
   14:20:28.710.09-Sep-2020 5408.01 1233.11 75.21 16.00 146.49 2589.60
   14:20:28.910.09-Sep-2020 5408.01 1233.59 75.21 16.00 146.69 2589.60
   14:20:29.110.09-Sep-2020 5408.01 1234.23 75.21 16.00 146.89 2589.60
   14:20:29.310.09-Sep-2020 5408.01 1234.66 75.21 16.00 147.09 2589.60
   14:20:29.511.09-Sep-2020 5408.01 1234.66 75.21 16.00 147.29 2589.60
   14:20:29.711.09-Sep-2020 5408.01 1235.96 75.21 16.00 147.49 2589.60
   14:20:29.911.09-Sep-2020 5408.01 1236.48 75.21 16.00 147.69 2589.60
   14:20:30.111.09-Sep-2020 5408.01 1237.01 75.21 16.00 147.89 2589.60
   14:20:30.311.09-Sep-2020 5408.01 1237.54 75.21 16.00 148.09 2589.60
   14:20:30.511.09-Sep-2020 5408.01 1237.41 75.21 16.00 148.29 2589.60
   14:20:30.711.09-Sep-2020 5408.01 1238.79 75.21 16.00 148.49 2589.60
   14:20:30.911.09-Sep-2020 5408.01 1239.45 75.21 16.00 148.69 2589.60
   14:20:31.112.09-Sep-2020 5408.01 1240.00 75.21 16.00 148.89 2589.60
   14:20:31.312.09-Sep-2020 5408.01 1239.72 75.21 16.00 149.09 2589.60
   14:20:31.512.09-Sep-2020 5408.01 1239.72 75.21 16.00 149.29 2589.60
   14:20:31.712.09-Sep-2020 5408.01 1241.91 75.21 16.00 149.49 2589.60
   14:20:31.912.09-Sep-2020 5408.01 1242.45 75.21 16.00 149.69 2589.60
   14:20:32.112.09-Sep-2020 5408.01 1242.93 75.21 16.00 149.89 2589.60
   14:20:32.312.09-Sep-2020 5408.01 1243.52 75.21 16.00 150.09 2589.60
   14:20:32.512.09-Sep-2020 5408.01 1243.52 75.21 16.00 150.29 2589.60
   14:20:32.713.09-Sep-2020 5408.01 1244.34 75.21 16.00 150.49 2589.60
   14:20:32.913.09-Sep-2020 5408.01 1244.78 75.21 16.00 150.69 2589.60
   14:20:33.113.09-Sep-2020 5408.01 1245.21 75.21 16.00 150.89 2589.60
   14:20:33.313.09-Sep-2020 5408.01 1245.72 75.21 16.00 151.09 2589.60
   14:20:33.513.09-Sep-2020 5408.01 1245.72 75.21 16.00 151.29 2589.60
   14:20:33.713.09-Sep-2020 5408.01 1246.62 75.21 16.00 151.49 2589.60
   14:20:33.913.09-Sep-2020 5408.01 1247.01 75.21 16.00 151.69 2589.60
   14:20:34.113.09-Sep-2020 5408.01 1247.47 75.21 16.00 151.89 2589.60
   14:20:34.314.09-Sep-2020 5408.01 1247.94 75.21 16.00 152.09 2589.60
   14:20:34.514.09-Sep-2020 5408.01 1248.43 75.21 16.00 152.29 2589.60
   14:20:34.714.09-Sep-2020 5408.01 1248.94 75.21 16.00 152.49 2589.60
   14:20:34.914.09-Sep-2020 5408.01 1248.61 75.21 16.00 152.69 2589.60
   14:20:35.114.09-Sep-2020 5408.01 1249.94 75.21 16.00 152.89 2589.60
   14:20:35.314.09-Sep-2020 5408.01 1250.39 75.21 16.00 153.09 2589.60
   14:20:35.514.09-Sep-2020 5408.01 1250.39 75.21 16.00 153.29 2589.60
   14:20:35.714.09-Sep-2020 5408.01 1251.35 75.21 16.00 153.49 2589.60
   14:20:35.914.09-Sep-2020 5408.01 1251.92 75.21 16.00 153.69 2589.60
   14:20:36.115.09-Sep-2020 5408.01 1252.18 75.21 16.00 153.89 2589.60
   14:20:36.315.09-Sep-2020 5408.01 1252.66 75.21 16.00 154.09 2589.60
   14:20:36.515.09-Sep-2020 5408.01 1252.66 75.21 16.00 154.29 2589.60
   14:20:36.715.09-Sep-2020 5408.01 1253.48 75.21 16.00 154.49 2589.60
   14:20:36.915.09-Sep-2020 5408.01 1253.91 75.21 16.00 154.69 2589.60
   14:20:37.115.09-Sep-2020 5408.01 1254.27 75.21 16.00 154.89 2589.60
   14:20:37.315.09-Sep-2020 5408.01 1254.71 75.21 16.00 155.09 2589.60
   14:20:37.515.09-Sep-2020 5408.01 1254.71 75.21 16.00 155.29 2589.60
   14:20:37.716.09-Sep-2020 5408.01 1255.62 75.21 16.00 155.50 2589.60
   14:20:37.916.09-Sep-2020 5408.01 1256.04 75.21 16.00 155.70 2589.60
   14:20:38.116.09-Sep-2020 5408.01 1256.11 75.21 16.00 155.90 2589.60
   14:20:38.316.09-Sep-2020 5408.01 1256.49 75.21 16.00 156.10 2589.60
   14:20:38.516.09-Sep-2020 5408.01 1257.49 75.21 16.00 156.30 2589.60
   14:20:38.716.09-Sep-2020 5408.01 1257.82 75.21 16.00 156.50 2589.60
   14:20:38.916.09-Sep-2020 5408.01 1258.16 75.21 16.00 156.70 2589.60
   14:20:39.116.09-Sep-2020 5408.01 1258.90 75.21 16.00 156.90 2589.60
   14:20:39.317.09-Sep-2020 5408.01 1258.19 75.21 16.00 157.10 2589.60
   14:20:39.517.09-Sep-2020 5408.01 1258.19 75.21 16.00 157.30 2589.60
   14:20:39.717.09-Sep-2020 5408.01 1260.07 75.21 16.00 157.50 2589.60
   14:20:39.917.09-Sep-2020 5408.01 1260.59 75.21 16.00 157.70 2589.60
   14:20:40.117.09-Sep-2020 5408.01 1260.86 75.21 16.00 157.90 2589.60
   14:20:40.317.09-Sep-2020 5408.01 1261.58 75.21 16.00 158.10 2589.60
