~Version Information
 VERS.                  2.0:   CWLS log ASCII Standard -VERSION 2.0
 WRAP.                   NO:   One line per depth step
~Well Information Block
#MNEM.UNIT     VALUE/NAME     DESCRIPTION
#---------     -----------    ---------------------------
 STRT.S             16:28:49 09-Sep-20: START TIME 16:28:49 09-Sep-20
 STOP.S             16:37:06 09-Sep-20: STOP TIME  16:37:06 09-Sep-20
 STEP.S                   0.00: STEP TIME
 NULL.                 -999.25: NULL VALUE
 MDS .        Operator Entered:  MAG DATA SOURCE
 PDAT.          Mean Sea Level:  PERMANENT DATUM
 DCON.         Sperry Drilling:  DIRECTNL CONTR
 RIG .              West Azeri:  RIG NAME
 WELL.           C40 (Slot 20):  WELL NAME
 SRVC.     Turan Drilling Engineering:  CONTRACTOR
 FLD .                     ACG:  FIELD NAME
 CTRY.              Azerbaijan:  COUNTRY NAME
 PROV.                    Baku:  PROVINCE
 STAT.                    Baku:  STATE NAME
 REGN.                   EESSA:  REGION
 BASE.              Azerbaijan:  LOGGING EQUIPMENT BASE LOCATION
 COMP.     BP Exploration (Caspian Sea) Ltd:  COMPANY
 WTYP.                Deviated:  WELL TYPE
 SON .        AZ-XX-0906344804:  JOB NUMBER
 FTOP.          Formation Tops:  FORM TOPS DESC
 ILTD.               Lithology:  INTERP LTH DESC
 SVYD.                  Survey:  SURVEY DESC
 DMOD.             Drill Model:  DRILL MOD DESC
 HPTY.       Minimum Curvature:  HOLE POS TYPE
 NREF.                    Grid:  NORTH REFERENCE
 SPUD.               01-Jan-20:  SPUD DATE
 DATE.      00.59.44 15-Sep-20:  END TIME
 STIM.      12.00.00 12-Jun-20:  START TIME
 DMF .             Drill Floor:  DRILL MEAS FROM
 DFST.                        :  DIST FSL TEXT
 DFWT.                        :  DIST FWL TEXT
 API .                        :  API NUMBER
 CNTY.                        :  COUNTY
 UWI .                        :  UNIQUE WELL IDENTIFIER
 LOC .                        :  LOCATION
 LMF .             Drill Floor:  LOG MEASURED FROM
 VSNS.m                   2.88:  VERT SEC N/S
 VSEW.m                  -3.84:  VERT SEC E/W
 AGAP.m                  43.42:  AIR GAP
 APD .m                  43.42:  DEPTH ABOVE PD
 WDMS.m                 118.27:  WD ELEV
 EGL .m                   0.00:  GROUND ELEVATION
 EPD .m                   0.00:  ELEVATION
 AZTC.deg                 6.23:  AZM TOTAL CORR
 GRDC.deg                 0.20:  GRID CORRECTION
 MDEC.deg                 6.43:  MAGNETIC DECL
 MDIP.deg                59.49:  MAGNETIC DIP
 MFLD.nT              50277.00:  MAGNETIC FIELD
 GVFD.g                   1.00:  GRAVITY FIELD
 VSDR.deg               173.20:  VERT SEC DIRECT
 TDD .m                5790.01:  TOTAL DEPTH (DRILLER)
 SDEP.m                5231.01:  START DEPTH
 DFSL.m                   0.00:  DISTANCE FSL
 DFWL.m                   0.00:  DISTANCE FWL
 UTMY.m             4435808.83:  UTM Y
 UTMX.m              526266.40:  UTM X
 WHEW.m                  -3.84:  WELL HEAD E/W
 WHNS.m                   2.88:  WELL HEAD N/S
 LONG.deg                51.31:  LONGITUDE
 LATI.deg                40.06:  LATITUDE
 TVDS.m                  43.42:  TVDSS CORRECTN
 DEP .m                 430.08:  DEPTH
 EKB .m                  43.42:  KB ELEVATION
 EDF .m                  43.42:  DF ELEVATION
 TDL .m                 559.00:  TOTAL DEPTH (LOGGER)
 MAGU.                 1849381:  MAGUTM CHECKSUM
 VSC .                       0:  VS TO CLOSURE
~Parameter Information Block
#MNEM.UNIT       Value        Description
#---------     -----------    ---------------------------
 AV  .mps                 4.87:  Ann Velocity 
 AVMX.mps                 7.08:  Max Ann Veloc 
 AZIF.deg               108.87:  Azm, Final 
 BHAT.                  Rotary:  BHA Type 
 BROT.°/30m               0.35:  Build Rotating 
 BS  .in                  8.50:  Bit Size 
 BSZ .in                  8.50:  Bit Size 
 BTPL.psig              360.00:  Bit Press Loss 
 CABU.                     Yes:  Customer Abuse 
 TCS .hr                106.24:  Time Ciculation Ended 
 CV  .mps                 1.77:  Crit Velocity 
 CVMX.mps                 2.03:  Max Crit Veloc 
 DD1 .         Aykhan Agagulov:  Direct Drillr 1 
 DD2 .            Nonso Okofor:  Direct Drillr 2 
 DDSV.               Geo-Pilot:  DD Service 
 DEFF.%                  98.00:  % Det Eff 
 DLRX.°/30m               0.50:  Dogleg Rot Max 
 DLSO.°/30m               0.40:  Dogleg Oriented 
 DLSX.°/30m               0.94:  Dogleg Str Max 
 DRET.      20.30.00 08-Sep-20:  Drill End Time 
 DRST.      22.15.00 06-Sep-20:  Drill Start Tim 
 DTIM.hr                 31.31:  Time Drilling 
 EDEP.m                5790.01:  End Depth 
 ENG1.           Amrah Tahirov:  Engineer 1 
 ENG2.         Dair Mahammadov:  Engineer 2 
 ENG3.           Emil Huseynov:  Engineer 3 
 ETIM.      04.01.04 12-Sep-20:  End Time 
 FLOI.gpm               450.00:  Flow In 
 FLON.gpm               450.00:  Flow In Min 
 FLOS.cptm                2.00:  Fluid Loss 
 FLOX.gpm               450.00:  Flow In Max 
 FTRO.       Formation Presure:  FTWD Run Obj 
 HFLO.                      No:  High Flow 
 HPRE.                      No:  High Pressure 
 HTEM.                      No:  High Temp 
 HYDO.m                   1.80:  Hydro Offset 
 IFIN.deg                72.03:  Inc, Final 
 IMAX.deg                73.72:  Inc Max 
 IMIN.deg                70.94:  Inc Min 
 IMND.m                5508.52:  Inc Min Depth 
 IMXD.m                5253.60:  Inc Max Depth 
 JARR.                      No:  Jarring 
 LETM.      20.30.00 08-Sep-20:  Log End Time 
 LOST.hr                     0:  Lost Rig Time 
 LSTM.      22.15.00 06-Sep-20:  Log Start Time 
 MDCL.ppm             36000.00:  Mud Chlorides 
 MDES.     Inversion Oil/Synthetic:  Mud Desc 
 DFD .sg                  1.44:  Mud Density 
 MDMN.sg                  1.44:  Dens Mud Min 
 MDMX.sg                  1.57:  Dens Mud Max 
 MOIL.                      70:  Run Mud Oil % 
 MOWR.                   70:30:  Run Mud OWR 
 MSND.                       0:  Run Mud Sand % 
 MSOL.                      21:  Run Mud Solids% 
 DFV .spqt               68.00:  Mud Viscosity 
 MWOD.in                  6.75:  MWD Tool OD 
 MWSI.                     Yes:  Serv Intrp, MWD 
 OTIM.hr                174.84:  Time Operating 
 PCON.           Look Like New:  Pad Condition 
 PMAX.psia            10616.93:  Press Op, Max 
 PV  .cP                 50.00:  Mud PV 
 RUN .                     700:  Run Number 
 ROPA.m/hr               14.24:  ROP Avg 
 ROPN.m/hr               10.00:  ROP Min 
 ROPX.m/hr               32.00:  ROP Max 
 RPMA.rpm               120.90:  RPM Surface Avg 
 RPMN.rpm               120.00:  RPM Surface Min 
 RPMX.rpm               140.00:  RPM Surface Max 
 RRUN.                    0700:  Rig Run Number 
 RTIM.hr                  3.20:  Time Reaming 
 SAZI.deg               109.99:  Azm, Start 
 SDEP.m                5231.01:  Start Depth 
 SIDD.                      No:  Serv Intrp, DD 
 SINC.deg                73.72:  Inc, Start 
 SPPA.psig             3051.00:  SPP Avg 
 SPPN.psig             2950.00:  SPP Min 
 SPPX.psig             3250.00:  SPP Max 
 STIM.      08.00.00 05-Sep-20:  Start Time 
 SVCS.                 DD, MWD:  Services 
 SVER.                    9.20:  Sperry Version 
 TDAT.m                 559.00:  Tot Depth Attmp 
 TDDF.                      No:  Trip for DD 
 TDLG.m                 559.00:  Tot Depth Loggd 
 TFF .                      No:  Trip for Fail 
 TQAA.f-kp               26.49:  Torque Abs Avg 
 TQAN.f-kp               25.00:  Torque Abs Min 
 TQAX.f-kp               27.00:  Torque Abs Max 
 TRRT.°/30m               1.50:  Turn Rotating 
 MRT .                    HCIM:  Maximum Recorded Temperature 
 TTMX.degC               90.20:  Max Tool Temp 
 VS01.                90542671:  Virtual Str1 SN 
 VS02.                90545185:  Virtual Str2 SN 
 VS03.                90602015:  Virtual Str3 SN 
 VS04.                90515230:  Virtual Str4 SN 
 WBMN.klb                 5.00:  WOB Min 
 WOBA.klb                14.79:  WOB Avg 
 WOBX.klb                20.00:  WOB Max 
 YP  .lhf2               29.00:  Yield Point 
~Curve Information Block
#MNEM.UNIT                 API CODE     Curve Description
#---------               -----------    ---------------------------
 TIME.HHMMSS            00 000 000 000:  GT Time & Date
 GTDEPTH.m              00 000 000 000:  GT Depth
 GTPQH.psia             00 000 000 000:  GT HR Quartz Pressure
 GTTQ.degC              00 000 000 000:  GT Quartz Temperature
 GTTN.NONE              00 000 000 000:  GT Test Number
 GTET.sec               00 000 000 000:  GT Elapsed Test Time
 GTTVD.m                00 000 000 000:  GT True Vertical Depth
#Other Information
#
#WARRANTY: Halliburton will use its best efforts to furnish customers with 
#accurate information and interpretations that are part of, and incident to, the services 
#provided.  However, Halliburton cannot and does not warrant the accuracy 
#or correctness of such information and interpretations.  Under no circumstances should any 
#such information or interpretation be relied upon as the sole basis for any drilling, 
#completion, production, or financial decision or any procedure involving any risk to the 
#safety of any drilling venture, drilling rig or its crew or any other third party.  The 
#Customer has full responsibility for all drilling, completion and production operation.  
#Halliburton makes no representations or warranties, either expressed or 
#implied, including, but not limited to, the implied warranties of merchantability or fitness 
#for a particular purpose, with respect to the services rendered.  In no event will 
#Halliburton be liable for failure to obtain any particular results or for 
#any damages, including, but not limited to, indirect, special or consequential damages, 
#resulting from the use of any information or interpretation provided by Halliburton.
#
~A           TIME           GTDEPTH  GTPQH  GTTQ  GTTN   GTET   GTTVD  
# ...
   16:35:13.852.09-Sep-2020 5323.01 3919.66 74.90 18.00 384.38 2563.11
   16:35:14.052.09-Sep-2020 5323.01 3919.57 74.90 18.00 384.58 2563.11
   16:35:14.252.09-Sep-2020 5323.01 3919.58 74.90 18.00 384.78 2563.11
   16:35:14.452.09-Sep-2020 5323.01 3919.57 74.90 18.00 384.98 2563.11
   16:35:14.653.09-Sep-2020 5323.01 3919.58 74.90 18.00 385.18 2563.11
   16:35:14.853.09-Sep-2020 5323.01 3919.58 74.90 18.00 385.38 2563.11
   16:35:15.053.09-Sep-2020 5323.01 3919.58 74.90 18.00 385.58 2563.11
   16:35:15.253.09-Sep-2020 5323.01 3919.57 74.90 18.00 385.78 2563.11
   16:35:15.453.09-Sep-2020 5323.01 3919.57 74.90 18.00 385.98 2563.11
   16:35:15.653.09-Sep-2020 5323.01 3919.57 74.90 18.00 386.19 2563.11
   16:35:15.853.09-Sep-2020 5323.01 3919.57 74.90 18.00 386.39 2563.11
   16:35:16.053.09-Sep-2020 5323.01 3919.57 74.90 18.00 386.59 2563.11
   16:35:16.253.09-Sep-2020 5323.01 3919.58 74.90 18.00 386.79 2563.11
   16:35:16.453.09-Sep-2020 5323.01 3919.58 74.90 18.00 386.99 2563.11
   16:35:16.653.09-Sep-2020 5323.01 3919.58 74.90 18.00 387.19 2563.11
   16:35:16.854.09-Sep-2020 5323.01 3919.58 74.90 18.00 387.39 2563.11
   16:35:17.054.09-Sep-2020 5323.01 3919.58 74.90 18.00 387.59 2563.11
   16:35:17.254.09-Sep-2020 5323.01 3919.53 74.90 18.00 387.79 2563.11
   16:35:17.454.09-Sep-2020 5323.01 3919.63 74.90 18.00 387.99 2563.11
   16:35:17.654.09-Sep-2020 5323.01 3919.57 74.90 18.00 388.19 2563.11
   16:35:17.854.09-Sep-2020 5323.01 3919.57 74.90 18.00 388.39 2563.11
   16:35:18.054.09-Sep-2020 5323.01 3919.56 74.90 18.00 388.59 2563.11
   16:35:18.254.09-Sep-2020 5323.01 3919.59 74.90 18.00 388.79 2563.11
   16:35:18.454.09-Sep-2020 5323.01 3919.57 74.90 18.00 388.99 2563.11
   16:35:18.654.09-Sep-2020 5323.01 3919.57 74.90 18.00 389.19 2563.11
   16:35:18.855.09-Sep-2020 5323.01 3919.57 74.90 18.00 389.39 2563.11
   16:35:19.055.09-Sep-2020 5323.01 3919.58 74.90 18.00 389.59 2563.11
   16:35:19.255.09-Sep-2020 5323.01 3919.58 74.90 18.00 389.79 2563.11
   16:35:19.455.09-Sep-2020 5323.01 3919.57 74.90 18.00 389.99 2563.11
   16:35:19.655.09-Sep-2020 5323.01 3919.58 74.90 18.00 390.19 2563.11
   16:35:19.855.09-Sep-2020 5323.01 3919.58 74.90 18.00 390.39 2563.11
   16:35:20.055.09-Sep-2020 5323.01 3919.56 74.90 18.00 390.59 2563.11
   16:35:20.255.09-Sep-2020 5323.01 3919.58 74.90 18.00 390.79 2563.11
   16:35:20.455.09-Sep-2020 5323.01 3919.58 74.90 18.00 390.99 2563.11
   16:35:20.655.09-Sep-2020 5323.01 3919.69 74.90 18.00 391.19 2563.11
   16:35:20.856.09-Sep-2020 5323.01 3919.69 74.90 18.00 391.39 2563.11
   16:35:21.056.09-Sep-2020 5323.01 3919.57 74.90 18.00 391.59 2563.11
   16:35:21.256.09-Sep-2020 5323.01 3919.57 74.90 18.00 391.79 2563.11
   16:35:21.456.09-Sep-2020 5323.01 3919.61 74.90 18.00 391.99 2563.11
   16:35:21.656.09-Sep-2020 5323.01 3919.57 74.90 18.00 392.19 2563.11
   16:35:21.856.09-Sep-2020 5323.01 3919.57 74.90 18.00 392.39 2563.11
   16:35:22.056.09-Sep-2020 5323.01 3919.54 74.90 18.00 392.59 2563.11
   16:35:22.256.09-Sep-2020 5323.01 3919.57 74.90 18.00 392.79 2563.11
   16:35:22.456.09-Sep-2020 5323.01 3919.57 74.90 18.00 392.99 2563.11
   16:35:22.656.09-Sep-2020 5323.01 3919.50 74.90 18.00 393.19 2563.11
   16:35:22.856.09-Sep-2020 5323.01 3919.50 74.90 18.00 393.39 2563.11
   16:35:23.057.09-Sep-2020 5323.01 3919.60 74.90 18.00 393.59 2563.11
   16:35:23.257.09-Sep-2020 5323.01 3919.58 74.90 18.00 393.79 2563.11
   16:35:23.457.09-Sep-2020 5323.01 3919.57 74.90 18.00 393.99 2563.11
   16:35:23.657.09-Sep-2020 5323.01 3919.57 74.90 18.00 394.19 2563.11
   16:35:23.857.09-Sep-2020 5323.01 3919.57 74.90 18.00 394.39 2563.11
   16:35:24.057.09-Sep-2020 5323.01 3919.53 74.90 18.00 394.59 2563.11
   16:35:24.257.09-Sep-2020 5323.01 3919.63 74.90 18.00 394.79 2563.11
   16:35:24.457.09-Sep-2020 5323.01 3919.57 74.90 18.00 394.99 2563.11
   16:35:24.657.09-Sep-2020 5323.01 3919.58 74.90 18.00 395.19 2563.11
   16:35:24.857.09-Sep-2020 5323.01 3919.58 74.90 18.00 395.39 2563.11
   16:35:25.058.09-Sep-2020 5323.01 3919.59 74.90 18.00 395.59 2563.11
   16:35:25.258.09-Sep-2020 5323.01 3919.69 74.90 18.00 395.79 2563.11
   16:35:25.458.09-Sep-2020 5323.01 3919.47 74.90 18.00 395.99 2563.11
   16:35:25.658.09-Sep-2020 5323.01 3919.57 74.90 18.00 396.19 2563.11
   16:35:25.858.09-Sep-2020 5323.01 3919.57 74.90 18.00 396.39 2563.11
   16:35:26.058.09-Sep-2020 5323.01 3919.61 74.90 18.00 396.59 2563.11
   16:35:26.258.09-Sep-2020 5323.01 3919.57 74.90 18.00 396.79 2563.11
   16:35:26.458.09-Sep-2020 5323.01 3919.57 74.90 18.00 396.99 2563.11
   16:35:26.658.09-Sep-2020 5323.01 3919.57 74.90 18.00 397.19 2563.11
   16:35:26.858.09-Sep-2020 5323.01 3919.57 74.90 18.00 397.39 2563.11
   16:35:27.058.09-Sep-2020 5323.01 3919.57 74.90 18.00 397.59 2563.11
   16:35:27.259.09-Sep-2020 5323.01 3919.58 74.90 18.00 397.79 2563.11
   16:35:27.459.09-Sep-2020 5323.01 3919.57 74.90 18.00 397.99 2563.11
   16:35:27.659.09-Sep-2020 5323.01 3919.57 74.90 18.00 398.19 2563.11
   16:35:27.859.09-Sep-2020 5323.01 3919.57 74.90 18.00 398.39 2563.11
   16:35:28.059.09-Sep-2020 5323.01 3919.58 74.90 18.00 398.59 2563.11
   16:35:28.259.09-Sep-2020 5323.01 3919.57 74.90 18.00 398.79 2563.11
   16:35:28.459.09-Sep-2020 5323.01 3919.58 74.90 18.00 398.99 2563.11
   16:35:28.659.09-Sep-2020 5323.01 3919.57 74.90 18.00 399.19 2563.11
   16:35:28.859.09-Sep-2020 5323.01 3919.57 74.90 18.00 399.39 2563.11
   16:35:29.059.09-Sep-2020 5323.01 3919.62 74.90 18.00 399.59 2563.11
   16:35:29.260.09-Sep-2020 5323.01 3919.54 74.90 18.00 399.79 2563.11
   16:35:29.460.09-Sep-2020 5323.01 3919.57 74.90 18.00 399.99 2563.11
   16:35:29.660.09-Sep-2020 5323.01 3919.57 74.90 18.00 400.19 2563.11
   16:35:29.860.09-Sep-2020 5323.01 3919.57 74.90 18.00 400.39 2563.11
   16:35:30.060.09-Sep-2020 5323.01 3919.57 74.90 18.00 400.59 2563.11
   16:35:30.260.09-Sep-2020 5323.01 3919.57 74.90 18.00 400.79 2563.11
   16:35:30.460.09-Sep-2020 5323.01 3919.58 74.90 18.00 400.99 2563.11
   16:35:30.660.09-Sep-2020 5323.01 3919.57 74.90 18.00 401.19 2563.11
   16:35:30.860.09-Sep-2020 5323.01 3919.57 74.90 18.00 401.39 2563.11
   16:35:31.060.09-Sep-2020 5323.01 3919.57 74.90 18.00 401.59 2563.11
   16:35:31.260.09-Sep-2020 5323.01 3919.58 74.90 18.00 401.79 2563.11
   16:35:31.461.09-Sep-2020 5323.01 3919.58 74.90 18.00 401.99 2563.11
   16:35:31.661.09-Sep-2020 5323.01 3919.57 74.90 18.00 402.19 2563.11
   16:35:31.861.09-Sep-2020 5323.01 3919.57 74.90 18.00 402.39 2563.11
   16:35:32.061.09-Sep-2020 5323.01 3919.57 74.90 18.00 402.59 2563.11
   16:35:32.261.09-Sep-2020 5323.01 3919.48 74.90 18.00 402.79 2563.11
   16:35:32.461.09-Sep-2020 5323.01 3919.65 74.90 18.00 402.99 2563.11
   16:35:32.661.09-Sep-2020 5323.01 3919.60 74.90 18.00 403.19 2563.11
   16:35:32.861.09-Sep-2020 5323.01 3919.60 74.90 18.00 403.39 2563.11
   16:35:33.061.09-Sep-2020 5323.01 3919.57 74.90 18.00 403.59 2563.11
   16:35:33.261.09-Sep-2020 5323.01 3919.57 74.90 18.00 403.79 2563.11
   16:35:33.462.09-Sep-2020 5323.01 3919.52 74.90 18.00 403.99 2563.11
   16:35:33.662.09-Sep-2020 5323.01 3919.64 74.90 18.00 404.19 2563.11
   16:35:33.862.09-Sep-2020 5323.01 3919.64 74.90 18.00 404.39 2563.11
   16:35:34.062.09-Sep-2020 5323.01 3919.57 74.90 18.00 404.59 2563.11
   16:35:34.262.09-Sep-2020 5323.01 3919.57 74.90 18.00 404.79 2563.11
   16:35:34.462.09-Sep-2020 5323.01 3919.71 74.90 18.00 404.99 2563.11
   16:35:34.662.09-Sep-2020 5323.01 3919.46 74.90 18.00 405.19 2563.11
   16:35:34.862.09-Sep-2020 5323.01 3919.46 74.90 18.00 405.39 2563.11
   16:35:35.062.09-Sep-2020 5323.01 3919.57 74.90 18.00 405.59 2563.11
   16:35:35.262.09-Sep-2020 5323.01 3919.61 74.90 18.00 405.79 2563.11
   16:35:35.463.09-Sep-2020 5323.01 3919.57 74.90 18.00 405.99 2563.11
   16:35:35.663.09-Sep-2020 5323.01 3919.57 74.90 18.00 406.19 2563.11
   16:35:35.863.09-Sep-2020 5323.01 3919.57 74.90 18.00 406.39 2563.11
   16:35:36.063.09-Sep-2020 5323.01 3919.54 74.90 18.00 406.59 2563.11
   16:35:36.263.09-Sep-2020 5323.01 3919.57 74.90 18.00 406.79 2563.11
