~Version Information
 VERS.                  2.0:   CWLS log ASCII Standard -VERSION 2.0
 WRAP.                   NO:   One line per depth step
~Well Information Block
#MNEM.UNIT     VALUE/NAME     DESCRIPTION
#---------     -----------    ---------------------------
 STRT.S             20:20:33 09-Sep-20: START TIME 20:20:33 09-Sep-20
 STOP.S             20:28:41 09-Sep-20: STOP TIME  20:28:41 09-Sep-20
 STEP.S                   0.00: STEP TIME
 NULL.                 -999.25: NULL VALUE
 MDS .        Operator Entered:  MAG DATA SOURCE
 PDAT.          Mean Sea Level:  PERMANENT DATUM
 DCON.         Sperry Drilling:  DIRECTNL CONTR
 RIG .              West Azeri:  RIG NAME
 WELL.           C40 (Slot 20):  WELL NAME
 SRVC.     Turan Drilling Engineering:  CONTRACTOR
 FLD .                     ACG:  FIELD NAME
 CTRY.              Azerbaijan:  COUNTRY NAME
 PROV.                    Baku:  PROVINCE
 STAT.                    Baku:  STATE NAME
 REGN.                   EESSA:  REGION
 BASE.              Azerbaijan:  LOGGING EQUIPMENT BASE LOCATION
 COMP.     BP Exploration (Caspian Sea) Ltd:  COMPANY
 WTYP.                Deviated:  WELL TYPE
 SON .        AZ-XX-0906344804:  JOB NUMBER
 FTOP.          Formation Tops:  FORM TOPS DESC
 ILTD.               Lithology:  INTERP LTH DESC
 SVYD.                  Survey:  SURVEY DESC
 DMOD.             Drill Model:  DRILL MOD DESC
 HPTY.       Minimum Curvature:  HOLE POS TYPE
 NREF.                    Grid:  NORTH REFERENCE
 SPUD.               01-Jan-20:  SPUD DATE
 DATE.      00.59.44 15-Sep-20:  END TIME
 STIM.      12.00.00 12-Jun-20:  START TIME
 DMF .             Drill Floor:  DRILL MEAS FROM
 DFST.                        :  DIST FSL TEXT
 DFWT.                        :  DIST FWL TEXT
 API .                        :  API NUMBER
 CNTY.                        :  COUNTY
 UWI .                        :  UNIQUE WELL IDENTIFIER
 LOC .                        :  LOCATION
 LMF .             Drill Floor:  LOG MEASURED FROM
 VSNS.m                   2.88:  VERT SEC N/S
 VSEW.m                  -3.84:  VERT SEC E/W
 AGAP.m                  43.42:  AIR GAP
 APD .m                  43.42:  DEPTH ABOVE PD
 WDMS.m                 118.27:  WD ELEV
 EGL .m                   0.00:  GROUND ELEVATION
 EPD .m                   0.00:  ELEVATION
 AZTC.deg                 6.23:  AZM TOTAL CORR
 GRDC.deg                 0.20:  GRID CORRECTION
 MDEC.deg                 6.43:  MAGNETIC DECL
 MDIP.deg                59.49:  MAGNETIC DIP
 MFLD.nT              50277.00:  MAGNETIC FIELD
 GVFD.g                   1.00:  GRAVITY FIELD
 VSDR.deg               173.20:  VERT SEC DIRECT
 TDD .m                5790.01:  TOTAL DEPTH (DRILLER)
 SDEP.m                5231.01:  START DEPTH
 DFSL.m                   0.00:  DISTANCE FSL
 DFWL.m                   0.00:  DISTANCE FWL
 UTMY.m             4435808.83:  UTM Y
 UTMX.m              526266.40:  UTM X
 WHEW.m                  -3.84:  WELL HEAD E/W
 WHNS.m                   2.88:  WELL HEAD N/S
 LONG.deg                51.31:  LONGITUDE
 LATI.deg                40.06:  LATITUDE
 TVDS.m                  43.42:  TVDSS CORRECTN
 DEP .m                 430.08:  DEPTH
 EKB .m                  43.42:  KB ELEVATION
 EDF .m                  43.42:  DF ELEVATION
 TDL .m                 559.00:  TOTAL DEPTH (LOGGER)
 MAGU.                 1849381:  MAGUTM CHECKSUM
 VSC .                       0:  VS TO CLOSURE
~Parameter Information Block
#MNEM.UNIT       Value        Description
#---------     -----------    ---------------------------
 AV  .mps                 4.87:  Ann Velocity 
 AVMX.mps                 7.08:  Max Ann Veloc 
 AZIF.deg               108.87:  Azm, Final 
 BHAT.                  Rotary:  BHA Type 
 BROT.°/30m               0.35:  Build Rotating 
 BS  .in                  8.50:  Bit Size 
 BSZ .in                  8.50:  Bit Size 
 BTPL.psig              360.00:  Bit Press Loss 
 CABU.                     Yes:  Customer Abuse 
 COMM.                     ÄìU:  Run Comments 1 
 TCS .hr                106.24:  Time Ciculation Ended 
 CV  .mps                 1.77:  Crit Velocity 
 CVMX.mps                 2.03:  Max Crit Veloc 
 DD1 .         Aykhan Agagulov:  Direct Drillr 1 
 DD2 .            Nonso Okofor:  Direct Drillr 2 
 DDSV.               Geo-Pilot:  DD Service 
 DEFF.%                  98.00:  % Det Eff 
 DLRX.°/30m               0.50:  Dogleg Rot Max 
 DLSO.°/30m               0.40:  Dogleg Oriented 
 DLSX.°/30m               0.94:  Dogleg Str Max 
 DRET.      20.30.00 08-Sep-20:  Drill End Time 
 DRST.      22.15.00 06-Sep-20:  Drill Start Tim 
 DTIM.hr                 31.31:  Time Drilling 
 EDEP.m                5790.01:  End Depth 
 ENG1.           Amrah Tahirov:  Engineer 1 
 ENG2.         Dair Mahammadov:  Engineer 2 
 ENG3.           Emil Huseynov:  Engineer 3 
 ETIM.      04.01.04 12-Sep-20:  End Time 
 FLOI.gpm               450.00:  Flow In 
 FLON.gpm               450.00:  Flow In Min 
 FLOS.cptm                2.00:  Fluid Loss 
 FLOX.gpm               450.00:  Flow In Max 
 FTRO.       Formation Presure:  FTWD Run Obj 
 HFLO.                      No:  High Flow 
 HPRE.                      No:  High Pressure 
 HTEM.                      No:  High Temp 
 HYDO.m                   1.80:  Hydro Offset 
 IFIN.deg                72.03:  Inc, Final 
 IMAX.deg                73.72:  Inc Max 
 IMIN.deg                70.94:  Inc Min 
 IMND.m                5508.52:  Inc Min Depth 
 IMXD.m                5253.60:  Inc Max Depth 
 JARR.                      No:  Jarring 
 LETM.      20.30.00 08-Sep-20:  Log End Time 
 LOST.hr                     0:  Lost Rig Time 
 LSTM.      22.15.00 06-Sep-20:  Log Start Time 
 MDCL.ppm             36000.00:  Mud Chlorides 
 MDES.     Inversion Oil/Synthetic:  Mud Desc 
 DFD .sg                  1.44:  Mud Density 
 MDMN.sg                  1.44:  Dens Mud Min 
 MDMX.sg                  1.57:  Dens Mud Max 
 MOIL.                      70:  Run Mud Oil % 
 MOWR.                   70:30:  Run Mud OWR 
 MSND.                       0:  Run Mud Sand % 
 MSOL.                      21:  Run Mud Solids% 
 DFV .spqt               68.00:  Mud Viscosity 
 MWOD.in                  6.75:  MWD Tool OD 
 MWSI.                     Yes:  Serv Intrp, MWD 
 OTIM.hr                174.84:  Time Operating 
 PCON.           Look Like New:  Pad Condition 
 PMAX.psia            10616.93:  Press Op, Max 
 PV  .cP                 50.00:  Mud PV 
 RUN .                     700:  Run Number 
 ROPA.m/hr               14.24:  ROP Avg 
 ROPN.m/hr               10.00:  ROP Min 
 ROPX.m/hr               32.00:  ROP Max 
 RPMA.rpm               120.90:  RPM Surface Avg 
 RPMN.rpm               120.00:  RPM Surface Min 
 RPMX.rpm               140.00:  RPM Surface Max 
 RRUN.                    0700:  Rig Run Number 
 RTIM.hr                  3.20:  Time Reaming 
 SAZI.deg               109.99:  Azm, Start 
 SDEP.m                5231.01:  Start Depth 
 SIDD.                      No:  Serv Intrp, DD 
 SINC.deg                73.72:  Inc, Start 
 SPPA.psig             3051.00:  SPP Avg 
 SPPN.psig             2950.00:  SPP Min 
 SPPX.psig             3250.00:  SPP Max 
 STIM.      08.00.00 05-Sep-20:  Start Time 
 SVCS.                 DD, MWD:  Services 
 SVER.                    9.20:  Sperry Version 
 TDAT.m                 559.00:  Tot Depth Attmp 
 TDDF.                      No:  Trip for DD 
 TDLG.m                 559.00:  Tot Depth Loggd 
 TFF .                      No:  Trip for Fail 
 TQAA.f-kp               26.49:  Torque Abs Avg 
 TQAN.f-kp               25.00:  Torque Abs Min 
 TQAX.f-kp               27.00:  Torque Abs Max 
 TRRT.°/30m               1.50:  Turn Rotating 
 MRT .                    HCIM:  Maximum Recorded Temperature 
 TTMX.degC               90.20:  Max Tool Temp 
 VS01.                90542671:  Virtual Str1 SN 
 VS02.                90545185:  Virtual Str2 SN 
 VS03.                90602015:  Virtual Str3 SN 
 VS04.                90515230:  Virtual Str4 SN 
 WBMN.klb                 5.00:  WOB Min 
 WOBA.klb                14.79:  WOB Avg 
 WOBX.klb                20.00:  WOB Max 
 YP  .lhf2               29.00:  Yield Point 
~Curve Information Block
#MNEM.UNIT                 API CODE     Curve Description
#---------               -----------    ---------------------------
 TIME.HHMMSS            00 000 000 000:  GT Time & Date
 GTDEPTH.m              00 000 000 000:  GT Depth
 GTPQH.psia             00 000 000 000:  GT HR Quartz Pressure
 GTTQ.degC              00 000 000 000:  GT Quartz Temperature
 GTTN.NONE              00 000 000 000:  GT Test Number
 GTET.sec               00 000 000 000:  GT Elapsed Test Time
 GTTVD.m                00 000 000 000:  GT True Vertical Depth
#Other Information
#
#WARRANTY: Halliburton will use its best efforts to furnish customers with 
#accurate information and interpretations that are part of, and incident to, the services 
#provided.  However, Halliburton cannot and does not warrant the accuracy 
#or correctness of such information and interpretations.  Under no circumstances should any 
#such information or interpretation be relied upon as the sole basis for any drilling, 
#completion, production, or financial decision or any procedure involving any risk to the 
#safety of any drilling venture, drilling rig or its crew or any other third party.  The 
#Customer has full responsibility for all drilling, completion and production operation.  
#Halliburton makes no representations or warranties, either expressed or 
#implied, including, but not limited to, the implied warranties of merchantability or fitness 
#for a particular purpose, with respect to the services rendered.  In no event will 
#Halliburton be liable for failure to obtain any particular results or for 
#any damages, including, but not limited to, indirect, special or consequential damages, 
#resulting from the use of any information or interpretation provided by Halliburton.
#
~A           TIME           GTDEPTH  GTPQH  GTTQ  GTTN   GTET   GTTVD  
# ...
   20:24:42.338.09-Sep-2020 5252.51  467.09 73.98 25.00 248.71 2542.44
   20:24:42.538.09-Sep-2020 5252.51  467.25 73.98 25.00 248.91 2542.44
   20:24:42.738.09-Sep-2020 5252.51  467.32 73.98 25.00 249.11 2542.44
   20:24:42.938.09-Sep-2020 5252.51  466.79 73.98 25.00 249.31 2542.44
   20:24:43.138.09-Sep-2020 5252.51  467.43 73.98 25.00 249.52 2542.44
   20:24:43.338.09-Sep-2020 5252.51  467.53 73.98 25.00 249.72 2542.44
   20:24:43.538.09-Sep-2020 5252.51  467.56 73.98 25.00 249.92 2542.44
   20:24:43.738.09-Sep-2020 5252.51  467.61 73.98 25.00 250.12 2542.44
   20:24:43.938.09-Sep-2020 5252.51  467.61 73.98 25.00 250.32 2542.44
   20:24:44.139.09-Sep-2020 5252.51  468.16 73.98 25.00 250.52 2542.44
   20:24:44.339.09-Sep-2020 5252.51  467.96 73.98 25.00 250.72 2542.44
   20:24:44.539.09-Sep-2020 5252.51  467.98 73.98 25.00 250.92 2542.44
   20:24:44.739.09-Sep-2020 5252.51  467.92 73.98 25.00 251.12 2542.44
   20:24:44.939.09-Sep-2020 5252.51  468.23 73.98 25.00 251.32 2542.44
   20:24:45.139.09-Sep-2020 5252.51  468.24 73.98 25.00 251.52 2542.44
   20:24:45.339.09-Sep-2020 5252.51  468.27 73.98 25.00 251.72 2542.44
   20:24:45.539.09-Sep-2020 5252.51  468.34 73.98 25.00 251.92 2542.44
   20:24:45.739.09-Sep-2020 5252.51  468.35 73.98 25.00 252.12 2542.44
   20:24:45.939.09-Sep-2020 5252.51  468.35 73.98 25.00 252.32 2542.44
   20:24:46.139.09-Sep-2020 5252.51  468.51 73.98 25.00 252.52 2542.44
   20:24:46.340.09-Sep-2020 5252.51  468.60 73.98 25.00 252.72 2542.44
   20:24:46.540.09-Sep-2020 5252.51  468.68 73.98 25.00 252.92 2542.44
   20:24:46.740.09-Sep-2020 5252.51  468.75 73.98 25.00 253.12 2542.44
   20:24:46.940.09-Sep-2020 5252.51  468.80 73.98 25.00 253.32 2542.44
   20:24:47.140.09-Sep-2020 5252.51  468.86 73.98 25.00 253.52 2542.44
   20:24:47.340.09-Sep-2020 5252.51  468.93 73.98 25.00 253.72 2542.44
   20:24:47.540.09-Sep-2020 5252.51  468.01 73.98 25.00 253.92 2542.44
   20:24:47.740.09-Sep-2020 5252.51  469.43 73.98 25.00 254.12 2542.44
   20:24:47.940.09-Sep-2020 5252.51  469.43 73.98 25.00 254.32 2542.44
   20:24:48.140.09-Sep-2020 5252.51  469.24 73.98 25.00 254.52 2542.44
   20:24:48.340.09-Sep-2020 5252.51  469.21 73.98 25.00 254.72 2542.44
   20:24:48.541.09-Sep-2020 5252.51  469.53 73.98 25.00 254.92 2542.44
   20:24:48.741.09-Sep-2020 5252.51  469.51 73.98 25.00 255.12 2542.44
   20:24:48.941.09-Sep-2020 5252.51  469.50 73.98 25.00 255.32 2542.44
   20:24:49.141.09-Sep-2020 5252.51  469.51 73.98 25.00 255.52 2542.44
   20:24:49.341.09-Sep-2020 5252.51  469.56 73.98 25.00 255.72 2542.44
   20:24:49.541.09-Sep-2020 5252.51  469.68 73.98 25.00 255.92 2542.44
   20:24:49.741.09-Sep-2020 5252.51  469.79 73.98 25.00 256.12 2542.44
   20:24:49.941.09-Sep-2020 5252.51  469.79 73.98 25.00 256.32 2542.44
   20:24:50.141.09-Sep-2020 5252.51  469.85 73.98 25.00 256.52 2542.44
   20:24:50.341.09-Sep-2020 5252.51  469.88 73.98 25.00 256.72 2542.44
   20:24:50.541.09-Sep-2020 5252.51  469.94 73.98 25.00 256.92 2542.44
   20:24:50.742.09-Sep-2020 5252.51  469.39 73.98 25.00 257.12 2542.44
   20:24:50.942.09-Sep-2020 5252.51  470.11 73.98 25.00 257.32 2542.44
   20:24:51.142.09-Sep-2020 5252.51  470.24 73.98 25.00 257.52 2542.44
   20:24:51.342.09-Sep-2020 5252.51  470.30 73.98 25.00 257.72 2542.44
   20:24:51.542.09-Sep-2020 5252.51  470.27 73.98 25.00 257.92 2542.44
   20:24:51.742.09-Sep-2020 5252.51  470.46 73.98 25.00 258.12 2542.44
   20:24:51.942.09-Sep-2020 5252.51  470.46 73.98 25.00 258.32 2542.44
   20:24:52.142.09-Sep-2020 5252.51  470.93 73.98 25.00 258.52 2542.44
   20:24:52.342.09-Sep-2020 5252.51  470.70 73.98 25.00 258.72 2542.44
   20:24:52.542.09-Sep-2020 5252.51  470.69 73.98 25.00 258.92 2542.44
   20:24:52.743.09-Sep-2020 5252.51  470.65 73.98 25.00 259.12 2542.44
   20:24:52.943.09-Sep-2020 5252.51  470.65 73.98 25.00 259.32 2542.44
   20:24:53.143.09-Sep-2020 5252.51  470.28 73.98 25.00 259.52 2542.44
   20:24:53.343.09-Sep-2020 5252.51  470.92 73.98 25.00 259.72 2542.44
   20:24:53.543.09-Sep-2020 5252.51  471.06 73.98 25.00 259.92 2542.44
   20:24:53.743.09-Sep-2020 5252.51  471.07 73.98 25.00 260.12 2542.44
   20:24:53.943.09-Sep-2020 5252.51  471.07 73.98 25.00 260.32 2542.44
   20:24:54.143.09-Sep-2020 5252.51  471.31 73.98 25.00 260.52 2542.44
   20:24:54.343.09-Sep-2020 5252.51  471.27 73.98 25.00 260.72 2542.44
   20:24:54.543.09-Sep-2020 5252.51  470.76 73.98 25.00 260.92 2542.44
   20:24:54.743.09-Sep-2020 5252.51  471.43 73.98 25.00 261.12 2542.44
   20:24:54.944.09-Sep-2020 5252.51  471.50 73.98 25.00 261.32 2542.44
   20:24:55.144.09-Sep-2020 5252.51  471.57 73.98 25.00 261.52 2542.44
   20:24:55.344.09-Sep-2020 5252.51  471.61 73.98 25.00 261.72 2542.44
   20:24:55.544.09-Sep-2020 5252.51  471.82 73.98 25.00 261.92 2542.44
   20:24:55.744.09-Sep-2020 5252.51  470.81 73.98 25.00 262.12 2542.44
   20:24:55.944.09-Sep-2020 5252.51  470.81 73.98 25.00 262.32 2542.44
   20:24:56.144.09-Sep-2020 5252.51  471.98 73.98 25.00 262.52 2542.44
   20:24:56.344.09-Sep-2020 5252.51  472.01 73.98 25.00 262.72 2542.44
   20:24:56.544.09-Sep-2020 5252.51  472.01 73.98 25.00 262.92 2542.44
   20:24:56.744.09-Sep-2020 5252.51  472.30 73.98 25.00 263.12 2542.44
   20:24:56.944.09-Sep-2020 5252.51  472.30 73.98 25.00 263.32 2542.44
   20:24:57.145.09-Sep-2020 5252.51  472.32 73.98 25.00 263.52 2542.44
   20:24:57.345.09-Sep-2020 5252.51  472.33 73.98 25.00 263.72 2542.44
   20:24:57.545.09-Sep-2020 5252.51  472.37 73.98 25.00 263.92 2542.44
   20:24:57.745.09-Sep-2020 5252.51  472.46 73.98 25.00 264.12 2542.44
   20:24:57.945.09-Sep-2020 5252.51  472.46 73.98 25.00 264.32 2542.44
   20:24:58.145.09-Sep-2020 5252.51  472.66 73.98 25.00 264.52 2542.44
   20:24:58.345.09-Sep-2020 5252.51  472.72 73.98 25.00 264.72 2542.44
   20:24:58.545.09-Sep-2020 5252.51  472.77 73.98 25.00 264.92 2542.44
   20:24:58.745.09-Sep-2020 5252.51  472.84 73.98 25.00 265.12 2542.44
   20:24:58.945.09-Sep-2020 5252.51  472.90 73.98 25.00 265.32 2542.44
   20:24:59.145.09-Sep-2020 5252.51  472.96 73.98 25.00 265.52 2542.44
   20:24:59.346.09-Sep-2020 5252.51  472.05 73.98 25.00 265.72 2542.44
   20:24:59.546.09-Sep-2020 5252.51  473.42 73.98 25.00 265.92 2542.44
   20:24:59.746.09-Sep-2020 5252.51  473.20 73.98 25.00 266.12 2542.44
   20:24:59.946.09-Sep-2020 5252.51  473.24 73.98 25.00 266.32 2542.44
   20:25:00.146.09-Sep-2020 5252.51  473.26 73.98 25.00 266.52 2542.44
   20:25:00.346.09-Sep-2020 5252.51  473.55 73.98 25.00 266.72 2542.44
   20:25:00.546.09-Sep-2020 5252.51  473.46 73.98 25.00 266.92 2542.44
   20:25:00.746.09-Sep-2020 5252.51  473.44 73.98 25.00 267.12 2542.44
   20:25:00.946.09-Sep-2020 5252.51  473.44 73.98 25.00 267.32 2542.44
   20:25:01.146.09-Sep-2020 5252.51  473.55 73.98 25.00 267.52 2542.44
   20:25:01.346.09-Sep-2020 5252.51  473.68 73.98 25.00 267.72 2542.44
   20:25:01.547.09-Sep-2020 5252.51  473.76 73.98 25.00 267.92 2542.44
   20:25:01.747.09-Sep-2020 5252.51  473.75 73.98 25.00 268.12 2542.44
   20:25:01.947.09-Sep-2020 5252.51  473.75 73.98 25.00 268.32 2542.44
   20:25:02.147.09-Sep-2020 5252.51  473.83 73.98 25.00 268.52 2542.44
   20:25:02.347.09-Sep-2020 5252.51  473.91 73.98 25.00 268.72 2542.44
   20:25:02.547.09-Sep-2020 5252.51  473.39 73.98 25.00 268.92 2542.44
   20:25:02.747.09-Sep-2020 5252.51  474.02 73.98 25.00 269.12 2542.44
   20:25:02.947.09-Sep-2020 5252.51  474.10 73.98 25.00 269.32 2542.44
   20:25:03.147.09-Sep-2020 5252.51  474.13 73.98 25.00 269.52 2542.44
   20:25:03.347.09-Sep-2020 5252.51  474.15 73.98 25.00 269.72 2542.44
   20:25:03.547.09-Sep-2020 5252.51  474.37 73.98 25.00 269.92 2542.44
   20:25:03.748.09-Sep-2020 5252.51  473.36 73.98 25.00 270.12 2542.44
   20:25:03.948.09-Sep-2020 5252.51  473.36 73.98 25.00 270.32 2542.44
   20:25:04.148.09-Sep-2020 5252.51  474.53 73.98 25.00 270.52 2542.44
   20:25:04.348.09-Sep-2020 5252.51  474.49 73.98 25.00 270.72 2542.44
   20:25:04.548.09-Sep-2020 5252.51  474.45 73.98 25.00 270.92 2542.44
   20:25:04.748.09-Sep-2020 5252.51  474.75 73.98 25.00 271.12 2542.44
