~Version Information
 VERS.                  2.0:   CWLS log ASCII Standard -VERSION 2.0
 WRAP.                   NO:   One line per depth step
~Well Information Block
#MNEM.UNIT     VALUE/NAME     DESCRIPTION
#---------     -----------    ---------------------------
 STRT.S             18:19:19 09-Sep-20: START TIME 18:19:19 09-Sep-20
 STOP.S             18:27:34 09-Sep-20: STOP TIME  18:27:34 09-Sep-20
 STEP.S                   0.00: STEP TIME
 NULL.                 -999.25: NULL VALUE
 MDS .        Operator Entered:  MAG DATA SOURCE
 PDAT.          Mean Sea Level:  PERMANENT DATUM
 DCON.         Sperry Drilling:  DIRECTNL CONTR
 RIG .              West Azeri:  RIG NAME
 WELL.           C40 (Slot 20):  WELL NAME
 SRVC.     Turan Drilling Engineering:  CONTRACTOR
 FLD .                     ACG:  FIELD NAME
 CTRY.              Azerbaijan:  COUNTRY NAME
 PROV.                    Baku:  PROVINCE
 STAT.                    Baku:  STATE NAME
 REGN.                   EESSA:  REGION
 BASE.              Azerbaijan:  LOGGING EQUIPMENT BASE LOCATION
 COMP.     BP Exploration (Caspian Sea) Ltd:  COMPANY
 WTYP.                Deviated:  WELL TYPE
 SON .        AZ-XX-0906344804:  JOB NUMBER
 FTOP.          Formation Tops:  FORM TOPS DESC
 ILTD.               Lithology:  INTERP LTH DESC
 SVYD.                  Survey:  SURVEY DESC
 DMOD.             Drill Model:  DRILL MOD DESC
 HPTY.       Minimum Curvature:  HOLE POS TYPE
 NREF.                    Grid:  NORTH REFERENCE
 SPUD.               01-Jan-20:  SPUD DATE
 DATE.      00.59.44 15-Sep-20:  END TIME
 STIM.      12.00.00 12-Jun-20:  START TIME
 DMF .             Drill Floor:  DRILL MEAS FROM
 DFST.                        :  DIST FSL TEXT
 DFWT.                        :  DIST FWL TEXT
 API .                        :  API NUMBER
 CNTY.                        :  COUNTY
 UWI .                        :  UNIQUE WELL IDENTIFIER
 LOC .                        :  LOCATION
 LMF .             Drill Floor:  LOG MEASURED FROM
 VSNS.m                   2.88:  VERT SEC N/S
 VSEW.m                  -3.84:  VERT SEC E/W
 AGAP.m                  43.42:  AIR GAP
 APD .m                  43.42:  DEPTH ABOVE PD
 WDMS.m                 118.27:  WD ELEV
 EGL .m                   0.00:  GROUND ELEVATION
 EPD .m                   0.00:  ELEVATION
 AZTC.deg                 6.23:  AZM TOTAL CORR
 GRDC.deg                 0.20:  GRID CORRECTION
 MDEC.deg                 6.43:  MAGNETIC DECL
 MDIP.deg                59.49:  MAGNETIC DIP
 MFLD.nT              50277.00:  MAGNETIC FIELD
 GVFD.g                   1.00:  GRAVITY FIELD
 VSDR.deg               173.20:  VERT SEC DIRECT
 TDD .m                5790.01:  TOTAL DEPTH (DRILLER)
 SDEP.m                5231.01:  START DEPTH
 DFSL.m                   0.00:  DISTANCE FSL
 DFWL.m                   0.00:  DISTANCE FWL
 UTMY.m             4435808.83:  UTM Y
 UTMX.m              526266.40:  UTM X
 WHEW.m                  -3.84:  WELL HEAD E/W
 WHNS.m                   2.88:  WELL HEAD N/S
 LONG.deg                51.31:  LONGITUDE
 LATI.deg                40.06:  LATITUDE
 TVDS.m                  43.42:  TVDSS CORRECTN
 DEP .m                 430.08:  DEPTH
 EKB .m                  43.42:  KB ELEVATION
 EDF .m                  43.42:  DF ELEVATION
 TDL .m                 559.00:  TOTAL DEPTH (LOGGER)
 MAGU.                 1849381:  MAGUTM CHECKSUM
 VSC .                       0:  VS TO CLOSURE
~Parameter Information Block
#MNEM.UNIT       Value        Description
#---------     -----------    ---------------------------
 AV  .mps                 4.87:  Ann Velocity 
 AVMX.mps                 7.08:  Max Ann Veloc 
 AZIF.deg               108.87:  Azm, Final 
 BHAT.                  Rotary:  BHA Type 
 BROT.°/30m               0.35:  Build Rotating 
 BS  .in                  8.50:  Bit Size 
 BSZ .in                  8.50:  Bit Size 
 BTPL.psig              360.00:  Bit Press Loss 
 CABU.                     Yes:  Customer Abuse 
 TCS .hr                106.24:  Time Ciculation Ended 
 CV  .mps                 1.77:  Crit Velocity 
 CVMX.mps                 2.03:  Max Crit Veloc 
 DD1 .         Aykhan Agagulov:  Direct Drillr 1 
 DD2 .            Nonso Okofor:  Direct Drillr 2 
 DDSV.               Geo-Pilot:  DD Service 
 DEFF.%                  98.00:  % Det Eff 
 DLRX.°/30m               0.50:  Dogleg Rot Max 
 DLSO.°/30m               0.40:  Dogleg Oriented 
 DLSX.°/30m               0.94:  Dogleg Str Max 
 DRET.      20.30.00 08-Sep-20:  Drill End Time 
 DRST.      22.15.00 06-Sep-20:  Drill Start Tim 
 DTIM.hr                 31.31:  Time Drilling 
 EDEP.m                5790.01:  End Depth 
 ENG1.           Amrah Tahirov:  Engineer 1 
 ENG2.         Dair Mahammadov:  Engineer 2 
 ENG3.           Emil Huseynov:  Engineer 3 
 ETIM.      04.01.04 12-Sep-20:  End Time 
 FLOI.gpm               450.00:  Flow In 
 FLON.gpm               450.00:  Flow In Min 
 FLOS.cptm                2.00:  Fluid Loss 
 FLOX.gpm               450.00:  Flow In Max 
 FTRO.       Formation Presure:  FTWD Run Obj 
 HFLO.                      No:  High Flow 
 HPRE.                      No:  High Pressure 
 HTEM.                      No:  High Temp 
 HYDO.m                   1.80:  Hydro Offset 
 IFIN.deg                72.03:  Inc, Final 
 IMAX.deg                73.72:  Inc Max 
 IMIN.deg                70.94:  Inc Min 
 IMND.m                5508.52:  Inc Min Depth 
 IMXD.m                5253.60:  Inc Max Depth 
 JARR.                      No:  Jarring 
 LETM.      20.30.00 08-Sep-20:  Log End Time 
 LOST.hr                     0:  Lost Rig Time 
 LSTM.      22.15.00 06-Sep-20:  Log Start Time 
 MDCL.ppm             36000.00:  Mud Chlorides 
 MDES.     Inversion Oil/Synthetic:  Mud Desc 
 DFD .sg                  1.44:  Mud Density 
 MDMN.sg                  1.44:  Dens Mud Min 
 MDMX.sg                  1.57:  Dens Mud Max 
 MOIL.                      70:  Run Mud Oil % 
 MOWR.                   70:30:  Run Mud OWR 
 MSND.                       0:  Run Mud Sand % 
 MSOL.                      21:  Run Mud Solids% 
 DFV .spqt               68.00:  Mud Viscosity 
 MWOD.in                  6.75:  MWD Tool OD 
 MWSI.                     Yes:  Serv Intrp, MWD 
 OTIM.hr                174.84:  Time Operating 
 PCON.           Look Like New:  Pad Condition 
 PMAX.psia            10616.93:  Press Op, Max 
 PV  .cP                 50.00:  Mud PV 
 RUN .                     700:  Run Number 
 ROPA.m/hr               14.24:  ROP Avg 
 ROPN.m/hr               10.00:  ROP Min 
 ROPX.m/hr               32.00:  ROP Max 
 RPMA.rpm               120.90:  RPM Surface Avg 
 RPMN.rpm               120.00:  RPM Surface Min 
 RPMX.rpm               140.00:  RPM Surface Max 
 RRUN.                    0700:  Rig Run Number 
 RTIM.hr                  3.20:  Time Reaming 
 SAZI.deg               109.99:  Azm, Start 
 SDEP.m                5231.01:  Start Depth 
 SIDD.                      No:  Serv Intrp, DD 
 SINC.deg                73.72:  Inc, Start 
 SPPA.psig             3051.00:  SPP Avg 
 SPPN.psig             2950.00:  SPP Min 
 SPPX.psig             3250.00:  SPP Max 
 STIM.      08.00.00 05-Sep-20:  Start Time 
 SVCS.                 DD, MWD:  Services 
 SVER.                    9.20:  Sperry Version 
 TDAT.m                 559.00:  Tot Depth Attmp 
 TDDF.                      No:  Trip for DD 
 TDLG.m                 559.00:  Tot Depth Loggd 
 TFF .                      No:  Trip for Fail 
 TQAA.f-kp               26.49:  Torque Abs Avg 
 TQAN.f-kp               25.00:  Torque Abs Min 
 TQAX.f-kp               27.00:  Torque Abs Max 
 TRRT.°/30m               1.50:  Turn Rotating 
 MRT .                    HCIM:  Maximum Recorded Temperature 
 TTMX.degC               90.20:  Max Tool Temp 
 VS01.                90542671:  Virtual Str1 SN 
 VS02.                90545185:  Virtual Str2 SN 
 VS03.                90602015:  Virtual Str3 SN 
 VS04.                90515230:  Virtual Str4 SN 
 WBMN.klb                 5.00:  WOB Min 
 WOBA.klb                14.79:  WOB Avg 
 WOBX.klb                20.00:  WOB Max 
 YP  .lhf2               29.00:  Yield Point 
~Curve Information Block
#MNEM.UNIT                 API CODE     Curve Description
#---------               -----------    ---------------------------
 TIME.HHMMSS            00 000 000 000:  GT Time & Date
 GTDEPTH.m              00 000 000 000:  GT Depth
 GTPQH.psia             00 000 000 000:  GT HR Quartz Pressure
 GTTQ.degC              00 000 000 000:  GT Quartz Temperature
 GTTN.NONE              00 000 000 000:  GT Test Number
 GTET.sec               00 000 000 000:  GT Elapsed Test Time
 GTTVD.m                00 000 000 000:  GT True Vertical Depth
#Other Information
#
#WARRANTY: Halliburton will use its best efforts to furnish customers with 
#accurate information and interpretations that are part of, and incident to, the services 
#provided.  However, Halliburton cannot and does not warrant the accuracy 
#or correctness of such information and interpretations.  Under no circumstances should any 
#such information or interpretation be relied upon as the sole basis for any drilling, 
#completion, production, or financial decision or any procedure involving any risk to the 
#safety of any drilling venture, drilling rig or its crew or any other third party.  The 
#Customer has full responsibility for all drilling, completion and production operation.  
#Halliburton makes no representations or warranties, either expressed or 
#implied, including, but not limited to, the implied warranties of merchantability or fitness 
#for a particular purpose, with respect to the services rendered.  In no event will 
#Halliburton be liable for failure to obtain any particular results or for 
#any damages, including, but not limited to, indirect, special or consequential damages, 
#resulting from the use of any information or interpretation provided by Halliburton.
#
~A           TIME           GTDEPTH  GTPQH  GTTQ  GTTN   GTET   GTTVD  
# ...
   18:24:13.512.09-Sep-2020 5281.01 4064.15 74.56 21.00 293.57 2550.59
   18:24:13.712.09-Sep-2020 5281.01 4064.08 74.56 21.00 293.77 2550.59
   18:24:13.911.09-Sep-2020 5281.01 4064.08 74.56 21.00 293.97 2550.59
   18:24:14.111.09-Sep-2020 5281.01 4062.37 74.56 21.00 294.17 2550.59
   18:24:14.311.09-Sep-2020 5281.01 4062.86 74.56 21.00 294.37 2550.59
   18:24:14.511.09-Sep-2020 5281.01 4063.00 74.56 21.00 294.57 2550.59
   18:24:14.711.09-Sep-2020 5281.01 4063.40 74.56 21.00 294.77 2550.59
   18:24:14.911.09-Sep-2020 5281.01 4063.40 74.56 21.00 294.97 2550.59
   18:24:15.111.09-Sep-2020 5281.01 4064.09 74.56 21.00 295.17 2550.59
   18:24:15.310.09-Sep-2020 5281.01 4062.59 74.56 21.00 295.37 2550.59
   18:24:15.510.09-Sep-2020 5281.01 4062.55 74.56 21.00 295.57 2550.59
   18:24:15.710.09-Sep-2020 5281.01 4063.53 74.56 21.00 295.77 2550.59
   18:24:15.910.09-Sep-2020 5281.01 4063.53 74.56 21.00 295.97 2550.59
   18:24:16.110.09-Sep-2020 5281.01 4064.39 74.56 21.00 296.17 2550.59
   18:24:16.310.09-Sep-2020 5281.01 4064.40 74.56 21.00 296.37 2550.59
   18:24:16.509.09-Sep-2020 5281.01 4064.29 74.55 21.00 296.57 2550.59
   18:24:16.709.09-Sep-2020 5281.01 4062.72 74.56 21.00 296.77 2550.59
   18:24:16.909.09-Sep-2020 5281.01 4062.72 74.55 21.00 296.97 2550.59
   18:24:17.109.09-Sep-2020 5281.01 4063.92 74.55 21.00 297.17 2550.59
   18:24:17.309.09-Sep-2020 5281.01 4064.24 74.55 21.00 297.37 2550.59
   18:24:17.509.09-Sep-2020 5281.01 4064.68 74.55 21.00 297.57 2550.59
   18:24:17.708.09-Sep-2020 5281.01 4064.57 74.55 21.00 297.77 2550.59
   18:24:17.908.09-Sep-2020 5281.01 4064.57 74.55 21.00 297.97 2550.59
   18:24:18.108.09-Sep-2020 5281.01 4063.39 74.55 21.00 298.17 2550.59
   18:24:18.308.09-Sep-2020 5281.01 4063.70 74.55 21.00 298.37 2550.59
   18:24:18.508.09-Sep-2020 5281.01 4063.64 74.55 21.00 298.57 2550.59
   18:24:18.708.09-Sep-2020 5281.01 4064.25 74.55 21.00 298.77 2550.59
   18:24:18.908.09-Sep-2020 5281.01 4064.25 74.55 21.00 298.97 2550.59
   18:24:19.107.09-Sep-2020 5281.01 4064.90 74.55 21.00 299.17 2550.59
   18:24:19.307.09-Sep-2020 5281.01 4064.81 74.55 21.00 299.37 2550.59
   18:24:19.507.09-Sep-2020 5281.01 4064.66 74.55 21.00 299.57 2550.59
   18:24:19.707.09-Sep-2020 5281.01 4063.07 74.55 21.00 299.76 2550.59
   18:24:19.907.09-Sep-2020 5281.01 4063.07 74.55 21.00 299.96 2550.59
   18:24:20.107.09-Sep-2020 5281.01 4064.30 74.55 21.00 300.16 2550.59
   18:24:20.306.09-Sep-2020 5281.01 4064.53 74.55 21.00 300.36 2550.59
   18:24:20.506.09-Sep-2020 5281.01 4064.91 74.55 21.00 300.56 2550.59
   18:24:20.706.09-Sep-2020 5281.01 4064.71 74.55 21.00 300.76 2550.59
   18:24:20.906.09-Sep-2020 5281.01 4064.86 74.55 21.00 300.96 2550.59
   18:24:21.106.09-Sep-2020 5281.01 4064.91 74.55 21.00 301.16 2550.59
   18:24:21.306.09-Sep-2020 5281.01 4065.02 74.55 21.00 301.36 2550.59
   18:24:21.506.09-Sep-2020 5281.01 4064.96 74.55 21.00 301.56 2550.59
   18:24:21.705.09-Sep-2020 5281.01 4064.94 74.55 21.00 301.76 2550.59
   18:24:21.905.09-Sep-2020 5281.01 4064.94 74.55 21.00 301.96 2550.59
   18:24:22.105.09-Sep-2020 5281.01 4064.86 74.55 21.00 302.16 2550.59
   18:24:22.305.09-Sep-2020 5281.01 4064.85 74.55 21.00 302.36 2550.59
   18:24:22.505.09-Sep-2020 5281.01 4064.84 74.55 21.00 302.56 2550.59
   18:24:22.705.09-Sep-2020 5281.01 4064.82 74.55 21.00 302.76 2550.59
   18:24:22.904.09-Sep-2020 5281.01 4064.82 74.55 21.00 302.96 2550.59
   18:24:23.104.09-Sep-2020 5281.01 4064.73 74.55 21.00 303.16 2550.59
   18:24:23.304.09-Sep-2020 5281.01 4063.44 74.55 21.00 303.36 2550.59
   18:24:23.504.09-Sep-2020 5281.01 4063.62 74.55 21.00 303.56 2550.59
   18:24:23.704.09-Sep-2020 5281.01 4063.38 74.55 21.00 303.76 2550.59
   18:24:23.904.09-Sep-2020 5281.01 4063.38 74.55 21.00 303.96 2550.59
   18:24:24.103.09-Sep-2020 5281.01 4063.99 74.55 21.00 304.16 2550.59
   18:24:24.303.09-Sep-2020 5281.01 4064.49 74.55 21.00 304.36 2550.59
   18:24:24.503.09-Sep-2020 5281.01 4064.49 74.55 21.00 304.56 2550.59
   18:24:24.703.09-Sep-2020 5281.01 4064.64 74.55 21.00 304.76 2550.59
   18:24:24.903.09-Sep-2020 5281.01 4064.64 74.55 21.00 304.96 2550.59
   18:24:25.103.09-Sep-2020 5281.01 4064.58 74.55 21.00 305.16 2550.59
   18:24:25.303.09-Sep-2020 5281.01 4064.60 74.55 21.00 305.36 2550.59
   18:24:25.502.09-Sep-2020 5281.01 4064.64 74.55 21.00 305.56 2550.59
   18:24:25.702.09-Sep-2020 5281.01 4064.65 74.55 21.00 305.76 2550.59
   18:24:25.902.09-Sep-2020 5281.01 4064.65 74.55 21.00 305.96 2550.59
   18:24:26.102.09-Sep-2020 5281.01 4064.67 74.55 21.00 306.16 2550.59
   18:24:26.302.09-Sep-2020 5281.01 4064.63 74.55 21.00 306.36 2550.59
   18:24:26.502.09-Sep-2020 5281.01 4064.51 74.55 21.00 306.56 2550.59
   18:24:26.701.09-Sep-2020 5281.01 4062.82 74.55 21.00 306.76 2550.59
   18:24:26.901.09-Sep-2020 5281.01 4062.82 74.55 21.00 306.96 2550.59
   18:24:27.101.09-Sep-2020 5281.01 4063.57 74.55 21.00 307.16 2550.59
   18:24:27.301.09-Sep-2020 5281.01 4064.00 74.55 21.00 307.36 2550.59
   18:24:27.501.09-Sep-2020 5281.01 4064.11 74.55 21.00 307.56 2550.59
   18:24:27.701.09-Sep-2020 5281.01 4064.67 74.55 21.00 307.76 2550.59
   18:24:27.901.09-Sep-2020 5281.01 4064.67 74.55 21.00 307.96 2550.59
   18:24:28.100.09-Sep-2020 5281.01 4063.18 74.55 21.00 308.16 2550.59
   18:24:28.300.09-Sep-2020 5281.01 4064.11 74.55 21.00 308.36 2550.59
   18:24:28.500.09-Sep-2020 5281.01 4064.34 74.55 21.00 308.56 2550.59
   18:24:28.700.09-Sep-2020 5281.01 4064.77 74.55 21.00 308.76 2550.59
   18:24:28.900.09-Sep-2020 5281.01 4064.77 74.55 21.00 308.96 2550.59
   18:24:29.100.09-Sep-2020 5281.01 4064.78 74.55 21.00 309.16 2550.59
   18:24:29.299.09-Sep-2020 5281.01 4063.26 74.55 21.00 309.36 2550.59
   18:24:29.499.09-Sep-2020 5281.01 4063.74 74.55 21.00 309.56 2550.59
   18:24:29.699.09-Sep-2020 5281.01 4064.39 74.55 21.00 309.76 2550.59
   18:24:29.899.09-Sep-2020 5281.01 4064.39 74.55 21.00 309.96 2550.59
   18:24:30.099.09-Sep-2020 5281.01 4065.13 74.55 21.00 310.16 2550.59
   18:24:30.299.09-Sep-2020 5281.01 4065.03 74.55 21.00 310.36 2550.59
   18:24:30.498.09-Sep-2020 5281.01 4065.20 74.55 21.00 310.56 2550.59
   18:24:30.698.09-Sep-2020 5281.01 4063.53 74.55 21.00 310.76 2550.59
   18:24:30.898.09-Sep-2020 5281.01 4063.53 74.55 21.00 310.96 2550.59
   18:24:31.098.09-Sep-2020 5281.01 4064.38 74.55 21.00 311.16 2550.59
   18:24:31.298.09-Sep-2020 5281.01 4064.90 74.55 21.00 311.36 2550.59
   18:24:31.498.09-Sep-2020 5281.01 4064.98 74.55 21.00 311.56 2550.59
   18:24:31.698.09-Sep-2020 5281.01 4065.50 74.55 21.00 311.76 2550.59
   18:24:31.897.09-Sep-2020 5281.01 4065.50 74.55 21.00 311.96 2550.59
   18:24:32.097.09-Sep-2020 5281.01 4065.43 74.55 21.00 312.16 2550.59
   18:24:32.297.09-Sep-2020 5281.01 4064.04 74.55 21.00 312.35 2550.59
   18:24:32.497.09-Sep-2020 5281.01 4063.72 74.55 21.00 312.55 2550.59
   18:24:32.697.09-Sep-2020 5281.01 3739.00 74.55 21.00 312.75 2550.59
   18:24:32.897.09-Sep-2020 5281.01 3739.00 74.55 21.00 312.95 2550.59
   18:24:33.096.09-Sep-2020 5281.01 2945.39 74.55 21.00 313.15 2550.59
   18:24:33.296.09-Sep-2020 5281.01 2653.97 74.55 21.00 313.35 2550.59
   18:24:33.496.09-Sep-2020 5281.01 2419.19 74.55 21.00 313.55 2550.59
   18:24:33.696.09-Sep-2020 5281.01 2212.90 74.55 21.00 313.75 2550.59
   18:24:33.896.09-Sep-2020 5281.01 2212.90 74.55 21.00 313.95 2550.59
   18:24:34.096.09-Sep-2020 5281.01 1888.38 74.55 21.00 314.15 2550.59
   18:24:34.295.09-Sep-2020 5281.01 1752.24 74.55 21.00 314.35 2550.59
   18:24:34.495.09-Sep-2020 5281.01 1628.96 74.55 21.00 314.55 2550.59
   18:24:34.695.09-Sep-2020 5281.01 1523.36 74.55 21.00 314.75 2550.59
   18:24:34.895.09-Sep-2020 5281.01 1523.36 74.55 21.00 314.95 2550.59
   18:24:35.095.09-Sep-2020 5281.01 1352.55 74.54 21.00 315.15 2550.59
   18:24:35.295.09-Sep-2020 5281.01 1273.52 74.54 21.00 315.35 2550.59
   18:24:35.495.09-Sep-2020 5281.01 1211.61 74.54 21.00 315.55 2550.59
   18:24:35.694.09-Sep-2020 5281.01 1149.40 74.54 21.00 315.75 2550.59
   18:24:35.894.09-Sep-2020 5281.01 1149.40 74.54 21.00 315.95 2550.59
