~Version Information
 VERS.                  2.0:   CWLS log ASCII Standard -VERSION 2.0
 WRAP.                   NO:   One line per depth step
~Well Information Block
#MNEM.UNIT     VALUE/NAME     DESCRIPTION
#---------     -----------    ---------------------------
 STRT.S             14:18:02 09-Sep-20: START TIME 14:18:02 09-Sep-20
 STOP.S             14:26:13 09-Sep-20: STOP TIME  14:26:13 09-Sep-20
 STEP.S                   0.00: STEP TIME
 NULL.                 -999.25: NULL VALUE
 MDS .        Operator Entered:  MAG DATA SOURCE
 PDAT.          Mean Sea Level:  PERMANENT DATUM
 DCON.         Sperry Drilling:  DIRECTNL CONTR
 RIG .              West Azeri:  RIG NAME
 WELL.           C40 (Slot 20):  WELL NAME
 SRVC.     Turan Drilling Engineering:  CONTRACTOR
 FLD .                     ACG:  FIELD NAME
 CTRY.              Azerbaijan:  COUNTRY NAME
 PROV.                    Baku:  PROVINCE
 STAT.                    Baku:  STATE NAME
 REGN.                   EESSA:  REGION
 BASE.              Azerbaijan:  LOGGING EQUIPMENT BASE LOCATION
 COMP.     BP Exploration (Caspian Sea) Ltd:  COMPANY
 WTYP.                Deviated:  WELL TYPE
 SON .        AZ-XX-0906344804:  JOB NUMBER
 FTOP.          Formation Tops:  FORM TOPS DESC
 ILTD.               Lithology:  INTERP LTH DESC
 SVYD.                  Survey:  SURVEY DESC
 DMOD.             Drill Model:  DRILL MOD DESC
 HPTY.       Minimum Curvature:  HOLE POS TYPE
 NREF.                    Grid:  NORTH REFERENCE
 SPUD.               01-Jan-20:  SPUD DATE
 DATE.      00.59.44 15-Sep-20:  END TIME
 STIM.      12.00.00 12-Jun-20:  START TIME
 DMF .             Drill Floor:  DRILL MEAS FROM
 DFST.                        :  DIST FSL TEXT
 DFWT.                        :  DIST FWL TEXT
 API .                        :  API NUMBER
 CNTY.                        :  COUNTY
 UWI .                        :  UNIQUE WELL IDENTIFIER
 LOC .                        :  LOCATION
 LMF .             Drill Floor:  LOG MEASURED FROM
 VSNS.m                   2.88:  VERT SEC N/S
 VSEW.m                  -3.84:  VERT SEC E/W
 AGAP.m                  43.42:  AIR GAP
 APD .m                  43.42:  DEPTH ABOVE PD
 WDMS.m                 118.27:  WD ELEV
 EGL .m                   0.00:  GROUND ELEVATION
 EPD .m                   0.00:  ELEVATION
 AZTC.deg                 6.23:  AZM TOTAL CORR
 GRDC.deg                 0.20:  GRID CORRECTION
 MDEC.deg                 6.43:  MAGNETIC DECL
 MDIP.deg                59.49:  MAGNETIC DIP
 MFLD.nT              50277.00:  MAGNETIC FIELD
 GVFD.g                   1.00:  GRAVITY FIELD
 VSDR.deg               173.20:  VERT SEC DIRECT
 TDD .m                5790.01:  TOTAL DEPTH (DRILLER)
 SDEP.m                5231.01:  START DEPTH
 DFSL.m                   0.00:  DISTANCE FSL
 DFWL.m                   0.00:  DISTANCE FWL
 UTMY.m             4435808.83:  UTM Y
 UTMX.m              526266.40:  UTM X
 WHEW.m                  -3.84:  WELL HEAD E/W
 WHNS.m                   2.88:  WELL HEAD N/S
 LONG.deg                51.31:  LONGITUDE
 LATI.deg                40.06:  LATITUDE
 TVDS.m                  43.42:  TVDSS CORRECTN
 DEP .m                 430.08:  DEPTH
 EKB .m                  43.42:  KB ELEVATION
 EDF .m                  43.42:  DF ELEVATION
 TDL .m                 559.00:  TOTAL DEPTH (LOGGER)
 MAGU.                 1849381:  MAGUTM CHECKSUM
 VSC .                       0:  VS TO CLOSURE
~Parameter Information Block
#MNEM.UNIT       Value        Description
#---------     -----------    ---------------------------
 AV  .mps                 4.87:  Ann Velocity 
 AVMX.mps                 7.08:  Max Ann Veloc 
 AZIF.deg               108.87:  Azm, Final 
 BHAT.                  Rotary:  BHA Type 
 BROT.°/30m               0.35:  Build Rotating 
 BS  .in                  8.50:  Bit Size 
 BSZ .in                  8.50:  Bit Size 
 BTPL.psig              360.00:  Bit Press Loss 
 CABU.                     Yes:  Customer Abuse 
 TCS .hr                106.24:  Time Ciculation Ended 
 CV  .mps                 1.77:  Crit Velocity 
 CVMX.mps                 2.03:  Max Crit Veloc 
 DD1 .         Aykhan Agagulov:  Direct Drillr 1 
 DD2 .            Nonso Okofor:  Direct Drillr 2 
 DDSV.               Geo-Pilot:  DD Service 
 DEFF.%                  98.00:  % Det Eff 
 DLRX.°/30m               0.50:  Dogleg Rot Max 
 DLSO.°/30m               0.40:  Dogleg Oriented 
 DLSX.°/30m               0.94:  Dogleg Str Max 
 DRET.      20.30.00 08-Sep-20:  Drill End Time 
 DRST.      22.15.00 06-Sep-20:  Drill Start Tim 
 DTIM.hr                 31.31:  Time Drilling 
 EDEP.m                5790.01:  End Depth 
 ENG1.           Amrah Tahirov:  Engineer 1 
 ENG2.         Dair Mahammadov:  Engineer 2 
 ENG3.           Emil Huseynov:  Engineer 3 
 ETIM.      04.01.04 12-Sep-20:  End Time 
 FLOI.gpm               450.00:  Flow In 
 FLON.gpm               450.00:  Flow In Min 
 FLOS.cptm                2.00:  Fluid Loss 
 FLOX.gpm               450.00:  Flow In Max 
 FTRO.       Formation Presure:  FTWD Run Obj 
 HFLO.                      No:  High Flow 
 HPRE.                      No:  High Pressure 
 HTEM.                      No:  High Temp 
 HYDO.m                   1.80:  Hydro Offset 
 IFIN.deg                72.03:  Inc, Final 
 IMAX.deg                73.72:  Inc Max 
 IMIN.deg                70.94:  Inc Min 
 IMND.m                5508.52:  Inc Min Depth 
 IMXD.m                5253.60:  Inc Max Depth 
 JARR.                      No:  Jarring 
 LETM.      20.30.00 08-Sep-20:  Log End Time 
 LOST.hr                     0:  Lost Rig Time 
 LSTM.      22.15.00 06-Sep-20:  Log Start Time 
 MDCL.ppm             36000.00:  Mud Chlorides 
 MDES.     Inversion Oil/Synthetic:  Mud Desc 
 DFD .sg                  1.44:  Mud Density 
 MDMN.sg                  1.44:  Dens Mud Min 
 MDMX.sg                  1.57:  Dens Mud Max 
 MOIL.                      70:  Run Mud Oil % 
 MOWR.                   70:30:  Run Mud OWR 
 MSND.                       0:  Run Mud Sand % 
 MSOL.                      21:  Run Mud Solids% 
 DFV .spqt               68.00:  Mud Viscosity 
 MWOD.in                  6.75:  MWD Tool OD 
 MWSI.                     Yes:  Serv Intrp, MWD 
 OTIM.hr                174.84:  Time Operating 
 PCON.           Look Like New:  Pad Condition 
 PMAX.psia            10616.93:  Press Op, Max 
 PV  .cP                 50.00:  Mud PV 
 RUN .                     700:  Run Number 
 ROPA.m/hr               14.24:  ROP Avg 
 ROPN.m/hr               10.00:  ROP Min 
 ROPX.m/hr               32.00:  ROP Max 
 RPMA.rpm               120.90:  RPM Surface Avg 
 RPMN.rpm               120.00:  RPM Surface Min 
 RPMX.rpm               140.00:  RPM Surface Max 
 RRUN.                    0700:  Rig Run Number 
 RTIM.hr                  3.20:  Time Reaming 
 SAZI.deg               109.99:  Azm, Start 
 SDEP.m                5231.01:  Start Depth 
 SIDD.                      No:  Serv Intrp, DD 
 SINC.deg                73.72:  Inc, Start 
 SPPA.psig             3051.00:  SPP Avg 
 SPPN.psig             2950.00:  SPP Min 
 SPPX.psig             3250.00:  SPP Max 
 STIM.      08.00.00 05-Sep-20:  Start Time 
 SVCS.                 DD, MWD:  Services 
 SVER.                    9.20:  Sperry Version 
 TDAT.m                 559.00:  Tot Depth Attmp 
 TDDF.                      No:  Trip for DD 
 TDLG.m                 559.00:  Tot Depth Loggd 
 TFF .                      No:  Trip for Fail 
 TQAA.f-kp               26.49:  Torque Abs Avg 
 TQAN.f-kp               25.00:  Torque Abs Min 
 TQAX.f-kp               27.00:  Torque Abs Max 
 TRRT.°/30m               1.50:  Turn Rotating 
 MRT .                    HCIM:  Maximum Recorded Temperature 
 TTMX.degC               90.20:  Max Tool Temp 
 VS01.                90542671:  Virtual Str1 SN 
 VS02.                90545185:  Virtual Str2 SN 
 VS03.                90602015:  Virtual Str3 SN 
 VS04.                90515230:  Virtual Str4 SN 
 WBMN.klb                 5.00:  WOB Min 
 WOBA.klb                14.79:  WOB Avg 
 WOBX.klb                20.00:  WOB Max 
 YP  .lhf2               29.00:  Yield Point 
~Curve Information Block
#MNEM.UNIT                 API CODE     Curve Description
#---------               -----------    ---------------------------
 TIME.HHMMSS            00 000 000 000:  GT Time & Date
 GTDEPTH.m              00 000 000 000:  GT Depth
 GTPQH.psia             00 000 000 000:  GT HR Quartz Pressure
 GTTQ.degC              00 000 000 000:  GT Quartz Temperature
 GTTN.NONE              00 000 000 000:  GT Test Number
 GTET.sec               00 000 000 000:  GT Elapsed Test Time
 GTTVD.m                00 000 000 000:  GT True Vertical Depth
#Other Information
#
#WARRANTY: Halliburton will use its best efforts to furnish customers with 
#accurate information and interpretations that are part of, and incident to, the services 
#provided.  However, Halliburton cannot and does not warrant the accuracy 
#or correctness of such information and interpretations.  Under no circumstances should any 
#such information or interpretation be relied upon as the sole basis for any drilling, 
#completion, production, or financial decision or any procedure involving any risk to the 
#safety of any drilling venture, drilling rig or its crew or any other third party.  The 
#Customer has full responsibility for all drilling, completion and production operation.  
#Halliburton makes no representations or warranties, either expressed or 
#implied, including, but not limited to, the implied warranties of merchantability or fitness 
#for a particular purpose, with respect to the services rendered.  In no event will 
#Halliburton be liable for failure to obtain any particular results or for 
#any damages, including, but not limited to, indirect, special or consequential damages, 
#resulting from the use of any information or interpretation provided by Halliburton.
#
~A           TIME           GTDEPTH  GTPQH  GTTQ  GTTN   GTET   GTTVD  
# ...
   14:24:49.269.09-Sep-2020 5408.01  651.38 75.21 16.00 407.05 2589.60
   14:24:49.469.09-Sep-2020 5408.01  651.43 75.21 16.00 407.25 2589.60
   14:24:49.670.09-Sep-2020 5408.01  651.43 75.21 16.00 407.45 2589.60
   14:24:49.870.09-Sep-2020 5408.01  651.70 75.21 16.00 407.65 2589.60
   14:24:50.070.09-Sep-2020 5408.01  651.86 75.21 16.00 407.85 2589.60
   14:24:50.270.09-Sep-2020 5408.01  651.97 75.21 16.00 408.05 2589.60
   14:24:50.470.09-Sep-2020 5408.01  652.05 75.21 16.00 408.25 2589.60
   14:24:50.670.09-Sep-2020 5408.01  651.74 75.21 16.00 408.45 2589.60
   14:24:50.870.09-Sep-2020 5408.01  652.20 75.21 16.00 408.65 2589.60
   14:24:51.070.09-Sep-2020 5408.01  652.29 75.21 16.00 408.85 2589.60
   14:24:51.271.09-Sep-2020 5408.01  652.47 75.21 16.00 409.05 2589.60
   14:24:51.471.09-Sep-2020 5408.01  652.84 75.21 16.00 409.25 2589.60
   14:24:51.671.09-Sep-2020 5408.01  652.68 75.21 16.00 409.45 2589.60
   14:24:51.871.09-Sep-2020 5408.01  652.75 75.21 16.00 409.65 2589.60
   14:24:52.071.09-Sep-2020 5408.01  652.90 75.21 16.00 409.85 2589.60
   14:24:52.271.09-Sep-2020 5408.01  653.06 75.21 16.00 410.05 2589.60
   14:24:52.471.09-Sep-2020 5408.01  653.07 75.21 16.00 410.25 2589.60
   14:24:52.671.09-Sep-2020 5408.01  653.07 75.21 16.00 410.45 2589.60
   14:24:52.872.09-Sep-2020 5408.01  653.24 75.21 16.00 410.65 2589.60
   14:24:53.072.09-Sep-2020 5408.01  653.39 75.21 16.00 410.85 2589.60
   14:24:53.272.09-Sep-2020 5408.01  653.55 75.21 16.00 411.05 2589.60
   14:24:53.472.09-Sep-2020 5408.01  653.60 75.21 16.00 411.25 2589.60
   14:24:53.672.09-Sep-2020 5408.01  653.66 75.21 16.00 411.45 2589.60
   14:24:53.872.09-Sep-2020 5408.01  653.31 75.21 16.00 411.65 2589.60
   14:24:54.072.09-Sep-2020 5408.01  653.81 75.21 16.00 411.85 2589.60
   14:24:54.272.09-Sep-2020 5408.01  653.95 75.21 16.00 412.05 2589.60
   14:24:54.473.09-Sep-2020 5408.01  654.14 75.21 16.00 412.25 2589.60
   14:24:54.673.09-Sep-2020 5408.01  654.52 75.21 16.00 412.45 2589.60
   14:24:54.873.09-Sep-2020 5408.01  653.83 75.21 16.00 412.65 2589.60
   14:24:55.073.09-Sep-2020 5408.01  654.15 75.21 16.00 412.85 2589.60
   14:24:55.273.09-Sep-2020 5408.01  654.70 75.21 16.00 413.05 2589.60
   14:24:55.473.09-Sep-2020 5408.01  654.69 75.21 16.00 413.25 2589.60
   14:24:55.673.09-Sep-2020 5408.01  654.69 75.21 16.00 413.45 2589.60
   14:24:55.873.09-Sep-2020 5408.01  655.07 75.21 16.00 413.65 2589.60
   14:24:56.073.09-Sep-2020 5408.01  655.01 75.21 16.00 413.85 2589.60
   14:24:56.274.09-Sep-2020 5408.01  654.44 75.21 16.00 414.05 2589.60
   14:24:56.474.09-Sep-2020 5408.01  655.13 75.21 16.00 414.25 2589.60
   14:24:56.674.09-Sep-2020 5408.01  655.13 75.21 16.00 414.45 2589.60
   14:24:56.874.09-Sep-2020 5408.01  655.57 75.21 16.00 414.65 2589.60
   14:24:57.074.09-Sep-2020 5408.01  654.99 75.21 16.00 414.85 2589.60
   14:24:57.274.09-Sep-2020 5408.01  655.70 75.21 16.00 415.05 2589.60
   14:24:57.474.09-Sep-2020 5408.01  655.85 75.21 16.00 415.25 2589.60
   14:24:57.674.09-Sep-2020 5408.01  655.85 75.21 16.00 415.45 2589.60
   14:24:57.875.09-Sep-2020 5408.01  655.29 75.21 16.00 415.65 2589.60
   14:24:58.075.09-Sep-2020 5408.01  656.37 75.21 16.00 415.85 2589.60
   14:24:58.275.09-Sep-2020 5408.01  656.51 75.21 16.00 416.05 2589.60
   14:24:58.475.09-Sep-2020 5408.01  656.58 75.21 16.00 416.25 2589.60
   14:24:58.675.09-Sep-2020 5408.01  656.45 75.21 16.00 416.45 2589.60
   14:24:58.875.09-Sep-2020 5408.01  656.85 75.21 16.00 416.65 2589.60
   14:24:59.075.09-Sep-2020 5408.01  656.87 75.21 16.00 416.85 2589.60
   14:24:59.275.09-Sep-2020 5408.01  656.99 75.21 16.00 417.05 2589.60
   14:24:59.476.09-Sep-2020 5408.01  656.99 75.21 16.00 417.26 2589.60
   14:24:59.676.09-Sep-2020 5408.01  656.99 75.21 16.00 417.46 2589.60
   14:24:59.876.09-Sep-2020 5408.01  657.20 75.21 16.00 417.66 2589.60
   14:25:00.076.09-Sep-2020 5408.01  657.30 75.21 16.00 417.86 2589.60
   14:25:00.276.09-Sep-2020 5408.01  657.44 75.21 16.00 418.06 2589.60
   14:25:00.476.09-Sep-2020 5408.01  657.53 75.21 16.00 418.26 2589.60
   14:25:00.676.09-Sep-2020 5408.01  657.53 75.21 16.00 418.46 2589.60
   14:25:00.876.09-Sep-2020 5408.01  657.65 75.21 16.00 418.66 2589.60
   14:25:01.077.09-Sep-2020 5408.01  657.73 75.21 16.00 418.86 2589.60
   14:25:01.277.09-Sep-2020 5408.01  657.87 75.21 16.00 419.06 2589.60
   14:25:01.477.09-Sep-2020 5408.01  657.60 75.21 16.00 419.26 2589.60
   14:25:01.677.09-Sep-2020 5408.01  657.60 75.21 16.00 419.46 2589.60
   14:25:01.877.09-Sep-2020 5408.01  658.41 75.21 16.00 419.66 2589.60
   14:25:02.077.09-Sep-2020 5408.01  658.33 75.21 16.00 419.86 2589.60
   14:25:02.277.09-Sep-2020 5408.01  658.37 75.21 16.00 420.06 2589.60
   14:25:02.477.09-Sep-2020 5408.01  658.82 75.21 16.00 420.26 2589.60
   14:25:02.678.09-Sep-2020 5408.01  658.82 75.21 16.00 420.46 2589.60
   14:25:02.878.09-Sep-2020 5408.01  658.75 75.21 16.00 420.66 2589.60
   14:25:03.078.09-Sep-2020 5408.01  658.83 75.21 16.00 420.86 2589.60
   14:25:03.278.09-Sep-2020 5408.01  658.95 75.21 16.00 421.06 2589.60
   14:25:03.478.09-Sep-2020 5408.01  659.04 75.21 16.00 421.26 2589.60
   14:25:03.678.09-Sep-2020 5408.01  659.04 75.21 16.00 421.46 2589.60
   14:25:03.878.09-Sep-2020 5408.01  659.16 75.21 16.00 421.66 2589.60
   14:25:04.078.09-Sep-2020 5408.01  659.22 75.21 16.00 421.86 2589.60
   14:25:04.279.09-Sep-2020 5408.01  659.37 75.21 16.00 422.06 2589.60
   14:25:04.479.09-Sep-2020 5408.01  659.49 75.21 16.00 422.26 2589.60
   14:25:04.679.09-Sep-2020 5408.01  659.49 75.21 16.00 422.46 2589.60
   14:25:04.879.09-Sep-2020 5408.01  659.46 75.21 16.00 422.66 2589.60
   14:25:05.079.09-Sep-2020 5408.01  659.88 75.21 16.00 422.86 2589.60
   14:25:05.279.09-Sep-2020 5408.01  659.81 75.21 16.00 423.06 2589.60
   14:25:05.479.09-Sep-2020 5408.01  659.87 75.21 16.00 423.26 2589.60
   14:25:05.679.09-Sep-2020 5408.01  659.87 75.21 16.00 423.46 2589.60
   14:25:05.879.09-Sep-2020 5408.01  659.35 75.21 16.00 423.66 2589.60
   14:25:06.080.09-Sep-2020 5408.01  660.38 75.21 16.00 423.86 2589.60
   14:25:06.280.09-Sep-2020 5408.01  660.47 75.21 16.00 424.06 2589.60
   14:25:06.480.09-Sep-2020 5408.01  660.52 75.21 16.00 424.26 2589.60
   14:25:06.680.09-Sep-2020 5408.01  660.44 75.21 16.00 424.46 2589.60
   14:25:06.880.09-Sep-2020 5408.01  660.85 75.21 16.00 424.66 2589.60
   14:25:07.080.09-Sep-2020 5408.01  660.83 75.21 16.00 424.86 2589.60
   14:25:07.280.09-Sep-2020 5408.01  660.44 75.21 16.00 425.06 2589.60
   14:25:07.480.09-Sep-2020 5408.01  660.84 75.21 16.00 425.26 2589.60
   14:25:07.681.09-Sep-2020 5408.01  660.84 75.21 16.00 425.46 2589.60
   14:25:07.881.09-Sep-2020 5408.01  661.15 75.21 16.00 425.66 2589.60
   14:25:08.081.09-Sep-2020 5408.01  661.08 75.21 16.00 425.86 2589.60
   14:25:08.281.09-Sep-2020 5408.01  661.15 75.21 16.00 426.06 2589.60
   14:25:08.481.09-Sep-2020 5408.01  661.58 75.21 16.00 426.26 2589.60
   14:25:08.681.09-Sep-2020 5408.01  661.58 75.21 16.00 426.46 2589.60
   14:25:08.881.09-Sep-2020 5408.01  661.67 75.21 16.00 426.66 2589.60
   14:25:09.081.09-Sep-2020 5408.01  661.99 75.21 16.00 426.86 2589.60
   14:25:09.282.09-Sep-2020 5408.01  661.03 75.21 16.00 427.06 2589.60
   14:25:09.482.09-Sep-2020 5408.01  662.14 75.21 16.00 427.26 2589.60
   14:25:09.682.09-Sep-2020 5408.01  662.14 75.21 16.00 427.46 2589.60
   14:25:09.882.09-Sep-2020 5408.01  662.36 75.21 16.00 427.66 2589.60
   14:25:10.082.09-Sep-2020 5408.01  662.20 75.21 16.00 427.86 2589.60
   14:25:10.282.09-Sep-2020 5408.01  662.56 75.21 16.00 428.06 2589.60
   14:25:10.482.09-Sep-2020 5408.01  662.55 75.21 16.00 428.26 2589.60
   14:25:10.682.09-Sep-2020 5408.01  662.62 75.21 16.00 428.46 2589.60
   14:25:10.883.09-Sep-2020 5408.01  662.67 75.21 16.00 428.66 2589.60
   14:25:11.083.09-Sep-2020 5408.01  662.78 75.21 16.00 428.86 2589.60
   14:25:11.283.09-Sep-2020 5408.01  662.92 75.21 16.00 429.06 2589.60
   14:25:11.483.09-Sep-2020 5408.01  663.00 75.21 16.00 429.26 2589.60
   14:25:11.683.09-Sep-2020 5408.01  663.00 75.21 16.00 429.46 2589.60
