~Version Information
 VERS.                  2.0:   CWLS log ASCII Standard -VERSION 2.0
 WRAP.                   NO:   One line per depth step
~Well Information Block
#MNEM.UNIT     VALUE/NAME     DESCRIPTION
#---------     -----------    ---------------------------
 STRT.S             10:55:02 09-Sep-20: START TIME 10:55:02 09-Sep-20
 STOP.S             11:02:04 09-Sep-20: STOP TIME  11:02:04 09-Sep-20
 STEP.S                   0.00: STEP TIME
 NULL.                 -999.25: NULL VALUE
 MDS .        Operator Entered:  MAG DATA SOURCE
 PDAT.          Mean Sea Level:  PERMANENT DATUM
 DCON.         Sperry Drilling:  DIRECTNL CONTR
 RIG .              West Azeri:  RIG NAME
 WELL.           C40 (Slot 20):  WELL NAME
 SRVC.     Turan Drilling Engineering:  CONTRACTOR
 FLD .                     ACG:  FIELD NAME
 CTRY.              Azerbaijan:  COUNTRY NAME
 PROV.                    Baku:  PROVINCE
 STAT.                    Baku:  STATE NAME
 REGN.                   EESSA:  REGION
 BASE.              Azerbaijan:  LOGGING EQUIPMENT BASE LOCATION
 COMP.     BP Exploration (Caspian Sea) Ltd:  COMPANY
 WTYP.                Deviated:  WELL TYPE
 SON .        AZ-XX-0906344804:  JOB NUMBER
 FTOP.          Formation Tops:  FORM TOPS DESC
 ILTD.               Lithology:  INTERP LTH DESC
 SVYD.                  Survey:  SURVEY DESC
 DMOD.             Drill Model:  DRILL MOD DESC
 HPTY.       Minimum Curvature:  HOLE POS TYPE
 NREF.                    Grid:  NORTH REFERENCE
 SPUD.               01-Jan-20:  SPUD DATE
 DATE.      00.59.44 15-Sep-20:  END TIME
 STIM.      12.00.00 12-Jun-20:  START TIME
 DMF .             Drill Floor:  DRILL MEAS FROM
 DFST.                        :  DIST FSL TEXT
 DFWT.                        :  DIST FWL TEXT
 API .                        :  API NUMBER
 CNTY.                        :  COUNTY
 UWI .                        :  UNIQUE WELL IDENTIFIER
 LOC .                        :  LOCATION
 LMF .             Drill Floor:  LOG MEASURED FROM
 VSNS.m                   2.88:  VERT SEC N/S
 VSEW.m                  -3.84:  VERT SEC E/W
 AGAP.m                  43.42:  AIR GAP
 APD .m                  43.42:  DEPTH ABOVE PD
 WDMS.m                 118.27:  WD ELEV
 EGL .m                   0.00:  GROUND ELEVATION
 EPD .m                   0.00:  ELEVATION
 AZTC.deg                 6.23:  AZM TOTAL CORR
 GRDC.deg                 0.20:  GRID CORRECTION
 MDEC.deg                 6.43:  MAGNETIC DECL
 MDIP.deg                59.49:  MAGNETIC DIP
 MFLD.nT              50277.00:  MAGNETIC FIELD
 GVFD.g                   1.00:  GRAVITY FIELD
 VSDR.deg               173.20:  VERT SEC DIRECT
 TDD .m                5790.01:  TOTAL DEPTH (DRILLER)
 SDEP.m                5231.01:  START DEPTH
 DFSL.m                   0.00:  DISTANCE FSL
 DFWL.m                   0.00:  DISTANCE FWL
 UTMY.m             4435808.83:  UTM Y
 UTMX.m              526266.40:  UTM X
 WHEW.m                  -3.84:  WELL HEAD E/W
 WHNS.m                   2.88:  WELL HEAD N/S
 LONG.deg                51.31:  LONGITUDE
 LATI.deg                40.06:  LATITUDE
 TVDS.m                  43.42:  TVDSS CORRECTN
 DEP .m                 430.08:  DEPTH
 EKB .m                  43.42:  KB ELEVATION
 EDF .m                  43.42:  DF ELEVATION
 TDL .m                 559.00:  TOTAL DEPTH (LOGGER)
 MAGU.                 1849381:  MAGUTM CHECKSUM
 VSC .                       0:  VS TO CLOSURE
~Parameter Information Block
#MNEM.UNIT       Value        Description
#---------     -----------    ---------------------------
 AV  .mps                 4.87:  Ann Velocity 
 AVMX.mps                 7.08:  Max Ann Veloc 
 AZIF.deg               108.87:  Azm, Final 
 BHAT.                  Rotary:  BHA Type 
 BROT.°/30m               0.35:  Build Rotating 
 BS  .in                  8.50:  Bit Size 
 BSZ .in                  8.50:  Bit Size 
 BTPL.psig              360.00:  Bit Press Loss 
 CABU.                     Yes:  Customer Abuse 
 COMM.                     ¬Î:  Run Comments 1 
 TCS .hr                106.24:  Time Ciculation Ended 
 CV  .mps                 1.77:  Crit Velocity 
 CVMX.mps                 2.03:  Max Crit Veloc 
 DD1 .         Aykhan Agagulov:  Direct Drillr 1 
 DD2 .            Nonso Okofor:  Direct Drillr 2 
 DDSV.               Geo-Pilot:  DD Service 
 DEFF.%                  98.00:  % Det Eff 
 DLRX.°/30m               0.50:  Dogleg Rot Max 
 DLSO.°/30m               0.40:  Dogleg Oriented 
 DLSX.°/30m               0.94:  Dogleg Str Max 
 DRET.      20.30.00 08-Sep-20:  Drill End Time 
 DRST.      22.15.00 06-Sep-20:  Drill Start Tim 
 DTIM.hr                 31.31:  Time Drilling 
 EDEP.m                5790.01:  End Depth 
 ENG1.           Amrah Tahirov:  Engineer 1 
 ENG2.         Dair Mahammadov:  Engineer 2 
 ENG3.           Emil Huseynov:  Engineer 3 
 ETIM.      04.01.04 12-Sep-20:  End Time 
 FLOI.gpm               450.00:  Flow In 
 FLON.gpm               450.00:  Flow In Min 
 FLOS.cptm                2.00:  Fluid Loss 
 FLOX.gpm               450.00:  Flow In Max 
 FTRO.       Formation Presure:  FTWD Run Obj 
 HFLO.                      No:  High Flow 
 HPRE.                      No:  High Pressure 
 HTEM.                      No:  High Temp 
 HYDO.m                   1.80:  Hydro Offset 
 IFIN.deg                72.03:  Inc, Final 
 IMAX.deg                73.72:  Inc Max 
 IMIN.deg                70.94:  Inc Min 
 IMND.m                5508.52:  Inc Min Depth 
 IMXD.m                5253.60:  Inc Max Depth 
 JARR.                      No:  Jarring 
 LETM.      20.30.00 08-Sep-20:  Log End Time 
 LOST.hr                     0:  Lost Rig Time 
 LSTM.      22.15.00 06-Sep-20:  Log Start Time 
 MDCL.ppm             36000.00:  Mud Chlorides 
 MDES.     Inversion Oil/Synthetic:  Mud Desc 
 DFD .sg                  1.44:  Mud Density 
 MDMN.sg                  1.44:  Dens Mud Min 
 MDMX.sg                  1.57:  Dens Mud Max 
 MOIL.                      70:  Run Mud Oil % 
 MOWR.                   70:30:  Run Mud OWR 
 MSND.                       0:  Run Mud Sand % 
 MSOL.                      21:  Run Mud Solids% 
 DFV .spqt               68.00:  Mud Viscosity 
 MWOD.in                  6.75:  MWD Tool OD 
 MWSI.                     Yes:  Serv Intrp, MWD 
 OTIM.hr                174.84:  Time Operating 
 PCON.           Look Like New:  Pad Condition 
 PMAX.psia            10616.93:  Press Op, Max 
 PV  .cP                 50.00:  Mud PV 
 RUN .                     700:  Run Number 
 ROPA.m/hr               14.24:  ROP Avg 
 ROPN.m/hr               10.00:  ROP Min 
 ROPX.m/hr               32.00:  ROP Max 
 RPMA.rpm               120.90:  RPM Surface Avg 
 RPMN.rpm               120.00:  RPM Surface Min 
 RPMX.rpm               140.00:  RPM Surface Max 
 RRUN.                    0700:  Rig Run Number 
 RTIM.hr                  3.20:  Time Reaming 
 SAZI.deg               109.99:  Azm, Start 
 SDEP.m                5231.01:  Start Depth 
 SIDD.                      No:  Serv Intrp, DD 
 SINC.deg                73.72:  Inc, Start 
 SPPA.psig             3051.00:  SPP Avg 
 SPPN.psig             2950.00:  SPP Min 
 SPPX.psig             3250.00:  SPP Max 
 STIM.      08.00.00 05-Sep-20:  Start Time 
 SVCS.                 DD, MWD:  Services 
 SVER.                    9.20:  Sperry Version 
 TDAT.m                 559.00:  Tot Depth Attmp 
 TDDF.                      No:  Trip for DD 
 TDLG.m                 559.00:  Tot Depth Loggd 
 TFF .                      No:  Trip for Fail 
 TQAA.f-kp               26.49:  Torque Abs Avg 
 TQAN.f-kp               25.00:  Torque Abs Min 
 TQAX.f-kp               27.00:  Torque Abs Max 
 TRRT.°/30m               1.50:  Turn Rotating 
 MRT .                    HCIM:  Maximum Recorded Temperature 
 TTMX.degC               90.20:  Max Tool Temp 
 VS01.                90542671:  Virtual Str1 SN 
 VS02.                90545185:  Virtual Str2 SN 
 VS03.                90602015:  Virtual Str3 SN 
 VS04.                90515230:  Virtual Str4 SN 
 WBMN.klb                 5.00:  WOB Min 
 WOBA.klb                14.79:  WOB Avg 
 WOBX.klb                20.00:  WOB Max 
 YP  .lhf2               29.00:  Yield Point 
~Curve Information Block
#MNEM.UNIT                 API CODE     Curve Description
#---------               -----------    ---------------------------
 TIME.HHMMSS            00 000 000 000:  GT Time & Date
 GTDEPTH.m              00 000 000 000:  GT Depth
 GTPQH.psia             00 000 000 000:  GT HR Quartz Pressure
 GTTQ.degC              00 000 000 000:  GT Quartz Temperature
 GTTN.NONE              00 000 000 000:  GT Test Number
 GTET.sec               00 000 000 000:  GT Elapsed Test Time
 GTTVD.m                00 000 000 000:  GT True Vertical Depth
#Other Information
#
#WARRANTY: Halliburton will use its best efforts to furnish customers with 
#accurate information and interpretations that are part of, and incident to, the services 
#provided.  However, Halliburton cannot and does not warrant the accuracy 
#or correctness of such information and interpretations.  Under no circumstances should any 
#such information or interpretation be relied upon as the sole basis for any drilling, 
#completion, production, or financial decision or any procedure involving any risk to the 
#safety of any drilling venture, drilling rig or its crew or any other third party.  The 
#Customer has full responsibility for all drilling, completion and production operation.  
#Halliburton makes no representations or warranties, either expressed or 
#implied, including, but not limited to, the implied warranties of merchantability or fitness 
#for a particular purpose, with respect to the services rendered.  In no event will 
#Halliburton be liable for failure to obtain any particular results or for 
#any damages, including, but not limited to, indirect, special or consequential damages, 
#resulting from the use of any information or interpretation provided by Halliburton.
#
~A           TIME           GTDEPTH  GTPQH  GTTQ  GTTN   GTET   GTTVD  
# ...
   10:59:56.072.09-Sep-2020 5456.01 3589.04 76.39 10.00 293.88 2604.72
   10:59:56.272.09-Sep-2020 5456.01 3588.80 76.39 10.00 294.08 2604.72
   10:59:56.472.09-Sep-2020 5456.01 3588.80 76.39 10.00 294.28 2604.72
   10:59:56.672.09-Sep-2020 5456.01 3588.89 76.39 10.00 294.48 2604.72
   10:59:56.873.09-Sep-2020 5456.01 3589.00 76.39 10.00 294.68 2604.72
   10:59:57.073.09-Sep-2020 5456.01 3588.81 76.39 10.00 294.88 2604.72
   10:59:57.273.09-Sep-2020 5456.01 3588.89 76.39 10.00 295.08 2604.72
   10:59:57.473.09-Sep-2020 5456.01 3588.89 76.39 10.00 295.28 2604.72
   10:59:57.673.09-Sep-2020 5456.01 3588.91 76.39 10.00 295.48 2604.72
   10:59:57.873.09-Sep-2020 5456.01 3588.89 76.39 10.00 295.68 2604.72
   10:59:58.073.09-Sep-2020 5456.01 3588.88 76.39 10.00 295.88 2604.72
   10:59:58.273.09-Sep-2020 5456.01 3588.91 76.39 10.00 296.08 2604.72
   10:59:58.473.09-Sep-2020 5456.01 3588.91 76.39 10.00 296.28 2604.72
   10:59:58.673.09-Sep-2020 5456.01 3588.88 76.39 10.00 296.48 2604.72
   10:59:58.873.09-Sep-2020 5456.01 3588.88 76.39 10.00 296.68 2604.72
   10:59:59.073.09-Sep-2020 5456.01 3588.89 76.39 10.00 296.88 2604.72
   10:59:59.273.09-Sep-2020 5456.01 3588.91 76.39 10.00 297.08 2604.72
   10:59:59.473.09-Sep-2020 5456.01 3588.91 76.39 10.00 297.28 2604.72
   10:59:59.673.09-Sep-2020 5456.01 3588.75 76.39 10.00 297.48 2604.72
   10:59:59.873.09-Sep-2020 5456.01 3589.00 76.39 10.00 297.68 2604.72
   11:00:00.073.09-Sep-2020 5456.01 3588.96 76.39 10.00 297.88 2604.72
   11:00:00.273.09-Sep-2020 5456.01 3588.89 76.39 10.00 298.08 2604.72
   11:00:00.474.09-Sep-2020 5456.01 3588.89 76.39 10.00 298.28 2604.72
   11:00:00.674.09-Sep-2020 5456.01 3588.97 76.39 10.00 298.48 2604.72
   11:00:00.874.09-Sep-2020 5456.01 3588.81 76.39 10.00 298.68 2604.72
   11:00:01.074.09-Sep-2020 5456.01 3588.90 76.39 10.00 298.88 2604.72
   11:00:01.274.09-Sep-2020 5456.01 3588.89 76.39 10.00 299.08 2604.72
   11:00:01.474.09-Sep-2020 5456.01 3588.89 76.39 10.00 299.28 2604.72
   11:00:01.674.09-Sep-2020 5456.01 3588.91 76.39 10.00 299.48 2604.72
   11:00:01.874.09-Sep-2020 5456.01 3588.88 76.39 10.00 299.68 2604.72
   11:00:02.074.09-Sep-2020 5456.01 3588.88 76.39 10.00 299.88 2604.72
   11:00:02.274.09-Sep-2020 5456.01 3588.88 76.39 10.00 300.08 2604.72
   11:00:02.474.09-Sep-2020 5456.01 3588.88 76.39 10.00 300.28 2604.72
   11:00:02.674.09-Sep-2020 5456.01 3588.92 76.39 10.00 300.48 2604.72
   11:00:02.874.09-Sep-2020 5456.01 3588.91 76.39 10.00 300.68 2604.72
   11:00:03.074.09-Sep-2020 5456.01 3588.76 76.39 10.00 300.88 2604.72
   11:00:03.274.09-Sep-2020 5456.01 3589.04 76.39 10.00 301.08 2604.72
   11:00:03.474.09-Sep-2020 5456.01 3589.04 76.39 10.00 301.28 2604.72
   11:00:03.674.09-Sep-2020 5456.01 3588.92 76.39 10.00 301.48 2604.72
   11:00:03.874.09-Sep-2020 5456.01 3588.86 76.39 10.00 301.68 2604.72
   11:00:04.075.09-Sep-2020 5456.01 3588.93 76.39 10.00 301.88 2604.72
   11:00:04.275.09-Sep-2020 5456.01 3589.00 76.39 10.00 302.08 2604.72
   11:00:04.475.09-Sep-2020 5456.01 3589.00 76.39 10.00 302.28 2604.72
   11:00:04.675.09-Sep-2020 5456.01 3588.90 76.39 10.00 302.48 2604.72
   11:00:04.875.09-Sep-2020 5456.01 3588.87 76.39 10.00 302.68 2604.72
   11:00:05.075.09-Sep-2020 5456.01 3589.11 76.39 10.00 302.88 2604.72
   11:00:05.275.09-Sep-2020 5456.01 3588.73 76.39 10.00 303.08 2604.72
   11:00:05.475.09-Sep-2020 5456.01 3588.73 76.39 10.00 303.28 2604.72
   11:00:05.675.09-Sep-2020 5456.01 3588.89 76.39 10.00 303.48 2604.72
   11:00:05.875.09-Sep-2020 5456.01 3588.59 76.39 10.00 303.68 2604.72
   11:00:06.075.09-Sep-2020 5456.01 3589.26 76.39 10.00 303.88 2604.72
   11:00:06.275.09-Sep-2020 5456.01 3588.89 76.39 10.00 304.08 2604.72
   11:00:06.475.09-Sep-2020 5456.01 3588.89 76.39 10.00 304.28 2604.72
   11:00:06.675.09-Sep-2020 5456.01 3588.88 76.39 10.00 304.48 2604.72
   11:00:06.875.09-Sep-2020 5456.01 3588.96 76.39 10.00 304.68 2604.72
   11:00:07.075.09-Sep-2020 5456.01 3588.74 76.39 10.00 304.88 2604.72
   11:00:07.275.09-Sep-2020 5456.01 3589.04 76.39 10.00 305.08 2604.72
   11:00:07.475.09-Sep-2020 5456.01 3589.04 76.39 10.00 305.28 2604.72
   11:00:07.676.09-Sep-2020 5456.01 3588.88 76.39 10.00 305.48 2604.72
   11:00:07.876.09-Sep-2020 5456.01 3588.94 76.39 10.00 305.68 2604.72
   11:00:08.076.09-Sep-2020 5456.01 3588.97 76.39 10.00 305.88 2604.72
   11:00:08.276.09-Sep-2020 5456.01 3588.81 76.39 10.00 306.08 2604.72
   11:00:08.476.09-Sep-2020 5456.01 3588.81 76.39 10.00 306.28 2604.72
   11:00:08.676.09-Sep-2020 5456.01 3588.91 76.39 10.00 306.48 2604.72
   11:00:08.876.09-Sep-2020 5456.01 3588.89 76.39 10.00 306.68 2604.72
   11:00:09.076.09-Sep-2020 5456.01 3588.90 76.39 10.00 306.88 2604.72
   11:00:09.276.09-Sep-2020 5456.01 3588.89 76.39 10.00 307.08 2604.72
   11:00:09.476.09-Sep-2020 5456.01 3588.89 76.39 10.00 307.28 2604.72
   11:00:09.676.09-Sep-2020 5456.01 3588.90 76.39 10.00 307.48 2604.72
   11:00:09.876.09-Sep-2020 5456.01 3588.89 76.39 10.00 307.68 2604.72
   11:00:10.076.09-Sep-2020 5456.01 3588.89 76.39 10.00 307.89 2604.72
   11:00:10.276.09-Sep-2020 5456.01 3588.90 76.39 10.00 308.09 2604.72
   11:00:10.476.09-Sep-2020 5456.01 3588.90 76.39 10.00 308.29 2604.72
   11:00:10.676.09-Sep-2020 5456.01 3588.92 76.39 10.00 308.49 2604.72
   11:00:10.876.09-Sep-2020 5456.01 3588.50 76.39 10.00 308.69 2604.72
   11:00:11.076.09-Sep-2020 5456.01 3589.32 76.39 10.00 308.89 2604.72
   11:00:11.276.09-Sep-2020 5456.01 3588.92 76.39 10.00 309.09 2604.72
   11:00:11.477.09-Sep-2020 5456.01 3588.92 76.39 10.00 309.29 2604.72
   11:00:11.677.09-Sep-2020 5456.01 3588.87 76.39 10.00 309.49 2604.72
   11:00:11.877.09-Sep-2020 5456.01 3588.96 76.39 10.00 309.69 2604.72
   11:00:12.077.09-Sep-2020 5456.01 3588.90 76.39 10.00 309.89 2604.72
   11:00:12.277.09-Sep-2020 5456.01 3588.90 76.39 10.00 310.09 2604.72
   11:00:12.477.09-Sep-2020 5456.01 3588.90 76.39 10.00 310.29 2604.72
   11:00:12.677.09-Sep-2020 5456.01 3588.89 76.39 10.00 310.49 2604.72
   11:00:12.877.09-Sep-2020 5456.01 3588.93 76.39 10.00 310.69 2604.72
   11:00:13.077.09-Sep-2020 5456.01 3588.91 76.39 10.00 310.89 2604.72
   11:00:13.277.09-Sep-2020 5456.01 3588.88 76.39 10.00 311.09 2604.72
   11:00:13.477.09-Sep-2020 5456.01 3588.88 76.39 10.00 311.29 2604.72
   11:00:13.677.09-Sep-2020 5456.01 3588.91 76.39 10.00 311.49 2604.72
   11:00:13.877.09-Sep-2020 5456.01 3588.94 76.39 10.00 311.69 2604.72
   11:00:14.077.09-Sep-2020 5456.01 3588.92 76.39 10.00 311.89 2604.72
   11:00:14.277.09-Sep-2020 5456.01 3589.00 76.39 10.00 312.09 2604.72
   11:00:14.477.09-Sep-2020 5456.01 3589.00 76.39 10.00 312.29 2604.72
   11:00:14.677.09-Sep-2020 5456.01 3588.91 76.39 10.00 312.49 2604.72
   11:00:14.877.09-Sep-2020 5456.01 3588.90 76.39 10.00 312.69 2604.72
   11:00:15.078.09-Sep-2020 5456.01 3589.01 76.39 10.00 312.89 2604.72
   11:00:15.278.09-Sep-2020 5456.01 3588.68 76.39 10.00 313.09 2604.72
   11:00:15.478.09-Sep-2020 5456.01 3588.68 76.39 10.00 313.29 2604.72
   11:00:15.678.09-Sep-2020 5456.01 3588.97 76.39 10.00 313.49 2604.72
   11:00:15.878.09-Sep-2020 5456.01 3588.92 76.39 10.00 313.69 2604.72
   11:00:16.078.09-Sep-2020 5456.01 3588.79 76.39 10.00 313.89 2604.72
   11:00:16.278.09-Sep-2020 5456.01 3589.03 76.39 10.00 314.09 2604.72
   11:00:16.478.09-Sep-2020 5456.01 3589.03 76.39 10.00 314.29 2604.72
   11:00:16.678.09-Sep-2020 5456.01 3588.92 76.39 10.00 314.49 2604.72
   11:00:16.878.09-Sep-2020 5456.01 3588.95 76.39 10.00 314.69 2604.72
   11:00:17.078.09-Sep-2020 5456.01 3588.81 76.39 10.00 314.89 2604.72
   11:00:17.278.09-Sep-2020 5456.01 3589.01 76.39 10.00 315.09 2604.72
   11:00:17.478.09-Sep-2020 5456.01 3589.01 76.39 10.00 315.29 2604.72
   11:00:17.678.09-Sep-2020 5456.01 3588.94 76.39 10.00 315.49 2604.72
   11:00:17.878.09-Sep-2020 5456.01 3588.85 76.39 10.00 315.69 2604.72
   11:00:18.078.09-Sep-2020 5456.01 3588.98 76.39 10.00 315.89 2604.72
   11:00:18.278.09-Sep-2020 5456.01 3588.51 76.39 10.00 316.09 2604.72
   11:00:18.478.09-Sep-2020 5456.01 3588.51 76.39 10.00 316.29 2604.72
