~Version Information
 VERS.                  2.0:   CWLS log ASCII Standard -VERSION 2.0
 WRAP.                   NO:   One line per depth step
~Well Information Block
#MNEM.UNIT     VALUE/NAME     DESCRIPTION
#---------     -----------    ---------------------------
 STRT.S             18:49:58 09-Sep-20: START TIME 18:49:58 09-Sep-20
 STOP.S             18:58:03 09-Sep-20: STOP TIME  18:58:03 09-Sep-20
 STEP.S                   0.00: STEP TIME
 NULL.                 -999.25: NULL VALUE
 MDS .        Operator Entered:  MAG DATA SOURCE
 PDAT.          Mean Sea Level:  PERMANENT DATUM
 DCON.         Sperry Drilling:  DIRECTNL CONTR
 RIG .              West Azeri:  RIG NAME
 WELL.           C40 (Slot 20):  WELL NAME
 SRVC.     Turan Drilling Engineering:  CONTRACTOR
 FLD .                     ACG:  FIELD NAME
 CTRY.              Azerbaijan:  COUNTRY NAME
 PROV.                    Baku:  PROVINCE
 STAT.                    Baku:  STATE NAME
 REGN.                   EESSA:  REGION
 BASE.              Azerbaijan:  LOGGING EQUIPMENT BASE LOCATION
 COMP.     BP Exploration (Caspian Sea) Ltd:  COMPANY
 WTYP.                Deviated:  WELL TYPE
 SON .        AZ-XX-0906344804:  JOB NUMBER
 FTOP.          Formation Tops:  FORM TOPS DESC
 ILTD.               Lithology:  INTERP LTH DESC
 SVYD.                  Survey:  SURVEY DESC
 DMOD.             Drill Model:  DRILL MOD DESC
 HPTY.       Minimum Curvature:  HOLE POS TYPE
 NREF.                    Grid:  NORTH REFERENCE
 SPUD.               01-Jan-20:  SPUD DATE
 DATE.      00.59.44 15-Sep-20:  END TIME
 STIM.      12.00.00 12-Jun-20:  START TIME
 DMF .             Drill Floor:  DRILL MEAS FROM
 DFST.                        :  DIST FSL TEXT
 DFWT.                        :  DIST FWL TEXT
 API .                        :  API NUMBER
 CNTY.                        :  COUNTY
 UWI .                        :  UNIQUE WELL IDENTIFIER
 LOC .                        :  LOCATION
 LMF .             Drill Floor:  LOG MEASURED FROM
 VSNS.m                   2.88:  VERT SEC N/S
 VSEW.m                  -3.84:  VERT SEC E/W
 AGAP.m                  43.42:  AIR GAP
 APD .m                  43.42:  DEPTH ABOVE PD
 WDMS.m                 118.27:  WD ELEV
 EGL .m                   0.00:  GROUND ELEVATION
 EPD .m                   0.00:  ELEVATION
 AZTC.deg                 6.23:  AZM TOTAL CORR
 GRDC.deg                 0.20:  GRID CORRECTION
 MDEC.deg                 6.43:  MAGNETIC DECL
 MDIP.deg                59.49:  MAGNETIC DIP
 MFLD.nT              50277.00:  MAGNETIC FIELD
 GVFD.g                   1.00:  GRAVITY FIELD
 VSDR.deg               173.20:  VERT SEC DIRECT
 TDD .m                5790.01:  TOTAL DEPTH (DRILLER)
 SDEP.m                5231.01:  START DEPTH
 DFSL.m                   0.00:  DISTANCE FSL
 DFWL.m                   0.00:  DISTANCE FWL
 UTMY.m             4435808.83:  UTM Y
 UTMX.m              526266.40:  UTM X
 WHEW.m                  -3.84:  WELL HEAD E/W
 WHNS.m                   2.88:  WELL HEAD N/S
 LONG.deg                51.31:  LONGITUDE
 LATI.deg                40.06:  LATITUDE
 TVDS.m                  43.42:  TVDSS CORRECTN
 DEP .m                 430.08:  DEPTH
 EKB .m                  43.42:  KB ELEVATION
 EDF .m                  43.42:  DF ELEVATION
 TDL .m                 559.00:  TOTAL DEPTH (LOGGER)
 MAGU.                 1849381:  MAGUTM CHECKSUM
 VSC .                       0:  VS TO CLOSURE
~Parameter Information Block
#MNEM.UNIT       Value        Description
#---------     -----------    ---------------------------
 AV  .mps                 4.87:  Ann Velocity 
 AVMX.mps                 7.08:  Max Ann Veloc 
 AZIF.deg               108.87:  Azm, Final 
 BHAT.                  Rotary:  BHA Type 
 BROT.°/30m               0.35:  Build Rotating 
 BS  .in                  8.50:  Bit Size 
 BSZ .in                  8.50:  Bit Size 
 BTPL.psig              360.00:  Bit Press Loss 
 CABU.                     Yes:  Customer Abuse 
 COMM.                     „T:  Run Comments 1 
 TCS .hr                106.24:  Time Ciculation Ended 
 CV  .mps                 1.77:  Crit Velocity 
 CVMX.mps                 2.03:  Max Crit Veloc 
 DD1 .         Aykhan Agagulov:  Direct Drillr 1 
 DD2 .            Nonso Okofor:  Direct Drillr 2 
 DDSV.               Geo-Pilot:  DD Service 
 DEFF.%                  98.00:  % Det Eff 
 DLRX.°/30m               0.50:  Dogleg Rot Max 
 DLSO.°/30m               0.40:  Dogleg Oriented 
 DLSX.°/30m               0.94:  Dogleg Str Max 
 DRET.      20.30.00 08-Sep-20:  Drill End Time 
 DRST.      22.15.00 06-Sep-20:  Drill Start Tim 
 DTIM.hr                 31.31:  Time Drilling 
 EDEP.m                5790.01:  End Depth 
 ENG1.           Amrah Tahirov:  Engineer 1 
 ENG2.         Dair Mahammadov:  Engineer 2 
 ENG3.           Emil Huseynov:  Engineer 3 
 ETIM.      04.01.04 12-Sep-20:  End Time 
 FLOI.gpm               450.00:  Flow In 
 FLON.gpm               450.00:  Flow In Min 
 FLOS.cptm                2.00:  Fluid Loss 
 FLOX.gpm               450.00:  Flow In Max 
 FTRO.       Formation Presure:  FTWD Run Obj 
 HFLO.                      No:  High Flow 
 HPRE.                      No:  High Pressure 
 HTEM.                      No:  High Temp 
 HYDO.m                   1.80:  Hydro Offset 
 IFIN.deg                72.03:  Inc, Final 
 IMAX.deg                73.72:  Inc Max 
 IMIN.deg                70.94:  Inc Min 
 IMND.m                5508.52:  Inc Min Depth 
 IMXD.m                5253.60:  Inc Max Depth 
 JARR.                      No:  Jarring 
 LETM.      20.30.00 08-Sep-20:  Log End Time 
 LOST.hr                     0:  Lost Rig Time 
 LSTM.      22.15.00 06-Sep-20:  Log Start Time 
 MDCL.ppm             36000.00:  Mud Chlorides 
 MDES.     Inversion Oil/Synthetic:  Mud Desc 
 DFD .sg                  1.44:  Mud Density 
 MDMN.sg                  1.44:  Dens Mud Min 
 MDMX.sg                  1.57:  Dens Mud Max 
 MOIL.                      70:  Run Mud Oil % 
 MOWR.                   70:30:  Run Mud OWR 
 MSND.                       0:  Run Mud Sand % 
 MSOL.                      21:  Run Mud Solids% 
 DFV .spqt               68.00:  Mud Viscosity 
 MWOD.in                  6.75:  MWD Tool OD 
 MWSI.                     Yes:  Serv Intrp, MWD 
 OTIM.hr                174.84:  Time Operating 
 PCON.           Look Like New:  Pad Condition 
 PMAX.psia            10616.93:  Press Op, Max 
 PV  .cP                 50.00:  Mud PV 
 RUN .                     700:  Run Number 
 ROPA.m/hr               14.24:  ROP Avg 
 ROPN.m/hr               10.00:  ROP Min 
 ROPX.m/hr               32.00:  ROP Max 
 RPMA.rpm               120.90:  RPM Surface Avg 
 RPMN.rpm               120.00:  RPM Surface Min 
 RPMX.rpm               140.00:  RPM Surface Max 
 RRUN.                    0700:  Rig Run Number 
 RTIM.hr                  3.20:  Time Reaming 
 SAZI.deg               109.99:  Azm, Start 
 SDEP.m                5231.01:  Start Depth 
 SIDD.                      No:  Serv Intrp, DD 
 SINC.deg                73.72:  Inc, Start 
 SPPA.psig             3051.00:  SPP Avg 
 SPPN.psig             2950.00:  SPP Min 
 SPPX.psig             3250.00:  SPP Max 
 STIM.      08.00.00 05-Sep-20:  Start Time 
 SVCS.                 DD, MWD:  Services 
 SVER.                    9.20:  Sperry Version 
 TDAT.m                 559.00:  Tot Depth Attmp 
 TDDF.                      No:  Trip for DD 
 TDLG.m                 559.00:  Tot Depth Loggd 
 TFF .                      No:  Trip for Fail 
 TQAA.f-kp               26.49:  Torque Abs Avg 
 TQAN.f-kp               25.00:  Torque Abs Min 
 TQAX.f-kp               27.00:  Torque Abs Max 
 TRRT.°/30m               1.50:  Turn Rotating 
 MRT .                    HCIM:  Maximum Recorded Temperature 
 TTMX.degC               90.20:  Max Tool Temp 
 VS01.                90542671:  Virtual Str1 SN 
 VS02.                90545185:  Virtual Str2 SN 
 VS03.                90602015:  Virtual Str3 SN 
 VS04.                90515230:  Virtual Str4 SN 
 WBMN.klb                 5.00:  WOB Min 
 WOBA.klb                14.79:  WOB Avg 
 WOBX.klb                20.00:  WOB Max 
 YP  .lhf2               29.00:  Yield Point 
~Curve Information Block
#MNEM.UNIT                 API CODE     Curve Description
#---------               -----------    ---------------------------
 TIME.HHMMSS            00 000 000 000:  GT Time & Date
 GTDEPTH.m              00 000 000 000:  GT Depth
 GTPQH.psia             00 000 000 000:  GT HR Quartz Pressure
 GTTQ.degC              00 000 000 000:  GT Quartz Temperature
 GTTN.NONE              00 000 000 000:  GT Test Number
 GTET.sec               00 000 000 000:  GT Elapsed Test Time
 GTTVD.m                00 000 000 000:  GT True Vertical Depth
#Other Information
#
#WARRANTY: Halliburton will use its best efforts to furnish customers with 
#accurate information and interpretations that are part of, and incident to, the services 
#provided.  However, Halliburton cannot and does not warrant the accuracy 
#or correctness of such information and interpretations.  Under no circumstances should any 
#such information or interpretation be relied upon as the sole basis for any drilling, 
#completion, production, or financial decision or any procedure involving any risk to the 
#safety of any drilling venture, drilling rig or its crew or any other third party.  The 
#Customer has full responsibility for all drilling, completion and production operation.  
#Halliburton makes no representations or warranties, either expressed or 
#implied, including, but not limited to, the implied warranties of merchantability or fitness 
#for a particular purpose, with respect to the services rendered.  In no event will 
#Halliburton be liable for failure to obtain any particular results or for 
#any damages, including, but not limited to, indirect, special or consequential damages, 
#resulting from the use of any information or interpretation provided by Halliburton.
#
~A           TIME           GTDEPTH  GTPQH  GTTQ  GTTN   GTET   GTTVD  
# ...
   18:51:06.247.09-Sep-2020 5280.51  652.38 74.23 22.00  67.75 2550.44
   18:51:06.446.09-Sep-2020 5280.51  653.57 74.23 22.00  67.95 2550.44
   18:51:06.646.09-Sep-2020 5280.51  653.57 74.23 22.00  68.15 2550.44
   18:51:06.846.09-Sep-2020 5280.51  655.79 74.23 22.00  68.35 2550.44
   18:51:07.046.09-Sep-2020 5280.51  656.39 74.23 22.00  68.55 2550.44
   18:51:07.246.09-Sep-2020 5280.51  657.94 74.23 22.00  68.75 2550.44
   18:51:07.446.09-Sep-2020 5280.51  659.86 74.23 22.00  68.95 2550.44
   18:51:07.646.09-Sep-2020 5280.51  659.86 74.23 22.00  69.15 2550.44
   18:51:07.845.09-Sep-2020 5280.51  662.51 74.24 22.00  69.35 2550.44
   18:51:08.045.09-Sep-2020 5280.51  663.43 74.24 22.00  69.55 2550.44
   18:51:08.245.09-Sep-2020 5280.51  664.58 74.24 22.00  69.75 2550.44
   18:51:08.445.09-Sep-2020 5280.51  665.73 74.24 22.00  69.95 2550.44
   18:51:08.645.09-Sep-2020 5280.51  665.73 74.24 22.00  70.14 2550.44
   18:51:08.845.09-Sep-2020 5280.51  667.79 74.24 22.00  70.34 2550.44
   18:51:09.044.09-Sep-2020 5280.51  668.74 74.24 22.00  70.54 2550.44
   18:51:09.244.09-Sep-2020 5280.51  669.74 74.24 22.00  70.74 2550.44
   18:51:09.444.09-Sep-2020 5280.51  670.84 74.24 22.00  70.94 2550.44
   18:51:09.644.09-Sep-2020 5280.51  670.84 74.24 22.00  71.14 2550.44
   18:51:09.844.09-Sep-2020 5280.51  672.79 74.24 22.00  71.34 2550.44
   18:51:10.044.09-Sep-2020 5280.51  673.76 74.24 22.00  71.54 2550.44
   18:51:10.244.09-Sep-2020 5280.51  674.01 74.24 22.00  71.74 2550.44
   18:51:10.443.09-Sep-2020 5280.51  675.09 74.24 22.00  71.94 2550.44
   18:51:10.643.09-Sep-2020 5280.51  675.09 74.24 22.00  72.14 2550.44
   18:51:10.843.09-Sep-2020 5280.51  677.02 74.24 22.00  72.34 2550.44
   18:51:11.043.09-Sep-2020 5280.51  678.09 74.24 22.00  72.54 2550.44
   18:51:11.243.09-Sep-2020 5280.51  678.66 74.24 22.00  72.74 2550.44
   18:51:11.443.09-Sep-2020 5280.51  679.37 74.24 22.00  72.94 2550.44
   18:51:11.642.09-Sep-2020 5280.51  679.37 74.24 22.00  73.14 2550.44
   18:51:11.842.09-Sep-2020 5280.51  681.49 74.24 22.00  73.34 2550.44
   18:51:12.042.09-Sep-2020 5280.51  682.32 74.24 22.00  73.54 2550.44
   18:51:12.242.09-Sep-2020 5280.51  683.37 74.24 22.00  73.74 2550.44
   18:51:12.442.09-Sep-2020 5280.51  683.25 74.24 22.00  73.94 2550.44
   18:51:12.642.09-Sep-2020 5280.51  685.08 74.24 22.00  74.14 2550.44
   18:51:12.841.09-Sep-2020 5280.51  685.77 74.24 22.00  74.34 2550.44
   18:51:13.041.09-Sep-2020 5280.51  686.62 74.24 22.00  74.54 2550.44
   18:51:13.241.09-Sep-2020 5280.51  687.37 74.24 22.00  74.74 2550.44
   18:51:13.441.09-Sep-2020 5280.51  688.39 74.25 22.00  74.94 2550.44
   18:51:13.641.09-Sep-2020 5280.51  688.39 74.25 22.00  75.14 2550.44
   18:51:13.841.09-Sep-2020 5280.51  690.00 74.25 22.00  75.34 2550.44
   18:51:14.041.09-Sep-2020 5280.51  690.70 74.25 22.00  75.54 2550.44
   18:51:14.240.09-Sep-2020 5280.51  691.47 74.25 22.00  75.74 2550.44
   18:51:14.440.09-Sep-2020 5280.51  692.29 74.25 22.00  75.94 2550.44
   18:51:14.640.09-Sep-2020 5280.51  692.29 74.25 22.00  76.14 2550.44
   18:51:14.840.09-Sep-2020 5280.51  693.72 74.25 22.00  76.34 2550.44
   18:51:15.040.09-Sep-2020 5280.51  694.63 74.25 22.00  76.54 2550.44
   18:51:15.240.09-Sep-2020 5280.51  695.41 74.25 22.00  76.74 2550.44
   18:51:15.439.09-Sep-2020 5280.51  696.38 74.25 22.00  76.94 2550.44
   18:51:15.639.09-Sep-2020 5280.51  696.38 74.25 22.00  77.14 2550.44
   18:51:15.839.09-Sep-2020 5280.51  698.14 74.25 22.00  77.34 2550.44
   18:51:16.039.09-Sep-2020 5280.51  698.93 74.25 22.00  77.54 2550.44
   18:51:16.239.09-Sep-2020 5280.51  699.78 74.25 22.00  77.74 2550.44
   18:51:16.439.09-Sep-2020 5280.51  700.58 74.25 22.00  77.94 2550.44
   18:51:16.638.09-Sep-2020 5280.51  701.40 74.25 22.00  78.14 2550.44
   18:51:16.838.09-Sep-2020 5280.51  702.17 74.25 22.00  78.34 2550.44
   18:51:17.038.09-Sep-2020 5280.51  702.91 74.25 22.00  78.54 2550.44
   18:51:17.238.09-Sep-2020 5280.51  703.69 74.25 22.00  78.74 2550.44
   18:51:17.438.09-Sep-2020 5280.51  704.48 74.25 22.00  78.94 2550.44
   18:51:17.638.09-Sep-2020 5280.51  704.48 74.25 22.00  79.14 2550.44
   18:51:17.838.09-Sep-2020 5280.51  706.04 74.25 22.00  79.34 2550.44
   18:51:18.037.09-Sep-2020 5280.51  706.78 74.25 22.00  79.54 2550.44
   18:51:18.237.09-Sep-2020 5280.51  706.67 74.25 22.00  79.74 2550.44
   18:51:18.437.09-Sep-2020 5280.51  708.41 74.25 22.00  79.94 2550.44
   18:51:18.637.09-Sep-2020 5280.51  708.41 74.25 22.00  80.14 2550.44
   18:51:18.837.09-Sep-2020 5280.51  709.87 74.25 22.00  80.34 2550.44
   18:51:19.037.09-Sep-2020 5280.51  710.59 74.25 22.00  80.54 2550.44
   18:51:19.236.09-Sep-2020 5280.51  711.55 74.25 22.00  80.74 2550.44
   18:51:19.436.09-Sep-2020 5280.51  712.28 74.25 22.00  80.94 2550.44
   18:51:19.636.09-Sep-2020 5280.51  712.28 74.25 22.00  81.14 2550.44
   18:51:19.836.09-Sep-2020 5280.51  713.85 74.25 22.00  81.34 2550.44
   18:51:20.036.09-Sep-2020 5280.51  714.54 74.25 22.00  81.54 2550.44
   18:51:20.236.09-Sep-2020 5280.51  715.28 74.25 22.00  81.74 2550.44
   18:51:20.436.09-Sep-2020 5280.51  716.01 74.25 22.00  81.94 2550.44
   18:51:20.635.09-Sep-2020 5280.51  716.78 74.26 22.00  82.14 2550.44
   18:51:20.835.09-Sep-2020 5280.51  717.53 74.26 22.00  82.34 2550.44
   18:51:21.035.09-Sep-2020 5280.51  718.25 74.26 22.00  82.54 2550.44
   18:51:21.235.09-Sep-2020 5280.51  718.92 74.26 22.00  82.74 2550.44
   18:51:21.435.09-Sep-2020 5280.51  718.75 74.26 22.00  82.93 2550.44
   18:51:21.635.09-Sep-2020 5280.51  718.75 74.26 22.00  83.13 2550.44
   18:51:21.834.09-Sep-2020 5280.51  720.89 74.26 22.00  83.33 2550.44
   18:51:22.034.09-Sep-2020 5280.51  721.60 74.26 22.00  83.53 2550.44
   18:51:22.234.09-Sep-2020 5280.51  722.24 74.26 22.00  83.73 2550.44
   18:51:22.434.09-Sep-2020 5280.51  723.08 74.26 22.00  83.93 2550.44
   18:51:22.634.09-Sep-2020 5280.51  723.08 74.26 22.00  84.13 2550.44
   18:51:22.834.09-Sep-2020 5280.51  724.16 74.26 22.00  84.33 2550.44
   18:51:23.033.09-Sep-2020 5280.51  725.01 74.26 22.00  84.53 2550.44
   18:51:23.233.09-Sep-2020 5280.51  725.65 74.26 22.00  84.73 2550.44
   18:51:23.433.09-Sep-2020 5280.51  726.50 74.26 22.00  84.93 2550.44
   18:51:23.633.09-Sep-2020 5280.51  726.50 74.26 22.00  85.13 2550.44
   18:51:23.833.09-Sep-2020 5280.51  727.73 74.26 22.00  85.33 2550.44
   18:51:24.033.09-Sep-2020 5280.51  727.55 74.26 22.00  85.53 2550.44
   18:51:24.233.09-Sep-2020 5280.51  729.20 74.26 22.00  85.73 2550.44
   18:51:24.432.09-Sep-2020 5280.51  729.62 74.26 22.00  85.93 2550.44
   18:51:24.632.09-Sep-2020 5280.51  730.24 74.26 22.00  86.13 2550.44
   18:51:24.832.09-Sep-2020 5280.51  730.59 74.26 22.00  86.33 2550.44
   18:51:25.032.09-Sep-2020 5280.51  731.17 74.26 22.00  86.53 2550.44
   18:51:25.232.09-Sep-2020 5280.51  732.13 74.26 22.00  86.73 2550.44
   18:51:25.432.09-Sep-2020 5280.51  732.75 74.26 22.00  86.93 2550.44
   18:51:25.631.09-Sep-2020 5280.51  732.75 74.26 22.00  87.13 2550.44
   18:51:25.831.09-Sep-2020 5280.51  734.15 74.26 22.00  87.33 2550.44
   18:51:26.031.09-Sep-2020 5280.51  734.41 74.26 22.00  87.53 2550.44
   18:51:26.231.09-Sep-2020 5280.51  734.79 74.26 22.00  87.73 2550.44
   18:51:26.431.09-Sep-2020 5280.51  735.84 74.26 22.00  87.93 2550.44
   18:51:26.631.09-Sep-2020 5280.51  736.48 74.26 22.00  88.13 2550.44
   18:51:26.831.09-Sep-2020 5280.51  737.07 74.26 22.00  88.33 2550.44
   18:51:27.030.09-Sep-2020 5280.51  737.86 74.26 22.00  88.53 2550.44
   18:51:27.230.09-Sep-2020 5280.51  738.31 74.26 22.00  88.73 2550.44
   18:51:27.430.09-Sep-2020 5280.51  738.95 74.26 22.00  88.93 2550.44
   18:51:27.630.09-Sep-2020 5280.51  738.95 74.26 22.00  89.13 2550.44
   18:51:27.830.09-Sep-2020 5280.51  740.25 74.26 22.00  89.33 2550.44
   18:51:28.030.09-Sep-2020 5280.51  740.84 74.26 22.00  89.53 2550.44
   18:51:28.229.09-Sep-2020 5280.51  741.41 74.26 22.00  89.73 2550.44
   18:51:28.429.09-Sep-2020 5280.51  742.03 74.26 22.00  89.93 2550.44
   18:51:28.629.09-Sep-2020 5280.51  742.03 74.26 22.00  90.13 2550.44
