~Version Information
 VERS.                  2.0:   CWLS log ASCII Standard -VERSION 2.0
 WRAP.                   NO:   One line per depth step
~Well Information Block
#MNEM.UNIT     VALUE/NAME     DESCRIPTION
#---------     -----------    ---------------------------
 STRT.S             18:19:19 09-Sep-20: START TIME 18:19:19 09-Sep-20
 STOP.S             18:27:34 09-Sep-20: STOP TIME  18:27:34 09-Sep-20
 STEP.S                   0.00: STEP TIME
 NULL.                 -999.25: NULL VALUE
 MDS .        Operator Entered:  MAG DATA SOURCE
 PDAT.          Mean Sea Level:  PERMANENT DATUM
 DCON.         Sperry Drilling:  DIRECTNL CONTR
 RIG .              West Azeri:  RIG NAME
 WELL.           C40 (Slot 20):  WELL NAME
 SRVC.     Turan Drilling Engineering:  CONTRACTOR
 FLD .                     ACG:  FIELD NAME
 CTRY.              Azerbaijan:  COUNTRY NAME
 PROV.                    Baku:  PROVINCE
 STAT.                    Baku:  STATE NAME
 REGN.                   EESSA:  REGION
 BASE.              Azerbaijan:  LOGGING EQUIPMENT BASE LOCATION
 COMP.     BP Exploration (Caspian Sea) Ltd:  COMPANY
 WTYP.                Deviated:  WELL TYPE
 SON .        AZ-XX-0906344804:  JOB NUMBER
 FTOP.          Formation Tops:  FORM TOPS DESC
 ILTD.               Lithology:  INTERP LTH DESC
 SVYD.                  Survey:  SURVEY DESC
 DMOD.             Drill Model:  DRILL MOD DESC
 HPTY.       Minimum Curvature:  HOLE POS TYPE
 NREF.                    Grid:  NORTH REFERENCE
 SPUD.               01-Jan-20:  SPUD DATE
 DATE.      00.59.44 15-Sep-20:  END TIME
 STIM.      12.00.00 12-Jun-20:  START TIME
 DMF .             Drill Floor:  DRILL MEAS FROM
 DFST.                        :  DIST FSL TEXT
 DFWT.                        :  DIST FWL TEXT
 API .                        :  API NUMBER
 CNTY.                        :  COUNTY
 UWI .                        :  UNIQUE WELL IDENTIFIER
 LOC .                        :  LOCATION
 LMF .             Drill Floor:  LOG MEASURED FROM
 VSNS.m                   2.88:  VERT SEC N/S
 VSEW.m                  -3.84:  VERT SEC E/W
 AGAP.m                  43.42:  AIR GAP
 APD .m                  43.42:  DEPTH ABOVE PD
 WDMS.m                 118.27:  WD ELEV
 EGL .m                   0.00:  GROUND ELEVATION
 EPD .m                   0.00:  ELEVATION
 AZTC.deg                 6.23:  AZM TOTAL CORR
 GRDC.deg                 0.20:  GRID CORRECTION
 MDEC.deg                 6.43:  MAGNETIC DECL
 MDIP.deg                59.49:  MAGNETIC DIP
 MFLD.nT              50277.00:  MAGNETIC FIELD
 GVFD.g                   1.00:  GRAVITY FIELD
 VSDR.deg               173.20:  VERT SEC DIRECT
 TDD .m                5790.01:  TOTAL DEPTH (DRILLER)
 SDEP.m                5231.01:  START DEPTH
 DFSL.m                   0.00:  DISTANCE FSL
 DFWL.m                   0.00:  DISTANCE FWL
 UTMY.m             4435808.83:  UTM Y
 UTMX.m              526266.40:  UTM X
 WHEW.m                  -3.84:  WELL HEAD E/W
 WHNS.m                   2.88:  WELL HEAD N/S
 LONG.deg                51.31:  LONGITUDE
 LATI.deg                40.06:  LATITUDE
 TVDS.m                  43.42:  TVDSS CORRECTN
 DEP .m                 430.08:  DEPTH
 EKB .m                  43.42:  KB ELEVATION
 EDF .m                  43.42:  DF ELEVATION
 TDL .m                 559.00:  TOTAL DEPTH (LOGGER)
 MAGU.                 1849381:  MAGUTM CHECKSUM
 VSC .                       0:  VS TO CLOSURE
~Parameter Information Block
#MNEM.UNIT       Value        Description
#---------     -----------    ---------------------------
 AV  .mps                 4.87:  Ann Velocity 
 AVMX.mps                 7.08:  Max Ann Veloc 
 AZIF.deg               108.87:  Azm, Final 
 BHAT.                  Rotary:  BHA Type 
 BROT.°/30m               0.35:  Build Rotating 
 BS  .in                  8.50:  Bit Size 
 BSZ .in                  8.50:  Bit Size 
 BTPL.psig              360.00:  Bit Press Loss 
 CABU.                     Yes:  Customer Abuse 
 TCS .hr                106.24:  Time Ciculation Ended 
 CV  .mps                 1.77:  Crit Velocity 
 CVMX.mps                 2.03:  Max Crit Veloc 
 DD1 .         Aykhan Agagulov:  Direct Drillr 1 
 DD2 .            Nonso Okofor:  Direct Drillr 2 
 DDSV.               Geo-Pilot:  DD Service 
 DEFF.%                  98.00:  % Det Eff 
 DLRX.°/30m               0.50:  Dogleg Rot Max 
 DLSO.°/30m               0.40:  Dogleg Oriented 
 DLSX.°/30m               0.94:  Dogleg Str Max 
 DRET.      20.30.00 08-Sep-20:  Drill End Time 
 DRST.      22.15.00 06-Sep-20:  Drill Start Tim 
 DTIM.hr                 31.31:  Time Drilling 
 EDEP.m                5790.01:  End Depth 
 ENG1.           Amrah Tahirov:  Engineer 1 
 ENG2.         Dair Mahammadov:  Engineer 2 
 ENG3.           Emil Huseynov:  Engineer 3 
 ETIM.      04.01.04 12-Sep-20:  End Time 
 FLOI.gpm               450.00:  Flow In 
 FLON.gpm               450.00:  Flow In Min 
 FLOS.cptm                2.00:  Fluid Loss 
 FLOX.gpm               450.00:  Flow In Max 
 FTRO.       Formation Presure:  FTWD Run Obj 
 HFLO.                      No:  High Flow 
 HPRE.                      No:  High Pressure 
 HTEM.                      No:  High Temp 
 HYDO.m                   1.80:  Hydro Offset 
 IFIN.deg                72.03:  Inc, Final 
 IMAX.deg                73.72:  Inc Max 
 IMIN.deg                70.94:  Inc Min 
 IMND.m                5508.52:  Inc Min Depth 
 IMXD.m                5253.60:  Inc Max Depth 
 JARR.                      No:  Jarring 
 LETM.      20.30.00 08-Sep-20:  Log End Time 
 LOST.hr                     0:  Lost Rig Time 
 LSTM.      22.15.00 06-Sep-20:  Log Start Time 
 MDCL.ppm             36000.00:  Mud Chlorides 
 MDES.     Inversion Oil/Synthetic:  Mud Desc 
 DFD .sg                  1.44:  Mud Density 
 MDMN.sg                  1.44:  Dens Mud Min 
 MDMX.sg                  1.57:  Dens Mud Max 
 MOIL.                      70:  Run Mud Oil % 
 MOWR.                   70:30:  Run Mud OWR 
 MSND.                       0:  Run Mud Sand % 
 MSOL.                      21:  Run Mud Solids% 
 DFV .spqt               68.00:  Mud Viscosity 
 MWOD.in                  6.75:  MWD Tool OD 
 MWSI.                     Yes:  Serv Intrp, MWD 
 OTIM.hr                174.84:  Time Operating 
 PCON.           Look Like New:  Pad Condition 
 PMAX.psia            10616.93:  Press Op, Max 
 PV  .cP                 50.00:  Mud PV 
 RUN .                     700:  Run Number 
 ROPA.m/hr               14.24:  ROP Avg 
 ROPN.m/hr               10.00:  ROP Min 
 ROPX.m/hr               32.00:  ROP Max 
 RPMA.rpm               120.90:  RPM Surface Avg 
 RPMN.rpm               120.00:  RPM Surface Min 
 RPMX.rpm               140.00:  RPM Surface Max 
 RRUN.                    0700:  Rig Run Number 
 RTIM.hr                  3.20:  Time Reaming 
 SAZI.deg               109.99:  Azm, Start 
 SDEP.m                5231.01:  Start Depth 
 SIDD.                      No:  Serv Intrp, DD 
 SINC.deg                73.72:  Inc, Start 
 SPPA.psig             3051.00:  SPP Avg 
 SPPN.psig             2950.00:  SPP Min 
 SPPX.psig             3250.00:  SPP Max 
 STIM.      08.00.00 05-Sep-20:  Start Time 
 SVCS.                 DD, MWD:  Services 
 SVER.                    9.20:  Sperry Version 
 TDAT.m                 559.00:  Tot Depth Attmp 
 TDDF.                      No:  Trip for DD 
 TDLG.m                 559.00:  Tot Depth Loggd 
 TFF .                      No:  Trip for Fail 
 TQAA.f-kp               26.49:  Torque Abs Avg 
 TQAN.f-kp               25.00:  Torque Abs Min 
 TQAX.f-kp               27.00:  Torque Abs Max 
 TRRT.°/30m               1.50:  Turn Rotating 
 MRT .                    HCIM:  Maximum Recorded Temperature 
 TTMX.degC               90.20:  Max Tool Temp 
 VS01.                90542671:  Virtual Str1 SN 
 VS02.                90545185:  Virtual Str2 SN 
 VS03.                90602015:  Virtual Str3 SN 
 VS04.                90515230:  Virtual Str4 SN 
 WBMN.klb                 5.00:  WOB Min 
 WOBA.klb                14.79:  WOB Avg 
 WOBX.klb                20.00:  WOB Max 
 YP  .lhf2               29.00:  Yield Point 
~Curve Information Block
#MNEM.UNIT                 API CODE     Curve Description
#---------               -----------    ---------------------------
 TIME.HHMMSS            00 000 000 000:  GT Time & Date
 GTDEPTH.m              00 000 000 000:  GT Depth
 GTPQH.psia             00 000 000 000:  GT HR Quartz Pressure
 GTTQ.degC              00 000 000 000:  GT Quartz Temperature
 GTTN.NONE              00 000 000 000:  GT Test Number
 GTET.sec               00 000 000 000:  GT Elapsed Test Time
 GTTVD.m                00 000 000 000:  GT True Vertical Depth
#Other Information
#
#WARRANTY: Halliburton will use its best efforts to furnish customers with 
#accurate information and interpretations that are part of, and incident to, the services 
#provided.  However, Halliburton cannot and does not warrant the accuracy 
#or correctness of such information and interpretations.  Under no circumstances should any 
#such information or interpretation be relied upon as the sole basis for any drilling, 
#completion, production, or financial decision or any procedure involving any risk to the 
#safety of any drilling venture, drilling rig or its crew or any other third party.  The 
#Customer has full responsibility for all drilling, completion and production operation.  
#Halliburton makes no representations or warranties, either expressed or 
#implied, including, but not limited to, the implied warranties of merchantability or fitness 
#for a particular purpose, with respect to the services rendered.  In no event will 
#Halliburton be liable for failure to obtain any particular results or for 
#any damages, including, but not limited to, indirect, special or consequential damages, 
#resulting from the use of any information or interpretation provided by Halliburton.
#
~A           TIME           GTDEPTH  GTPQH  GTTQ  GTTN   GTET   GTTVD  
# ...
   18:26:06.423.09-Sep-2020 5281.01 4064.09 74.54 21.00 406.48 2550.59
   18:26:06.623.09-Sep-2020 5281.01 4063.38 74.54 21.00 406.68 2550.59
   18:26:06.823.09-Sep-2020 5281.01 4063.38 74.54 21.00 406.88 2550.59
   18:26:07.023.09-Sep-2020 5281.01 4063.06 74.54 21.00 407.08 2550.59
   18:26:07.223.09-Sep-2020 5281.01 4063.66 74.54 21.00 407.28 2550.59
   18:26:07.422.09-Sep-2020 5281.01 4063.95 74.54 21.00 407.48 2550.59
   18:26:07.622.09-Sep-2020 5281.01 4064.43 74.54 21.00 407.68 2550.59
   18:26:07.822.09-Sep-2020 5281.01 4064.43 74.54 21.00 407.88 2550.59
   18:26:08.022.09-Sep-2020 5281.01 4064.60 74.54 21.00 408.08 2550.59
   18:26:08.222.09-Sep-2020 5281.01 4063.23 74.54 21.00 408.28 2550.59
   18:26:08.422.09-Sep-2020 5281.01 4062.99 74.54 21.00 408.48 2550.59
   18:26:08.621.09-Sep-2020 5281.01 4063.88 74.54 21.00 408.68 2550.59
   18:26:08.821.09-Sep-2020 5281.01 4063.88 74.54 21.00 408.88 2550.59
   18:26:09.021.09-Sep-2020 5281.01 4064.60 74.54 21.00 409.08 2550.59
   18:26:09.221.09-Sep-2020 5281.01 4064.79 74.54 21.00 409.28 2550.59
   18:26:09.421.09-Sep-2020 5281.01 4064.91 74.54 21.00 409.48 2550.59
   18:26:09.621.09-Sep-2020 5281.01 4064.86 74.54 21.00 409.68 2550.59
   18:26:09.821.09-Sep-2020 5281.01 4064.86 74.54 21.00 409.88 2550.59
   18:26:10.020.09-Sep-2020 5281.01 4063.24 74.54 21.00 410.08 2550.59
   18:26:10.220.09-Sep-2020 5281.01 4064.16 74.54 21.00 410.28 2550.59
   18:26:10.420.09-Sep-2020 5281.01 4064.47 74.54 21.00 410.48 2550.59
   18:26:10.620.09-Sep-2020 5281.01 4064.89 74.54 21.00 410.68 2550.59
   18:26:10.820.09-Sep-2020 5281.01 4064.89 74.54 21.00 410.88 2550.59
   18:26:11.020.09-Sep-2020 5281.01 4064.94 74.54 21.00 411.08 2550.59
   18:26:11.219.09-Sep-2020 5281.01 4065.00 74.54 21.00 411.28 2550.59
   18:26:11.419.09-Sep-2020 5281.01 4065.06 74.54 21.00 411.48 2550.59
   18:26:11.619.09-Sep-2020 5281.01 4065.03 74.54 21.00 411.68 2550.59
   18:26:11.819.09-Sep-2020 5281.01 4065.03 74.54 21.00 411.88 2550.59
   18:26:12.019.09-Sep-2020 5281.01 4065.01 74.54 21.00 412.08 2550.59
   18:26:12.219.09-Sep-2020 5281.01 4064.97 74.54 21.00 412.28 2550.59
   18:26:12.419.09-Sep-2020 5281.01 4064.98 74.54 21.00 412.48 2550.59
   18:26:12.618.09-Sep-2020 5281.01 4064.95 74.54 21.00 412.68 2550.59
   18:26:12.818.09-Sep-2020 5281.01 4064.95 74.54 21.00 412.88 2550.59
   18:26:13.018.09-Sep-2020 5281.01 4064.89 74.54 21.00 413.08 2550.59
   18:26:13.218.09-Sep-2020 5281.01 4064.84 74.54 21.00 413.28 2550.59
   18:26:13.418.09-Sep-2020 5281.01 4063.93 74.54 21.00 413.48 2550.59
   18:26:13.618.09-Sep-2020 5281.01 4063.48 74.54 21.00 413.68 2550.59
   18:26:13.817.09-Sep-2020 5281.01 4063.48 74.54 21.00 413.88 2550.59
   18:26:14.017.09-Sep-2020 5281.01 4063.74 74.54 21.00 414.08 2550.59
   18:26:14.217.09-Sep-2020 5281.01 4063.99 74.54 21.00 414.28 2550.59
   18:26:14.417.09-Sep-2020 5281.01 4064.45 74.54 21.00 414.47 2550.59
   18:26:14.617.09-Sep-2020 5281.01 4064.49 74.54 21.00 414.67 2550.59
   18:26:14.817.09-Sep-2020 5281.01 4064.49 74.54 21.00 414.87 2550.59
   18:26:15.016.09-Sep-2020 5281.01 4064.69 74.54 21.00 415.07 2550.59
   18:26:15.216.09-Sep-2020 5281.01 4064.62 74.54 21.00 415.27 2550.59
   18:26:15.416.09-Sep-2020 5281.01 4064.66 74.54 21.00 415.47 2550.59
   18:26:15.616.09-Sep-2020 5281.01 4064.75 74.54 21.00 415.67 2550.59
   18:26:15.816.09-Sep-2020 5281.01 4064.75 74.54 21.00 415.87 2550.59
   18:26:16.016.09-Sep-2020 5281.01 4064.76 74.54 21.00 416.07 2550.59
   18:26:16.216.09-Sep-2020 5281.01 4064.74 74.54 21.00 416.27 2550.59
   18:26:16.415.09-Sep-2020 5281.01 4064.73 74.54 21.00 416.47 2550.59
   18:26:16.615.09-Sep-2020 5281.01 4064.65 74.54 21.00 416.67 2550.59
   18:26:16.815.09-Sep-2020 5281.01 4064.65 74.54 21.00 416.87 2550.59
   18:26:17.015.09-Sep-2020 5281.01 4063.48 74.54 21.00 417.07 2550.59
   18:26:17.215.09-Sep-2020 5281.01 4063.19 74.54 21.00 417.27 2550.59
   18:26:17.415.09-Sep-2020 5281.01 4063.73 74.54 21.00 417.47 2550.59
   18:26:17.614.09-Sep-2020 5281.01 4063.93 74.54 21.00 417.67 2550.59
   18:26:17.814.09-Sep-2020 5281.01 4063.93 74.54 21.00 417.87 2550.59
   18:26:18.014.09-Sep-2020 5281.01 4063.09 74.54 21.00 418.07 2550.59
   18:26:18.214.09-Sep-2020 5281.01 4062.94 74.54 21.00 418.27 2550.59
   18:26:18.414.09-Sep-2020 5281.01 4063.78 74.54 21.00 418.47 2550.59
   18:26:18.614.09-Sep-2020 5281.01 4064.16 74.54 21.00 418.67 2550.59
   18:26:18.813.09-Sep-2020 5281.01 4064.16 74.54 21.00 418.87 2550.59
   18:26:19.013.09-Sep-2020 5281.01 4064.89 74.54 21.00 419.07 2550.59
   18:26:19.213.09-Sep-2020 5281.01 4064.98 74.54 21.00 419.27 2550.59
   18:26:19.413.09-Sep-2020 5281.01 4063.31 74.54 21.00 419.47 2550.59
   18:26:19.613.09-Sep-2020 5281.01 4063.43 74.54 21.00 419.67 2550.59
   18:26:19.813.09-Sep-2020 5281.01 4063.43 74.54 21.00 419.87 2550.59
   18:26:20.013.09-Sep-2020 5281.01 4064.62 74.54 21.00 420.07 2550.59
   18:26:20.212.09-Sep-2020 5281.01 4065.10 74.54 21.00 420.27 2550.59
   18:26:20.412.09-Sep-2020 5281.01 4065.09 74.54 21.00 420.47 2550.59
   18:26:20.612.09-Sep-2020 5281.01 4065.32 74.54 21.00 420.67 2550.59
   18:26:20.812.09-Sep-2020 5281.01 4065.32 74.54 21.00 420.87 2550.59
   18:26:21.012.09-Sep-2020 5281.01 4064.31 74.54 21.00 421.07 2550.59
   18:26:21.212.09-Sep-2020 5281.01 4064.18 74.54 21.00 421.27 2550.59
   18:26:21.411.09-Sep-2020 5281.01 4064.77 74.54 21.00 421.47 2550.59
   18:26:21.611.09-Sep-2020 5281.01 4064.94 74.54 21.00 421.67 2550.59
   18:26:21.811.09-Sep-2020 5281.01 4064.94 74.54 21.00 421.87 2550.59
   18:26:22.011.09-Sep-2020 5281.01 4065.52 74.54 21.00 422.07 2550.59
   18:26:22.211.09-Sep-2020 5281.01 4065.54 74.54 21.00 422.27 2550.59
   18:26:22.411.09-Sep-2020 5281.01 4064.22 74.54 21.00 422.47 2550.59
   18:26:22.611.09-Sep-2020 5281.01 4064.06 74.54 21.00 422.67 2550.59
   18:26:22.810.09-Sep-2020 5281.01 4064.06 74.54 21.00 422.87 2550.59
   18:26:23.010.09-Sep-2020 5281.01 4065.16 74.54 21.00 423.07 2550.59
   18:26:23.210.09-Sep-2020 5281.01 4065.44 74.54 21.00 423.27 2550.59
   18:26:23.410.09-Sep-2020 5281.01 4065.64 74.54 21.00 423.47 2550.59
   18:26:23.610.09-Sep-2020 5281.01 4065.73 74.54 21.00 423.67 2550.59
   18:26:23.810.09-Sep-2020 5281.01 4065.73 74.54 21.00 423.87 2550.59
   18:26:24.009.09-Sep-2020 5281.01 4065.85 74.54 21.00 424.07 2550.59
   18:26:24.209.09-Sep-2020 5281.01 4065.83 74.54 21.00 424.27 2550.59
   18:26:24.409.09-Sep-2020 5281.01 4065.81 74.54 21.00 424.47 2550.59
   18:26:24.609.09-Sep-2020 5281.01 4065.80 74.54 21.00 424.67 2550.59
   18:26:24.809.09-Sep-2020 5281.01 4065.80 74.54 21.00 424.87 2550.59
   18:26:25.009.09-Sep-2020 5281.01 4065.77 74.54 21.00 425.07 2550.59
   18:26:25.208.09-Sep-2020 5281.01 4065.75 74.54 21.00 425.27 2550.59
   18:26:25.408.09-Sep-2020 5281.01 4065.69 74.54 21.00 425.47 2550.59
   18:26:25.608.09-Sep-2020 5281.01 4065.64 74.54 21.00 425.67 2550.59
   18:26:25.808.09-Sep-2020 5281.01 4065.64 74.54 21.00 425.87 2550.59
   18:26:26.008.09-Sep-2020 5281.01 4065.57 74.54 21.00 426.07 2550.59
   18:26:26.208.09-Sep-2020 5281.01 4064.00 74.54 21.00 426.27 2550.59
   18:26:26.408.09-Sep-2020 5281.01 4063.86 74.54 21.00 426.47 2550.59
   18:26:26.607.09-Sep-2020 5281.01 4064.48 74.54 21.00 426.67 2550.59
   18:26:26.807.09-Sep-2020 5281.01 4064.48 74.54 21.00 426.87 2550.59
   18:26:27.007.09-Sep-2020 5281.01 4065.18 74.54 21.00 427.06 2550.59
   18:26:27.207.09-Sep-2020 5281.01 4065.18 74.54 21.00 427.26 2550.59
   18:26:27.407.09-Sep-2020 5281.01 4065.40 74.54 21.00 427.46 2550.59
   18:26:27.607.09-Sep-2020 5281.01 4065.44 74.54 21.00 427.66 2550.59
   18:26:27.806.09-Sep-2020 5281.01 4065.44 74.54 21.00 427.86 2550.59
   18:26:28.006.09-Sep-2020 5281.01 4065.40 74.54 21.00 428.06 2550.59
   18:26:28.206.09-Sep-2020 5281.01 4065.50 74.54 21.00 428.26 2550.59
   18:26:28.406.09-Sep-2020 5281.01 4065.51 74.54 21.00 428.46 2550.59
   18:26:28.606.09-Sep-2020 5281.01 4065.53 74.54 21.00 428.66 2550.59
   18:26:28.806.09-Sep-2020 5281.01 4065.53 74.54 21.00 428.86 2550.59
