~Version Information
 VERS.                  2.0:   CWLS log ASCII Standard -VERSION 2.0
 WRAP.                   NO:   One line per depth step
~Well Information Block
#MNEM.UNIT     VALUE/NAME     DESCRIPTION
#---------     -----------    ---------------------------
 STRT.S             08:13:58 09-Sep-20: START TIME 08:13:58 09-Sep-20
 STOP.S             08:20:59 09-Sep-20: STOP TIME  08:20:59 09-Sep-20
 STEP.S                   0.00: STEP TIME
 NULL.                 -999.25: NULL VALUE
 MDS .        Operator Entered:  MAG DATA SOURCE
 PDAT.          Mean Sea Level:  PERMANENT DATUM
 DCON.         Sperry Drilling:  DIRECTNL CONTR
 RIG .              West Azeri:  RIG NAME
 WELL.           C40 (Slot 20):  WELL NAME
 SRVC.     Turan Drilling Engineering:  CONTRACTOR
 FLD .                     ACG:  FIELD NAME
 CTRY.              Azerbaijan:  COUNTRY NAME
 PROV.                    Baku:  PROVINCE
 STAT.                    Baku:  STATE NAME
 REGN.                   EESSA:  REGION
 BASE.              Azerbaijan:  LOGGING EQUIPMENT BASE LOCATION
 COMP.     BP Exploration (Caspian Sea) Ltd:  COMPANY
 WTYP.                Deviated:  WELL TYPE
 SON .        AZ-XX-0906344804:  JOB NUMBER
 FTOP.          Formation Tops:  FORM TOPS DESC
 ILTD.               Lithology:  INTERP LTH DESC
 SVYD.                  Survey:  SURVEY DESC
 DMOD.             Drill Model:  DRILL MOD DESC
 HPTY.       Minimum Curvature:  HOLE POS TYPE
 NREF.                    Grid:  NORTH REFERENCE
 SPUD.               01-Jan-20:  SPUD DATE
 DATE.      00.59.44 15-Sep-20:  END TIME
 STIM.      12.00.00 12-Jun-20:  START TIME
 DMF .             Drill Floor:  DRILL MEAS FROM
 DFST.                        :  DIST FSL TEXT
 DFWT.                        :  DIST FWL TEXT
 API .                        :  API NUMBER
 CNTY.                        :  COUNTY
 UWI .                        :  UNIQUE WELL IDENTIFIER
 LOC .                        :  LOCATION
 LMF .             Drill Floor:  LOG MEASURED FROM
 VSNS.m                   2.88:  VERT SEC N/S
 VSEW.m                  -3.84:  VERT SEC E/W
 AGAP.m                  43.42:  AIR GAP
 APD .m                  43.42:  DEPTH ABOVE PD
 WDMS.m                 118.27:  WD ELEV
 EGL .m                   0.00:  GROUND ELEVATION
 EPD .m                   0.00:  ELEVATION
 AZTC.deg                 6.23:  AZM TOTAL CORR
 GRDC.deg                 0.20:  GRID CORRECTION
 MDEC.deg                 6.43:  MAGNETIC DECL
 MDIP.deg                59.49:  MAGNETIC DIP
 MFLD.nT              50277.00:  MAGNETIC FIELD
 GVFD.g                   1.00:  GRAVITY FIELD
 VSDR.deg               173.20:  VERT SEC DIRECT
 TDD .m                5790.01:  TOTAL DEPTH (DRILLER)
 SDEP.m                5231.01:  START DEPTH
 DFSL.m                   0.00:  DISTANCE FSL
 DFWL.m                   0.00:  DISTANCE FWL
 UTMY.m             4435808.83:  UTM Y
 UTMX.m              526266.40:  UTM X
 WHEW.m                  -3.84:  WELL HEAD E/W
 WHNS.m                   2.88:  WELL HEAD N/S
 LONG.deg                51.31:  LONGITUDE
 LATI.deg                40.06:  LATITUDE
 TVDS.m                  43.42:  TVDSS CORRECTN
 DEP .m                 430.08:  DEPTH
 EKB .m                  43.42:  KB ELEVATION
 EDF .m                  43.42:  DF ELEVATION
 TDL .m                 559.00:  TOTAL DEPTH (LOGGER)
 MAGU.                 1849381:  MAGUTM CHECKSUM
 VSC .                       0:  VS TO CLOSURE
~Parameter Information Block
#MNEM.UNIT       Value        Description
#---------     -----------    ---------------------------
 AV  .mps                 4.87:  Ann Velocity 
 AVMX.mps                 7.08:  Max Ann Veloc 
 AZIF.deg               108.87:  Azm, Final 
 BHAT.                  Rotary:  BHA Type 
 BROT.°/30m               0.35:  Build Rotating 
 BS  .in                  8.50:  Bit Size 
 BSZ .in                  8.50:  Bit Size 
 BTPL.psig              360.00:  Bit Press Loss 
 CABU.                     Yes:  Customer Abuse 
 COMM.                     t›a:  Run Comments 1 
 TCS .hr                106.24:  Time Ciculation Ended 
 CV  .mps                 1.77:  Crit Velocity 
 CVMX.mps                 2.03:  Max Crit Veloc 
 DD1 .         Aykhan Agagulov:  Direct Drillr 1 
 DD2 .            Nonso Okofor:  Direct Drillr 2 
 DDSV.               Geo-Pilot:  DD Service 
 DEFF.%                  98.00:  % Det Eff 
 DLRX.°/30m               0.50:  Dogleg Rot Max 
 DLSO.°/30m               0.40:  Dogleg Oriented 
 DLSX.°/30m               0.94:  Dogleg Str Max 
 DRET.      20.30.00 08-Sep-20:  Drill End Time 
 DRST.      22.15.00 06-Sep-20:  Drill Start Tim 
 DTIM.hr                 31.31:  Time Drilling 
 EDEP.m                5790.01:  End Depth 
 ENG1.           Amrah Tahirov:  Engineer 1 
 ENG2.         Dair Mahammadov:  Engineer 2 
 ENG3.           Emil Huseynov:  Engineer 3 
 ETIM.      04.01.04 12-Sep-20:  End Time 
 FLOI.gpm               450.00:  Flow In 
 FLON.gpm               450.00:  Flow In Min 
 FLOS.cptm                2.00:  Fluid Loss 
 FLOX.gpm               450.00:  Flow In Max 
 FTRO.       Formation Presure:  FTWD Run Obj 
 HFLO.                      No:  High Flow 
 HPRE.                      No:  High Pressure 
 HTEM.                      No:  High Temp 
 HYDO.m                   1.80:  Hydro Offset 
 IFIN.deg                72.03:  Inc, Final 
 IMAX.deg                73.72:  Inc Max 
 IMIN.deg                70.94:  Inc Min 
 IMND.m                5508.52:  Inc Min Depth 
 IMXD.m                5253.60:  Inc Max Depth 
 JARR.                      No:  Jarring 
 LETM.      20.30.00 08-Sep-20:  Log End Time 
 LOST.hr                     0:  Lost Rig Time 
 LSTM.      22.15.00 06-Sep-20:  Log Start Time 
 MDCL.ppm             36000.00:  Mud Chlorides 
 MDES.     Inversion Oil/Synthetic:  Mud Desc 
 DFD .sg                  1.44:  Mud Density 
 MDMN.sg                  1.44:  Dens Mud Min 
 MDMX.sg                  1.57:  Dens Mud Max 
 MOIL.                      70:  Run Mud Oil % 
 MOWR.                   70:30:  Run Mud OWR 
 MSND.                       0:  Run Mud Sand % 
 MSOL.                      21:  Run Mud Solids% 
 DFV .spqt               68.00:  Mud Viscosity 
 MWOD.in                  6.75:  MWD Tool OD 
 MWSI.                     Yes:  Serv Intrp, MWD 
 OTIM.hr                174.84:  Time Operating 
 PCON.           Look Like New:  Pad Condition 
 PMAX.psia            10616.93:  Press Op, Max 
 PV  .cP                 50.00:  Mud PV 
 RUN .                     700:  Run Number 
 ROPA.m/hr               14.24:  ROP Avg 
 ROPN.m/hr               10.00:  ROP Min 
 ROPX.m/hr               32.00:  ROP Max 
 RPMA.rpm               120.90:  RPM Surface Avg 
 RPMN.rpm               120.00:  RPM Surface Min 
 RPMX.rpm               140.00:  RPM Surface Max 
 RRUN.                    0700:  Rig Run Number 
 RTIM.hr                  3.20:  Time Reaming 
 SAZI.deg               109.99:  Azm, Start 
 SDEP.m                5231.01:  Start Depth 
 SIDD.                      No:  Serv Intrp, DD 
 SINC.deg                73.72:  Inc, Start 
 SPPA.psig             3051.00:  SPP Avg 
 SPPN.psig             2950.00:  SPP Min 
 SPPX.psig             3250.00:  SPP Max 
 STIM.      08.00.00 05-Sep-20:  Start Time 
 SVCS.                 DD, MWD:  Services 
 SVER.                    9.20:  Sperry Version 
 TDAT.m                 559.00:  Tot Depth Attmp 
 TDDF.                      No:  Trip for DD 
 TDLG.m                 559.00:  Tot Depth Loggd 
 TFF .                      No:  Trip for Fail 
 TQAA.f-kp               26.49:  Torque Abs Avg 
 TQAN.f-kp               25.00:  Torque Abs Min 
 TQAX.f-kp               27.00:  Torque Abs Max 
 TRRT.°/30m               1.50:  Turn Rotating 
 MRT .                    HCIM:  Maximum Recorded Temperature 
 TTMX.degC               90.20:  Max Tool Temp 
 VS01.                90542671:  Virtual Str1 SN 
 VS02.                90545185:  Virtual Str2 SN 
 VS03.                90602015:  Virtual Str3 SN 
 VS04.                90515230:  Virtual Str4 SN 
 WBMN.klb                 5.00:  WOB Min 
 WOBA.klb                14.79:  WOB Avg 
 WOBX.klb                20.00:  WOB Max 
 YP  .lhf2               29.00:  Yield Point 
~Curve Information Block
#MNEM.UNIT                 API CODE     Curve Description
#---------               -----------    ---------------------------
 TIME.HHMMSS            00 000 000 000:  GT Time & Date
 GTDEPTH.m              00 000 000 000:  GT Depth
 GTPQH.psia             00 000 000 000:  GT HR Quartz Pressure
 GTTQ.degC              00 000 000 000:  GT Quartz Temperature
 GTTN.NONE              00 000 000 000:  GT Test Number
 GTET.sec               00 000 000 000:  GT Elapsed Test Time
 GTTVD.m                00 000 000 000:  GT True Vertical Depth
#Other Information
#
#WARRANTY: Halliburton will use its best efforts to furnish customers with 
#accurate information and interpretations that are part of, and incident to, the services 
#provided.  However, Halliburton cannot and does not warrant the accuracy 
#or correctness of such information and interpretations.  Under no circumstances should any 
#such information or interpretation be relied upon as the sole basis for any drilling, 
#completion, production, or financial decision or any procedure involving any risk to the 
#safety of any drilling venture, drilling rig or its crew or any other third party.  The 
#Customer has full responsibility for all drilling, completion and production operation.  
#Halliburton makes no representations or warranties, either expressed or 
#implied, including, but not limited to, the implied warranties of merchantability or fitness 
#for a particular purpose, with respect to the services rendered.  In no event will 
#Halliburton be liable for failure to obtain any particular results or for 
#any damages, including, but not limited to, indirect, special or consequential damages, 
#resulting from the use of any information or interpretation provided by Halliburton.
#
~A           TIME           GTDEPTH  GTPQH  GTTQ  GTTN  GTET   GTTVD  
# ...
   08:16:39.378.09-Sep-2020 5533.01 3702.85 78.01 5.00 161.06 2629.43
   08:16:39.578.09-Sep-2020 5533.01 3702.85 78.01 5.00 161.26 2629.43
   08:16:39.778.09-Sep-2020 5533.01 3702.95 78.01 5.00 161.46 2629.43
   08:16:39.979.09-Sep-2020 5533.01 3703.03 78.01 5.00 161.66 2629.43
   08:16:40.179.09-Sep-2020 5533.01 3703.12 78.01 5.00 161.86 2629.43
   08:16:40.379.09-Sep-2020 5533.01 3703.19 78.01 5.00 162.06 2629.43
   08:16:40.579.09-Sep-2020 5533.01 3703.19 78.01 5.00 162.26 2629.43
   08:16:40.779.09-Sep-2020 5533.01 3703.29 78.01 5.00 162.46 2629.43
   08:16:40.979.09-Sep-2020 5533.01 3703.36 78.01 5.00 162.66 2629.43
   08:16:41.179.09-Sep-2020 5533.01 3703.41 78.01 5.00 162.86 2629.43
   08:16:41.379.09-Sep-2020 5533.01 3703.51 78.01 5.00 163.06 2629.43
   08:16:41.579.09-Sep-2020 5533.01 3703.51 78.01 5.00 163.26 2629.43
   08:16:41.779.09-Sep-2020 5533.01 3703.53 78.01 5.00 163.46 2629.43
   08:16:41.979.09-Sep-2020 5533.01 3703.56 78.01 5.00 163.66 2629.43
   08:16:42.179.09-Sep-2020 5533.01 3703.57 78.01 5.00 163.86 2629.43
   08:16:42.380.09-Sep-2020 5533.01 3703.58 78.01 5.00 164.06 2629.43
   08:16:42.580.09-Sep-2020 5533.01 3703.58 78.01 5.00 164.26 2629.43
   08:16:42.780.09-Sep-2020 5533.01 3703.64 78.01 5.00 164.46 2629.43
   08:16:42.980.09-Sep-2020 5533.01 3703.65 78.01 5.00 164.67 2629.43
   08:16:43.180.09-Sep-2020 5533.01 3703.67 78.01 5.00 164.87 2629.43
   08:16:43.380.09-Sep-2020 5533.01 3703.66 78.02 5.00 165.07 2629.43
   08:16:43.580.09-Sep-2020 5533.01 3703.66 78.02 5.00 165.27 2629.43
   08:16:43.780.09-Sep-2020 5533.01 3703.67 78.02 5.00 165.47 2629.43
   08:16:43.980.09-Sep-2020 5533.01 3703.82 78.02 5.00 165.67 2629.43
   08:16:44.180.09-Sep-2020 5533.01 3703.56 78.02 5.00 165.87 2629.43
   08:16:44.380.09-Sep-2020 5533.01 3703.73 78.02 5.00 166.07 2629.43
   08:16:44.580.09-Sep-2020 5533.01 3703.73 78.02 5.00 166.27 2629.43
   08:16:44.780.09-Sep-2020 5533.01 3703.84 78.02 5.00 166.47 2629.43
   08:16:44.981.09-Sep-2020 5533.01 3703.38 78.02 5.00 166.67 2629.43
   08:16:45.181.09-Sep-2020 5533.01 3703.94 78.02 5.00 166.87 2629.43
   08:16:45.381.09-Sep-2020 5533.01 3703.75 78.02 5.00 167.07 2629.43
   08:16:45.581.09-Sep-2020 5533.01 3703.75 78.02 5.00 167.27 2629.43
   08:16:45.781.09-Sep-2020 5533.01 3703.74 78.02 5.00 167.47 2629.43
   08:16:45.981.09-Sep-2020 5533.01 3703.75 78.02 5.00 167.67 2629.43
   08:16:46.181.09-Sep-2020 5533.01 3703.70 78.02 5.00 167.87 2629.43
   08:16:46.381.09-Sep-2020 5533.01 3703.52 78.02 5.00 168.07 2629.43
   08:16:46.581.09-Sep-2020 5533.01 3703.99 78.02 5.00 168.27 2629.43
   08:16:46.781.09-Sep-2020 5533.01 3703.75 78.02 5.00 168.47 2629.43
   08:16:46.981.09-Sep-2020 5533.01 3703.82 78.02 5.00 168.67 2629.43
   08:16:47.181.09-Sep-2020 5533.01 3703.74 78.02 5.00 168.87 2629.43
   08:16:47.381.09-Sep-2020 5533.01 3703.78 78.02 5.00 169.07 2629.43
   08:16:47.582.09-Sep-2020 5533.01 3703.78 78.02 5.00 169.27 2629.43
   08:16:47.782.09-Sep-2020 5533.01 3704.16 78.02 5.00 169.47 2629.43
   08:16:47.982.09-Sep-2020 5533.01 3703.76 78.02 5.00 169.67 2629.43
   08:16:48.182.09-Sep-2020 5533.01 3703.79 78.02 5.00 169.87 2629.43
   08:16:48.382.09-Sep-2020 5533.01 3703.75 78.02 5.00 170.07 2629.43
   08:16:48.582.09-Sep-2020 5533.01 3703.75 78.02 5.00 170.27 2629.43
   08:16:48.782.09-Sep-2020 5533.01 3703.73 78.02 5.00 170.47 2629.43
   08:16:48.982.09-Sep-2020 5533.01 3703.78 78.02 5.00 170.67 2629.43
   08:16:49.182.09-Sep-2020 5533.01 3703.77 78.02 5.00 170.87 2629.43
   08:16:49.382.09-Sep-2020 5533.01 3703.80 78.02 5.00 171.07 2629.43
   08:16:49.582.09-Sep-2020 5533.01 3703.80 78.02 5.00 171.27 2629.43
   08:16:49.782.09-Sep-2020 5533.01 3703.78 78.02 5.00 171.47 2629.43
   08:16:49.983.09-Sep-2020 5533.01 3703.80 78.02 5.00 171.67 2629.43
   08:16:50.183.09-Sep-2020 5533.01 3703.79 78.02 5.00 171.87 2629.43
   08:16:50.383.09-Sep-2020 5533.01 3703.80 78.02 5.00 172.07 2629.43
   08:16:50.583.09-Sep-2020 5533.01 3703.81 78.02 5.00 172.27 2629.43
   08:16:50.783.09-Sep-2020 5533.01 3703.78 78.02 5.00 172.47 2629.43
   08:16:50.983.09-Sep-2020 5533.01 3703.79 78.02 5.00 172.67 2629.43
   08:16:51.183.09-Sep-2020 5533.01 3703.80 78.02 5.00 172.87 2629.43
   08:16:51.383.09-Sep-2020 5533.01 3703.81 78.02 5.00 173.07 2629.43
   08:16:51.583.09-Sep-2020 5533.01 3703.81 78.02 5.00 173.27 2629.43
   08:16:51.783.09-Sep-2020 5533.01 3703.81 78.02 5.00 173.47 2629.43
   08:16:51.983.09-Sep-2020 5533.01 3703.80 78.02 5.00 173.67 2629.43
   08:16:52.183.09-Sep-2020 5533.01 3703.81 78.02 5.00 173.87 2629.43
   08:16:52.383.09-Sep-2020 5533.01 3703.97 78.02 5.00 174.07 2629.43
   08:16:52.584.09-Sep-2020 5533.01 3703.97 78.02 5.00 174.27 2629.43
   08:16:52.784.09-Sep-2020 5533.01 3703.83 78.02 5.00 174.47 2629.43
   08:16:52.984.09-Sep-2020 5533.01 3703.78 78.02 5.00 174.67 2629.43
   08:16:53.184.09-Sep-2020 5533.01 3703.92 78.02 5.00 174.87 2629.43
   08:16:53.384.09-Sep-2020 5533.01 3703.70 78.02 5.00 175.07 2629.43
   08:16:53.584.09-Sep-2020 5533.01 3703.70 78.02 5.00 175.27 2629.43
   08:16:53.784.09-Sep-2020 5533.01 3703.81 78.02 5.00 175.47 2629.43
   08:16:53.984.09-Sep-2020 5533.01 3703.82 78.02 5.00 175.67 2629.43
   08:16:54.184.09-Sep-2020 5533.01 3703.78 78.02 5.00 175.87 2629.43
   08:16:54.384.09-Sep-2020 5533.01 3703.80 78.02 5.00 176.07 2629.43
   08:16:54.584.09-Sep-2020 5533.01 3703.80 78.02 5.00 176.27 2629.43
   08:16:54.784.09-Sep-2020 5533.01 3703.82 78.02 5.00 176.47 2629.43
   08:16:54.984.09-Sep-2020 5533.01 3703.81 78.02 5.00 176.67 2629.43
   08:16:55.185.09-Sep-2020 5533.01 3703.82 78.02 5.00 176.87 2629.43
   08:16:55.385.09-Sep-2020 5533.01 3703.79 78.02 5.00 177.07 2629.43
   08:16:55.585.09-Sep-2020 5533.01 3703.79 78.02 5.00 177.27 2629.43
   08:16:55.785.09-Sep-2020 5533.01 3704.19 78.02 5.00 177.47 2629.43
   08:16:55.985.09-Sep-2020 5533.01 3703.77 78.02 5.00 177.67 2629.43
   08:16:56.185.09-Sep-2020 5533.01 3703.84 78.02 5.00 177.87 2629.43
   08:16:56.385.09-Sep-2020 5533.01 3703.77 78.02 5.00 178.07 2629.43
   08:16:56.585.09-Sep-2020 5533.01 3703.77 78.02 5.00 178.27 2629.43
   08:16:56.785.09-Sep-2020 5533.01 3703.82 78.02 5.00 178.47 2629.43
   08:16:56.985.09-Sep-2020 5533.01 3703.78 78.02 5.00 178.67 2629.43
   08:16:57.185.09-Sep-2020 5533.01 3703.78 78.02 5.00 178.87 2629.43
   08:16:57.385.09-Sep-2020 5533.01 3703.80 78.02 5.00 179.07 2629.43
   08:16:57.586.09-Sep-2020 5533.01 3703.80 78.02 5.00 179.27 2629.43
   08:16:57.786.09-Sep-2020 5533.01 3703.44 78.02 5.00 179.47 2629.43
   08:16:57.986.09-Sep-2020 5533.01 3704.17 78.02 5.00 179.67 2629.43
   08:16:58.186.09-Sep-2020 5533.01 3703.78 78.02 5.00 179.87 2629.43
   08:16:58.386.09-Sep-2020 5533.01 3703.84 78.02 5.00 180.07 2629.43
   08:16:58.586.09-Sep-2020 5533.01 3703.77 78.02 5.00 180.27 2629.43
   08:16:58.786.09-Sep-2020 5533.01 3703.84 78.02 5.00 180.47 2629.43
   08:16:58.986.09-Sep-2020 5533.01 3703.79 78.02 5.00 180.67 2629.43
   08:16:59.186.09-Sep-2020 5533.01 3703.82 78.02 5.00 180.87 2629.43
   08:16:59.386.09-Sep-2020 5533.01 3703.86 78.02 5.00 181.07 2629.43
   08:16:59.586.09-Sep-2020 5533.01 3703.86 78.02 5.00 181.27 2629.43
   08:16:59.786.09-Sep-2020 5533.01 3703.82 78.02 5.00 181.47 2629.43
   08:16:59.986.09-Sep-2020 5533.01 3703.80 78.02 5.00 181.67 2629.43
   08:17:00.187.09-Sep-2020 5533.01 3703.84 78.02 5.00 181.87 2629.43
   08:17:00.387.09-Sep-2020 5533.01 3703.80 78.02 5.00 182.07 2629.43
   08:17:00.587.09-Sep-2020 5533.01 3703.80 78.02 5.00 182.27 2629.43
   08:17:00.787.09-Sep-2020 5533.01 3703.67 78.02 5.00 182.47 2629.43
   08:17:00.987.09-Sep-2020 5533.01 3703.82 78.02 5.00 182.67 2629.43
   08:17:01.187.09-Sep-2020 5533.01 3703.78 78.02 5.00 182.87 2629.43
   08:17:01.387.09-Sep-2020 5533.01 3703.94 78.02 5.00 183.07 2629.43
   08:17:01.587.09-Sep-2020 5533.01 3703.94 78.02 5.00 183.27 2629.43
   08:17:01.787.09-Sep-2020 5533.01 3703.81 78.02 5.00 183.47 2629.43
   08:17:01.987.09-Sep-2020 5533.01 3703.81 78.02 5.00 183.67 2629.43
   08:17:02.187.09-Sep-2020 5533.01 3703.83 78.02 5.00 183.87 2629.43
