~Version Information
 VERS.                  2.0:   CWLS log ASCII Standard -VERSION 2.0
 WRAP.                   NO:   One line per depth step
~Well Information Block
#MNEM.UNIT     VALUE/NAME     DESCRIPTION
#---------     -----------    ---------------------------
 STRT.S             08:13:58 09-Sep-20: START TIME 08:13:58 09-Sep-20
 STOP.S             08:20:59 09-Sep-20: STOP TIME  08:20:59 09-Sep-20
 STEP.S                   0.00: STEP TIME
 NULL.                 -999.25: NULL VALUE
 MDS .        Operator Entered:  MAG DATA SOURCE
 PDAT.          Mean Sea Level:  PERMANENT DATUM
 DCON.         Sperry Drilling:  DIRECTNL CONTR
 RIG .              West Azeri:  RIG NAME
 WELL.           C40 (Slot 20):  WELL NAME
 SRVC.     Turan Drilling Engineering:  CONTRACTOR
 FLD .                     ACG:  FIELD NAME
 CTRY.              Azerbaijan:  COUNTRY NAME
 PROV.                    Baku:  PROVINCE
 STAT.                    Baku:  STATE NAME
 REGN.                   EESSA:  REGION
 BASE.              Azerbaijan:  LOGGING EQUIPMENT BASE LOCATION
 COMP.     BP Exploration (Caspian Sea) Ltd:  COMPANY
 WTYP.                Deviated:  WELL TYPE
 SON .        AZ-XX-0906344804:  JOB NUMBER
 FTOP.          Formation Tops:  FORM TOPS DESC
 ILTD.               Lithology:  INTERP LTH DESC
 SVYD.                  Survey:  SURVEY DESC
 DMOD.             Drill Model:  DRILL MOD DESC
 HPTY.       Minimum Curvature:  HOLE POS TYPE
 NREF.                    Grid:  NORTH REFERENCE
 SPUD.               01-Jan-20:  SPUD DATE
 DATE.      00.59.44 15-Sep-20:  END TIME
 STIM.      12.00.00 12-Jun-20:  START TIME
 DMF .             Drill Floor:  DRILL MEAS FROM
 DFST.                        :  DIST FSL TEXT
 DFWT.                        :  DIST FWL TEXT
 API .                        :  API NUMBER
 CNTY.                        :  COUNTY
 UWI .                        :  UNIQUE WELL IDENTIFIER
 LOC .                        :  LOCATION
 LMF .             Drill Floor:  LOG MEASURED FROM
 VSNS.m                   2.88:  VERT SEC N/S
 VSEW.m                  -3.84:  VERT SEC E/W
 AGAP.m                  43.42:  AIR GAP
 APD .m                  43.42:  DEPTH ABOVE PD
 WDMS.m                 118.27:  WD ELEV
 EGL .m                   0.00:  GROUND ELEVATION
 EPD .m                   0.00:  ELEVATION
 AZTC.deg                 6.23:  AZM TOTAL CORR
 GRDC.deg                 0.20:  GRID CORRECTION
 MDEC.deg                 6.43:  MAGNETIC DECL
 MDIP.deg                59.49:  MAGNETIC DIP
 MFLD.nT              50277.00:  MAGNETIC FIELD
 GVFD.g                   1.00:  GRAVITY FIELD
 VSDR.deg               173.20:  VERT SEC DIRECT
 TDD .m                5790.01:  TOTAL DEPTH (DRILLER)
 SDEP.m                5231.01:  START DEPTH
 DFSL.m                   0.00:  DISTANCE FSL
 DFWL.m                   0.00:  DISTANCE FWL
 UTMY.m             4435808.83:  UTM Y
 UTMX.m              526266.40:  UTM X
 WHEW.m                  -3.84:  WELL HEAD E/W
 WHNS.m                   2.88:  WELL HEAD N/S
 LONG.deg                51.31:  LONGITUDE
 LATI.deg                40.06:  LATITUDE
 TVDS.m                  43.42:  TVDSS CORRECTN
 DEP .m                 430.08:  DEPTH
 EKB .m                  43.42:  KB ELEVATION
 EDF .m                  43.42:  DF ELEVATION
 TDL .m                 559.00:  TOTAL DEPTH (LOGGER)
 MAGU.                 1849381:  MAGUTM CHECKSUM
 VSC .                       0:  VS TO CLOSURE
~Parameter Information Block
#MNEM.UNIT       Value        Description
#---------     -----------    ---------------------------
 AV  .mps                 4.87:  Ann Velocity 
 AVMX.mps                 7.08:  Max Ann Veloc 
 AZIF.deg               108.87:  Azm, Final 
 BHAT.                  Rotary:  BHA Type 
 BROT.°/30m               0.35:  Build Rotating 
 BS  .in                  8.50:  Bit Size 
 BSZ .in                  8.50:  Bit Size 
 BTPL.psig              360.00:  Bit Press Loss 
 CABU.                     Yes:  Customer Abuse 
 COMM.                     t›a:  Run Comments 1 
 TCS .hr                106.24:  Time Ciculation Ended 
 CV  .mps                 1.77:  Crit Velocity 
 CVMX.mps                 2.03:  Max Crit Veloc 
 DD1 .         Aykhan Agagulov:  Direct Drillr 1 
 DD2 .            Nonso Okofor:  Direct Drillr 2 
 DDSV.               Geo-Pilot:  DD Service 
 DEFF.%                  98.00:  % Det Eff 
 DLRX.°/30m               0.50:  Dogleg Rot Max 
 DLSO.°/30m               0.40:  Dogleg Oriented 
 DLSX.°/30m               0.94:  Dogleg Str Max 
 DRET.      20.30.00 08-Sep-20:  Drill End Time 
 DRST.      22.15.00 06-Sep-20:  Drill Start Tim 
 DTIM.hr                 31.31:  Time Drilling 
 EDEP.m                5790.01:  End Depth 
 ENG1.           Amrah Tahirov:  Engineer 1 
 ENG2.         Dair Mahammadov:  Engineer 2 
 ENG3.           Emil Huseynov:  Engineer 3 
 ETIM.      04.01.04 12-Sep-20:  End Time 
 FLOI.gpm               450.00:  Flow In 
 FLON.gpm               450.00:  Flow In Min 
 FLOS.cptm                2.00:  Fluid Loss 
 FLOX.gpm               450.00:  Flow In Max 
 FTRO.       Formation Presure:  FTWD Run Obj 
 HFLO.                      No:  High Flow 
 HPRE.                      No:  High Pressure 
 HTEM.                      No:  High Temp 
 HYDO.m                   1.80:  Hydro Offset 
 IFIN.deg                72.03:  Inc, Final 
 IMAX.deg                73.72:  Inc Max 
 IMIN.deg                70.94:  Inc Min 
 IMND.m                5508.52:  Inc Min Depth 
 IMXD.m                5253.60:  Inc Max Depth 
 JARR.                      No:  Jarring 
 LETM.      20.30.00 08-Sep-20:  Log End Time 
 LOST.hr                     0:  Lost Rig Time 
 LSTM.      22.15.00 06-Sep-20:  Log Start Time 
 MDCL.ppm             36000.00:  Mud Chlorides 
 MDES.     Inversion Oil/Synthetic:  Mud Desc 
 DFD .sg                  1.44:  Mud Density 
 MDMN.sg                  1.44:  Dens Mud Min 
 MDMX.sg                  1.57:  Dens Mud Max 
 MOIL.                      70:  Run Mud Oil % 
 MOWR.                   70:30:  Run Mud OWR 
 MSND.                       0:  Run Mud Sand % 
 MSOL.                      21:  Run Mud Solids% 
 DFV .spqt               68.00:  Mud Viscosity 
 MWOD.in                  6.75:  MWD Tool OD 
 MWSI.                     Yes:  Serv Intrp, MWD 
 OTIM.hr                174.84:  Time Operating 
 PCON.           Look Like New:  Pad Condition 
 PMAX.psia            10616.93:  Press Op, Max 
 PV  .cP                 50.00:  Mud PV 
 RUN .                     700:  Run Number 
 ROPA.m/hr               14.24:  ROP Avg 
 ROPN.m/hr               10.00:  ROP Min 
 ROPX.m/hr               32.00:  ROP Max 
 RPMA.rpm               120.90:  RPM Surface Avg 
 RPMN.rpm               120.00:  RPM Surface Min 
 RPMX.rpm               140.00:  RPM Surface Max 
 RRUN.                    0700:  Rig Run Number 
 RTIM.hr                  3.20:  Time Reaming 
 SAZI.deg               109.99:  Azm, Start 
 SDEP.m                5231.01:  Start Depth 
 SIDD.                      No:  Serv Intrp, DD 
 SINC.deg                73.72:  Inc, Start 
 SPPA.psig             3051.00:  SPP Avg 
 SPPN.psig             2950.00:  SPP Min 
 SPPX.psig             3250.00:  SPP Max 
 STIM.      08.00.00 05-Sep-20:  Start Time 
 SVCS.                 DD, MWD:  Services 
 SVER.                    9.20:  Sperry Version 
 TDAT.m                 559.00:  Tot Depth Attmp 
 TDDF.                      No:  Trip for DD 
 TDLG.m                 559.00:  Tot Depth Loggd 
 TFF .                      No:  Trip for Fail 
 TQAA.f-kp               26.49:  Torque Abs Avg 
 TQAN.f-kp               25.00:  Torque Abs Min 
 TQAX.f-kp               27.00:  Torque Abs Max 
 TRRT.°/30m               1.50:  Turn Rotating 
 MRT .                    HCIM:  Maximum Recorded Temperature 
 TTMX.degC               90.20:  Max Tool Temp 
 VS01.                90542671:  Virtual Str1 SN 
 VS02.                90545185:  Virtual Str2 SN 
 VS03.                90602015:  Virtual Str3 SN 
 VS04.                90515230:  Virtual Str4 SN 
 WBMN.klb                 5.00:  WOB Min 
 WOBA.klb                14.79:  WOB Avg 
 WOBX.klb                20.00:  WOB Max 
 YP  .lhf2               29.00:  Yield Point 
~Curve Information Block
#MNEM.UNIT                 API CODE     Curve Description
#---------               -----------    ---------------------------
 TIME.HHMMSS            00 000 000 000:  GT Time & Date
 GTDEPTH.m              00 000 000 000:  GT Depth
 GTPQH.psia             00 000 000 000:  GT HR Quartz Pressure
 GTTQ.degC              00 000 000 000:  GT Quartz Temperature
 GTTN.NONE              00 000 000 000:  GT Test Number
 GTET.sec               00 000 000 000:  GT Elapsed Test Time
 GTTVD.m                00 000 000 000:  GT True Vertical Depth
#Other Information
#
#WARRANTY: Halliburton will use its best efforts to furnish customers with 
#accurate information and interpretations that are part of, and incident to, the services 
#provided.  However, Halliburton cannot and does not warrant the accuracy 
#or correctness of such information and interpretations.  Under no circumstances should any 
#such information or interpretation be relied upon as the sole basis for any drilling, 
#completion, production, or financial decision or any procedure involving any risk to the 
#safety of any drilling venture, drilling rig or its crew or any other third party.  The 
#Customer has full responsibility for all drilling, completion and production operation.  
#Halliburton makes no representations or warranties, either expressed or 
#implied, including, but not limited to, the implied warranties of merchantability or fitness 
#for a particular purpose, with respect to the services rendered.  In no event will 
#Halliburton be liable for failure to obtain any particular results or for 
#any damages, including, but not limited to, indirect, special or consequential damages, 
#resulting from the use of any information or interpretation provided by Halliburton.
#
~A           TIME           GTDEPTH  GTPQH  GTTQ  GTTN  GTET   GTTVD  
   08:13:58.315.09-Sep-2020 5533.01 6335.43 78.12 5.00   0.00 2629.43
   08:13:58.515.09-Sep-2020 5533.01 6337.22 78.12 5.00   0.20 2629.43
   08:13:58.715.09-Sep-2020 5533.01 6336.44 78.12 5.00   0.40 2629.43
   08:13:58.915.09-Sep-2020 5533.01 6337.20 78.12 5.00   0.60 2629.43
   08:13:59.115.09-Sep-2020 5533.01 6347.23 78.12 5.00   0.80 2629.43
   08:13:59.315.09-Sep-2020 5533.01 6332.77 78.12 5.00   1.00 2629.43
   08:13:59.515.09-Sep-2020 5533.01 6332.77 78.12 5.00   1.20 2629.43
   08:13:59.715.09-Sep-2020 5533.01 6340.42 78.12 5.00   1.40 2629.43
   08:13:59.915.09-Sep-2020 5533.01 6340.06 78.12 5.00   1.60 2629.43
   08:14:00.115.09-Sep-2020 5533.01 6340.49 78.12 5.00   1.80 2629.43
   08:14:00.316.09-Sep-2020 5533.01 6339.39 78.12 5.00   2.00 2629.43
   08:14:00.516.09-Sep-2020 5533.01 6339.39 78.12 5.00   2.20 2629.43
   08:14:00.716.09-Sep-2020 5533.01 6341.03 78.12 5.00   2.40 2629.43
   08:14:00.916.09-Sep-2020 5533.01 6341.33 78.12 5.00   2.60 2629.43
   08:14:01.116.09-Sep-2020 5533.01 6341.48 78.12 5.00   2.80 2629.43
   08:14:01.316.09-Sep-2020 5533.01 6341.74 78.12 5.00   3.00 2629.43
   08:14:01.516.09-Sep-2020 5533.01 6341.74 78.12 5.00   3.20 2629.43
   08:14:01.716.09-Sep-2020 5533.01 6341.21 78.12 5.00   3.40 2629.43
   08:14:01.916.09-Sep-2020 5533.01 6341.13 78.12 5.00   3.60 2629.43
   08:14:02.116.09-Sep-2020 5533.01 6340.86 78.12 5.00   3.80 2629.43
   08:14:02.316.09-Sep-2020 5533.01 6340.23 78.12 5.00   4.00 2629.43
   08:14:02.516.09-Sep-2020 5533.01 6339.22 78.12 5.00   4.20 2629.43
   08:14:02.716.09-Sep-2020 5533.01 6338.66 78.12 5.00   4.40 2629.43
   08:14:02.917.09-Sep-2020 5533.01 6343.76 78.12 5.00   4.60 2629.43
   08:14:03.117.09-Sep-2020 5533.01 6337.34 78.12 5.00   4.80 2629.43
   08:14:03.317.09-Sep-2020 5533.01 6339.71 78.12 5.00   5.00 2629.43
   08:14:03.517.09-Sep-2020 5533.01 6339.71 78.12 5.00   5.20 2629.43
   08:14:03.717.09-Sep-2020 5533.01 6338.60 78.12 5.00   5.40 2629.43
   08:14:03.917.09-Sep-2020 5533.01 6339.64 78.12 5.00   5.60 2629.43
   08:14:04.117.09-Sep-2020 5533.01 6339.63 78.12 5.00   5.80 2629.43
   08:14:04.317.09-Sep-2020 5533.01 6340.89 78.12 5.00   6.00 2629.43
   08:14:04.517.09-Sep-2020 5533.01 6340.89 78.12 5.00   6.20 2629.43
   08:14:04.717.09-Sep-2020 5533.01 6341.80 78.12 5.00   6.40 2629.43
   08:14:04.917.09-Sep-2020 5533.01 6342.99 78.12 5.00   6.60 2629.43
   08:14:05.117.09-Sep-2020 5533.01 6343.96 78.12 5.00   6.80 2629.43
   08:14:05.317.09-Sep-2020 5533.01 6345.36 78.12 5.00   7.00 2629.43
   08:14:05.518.09-Sep-2020 5533.01 6345.36 78.12 5.00   7.20 2629.43
   08:14:05.718.09-Sep-2020 5533.01 6346.90 78.12 5.00   7.40 2629.43
   08:14:05.918.09-Sep-2020 5533.01 6347.09 78.12 5.00   7.60 2629.43
   08:14:06.118.09-Sep-2020 5533.01 6347.61 78.12 5.00   7.80 2629.43
   08:14:06.318.09-Sep-2020 5533.01 6347.91 78.12 5.00   8.00 2629.43
   08:14:06.518.09-Sep-2020 5533.01 6354.25 78.12 5.00   8.20 2629.43
   08:14:06.718.09-Sep-2020 5533.01 6347.85 78.12 5.00   8.40 2629.43
   08:14:06.918.09-Sep-2020 5533.01 6350.24 78.12 5.00   8.60 2629.43
   08:14:07.118.09-Sep-2020 5533.01 6350.91 78.12 5.00   8.80 2629.43
   08:14:07.318.09-Sep-2020 5533.01 6349.42 78.12 5.00   9.00 2629.43
   08:14:07.518.09-Sep-2020 5533.01 6349.42 78.12 5.00   9.20 2629.43
   08:14:07.718.09-Sep-2020 5533.01 6357.60 78.12 5.00   9.40 2629.43
   08:14:07.919.09-Sep-2020 5533.01 6348.21 78.12 5.00   9.60 2629.43
   08:14:08.119.09-Sep-2020 5533.01 6350.89 78.12 5.00   9.80 2629.43
   08:14:08.319.09-Sep-2020 5533.01 6352.41 78.12 5.00  10.00 2629.43
   08:14:08.519.09-Sep-2020 5533.01 6352.41 78.12 5.00  10.20 2629.43
   08:14:08.719.09-Sep-2020 5533.01 6351.58 78.12 5.00  10.40 2629.43
   08:14:08.919.09-Sep-2020 5533.01 6361.18 78.12 5.00  10.60 2629.43
   08:14:09.119.09-Sep-2020 5533.01 6346.65 78.12 5.00  10.80 2629.43
   08:14:09.319.09-Sep-2020 5533.01 6351.02 78.11 5.00  11.00 2629.43
   08:14:09.519.09-Sep-2020 5533.01 6351.02 78.11 5.00  11.20 2629.43
   08:14:09.719.09-Sep-2020 5533.01 6353.61 78.11 5.00  11.40 2629.43
   08:14:09.919.09-Sep-2020 5533.01 6353.73 78.11 5.00  11.60 2629.43
   08:14:10.119.09-Sep-2020 5533.01 6363.55 78.11 5.00  11.80 2629.43
   08:14:10.319.09-Sep-2020 5533.01 6349.00 78.11 5.00  12.00 2629.43
   08:14:10.520.09-Sep-2020 5533.01 6353.76 78.11 5.00  12.20 2629.43
   08:14:10.720.09-Sep-2020 5533.01 6356.56 78.11 5.00  12.40 2629.43
   08:14:10.920.09-Sep-2020 5533.01 6362.01 78.11 5.00  12.60 2629.43
   08:14:11.120.09-Sep-2020 5533.01 6357.38 78.11 5.00  12.81 2629.43
   08:14:11.320.09-Sep-2020 5533.01 6354.30 78.11 5.00  13.01 2629.43
   08:14:11.520.09-Sep-2020 5533.01 6354.30 78.11 5.00  13.21 2629.43
   08:14:11.720.09-Sep-2020 5533.01 6358.36 78.11 5.00  13.41 2629.43
   08:14:11.920.09-Sep-2020 5533.01 6357.14 78.11 5.00  13.61 2629.43
   08:14:12.120.09-Sep-2020 5533.01 6363.28 78.11 5.00  13.81 2629.43
   08:14:12.320.09-Sep-2020 5533.01 6358.85 78.11 5.00  14.01 2629.43
   08:14:12.520.09-Sep-2020 5533.01 6358.85 78.11 5.00  14.21 2629.43
   08:14:12.720.09-Sep-2020 5533.01 6360.98 78.11 5.00  14.41 2629.43
   08:14:12.920.09-Sep-2020 5533.01 6360.33 78.11 5.00  14.61 2629.43
   08:14:13.121.09-Sep-2020 5533.01 6359.40 78.11 5.00  14.81 2629.43
   08:14:13.321.09-Sep-2020 5533.01 6359.14 78.11 5.00  15.01 2629.43
   08:14:13.521.09-Sep-2020 5533.01 6359.14 78.11 5.00  15.21 2629.43
   08:14:13.721.09-Sep-2020 5533.01 6359.95 78.11 5.00  15.41 2629.43
   08:14:13.921.09-Sep-2020 5533.01 6359.44 78.11 5.00  15.61 2629.43
   08:14:14.121.09-Sep-2020 5533.01 6360.11 78.11 5.00  15.81 2629.43
   08:14:14.321.09-Sep-2020 5533.01 6361.03 78.11 5.00  16.01 2629.43
   08:14:14.521.09-Sep-2020 5533.01 6361.57 78.11 5.00  16.21 2629.43
   08:14:14.721.09-Sep-2020 5533.01 6362.15 78.11 5.00  16.41 2629.43
   08:14:14.921.09-Sep-2020 5533.01 6362.66 78.11 5.00  16.61 2629.43
   08:14:15.121.09-Sep-2020 5533.01 6362.93 78.11 5.00  16.81 2629.43
   08:14:15.321.09-Sep-2020 5533.01 6363.28 78.11 5.00  17.01 2629.43
   08:14:15.522.09-Sep-2020 5533.01 6363.28 78.11 5.00  17.21 2629.43
   08:14:15.722.09-Sep-2020 5533.01 6363.98 78.11 5.00  17.41 2629.43
   08:14:15.922.09-Sep-2020 5533.01 6372.38 78.11 5.00  17.61 2629.43
   08:14:16.122.09-Sep-2020 5533.01 6361.60 78.11 5.00  17.81 2629.43
   08:14:16.322.09-Sep-2020 5533.01 6365.64 78.11 5.00  18.01 2629.43
   08:14:16.522.09-Sep-2020 5533.01 6365.64 78.11 5.00  18.21 2629.43
   08:14:16.722.09-Sep-2020 5533.01 6366.83 78.11 5.00  18.41 2629.43
   08:14:16.922.09-Sep-2020 5533.01 6367.35 78.11 5.00  18.61 2629.43
   08:14:17.122.09-Sep-2020 5533.01 6366.13 78.11 5.00  18.81 2629.43
   08:14:17.322.09-Sep-2020 5533.01 6367.43 78.11 5.00  19.01 2629.43
   08:14:17.522.09-Sep-2020 5533.01 6367.43 78.11 5.00  19.21 2629.43
   08:14:17.722.09-Sep-2020 5533.01 6367.73 78.11 5.00  19.41 2629.43
   08:14:17.922.09-Sep-2020 5533.01 6368.57 78.11 5.00  19.61 2629.43
   08:14:18.123.09-Sep-2020 5533.01 6368.89 78.11 5.00  19.81 2629.43
   08:14:18.323.09-Sep-2020 5533.01 6368.72 78.11 5.00  20.01 2629.43
   08:14:18.523.09-Sep-2020 5533.01 6368.70 78.11 5.00  20.21 2629.43
   08:14:18.723.09-Sep-2020 5533.01 6368.87 78.11 5.00  20.41 2629.43
   08:14:18.923.09-Sep-2020 5533.01 6369.29 78.11 5.00  20.61 2629.43
   08:14:19.123.09-Sep-2020 5533.01 6370.16 78.11 5.00  20.81 2629.43
   08:14:19.323.09-Sep-2020 5533.01 6378.53 78.11 5.00  21.01 2629.43
   08:14:19.523.09-Sep-2020 5533.01 6378.53 78.11 5.00  21.21 2629.43
   08:14:19.723.09-Sep-2020 5533.01 6370.64 78.11 5.00  21.41 2629.43
   08:14:19.923.09-Sep-2020 5533.01 6371.79 78.11 5.00  21.61 2629.43
   08:14:20.123.09-Sep-2020 5533.01 6371.47 78.11 5.00  21.81 2629.43
   08:14:20.323.09-Sep-2020 5533.01 6372.19 78.11 5.00  22.01 2629.43
   08:14:20.523.09-Sep-2020 5533.01 6372.19 78.11 5.00  22.21 2629.43
   08:14:20.724.09-Sep-2020 5533.01 6371.49 78.11 5.00  22.41 2629.43
   08:14:20.924.09-Sep-2020 5533.01 6373.03 78.11 5.00  22.61 2629.43
   08:14:21.124.09-Sep-2020 5533.01 6373.78 78.11 5.00  22.81 2629.43
