~Version Information
 VERS.                  2.0:   CWLS log ASCII Standard -VERSION 2.0
 WRAP.                   NO:   One line per depth step
~Well Information Block
#MNEM.UNIT     VALUE/NAME     DESCRIPTION
#---------     -----------    ---------------------------
 STRT.S             18:49:58 09-Sep-20: START TIME 18:49:58 09-Sep-20
 STOP.S             18:58:03 09-Sep-20: STOP TIME  18:58:03 09-Sep-20
 STEP.S                   0.00: STEP TIME
 NULL.                 -999.25: NULL VALUE
 MDS .        Operator Entered:  MAG DATA SOURCE
 PDAT.          Mean Sea Level:  PERMANENT DATUM
 DCON.         Sperry Drilling:  DIRECTNL CONTR
 RIG .              West Azeri:  RIG NAME
 WELL.           C40 (Slot 20):  WELL NAME
 SRVC.     Turan Drilling Engineering:  CONTRACTOR
 FLD .                     ACG:  FIELD NAME
 CTRY.              Azerbaijan:  COUNTRY NAME
 PROV.                    Baku:  PROVINCE
 STAT.                    Baku:  STATE NAME
 REGN.                   EESSA:  REGION
 BASE.              Azerbaijan:  LOGGING EQUIPMENT BASE LOCATION
 COMP.     BP Exploration (Caspian Sea) Ltd:  COMPANY
 WTYP.                Deviated:  WELL TYPE
 SON .        AZ-XX-0906344804:  JOB NUMBER
 FTOP.          Formation Tops:  FORM TOPS DESC
 ILTD.               Lithology:  INTERP LTH DESC
 SVYD.                  Survey:  SURVEY DESC
 DMOD.             Drill Model:  DRILL MOD DESC
 HPTY.       Minimum Curvature:  HOLE POS TYPE
 NREF.                    Grid:  NORTH REFERENCE
 SPUD.               01-Jan-20:  SPUD DATE
 DATE.      00.59.44 15-Sep-20:  END TIME
 STIM.      12.00.00 12-Jun-20:  START TIME
 DMF .             Drill Floor:  DRILL MEAS FROM
 DFST.                        :  DIST FSL TEXT
 DFWT.                        :  DIST FWL TEXT
 API .                        :  API NUMBER
 CNTY.                        :  COUNTY
 UWI .                        :  UNIQUE WELL IDENTIFIER
 LOC .                        :  LOCATION
 LMF .             Drill Floor:  LOG MEASURED FROM
 VSNS.m                   2.88:  VERT SEC N/S
 VSEW.m                  -3.84:  VERT SEC E/W
 AGAP.m                  43.42:  AIR GAP
 APD .m                  43.42:  DEPTH ABOVE PD
 WDMS.m                 118.27:  WD ELEV
 EGL .m                   0.00:  GROUND ELEVATION
 EPD .m                   0.00:  ELEVATION
 AZTC.deg                 6.23:  AZM TOTAL CORR
 GRDC.deg                 0.20:  GRID CORRECTION
 MDEC.deg                 6.43:  MAGNETIC DECL
 MDIP.deg                59.49:  MAGNETIC DIP
 MFLD.nT              50277.00:  MAGNETIC FIELD
 GVFD.g                   1.00:  GRAVITY FIELD
 VSDR.deg               173.20:  VERT SEC DIRECT
 TDD .m                5790.01:  TOTAL DEPTH (DRILLER)
 SDEP.m                5231.01:  START DEPTH
 DFSL.m                   0.00:  DISTANCE FSL
 DFWL.m                   0.00:  DISTANCE FWL
 UTMY.m             4435808.83:  UTM Y
 UTMX.m              526266.40:  UTM X
 WHEW.m                  -3.84:  WELL HEAD E/W
 WHNS.m                   2.88:  WELL HEAD N/S
 LONG.deg                51.31:  LONGITUDE
 LATI.deg                40.06:  LATITUDE
 TVDS.m                  43.42:  TVDSS CORRECTN
 DEP .m                 430.08:  DEPTH
 EKB .m                  43.42:  KB ELEVATION
 EDF .m                  43.42:  DF ELEVATION
 TDL .m                 559.00:  TOTAL DEPTH (LOGGER)
 MAGU.                 1849381:  MAGUTM CHECKSUM
 VSC .                       0:  VS TO CLOSURE
~Parameter Information Block
#MNEM.UNIT       Value        Description
#---------     -----------    ---------------------------
 AV  .mps                 4.87:  Ann Velocity 
 AVMX.mps                 7.08:  Max Ann Veloc 
 AZIF.deg               108.87:  Azm, Final 
 BHAT.                  Rotary:  BHA Type 
 BROT.°/30m               0.35:  Build Rotating 
 BS  .in                  8.50:  Bit Size 
 BSZ .in                  8.50:  Bit Size 
 BTPL.psig              360.00:  Bit Press Loss 
 CABU.                     Yes:  Customer Abuse 
 COMM.                     „T:  Run Comments 1 
 TCS .hr                106.24:  Time Ciculation Ended 
 CV  .mps                 1.77:  Crit Velocity 
 CVMX.mps                 2.03:  Max Crit Veloc 
 DD1 .         Aykhan Agagulov:  Direct Drillr 1 
 DD2 .            Nonso Okofor:  Direct Drillr 2 
 DDSV.               Geo-Pilot:  DD Service 
 DEFF.%                  98.00:  % Det Eff 
 DLRX.°/30m               0.50:  Dogleg Rot Max 
 DLSO.°/30m               0.40:  Dogleg Oriented 
 DLSX.°/30m               0.94:  Dogleg Str Max 
 DRET.      20.30.00 08-Sep-20:  Drill End Time 
 DRST.      22.15.00 06-Sep-20:  Drill Start Tim 
 DTIM.hr                 31.31:  Time Drilling 
 EDEP.m                5790.01:  End Depth 
 ENG1.           Amrah Tahirov:  Engineer 1 
 ENG2.         Dair Mahammadov:  Engineer 2 
 ENG3.           Emil Huseynov:  Engineer 3 
 ETIM.      04.01.04 12-Sep-20:  End Time 
 FLOI.gpm               450.00:  Flow In 
 FLON.gpm               450.00:  Flow In Min 
 FLOS.cptm                2.00:  Fluid Loss 
 FLOX.gpm               450.00:  Flow In Max 
 FTRO.       Formation Presure:  FTWD Run Obj 
 HFLO.                      No:  High Flow 
 HPRE.                      No:  High Pressure 
 HTEM.                      No:  High Temp 
 HYDO.m                   1.80:  Hydro Offset 
 IFIN.deg                72.03:  Inc, Final 
 IMAX.deg                73.72:  Inc Max 
 IMIN.deg                70.94:  Inc Min 
 IMND.m                5508.52:  Inc Min Depth 
 IMXD.m                5253.60:  Inc Max Depth 
 JARR.                      No:  Jarring 
 LETM.      20.30.00 08-Sep-20:  Log End Time 
 LOST.hr                     0:  Lost Rig Time 
 LSTM.      22.15.00 06-Sep-20:  Log Start Time 
 MDCL.ppm             36000.00:  Mud Chlorides 
 MDES.     Inversion Oil/Synthetic:  Mud Desc 
 DFD .sg                  1.44:  Mud Density 
 MDMN.sg                  1.44:  Dens Mud Min 
 MDMX.sg                  1.57:  Dens Mud Max 
 MOIL.                      70:  Run Mud Oil % 
 MOWR.                   70:30:  Run Mud OWR 
 MSND.                       0:  Run Mud Sand % 
 MSOL.                      21:  Run Mud Solids% 
 DFV .spqt               68.00:  Mud Viscosity 
 MWOD.in                  6.75:  MWD Tool OD 
 MWSI.                     Yes:  Serv Intrp, MWD 
 OTIM.hr                174.84:  Time Operating 
 PCON.           Look Like New:  Pad Condition 
 PMAX.psia            10616.93:  Press Op, Max 
 PV  .cP                 50.00:  Mud PV 
 RUN .                     700:  Run Number 
 ROPA.m/hr               14.24:  ROP Avg 
 ROPN.m/hr               10.00:  ROP Min 
 ROPX.m/hr               32.00:  ROP Max 
 RPMA.rpm               120.90:  RPM Surface Avg 
 RPMN.rpm               120.00:  RPM Surface Min 
 RPMX.rpm               140.00:  RPM Surface Max 
 RRUN.                    0700:  Rig Run Number 
 RTIM.hr                  3.20:  Time Reaming 
 SAZI.deg               109.99:  Azm, Start 
 SDEP.m                5231.01:  Start Depth 
 SIDD.                      No:  Serv Intrp, DD 
 SINC.deg                73.72:  Inc, Start 
 SPPA.psig             3051.00:  SPP Avg 
 SPPN.psig             2950.00:  SPP Min 
 SPPX.psig             3250.00:  SPP Max 
 STIM.      08.00.00 05-Sep-20:  Start Time 
 SVCS.                 DD, MWD:  Services 
 SVER.                    9.20:  Sperry Version 
 TDAT.m                 559.00:  Tot Depth Attmp 
 TDDF.                      No:  Trip for DD 
 TDLG.m                 559.00:  Tot Depth Loggd 
 TFF .                      No:  Trip for Fail 
 TQAA.f-kp               26.49:  Torque Abs Avg 
 TQAN.f-kp               25.00:  Torque Abs Min 
 TQAX.f-kp               27.00:  Torque Abs Max 
 TRRT.°/30m               1.50:  Turn Rotating 
 MRT .                    HCIM:  Maximum Recorded Temperature 
 TTMX.degC               90.20:  Max Tool Temp 
 VS01.                90542671:  Virtual Str1 SN 
 VS02.                90545185:  Virtual Str2 SN 
 VS03.                90602015:  Virtual Str3 SN 
 VS04.                90515230:  Virtual Str4 SN 
 WBMN.klb                 5.00:  WOB Min 
 WOBA.klb                14.79:  WOB Avg 
 WOBX.klb                20.00:  WOB Max 
 YP  .lhf2               29.00:  Yield Point 
~Curve Information Block
#MNEM.UNIT                 API CODE     Curve Description
#---------               -----------    ---------------------------
 TIME.HHMMSS            00 000 000 000:  GT Time & Date
 GTDEPTH.m              00 000 000 000:  GT Depth
 GTPQH.psia             00 000 000 000:  GT HR Quartz Pressure
 GTTQ.degC              00 000 000 000:  GT Quartz Temperature
 GTTN.NONE              00 000 000 000:  GT Test Number
 GTET.sec               00 000 000 000:  GT Elapsed Test Time
 GTTVD.m                00 000 000 000:  GT True Vertical Depth
#Other Information
#
#WARRANTY: Halliburton will use its best efforts to furnish customers with 
#accurate information and interpretations that are part of, and incident to, the services 
#provided.  However, Halliburton cannot and does not warrant the accuracy 
#or correctness of such information and interpretations.  Under no circumstances should any 
#such information or interpretation be relied upon as the sole basis for any drilling, 
#completion, production, or financial decision or any procedure involving any risk to the 
#safety of any drilling venture, drilling rig or its crew or any other third party.  The 
#Customer has full responsibility for all drilling, completion and production operation.  
#Halliburton makes no representations or warranties, either expressed or 
#implied, including, but not limited to, the implied warranties of merchantability or fitness 
#for a particular purpose, with respect to the services rendered.  In no event will 
#Halliburton be liable for failure to obtain any particular results or for 
#any damages, including, but not limited to, indirect, special or consequential damages, 
#resulting from the use of any information or interpretation provided by Halliburton.
#
~A           TIME           GTDEPTH  GTPQH  GTTQ  GTTN   GTET   GTTVD  
# ...
   18:54:06.905.09-Sep-2020 5280.51  512.84 74.29 22.00 248.41 2550.44
   18:54:07.105.09-Sep-2020 5280.51  512.47 74.29 22.00 248.60 2550.44
   18:54:07.305.09-Sep-2020 5280.51  513.12 74.29 22.00 248.80 2550.44
   18:54:07.504.09-Sep-2020 5280.51  513.12 74.29 22.00 249.00 2550.44
   18:54:07.704.09-Sep-2020 5280.51  513.54 74.29 22.00 249.20 2550.44
   18:54:07.904.09-Sep-2020 5280.51  513.72 74.29 22.00 249.40 2550.44
   18:54:08.104.09-Sep-2020 5280.51  514.09 74.29 22.00 249.60 2550.44
   18:54:08.304.09-Sep-2020 5280.51  513.47 74.29 22.00 249.80 2550.44
   18:54:08.504.09-Sep-2020 5280.51  513.47 74.29 22.00 250.00 2550.44
   18:54:08.704.09-Sep-2020 5280.51  514.53 74.29 22.00 250.20 2550.44
   18:54:08.903.09-Sep-2020 5280.51  514.67 74.29 22.00 250.40 2550.44
   18:54:09.103.09-Sep-2020 5280.51  514.95 74.29 22.00 250.60 2550.44
   18:54:09.303.09-Sep-2020 5280.51  515.24 74.29 22.00 250.80 2550.44
   18:54:09.503.09-Sep-2020 5280.51  515.24 74.29 22.00 251.00 2550.44
   18:54:09.703.09-Sep-2020 5280.51  515.55 74.29 22.00 251.20 2550.44
   18:54:09.903.09-Sep-2020 5280.51  515.75 74.29 22.00 251.40 2550.44
   18:54:10.102.09-Sep-2020 5280.51  515.92 74.29 22.00 251.60 2550.44
   18:54:10.302.09-Sep-2020 5280.51  516.17 74.29 22.00 251.80 2550.44
   18:54:10.502.09-Sep-2020 5280.51  516.17 74.29 22.00 252.00 2550.44
   18:54:10.702.09-Sep-2020 5280.51  516.61 74.29 22.00 252.20 2550.44
   18:54:10.902.09-Sep-2020 5280.51  516.81 74.29 22.00 252.40 2550.44
   18:54:11.102.09-Sep-2020 5280.51  516.99 74.29 22.00 252.60 2550.44
   18:54:11.301.09-Sep-2020 5280.51  517.20 74.29 22.00 252.80 2550.44
   18:54:11.501.09-Sep-2020 5280.51  517.20 74.29 22.00 253.00 2550.44
   18:54:11.701.09-Sep-2020 5280.51  517.61 74.29 22.00 253.20 2550.44
   18:54:11.901.09-Sep-2020 5280.51  517.07 74.29 22.00 253.40 2550.44
   18:54:12.101.09-Sep-2020 5280.51  517.94 74.29 22.00 253.60 2550.44
   18:54:12.301.09-Sep-2020 5280.51  518.11 74.29 22.00 253.80 2550.44
   18:54:12.501.09-Sep-2020 5280.51  518.28 74.29 22.00 254.00 2550.44
   18:54:12.700.09-Sep-2020 5280.51  518.56 74.29 22.00 254.20 2550.44
   18:54:12.900.09-Sep-2020 5280.51  518.81 74.29 22.00 254.40 2550.44
   18:54:13.100.09-Sep-2020 5280.51  518.93 74.29 22.00 254.60 2550.44
   18:54:13.300.09-Sep-2020 5280.51  519.10 74.29 22.00 254.80 2550.44
   18:54:13.500.09-Sep-2020 5280.51  519.10 74.29 22.00 255.00 2550.44
   18:54:13.700.09-Sep-2020 5280.51  519.56 74.29 22.00 255.20 2550.44
   18:54:13.899.09-Sep-2020 5280.51  519.80 74.29 22.00 255.40 2550.44
   18:54:14.099.09-Sep-2020 5280.51  519.97 74.29 22.00 255.60 2550.44
   18:54:14.299.09-Sep-2020 5280.51  520.13 74.29 22.00 255.80 2550.44
   18:54:14.499.09-Sep-2020 5280.51  520.13 74.29 22.00 256.00 2550.44
   18:54:14.699.09-Sep-2020 5280.51  520.54 74.29 22.00 256.20 2550.44
   18:54:14.899.09-Sep-2020 5280.51  520.75 74.29 22.00 256.40 2550.44
   18:54:15.099.09-Sep-2020 5280.51  519.96 74.29 22.00 256.60 2550.44
   18:54:15.298.09-Sep-2020 5280.51  521.39 74.29 22.00 256.80 2550.44
   18:54:15.498.09-Sep-2020 5280.51  521.39 74.29 22.00 257.00 2550.44
   18:54:15.698.09-Sep-2020 5280.51  521.41 74.29 22.00 257.20 2550.44
   18:54:15.898.09-Sep-2020 5280.51  521.51 74.29 22.00 257.40 2550.44
   18:54:16.098.09-Sep-2020 5280.51  521.96 74.29 22.00 257.60 2550.44
   18:54:16.298.09-Sep-2020 5280.51  521.32 74.29 22.00 257.80 2550.44
   18:54:16.497.09-Sep-2020 5280.51  522.23 74.29 22.00 258.00 2550.44
   18:54:16.697.09-Sep-2020 5280.51  522.38 74.29 22.00 258.20 2550.44
   18:54:16.897.09-Sep-2020 5280.51  522.52 74.29 22.00 258.40 2550.44
   18:54:17.097.09-Sep-2020 5280.51  522.75 74.29 22.00 258.60 2550.44
   18:54:17.297.09-Sep-2020 5280.51  522.99 74.29 22.00 258.80 2550.44
   18:54:17.497.09-Sep-2020 5280.51  522.99 74.29 22.00 259.00 2550.44
   18:54:17.696.09-Sep-2020 5280.51  523.37 74.29 22.00 259.20 2550.44
   18:54:17.896.09-Sep-2020 5280.51  522.91 74.29 22.00 259.40 2550.44
   18:54:18.096.09-Sep-2020 5280.51  523.63 74.29 22.00 259.60 2550.44
   18:54:18.296.09-Sep-2020 5280.51  523.84 74.29 22.00 259.80 2550.44
   18:54:18.496.09-Sep-2020 5280.51  523.84 74.29 22.00 260.00 2550.44
   18:54:18.696.09-Sep-2020 5280.51  524.38 74.29 22.00 260.20 2550.44
   18:54:18.896.09-Sep-2020 5280.51  524.47 74.29 22.00 260.40 2550.44
   18:54:19.095.09-Sep-2020 5280.51  524.71 74.29 22.00 260.60 2550.44
   18:54:19.295.09-Sep-2020 5280.51  523.88 74.29 22.00 260.80 2550.44
   18:54:19.495.09-Sep-2020 5280.51  525.35 74.29 22.00 261.00 2550.44
   18:54:19.695.09-Sep-2020 5280.51  525.17 74.29 22.00 261.20 2550.44
   18:54:19.895.09-Sep-2020 5280.51  525.41 74.29 22.00 261.39 2550.44
   18:54:20.095.09-Sep-2020 5280.51  525.48 74.29 22.00 261.59 2550.44
   18:54:20.294.09-Sep-2020 5280.51  525.91 74.29 22.00 261.79 2550.44
   18:54:20.494.09-Sep-2020 5280.51  525.99 74.29 22.00 261.99 2550.44
   18:54:20.694.09-Sep-2020 5280.51  525.44 74.29 22.00 262.19 2550.44
   18:54:20.894.09-Sep-2020 5280.51  526.19 74.29 22.00 262.39 2550.44
   18:54:21.094.09-Sep-2020 5280.51  526.41 74.29 22.00 262.59 2550.44
   18:54:21.294.09-Sep-2020 5280.51  526.62 74.29 22.00 262.79 2550.44
   18:54:21.493.09-Sep-2020 5280.51  526.62 74.29 22.00 262.99 2550.44
   18:54:21.693.09-Sep-2020 5280.51  526.97 74.29 22.00 263.19 2550.44
   18:54:21.893.09-Sep-2020 5280.51  527.18 74.29 22.00 263.39 2550.44
   18:54:22.093.09-Sep-2020 5280.51  527.37 74.29 22.00 263.59 2550.44
   18:54:22.293.09-Sep-2020 5280.51  527.61 74.29 22.00 263.79 2550.44
   18:54:22.493.09-Sep-2020 5280.51  527.61 74.29 22.00 263.99 2550.44
   18:54:22.693.09-Sep-2020 5280.51  528.02 74.29 22.00 264.19 2550.44
   18:54:22.892.09-Sep-2020 5280.51  528.19 74.29 22.00 264.39 2550.44
   18:54:23.092.09-Sep-2020 5280.51  528.39 74.29 22.00 264.59 2550.44
   18:54:23.292.09-Sep-2020 5280.51  528.58 74.29 22.00 264.79 2550.44
   18:54:23.492.09-Sep-2020 5280.51  528.58 74.29 22.00 264.99 2550.44
   18:54:23.692.09-Sep-2020 5280.51  528.94 74.29 22.00 265.19 2550.44
   18:54:23.892.09-Sep-2020 5280.51  529.13 74.29 22.00 265.39 2550.44
   18:54:24.091.09-Sep-2020 5280.51  529.30 74.29 22.00 265.59 2550.44
   18:54:24.291.09-Sep-2020 5280.51  528.77 74.29 22.00 265.79 2550.44
   18:54:24.491.09-Sep-2020 5280.51  529.70 74.29 22.00 265.99 2550.44
   18:54:24.691.09-Sep-2020 5280.51  529.87 74.29 22.00 266.19 2550.44
   18:54:24.891.09-Sep-2020 5280.51  529.97 74.29 22.00 266.39 2550.44
   18:54:25.091.09-Sep-2020 5280.51  530.18 74.29 22.00 266.59 2550.44
   18:54:25.291.09-Sep-2020 5280.51  530.43 74.29 22.00 266.79 2550.44
   18:54:25.490.09-Sep-2020 5280.51  530.43 74.29 22.00 266.99 2550.44
   18:54:25.690.09-Sep-2020 5280.51  530.81 74.29 22.00 267.19 2550.44
   18:54:25.890.09-Sep-2020 5280.51  531.04 74.29 22.00 267.39 2550.44
   18:54:26.090.09-Sep-2020 5280.51  531.16 74.29 22.00 267.59 2550.44
   18:54:26.290.09-Sep-2020 5280.51  531.34 74.29 22.00 267.79 2550.44
   18:54:26.490.09-Sep-2020 5280.51  531.34 74.29 22.00 267.99 2550.44
   18:54:26.689.09-Sep-2020 5280.51  531.77 74.29 22.00 268.19 2550.44
   18:54:26.889.09-Sep-2020 5280.51  531.96 74.29 22.00 268.39 2550.44
   18:54:27.089.09-Sep-2020 5280.51  532.16 74.30 22.00 268.59 2550.44
   18:54:27.289.09-Sep-2020 5280.51  532.36 74.29 22.00 268.79 2550.44
   18:54:27.489.09-Sep-2020 5280.51  532.36 74.29 22.00 268.99 2550.44
   18:54:27.689.09-Sep-2020 5280.51  532.68 74.29 22.00 269.19 2550.44
   18:54:27.888.09-Sep-2020 5280.51  532.82 74.29 22.00 269.39 2550.44
   18:54:28.088.09-Sep-2020 5280.51  532.98 74.29 22.00 269.59 2550.44
   18:54:28.288.09-Sep-2020 5280.51  533.24 74.29 22.00 269.79 2550.44
   18:54:28.488.09-Sep-2020 5280.51  533.24 74.29 22.00 269.99 2550.44
   18:54:28.688.09-Sep-2020 5280.51  532.99 74.29 22.00 270.19 2550.44
   18:54:28.888.09-Sep-2020 5280.51  533.71 74.30 22.00 270.39 2550.44
   18:54:29.088.09-Sep-2020 5280.51  533.95 74.29 22.00 270.59 2550.44
   18:54:29.287.09-Sep-2020 5280.51  534.02 74.30 22.00 270.79 2550.44
