~Version Information
 VERS.                  2.0:   CWLS log ASCII Standard -VERSION 2.0
 WRAP.                   NO:   One line per depth step
~Well Information Block
#MNEM.UNIT     VALUE/NAME     DESCRIPTION
#---------     -----------    ---------------------------
 STRT.S             08:34:18 09-Sep-20: START TIME 08:34:18 09-Sep-20
 STOP.S             08:41:20 09-Sep-20: STOP TIME  08:41:20 09-Sep-20
 STEP.S                   0.00: STEP TIME
 NULL.                 -999.25: NULL VALUE
 MDS .        Operator Entered:  MAG DATA SOURCE
 PDAT.          Mean Sea Level:  PERMANENT DATUM
 DCON.         Sperry Drilling:  DIRECTNL CONTR
 RIG .              West Azeri:  RIG NAME
 WELL.           C40 (Slot 20):  WELL NAME
 SRVC.     Turan Drilling Engineering:  CONTRACTOR
 FLD .                     ACG:  FIELD NAME
 CTRY.              Azerbaijan:  COUNTRY NAME
 PROV.                    Baku:  PROVINCE
 STAT.                    Baku:  STATE NAME
 REGN.                   EESSA:  REGION
 BASE.              Azerbaijan:  LOGGING EQUIPMENT BASE LOCATION
 COMP.     BP Exploration (Caspian Sea) Ltd:  COMPANY
 WTYP.                Deviated:  WELL TYPE
 SON .        AZ-XX-0906344804:  JOB NUMBER
 FTOP.          Formation Tops:  FORM TOPS DESC
 ILTD.               Lithology:  INTERP LTH DESC
 SVYD.                  Survey:  SURVEY DESC
 DMOD.             Drill Model:  DRILL MOD DESC
 HPTY.       Minimum Curvature:  HOLE POS TYPE
 NREF.                    Grid:  NORTH REFERENCE
 SPUD.               01-Jan-20:  SPUD DATE
 DATE.      00.59.44 15-Sep-20:  END TIME
 STIM.      12.00.00 12-Jun-20:  START TIME
 DMF .             Drill Floor:  DRILL MEAS FROM
 DFST.                        :  DIST FSL TEXT
 DFWT.                        :  DIST FWL TEXT
 API .                        :  API NUMBER
 CNTY.                        :  COUNTY
 UWI .                        :  UNIQUE WELL IDENTIFIER
 LOC .                        :  LOCATION
 LMF .             Drill Floor:  LOG MEASURED FROM
 VSNS.m                   2.88:  VERT SEC N/S
 VSEW.m                  -3.84:  VERT SEC E/W
 AGAP.m                  43.42:  AIR GAP
 APD .m                  43.42:  DEPTH ABOVE PD
 WDMS.m                 118.27:  WD ELEV
 EGL .m                   0.00:  GROUND ELEVATION
 EPD .m                   0.00:  ELEVATION
 AZTC.deg                 6.23:  AZM TOTAL CORR
 GRDC.deg                 0.20:  GRID CORRECTION
 MDEC.deg                 6.43:  MAGNETIC DECL
 MDIP.deg                59.49:  MAGNETIC DIP
 MFLD.nT              50277.00:  MAGNETIC FIELD
 GVFD.g                   1.00:  GRAVITY FIELD
 VSDR.deg               173.20:  VERT SEC DIRECT
 TDD .m                5790.01:  TOTAL DEPTH (DRILLER)
 SDEP.m                5231.01:  START DEPTH
 DFSL.m                   0.00:  DISTANCE FSL
 DFWL.m                   0.00:  DISTANCE FWL
 UTMY.m             4435808.83:  UTM Y
 UTMX.m              526266.40:  UTM X
 WHEW.m                  -3.84:  WELL HEAD E/W
 WHNS.m                   2.88:  WELL HEAD N/S
 LONG.deg                51.31:  LONGITUDE
 LATI.deg                40.06:  LATITUDE
 TVDS.m                  43.42:  TVDSS CORRECTN
 DEP .m                 430.08:  DEPTH
 EKB .m                  43.42:  KB ELEVATION
 EDF .m                  43.42:  DF ELEVATION
 TDL .m                 559.00:  TOTAL DEPTH (LOGGER)
 MAGU.                 1849381:  MAGUTM CHECKSUM
 VSC .                       0:  VS TO CLOSURE
~Parameter Information Block
#MNEM.UNIT       Value        Description
#---------     -----------    ---------------------------
 AV  .mps                 4.87:  Ann Velocity 
 AVMX.mps                 7.08:  Max Ann Veloc 
 AZIF.deg               108.87:  Azm, Final 
 BHAT.                  Rotary:  BHA Type 
 BROT.°/30m               0.35:  Build Rotating 
 BS  .in                  8.50:  Bit Size 
 BSZ .in                  8.50:  Bit Size 
 BTPL.psig              360.00:  Bit Press Loss 
 CABU.                     Yes:  Customer Abuse 
 COMM.                     \¸P:  Run Comments 1 
 TCS .hr                106.24:  Time Ciculation Ended 
 CV  .mps                 1.77:  Crit Velocity 
 CVMX.mps                 2.03:  Max Crit Veloc 
 DD1 .         Aykhan Agagulov:  Direct Drillr 1 
 DD2 .            Nonso Okofor:  Direct Drillr 2 
 DDSV.               Geo-Pilot:  DD Service 
 DEFF.%                  98.00:  % Det Eff 
 DLRX.°/30m               0.50:  Dogleg Rot Max 
 DLSO.°/30m               0.40:  Dogleg Oriented 
 DLSX.°/30m               0.94:  Dogleg Str Max 
 DRET.      20.30.00 08-Sep-20:  Drill End Time 
 DRST.      22.15.00 06-Sep-20:  Drill Start Tim 
 DTIM.hr                 31.31:  Time Drilling 
 EDEP.m                5790.01:  End Depth 
 ENG1.           Amrah Tahirov:  Engineer 1 
 ENG2.         Dair Mahammadov:  Engineer 2 
 ENG3.           Emil Huseynov:  Engineer 3 
 ETIM.      04.01.04 12-Sep-20:  End Time 
 FLOI.gpm               450.00:  Flow In 
 FLON.gpm               450.00:  Flow In Min 
 FLOS.cptm                2.00:  Fluid Loss 
 FLOX.gpm               450.00:  Flow In Max 
 FTRO.       Formation Presure:  FTWD Run Obj 
 HFLO.                      No:  High Flow 
 HPRE.                      No:  High Pressure 
 HTEM.                      No:  High Temp 
 HYDO.m                   1.80:  Hydro Offset 
 IFIN.deg                72.03:  Inc, Final 
 IMAX.deg                73.72:  Inc Max 
 IMIN.deg                70.94:  Inc Min 
 IMND.m                5508.52:  Inc Min Depth 
 IMXD.m                5253.60:  Inc Max Depth 
 JARR.                      No:  Jarring 
 LETM.      20.30.00 08-Sep-20:  Log End Time 
 LOST.hr                     0:  Lost Rig Time 
 LSTM.      22.15.00 06-Sep-20:  Log Start Time 
 MDCL.ppm             36000.00:  Mud Chlorides 
 MDES.     Inversion Oil/Synthetic:  Mud Desc 
 DFD .sg                  1.44:  Mud Density 
 MDMN.sg                  1.44:  Dens Mud Min 
 MDMX.sg                  1.57:  Dens Mud Max 
 MOIL.                      70:  Run Mud Oil % 
 MOWR.                   70:30:  Run Mud OWR 
 MSND.                       0:  Run Mud Sand % 
 MSOL.                      21:  Run Mud Solids% 
 DFV .spqt               68.00:  Mud Viscosity 
 MWOD.in                  6.75:  MWD Tool OD 
 MWSI.                     Yes:  Serv Intrp, MWD 
 OTIM.hr                174.84:  Time Operating 
 PCON.           Look Like New:  Pad Condition 
 PMAX.psia            10616.93:  Press Op, Max 
 PV  .cP                 50.00:  Mud PV 
 RUN .                     700:  Run Number 
 ROPA.m/hr               14.24:  ROP Avg 
 ROPN.m/hr               10.00:  ROP Min 
 ROPX.m/hr               32.00:  ROP Max 
 RPMA.rpm               120.90:  RPM Surface Avg 
 RPMN.rpm               120.00:  RPM Surface Min 
 RPMX.rpm               140.00:  RPM Surface Max 
 RRUN.                    0700:  Rig Run Number 
 RTIM.hr                  3.20:  Time Reaming 
 SAZI.deg               109.99:  Azm, Start 
 SDEP.m                5231.01:  Start Depth 
 SIDD.                      No:  Serv Intrp, DD 
 SINC.deg                73.72:  Inc, Start 
 SPPA.psig             3051.00:  SPP Avg 
 SPPN.psig             2950.00:  SPP Min 
 SPPX.psig             3250.00:  SPP Max 
 STIM.      08.00.00 05-Sep-20:  Start Time 
 SVCS.                 DD, MWD:  Services 
 SVER.                    9.20:  Sperry Version 
 TDAT.m                 559.00:  Tot Depth Attmp 
 TDDF.                      No:  Trip for DD 
 TDLG.m                 559.00:  Tot Depth Loggd 
 TFF .                      No:  Trip for Fail 
 TQAA.f-kp               26.49:  Torque Abs Avg 
 TQAN.f-kp               25.00:  Torque Abs Min 
 TQAX.f-kp               27.00:  Torque Abs Max 
 TRRT.°/30m               1.50:  Turn Rotating 
 MRT .                    HCIM:  Maximum Recorded Temperature 
 TTMX.degC               90.20:  Max Tool Temp 
 VS01.                90542671:  Virtual Str1 SN 
 VS02.                90545185:  Virtual Str2 SN 
 VS03.                90602015:  Virtual Str3 SN 
 VS04.                90515230:  Virtual Str4 SN 
 WBMN.klb                 5.00:  WOB Min 
 WOBA.klb                14.79:  WOB Avg 
 WOBX.klb                20.00:  WOB Max 
 YP  .lhf2               29.00:  Yield Point 
~Curve Information Block
#MNEM.UNIT                 API CODE     Curve Description
#---------               -----------    ---------------------------
 TIME.HHMMSS            00 000 000 000:  GT Time & Date
 GTDEPTH.m              00 000 000 000:  GT Depth
 GTPQH.psia             00 000 000 000:  GT HR Quartz Pressure
 GTTQ.degC              00 000 000 000:  GT Quartz Temperature
 GTTN.NONE              00 000 000 000:  GT Test Number
 GTET.sec               00 000 000 000:  GT Elapsed Test Time
 GTTVD.m                00 000 000 000:  GT True Vertical Depth
#Other Information
#
#WARRANTY: Halliburton will use its best efforts to furnish customers with 
#accurate information and interpretations that are part of, and incident to, the services 
#provided.  However, Halliburton cannot and does not warrant the accuracy 
#or correctness of such information and interpretations.  Under no circumstances should any 
#such information or interpretation be relied upon as the sole basis for any drilling, 
#completion, production, or financial decision or any procedure involving any risk to the 
#safety of any drilling venture, drilling rig or its crew or any other third party.  The 
#Customer has full responsibility for all drilling, completion and production operation.  
#Halliburton makes no representations or warranties, either expressed or 
#implied, including, but not limited to, the implied warranties of merchantability or fitness 
#for a particular purpose, with respect to the services rendered.  In no event will 
#Halliburton be liable for failure to obtain any particular results or for 
#any damages, including, but not limited to, indirect, special or consequential damages, 
#resulting from the use of any information or interpretation provided by Halliburton.
#
~A           TIME           GTDEPTH  GTPQH  GTTQ  GTTN  GTET   GTTVD  
# ...
   08:37:45.878.09-Sep-2020 5524.01 3700.74 77.57 6.00 207.08 2626.56
   08:37:46.079.09-Sep-2020 5524.01 3700.74 77.57 6.00 207.28 2626.56
   08:37:46.279.09-Sep-2020 5524.01 3700.74 77.57 6.00 207.48 2626.56
   08:37:46.479.09-Sep-2020 5524.01 3700.74 77.57 6.00 207.68 2626.56
   08:37:46.679.09-Sep-2020 5524.01 3700.41 77.57 6.00 207.88 2626.56
   08:37:46.879.09-Sep-2020 5524.01 3701.08 77.57 6.00 208.08 2626.56
   08:37:47.079.09-Sep-2020 5524.01 3701.08 77.57 6.00 208.28 2626.56
   08:37:47.279.09-Sep-2020 5524.01 3700.78 77.57 6.00 208.48 2626.56
   08:37:47.479.09-Sep-2020 5524.01 3700.69 77.57 6.00 208.68 2626.56
   08:37:47.679.09-Sep-2020 5524.01 3700.76 77.57 6.00 208.88 2626.56
   08:37:47.879.09-Sep-2020 5524.01 3700.74 77.57 6.00 209.08 2626.56
   08:37:48.079.09-Sep-2020 5524.01 3700.74 77.57 6.00 209.28 2626.56
   08:37:48.279.09-Sep-2020 5524.01 3700.74 77.57 6.00 209.48 2626.56
   08:37:48.479.09-Sep-2020 5524.01 3700.73 77.57 6.00 209.68 2626.56
   08:37:48.680.09-Sep-2020 5524.01 3700.74 77.57 6.00 209.88 2626.56
   08:37:48.880.09-Sep-2020 5524.01 3700.73 77.57 6.00 210.08 2626.56
   08:37:49.080.09-Sep-2020 5524.01 3700.73 77.57 6.00 210.28 2626.56
   08:37:49.280.09-Sep-2020 5524.01 3700.74 77.57 6.00 210.48 2626.56
   08:37:49.480.09-Sep-2020 5524.01 3700.75 77.57 6.00 210.68 2626.56
   08:37:49.680.09-Sep-2020 5524.01 3700.74 77.57 6.00 210.88 2626.56
   08:37:49.880.09-Sep-2020 5524.01 3700.73 77.57 6.00 211.08 2626.56
   08:37:50.080.09-Sep-2020 5524.01 3700.78 77.57 6.00 211.28 2626.56
   08:37:50.280.09-Sep-2020 5524.01 3700.68 77.57 6.00 211.48 2626.56
   08:37:50.480.09-Sep-2020 5524.01 3700.77 77.57 6.00 211.68 2626.56
   08:37:50.680.09-Sep-2020 5524.01 3700.74 77.57 6.00 211.88 2626.56
   08:37:50.880.09-Sep-2020 5524.01 3700.83 77.57 6.00 212.08 2626.56
   08:37:51.080.09-Sep-2020 5524.01 3700.34 77.57 6.00 212.28 2626.56
   08:37:51.281.09-Sep-2020 5524.01 3701.03 77.56 6.00 212.48 2626.56
   08:37:51.481.09-Sep-2020 5524.01 3700.75 77.57 6.00 212.68 2626.56
   08:37:51.681.09-Sep-2020 5524.01 3700.75 77.56 6.00 212.88 2626.56
   08:37:51.881.09-Sep-2020 5524.01 3700.76 77.56 6.00 213.08 2626.56
   08:37:52.081.09-Sep-2020 5524.01 3700.76 77.56 6.00 213.28 2626.56
   08:37:52.281.09-Sep-2020 5524.01 3700.99 77.56 6.00 213.48 2626.56
   08:37:52.481.09-Sep-2020 5524.01 3700.73 77.56 6.00 213.68 2626.56
   08:37:52.681.09-Sep-2020 5524.01 3700.77 77.56 6.00 213.88 2626.56
   08:37:52.881.09-Sep-2020 5524.01 3700.74 77.56 6.00 214.08 2626.56
   08:37:53.081.09-Sep-2020 5524.01 3700.74 77.56 6.00 214.28 2626.56
   08:37:53.281.09-Sep-2020 5524.01 3700.69 77.56 6.00 214.48 2626.56
   08:37:53.481.09-Sep-2020 5524.01 3700.74 77.56 6.00 214.68 2626.56
   08:37:53.682.09-Sep-2020 5524.01 3700.77 77.56 6.00 214.88 2626.56
   08:37:53.882.09-Sep-2020 5524.01 3700.69 77.56 6.00 215.08 2626.56
   08:37:54.082.09-Sep-2020 5524.01 3700.75 77.56 6.00 215.29 2626.56
   08:37:54.282.09-Sep-2020 5524.01 3700.73 77.56 6.00 215.49 2626.56
   08:37:54.482.09-Sep-2020 5524.01 3700.43 77.56 6.00 215.69 2626.56
   08:37:54.682.09-Sep-2020 5524.01 3701.09 77.56 6.00 215.89 2626.56
   08:37:54.882.09-Sep-2020 5524.01 3700.71 77.56 6.00 216.09 2626.56
   08:37:55.082.09-Sep-2020 5524.01 3700.77 77.56 6.00 216.29 2626.56
   08:37:55.282.09-Sep-2020 5524.01 3700.69 77.56 6.00 216.49 2626.56
   08:37:55.482.09-Sep-2020 5524.01 3700.75 77.56 6.00 216.69 2626.56
   08:37:55.682.09-Sep-2020 5524.01 3700.73 77.56 6.00 216.89 2626.56
   08:37:55.882.09-Sep-2020 5524.01 3700.75 77.56 6.00 217.09 2626.56
   08:37:56.082.09-Sep-2020 5524.01 3700.75 77.56 6.00 217.29 2626.56
   08:37:56.283.09-Sep-2020 5524.01 3700.71 77.56 6.00 217.49 2626.56
   08:37:56.483.09-Sep-2020 5524.01 3700.76 77.56 6.00 217.69 2626.56
   08:37:56.683.09-Sep-2020 5524.01 3700.74 77.56 6.00 217.89 2626.56
   08:37:56.883.09-Sep-2020 5524.01 3700.73 77.56 6.00 218.09 2626.56
   08:37:57.083.09-Sep-2020 5524.01 3700.73 77.56 6.00 218.29 2626.56
   08:37:57.283.09-Sep-2020 5524.01 3700.73 77.56 6.00 218.49 2626.56
   08:37:57.483.09-Sep-2020 5524.01 3700.74 77.56 6.00 218.69 2626.56
   08:37:57.683.09-Sep-2020 5524.01 3700.74 77.56 6.00 218.89 2626.56
   08:37:57.883.09-Sep-2020 5524.01 3700.74 77.56 6.00 219.09 2626.56
   08:37:58.083.09-Sep-2020 5524.01 3700.74 77.56 6.00 219.29 2626.56
   08:37:58.283.09-Sep-2020 5524.01 3700.76 77.56 6.00 219.49 2626.56
   08:37:58.483.09-Sep-2020 5524.01 3700.71 77.56 6.00 219.69 2626.56
   08:37:58.683.09-Sep-2020 5524.01 3700.73 77.56 6.00 219.89 2626.56
   08:37:58.884.09-Sep-2020 5524.01 3700.72 77.56 6.00 220.09 2626.56
   08:37:59.084.09-Sep-2020 5524.01 3700.77 77.56 6.00 220.29 2626.56
   08:37:59.284.09-Sep-2020 5524.01 3700.71 77.56 6.00 220.49 2626.56
   08:37:59.484.09-Sep-2020 5524.01 3700.72 77.56 6.00 220.69 2626.56
   08:37:59.684.09-Sep-2020 5524.01 3700.73 77.56 6.00 220.89 2626.56
   08:37:59.884.09-Sep-2020 5524.01 3700.74 77.56 6.00 221.09 2626.56
   08:38:00.084.09-Sep-2020 5524.01 3700.74 77.56 6.00 221.29 2626.56
   08:38:00.284.09-Sep-2020 5524.01 3700.71 77.56 6.00 221.49 2626.56
   08:38:00.484.09-Sep-2020 5524.01 3700.72 77.56 6.00 221.69 2626.56
   08:38:00.684.09-Sep-2020 5524.01 3700.72 77.56 6.00 221.89 2626.56
   08:38:00.884.09-Sep-2020 5524.01 3700.74 77.56 6.00 222.09 2626.56
   08:38:01.084.09-Sep-2020 5524.01 3700.74 77.56 6.00 222.29 2626.56
   08:38:01.285.09-Sep-2020 5524.01 3700.73 77.56 6.00 222.49 2626.56
   08:38:01.485.09-Sep-2020 5524.01 3700.42 77.56 6.00 222.69 2626.56
   08:38:01.685.09-Sep-2020 5524.01 3701.01 77.56 6.00 222.89 2626.56
   08:38:01.885.09-Sep-2020 5524.01 3700.74 77.56 6.00 223.09 2626.56
   08:38:02.085.09-Sep-2020 5524.01 3700.74 77.56 6.00 223.29 2626.56
   08:38:02.285.09-Sep-2020 5524.01 3700.76 77.56 6.00 223.49 2626.56
   08:38:02.485.09-Sep-2020 5524.01 3700.71 77.56 6.00 223.69 2626.56
   08:38:02.685.09-Sep-2020 5524.01 3700.35 77.56 6.00 223.89 2626.56
   08:38:02.885.09-Sep-2020 5524.01 3701.08 77.56 6.00 224.09 2626.56
   08:38:03.085.09-Sep-2020 5524.01 3700.72 77.56 6.00 224.29 2626.56
   08:38:03.285.09-Sep-2020 5524.01 3700.75 77.56 6.00 224.49 2626.56
   08:38:03.485.09-Sep-2020 5524.01 3700.70 77.56 6.00 224.69 2626.56
   08:38:03.685.09-Sep-2020 5524.01 3700.43 77.56 6.00 224.89 2626.56
   08:38:03.886.09-Sep-2020 5524.01 3701.06 77.56 6.00 225.09 2626.56
   08:38:04.086.09-Sep-2020 5524.01 3701.06 77.56 6.00 225.29 2626.56
   08:38:04.286.09-Sep-2020 5524.01 3700.77 77.56 6.00 225.49 2626.56
   08:38:04.486.09-Sep-2020 5524.01 3700.66 77.56 6.00 225.69 2626.56
   08:38:04.686.09-Sep-2020 5524.01 3700.77 77.56 6.00 225.89 2626.56
   08:38:04.886.09-Sep-2020 5524.01 3700.72 77.56 6.00 226.09 2626.56
   08:38:05.086.09-Sep-2020 5524.01 3700.72 77.56 6.00 226.29 2626.56
   08:38:05.286.09-Sep-2020 5524.01 3700.79 77.56 6.00 226.49 2626.56
   08:38:05.486.09-Sep-2020 5524.01 3700.65 77.56 6.00 226.69 2626.56
   08:38:05.686.09-Sep-2020 5524.01 3700.77 77.56 6.00 226.89 2626.56
   08:38:05.886.09-Sep-2020 5524.01 3700.73 77.56 6.00 227.09 2626.56
   08:38:06.086.09-Sep-2020 5524.01 3700.82 77.56 6.00 227.29 2626.56
   08:38:06.286.09-Sep-2020 5524.01 3700.66 77.56 6.00 227.49 2626.56
   08:38:06.487.09-Sep-2020 5524.01 3700.73 77.56 6.00 227.69 2626.56
   08:38:06.687.09-Sep-2020 5524.01 3700.73 77.56 6.00 227.89 2626.56
   08:38:06.887.09-Sep-2020 5524.01 3700.76 77.56 6.00 228.09 2626.56
   08:38:07.087.09-Sep-2020 5524.01 3700.76 77.56 6.00 228.29 2626.56
   08:38:07.287.09-Sep-2020 5524.01 3700.72 77.56 6.00 228.49 2626.56
   08:38:07.487.09-Sep-2020 5524.01 3700.73 77.56 6.00 228.69 2626.56
   08:38:07.687.09-Sep-2020 5524.01 3700.73 77.56 6.00 228.89 2626.56
   08:38:07.887.09-Sep-2020 5524.01 3700.72 77.56 6.00 229.09 2626.56
   08:38:08.087.09-Sep-2020 5524.01 3700.72 77.56 6.00 229.29 2626.56
   08:38:08.287.09-Sep-2020 5524.01 3700.73 77.56 6.00 229.49 2626.56
   08:38:08.487.09-Sep-2020 5524.01 3700.72 77.56 6.00 229.69 2626.56
   08:38:08.687.09-Sep-2020 5524.01 3700.72 77.56 6.00 229.89 2626.56
