~Version Information
 VERS.                  2.0:   CWLS log ASCII Standard -VERSION 2.0
 WRAP.                   NO:   One line per depth step
~Well Information Block
#MNEM.UNIT     VALUE/NAME     DESCRIPTION
#---------     -----------    ---------------------------
 STRT.S             21:21:48 09-Sep-20: START TIME 21:21:48 09-Sep-20
 STOP.S             21:29:57 09-Sep-20: STOP TIME  21:29:57 09-Sep-20
 STEP.S                   0.00: STEP TIME
 NULL.                 -999.25: NULL VALUE
 MDS .        Operator Entered:  MAG DATA SOURCE
 PDAT.          Mean Sea Level:  PERMANENT DATUM
 DCON.         Sperry Drilling:  DIRECTNL CONTR
 RIG .              West Azeri:  RIG NAME
 WELL.           C40 (Slot 20):  WELL NAME
 SRVC.     Turan Drilling Engineering:  CONTRACTOR
 FLD .                     ACG:  FIELD NAME
 CTRY.              Azerbaijan:  COUNTRY NAME
 PROV.                    Baku:  PROVINCE
 STAT.                    Baku:  STATE NAME
 REGN.                   EESSA:  REGION
 BASE.              Azerbaijan:  LOGGING EQUIPMENT BASE LOCATION
 COMP.     BP Exploration (Caspian Sea) Ltd:  COMPANY
 WTYP.                Deviated:  WELL TYPE
 SON .        AZ-XX-0906344804:  JOB NUMBER
 FTOP.          Formation Tops:  FORM TOPS DESC
 ILTD.               Lithology:  INTERP LTH DESC
 SVYD.                  Survey:  SURVEY DESC
 DMOD.             Drill Model:  DRILL MOD DESC
 HPTY.       Minimum Curvature:  HOLE POS TYPE
 NREF.                    Grid:  NORTH REFERENCE
 SPUD.               01-Jan-20:  SPUD DATE
 DATE.      00.59.44 15-Sep-20:  END TIME
 STIM.      12.00.00 12-Jun-20:  START TIME
 DMF .             Drill Floor:  DRILL MEAS FROM
 DFST.                        :  DIST FSL TEXT
 DFWT.                        :  DIST FWL TEXT
 API .                        :  API NUMBER
 CNTY.                        :  COUNTY
 UWI .                        :  UNIQUE WELL IDENTIFIER
 LOC .                        :  LOCATION
 LMF .             Drill Floor:  LOG MEASURED FROM
 VSNS.m                   2.88:  VERT SEC N/S
 VSEW.m                  -3.84:  VERT SEC E/W
 AGAP.m                  43.42:  AIR GAP
 APD .m                  43.42:  DEPTH ABOVE PD
 WDMS.m                 118.27:  WD ELEV
 EGL .m                   0.00:  GROUND ELEVATION
 EPD .m                   0.00:  ELEVATION
 AZTC.deg                 6.23:  AZM TOTAL CORR
 GRDC.deg                 0.20:  GRID CORRECTION
 MDEC.deg                 6.43:  MAGNETIC DECL
 MDIP.deg                59.49:  MAGNETIC DIP
 MFLD.nT              50277.00:  MAGNETIC FIELD
 GVFD.g                   1.00:  GRAVITY FIELD
 VSDR.deg               173.20:  VERT SEC DIRECT
 TDD .m                5790.01:  TOTAL DEPTH (DRILLER)
 SDEP.m                5231.01:  START DEPTH
 DFSL.m                   0.00:  DISTANCE FSL
 DFWL.m                   0.00:  DISTANCE FWL
 UTMY.m             4435808.83:  UTM Y
 UTMX.m              526266.40:  UTM X
 WHEW.m                  -3.84:  WELL HEAD E/W
 WHNS.m                   2.88:  WELL HEAD N/S
 LONG.deg                51.31:  LONGITUDE
 LATI.deg                40.06:  LATITUDE
 TVDS.m                  43.42:  TVDSS CORRECTN
 DEP .m                 430.08:  DEPTH
 EKB .m                  43.42:  KB ELEVATION
 EDF .m                  43.42:  DF ELEVATION
 TDL .m                 559.00:  TOTAL DEPTH (LOGGER)
 MAGU.                 1849381:  MAGUTM CHECKSUM
 VSC .                       0:  VS TO CLOSURE
~Parameter Information Block
#MNEM.UNIT       Value        Description
#---------     -----------    ---------------------------
 AV  .mps                 4.87:  Ann Velocity 
 AVMX.mps                 7.08:  Max Ann Veloc 
 AZIF.deg               108.87:  Azm, Final 
 BHAT.                  Rotary:  BHA Type 
 BROT.°/30m               0.35:  Build Rotating 
 BS  .in                  8.50:  Bit Size 
 BSZ .in                  8.50:  Bit Size 
 BTPL.psig              360.00:  Bit Press Loss 
 CABU.                     Yes:  Customer Abuse 
 COMM.                     ¼¥|:  Run Comments 1 
 TCS .hr                106.24:  Time Ciculation Ended 
 CV  .mps                 1.77:  Crit Velocity 
 CVMX.mps                 2.03:  Max Crit Veloc 
 DD1 .         Aykhan Agagulov:  Direct Drillr 1 
 DD2 .            Nonso Okofor:  Direct Drillr 2 
 DDSV.               Geo-Pilot:  DD Service 
 DEFF.%                  98.00:  % Det Eff 
 DLRX.°/30m               0.50:  Dogleg Rot Max 
 DLSO.°/30m               0.40:  Dogleg Oriented 
 DLSX.°/30m               0.94:  Dogleg Str Max 
 DRET.      20.30.00 08-Sep-20:  Drill End Time 
 DRST.      22.15.00 06-Sep-20:  Drill Start Tim 
 DTIM.hr                 31.31:  Time Drilling 
 EDEP.m                5790.01:  End Depth 
 ENG1.           Amrah Tahirov:  Engineer 1 
 ENG2.         Dair Mahammadov:  Engineer 2 
 ENG3.           Emil Huseynov:  Engineer 3 
 ETIM.      04.01.04 12-Sep-20:  End Time 
 FLOI.gpm               450.00:  Flow In 
 FLON.gpm               450.00:  Flow In Min 
 FLOS.cptm                2.00:  Fluid Loss 
 FLOX.gpm               450.00:  Flow In Max 
 FTRO.       Formation Presure:  FTWD Run Obj 
 HFLO.                      No:  High Flow 
 HPRE.                      No:  High Pressure 
 HTEM.                      No:  High Temp 
 HYDO.m                   1.80:  Hydro Offset 
 IFIN.deg                72.03:  Inc, Final 
 IMAX.deg                73.72:  Inc Max 
 IMIN.deg                70.94:  Inc Min 
 IMND.m                5508.52:  Inc Min Depth 
 IMXD.m                5253.60:  Inc Max Depth 
 JARR.                      No:  Jarring 
 LETM.      20.30.00 08-Sep-20:  Log End Time 
 LOST.hr                     0:  Lost Rig Time 
 LSTM.      22.15.00 06-Sep-20:  Log Start Time 
 MDCL.ppm             36000.00:  Mud Chlorides 
 MDES.     Inversion Oil/Synthetic:  Mud Desc 
 DFD .sg                  1.44:  Mud Density 
 MDMN.sg                  1.44:  Dens Mud Min 
 MDMX.sg                  1.57:  Dens Mud Max 
 MOIL.                      70:  Run Mud Oil % 
 MOWR.                   70:30:  Run Mud OWR 
 MSND.                       0:  Run Mud Sand % 
 MSOL.                      21:  Run Mud Solids% 
 DFV .spqt               68.00:  Mud Viscosity 
 MWOD.in                  6.75:  MWD Tool OD 
 MWSI.                     Yes:  Serv Intrp, MWD 
 OTIM.hr                174.84:  Time Operating 
 PCON.           Look Like New:  Pad Condition 
 PMAX.psia            10616.93:  Press Op, Max 
 PV  .cP                 50.00:  Mud PV 
 RUN .                     700:  Run Number 
 ROPA.m/hr               14.24:  ROP Avg 
 ROPN.m/hr               10.00:  ROP Min 
 ROPX.m/hr               32.00:  ROP Max 
 RPMA.rpm               120.90:  RPM Surface Avg 
 RPMN.rpm               120.00:  RPM Surface Min 
 RPMX.rpm               140.00:  RPM Surface Max 
 RRUN.                    0700:  Rig Run Number 
 RTIM.hr                  3.20:  Time Reaming 
 SAZI.deg               109.99:  Azm, Start 
 SDEP.m                5231.01:  Start Depth 
 SIDD.                      No:  Serv Intrp, DD 
 SINC.deg                73.72:  Inc, Start 
 SPPA.psig             3051.00:  SPP Avg 
 SPPN.psig             2950.00:  SPP Min 
 SPPX.psig             3250.00:  SPP Max 
 STIM.      08.00.00 05-Sep-20:  Start Time 
 SVCS.                 DD, MWD:  Services 
 SVER.                    9.20:  Sperry Version 
 TDAT.m                 559.00:  Tot Depth Attmp 
 TDDF.                      No:  Trip for DD 
 TDLG.m                 559.00:  Tot Depth Loggd 
 TFF .                      No:  Trip for Fail 
 TQAA.f-kp               26.49:  Torque Abs Avg 
 TQAN.f-kp               25.00:  Torque Abs Min 
 TQAX.f-kp               27.00:  Torque Abs Max 
 TRRT.°/30m               1.50:  Turn Rotating 
 MRT .                    HCIM:  Maximum Recorded Temperature 
 TTMX.degC               90.20:  Max Tool Temp 
 VS01.                90542671:  Virtual Str1 SN 
 VS02.                90545185:  Virtual Str2 SN 
 VS03.                90602015:  Virtual Str3 SN 
 VS04.                90515230:  Virtual Str4 SN 
 WBMN.klb                 5.00:  WOB Min 
 WOBA.klb                14.79:  WOB Avg 
 WOBX.klb                20.00:  WOB Max 
 YP  .lhf2               29.00:  Yield Point 
~Curve Information Block
#MNEM.UNIT                 API CODE     Curve Description
#---------               -----------    ---------------------------
 TIME.HHMMSS            00 000 000 000:  GT Time & Date
 GTDEPTH.m              00 000 000 000:  GT Depth
 GTPQH.psia             00 000 000 000:  GT HR Quartz Pressure
 GTTQ.degC              00 000 000 000:  GT Quartz Temperature
 GTTN.NONE              00 000 000 000:  GT Test Number
 GTET.sec               00 000 000 000:  GT Elapsed Test Time
 GTTVD.m                00 000 000 000:  GT True Vertical Depth
#Other Information
#
#WARRANTY: Halliburton will use its best efforts to furnish customers with 
#accurate information and interpretations that are part of, and incident to, the services 
#provided.  However, Halliburton cannot and does not warrant the accuracy 
#or correctness of such information and interpretations.  Under no circumstances should any 
#such information or interpretation be relied upon as the sole basis for any drilling, 
#completion, production, or financial decision or any procedure involving any risk to the 
#safety of any drilling venture, drilling rig or its crew or any other third party.  The 
#Customer has full responsibility for all drilling, completion and production operation.  
#Halliburton makes no representations or warranties, either expressed or 
#implied, including, but not limited to, the implied warranties of merchantability or fitness 
#for a particular purpose, with respect to the services rendered.  In no event will 
#Halliburton be liable for failure to obtain any particular results or for 
#any damages, including, but not limited to, indirect, special or consequential damages, 
#resulting from the use of any information or interpretation provided by Halliburton.
#
~A           TIME           GTDEPTH  GTPQH  GTTQ  GTTN   GTET   GTTVD  
# ...
   21:23:18.758.09-Sep-2020 5252.22  332.61 73.47 26.00  90.44 2542.36
   21:23:18.959.09-Sep-2020 5252.22  332.99 73.47 26.00  90.64 2542.36
   21:23:19.159.09-Sep-2020 5252.22  333.39 73.47 26.00  90.84 2542.36
   21:23:19.359.09-Sep-2020 5252.22  333.78 73.47 26.00  91.04 2542.36
   21:23:19.559.09-Sep-2020 5252.22  334.14 73.47 26.00  91.24 2542.36
   21:23:19.759.09-Sep-2020 5252.22  334.48 73.47 26.00  91.44 2542.36
   21:23:19.959.09-Sep-2020 5252.22  334.81 73.47 26.00  91.64 2542.36
   21:23:20.159.09-Sep-2020 5252.22  335.16 73.47 26.00  91.84 2542.36
   21:23:20.359.09-Sep-2020 5252.22  335.51 73.47 26.00  92.04 2542.36
   21:23:20.559.09-Sep-2020 5252.22  335.63 73.47 26.00  92.24 2542.36
   21:23:20.759.09-Sep-2020 5252.22  335.88 73.47 26.00  92.44 2542.36
   21:23:20.959.09-Sep-2020 5252.22  336.42 73.47 26.00  92.64 2542.36
   21:23:21.160.09-Sep-2020 5252.22  336.71 73.47 26.00  92.84 2542.36
   21:23:21.360.09-Sep-2020 5252.22  337.02 73.47 26.00  93.04 2542.36
   21:23:21.560.09-Sep-2020 5252.22  337.02 73.47 26.00  93.24 2542.36
   21:23:21.760.09-Sep-2020 5252.22  337.63 73.47 26.00  93.44 2542.36
   21:23:21.960.09-Sep-2020 5252.22  337.99 73.47 26.00  93.64 2542.36
   21:23:22.160.09-Sep-2020 5252.22  338.29 73.47 26.00  93.84 2542.36
   21:23:22.360.09-Sep-2020 5252.22  338.59 73.47 26.00  94.04 2542.36
   21:23:22.560.09-Sep-2020 5252.22  338.88 73.47 26.00  94.24 2542.36
   21:23:22.760.09-Sep-2020 5252.22  339.17 73.47 26.00  94.44 2542.36
   21:23:22.960.09-Sep-2020 5252.22  339.43 73.47 26.00  94.64 2542.36
   21:23:23.160.09-Sep-2020 5252.22  339.68 73.47 26.00  94.84 2542.36
   21:23:23.361.09-Sep-2020 5252.22  339.94 73.47 26.00  95.04 2542.36
   21:23:23.561.09-Sep-2020 5252.22  340.22 73.47 26.00  95.24 2542.36
   21:23:23.761.09-Sep-2020 5252.22  340.53 73.47 26.00  95.44 2542.36
   21:23:23.961.09-Sep-2020 5252.22  340.42 73.47 26.00  95.64 2542.36
   21:23:24.161.09-Sep-2020 5252.22  340.90 73.47 26.00  95.84 2542.36
   21:23:24.361.09-Sep-2020 5252.22  341.24 73.47 26.00  96.04 2542.36
   21:23:24.561.09-Sep-2020 5252.22  341.24 73.47 26.00  96.24 2542.36
   21:23:24.761.09-Sep-2020 5252.22  341.91 73.47 26.00  96.44 2542.36
   21:23:24.961.09-Sep-2020 5252.22  341.85 73.47 26.00  96.64 2542.36
   21:23:25.161.09-Sep-2020 5252.22  342.04 73.47 26.00  96.84 2542.36
   21:23:25.361.09-Sep-2020 5252.22  342.52 73.48 26.00  97.04 2542.36
   21:23:25.562.09-Sep-2020 5252.22  342.52 73.48 26.00  97.24 2542.36
   21:23:25.762.09-Sep-2020 5252.22  343.09 73.48 26.00  97.44 2542.36
   21:23:25.962.09-Sep-2020 5252.22  343.11 73.48 26.00  97.65 2542.36
   21:23:26.162.09-Sep-2020 5252.22  343.48 73.48 26.00  97.85 2542.36
   21:23:26.362.09-Sep-2020 5252.22  343.99 73.48 26.00  98.05 2542.36
   21:23:26.562.09-Sep-2020 5252.22  344.30 73.48 26.00  98.25 2542.36
   21:23:26.762.09-Sep-2020 5252.22  344.78 73.48 26.00  98.45 2542.36
   21:23:26.962.09-Sep-2020 5252.22  344.96 73.48 26.00  98.65 2542.36
   21:23:27.162.09-Sep-2020 5252.22  344.76 73.48 26.00  98.85 2542.36
   21:23:27.362.09-Sep-2020 5252.22  345.61 73.48 26.00  99.05 2542.36
   21:23:27.562.09-Sep-2020 5252.22  345.90 73.48 26.00  99.25 2542.36
   21:23:27.763.09-Sep-2020 5252.22  346.20 73.48 26.00  99.45 2542.36
   21:23:27.963.09-Sep-2020 5252.22  346.53 73.48 26.00  99.65 2542.36
   21:23:28.163.09-Sep-2020 5252.22  346.97 73.48 26.00  99.85 2542.36
   21:23:28.363.09-Sep-2020 5252.22  347.20 73.48 26.00 100.05 2542.36
   21:23:28.563.09-Sep-2020 5252.22  347.20 73.48 26.00 100.25 2542.36
   21:23:28.763.09-Sep-2020 5252.22  347.42 73.48 26.00 100.45 2542.36
   21:23:28.963.09-Sep-2020 5252.22  347.92 73.48 26.00 100.65 2542.36
   21:23:29.163.09-Sep-2020 5252.22  348.38 73.48 26.00 100.85 2542.36
   21:23:29.363.09-Sep-2020 5252.22  348.63 73.48 26.00 101.05 2542.36
   21:23:29.563.09-Sep-2020 5252.22  348.63 73.48 26.00 101.25 2542.36
   21:23:29.764.09-Sep-2020 5252.22  349.23 73.48 26.00 101.45 2542.36
   21:23:29.964.09-Sep-2020 5252.22  349.55 73.48 26.00 101.65 2542.36
   21:23:30.164.09-Sep-2020 5252.22  349.83 73.48 26.00 101.85 2542.36
   21:23:30.364.09-Sep-2020 5252.22  350.12 73.48 26.00 102.05 2542.36
   21:23:30.564.09-Sep-2020 5252.22  350.34 73.48 26.00 102.25 2542.36
   21:23:30.764.09-Sep-2020 5252.22  350.58 73.48 26.00 102.45 2542.36
   21:23:30.964.09-Sep-2020 5252.22  350.84 73.48 26.00 102.65 2542.36
   21:23:31.164.09-Sep-2020 5252.22  351.11 73.48 26.00 102.85 2542.36
   21:23:31.364.09-Sep-2020 5252.22  351.38 73.48 26.00 103.05 2542.36
   21:23:31.564.09-Sep-2020 5252.22  351.63 73.48 26.00 103.25 2542.36
   21:23:31.764.09-Sep-2020 5252.22  351.89 73.48 26.00 103.45 2542.36
   21:23:31.965.09-Sep-2020 5252.22  352.13 73.48 26.00 103.65 2542.36
   21:23:32.165.09-Sep-2020 5252.22  352.38 73.48 26.00 103.85 2542.36
   21:23:32.365.09-Sep-2020 5252.22  352.27 73.48 26.00 104.05 2542.36
   21:23:32.565.09-Sep-2020 5252.22  352.27 73.48 26.00 104.25 2542.36
   21:23:32.765.09-Sep-2020 5252.22  353.10 73.48 26.00 104.45 2542.36
   21:23:32.965.09-Sep-2020 5252.22  353.32 73.48 26.00 104.65 2542.36
   21:23:33.165.09-Sep-2020 5252.22  353.71 73.48 26.00 104.85 2542.36
   21:23:33.365.09-Sep-2020 5252.22  353.87 73.48 26.00 105.05 2542.36
   21:23:33.565.09-Sep-2020 5252.22  353.87 73.48 26.00 105.25 2542.36
   21:23:33.765.09-Sep-2020 5252.22  354.36 73.48 26.00 105.45 2542.36
   21:23:33.965.09-Sep-2020 5252.22  354.57 73.48 26.00 105.65 2542.36
   21:23:34.166.09-Sep-2020 5252.22  354.77 73.48 26.00 105.85 2542.36
   21:23:34.366.09-Sep-2020 5252.22  355.03 73.48 26.00 106.05 2542.36
   21:23:34.566.09-Sep-2020 5252.22  355.29 73.48 26.00 106.25 2542.36
   21:23:34.766.09-Sep-2020 5252.22  355.54 73.48 26.00 106.45 2542.36
   21:23:34.966.09-Sep-2020 5252.22  355.73 73.48 26.00 106.65 2542.36
   21:23:35.166.09-Sep-2020 5252.22  355.93 73.48 26.00 106.85 2542.36
   21:23:35.366.09-Sep-2020 5252.22  356.17 73.48 26.00 107.05 2542.36
   21:23:35.566.09-Sep-2020 5252.22  355.86 73.48 26.00 107.25 2542.36
   21:23:35.766.09-Sep-2020 5252.22  356.73 73.48 26.00 107.45 2542.36
   21:23:35.966.09-Sep-2020 5252.22  356.85 73.48 26.00 107.65 2542.36
   21:23:36.166.09-Sep-2020 5252.22  357.06 73.48 26.00 107.85 2542.36
   21:23:36.367.09-Sep-2020 5252.22  357.26 73.48 26.00 108.05 2542.36
   21:23:36.567.09-Sep-2020 5252.22  357.26 73.48 26.00 108.25 2542.36
   21:23:36.767.09-Sep-2020 5252.22  357.40 73.48 26.00 108.45 2542.36
   21:23:36.967.09-Sep-2020 5252.22  357.84 73.48 26.00 108.65 2542.36
   21:23:37.167.09-Sep-2020 5252.22  358.19 73.48 26.00 108.85 2542.36
   21:23:37.367.09-Sep-2020 5252.22  358.38 73.48 26.00 109.05 2542.36
   21:23:37.567.09-Sep-2020 5252.22  358.20 73.48 26.00 109.25 2542.36
   21:23:37.767.09-Sep-2020 5252.22  359.02 73.48 26.00 109.45 2542.36
   21:23:37.967.09-Sep-2020 5252.22  359.33 73.48 26.00 109.65 2542.36
   21:23:38.167.09-Sep-2020 5252.22  359.62 73.48 26.00 109.85 2542.36
   21:23:38.367.09-Sep-2020 5252.22  359.89 73.48 26.00 110.05 2542.36
   21:23:38.568.09-Sep-2020 5252.22  360.27 73.48 26.00 110.25 2542.36
   21:23:38.768.09-Sep-2020 5252.22  360.46 73.48 26.00 110.45 2542.36
   21:23:38.968.09-Sep-2020 5252.22  360.45 73.48 26.00 110.65 2542.36
   21:23:39.168.09-Sep-2020 5252.22  360.68 73.48 26.00 110.85 2542.36
   21:23:39.368.09-Sep-2020 5252.22  361.25 73.48 26.00 111.05 2542.36
   21:23:39.568.09-Sep-2020 5252.22  361.56 73.48 26.00 111.25 2542.36
   21:23:39.768.09-Sep-2020 5252.22  361.81 73.48 26.00 111.45 2542.36
   21:23:39.968.09-Sep-2020 5252.22  361.81 73.48 26.00 111.65 2542.36
   21:23:40.168.09-Sep-2020 5252.22  362.22 73.48 26.00 111.85 2542.36
   21:23:40.368.09-Sep-2020 5252.22  362.74 73.48 26.00 112.05 2542.36
   21:23:40.568.09-Sep-2020 5252.22  362.74 73.48 26.00 112.25 2542.36
   21:23:40.769.09-Sep-2020 5252.22  363.41 73.48 26.00 112.45 2542.36
   21:23:40.969.09-Sep-2020 5252.22  363.58 73.48 26.00 112.65 2542.36
   21:23:41.169.09-Sep-2020 5252.22  363.90 73.48 26.00 112.85 2542.36
