~Version Information
 VERS.                  2.0:   CWLS log ASCII Standard -VERSION 2.0
 WRAP.                   NO:   One line per depth step
~Well Information Block
#MNEM.UNIT     VALUE/NAME     DESCRIPTION
#---------     -----------    ---------------------------
 STRT.S             16:52:14 09-Sep-20: START TIME 16:52:14 09-Sep-20
 STOP.S             17:00:39 09-Sep-20: STOP TIME  17:00:39 09-Sep-20
 STEP.S                   0.00: STEP TIME
 NULL.                 -999.25: NULL VALUE
 MDS .        Operator Entered:  MAG DATA SOURCE
 PDAT.          Mean Sea Level:  PERMANENT DATUM
 DCON.         Sperry Drilling:  DIRECTNL CONTR
 RIG .              West Azeri:  RIG NAME
 WELL.           C40 (Slot 20):  WELL NAME
 SRVC.     Turan Drilling Engineering:  CONTRACTOR
 FLD .                     ACG:  FIELD NAME
 CTRY.              Azerbaijan:  COUNTRY NAME
 PROV.                    Baku:  PROVINCE
 STAT.                    Baku:  STATE NAME
 REGN.                   EESSA:  REGION
 BASE.              Azerbaijan:  LOGGING EQUIPMENT BASE LOCATION
 COMP.     BP Exploration (Caspian Sea) Ltd:  COMPANY
 WTYP.                Deviated:  WELL TYPE
 SON .        AZ-XX-0906344804:  JOB NUMBER
 FTOP.          Formation Tops:  FORM TOPS DESC
 ILTD.               Lithology:  INTERP LTH DESC
 SVYD.                  Survey:  SURVEY DESC
 DMOD.             Drill Model:  DRILL MOD DESC
 HPTY.       Minimum Curvature:  HOLE POS TYPE
 NREF.                    Grid:  NORTH REFERENCE
 SPUD.               01-Jan-20:  SPUD DATE
 DATE.      00.59.44 15-Sep-20:  END TIME
 STIM.      12.00.00 12-Jun-20:  START TIME
 DMF .             Drill Floor:  DRILL MEAS FROM
 DFST.                        :  DIST FSL TEXT
 DFWT.                        :  DIST FWL TEXT
 API .                        :  API NUMBER
 CNTY.                        :  COUNTY
 UWI .                        :  UNIQUE WELL IDENTIFIER
 LOC .                        :  LOCATION
 LMF .             Drill Floor:  LOG MEASURED FROM
 VSNS.m                   2.88:  VERT SEC N/S
 VSEW.m                  -3.84:  VERT SEC E/W
 AGAP.m                  43.42:  AIR GAP
 APD .m                  43.42:  DEPTH ABOVE PD
 WDMS.m                 118.27:  WD ELEV
 EGL .m                   0.00:  GROUND ELEVATION
 EPD .m                   0.00:  ELEVATION
 AZTC.deg                 6.23:  AZM TOTAL CORR
 GRDC.deg                 0.20:  GRID CORRECTION
 MDEC.deg                 6.43:  MAGNETIC DECL
 MDIP.deg                59.49:  MAGNETIC DIP
 MFLD.nT              50277.00:  MAGNETIC FIELD
 GVFD.g                   1.00:  GRAVITY FIELD
 VSDR.deg               173.20:  VERT SEC DIRECT
 TDD .m                5790.01:  TOTAL DEPTH (DRILLER)
 SDEP.m                5231.01:  START DEPTH
 DFSL.m                   0.00:  DISTANCE FSL
 DFWL.m                   0.00:  DISTANCE FWL
 UTMY.m             4435808.83:  UTM Y
 UTMX.m              526266.40:  UTM X
 WHEW.m                  -3.84:  WELL HEAD E/W
 WHNS.m                   2.88:  WELL HEAD N/S
 LONG.deg                51.31:  LONGITUDE
 LATI.deg                40.06:  LATITUDE
 TVDS.m                  43.42:  TVDSS CORRECTN
 DEP .m                 430.08:  DEPTH
 EKB .m                  43.42:  KB ELEVATION
 EDF .m                  43.42:  DF ELEVATION
 TDL .m                 559.00:  TOTAL DEPTH (LOGGER)
 MAGU.                 1849381:  MAGUTM CHECKSUM
 VSC .                       0:  VS TO CLOSURE
~Parameter Information Block
#MNEM.UNIT       Value        Description
#---------     -----------    ---------------------------
 AV  .mps                 4.87:  Ann Velocity 
 AVMX.mps                 7.08:  Max Ann Veloc 
 AZIF.deg               108.87:  Azm, Final 
 BHAT.                  Rotary:  BHA Type 
 BROT.°/30m               0.35:  Build Rotating 
 BS  .in                  8.50:  Bit Size 
 BSZ .in                  8.50:  Bit Size 
 BTPL.psig              360.00:  Bit Press Loss 
 CABU.                     Yes:  Customer Abuse 
 TCS .hr                106.24:  Time Ciculation Ended 
 CV  .mps                 1.77:  Crit Velocity 
 CVMX.mps                 2.03:  Max Crit Veloc 
 DD1 .         Aykhan Agagulov:  Direct Drillr 1 
 DD2 .            Nonso Okofor:  Direct Drillr 2 
 DDSV.               Geo-Pilot:  DD Service 
 DEFF.%                  98.00:  % Det Eff 
 DLRX.°/30m               0.50:  Dogleg Rot Max 
 DLSO.°/30m               0.40:  Dogleg Oriented 
 DLSX.°/30m               0.94:  Dogleg Str Max 
 DRET.      20.30.00 08-Sep-20:  Drill End Time 
 DRST.      22.15.00 06-Sep-20:  Drill Start Tim 
 DTIM.hr                 31.31:  Time Drilling 
 EDEP.m                5790.01:  End Depth 
 ENG1.           Amrah Tahirov:  Engineer 1 
 ENG2.         Dair Mahammadov:  Engineer 2 
 ENG3.           Emil Huseynov:  Engineer 3 
 ETIM.      04.01.04 12-Sep-20:  End Time 
 FLOI.gpm               450.00:  Flow In 
 FLON.gpm               450.00:  Flow In Min 
 FLOS.cptm                2.00:  Fluid Loss 
 FLOX.gpm               450.00:  Flow In Max 
 FTRO.       Formation Presure:  FTWD Run Obj 
 HFLO.                      No:  High Flow 
 HPRE.                      No:  High Pressure 
 HTEM.                      No:  High Temp 
 HYDO.m                   1.80:  Hydro Offset 
 IFIN.deg                72.03:  Inc, Final 
 IMAX.deg                73.72:  Inc Max 
 IMIN.deg                70.94:  Inc Min 
 IMND.m                5508.52:  Inc Min Depth 
 IMXD.m                5253.60:  Inc Max Depth 
 JARR.                      No:  Jarring 
 LETM.      20.30.00 08-Sep-20:  Log End Time 
 LOST.hr                     0:  Lost Rig Time 
 LSTM.      22.15.00 06-Sep-20:  Log Start Time 
 MDCL.ppm             36000.00:  Mud Chlorides 
 MDES.     Inversion Oil/Synthetic:  Mud Desc 
 DFD .sg                  1.44:  Mud Density 
 MDMN.sg                  1.44:  Dens Mud Min 
 MDMX.sg                  1.57:  Dens Mud Max 
 MOIL.                      70:  Run Mud Oil % 
 MOWR.                   70:30:  Run Mud OWR 
 MSND.                       0:  Run Mud Sand % 
 MSOL.                      21:  Run Mud Solids% 
 DFV .spqt               68.00:  Mud Viscosity 
 MWOD.in                  6.75:  MWD Tool OD 
 MWSI.                     Yes:  Serv Intrp, MWD 
 OTIM.hr                174.84:  Time Operating 
 PCON.           Look Like New:  Pad Condition 
 PMAX.psia            10616.93:  Press Op, Max 
 PV  .cP                 50.00:  Mud PV 
 RUN .                     700:  Run Number 
 ROPA.m/hr               14.24:  ROP Avg 
 ROPN.m/hr               10.00:  ROP Min 
 ROPX.m/hr               32.00:  ROP Max 
 RPMA.rpm               120.90:  RPM Surface Avg 
 RPMN.rpm               120.00:  RPM Surface Min 
 RPMX.rpm               140.00:  RPM Surface Max 
 RRUN.                    0700:  Rig Run Number 
 RTIM.hr                  3.20:  Time Reaming 
 SAZI.deg               109.99:  Azm, Start 
 SDEP.m                5231.01:  Start Depth 
 SIDD.                      No:  Serv Intrp, DD 
 SINC.deg                73.72:  Inc, Start 
 SPPA.psig             3051.00:  SPP Avg 
 SPPN.psig             2950.00:  SPP Min 
 SPPX.psig             3250.00:  SPP Max 
 STIM.      08.00.00 05-Sep-20:  Start Time 
 SVCS.                 DD, MWD:  Services 
 SVER.                    9.20:  Sperry Version 
 TDAT.m                 559.00:  Tot Depth Attmp 
 TDDF.                      No:  Trip for DD 
 TDLG.m                 559.00:  Tot Depth Loggd 
 TFF .                      No:  Trip for Fail 
 TQAA.f-kp               26.49:  Torque Abs Avg 
 TQAN.f-kp               25.00:  Torque Abs Min 
 TQAX.f-kp               27.00:  Torque Abs Max 
 TRRT.°/30m               1.50:  Turn Rotating 
 MRT .                    HCIM:  Maximum Recorded Temperature 
 TTMX.degC               90.20:  Max Tool Temp 
 VS01.                90542671:  Virtual Str1 SN 
 VS02.                90545185:  Virtual Str2 SN 
 VS03.                90602015:  Virtual Str3 SN 
 VS04.                90515230:  Virtual Str4 SN 
 WBMN.klb                 5.00:  WOB Min 
 WOBA.klb                14.79:  WOB Avg 
 WOBX.klb                20.00:  WOB Max 
 YP  .lhf2               29.00:  Yield Point 
~Curve Information Block
#MNEM.UNIT                 API CODE     Curve Description
#---------               -----------    ---------------------------
 TIME.HHMMSS            00 000 000 000:  GT Time & Date
 GTDEPTH.m              00 000 000 000:  GT Depth
 GTPQH.psia             00 000 000 000:  GT HR Quartz Pressure
 GTTQ.degC              00 000 000 000:  GT Quartz Temperature
 GTTN.NONE              00 000 000 000:  GT Test Number
 GTET.sec               00 000 000 000:  GT Elapsed Test Time
 GTTVD.m                00 000 000 000:  GT True Vertical Depth
#Other Information
#
#WARRANTY: Halliburton will use its best efforts to furnish customers with 
#accurate information and interpretations that are part of, and incident to, the services 
#provided.  However, Halliburton cannot and does not warrant the accuracy 
#or correctness of such information and interpretations.  Under no circumstances should any 
#such information or interpretation be relied upon as the sole basis for any drilling, 
#completion, production, or financial decision or any procedure involving any risk to the 
#safety of any drilling venture, drilling rig or its crew or any other third party.  The 
#Customer has full responsibility for all drilling, completion and production operation.  
#Halliburton makes no representations or warranties, either expressed or 
#implied, including, but not limited to, the implied warranties of merchantability or fitness 
#for a particular purpose, with respect to the services rendered.  In no event will 
#Halliburton be liable for failure to obtain any particular results or for 
#any damages, including, but not limited to, indirect, special or consequential damages, 
#resulting from the use of any information or interpretation provided by Halliburton.
#
~A           TIME           GTDEPTH  GTPQH  GTTQ  GTTN   GTET   GTTVD  
# ...
   16:57:53.304.09-Sep-2020 5303.01 6333.93 74.66 19.00 339.16 2557.08
   16:57:53.504.09-Sep-2020 5303.01 6333.93 74.66 19.00 339.36 2557.08
   16:57:53.704.09-Sep-2020 5303.01 6324.31 74.66 19.00 339.56 2557.08
   16:57:53.904.09-Sep-2020 5303.01 6326.39 74.66 19.00 339.76 2557.08
   16:57:54.104.09-Sep-2020 5303.01 6325.88 74.66 19.00 339.96 2557.08
   16:57:54.304.09-Sep-2020 5303.01 6326.90 74.66 19.00 340.16 2557.08
   16:57:54.504.09-Sep-2020 5303.01 6326.90 74.66 19.00 340.36 2557.08
   16:57:54.704.09-Sep-2020 5303.01 6327.19 74.66 19.00 340.56 2557.08
   16:57:54.904.09-Sep-2020 5303.01 6325.30 74.66 19.00 340.76 2557.08
   16:57:55.105.09-Sep-2020 5303.01 6326.38 74.66 19.00 340.96 2557.08
   16:57:55.305.09-Sep-2020 5303.01 6327.11 74.66 19.00 341.16 2557.08
   16:57:55.505.09-Sep-2020 5303.01 6327.11 74.66 19.00 341.36 2557.08
   16:57:55.705.09-Sep-2020 5303.01 6329.17 74.66 19.00 341.56 2557.08
   16:57:55.905.09-Sep-2020 5303.01 6326.11 74.66 19.00 341.76 2557.08
   16:57:56.105.09-Sep-2020 5303.01 6327.49 74.66 19.00 341.96 2557.08
   16:57:56.305.09-Sep-2020 5303.01 6327.24 74.66 19.00 342.16 2557.08
   16:57:56.505.09-Sep-2020 5303.01 6327.24 74.66 19.00 342.36 2557.08
   16:57:56.705.09-Sep-2020 5303.01 6328.63 74.66 19.00 342.56 2557.08
   16:57:56.905.09-Sep-2020 5303.01 6328.49 74.66 19.00 342.76 2557.08
   16:57:57.105.09-Sep-2020 5303.01 6327.38 74.66 19.00 342.96 2557.08
   16:57:57.306.09-Sep-2020 5303.01 6327.05 74.66 19.00 343.16 2557.08
   16:57:57.506.09-Sep-2020 5303.01 6327.05 74.66 19.00 343.36 2557.08
   16:57:57.706.09-Sep-2020 5303.01 6326.88 74.66 19.00 343.56 2557.08
   16:57:57.906.09-Sep-2020 5303.01 6326.94 74.66 19.00 343.76 2557.08
   16:57:58.106.09-Sep-2020 5303.01 6327.02 74.66 19.00 343.96 2557.08
   16:57:58.306.09-Sep-2020 5303.01 6327.16 74.66 19.00 344.16 2557.08
   16:57:58.506.09-Sep-2020 5303.01 6327.16 74.66 19.00 344.37 2557.08
   16:57:58.706.09-Sep-2020 5303.01 6327.03 74.66 19.00 344.57 2557.08
   16:57:58.906.09-Sep-2020 5303.01 6326.90 74.66 19.00 344.77 2557.08
   16:57:59.106.09-Sep-2020 5303.01 6326.85 74.66 19.00 344.97 2557.08
   16:57:59.307.09-Sep-2020 5303.01 6334.34 74.66 19.00 345.17 2557.08
   16:57:59.507.09-Sep-2020 5303.01 6334.34 74.66 19.00 345.37 2557.08
   16:57:59.707.09-Sep-2020 5303.01 6325.94 74.66 19.00 345.57 2557.08
   16:57:59.907.09-Sep-2020 5303.01 6326.92 74.66 19.00 345.77 2557.08
   16:58:00.107.09-Sep-2020 5303.01 6326.79 74.66 19.00 345.97 2557.08
   16:58:00.307.09-Sep-2020 5303.01 6328.32 74.66 19.00 346.17 2557.08
   16:58:00.507.09-Sep-2020 5303.01 6328.32 74.66 19.00 346.37 2557.08
   16:58:00.707.09-Sep-2020 5303.01 6326.37 74.66 19.00 346.57 2557.08
   16:58:00.907.09-Sep-2020 5303.01 6325.73 74.66 19.00 346.77 2557.08
   16:58:01.107.09-Sep-2020 5303.01 6325.46 74.66 19.00 346.97 2557.08
   16:58:01.307.09-Sep-2020 5303.01 6325.96 74.66 19.00 347.17 2557.08
   16:58:01.508.09-Sep-2020 5303.01 6325.96 74.66 19.00 347.37 2557.08
   16:58:01.708.09-Sep-2020 5303.01 6325.84 74.66 19.00 347.57 2557.08
   16:58:01.908.09-Sep-2020 5303.01 6325.38 74.66 19.00 347.77 2557.08
   16:58:02.108.09-Sep-2020 5303.01 6324.85 74.66 19.00 347.97 2557.08
   16:58:02.308.09-Sep-2020 5303.01 6324.86 74.66 19.00 348.17 2557.08
   16:58:02.508.09-Sep-2020 5303.01 6324.86 74.66 19.00 348.37 2557.08
   16:58:02.708.09-Sep-2020 5303.01 6332.54 74.66 19.00 348.57 2557.08
   16:58:02.908.09-Sep-2020 5303.01 6325.18 74.66 19.00 348.77 2557.08
   16:58:03.108.09-Sep-2020 5303.01 6324.50 74.66 19.00 348.97 2557.08
   16:58:03.308.09-Sep-2020 5303.01 6325.28 74.66 19.00 349.17 2557.08
   16:58:03.509.09-Sep-2020 5303.01 6325.28 74.66 19.00 349.37 2557.08
   16:58:03.709.09-Sep-2020 5303.01 6326.92 74.66 19.00 349.57 2557.08
   16:58:03.909.09-Sep-2020 5303.01 6332.64 74.66 19.00 349.77 2557.08
   16:58:04.109.09-Sep-2020 5303.01 6325.80 74.66 19.00 349.97 2557.08
   16:58:04.309.09-Sep-2020 5303.01 6325.45 74.66 19.00 350.17 2557.08
   16:58:04.509.09-Sep-2020 5303.01 6325.45 74.66 19.00 350.37 2557.08
   16:58:04.709.09-Sep-2020 5303.01 6325.85 74.66 19.00 350.57 2557.08
   16:58:04.909.09-Sep-2020 5303.01 6326.67 74.66 19.00 350.77 2557.08
   16:58:05.109.09-Sep-2020 5303.01 6327.53 74.66 19.00 350.97 2557.08
   16:58:05.309.09-Sep-2020 5303.01 6332.00 74.66 19.00 351.17 2557.08
   16:58:05.509.09-Sep-2020 5303.01 6332.00 74.66 19.00 351.37 2557.08
   16:58:05.710.09-Sep-2020 5303.01 6325.47 74.66 19.00 351.57 2557.08
   16:58:05.910.09-Sep-2020 5303.01 6325.44 74.66 19.00 351.77 2557.08
   16:58:06.110.09-Sep-2020 5303.01 6326.38 74.66 19.00 351.97 2557.08
   16:58:06.310.09-Sep-2020 5303.01 6338.87 74.66 19.00 352.17 2557.08
   16:58:06.510.09-Sep-2020 5303.01 6338.87 74.66 19.00 352.37 2557.08
   16:58:06.710.09-Sep-2020 5303.01 6324.32 74.66 19.00 352.57 2557.08
   16:58:06.910.09-Sep-2020 5303.01 6326.53 74.66 19.00 352.77 2557.08
   16:58:07.110.09-Sep-2020 5303.01 6326.48 74.66 19.00 352.97 2557.08
   16:58:07.310.09-Sep-2020 5303.01 6328.62 74.66 19.00 353.17 2557.08
   16:58:07.510.09-Sep-2020 5303.01 6328.62 74.66 19.00 353.37 2557.08
   16:58:07.711.09-Sep-2020 5303.01 6327.62 74.66 19.00 353.57 2557.08
   16:58:07.911.09-Sep-2020 5303.01 6326.67 74.66 19.00 353.77 2557.08
   16:58:08.111.09-Sep-2020 5303.01 6326.35 74.66 19.00 353.97 2557.08
   16:58:08.311.09-Sep-2020 5303.01 6327.84 74.66 19.00 354.17 2557.08
   16:58:08.511.09-Sep-2020 5303.01 6327.84 74.66 19.00 354.37 2557.08
   16:58:08.711.09-Sep-2020 5303.01 6328.41 74.66 19.00 354.57 2557.08
   16:58:08.911.09-Sep-2020 5303.01 6326.91 74.66 19.00 354.77 2557.08
   16:58:09.111.09-Sep-2020 5303.01 6326.69 74.66 19.00 354.97 2557.08
   16:58:09.311.09-Sep-2020 5303.01 6326.47 74.66 19.00 355.17 2557.08
   16:58:09.511.09-Sep-2020 5303.01 6326.47 74.66 19.00 355.37 2557.08
   16:58:09.712.09-Sep-2020 5303.01 6326.31 74.66 19.00 355.57 2557.08
   16:58:09.912.09-Sep-2020 5303.01 6326.36 74.66 19.00 355.77 2557.08
   16:58:10.112.09-Sep-2020 5303.01 6326.58 74.66 19.00 355.97 2557.08
   16:58:10.312.09-Sep-2020 5303.01 6326.55 74.66 19.00 356.17 2557.08
   16:58:10.512.09-Sep-2020 5303.01 6326.55 74.66 19.00 356.37 2557.08
   16:58:10.712.09-Sep-2020 5303.01 6326.44 74.66 19.00 356.57 2557.08
   16:58:10.912.09-Sep-2020 5303.01 6326.43 74.66 19.00 356.77 2557.08
   16:58:11.112.09-Sep-2020 5303.01 6337.42 74.66 19.00 356.97 2557.08
   16:58:11.312.09-Sep-2020 5303.01 6323.48 74.66 19.00 357.17 2557.08
   16:58:11.512.09-Sep-2020 5303.01 6323.48 74.66 19.00 357.37 2557.08
   16:58:11.712.09-Sep-2020 5303.01 6326.97 74.66 19.00 357.57 2557.08
   16:58:11.913.09-Sep-2020 5303.01 6326.54 74.66 19.00 357.77 2557.08
   16:58:12.113.09-Sep-2020 5303.01 6327.75 74.66 19.00 357.97 2557.08
   16:58:12.313.09-Sep-2020 5303.01 6328.40 74.66 19.00 358.17 2557.08
   16:58:12.513.09-Sep-2020 5303.01 6328.40 74.66 19.00 358.37 2557.08
   16:58:12.713.09-Sep-2020 5303.01 6325.69 74.66 19.00 358.57 2557.08
   16:58:12.913.09-Sep-2020 5303.01 6325.65 74.66 19.00 358.77 2557.08
   16:58:13.113.09-Sep-2020 5303.01 6326.08 74.66 19.00 358.97 2557.08
   16:58:13.313.09-Sep-2020 5303.01 6325.81 74.66 19.00 359.17 2557.08
   16:58:13.513.09-Sep-2020 5303.01 6325.81 74.66 19.00 359.37 2557.08
   16:58:13.713.09-Sep-2020 5303.01 6325.63 74.66 19.00 359.57 2557.08
   16:58:13.914.09-Sep-2020 5303.01 6325.14 74.66 19.00 359.77 2557.08
   16:58:14.114.09-Sep-2020 5303.01 6325.14 74.66 19.00 359.97 2557.08
   16:58:14.314.09-Sep-2020 5303.01 6324.99 74.66 19.00 360.17 2557.08
   16:58:14.514.09-Sep-2020 5303.01 6324.99 74.66 19.00 360.37 2557.08
   16:58:14.714.09-Sep-2020 5303.01 6322.13 74.66 19.00 360.57 2557.08
   16:58:14.914.09-Sep-2020 5303.01 6323.74 74.66 19.00 360.77 2557.08
   16:58:15.114.09-Sep-2020 5303.01 6325.71 74.66 19.00 360.97 2557.08
   16:58:15.314.09-Sep-2020 5303.01 6325.00 74.66 19.00 361.17 2557.08
   16:58:15.514.09-Sep-2020 5303.01 6325.00 74.66 19.00 361.37 2557.08
   16:58:15.714.09-Sep-2020 5303.01 6334.93 74.66 19.00 361.57 2557.08
