~Version Information
 VERS.                  2.0:   CWLS log ASCII Standard -VERSION 2.0
 WRAP.                   NO:   One line per depth step
~Well Information Block
#MNEM.UNIT     VALUE/NAME     DESCRIPTION
#---------     -----------    ---------------------------
 STRT.S             07:31:38 09-Sep-20: START TIME 07:31:38 09-Sep-20
 STOP.S             07:38:38 09-Sep-20: STOP TIME  07:38:38 09-Sep-20
 STEP.S                   0.00: STEP TIME
 NULL.                 -999.25: NULL VALUE
 MDS .        Operator Entered:  MAG DATA SOURCE
 PDAT.          Mean Sea Level:  PERMANENT DATUM
 DCON.         Sperry Drilling:  DIRECTNL CONTR
 RIG .              West Azeri:  RIG NAME
 WELL.           C40 (Slot 20):  WELL NAME
 SRVC.     Turan Drilling Engineering:  CONTRACTOR
 FLD .                     ACG:  FIELD NAME
 CTRY.              Azerbaijan:  COUNTRY NAME
 PROV.                    Baku:  PROVINCE
 STAT.                    Baku:  STATE NAME
 REGN.                   EESSA:  REGION
 BASE.              Azerbaijan:  LOGGING EQUIPMENT BASE LOCATION
 COMP.     BP Exploration (Caspian Sea) Ltd:  COMPANY
 WTYP.                Deviated:  WELL TYPE
 SON .        AZ-XX-0906344804:  JOB NUMBER
 FTOP.          Formation Tops:  FORM TOPS DESC
 ILTD.               Lithology:  INTERP LTH DESC
 SVYD.                  Survey:  SURVEY DESC
 DMOD.             Drill Model:  DRILL MOD DESC
 HPTY.       Minimum Curvature:  HOLE POS TYPE
 NREF.                    Grid:  NORTH REFERENCE
 SPUD.               01-Jan-20:  SPUD DATE
 DATE.      00.59.44 15-Sep-20:  END TIME
 STIM.      12.00.00 12-Jun-20:  START TIME
 DMF .             Drill Floor:  DRILL MEAS FROM
 DFST.                        :  DIST FSL TEXT
 DFWT.                        :  DIST FWL TEXT
 API .                        :  API NUMBER
 CNTY.                        :  COUNTY
 UWI .                        :  UNIQUE WELL IDENTIFIER
 LOC .                        :  LOCATION
 LMF .             Drill Floor:  LOG MEASURED FROM
 VSNS.m                   2.88:  VERT SEC N/S
 VSEW.m                  -3.84:  VERT SEC E/W
 AGAP.m                  43.42:  AIR GAP
 APD .m                  43.42:  DEPTH ABOVE PD
 WDMS.m                 118.27:  WD ELEV
 EGL .m                   0.00:  GROUND ELEVATION
 EPD .m                   0.00:  ELEVATION
 AZTC.deg                 6.23:  AZM TOTAL CORR
 GRDC.deg                 0.20:  GRID CORRECTION
 MDEC.deg                 6.43:  MAGNETIC DECL
 MDIP.deg                59.49:  MAGNETIC DIP
 MFLD.nT              50277.00:  MAGNETIC FIELD
 GVFD.g                   1.00:  GRAVITY FIELD
 VSDR.deg               173.20:  VERT SEC DIRECT
 TDD .m                5790.01:  TOTAL DEPTH (DRILLER)
 SDEP.m                5231.01:  START DEPTH
 DFSL.m                   0.00:  DISTANCE FSL
 DFWL.m                   0.00:  DISTANCE FWL
 UTMY.m             4435808.83:  UTM Y
 UTMX.m              526266.40:  UTM X
 WHEW.m                  -3.84:  WELL HEAD E/W
 WHNS.m                   2.88:  WELL HEAD N/S
 LONG.deg                51.31:  LONGITUDE
 LATI.deg                40.06:  LATITUDE
 TVDS.m                  43.42:  TVDSS CORRECTN
 DEP .m                 430.08:  DEPTH
 EKB .m                  43.42:  KB ELEVATION
 EDF .m                  43.42:  DF ELEVATION
 TDL .m                 559.00:  TOTAL DEPTH (LOGGER)
 MAGU.                 1849381:  MAGUTM CHECKSUM
 VSC .                       0:  VS TO CLOSURE
~Parameter Information Block
#MNEM.UNIT       Value        Description
#---------     -----------    ---------------------------
 AV  .mps                 4.87:  Ann Velocity 
 AVMX.mps                 7.08:  Max Ann Veloc 
 AZIF.deg               108.87:  Azm, Final 
 BHAT.                  Rotary:  BHA Type 
 BROT.°/30m               0.35:  Build Rotating 
 BS  .in                  8.50:  Bit Size 
 BSZ .in                  8.50:  Bit Size 
 BTPL.psig              360.00:  Bit Press Loss 
 CABU.                     Yes:  Customer Abuse 
 COMM.                     |L:  Run Comments 1 
 TCS .hr                106.24:  Time Ciculation Ended 
 CV  .mps                 1.77:  Crit Velocity 
 CVMX.mps                 2.03:  Max Crit Veloc 
 DD1 .         Aykhan Agagulov:  Direct Drillr 1 
 DD2 .            Nonso Okofor:  Direct Drillr 2 
 DDSV.               Geo-Pilot:  DD Service 
 DEFF.%                  98.00:  % Det Eff 
 DLRX.°/30m               0.50:  Dogleg Rot Max 
 DLSO.°/30m               0.40:  Dogleg Oriented 
 DLSX.°/30m               0.94:  Dogleg Str Max 
 DRET.      20.30.00 08-Sep-20:  Drill End Time 
 DRST.      22.15.00 06-Sep-20:  Drill Start Tim 
 DTIM.hr                 31.31:  Time Drilling 
 EDEP.m                5790.01:  End Depth 
 ENG1.           Amrah Tahirov:  Engineer 1 
 ENG2.         Dair Mahammadov:  Engineer 2 
 ENG3.           Emil Huseynov:  Engineer 3 
 ETIM.      04.01.04 12-Sep-20:  End Time 
 FLOI.gpm               450.00:  Flow In 
 FLON.gpm               450.00:  Flow In Min 
 FLOS.cptm                2.00:  Fluid Loss 
 FLOX.gpm               450.00:  Flow In Max 
 FTRO.       Formation Presure:  FTWD Run Obj 
 HFLO.                      No:  High Flow 
 HPRE.                      No:  High Pressure 
 HTEM.                      No:  High Temp 
 HYDO.m                   1.80:  Hydro Offset 
 IFIN.deg                72.03:  Inc, Final 
 IMAX.deg                73.72:  Inc Max 
 IMIN.deg                70.94:  Inc Min 
 IMND.m                5508.52:  Inc Min Depth 
 IMXD.m                5253.60:  Inc Max Depth 
 JARR.                      No:  Jarring 
 LETM.      20.30.00 08-Sep-20:  Log End Time 
 LOST.hr                     0:  Lost Rig Time 
 LSTM.      22.15.00 06-Sep-20:  Log Start Time 
 MDCL.ppm             36000.00:  Mud Chlorides 
 MDES.     Inversion Oil/Synthetic:  Mud Desc 
 DFD .sg                  1.44:  Mud Density 
 MDMN.sg                  1.44:  Dens Mud Min 
 MDMX.sg                  1.57:  Dens Mud Max 
 MOIL.                      70:  Run Mud Oil % 
 MOWR.                   70:30:  Run Mud OWR 
 MSND.                       0:  Run Mud Sand % 
 MSOL.                      21:  Run Mud Solids% 
 DFV .spqt               68.00:  Mud Viscosity 
 MWOD.in                  6.75:  MWD Tool OD 
 MWSI.                     Yes:  Serv Intrp, MWD 
 OTIM.hr                174.84:  Time Operating 
 PCON.           Look Like New:  Pad Condition 
 PMAX.psia            10616.93:  Press Op, Max 
 PV  .cP                 50.00:  Mud PV 
 RUN .                     700:  Run Number 
 ROPA.m/hr               14.24:  ROP Avg 
 ROPN.m/hr               10.00:  ROP Min 
 ROPX.m/hr               32.00:  ROP Max 
 RPMA.rpm               120.90:  RPM Surface Avg 
 RPMN.rpm               120.00:  RPM Surface Min 
 RPMX.rpm               140.00:  RPM Surface Max 
 RRUN.                    0700:  Rig Run Number 
 RTIM.hr                  3.20:  Time Reaming 
 SAZI.deg               109.99:  Azm, Start 
 SDEP.m                5231.01:  Start Depth 
 SIDD.                      No:  Serv Intrp, DD 
 SINC.deg                73.72:  Inc, Start 
 SPPA.psig             3051.00:  SPP Avg 
 SPPN.psig             2950.00:  SPP Min 
 SPPX.psig             3250.00:  SPP Max 
 STIM.      08.00.00 05-Sep-20:  Start Time 
 SVCS.                 DD, MWD:  Services 
 SVER.                    9.20:  Sperry Version 
 TDAT.m                 559.00:  Tot Depth Attmp 
 TDDF.                      No:  Trip for DD 
 TDLG.m                 559.00:  Tot Depth Loggd 
 TFF .                      No:  Trip for Fail 
 TQAA.f-kp               26.49:  Torque Abs Avg 
 TQAN.f-kp               25.00:  Torque Abs Min 
 TQAX.f-kp               27.00:  Torque Abs Max 
 TRRT.°/30m               1.50:  Turn Rotating 
 MRT .                    HCIM:  Maximum Recorded Temperature 
 TTMX.degC               90.20:  Max Tool Temp 
 VS01.                90542671:  Virtual Str1 SN 
 VS02.                90545185:  Virtual Str2 SN 
 VS03.                90602015:  Virtual Str3 SN 
 VS04.                90515230:  Virtual Str4 SN 
 WBMN.klb                 5.00:  WOB Min 
 WOBA.klb                14.79:  WOB Avg 
 WOBX.klb                20.00:  WOB Max 
 YP  .lhf2               29.00:  Yield Point 
~Curve Information Block
#MNEM.UNIT                 API CODE     Curve Description
#---------               -----------    ---------------------------
 TIME.HHMMSS            00 000 000 000:  GT Time & Date
 GTDEPTH.m              00 000 000 000:  GT Depth
 GTPQH.psia             00 000 000 000:  GT HR Quartz Pressure
 GTTQ.degC              00 000 000 000:  GT Quartz Temperature
 GTTN.NONE              00 000 000 000:  GT Test Number
 GTET.sec               00 000 000 000:  GT Elapsed Test Time
 GTTVD.m                00 000 000 000:  GT True Vertical Depth
#Other Information
#
#WARRANTY: Halliburton will use its best efforts to furnish customers with 
#accurate information and interpretations that are part of, and incident to, the services 
#provided.  However, Halliburton cannot and does not warrant the accuracy 
#or correctness of such information and interpretations.  Under no circumstances should any 
#such information or interpretation be relied upon as the sole basis for any drilling, 
#completion, production, or financial decision or any procedure involving any risk to the 
#safety of any drilling venture, drilling rig or its crew or any other third party.  The 
#Customer has full responsibility for all drilling, completion and production operation.  
#Halliburton makes no representations or warranties, either expressed or 
#implied, including, but not limited to, the implied warranties of merchantability or fitness 
#for a particular purpose, with respect to the services rendered.  In no event will 
#Halliburton be liable for failure to obtain any particular results or for 
#any damages, including, but not limited to, indirect, special or consequential damages, 
#resulting from the use of any information or interpretation provided by Halliburton.
#
~A           TIME           GTDEPTH  GTPQH  GTTQ  GTTN  GTET   GTTVD  
# ...
   07:37:46.438.09-Sep-2020 5569.01 6501.59 78.54 4.00 368.15 2640.81
   07:37:46.638.09-Sep-2020 5569.01 6501.59 78.54 4.00 368.35 2640.81
   07:37:46.838.09-Sep-2020 5569.01 6499.87 78.54 4.00 368.55 2640.81
   07:37:47.038.09-Sep-2020 5569.01 6506.74 78.55 4.00 368.75 2640.81
   07:37:47.238.09-Sep-2020 5569.01 6496.08 78.55 4.00 368.95 2640.81
   07:37:47.438.09-Sep-2020 5569.01 6497.08 78.55 4.00 369.15 2640.81
   07:37:47.638.09-Sep-2020 5569.01 6497.08 78.55 4.00 369.35 2640.81
   07:37:47.839.09-Sep-2020 5569.01 6498.80 78.56 4.00 369.55 2640.81
   07:37:48.039.09-Sep-2020 5569.01 6500.50 78.56 4.00 369.75 2640.81
   07:37:48.239.09-Sep-2020 5569.01 6498.19 78.56 4.00 369.95 2640.81
   07:37:48.439.09-Sep-2020 5569.01 6507.06 78.56 4.00 370.15 2640.81
   07:37:48.639.09-Sep-2020 5569.01 6507.06 78.56 4.00 370.35 2640.81
   07:37:48.839.09-Sep-2020 5569.01 6501.63 78.57 4.00 370.55 2640.81
   07:37:49.039.09-Sep-2020 5569.01 6499.24 78.57 4.00 370.75 2640.81
   07:37:49.239.09-Sep-2020 5569.01 6500.81 78.57 4.00 370.95 2640.81
   07:37:49.439.09-Sep-2020 5569.01 6499.43 78.57 4.00 371.15 2640.81
   07:37:49.639.09-Sep-2020 5569.01 6499.43 78.57 4.00 371.35 2640.81
   07:37:49.839.09-Sep-2020 5569.01 6503.94 78.57 4.00 371.55 2640.81
   07:37:50.039.09-Sep-2020 5569.01 6498.73 78.58 4.00 371.75 2640.81
   07:37:50.240.09-Sep-2020 5569.01 6504.12 78.58 4.00 371.95 2640.81
   07:37:50.440.09-Sep-2020 5569.01 6500.00 78.58 4.00 372.15 2640.81
   07:37:50.640.09-Sep-2020 5569.01 6500.00 78.58 4.00 372.35 2640.81
   07:37:50.840.09-Sep-2020 5569.01 6496.60 78.58 4.00 372.55 2640.81
   07:37:51.040.09-Sep-2020 5569.01 6500.59 78.58 4.00 372.75 2640.81
   07:37:51.240.09-Sep-2020 5569.01 6504.86 78.58 4.00 372.95 2640.81
   07:37:51.440.09-Sep-2020 5569.01 6501.16 78.58 4.00 373.15 2640.81
   07:37:51.640.09-Sep-2020 5569.01 6501.16 78.58 4.00 373.35 2640.81
   07:37:51.840.09-Sep-2020 5569.01 6500.25 78.59 4.00 373.55 2640.81
   07:37:52.040.09-Sep-2020 5569.01 6502.87 78.59 4.00 373.75 2640.81
   07:37:52.240.09-Sep-2020 5569.01 6501.08 78.59 4.00 373.95 2640.81
   07:37:52.440.09-Sep-2020 5569.01 6501.23 78.59 4.00 374.15 2640.81
   07:37:52.640.09-Sep-2020 5569.01 6501.23 78.59 4.00 374.35 2640.81
   07:37:52.841.09-Sep-2020 5569.01 6501.91 78.59 4.00 374.55 2640.81
   07:37:53.041.09-Sep-2020 5569.01 6501.58 78.59 4.00 374.75 2640.81
   07:37:53.241.09-Sep-2020 5569.01 6501.18 78.59 4.00 374.95 2640.81
   07:37:53.441.09-Sep-2020 5569.01 6501.57 78.59 4.00 375.15 2640.81
   07:37:53.641.09-Sep-2020 5569.01 6501.57 78.59 4.00 375.35 2640.81
   07:37:53.841.09-Sep-2020 5569.01 6501.60 78.59 4.00 375.55 2640.81
   07:37:54.041.09-Sep-2020 5569.01 6502.00 78.59 4.00 375.75 2640.81
   07:37:54.241.09-Sep-2020 5569.01 6502.09 78.59 4.00 375.95 2640.81
   07:37:54.441.09-Sep-2020 5569.01 6508.65 78.59 4.00 376.15 2640.81
   07:37:54.641.09-Sep-2020 5569.01 6508.65 78.59 4.00 376.35 2640.81
   07:37:54.841.09-Sep-2020 5569.01 6504.50 78.59 4.00 376.55 2640.81
   07:37:55.041.09-Sep-2020 5569.01 6501.74 78.59 4.00 376.75 2640.81
   07:37:55.242.09-Sep-2020 5569.01 6502.96 78.59 4.00 376.95 2640.81
   07:37:55.442.09-Sep-2020 5569.01 6501.78 78.59 4.00 377.15 2640.81
   07:37:55.642.09-Sep-2020 5569.01 6501.78 78.59 4.00 377.35 2640.81
   07:37:55.842.09-Sep-2020 5569.01 6502.86 78.59 4.00 377.55 2640.81
   07:37:56.042.09-Sep-2020 5569.01 6501.55 78.59 4.00 377.75 2640.81
   07:37:56.242.09-Sep-2020 5569.01 6501.32 78.59 4.00 377.95 2640.81
   07:37:56.442.09-Sep-2020 5569.01 6500.70 78.59 4.00 378.15 2640.81
   07:37:56.642.09-Sep-2020 5569.01 6500.70 78.59 4.00 378.35 2640.81
   07:37:56.842.09-Sep-2020 5569.01 6499.73 78.59 4.00 378.55 2640.81
   07:37:57.042.09-Sep-2020 5569.01 6499.69 78.59 4.00 378.75 2640.81
   07:37:57.242.09-Sep-2020 5569.01 6500.19 78.59 4.00 378.95 2640.81
   07:37:57.442.09-Sep-2020 5569.01 6500.14 78.59 4.00 379.16 2640.81
   07:37:57.643.09-Sep-2020 5569.01 6500.14 78.59 4.00 379.36 2640.81
   07:37:57.843.09-Sep-2020 5569.01 6509.81 78.59 4.00 379.56 2640.81
   07:37:58.043.09-Sep-2020 5569.01 6494.04 78.59 4.00 379.76 2640.81
   07:37:58.243.09-Sep-2020 5569.01 6498.44 78.59 4.00 379.96 2640.81
   07:37:58.443.09-Sep-2020 5569.01 6501.24 78.59 4.00 380.16 2640.81
   07:37:58.643.09-Sep-2020 5569.01 6501.24 78.59 4.00 380.36 2640.81
   07:37:58.843.09-Sep-2020 5569.01 6499.93 78.59 4.00 380.56 2640.81
   07:37:59.043.09-Sep-2020 5569.01 6504.80 78.59 4.00 380.76 2640.81
   07:37:59.243.09-Sep-2020 5569.01 6499.00 78.59 4.00 380.96 2640.81
   07:37:59.443.09-Sep-2020 5569.01 6501.29 78.59 4.00 381.16 2640.81
   07:37:59.643.09-Sep-2020 5569.01 6501.29 78.59 4.00 381.36 2640.81
   07:37:59.843.09-Sep-2020 5569.01 6500.96 78.59 4.00 381.56 2640.81
   07:38:00.044.09-Sep-2020 5569.01 6506.33 78.59 4.00 381.76 2640.81
   07:38:00.244.09-Sep-2020 5569.01 6497.92 78.59 4.00 381.96 2640.81
   07:38:00.444.09-Sep-2020 5569.01 6503.07 78.59 4.00 382.16 2640.81
   07:38:00.644.09-Sep-2020 5569.01 6503.07 78.59 4.00 382.36 2640.81
   07:38:00.844.09-Sep-2020 5569.01 6500.50 78.59 4.00 382.56 2640.81
   07:38:01.044.09-Sep-2020 5569.01 6499.63 78.59 4.00 382.76 2640.81
   07:38:01.244.09-Sep-2020 5569.01 6507.69 78.59 4.00 382.96 2640.81
   07:38:01.444.09-Sep-2020 5569.01 6497.17 78.59 4.00 383.16 2640.81
   07:38:01.644.09-Sep-2020 5569.01 6497.17 78.59 4.00 383.36 2640.81
   07:38:01.844.09-Sep-2020 5569.01 6502.94 78.59 4.00 383.56 2640.81
   07:38:02.044.09-Sep-2020 5569.01 6499.89 78.59 4.00 383.76 2640.81
   07:38:02.244.09-Sep-2020 5569.01 6500.99 78.59 4.00 383.96 2640.81
   07:38:02.444.09-Sep-2020 5569.01 6498.70 78.59 4.00 384.16 2640.81
   07:38:02.645.09-Sep-2020 5569.01 6498.70 78.59 4.00 384.36 2640.81
   07:38:02.845.09-Sep-2020 5569.01 6496.79 78.59 4.00 384.56 2640.81
   07:38:03.045.09-Sep-2020 5569.01 6498.35 78.59 4.00 384.76 2640.81
   07:38:03.245.09-Sep-2020 5569.01 6503.96 78.58 4.00 384.96 2640.81
   07:38:03.445.09-Sep-2020 5569.01 6500.91 78.58 4.00 385.16 2640.81
   07:38:03.645.09-Sep-2020 5569.01 6500.91 78.58 4.00 385.36 2640.81
   07:38:03.845.09-Sep-2020 5569.01 6499.41 78.58 4.00 385.56 2640.81
   07:38:04.045.09-Sep-2020 5569.01 6502.40 78.58 4.00 385.76 2640.81
   07:38:04.245.09-Sep-2020 5569.01 6500.69 78.58 4.00 385.96 2640.81
   07:38:04.445.09-Sep-2020 5569.01 6500.72 78.58 4.00 386.16 2640.81
   07:38:04.645.09-Sep-2020 5569.01 6500.72 78.58 4.00 386.36 2640.81
   07:38:04.845.09-Sep-2020 5569.01 6500.98 78.58 4.00 386.56 2640.81
   07:38:05.046.09-Sep-2020 5569.01 6500.52 78.58 4.00 386.76 2640.81
   07:38:05.246.09-Sep-2020 5569.01 6500.52 78.58 4.00 386.96 2640.81
   07:38:05.446.09-Sep-2020 5569.01 6500.67 78.58 4.00 387.16 2640.81
   07:38:05.646.09-Sep-2020 5569.01 6500.67 78.58 4.00 387.36 2640.81
   07:38:05.846.09-Sep-2020 5569.01 6500.92 78.58 4.00 387.56 2640.81
   07:38:06.046.09-Sep-2020 5569.01 6501.10 78.58 4.00 387.76 2640.81
   07:38:06.246.09-Sep-2020 5569.01 6501.01 78.58 4.00 387.96 2640.81
   07:38:06.446.09-Sep-2020 5569.01 6507.86 78.58 4.00 388.16 2640.81
   07:38:06.646.09-Sep-2020 5569.01 6507.86 78.58 4.00 388.36 2640.81
   07:38:06.846.09-Sep-2020 5569.01 6503.45 78.58 4.00 388.56 2640.81
   07:38:07.046.09-Sep-2020 5569.01 6501.16 78.58 4.00 388.76 2640.81
   07:38:07.246.09-Sep-2020 5569.01 6501.92 78.58 4.00 388.96 2640.81
   07:38:07.447.09-Sep-2020 5569.01 6500.76 78.58 4.00 389.16 2640.81
   07:38:07.647.09-Sep-2020 5569.01 6500.76 78.58 4.00 389.36 2640.81
   07:38:07.847.09-Sep-2020 5569.01 6501.66 78.58 4.00 389.56 2640.81
   07:38:08.047.09-Sep-2020 5569.01 6500.44 78.58 4.00 389.76 2640.81
   07:38:08.247.09-Sep-2020 5569.01 6500.17 78.58 4.00 389.96 2640.81
   07:38:08.447.09-Sep-2020 5569.01 6499.49 78.58 4.00 390.16 2640.81
   07:38:08.647.09-Sep-2020 5569.01 6499.49 78.58 4.00 390.36 2640.81
   07:38:08.847.09-Sep-2020 5569.01 6498.81 78.58 4.00 390.56 2640.81
   07:38:09.047.09-Sep-2020 5569.01 6499.02 78.58 4.00 390.76 2640.81
   07:38:09.247.09-Sep-2020 5569.01 6499.26 78.58 4.00 390.96 2640.81
