~Version Information
 VERS.                  2.0:   CWLS log ASCII Standard -VERSION 2.0
 WRAP.                   NO:   One line per depth step
~Well Information Block
#MNEM.UNIT     VALUE/NAME     DESCRIPTION
#---------     -----------    ---------------------------
 STRT.S             05:36:14 09-Sep-20: START TIME 05:36:14 09-Sep-20
 STOP.S             05:43:10 09-Sep-20: STOP TIME  05:43:10 09-Sep-20
 STEP.S                   0.00: STEP TIME
 NULL.                 -999.25: NULL VALUE
 MDS .        Operator Entered:  MAG DATA SOURCE
 PDAT.          Mean Sea Level:  PERMANENT DATUM
 DCON.         Sperry Drilling:  DIRECTNL CONTR
 RIG .              West Azeri:  RIG NAME
 WELL.           C40 (Slot 20):  WELL NAME
 SRVC.     Turan Drilling Engineering:  CONTRACTOR
 FLD .                     ACG:  FIELD NAME
 CTRY.              Azerbaijan:  COUNTRY NAME
 PROV.                    Baku:  PROVINCE
 STAT.                    Baku:  STATE NAME
 REGN.                   EESSA:  REGION
 BASE.              Azerbaijan:  LOGGING EQUIPMENT BASE LOCATION
 COMP.     BP Exploration (Caspian Sea) Ltd:  COMPANY
 WTYP.                Deviated:  WELL TYPE
 SON .        AZ-XX-0906344804:  JOB NUMBER
 FTOP.          Formation Tops:  FORM TOPS DESC
 ILTD.               Lithology:  INTERP LTH DESC
 SVYD.                  Survey:  SURVEY DESC
 DMOD.             Drill Model:  DRILL MOD DESC
 HPTY.       Minimum Curvature:  HOLE POS TYPE
 NREF.                    Grid:  NORTH REFERENCE
 SPUD.               01-Jan-20:  SPUD DATE
 DATE.      00.59.44 15-Sep-20:  END TIME
 STIM.      12.00.00 12-Jun-20:  START TIME
 DMF .             Drill Floor:  DRILL MEAS FROM
 DFST.                        :  DIST FSL TEXT
 DFWT.                        :  DIST FWL TEXT
 API .                        :  API NUMBER
 CNTY.                        :  COUNTY
 UWI .                        :  UNIQUE WELL IDENTIFIER
 LOC .                        :  LOCATION
 LMF .             Drill Floor:  LOG MEASURED FROM
 VSNS.m                   2.88:  VERT SEC N/S
 VSEW.m                  -3.84:  VERT SEC E/W
 AGAP.m                  43.42:  AIR GAP
 APD .m                  43.42:  DEPTH ABOVE PD
 WDMS.m                 118.27:  WD ELEV
 EGL .m                   0.00:  GROUND ELEVATION
 EPD .m                   0.00:  ELEVATION
 AZTC.deg                 6.23:  AZM TOTAL CORR
 GRDC.deg                 0.20:  GRID CORRECTION
 MDEC.deg                 6.43:  MAGNETIC DECL
 MDIP.deg                59.49:  MAGNETIC DIP
 MFLD.nT              50277.00:  MAGNETIC FIELD
 GVFD.g                   1.00:  GRAVITY FIELD
 VSDR.deg               173.20:  VERT SEC DIRECT
 TDD .m                5790.01:  TOTAL DEPTH (DRILLER)
 SDEP.m                5231.01:  START DEPTH
 DFSL.m                   0.00:  DISTANCE FSL
 DFWL.m                   0.00:  DISTANCE FWL
 UTMY.m             4435808.83:  UTM Y
 UTMX.m              526266.40:  UTM X
 WHEW.m                  -3.84:  WELL HEAD E/W
 WHNS.m                   2.88:  WELL HEAD N/S
 LONG.deg                51.31:  LONGITUDE
 LATI.deg                40.06:  LATITUDE
 TVDS.m                  43.42:  TVDSS CORRECTN
 DEP .m                 430.08:  DEPTH
 EKB .m                  43.42:  KB ELEVATION
 EDF .m                  43.42:  DF ELEVATION
 TDL .m                 559.00:  TOTAL DEPTH (LOGGER)
 MAGU.                 1849381:  MAGUTM CHECKSUM
 VSC .                       0:  VS TO CLOSURE
~Parameter Information Block
#MNEM.UNIT       Value        Description
#---------     -----------    ---------------------------
 AV  .mps                 4.87:  Ann Velocity 
 AVMX.mps                 7.08:  Max Ann Veloc 
 AZIF.deg               108.87:  Azm, Final 
 BHAT.                  Rotary:  BHA Type 
 BROT.°/30m               0.35:  Build Rotating 
 BS  .in                  8.50:  Bit Size 
 BSZ .in                  8.50:  Bit Size 
 BTPL.psig              360.00:  Bit Press Loss 
 CABU.                     Yes:  Customer Abuse 
 COMM.                     ”£|:  Run Comments 1 
 TCS .hr                106.24:  Time Ciculation Ended 
 CV  .mps                 1.77:  Crit Velocity 
 CVMX.mps                 2.03:  Max Crit Veloc 
 DD1 .         Aykhan Agagulov:  Direct Drillr 1 
 DD2 .            Nonso Okofor:  Direct Drillr 2 
 DDSV.               Geo-Pilot:  DD Service 
 DEFF.%                  98.00:  % Det Eff 
 DLRX.°/30m               0.50:  Dogleg Rot Max 
 DLSO.°/30m               0.40:  Dogleg Oriented 
 DLSX.°/30m               0.94:  Dogleg Str Max 
 DRET.      20.30.00 08-Sep-20:  Drill End Time 
 DRST.      22.15.00 06-Sep-20:  Drill Start Tim 
 DTIM.hr                 31.31:  Time Drilling 
 EDEP.m                5790.01:  End Depth 
 ENG1.           Amrah Tahirov:  Engineer 1 
 ENG2.         Dair Mahammadov:  Engineer 2 
 ENG3.           Emil Huseynov:  Engineer 3 
 ETIM.      04.01.04 12-Sep-20:  End Time 
 FLOI.gpm               450.00:  Flow In 
 FLON.gpm               450.00:  Flow In Min 
 FLOS.cptm                2.00:  Fluid Loss 
 FLOX.gpm               450.00:  Flow In Max 
 FTRO.       Formation Presure:  FTWD Run Obj 
 HFLO.                      No:  High Flow 
 HPRE.                      No:  High Pressure 
 HTEM.                      No:  High Temp 
 HYDO.m                   1.80:  Hydro Offset 
 IFIN.deg                72.03:  Inc, Final 
 IMAX.deg                73.72:  Inc Max 
 IMIN.deg                70.94:  Inc Min 
 IMND.m                5508.52:  Inc Min Depth 
 IMXD.m                5253.60:  Inc Max Depth 
 JARR.                      No:  Jarring 
 LETM.      20.30.00 08-Sep-20:  Log End Time 
 LOST.hr                     0:  Lost Rig Time 
 LSTM.      22.15.00 06-Sep-20:  Log Start Time 
 MDCL.ppm             36000.00:  Mud Chlorides 
 MDES.     Inversion Oil/Synthetic:  Mud Desc 
 DFD .sg                  1.44:  Mud Density 
 MDMN.sg                  1.44:  Dens Mud Min 
 MDMX.sg                  1.57:  Dens Mud Max 
 MOIL.                      70:  Run Mud Oil % 
 MOWR.                   70:30:  Run Mud OWR 
 MSND.                       0:  Run Mud Sand % 
 MSOL.                      21:  Run Mud Solids% 
 DFV .spqt               68.00:  Mud Viscosity 
 MWOD.in                  6.75:  MWD Tool OD 
 MWSI.                     Yes:  Serv Intrp, MWD 
 OTIM.hr                174.84:  Time Operating 
 PCON.           Look Like New:  Pad Condition 
 PMAX.psia            10616.93:  Press Op, Max 
 PV  .cP                 50.00:  Mud PV 
 RUN .                     700:  Run Number 
 ROPA.m/hr               14.24:  ROP Avg 
 ROPN.m/hr               10.00:  ROP Min 
 ROPX.m/hr               32.00:  ROP Max 
 RPMA.rpm               120.90:  RPM Surface Avg 
 RPMN.rpm               120.00:  RPM Surface Min 
 RPMX.rpm               140.00:  RPM Surface Max 
 RRUN.                    0700:  Rig Run Number 
 RTIM.hr                  3.20:  Time Reaming 
 SAZI.deg               109.99:  Azm, Start 
 SDEP.m                5231.01:  Start Depth 
 SIDD.                      No:  Serv Intrp, DD 
 SINC.deg                73.72:  Inc, Start 
 SPPA.psig             3051.00:  SPP Avg 
 SPPN.psig             2950.00:  SPP Min 
 SPPX.psig             3250.00:  SPP Max 
 STIM.      08.00.00 05-Sep-20:  Start Time 
 SVCS.                 DD, MWD:  Services 
 SVER.                    9.20:  Sperry Version 
 TDAT.m                 559.00:  Tot Depth Attmp 
 TDDF.                      No:  Trip for DD 
 TDLG.m                 559.00:  Tot Depth Loggd 
 TFF .                      No:  Trip for Fail 
 TQAA.f-kp               26.49:  Torque Abs Avg 
 TQAN.f-kp               25.00:  Torque Abs Min 
 TQAX.f-kp               27.00:  Torque Abs Max 
 TRRT.°/30m               1.50:  Turn Rotating 
 MRT .                    HCIM:  Maximum Recorded Temperature 
 TTMX.degC               90.20:  Max Tool Temp 
 VS01.                90542671:  Virtual Str1 SN 
 VS02.                90545185:  Virtual Str2 SN 
 VS03.                90602015:  Virtual Str3 SN 
 VS04.                90515230:  Virtual Str4 SN 
 WBMN.klb                 5.00:  WOB Min 
 WOBA.klb                14.79:  WOB Avg 
 WOBX.klb                20.00:  WOB Max 
 YP  .lhf2               29.00:  Yield Point 
~Curve Information Block
#MNEM.UNIT                 API CODE     Curve Description
#---------               -----------    ---------------------------
 TIME.HHMMSS            00 000 000 000:  GT Time & Date
 GTDEPTH.m              00 000 000 000:  GT Depth
 GTPQH.psia             00 000 000 000:  GT HR Quartz Pressure
 GTTQ.degC              00 000 000 000:  GT Quartz Temperature
 GTTN.NONE              00 000 000 000:  GT Test Number
 GTET.sec               00 000 000 000:  GT Elapsed Test Time
 GTTVD.m                00 000 000 000:  GT True Vertical Depth
#Other Information
#
#WARRANTY: Halliburton will use its best efforts to furnish customers with 
#accurate information and interpretations that are part of, and incident to, the services 
#provided.  However, Halliburton cannot and does not warrant the accuracy 
#or correctness of such information and interpretations.  Under no circumstances should any 
#such information or interpretation be relied upon as the sole basis for any drilling, 
#completion, production, or financial decision or any procedure involving any risk to the 
#safety of any drilling venture, drilling rig or its crew or any other third party.  The 
#Customer has full responsibility for all drilling, completion and production operation.  
#Halliburton makes no representations or warranties, either expressed or 
#implied, including, but not limited to, the implied warranties of merchantability or fitness 
#for a particular purpose, with respect to the services rendered.  In no event will 
#Halliburton be liable for failure to obtain any particular results or for 
#any damages, including, but not limited to, indirect, special or consequential damages, 
#resulting from the use of any information or interpretation provided by Halliburton.
#
~A           TIME           GTDEPTH  GTPQH  GTTQ  GTTN  GTET   GTTVD  
# ...
   05:38:55.076.09-Sep-2020 5634.01 3688.62 79.95 1.00 160.99 2660.75
   05:38:55.276.09-Sep-2020 5634.01 3688.62 79.95 1.00 161.19 2660.75
   05:38:55.476.09-Sep-2020 5634.01 3688.83 79.95 1.00 161.39 2660.75
   05:38:55.676.09-Sep-2020 5634.01 3688.89 79.95 1.00 161.59 2660.75
   05:38:55.876.09-Sep-2020 5634.01 3688.91 79.95 1.00 161.79 2660.75
   05:38:56.076.09-Sep-2020 5634.01 3688.79 79.95 1.00 161.99 2660.75
   05:38:56.276.09-Sep-2020 5634.01 3688.79 79.95 1.00 162.19 2660.75
   05:38:56.476.09-Sep-2020 5634.01 3688.93 79.95 1.00 162.39 2660.75
   05:38:56.676.09-Sep-2020 5634.01 3688.90 79.95 1.00 162.59 2660.75
   05:38:56.876.09-Sep-2020 5634.01 3688.99 79.95 1.00 162.79 2660.75
   05:38:57.076.09-Sep-2020 5634.01 3688.94 79.95 1.00 162.99 2660.75
   05:38:57.276.09-Sep-2020 5634.01 3688.94 79.95 1.00 163.19 2660.75
   05:38:57.476.09-Sep-2020 5634.01 3688.98 79.95 1.00 163.39 2660.75
   05:38:57.676.09-Sep-2020 5634.01 3689.00 79.95 1.00 163.59 2660.75
   05:38:57.876.09-Sep-2020 5634.01 3689.01 79.95 1.00 163.79 2660.75
   05:38:58.076.09-Sep-2020 5634.01 3689.00 79.95 1.00 163.99 2660.75
   05:38:58.276.09-Sep-2020 5634.01 3689.00 79.95 1.00 164.19 2660.75
   05:38:58.476.09-Sep-2020 5634.01 3689.04 79.95 1.00 164.39 2660.75
   05:38:58.676.09-Sep-2020 5634.01 3689.03 79.95 1.00 164.59 2660.75
   05:38:58.876.09-Sep-2020 5634.01 3689.05 79.95 1.00 164.79 2660.75
   05:38:59.076.09-Sep-2020 5634.01 3689.05 79.95 1.00 164.99 2660.75
   05:38:59.276.09-Sep-2020 5634.01 3689.05 79.95 1.00 165.19 2660.75
   05:38:59.476.09-Sep-2020 5634.01 3689.06 79.95 1.00 165.39 2660.75
   05:38:59.676.09-Sep-2020 5634.01 3689.21 79.95 1.00 165.59 2660.75
   05:38:59.876.09-Sep-2020 5634.01 3688.91 79.95 1.00 165.79 2660.75
   05:39:00.076.09-Sep-2020 5634.01 3689.13 79.95 1.00 165.99 2660.75
   05:39:00.276.09-Sep-2020 5634.01 3689.13 79.95 1.00 166.19 2660.75
   05:39:00.476.09-Sep-2020 5634.01 3689.14 79.95 1.00 166.39 2660.75
   05:39:00.676.09-Sep-2020 5634.01 3689.08 79.95 1.00 166.59 2660.75
   05:39:00.876.09-Sep-2020 5634.01 3689.10 79.95 1.00 166.79 2660.75
   05:39:01.076.09-Sep-2020 5634.01 3689.11 79.95 1.00 166.99 2660.75
   05:39:01.276.09-Sep-2020 5634.01 3689.11 79.95 1.00 167.19 2660.75
   05:39:01.476.09-Sep-2020 5634.01 3689.11 79.95 1.00 167.39 2660.75
   05:39:01.676.09-Sep-2020 5634.01 3689.12 79.95 1.00 167.59 2660.75
   05:39:01.876.09-Sep-2020 5634.01 3689.13 79.95 1.00 167.79 2660.75
   05:39:02.076.09-Sep-2020 5634.01 3689.14 79.95 1.00 167.99 2660.75
   05:39:02.276.09-Sep-2020 5634.01 3689.14 79.95 1.00 168.19 2660.75
   05:39:02.476.09-Sep-2020 5634.01 3689.14 79.95 1.00 168.39 2660.75
   05:39:02.676.09-Sep-2020 5634.01 3689.14 79.95 1.00 168.59 2660.75
   05:39:02.876.09-Sep-2020 5634.01 3688.97 79.95 1.00 168.79 2660.75
   05:39:03.076.09-Sep-2020 5634.01 3689.32 79.95 1.00 168.99 2660.75
   05:39:03.276.09-Sep-2020 5634.01 3689.32 79.95 1.00 169.19 2660.75
   05:39:03.476.09-Sep-2020 5634.01 3689.13 79.95 1.00 169.39 2660.75
   05:39:03.676.09-Sep-2020 5634.01 3689.15 79.95 1.00 169.59 2660.75
   05:39:03.876.09-Sep-2020 5634.01 3689.18 79.95 1.00 169.79 2660.75
   05:39:04.076.09-Sep-2020 5634.01 3689.23 79.95 1.00 169.99 2660.75
   05:39:04.276.09-Sep-2020 5634.01 3689.23 79.95 1.00 170.19 2660.75
   05:39:04.476.09-Sep-2020 5634.01 3689.19 79.95 1.00 170.39 2660.75
   05:39:04.676.09-Sep-2020 5634.01 3689.17 79.95 1.00 170.59 2660.75
   05:39:04.876.09-Sep-2020 5634.01 3689.15 79.95 1.00 170.79 2660.75
   05:39:05.076.09-Sep-2020 5634.01 3689.17 79.95 1.00 170.99 2660.75
   05:39:05.276.09-Sep-2020 5634.01 3689.17 79.95 1.00 171.19 2660.75
   05:39:05.476.09-Sep-2020 5634.01 3689.26 79.95 1.00 171.39 2660.75
   05:39:05.676.09-Sep-2020 5634.01 3689.18 79.95 1.00 171.59 2660.75
   05:39:05.876.09-Sep-2020 5634.01 3689.21 79.95 1.00 171.79 2660.75
   05:39:06.076.09-Sep-2020 5634.01 3689.20 79.95 1.00 171.99 2660.75
   05:39:06.276.09-Sep-2020 5634.01 3689.20 79.95 1.00 172.19 2660.75
   05:39:06.476.09-Sep-2020 5634.01 3689.19 79.95 1.00 172.39 2660.75
   05:39:06.676.09-Sep-2020 5634.01 3689.27 79.95 1.00 172.59 2660.75
   05:39:06.876.09-Sep-2020 5634.01 3689.19 79.95 1.00 172.79 2660.75
   05:39:07.076.09-Sep-2020 5634.01 3689.23 79.95 1.00 172.99 2660.75
   05:39:07.276.09-Sep-2020 5634.01 3689.23 79.95 1.00 173.19 2660.75
   05:39:07.476.09-Sep-2020 5634.01 3689.33 79.95 1.00 173.39 2660.75
   05:39:07.676.09-Sep-2020 5634.01 3689.06 79.95 1.00 173.59 2660.75
   05:39:07.876.09-Sep-2020 5634.01 3689.25 79.95 1.00 173.79 2660.75
   05:39:08.076.09-Sep-2020 5634.01 3689.21 79.95 1.00 173.99 2660.75
   05:39:08.276.09-Sep-2020 5634.01 3689.21 79.95 1.00 174.19 2660.75
   05:39:08.476.09-Sep-2020 5634.01 3689.19 79.95 1.00 174.39 2660.75
   05:39:08.676.09-Sep-2020 5634.01 3689.23 79.95 1.00 174.59 2660.75
   05:39:08.876.09-Sep-2020 5634.01 3689.22 79.95 1.00 174.79 2660.75
   05:39:09.076.09-Sep-2020 5634.01 3689.24 79.95 1.00 174.99 2660.75
   05:39:09.276.09-Sep-2020 5634.01 3689.24 79.95 1.00 175.19 2660.75
   05:39:09.476.09-Sep-2020 5634.01 3689.24 79.95 1.00 175.39 2660.75
   05:39:09.676.09-Sep-2020 5634.01 3689.23 79.95 1.00 175.59 2660.75
   05:39:09.876.09-Sep-2020 5634.01 3689.24 79.95 1.00 175.79 2660.75
   05:39:10.076.09-Sep-2020 5634.01 3689.24 79.95 1.00 175.99 2660.75
   05:39:10.276.09-Sep-2020 5634.01 3689.24 79.95 1.00 176.19 2660.75
   05:39:10.476.09-Sep-2020 5634.01 3689.24 79.95 1.00 176.39 2660.75
   05:39:10.675.09-Sep-2020 5634.01 3689.24 79.95 1.00 176.59 2660.75
   05:39:10.875.09-Sep-2020 5634.01 3689.26 79.95 1.00 176.79 2660.75
   05:39:11.075.09-Sep-2020 5634.01 3689.22 79.95 1.00 176.99 2660.75
   05:39:11.275.09-Sep-2020 5634.01 3689.22 79.95 1.00 177.19 2660.75
   05:39:11.475.09-Sep-2020 5634.01 3689.30 79.95 1.00 177.39 2660.75
   05:39:11.675.09-Sep-2020 5634.01 3689.25 79.95 1.00 177.59 2660.75
   05:39:11.875.09-Sep-2020 5634.01 3689.26 79.95 1.00 177.79 2660.75
   05:39:12.075.09-Sep-2020 5634.01 3689.25 79.95 1.00 177.99 2660.75
   05:39:12.275.09-Sep-2020 5634.01 3689.25 79.95 1.00 178.19 2660.75
   05:39:12.475.09-Sep-2020 5634.01 3689.26 79.95 1.00 178.39 2660.75
   05:39:12.675.09-Sep-2020 5634.01 3689.27 79.95 1.00 178.59 2660.75
   05:39:12.875.09-Sep-2020 5634.01 3689.26 79.95 1.00 178.79 2660.75
   05:39:13.075.09-Sep-2020 5634.01 3689.26 79.95 1.00 178.99 2660.75
   05:39:13.275.09-Sep-2020 5634.01 3689.26 79.95 1.00 179.19 2660.75
   05:39:13.475.09-Sep-2020 5634.01 3689.26 79.95 1.00 179.39 2660.75
   05:39:13.675.09-Sep-2020 5634.01 3689.25 79.95 1.00 179.59 2660.75
   05:39:13.875.09-Sep-2020 5634.01 3689.26 79.95 1.00 179.79 2660.75
   05:39:14.075.09-Sep-2020 5634.01 3689.26 79.95 1.00 179.99 2660.75
   05:39:14.275.09-Sep-2020 5634.01 3689.26 79.95 1.00 180.19 2660.75
   05:39:14.475.09-Sep-2020 5634.01 3689.28 79.95 1.00 180.39 2660.75
   05:39:14.675.09-Sep-2020 5634.01 3689.25 79.95 1.00 180.59 2660.75
   05:39:14.875.09-Sep-2020 5634.01 3689.29 79.95 1.00 180.79 2660.75
   05:39:15.075.09-Sep-2020 5634.01 3689.25 79.95 1.00 180.99 2660.75
   05:39:15.275.09-Sep-2020 5634.01 3689.23 79.95 1.00 181.19 2660.75
   05:39:15.475.09-Sep-2020 5634.01 3689.29 79.95 1.00 181.39 2660.75
   05:39:15.675.09-Sep-2020 5634.01 3689.39 79.95 1.00 181.59 2660.75
   05:39:15.875.09-Sep-2020 5634.01 3689.10 79.95 1.00 181.79 2660.75
   05:39:16.075.09-Sep-2020 5634.01 3689.28 79.95 1.00 181.99 2660.75
   05:39:16.275.09-Sep-2020 5634.01 3689.28 79.95 1.00 182.19 2660.75
   05:39:16.475.09-Sep-2020 5634.01 3689.31 79.95 1.00 182.39 2660.75
   05:39:16.675.09-Sep-2020 5634.01 3689.06 79.95 1.00 182.59 2660.75
   05:39:16.875.09-Sep-2020 5634.01 3689.44 79.95 1.00 182.79 2660.75
   05:39:17.075.09-Sep-2020 5634.01 3689.30 79.95 1.00 182.99 2660.75
   05:39:17.275.09-Sep-2020 5634.01 3689.30 79.95 1.00 183.19 2660.75
   05:39:17.475.09-Sep-2020 5634.01 3689.26 79.95 1.00 183.39 2660.75
   05:39:17.675.09-Sep-2020 5634.01 3689.29 79.95 1.00 183.59 2660.75
   05:39:17.875.09-Sep-2020 5634.01 3689.26 79.95 1.00 183.79 2660.75
