~Version Information
 VERS.                  2.0:   CWLS log ASCII Standard -VERSION 2.0
 WRAP.                   NO:   One line per depth step
~Well Information Block
#MNEM.UNIT     VALUE/NAME     DESCRIPTION
#---------     -----------    ---------------------------
 STRT.S             07:31:38 09-Sep-20: START TIME 07:31:38 09-Sep-20
 STOP.S             07:38:38 09-Sep-20: STOP TIME  07:38:38 09-Sep-20
 STEP.S                   0.00: STEP TIME
 NULL.                 -999.25: NULL VALUE
 MDS .        Operator Entered:  MAG DATA SOURCE
 PDAT.          Mean Sea Level:  PERMANENT DATUM
 DCON.         Sperry Drilling:  DIRECTNL CONTR
 RIG .              West Azeri:  RIG NAME
 WELL.           C40 (Slot 20):  WELL NAME
 SRVC.     Turan Drilling Engineering:  CONTRACTOR
 FLD .                     ACG:  FIELD NAME
 CTRY.              Azerbaijan:  COUNTRY NAME
 PROV.                    Baku:  PROVINCE
 STAT.                    Baku:  STATE NAME
 REGN.                   EESSA:  REGION
 BASE.              Azerbaijan:  LOGGING EQUIPMENT BASE LOCATION
 COMP.     BP Exploration (Caspian Sea) Ltd:  COMPANY
 WTYP.                Deviated:  WELL TYPE
 SON .        AZ-XX-0906344804:  JOB NUMBER
 FTOP.          Formation Tops:  FORM TOPS DESC
 ILTD.               Lithology:  INTERP LTH DESC
 SVYD.                  Survey:  SURVEY DESC
 DMOD.             Drill Model:  DRILL MOD DESC
 HPTY.       Minimum Curvature:  HOLE POS TYPE
 NREF.                    Grid:  NORTH REFERENCE
 SPUD.               01-Jan-20:  SPUD DATE
 DATE.      00.59.44 15-Sep-20:  END TIME
 STIM.      12.00.00 12-Jun-20:  START TIME
 DMF .             Drill Floor:  DRILL MEAS FROM
 DFST.                        :  DIST FSL TEXT
 DFWT.                        :  DIST FWL TEXT
 API .                        :  API NUMBER
 CNTY.                        :  COUNTY
 UWI .                        :  UNIQUE WELL IDENTIFIER
 LOC .                        :  LOCATION
 LMF .             Drill Floor:  LOG MEASURED FROM
 VSNS.m                   2.88:  VERT SEC N/S
 VSEW.m                  -3.84:  VERT SEC E/W
 AGAP.m                  43.42:  AIR GAP
 APD .m                  43.42:  DEPTH ABOVE PD
 WDMS.m                 118.27:  WD ELEV
 EGL .m                   0.00:  GROUND ELEVATION
 EPD .m                   0.00:  ELEVATION
 AZTC.deg                 6.23:  AZM TOTAL CORR
 GRDC.deg                 0.20:  GRID CORRECTION
 MDEC.deg                 6.43:  MAGNETIC DECL
 MDIP.deg                59.49:  MAGNETIC DIP
 MFLD.nT              50277.00:  MAGNETIC FIELD
 GVFD.g                   1.00:  GRAVITY FIELD
 VSDR.deg               173.20:  VERT SEC DIRECT
 TDD .m                5790.01:  TOTAL DEPTH (DRILLER)
 SDEP.m                5231.01:  START DEPTH
 DFSL.m                   0.00:  DISTANCE FSL
 DFWL.m                   0.00:  DISTANCE FWL
 UTMY.m             4435808.83:  UTM Y
 UTMX.m              526266.40:  UTM X
 WHEW.m                  -3.84:  WELL HEAD E/W
 WHNS.m                   2.88:  WELL HEAD N/S
 LONG.deg                51.31:  LONGITUDE
 LATI.deg                40.06:  LATITUDE
 TVDS.m                  43.42:  TVDSS CORRECTN
 DEP .m                 430.08:  DEPTH
 EKB .m                  43.42:  KB ELEVATION
 EDF .m                  43.42:  DF ELEVATION
 TDL .m                 559.00:  TOTAL DEPTH (LOGGER)
 MAGU.                 1849381:  MAGUTM CHECKSUM
 VSC .                       0:  VS TO CLOSURE
~Parameter Information Block
#MNEM.UNIT       Value        Description
#---------     -----------    ---------------------------
 AV  .mps                 4.87:  Ann Velocity 
 AVMX.mps                 7.08:  Max Ann Veloc 
 AZIF.deg               108.87:  Azm, Final 
 BHAT.                  Rotary:  BHA Type 
 BROT.°/30m               0.35:  Build Rotating 
 BS  .in                  8.50:  Bit Size 
 BSZ .in                  8.50:  Bit Size 
 BTPL.psig              360.00:  Bit Press Loss 
 CABU.                     Yes:  Customer Abuse 
 COMM.                     |L:  Run Comments 1 
 TCS .hr                106.24:  Time Ciculation Ended 
 CV  .mps                 1.77:  Crit Velocity 
 CVMX.mps                 2.03:  Max Crit Veloc 
 DD1 .         Aykhan Agagulov:  Direct Drillr 1 
 DD2 .            Nonso Okofor:  Direct Drillr 2 
 DDSV.               Geo-Pilot:  DD Service 
 DEFF.%                  98.00:  % Det Eff 
 DLRX.°/30m               0.50:  Dogleg Rot Max 
 DLSO.°/30m               0.40:  Dogleg Oriented 
 DLSX.°/30m               0.94:  Dogleg Str Max 
 DRET.      20.30.00 08-Sep-20:  Drill End Time 
 DRST.      22.15.00 06-Sep-20:  Drill Start Tim 
 DTIM.hr                 31.31:  Time Drilling 
 EDEP.m                5790.01:  End Depth 
 ENG1.           Amrah Tahirov:  Engineer 1 
 ENG2.         Dair Mahammadov:  Engineer 2 
 ENG3.           Emil Huseynov:  Engineer 3 
 ETIM.      04.01.04 12-Sep-20:  End Time 
 FLOI.gpm               450.00:  Flow In 
 FLON.gpm               450.00:  Flow In Min 
 FLOS.cptm                2.00:  Fluid Loss 
 FLOX.gpm               450.00:  Flow In Max 
 FTRO.       Formation Presure:  FTWD Run Obj 
 HFLO.                      No:  High Flow 
 HPRE.                      No:  High Pressure 
 HTEM.                      No:  High Temp 
 HYDO.m                   1.80:  Hydro Offset 
 IFIN.deg                72.03:  Inc, Final 
 IMAX.deg                73.72:  Inc Max 
 IMIN.deg                70.94:  Inc Min 
 IMND.m                5508.52:  Inc Min Depth 
 IMXD.m                5253.60:  Inc Max Depth 
 JARR.                      No:  Jarring 
 LETM.      20.30.00 08-Sep-20:  Log End Time 
 LOST.hr                     0:  Lost Rig Time 
 LSTM.      22.15.00 06-Sep-20:  Log Start Time 
 MDCL.ppm             36000.00:  Mud Chlorides 
 MDES.     Inversion Oil/Synthetic:  Mud Desc 
 DFD .sg                  1.44:  Mud Density 
 MDMN.sg                  1.44:  Dens Mud Min 
 MDMX.sg                  1.57:  Dens Mud Max 
 MOIL.                      70:  Run Mud Oil % 
 MOWR.                   70:30:  Run Mud OWR 
 MSND.                       0:  Run Mud Sand % 
 MSOL.                      21:  Run Mud Solids% 
 DFV .spqt               68.00:  Mud Viscosity 
 MWOD.in                  6.75:  MWD Tool OD 
 MWSI.                     Yes:  Serv Intrp, MWD 
 OTIM.hr                174.84:  Time Operating 
 PCON.           Look Like New:  Pad Condition 
 PMAX.psia            10616.93:  Press Op, Max 
 PV  .cP                 50.00:  Mud PV 
 RUN .                     700:  Run Number 
 ROPA.m/hr               14.24:  ROP Avg 
 ROPN.m/hr               10.00:  ROP Min 
 ROPX.m/hr               32.00:  ROP Max 
 RPMA.rpm               120.90:  RPM Surface Avg 
 RPMN.rpm               120.00:  RPM Surface Min 
 RPMX.rpm               140.00:  RPM Surface Max 
 RRUN.                    0700:  Rig Run Number 
 RTIM.hr                  3.20:  Time Reaming 
 SAZI.deg               109.99:  Azm, Start 
 SDEP.m                5231.01:  Start Depth 
 SIDD.                      No:  Serv Intrp, DD 
 SINC.deg                73.72:  Inc, Start 
 SPPA.psig             3051.00:  SPP Avg 
 SPPN.psig             2950.00:  SPP Min 
 SPPX.psig             3250.00:  SPP Max 
 STIM.      08.00.00 05-Sep-20:  Start Time 
 SVCS.                 DD, MWD:  Services 
 SVER.                    9.20:  Sperry Version 
 TDAT.m                 559.00:  Tot Depth Attmp 
 TDDF.                      No:  Trip for DD 
 TDLG.m                 559.00:  Tot Depth Loggd 
 TFF .                      No:  Trip for Fail 
 TQAA.f-kp               26.49:  Torque Abs Avg 
 TQAN.f-kp               25.00:  Torque Abs Min 
 TQAX.f-kp               27.00:  Torque Abs Max 
 TRRT.°/30m               1.50:  Turn Rotating 
 MRT .                    HCIM:  Maximum Recorded Temperature 
 TTMX.degC               90.20:  Max Tool Temp 
 VS01.                90542671:  Virtual Str1 SN 
 VS02.                90545185:  Virtual Str2 SN 
 VS03.                90602015:  Virtual Str3 SN 
 VS04.                90515230:  Virtual Str4 SN 
 WBMN.klb                 5.00:  WOB Min 
 WOBA.klb                14.79:  WOB Avg 
 WOBX.klb                20.00:  WOB Max 
 YP  .lhf2               29.00:  Yield Point 
~Curve Information Block
#MNEM.UNIT                 API CODE     Curve Description
#---------               -----------    ---------------------------
 TIME.HHMMSS            00 000 000 000:  GT Time & Date
 GTDEPTH.m              00 000 000 000:  GT Depth
 GTPQH.psia             00 000 000 000:  GT HR Quartz Pressure
 GTTQ.degC              00 000 000 000:  GT Quartz Temperature
 GTTN.NONE              00 000 000 000:  GT Test Number
 GTET.sec               00 000 000 000:  GT Elapsed Test Time
 GTTVD.m                00 000 000 000:  GT True Vertical Depth
#Other Information
#
#WARRANTY: Halliburton will use its best efforts to furnish customers with 
#accurate information and interpretations that are part of, and incident to, the services 
#provided.  However, Halliburton cannot and does not warrant the accuracy 
#or correctness of such information and interpretations.  Under no circumstances should any 
#such information or interpretation be relied upon as the sole basis for any drilling, 
#completion, production, or financial decision or any procedure involving any risk to the 
#safety of any drilling venture, drilling rig or its crew or any other third party.  The 
#Customer has full responsibility for all drilling, completion and production operation.  
#Halliburton makes no representations or warranties, either expressed or 
#implied, including, but not limited to, the implied warranties of merchantability or fitness 
#for a particular purpose, with respect to the services rendered.  In no event will 
#Halliburton be liable for failure to obtain any particular results or for 
#any damages, including, but not limited to, indirect, special or consequential damages, 
#resulting from the use of any information or interpretation provided by Halliburton.
#
~A           TIME           GTDEPTH  GTPQH  GTTQ  GTTN  GTET   GTTVD  
# ...
   07:38:09.447.09-Sep-2020 5569.01 6499.01 78.58 4.00 391.16 2640.81
   07:38:09.647.09-Sep-2020 5569.01 6499.01 78.58 4.00 391.36 2640.81
   07:38:09.848.09-Sep-2020 5569.01 6509.08 78.57 4.00 391.56 2640.81
   07:38:10.048.09-Sep-2020 5569.01 6493.12 78.57 4.00 391.76 2640.81
   07:38:10.248.09-Sep-2020 5569.01 6498.01 78.57 4.00 391.96 2640.81
   07:38:10.448.09-Sep-2020 5569.01 6500.66 78.57 4.00 392.16 2640.81
   07:38:10.648.09-Sep-2020 5569.01 6500.66 78.57 4.00 392.36 2640.81
   07:38:10.848.09-Sep-2020 5569.01 6499.00 78.57 4.00 392.56 2640.81
   07:38:11.048.09-Sep-2020 5569.01 6503.74 78.57 4.00 392.76 2640.81
   07:38:11.248.09-Sep-2020 5569.01 6497.81 78.57 4.00 392.96 2640.81
   07:38:11.448.09-Sep-2020 5569.01 6500.29 78.57 4.00 393.16 2640.81
   07:38:11.648.09-Sep-2020 5569.01 6500.29 78.57 4.00 393.36 2640.81
   07:38:11.848.09-Sep-2020 5569.01 6498.74 78.57 4.00 393.56 2640.81
   07:38:12.048.09-Sep-2020 5569.01 6508.35 78.57 4.00 393.76 2640.81
   07:38:12.248.09-Sep-2020 5569.01 6491.97 78.57 4.00 393.96 2640.81
   07:38:12.449.09-Sep-2020 5569.01 6498.02 78.57 4.00 394.16 2640.81
   07:38:12.649.09-Sep-2020 5569.01 6498.02 78.57 4.00 394.36 2640.81
   07:38:12.849.09-Sep-2020 5569.01 6499.36 78.57 4.00 394.56 2640.81
   07:38:13.049.09-Sep-2020 5569.01 6499.29 78.57 4.00 394.76 2640.81
   07:38:13.249.09-Sep-2020 5569.01 6505.60 78.57 4.00 394.96 2640.81
   07:38:13.449.09-Sep-2020 5569.01 6497.23 78.57 4.00 395.16 2640.81
   07:38:13.649.09-Sep-2020 5569.01 6497.23 78.57 4.00 395.36 2640.81
   07:38:13.849.09-Sep-2020 5569.01 6502.51 78.57 4.00 395.56 2640.81
   07:38:14.049.09-Sep-2020 5569.01 6499.51 78.57 4.00 395.76 2640.81
   07:38:14.249.09-Sep-2020 5569.01 6500.88 78.57 4.00 395.96 2640.81
   07:38:14.449.09-Sep-2020 5569.01 6498.57 78.57 4.00 396.16 2640.81
   07:38:14.649.09-Sep-2020 5569.01 6498.57 78.57 4.00 396.36 2640.81
   07:38:14.850.09-Sep-2020 5569.01 6506.50 78.57 4.00 396.56 2640.81
   07:38:15.050.09-Sep-2020 5569.01 6497.78 78.57 4.00 396.76 2640.81
   07:38:15.250.09-Sep-2020 5569.01 6502.21 78.57 4.00 396.96 2640.81
   07:38:15.450.09-Sep-2020 5569.01 6500.03 78.57 4.00 397.16 2640.81
   07:38:15.650.09-Sep-2020 5569.01 6500.03 78.57 4.00 397.36 2640.81
   07:38:15.850.09-Sep-2020 5569.01 6500.01 78.57 4.00 397.56 2640.81
   07:38:16.050.09-Sep-2020 5569.01 6500.16 78.57 4.00 397.76 2640.81
   07:38:16.250.09-Sep-2020 5569.01 6501.42 78.57 4.00 397.96 2640.81
   07:38:16.450.09-Sep-2020 5569.01 6500.39 78.57 4.00 398.16 2640.81
   07:38:16.650.09-Sep-2020 5569.01 6500.39 78.57 4.00 398.36 2640.81
   07:38:16.850.09-Sep-2020 5569.01 6500.50 78.57 4.00 398.56 2640.81
   07:38:17.050.09-Sep-2020 5569.01 6500.07 78.57 4.00 398.76 2640.81
   07:38:17.251.09-Sep-2020 5569.01 6499.85 78.57 4.00 398.96 2640.81
   07:38:17.451.09-Sep-2020 5569.01 6500.13 78.57 4.00 399.16 2640.81
   07:38:17.651.09-Sep-2020 5569.01 6500.13 78.57 4.00 399.36 2640.81
   07:38:17.851.09-Sep-2020 5569.01 6500.82 78.56 4.00 399.56 2640.81
   07:38:18.051.09-Sep-2020 5569.01 6500.88 78.56 4.00 399.76 2640.81
   07:38:18.251.09-Sep-2020 5569.01 6500.72 78.56 4.00 399.96 2640.81
   07:38:18.451.09-Sep-2020 5569.01 6508.81 78.56 4.00 400.16 2640.81
   07:38:18.651.09-Sep-2020 5569.01 6508.81 78.56 4.00 400.36 2640.81
   07:38:18.851.09-Sep-2020 5569.01 6498.91 78.56 4.00 400.56 2640.81
   07:38:19.051.09-Sep-2020 5569.01 6504.11 78.56 4.00 400.76 2640.81
   07:38:19.251.09-Sep-2020 5569.01 6500.69 78.56 4.00 400.96 2640.81
   07:38:19.451.09-Sep-2020 5569.01 6501.55 78.56 4.00 401.16 2640.81
   07:38:19.652.09-Sep-2020 5569.01 6501.55 78.56 4.00 401.36 2640.81
   07:38:19.852.09-Sep-2020 5569.01 6501.58 78.56 4.00 401.56 2640.81
   07:38:20.052.09-Sep-2020 5569.01 6499.69 78.56 4.00 401.76 2640.81
   07:38:20.252.09-Sep-2020 5569.01 6499.18 78.56 4.00 401.96 2640.81
   07:38:20.452.09-Sep-2020 5569.01 6498.78 78.56 4.00 402.16 2640.81
   07:38:20.652.09-Sep-2020 5569.01 6498.78 78.56 4.00 402.36 2640.81
   07:38:20.852.09-Sep-2020 5569.01 6498.04 78.56 4.00 402.56 2640.81
   07:38:21.052.09-Sep-2020 5569.01 6497.97 78.56 4.00 402.76 2640.81
   07:38:21.252.09-Sep-2020 5569.01 6498.56 78.56 4.00 402.96 2640.81
   07:38:21.452.09-Sep-2020 5569.01 6498.33 78.56 4.00 403.16 2640.81
   07:38:21.652.09-Sep-2020 5569.01 6498.33 78.56 4.00 403.36 2640.81
   07:38:21.852.09-Sep-2020 5569.01 6499.34 78.56 4.00 403.56 2640.81
   07:38:22.053.09-Sep-2020 5569.01 6501.04 78.56 4.00 403.77 2640.81
   07:38:22.253.09-Sep-2020 5569.01 6496.86 78.56 4.00 403.97 2640.81
   07:38:22.453.09-Sep-2020 5569.01 6502.06 78.56 4.00 404.17 2640.81
   07:38:22.653.09-Sep-2020 5569.01 6502.06 78.56 4.00 404.37 2640.81
   07:38:22.853.09-Sep-2020 5569.01 6499.29 78.56 4.00 404.57 2640.81
   07:38:23.053.09-Sep-2020 5569.01 6505.76 78.56 4.00 404.77 2640.81
   07:38:23.253.09-Sep-2020 5569.01 6496.65 78.56 4.00 404.97 2640.81
   07:38:23.453.09-Sep-2020 5569.01 6497.40 78.56 4.00 405.17 2640.81
   07:38:23.653.09-Sep-2020 5569.01 6502.51 78.56 4.00 405.37 2640.81
   07:38:23.853.09-Sep-2020 5569.01 6498.85 78.56 4.00 405.57 2640.81
   07:38:24.053.09-Sep-2020 5569.01 6508.25 78.56 4.00 405.77 2640.81
   07:38:24.253.09-Sep-2020 5569.01 6494.73 78.56 4.00 405.97 2640.81
   07:38:24.453.09-Sep-2020 5569.01 6498.49 78.56 4.00 406.17 2640.81
   07:38:24.654.09-Sep-2020 5569.01 6498.49 78.56 4.00 406.37 2640.81
   07:38:24.854.09-Sep-2020 5569.01 6499.40 78.56 4.00 406.57 2640.81
   07:38:25.054.09-Sep-2020 5569.01 6500.63 78.56 4.00 406.77 2640.81
   07:38:25.254.09-Sep-2020 5569.01 6500.02 78.56 4.00 406.97 2640.81
   07:38:25.454.09-Sep-2020 5569.01 6504.10 78.56 4.00 407.17 2640.81
   07:38:25.654.09-Sep-2020 5569.01 6504.10 78.56 4.00 407.37 2640.81
   07:38:25.854.09-Sep-2020 5569.01 6502.86 78.56 4.00 407.57 2640.81
   07:38:26.054.09-Sep-2020 5569.01 6498.23 78.56 4.00 407.77 2640.81
   07:38:26.254.09-Sep-2020 5569.01 6500.78 78.56 4.00 407.97 2640.81
   07:38:26.454.09-Sep-2020 5569.01 6499.05 78.56 4.00 408.17 2640.81
   07:38:26.654.09-Sep-2020 5569.01 6499.05 78.56 4.00 408.37 2640.81
   07:38:26.854.09-Sep-2020 5569.01 6495.19 78.56 4.00 408.57 2640.81
   07:38:27.055.09-Sep-2020 5569.01 6498.98 78.56 4.00 408.77 2640.81
   07:38:27.255.09-Sep-2020 5569.01 6502.19 78.56 4.00 408.97 2640.81
   07:38:27.455.09-Sep-2020 5569.01 6501.38 78.56 4.00 409.17 2640.81
   07:38:27.655.09-Sep-2020 5569.01 6501.38 78.56 4.00 409.37 2640.81
   07:38:27.855.09-Sep-2020 5569.01 6498.90 78.56 4.00 409.57 2640.81
   07:38:28.055.09-Sep-2020 5569.01 6501.73 78.56 4.00 409.77 2640.81
   07:38:28.255.09-Sep-2020 5569.01 6500.01 78.56 4.00 409.97 2640.81
   07:38:28.455.09-Sep-2020 5569.01 6499.90 78.55 4.00 410.17 2640.81
   07:38:28.655.09-Sep-2020 5569.01 6499.90 78.55 4.00 410.37 2640.81
   07:38:28.855.09-Sep-2020 5569.01 6499.90 78.55 4.00 410.57 2640.81
   07:38:29.055.09-Sep-2020 5569.01 6499.54 78.55 4.00 410.77 2640.81
   07:38:29.255.09-Sep-2020 5569.01 6499.25 78.55 4.00 410.97 2640.81
   07:38:29.456.09-Sep-2020 5569.01 6499.43 78.55 4.00 411.17 2640.81
   07:38:29.656.09-Sep-2020 5569.01 6499.43 78.55 4.00 411.37 2640.81
   07:38:29.856.09-Sep-2020 5569.01 6499.67 78.55 4.00 411.57 2640.81
   07:38:30.056.09-Sep-2020 5569.01 6499.82 78.55 4.00 411.77 2640.81
   07:38:30.256.09-Sep-2020 5569.01 6501.66 78.55 4.00 411.97 2640.81
   07:38:30.456.09-Sep-2020 5569.01 6503.85 78.55 4.00 412.17 2640.81
   07:38:30.656.09-Sep-2020 5569.01 6503.85 78.55 4.00 412.37 2640.81
   07:38:30.856.09-Sep-2020 5569.01 6504.19 78.55 4.00 412.57 2640.81
   07:38:31.056.09-Sep-2020 5569.01 6499.40 78.55 4.00 412.77 2640.81
   07:38:31.256.09-Sep-2020 5569.01 6501.37 78.55 4.00 412.97 2640.81
   07:38:31.456.09-Sep-2020 5569.01 6499.66 78.55 4.00 413.17 2640.81
   07:38:31.656.09-Sep-2020 5569.01 6499.66 78.55 4.00 413.37 2640.81
   07:38:31.857.09-Sep-2020 5569.01 6500.58 78.55 4.00 413.57 2640.81
   07:38:32.057.09-Sep-2020 5569.01 6499.95 78.55 4.00 413.77 2640.81
   07:38:32.257.09-Sep-2020 5569.01 6499.97 78.55 4.00 413.97 2640.81
