~Version Information
 VERS.                  2.0:   CWLS log ASCII Standard -VERSION 2.0
 WRAP.                   NO:   One line per depth step
~Well Information Block
#MNEM.UNIT     VALUE/NAME     DESCRIPTION
#---------     -----------    ---------------------------
 STRT.S             17:25:53 09-Sep-20: START TIME 17:25:53 09-Sep-20
 STOP.S             17:34:04 09-Sep-20: STOP TIME  17:34:04 09-Sep-20
 STEP.S                   0.00: STEP TIME
 NULL.                 -999.25: NULL VALUE
 MDS .        Operator Entered:  MAG DATA SOURCE
 PDAT.          Mean Sea Level:  PERMANENT DATUM
 DCON.         Sperry Drilling:  DIRECTNL CONTR
 RIG .              West Azeri:  RIG NAME
 WELL.           C40 (Slot 20):  WELL NAME
 SRVC.     Turan Drilling Engineering:  CONTRACTOR
 FLD .                     ACG:  FIELD NAME
 CTRY.              Azerbaijan:  COUNTRY NAME
 PROV.                    Baku:  PROVINCE
 STAT.                    Baku:  STATE NAME
 REGN.                   EESSA:  REGION
 BASE.              Azerbaijan:  LOGGING EQUIPMENT BASE LOCATION
 COMP.     BP Exploration (Caspian Sea) Ltd:  COMPANY
 WTYP.                Deviated:  WELL TYPE
 SON .        AZ-XX-0906344804:  JOB NUMBER
 FTOP.          Formation Tops:  FORM TOPS DESC
 ILTD.               Lithology:  INTERP LTH DESC
 SVYD.                  Survey:  SURVEY DESC
 DMOD.             Drill Model:  DRILL MOD DESC
 HPTY.       Minimum Curvature:  HOLE POS TYPE
 NREF.                    Grid:  NORTH REFERENCE
 SPUD.               01-Jan-20:  SPUD DATE
 DATE.      00.59.44 15-Sep-20:  END TIME
 STIM.      12.00.00 12-Jun-20:  START TIME
 DMF .             Drill Floor:  DRILL MEAS FROM
 DFST.                        :  DIST FSL TEXT
 DFWT.                        :  DIST FWL TEXT
 API .                        :  API NUMBER
 CNTY.                        :  COUNTY
 UWI .                        :  UNIQUE WELL IDENTIFIER
 LOC .                        :  LOCATION
 LMF .             Drill Floor:  LOG MEASURED FROM
 VSNS.m                   2.88:  VERT SEC N/S
 VSEW.m                  -3.84:  VERT SEC E/W
 AGAP.m                  43.42:  AIR GAP
 APD .m                  43.42:  DEPTH ABOVE PD
 WDMS.m                 118.27:  WD ELEV
 EGL .m                   0.00:  GROUND ELEVATION
 EPD .m                   0.00:  ELEVATION
 AZTC.deg                 6.23:  AZM TOTAL CORR
 GRDC.deg                 0.20:  GRID CORRECTION
 MDEC.deg                 6.43:  MAGNETIC DECL
 MDIP.deg                59.49:  MAGNETIC DIP
 MFLD.nT              50277.00:  MAGNETIC FIELD
 GVFD.g                   1.00:  GRAVITY FIELD
 VSDR.deg               173.20:  VERT SEC DIRECT
 TDD .m                5790.01:  TOTAL DEPTH (DRILLER)
 SDEP.m                5231.01:  START DEPTH
 DFSL.m                   0.00:  DISTANCE FSL
 DFWL.m                   0.00:  DISTANCE FWL
 UTMY.m             4435808.83:  UTM Y
 UTMX.m              526266.40:  UTM X
 WHEW.m                  -3.84:  WELL HEAD E/W
 WHNS.m                   2.88:  WELL HEAD N/S
 LONG.deg                51.31:  LONGITUDE
 LATI.deg                40.06:  LATITUDE
 TVDS.m                  43.42:  TVDSS CORRECTN
 DEP .m                 430.08:  DEPTH
 EKB .m                  43.42:  KB ELEVATION
 EDF .m                  43.42:  DF ELEVATION
 TDL .m                 559.00:  TOTAL DEPTH (LOGGER)
 MAGU.                 1849381:  MAGUTM CHECKSUM
 VSC .                       0:  VS TO CLOSURE
~Parameter Information Block
#MNEM.UNIT       Value        Description
#---------     -----------    ---------------------------
 AV  .mps                 4.87:  Ann Velocity 
 AVMX.mps                 7.08:  Max Ann Veloc 
 AZIF.deg               108.87:  Azm, Final 
 BHAT.                  Rotary:  BHA Type 
 BROT.°/30m               0.35:  Build Rotating 
 BS  .in                  8.50:  Bit Size 
 BSZ .in                  8.50:  Bit Size 
 BTPL.psig              360.00:  Bit Press Loss 
 CABU.                     Yes:  Customer Abuse 
 COMM.                     ô¸n:  Run Comments 1 
 TCS .hr                106.24:  Time Ciculation Ended 
 CV  .mps                 1.77:  Crit Velocity 
 CVMX.mps                 2.03:  Max Crit Veloc 
 DD1 .         Aykhan Agagulov:  Direct Drillr 1 
 DD2 .            Nonso Okofor:  Direct Drillr 2 
 DDSV.               Geo-Pilot:  DD Service 
 DEFF.%                  98.00:  % Det Eff 
 DLRX.°/30m               0.50:  Dogleg Rot Max 
 DLSO.°/30m               0.40:  Dogleg Oriented 
 DLSX.°/30m               0.94:  Dogleg Str Max 
 DRET.      20.30.00 08-Sep-20:  Drill End Time 
 DRST.      22.15.00 06-Sep-20:  Drill Start Tim 
 DTIM.hr                 31.31:  Time Drilling 
 EDEP.m                5790.01:  End Depth 
 ENG1.           Amrah Tahirov:  Engineer 1 
 ENG2.         Dair Mahammadov:  Engineer 2 
 ENG3.           Emil Huseynov:  Engineer 3 
 ETIM.      04.01.04 12-Sep-20:  End Time 
 FLOI.gpm               450.00:  Flow In 
 FLON.gpm               450.00:  Flow In Min 
 FLOS.cptm                2.00:  Fluid Loss 
 FLOX.gpm               450.00:  Flow In Max 
 FTRO.       Formation Presure:  FTWD Run Obj 
 HFLO.                      No:  High Flow 
 HPRE.                      No:  High Pressure 
 HTEM.                      No:  High Temp 
 HYDO.m                   1.80:  Hydro Offset 
 IFIN.deg                72.03:  Inc, Final 
 IMAX.deg                73.72:  Inc Max 
 IMIN.deg                70.94:  Inc Min 
 IMND.m                5508.52:  Inc Min Depth 
 IMXD.m                5253.60:  Inc Max Depth 
 JARR.                      No:  Jarring 
 LETM.      20.30.00 08-Sep-20:  Log End Time 
 LOST.hr                     0:  Lost Rig Time 
 LSTM.      22.15.00 06-Sep-20:  Log Start Time 
 MDCL.ppm             36000.00:  Mud Chlorides 
 MDES.     Inversion Oil/Synthetic:  Mud Desc 
 DFD .sg                  1.44:  Mud Density 
 MDMN.sg                  1.44:  Dens Mud Min 
 MDMX.sg                  1.57:  Dens Mud Max 
 MOIL.                      70:  Run Mud Oil % 
 MOWR.                   70:30:  Run Mud OWR 
 MSND.                       0:  Run Mud Sand % 
 MSOL.                      21:  Run Mud Solids% 
 DFV .spqt               68.00:  Mud Viscosity 
 MWOD.in                  6.75:  MWD Tool OD 
 MWSI.                     Yes:  Serv Intrp, MWD 
 OTIM.hr                174.84:  Time Operating 
 PCON.           Look Like New:  Pad Condition 
 PMAX.psia            10616.93:  Press Op, Max 
 PV  .cP                 50.00:  Mud PV 
 RUN .                     700:  Run Number 
 ROPA.m/hr               14.24:  ROP Avg 
 ROPN.m/hr               10.00:  ROP Min 
 ROPX.m/hr               32.00:  ROP Max 
 RPMA.rpm               120.90:  RPM Surface Avg 
 RPMN.rpm               120.00:  RPM Surface Min 
 RPMX.rpm               140.00:  RPM Surface Max 
 RRUN.                    0700:  Rig Run Number 
 RTIM.hr                  3.20:  Time Reaming 
 SAZI.deg               109.99:  Azm, Start 
 SDEP.m                5231.01:  Start Depth 
 SIDD.                      No:  Serv Intrp, DD 
 SINC.deg                73.72:  Inc, Start 
 SPPA.psig             3051.00:  SPP Avg 
 SPPN.psig             2950.00:  SPP Min 
 SPPX.psig             3250.00:  SPP Max 
 STIM.      08.00.00 05-Sep-20:  Start Time 
 SVCS.                 DD, MWD:  Services 
 SVER.                    9.20:  Sperry Version 
 TDAT.m                 559.00:  Tot Depth Attmp 
 TDDF.                      No:  Trip for DD 
 TDLG.m                 559.00:  Tot Depth Loggd 
 TFF .                      No:  Trip for Fail 
 TQAA.f-kp               26.49:  Torque Abs Avg 
 TQAN.f-kp               25.00:  Torque Abs Min 
 TQAX.f-kp               27.00:  Torque Abs Max 
 TRRT.°/30m               1.50:  Turn Rotating 
 MRT .                    HCIM:  Maximum Recorded Temperature 
 TTMX.degC               90.20:  Max Tool Temp 
 VS01.                90542671:  Virtual Str1 SN 
 VS02.                90545185:  Virtual Str2 SN 
 VS03.                90602015:  Virtual Str3 SN 
 VS04.                90515230:  Virtual Str4 SN 
 WBMN.klb                 5.00:  WOB Min 
 WOBA.klb                14.79:  WOB Avg 
 WOBX.klb                20.00:  WOB Max 
 YP  .lhf2               29.00:  Yield Point 
~Curve Information Block
#MNEM.UNIT                 API CODE     Curve Description
#---------               -----------    ---------------------------
 TIME.HHMMSS            00 000 000 000:  GT Time & Date
 GTDEPTH.m              00 000 000 000:  GT Depth
 GTPQH.psia             00 000 000 000:  GT HR Quartz Pressure
 GTTQ.degC              00 000 000 000:  GT Quartz Temperature
 GTTN.NONE              00 000 000 000:  GT Test Number
 GTET.sec               00 000 000 000:  GT Elapsed Test Time
 GTTVD.m                00 000 000 000:  GT True Vertical Depth
#Other Information
#
#WARRANTY: Halliburton will use its best efforts to furnish customers with 
#accurate information and interpretations that are part of, and incident to, the services 
#provided.  However, Halliburton cannot and does not warrant the accuracy 
#or correctness of such information and interpretations.  Under no circumstances should any 
#such information or interpretation be relied upon as the sole basis for any drilling, 
#completion, production, or financial decision or any procedure involving any risk to the 
#safety of any drilling venture, drilling rig or its crew or any other third party.  The 
#Customer has full responsibility for all drilling, completion and production operation.  
#Halliburton makes no representations or warranties, either expressed or 
#implied, including, but not limited to, the implied warranties of merchantability or fitness 
#for a particular purpose, with respect to the services rendered.  In no event will 
#Halliburton be liable for failure to obtain any particular results or for 
#any damages, including, but not limited to, indirect, special or consequential damages, 
#resulting from the use of any information or interpretation provided by Halliburton.
#
~A           TIME           GTDEPTH  GTPQH  GTTQ  GTTN   GTET   GTTVD  
# ...
   17:28:53.995.09-Sep-2020 5302.51 6246.11 74.60 20.00 180.89 2556.93
   17:28:54.195.09-Sep-2020 5302.51 6224.98 74.60 20.00 181.09 2556.93
   17:28:54.396.09-Sep-2020 5302.51 6224.98 74.60 20.00 181.29 2556.93
   17:28:54.596.09-Sep-2020 5302.51 6150.14 74.60 20.00 181.49 2556.93
   17:28:54.796.09-Sep-2020 5302.51 6111.62 74.60 20.00 181.69 2556.93
   17:28:54.996.09-Sep-2020 5302.51 6210.39 74.60 20.00 181.89 2556.93
   17:28:55.196.09-Sep-2020 5302.51 6140.73 74.60 20.00 182.09 2556.93
   17:28:55.396.09-Sep-2020 5302.51 6140.73 74.60 20.00 182.29 2556.93
   17:28:55.596.09-Sep-2020 5302.51 5633.74 74.60 20.00 182.49 2556.93
   17:28:55.796.09-Sep-2020 5302.51 5313.38 74.60 20.00 182.69 2556.93
   17:28:55.996.09-Sep-2020 5302.51 4976.71 74.60 20.00 182.89 2556.93
   17:28:56.196.09-Sep-2020 5302.51 4621.66 74.60 20.00 183.09 2556.93
   17:28:56.396.09-Sep-2020 5302.51 4621.66 74.60 20.00 183.29 2556.93
   17:28:56.597.09-Sep-2020 5302.51 3892.99 74.60 20.00 183.49 2556.93
   17:28:56.797.09-Sep-2020 5302.51 3531.22 74.60 20.00 183.69 2556.93
   17:28:56.997.09-Sep-2020 5302.51 3170.74 74.60 20.00 183.89 2556.93
   17:28:57.197.09-Sep-2020 5302.51 2818.20 74.60 20.00 184.09 2556.93
   17:28:57.397.09-Sep-2020 5302.51 2818.20 74.60 20.00 184.29 2556.93
   17:28:57.597.09-Sep-2020 5302.51 2244.03 74.59 20.00 184.49 2556.93
   17:28:57.797.09-Sep-2020 5302.51 2073.68 74.59 20.00 184.69 2556.93
   17:28:57.997.09-Sep-2020 5302.51 1916.11 74.59 20.00 184.89 2556.93
   17:28:58.197.09-Sep-2020 5302.51 1764.69 74.59 20.00 185.09 2556.93
   17:28:58.397.09-Sep-2020 5302.51 1764.69 74.59 20.00 185.29 2556.93
   17:28:58.598.09-Sep-2020 5302.51 1494.95 74.58 20.00 185.49 2556.93
   17:28:58.798.09-Sep-2020 5302.51 1382.25 74.58 20.00 185.69 2556.93
   17:28:58.998.09-Sep-2020 5302.51 1276.30 74.58 20.00 185.89 2556.93
   17:28:59.198.09-Sep-2020 5302.51 1181.27 74.57 20.00 186.09 2556.93
   17:28:59.398.09-Sep-2020 5302.51 1181.27 74.57 20.00 186.29 2556.93
   17:28:59.598.09-Sep-2020 5302.51 1030.98 74.57 20.00 186.49 2556.93
   17:28:59.798.09-Sep-2020 5302.51  967.58 74.56 20.00 186.69 2556.93
   17:28:59.998.09-Sep-2020 5302.51  906.12 74.56 20.00 186.89 2556.93
   17:29:00.198.09-Sep-2020 5302.51  850.73 74.55 20.00 187.09 2556.93
   17:29:00.398.09-Sep-2020 5302.51  850.73 74.55 20.00 187.29 2556.93
   17:29:00.599.09-Sep-2020 5302.51  747.68 74.54 20.00 187.49 2556.93
   17:29:00.799.09-Sep-2020 5302.51  697.18 74.54 20.00 187.69 2556.93
   17:29:00.999.09-Sep-2020 5302.51  669.35 74.54 20.00 187.89 2556.93
   17:29:01.199.09-Sep-2020 5302.51  658.57 74.53 20.00 188.09 2556.93
   17:29:01.399.09-Sep-2020 5302.51  658.57 74.53 20.00 188.29 2556.93
   17:29:01.599.09-Sep-2020 5302.51  673.83 74.52 20.00 188.49 2556.93
   17:29:01.799.09-Sep-2020 5302.51  678.31 74.52 20.00 188.69 2556.93
   17:29:01.999.09-Sep-2020 5302.51  681.90 74.51 20.00 188.89 2556.93
   17:29:02.199.09-Sep-2020 5302.51  685.30 74.51 20.00 189.09 2556.93
   17:29:02.399.09-Sep-2020 5302.51  685.30 74.51 20.00 189.29 2556.93
   17:29:02.599.09-Sep-2020 5302.51  691.81 74.50 20.00 189.49 2556.93
   17:29:02.800.09-Sep-2020 5302.51  694.87 74.50 20.00 189.69 2556.93
   17:29:03.000.09-Sep-2020 5302.51  697.86 74.49 20.00 189.89 2556.93
   17:29:03.200.09-Sep-2020 5302.51  700.77 74.49 20.00 190.09 2556.93
   17:29:03.400.09-Sep-2020 5302.51  700.77 74.49 20.00 190.29 2556.93
   17:29:03.600.09-Sep-2020 5302.51  706.43 74.48 20.00 190.49 2556.93
   17:29:03.800.09-Sep-2020 5302.51  709.08 74.48 20.00 190.69 2556.93
   17:29:04.000.09-Sep-2020 5302.51  711.63 74.48 20.00 190.89 2556.93
   17:29:04.200.09-Sep-2020 5302.51  714.17 74.47 20.00 191.09 2556.93
   17:29:04.400.09-Sep-2020 5302.51  714.17 74.47 20.00 191.29 2556.93
   17:29:04.600.09-Sep-2020 5302.51  719.17 74.47 20.00 191.49 2556.93
   17:29:04.801.09-Sep-2020 5302.51  721.12 74.46 20.00 191.69 2556.93
   17:29:05.001.09-Sep-2020 5302.51  723.47 74.46 20.00 191.89 2556.93
   17:29:05.201.09-Sep-2020 5302.51  726.01 74.46 20.00 192.09 2556.93
   17:29:05.401.09-Sep-2020 5302.51  726.01 74.46 20.00 192.29 2556.93
   17:29:05.601.09-Sep-2020 5302.51  730.42 74.45 20.00 192.49 2556.93
   17:29:05.801.09-Sep-2020 5302.51  732.70 74.45 20.00 192.69 2556.93
   17:29:06.001.09-Sep-2020 5302.51  733.83 74.45 20.00 192.89 2556.93
   17:29:06.201.09-Sep-2020 5302.51  736.85 74.45 20.00 193.09 2556.93
   17:29:06.401.09-Sep-2020 5302.51  736.85 74.45 20.00 193.29 2556.93
   17:29:06.601.09-Sep-2020 5302.51  740.53 74.44 20.00 193.49 2556.93
   17:29:06.801.09-Sep-2020 5302.51  742.01 74.44 20.00 193.69 2556.93
   17:29:07.002.09-Sep-2020 5302.51  744.21 74.44 20.00 193.89 2556.93
   17:29:07.202.09-Sep-2020 5302.51  746.21 74.44 20.00 194.09 2556.93
   17:29:07.402.09-Sep-2020 5302.51  746.21 74.44 20.00 194.29 2556.93
   17:29:07.602.09-Sep-2020 5302.51  749.84 74.44 20.00 194.49 2556.93
   17:29:07.802.09-Sep-2020 5302.51  751.70 74.44 20.00 194.69 2556.93
   17:29:08.002.09-Sep-2020 5302.51  752.97 74.44 20.00 194.89 2556.93
   17:29:08.202.09-Sep-2020 5302.51  754.79 74.43 20.00 195.09 2556.93
   17:29:08.402.09-Sep-2020 5302.51  754.79 74.43 20.00 195.29 2556.93
   17:29:08.602.09-Sep-2020 5302.51  758.32 74.43 20.00 195.49 2556.93
   17:29:08.802.09-Sep-2020 5302.51  759.95 74.43 20.00 195.69 2556.93
   17:29:09.003.09-Sep-2020 5302.51  761.72 74.43 20.00 195.89 2556.93
   17:29:09.203.09-Sep-2020 5302.51  763.24 74.43 20.00 196.09 2556.93
   17:29:09.403.09-Sep-2020 5302.51  763.24 74.43 20.00 196.29 2556.93
   17:29:09.603.09-Sep-2020 5302.51  766.08 74.43 20.00 196.49 2556.93
   17:29:09.803.09-Sep-2020 5302.51  767.85 74.43 20.00 196.69 2556.93
   17:29:10.003.09-Sep-2020 5302.51  769.38 74.43 20.00 196.89 2556.93
   17:29:10.203.09-Sep-2020 5302.51  770.85 74.43 20.00 197.09 2556.93
   17:29:10.403.09-Sep-2020 5302.51  770.85 74.43 20.00 197.29 2556.93
   17:29:10.603.09-Sep-2020 5302.51  773.80 74.43 20.00 197.49 2556.93
   17:29:10.803.09-Sep-2020 5302.51  775.25 74.43 20.00 197.69 2556.93
   17:29:11.003.09-Sep-2020 5302.51  776.66 74.43 20.00 197.89 2556.93
   17:29:11.204.09-Sep-2020 5302.51  778.02 74.43 20.00 198.09 2556.93
   17:29:11.404.09-Sep-2020 5302.51  778.02 74.43 20.00 198.30 2556.93
   17:29:11.604.09-Sep-2020 5302.51  780.66 74.43 20.00 198.50 2556.93
   17:29:11.804.09-Sep-2020 5302.51  781.99 74.43 20.00 198.70 2556.93
   17:29:12.004.09-Sep-2020 5302.51  783.31 74.43 20.00 198.90 2556.93
   17:29:12.204.09-Sep-2020 5302.51  784.61 74.43 20.00 199.10 2556.93
   17:29:12.404.09-Sep-2020 5302.51  784.61 74.43 20.00 199.30 2556.93
   17:29:12.604.09-Sep-2020 5302.51  787.12 74.43 20.00 199.50 2556.93
   17:29:12.804.09-Sep-2020 5302.51  788.36 74.43 20.00 199.70 2556.93
   17:29:13.004.09-Sep-2020 5302.51  789.56 74.43 20.00 199.90 2556.93
   17:29:13.205.09-Sep-2020 5302.51  790.04 74.43 20.00 200.10 2556.93
   17:29:13.405.09-Sep-2020 5302.51  790.04 74.43 20.00 200.30 2556.93
   17:29:13.605.09-Sep-2020 5302.51  792.84 74.43 20.00 200.50 2556.93
   17:29:13.805.09-Sep-2020 5302.51  793.97 74.43 20.00 200.70 2556.93
   17:29:14.005.09-Sep-2020 5302.51  795.28 74.43 20.00 200.90 2556.93
   17:29:14.205.09-Sep-2020 5302.51  796.30 74.43 20.00 201.10 2556.93
   17:29:14.405.09-Sep-2020 5302.51  796.30 74.43 20.00 201.30 2556.93
   17:29:14.605.09-Sep-2020 5302.51  798.56 74.43 20.00 201.50 2556.93
   17:29:14.805.09-Sep-2020 5302.51  799.60 74.43 20.00 201.70 2556.93
   17:29:15.005.09-Sep-2020 5302.51  800.61 74.43 20.00 201.90 2556.93
   17:29:15.206.09-Sep-2020 5302.51  801.71 74.43 20.00 202.10 2556.93
   17:29:15.406.09-Sep-2020 5302.51  801.71 74.43 20.00 202.30 2556.93
   17:29:15.606.09-Sep-2020 5302.51  803.84 74.43 20.00 202.50 2556.93
   17:29:15.806.09-Sep-2020 5302.51  804.86 74.43 20.00 202.70 2556.93
   17:29:16.006.09-Sep-2020 5302.51  805.79 74.43 20.00 202.90 2556.93
   17:29:16.206.09-Sep-2020 5302.51  806.78 74.43 20.00 203.10 2556.93
   17:29:16.406.09-Sep-2020 5302.51  806.78 74.43 20.00 203.30 2556.93
