~Version Information
 VERS.                  2.0:   CWLS log ASCII Standard -VERSION 2.0
 WRAP.                   NO:   One line per depth step
~Well Information Block
#MNEM.UNIT     VALUE/NAME     DESCRIPTION
#---------     -----------    ---------------------------
 STRT.S             18:19:19 09-Sep-20: START TIME 18:19:19 09-Sep-20
 STOP.S             18:27:34 09-Sep-20: STOP TIME  18:27:34 09-Sep-20
 STEP.S                   0.00: STEP TIME
 NULL.                 -999.25: NULL VALUE
 MDS .        Operator Entered:  MAG DATA SOURCE
 PDAT.          Mean Sea Level:  PERMANENT DATUM
 DCON.         Sperry Drilling:  DIRECTNL CONTR
 RIG .              West Azeri:  RIG NAME
 WELL.           C40 (Slot 20):  WELL NAME
 SRVC.     Turan Drilling Engineering:  CONTRACTOR
 FLD .                     ACG:  FIELD NAME
 CTRY.              Azerbaijan:  COUNTRY NAME
 PROV.                    Baku:  PROVINCE
 STAT.                    Baku:  STATE NAME
 REGN.                   EESSA:  REGION
 BASE.              Azerbaijan:  LOGGING EQUIPMENT BASE LOCATION
 COMP.     BP Exploration (Caspian Sea) Ltd:  COMPANY
 WTYP.                Deviated:  WELL TYPE
 SON .        AZ-XX-0906344804:  JOB NUMBER
 FTOP.          Formation Tops:  FORM TOPS DESC
 ILTD.               Lithology:  INTERP LTH DESC
 SVYD.                  Survey:  SURVEY DESC
 DMOD.             Drill Model:  DRILL MOD DESC
 HPTY.       Minimum Curvature:  HOLE POS TYPE
 NREF.                    Grid:  NORTH REFERENCE
 SPUD.               01-Jan-20:  SPUD DATE
 DATE.      00.59.44 15-Sep-20:  END TIME
 STIM.      12.00.00 12-Jun-20:  START TIME
 DMF .             Drill Floor:  DRILL MEAS FROM
 DFST.                        :  DIST FSL TEXT
 DFWT.                        :  DIST FWL TEXT
 API .                        :  API NUMBER
 CNTY.                        :  COUNTY
 UWI .                        :  UNIQUE WELL IDENTIFIER
 LOC .                        :  LOCATION
 LMF .             Drill Floor:  LOG MEASURED FROM
 VSNS.m                   2.88:  VERT SEC N/S
 VSEW.m                  -3.84:  VERT SEC E/W
 AGAP.m                  43.42:  AIR GAP
 APD .m                  43.42:  DEPTH ABOVE PD
 WDMS.m                 118.27:  WD ELEV
 EGL .m                   0.00:  GROUND ELEVATION
 EPD .m                   0.00:  ELEVATION
 AZTC.deg                 6.23:  AZM TOTAL CORR
 GRDC.deg                 0.20:  GRID CORRECTION
 MDEC.deg                 6.43:  MAGNETIC DECL
 MDIP.deg                59.49:  MAGNETIC DIP
 MFLD.nT              50277.00:  MAGNETIC FIELD
 GVFD.g                   1.00:  GRAVITY FIELD
 VSDR.deg               173.20:  VERT SEC DIRECT
 TDD .m                5790.01:  TOTAL DEPTH (DRILLER)
 SDEP.m                5231.01:  START DEPTH
 DFSL.m                   0.00:  DISTANCE FSL
 DFWL.m                   0.00:  DISTANCE FWL
 UTMY.m             4435808.83:  UTM Y
 UTMX.m              526266.40:  UTM X
 WHEW.m                  -3.84:  WELL HEAD E/W
 WHNS.m                   2.88:  WELL HEAD N/S
 LONG.deg                51.31:  LONGITUDE
 LATI.deg                40.06:  LATITUDE
 TVDS.m                  43.42:  TVDSS CORRECTN
 DEP .m                 430.08:  DEPTH
 EKB .m                  43.42:  KB ELEVATION
 EDF .m                  43.42:  DF ELEVATION
 TDL .m                 559.00:  TOTAL DEPTH (LOGGER)
 MAGU.                 1849381:  MAGUTM CHECKSUM
 VSC .                       0:  VS TO CLOSURE
~Parameter Information Block
#MNEM.UNIT       Value        Description
#---------     -----------    ---------------------------
 AV  .mps                 4.87:  Ann Velocity 
 AVMX.mps                 7.08:  Max Ann Veloc 
 AZIF.deg               108.87:  Azm, Final 
 BHAT.                  Rotary:  BHA Type 
 BROT.°/30m               0.35:  Build Rotating 
 BS  .in                  8.50:  Bit Size 
 BSZ .in                  8.50:  Bit Size 
 BTPL.psig              360.00:  Bit Press Loss 
 CABU.                     Yes:  Customer Abuse 
 TCS .hr                106.24:  Time Ciculation Ended 
 CV  .mps                 1.77:  Crit Velocity 
 CVMX.mps                 2.03:  Max Crit Veloc 
 DD1 .         Aykhan Agagulov:  Direct Drillr 1 
 DD2 .            Nonso Okofor:  Direct Drillr 2 
 DDSV.               Geo-Pilot:  DD Service 
 DEFF.%                  98.00:  % Det Eff 
 DLRX.°/30m               0.50:  Dogleg Rot Max 
 DLSO.°/30m               0.40:  Dogleg Oriented 
 DLSX.°/30m               0.94:  Dogleg Str Max 
 DRET.      20.30.00 08-Sep-20:  Drill End Time 
 DRST.      22.15.00 06-Sep-20:  Drill Start Tim 
 DTIM.hr                 31.31:  Time Drilling 
 EDEP.m                5790.01:  End Depth 
 ENG1.           Amrah Tahirov:  Engineer 1 
 ENG2.         Dair Mahammadov:  Engineer 2 
 ENG3.           Emil Huseynov:  Engineer 3 
 ETIM.      04.01.04 12-Sep-20:  End Time 
 FLOI.gpm               450.00:  Flow In 
 FLON.gpm               450.00:  Flow In Min 
 FLOS.cptm                2.00:  Fluid Loss 
 FLOX.gpm               450.00:  Flow In Max 
 FTRO.       Formation Presure:  FTWD Run Obj 
 HFLO.                      No:  High Flow 
 HPRE.                      No:  High Pressure 
 HTEM.                      No:  High Temp 
 HYDO.m                   1.80:  Hydro Offset 
 IFIN.deg                72.03:  Inc, Final 
 IMAX.deg                73.72:  Inc Max 
 IMIN.deg                70.94:  Inc Min 
 IMND.m                5508.52:  Inc Min Depth 
 IMXD.m                5253.60:  Inc Max Depth 
 JARR.                      No:  Jarring 
 LETM.      20.30.00 08-Sep-20:  Log End Time 
 LOST.hr                     0:  Lost Rig Time 
 LSTM.      22.15.00 06-Sep-20:  Log Start Time 
 MDCL.ppm             36000.00:  Mud Chlorides 
 MDES.     Inversion Oil/Synthetic:  Mud Desc 
 DFD .sg                  1.44:  Mud Density 
 MDMN.sg                  1.44:  Dens Mud Min 
 MDMX.sg                  1.57:  Dens Mud Max 
 MOIL.                      70:  Run Mud Oil % 
 MOWR.                   70:30:  Run Mud OWR 
 MSND.                       0:  Run Mud Sand % 
 MSOL.                      21:  Run Mud Solids% 
 DFV .spqt               68.00:  Mud Viscosity 
 MWOD.in                  6.75:  MWD Tool OD 
 MWSI.                     Yes:  Serv Intrp, MWD 
 OTIM.hr                174.84:  Time Operating 
 PCON.           Look Like New:  Pad Condition 
 PMAX.psia            10616.93:  Press Op, Max 
 PV  .cP                 50.00:  Mud PV 
 RUN .                     700:  Run Number 
 ROPA.m/hr               14.24:  ROP Avg 
 ROPN.m/hr               10.00:  ROP Min 
 ROPX.m/hr               32.00:  ROP Max 
 RPMA.rpm               120.90:  RPM Surface Avg 
 RPMN.rpm               120.00:  RPM Surface Min 
 RPMX.rpm               140.00:  RPM Surface Max 
 RRUN.                    0700:  Rig Run Number 
 RTIM.hr                  3.20:  Time Reaming 
 SAZI.deg               109.99:  Azm, Start 
 SDEP.m                5231.01:  Start Depth 
 SIDD.                      No:  Serv Intrp, DD 
 SINC.deg                73.72:  Inc, Start 
 SPPA.psig             3051.00:  SPP Avg 
 SPPN.psig             2950.00:  SPP Min 
 SPPX.psig             3250.00:  SPP Max 
 STIM.      08.00.00 05-Sep-20:  Start Time 
 SVCS.                 DD, MWD:  Services 
 SVER.                    9.20:  Sperry Version 
 TDAT.m                 559.00:  Tot Depth Attmp 
 TDDF.                      No:  Trip for DD 
 TDLG.m                 559.00:  Tot Depth Loggd 
 TFF .                      No:  Trip for Fail 
 TQAA.f-kp               26.49:  Torque Abs Avg 
 TQAN.f-kp               25.00:  Torque Abs Min 
 TQAX.f-kp               27.00:  Torque Abs Max 
 TRRT.°/30m               1.50:  Turn Rotating 
 MRT .                    HCIM:  Maximum Recorded Temperature 
 TTMX.degC               90.20:  Max Tool Temp 
 VS01.                90542671:  Virtual Str1 SN 
 VS02.                90545185:  Virtual Str2 SN 
 VS03.                90602015:  Virtual Str3 SN 
 VS04.                90515230:  Virtual Str4 SN 
 WBMN.klb                 5.00:  WOB Min 
 WOBA.klb                14.79:  WOB Avg 
 WOBX.klb                20.00:  WOB Max 
 YP  .lhf2               29.00:  Yield Point 
~Curve Information Block
#MNEM.UNIT                 API CODE     Curve Description
#---------               -----------    ---------------------------
 TIME.HHMMSS            00 000 000 000:  GT Time & Date
 GTDEPTH.m              00 000 000 000:  GT Depth
 GTPQH.psia             00 000 000 000:  GT HR Quartz Pressure
 GTTQ.degC              00 000 000 000:  GT Quartz Temperature
 GTTN.NONE              00 000 000 000:  GT Test Number
 GTET.sec               00 000 000 000:  GT Elapsed Test Time
 GTTVD.m                00 000 000 000:  GT True Vertical Depth
#Other Information
#
#WARRANTY: Halliburton will use its best efforts to furnish customers with 
#accurate information and interpretations that are part of, and incident to, the services 
#provided.  However, Halliburton cannot and does not warrant the accuracy 
#or correctness of such information and interpretations.  Under no circumstances should any 
#such information or interpretation be relied upon as the sole basis for any drilling, 
#completion, production, or financial decision or any procedure involving any risk to the 
#safety of any drilling venture, drilling rig or its crew or any other third party.  The 
#Customer has full responsibility for all drilling, completion and production operation.  
#Halliburton makes no representations or warranties, either expressed or 
#implied, including, but not limited to, the implied warranties of merchantability or fitness 
#for a particular purpose, with respect to the services rendered.  In no event will 
#Halliburton be liable for failure to obtain any particular results or for 
#any damages, including, but not limited to, indirect, special or consequential damages, 
#resulting from the use of any information or interpretation provided by Halliburton.
#
~A           TIME           GTDEPTH  GTPQH  GTTQ  GTTN   GTET   GTTVD  
# ...
   18:24:58.676.09-Sep-2020 5281.01 4021.33 74.55 21.00 338.73 2550.59
   18:24:58.876.09-Sep-2020 5281.01 4021.33 74.55 21.00 338.93 2550.59
   18:24:59.076.09-Sep-2020 5281.01 4024.22 74.55 21.00 339.13 2550.59
   18:24:59.276.09-Sep-2020 5281.01 4025.48 74.56 21.00 339.33 2550.59
   18:24:59.476.09-Sep-2020 5281.01 4026.70 74.56 21.00 339.53 2550.59
   18:24:59.676.09-Sep-2020 5281.01 4027.86 74.56 21.00 339.73 2550.59
   18:24:59.875.09-Sep-2020 5281.01 4027.86 74.56 21.00 339.93 2550.59
   18:25:00.075.09-Sep-2020 5281.01 4030.04 74.56 21.00 340.13 2550.59
   18:25:00.275.09-Sep-2020 5281.01 4030.99 74.56 21.00 340.33 2550.59
   18:25:00.475.09-Sep-2020 5281.01 4029.23 74.56 21.00 340.53 2550.59
   18:25:00.675.09-Sep-2020 5281.01 4028.68 74.56 21.00 340.73 2550.59
   18:25:00.875.09-Sep-2020 5281.01 4028.68 74.56 21.00 340.93 2550.59
   18:25:01.074.09-Sep-2020 5281.01 4031.85 74.56 21.00 341.13 2550.59
   18:25:01.274.09-Sep-2020 5281.01 4033.12 74.56 21.00 341.33 2550.59
   18:25:01.474.09-Sep-2020 5281.01 4034.09 74.56 21.00 341.53 2550.59
   18:25:01.674.09-Sep-2020 5281.01 4035.09 74.56 21.00 341.73 2550.59
   18:25:01.874.09-Sep-2020 5281.01 4035.09 74.56 21.00 341.93 2550.59
   18:25:02.074.09-Sep-2020 5281.01 4036.84 74.56 21.00 342.13 2550.59
   18:25:02.274.09-Sep-2020 5281.01 4037.50 74.56 21.00 342.33 2550.59
   18:25:02.473.09-Sep-2020 5281.01 4038.16 74.56 21.00 342.53 2550.59
   18:25:02.673.09-Sep-2020 5281.01 4038.81 74.56 21.00 342.73 2550.59
   18:25:02.873.09-Sep-2020 5281.01 4038.81 74.56 21.00 342.93 2550.59
   18:25:03.073.09-Sep-2020 5281.01 4040.02 74.56 21.00 343.13 2550.59
   18:25:03.273.09-Sep-2020 5281.01 4040.55 74.56 21.00 343.33 2550.59
   18:25:03.473.09-Sep-2020 5281.01 4041.11 74.56 21.00 343.53 2550.59
   18:25:03.672.09-Sep-2020 5281.01 4041.54 74.56 21.00 343.73 2550.59
   18:25:03.872.09-Sep-2020 5281.01 4041.54 74.56 21.00 343.93 2550.59
   18:25:04.072.09-Sep-2020 5281.01 4040.24 74.56 21.00 344.13 2550.59
   18:25:04.272.09-Sep-2020 5281.01 4041.49 74.56 21.00 344.33 2550.59
   18:25:04.472.09-Sep-2020 5281.01 4042.24 74.56 21.00 344.53 2550.59
   18:25:04.672.09-Sep-2020 5281.01 4043.16 74.56 21.00 344.73 2550.59
   18:25:04.871.09-Sep-2020 5281.01 4043.16 74.56 21.00 344.93 2550.59
   18:25:05.071.09-Sep-2020 5281.01 4042.77 74.56 21.00 345.13 2550.59
   18:25:05.271.09-Sep-2020 5281.01 4043.07 74.56 21.00 345.33 2550.59
   18:25:05.471.09-Sep-2020 5281.01 4044.02 74.56 21.00 345.53 2550.59
   18:25:05.671.09-Sep-2020 5281.01 4044.57 74.56 21.00 345.73 2550.59
   18:25:05.871.09-Sep-2020 5281.01 4044.57 74.56 21.00 345.93 2550.59
   18:25:06.071.09-Sep-2020 5281.01 4044.28 74.56 21.00 346.13 2550.59
   18:25:06.270.09-Sep-2020 5281.01 4044.87 74.56 21.00 346.33 2550.59
   18:25:06.470.09-Sep-2020 5281.01 4045.72 74.56 21.00 346.53 2550.59
   18:25:06.670.09-Sep-2020 5281.01 4046.05 74.56 21.00 346.73 2550.59
   18:25:06.870.09-Sep-2020 5281.01 4046.05 74.56 21.00 346.93 2550.59
   18:25:07.070.09-Sep-2020 5281.01 4047.29 74.56 21.00 347.13 2550.59
   18:25:07.270.09-Sep-2020 5281.01 4045.86 74.56 21.00 347.33 2550.59
   18:25:07.469.09-Sep-2020 5281.01 4046.61 74.56 21.00 347.53 2550.59
   18:25:07.669.09-Sep-2020 5281.01 4046.86 74.56 21.00 347.73 2550.59
   18:25:07.869.09-Sep-2020 5281.01 4046.86 74.56 21.00 347.93 2550.59
   18:25:08.069.09-Sep-2020 5281.01 4048.10 74.56 21.00 348.13 2550.59
   18:25:08.269.09-Sep-2020 5281.01 4048.91 74.56 21.00 348.33 2550.59
   18:25:08.469.09-Sep-2020 5281.01 4048.04 74.56 21.00 348.53 2550.59
   18:25:08.669.09-Sep-2020 5281.01 4047.87 74.56 21.00 348.73 2550.59
   18:25:08.868.09-Sep-2020 5281.01 4047.87 74.56 21.00 348.93 2550.59
   18:25:09.068.09-Sep-2020 5281.01 4048.92 74.56 21.00 349.13 2550.59
   18:25:09.268.09-Sep-2020 5281.01 4049.39 74.56 21.00 349.33 2550.59
   18:25:09.468.09-Sep-2020 5281.01 4050.16 74.56 21.00 349.53 2550.59
   18:25:09.668.09-Sep-2020 5281.01 4050.34 74.56 21.00 349.73 2550.59
   18:25:09.868.09-Sep-2020 5281.01 4050.34 74.56 21.00 349.93 2550.59
   18:25:10.067.09-Sep-2020 5281.01 4050.98 74.56 21.00 350.13 2550.59
   18:25:10.267.09-Sep-2020 5281.01 4051.14 74.56 21.00 350.33 2550.59
   18:25:10.467.09-Sep-2020 5281.01 4051.30 74.56 21.00 350.53 2550.59
   18:25:10.667.09-Sep-2020 5281.01 4051.53 74.56 21.00 350.72 2550.59
   18:25:10.867.09-Sep-2020 5281.01 4051.53 74.56 21.00 350.92 2550.59
   18:25:11.067.09-Sep-2020 5281.01 4051.97 74.56 21.00 351.12 2550.59
   18:25:11.266.09-Sep-2020 5281.01 4052.17 74.56 21.00 351.32 2550.59
   18:25:11.466.09-Sep-2020 5281.01 4052.28 74.56 21.00 351.52 2550.59
   18:25:11.666.09-Sep-2020 5281.01 4052.45 74.56 21.00 351.72 2550.59
   18:25:11.866.09-Sep-2020 5281.01 4052.45 74.56 21.00 351.92 2550.59
   18:25:12.066.09-Sep-2020 5281.01 4052.71 74.56 21.00 352.12 2550.59
   18:25:12.266.09-Sep-2020 5281.01 4051.06 74.56 21.00 352.32 2550.59
   18:25:12.466.09-Sep-2020 5281.01 4051.55 74.56 21.00 352.52 2550.59
   18:25:12.665.09-Sep-2020 5281.01 4051.36 74.56 21.00 352.72 2550.59
   18:25:12.865.09-Sep-2020 5281.01 4051.95 74.56 21.00 352.92 2550.59
   18:25:13.065.09-Sep-2020 5281.01 4052.20 74.56 21.00 353.12 2550.59
   18:25:13.265.09-Sep-2020 5281.01 4052.91 74.56 21.00 353.32 2550.59
   18:25:13.465.09-Sep-2020 5281.01 4053.03 74.56 21.00 353.52 2550.59
   18:25:13.665.09-Sep-2020 5281.01 4053.13 74.56 21.00 353.72 2550.59
   18:25:13.864.09-Sep-2020 5281.01 4053.13 74.56 21.00 353.92 2550.59
   18:25:14.064.09-Sep-2020 5281.01 4053.44 74.56 21.00 354.12 2550.59
   18:25:14.264.09-Sep-2020 5281.01 4053.72 74.56 21.00 354.32 2550.59
   18:25:14.464.09-Sep-2020 5281.01 4053.90 74.56 21.00 354.52 2550.59
   18:25:14.664.09-Sep-2020 5281.01 4054.07 74.56 21.00 354.72 2550.59
   18:25:14.864.09-Sep-2020 5281.01 4054.07 74.56 21.00 354.92 2550.59
   18:25:15.064.09-Sep-2020 5281.01 4054.24 74.56 21.00 355.12 2550.59
   18:25:15.263.09-Sep-2020 5281.01 4054.36 74.56 21.00 355.32 2550.59
   18:25:15.463.09-Sep-2020 5281.01 4054.47 74.56 21.00 355.52 2550.59
   18:25:15.663.09-Sep-2020 5281.01 4053.10 74.56 21.00 355.72 2550.59
   18:25:15.863.09-Sep-2020 5281.01 4053.10 74.56 21.00 355.92 2550.59
   18:25:16.063.09-Sep-2020 5281.01 4053.43 74.56 21.00 356.12 2550.59
   18:25:16.263.09-Sep-2020 5281.01 4053.83 74.56 21.00 356.32 2550.59
   18:25:16.462.09-Sep-2020 5281.01 4054.36 74.56 21.00 356.52 2550.59
   18:25:16.662.09-Sep-2020 5281.01 4054.62 74.56 21.00 356.72 2550.59
   18:25:16.862.09-Sep-2020 5281.01 4054.62 74.56 21.00 356.92 2550.59
   18:25:17.062.09-Sep-2020 5281.01 4053.40 74.56 21.00 357.12 2550.59
   18:25:17.262.09-Sep-2020 5281.01 4054.25 74.56 21.00 357.32 2550.59
   18:25:17.462.09-Sep-2020 5281.01 4054.56 74.56 21.00 357.52 2550.59
   18:25:17.661.09-Sep-2020 5281.01 4055.20 74.56 21.00 357.72 2550.59
   18:25:17.861.09-Sep-2020 5281.01 4055.20 74.56 21.00 357.92 2550.59
   18:25:18.061.09-Sep-2020 5281.01 4054.52 74.56 21.00 358.12 2550.59
   18:25:18.261.09-Sep-2020 5281.01 4054.30 74.56 21.00 358.32 2550.59
   18:25:18.461.09-Sep-2020 5281.01 4054.44 74.56 21.00 358.52 2550.59
   18:25:18.661.09-Sep-2020 5281.01 4055.13 74.56 21.00 358.72 2550.59
   18:25:18.861.09-Sep-2020 5281.01 4055.13 74.56 21.00 358.92 2550.59
   18:25:19.060.09-Sep-2020 5281.01 4056.06 74.56 21.00 359.12 2550.59
   18:25:19.260.09-Sep-2020 5281.01 4056.07 74.56 21.00 359.32 2550.59
   18:25:19.460.09-Sep-2020 5281.01 4054.54 74.56 21.00 359.52 2550.59
   18:25:19.660.09-Sep-2020 5281.01 4054.77 74.56 21.00 359.72 2550.59
   18:25:19.860.09-Sep-2020 5281.01 4054.77 74.56 21.00 359.92 2550.59
   18:25:20.060.09-Sep-2020 5281.01 4056.01 74.56 21.00 360.12 2550.59
   18:25:20.259.09-Sep-2020 5281.01 4055.05 74.56 21.00 360.32 2550.59
   18:25:20.459.09-Sep-2020 5281.01 4054.82 74.56 21.00 360.52 2550.59
   18:25:20.659.09-Sep-2020 5281.01 4056.06 74.56 21.00 360.72 2550.59
   18:25:20.859.09-Sep-2020 5281.01 4056.06 74.56 21.00 360.92 2550.59
   18:25:21.059.09-Sep-2020 5281.01 4056.91 74.55 21.00 361.12 2550.59
