~Version Information
 VERS.                  2.0:   CWLS log ASCII Standard -VERSION 2.0
 WRAP.                   NO:   One line per depth step
~Well Information Block
#MNEM.UNIT     VALUE/NAME     DESCRIPTION
#---------     -----------    ---------------------------
 STRT.S             08:13:58 09-Sep-20: START TIME 08:13:58 09-Sep-20
 STOP.S             08:20:59 09-Sep-20: STOP TIME  08:20:59 09-Sep-20
 STEP.S                   0.00: STEP TIME
 NULL.                 -999.25: NULL VALUE
 MDS .        Operator Entered:  MAG DATA SOURCE
 PDAT.          Mean Sea Level:  PERMANENT DATUM
 DCON.         Sperry Drilling:  DIRECTNL CONTR
 RIG .              West Azeri:  RIG NAME
 WELL.           C40 (Slot 20):  WELL NAME
 SRVC.     Turan Drilling Engineering:  CONTRACTOR
 FLD .                     ACG:  FIELD NAME
 CTRY.              Azerbaijan:  COUNTRY NAME
 PROV.                    Baku:  PROVINCE
 STAT.                    Baku:  STATE NAME
 REGN.                   EESSA:  REGION
 BASE.              Azerbaijan:  LOGGING EQUIPMENT BASE LOCATION
 COMP.     BP Exploration (Caspian Sea) Ltd:  COMPANY
 WTYP.                Deviated:  WELL TYPE
 SON .        AZ-XX-0906344804:  JOB NUMBER
 FTOP.          Formation Tops:  FORM TOPS DESC
 ILTD.               Lithology:  INTERP LTH DESC
 SVYD.                  Survey:  SURVEY DESC
 DMOD.             Drill Model:  DRILL MOD DESC
 HPTY.       Minimum Curvature:  HOLE POS TYPE
 NREF.                    Grid:  NORTH REFERENCE
 SPUD.               01-Jan-20:  SPUD DATE
 DATE.      00.59.44 15-Sep-20:  END TIME
 STIM.      12.00.00 12-Jun-20:  START TIME
 DMF .             Drill Floor:  DRILL MEAS FROM
 DFST.                        :  DIST FSL TEXT
 DFWT.                        :  DIST FWL TEXT
 API .                        :  API NUMBER
 CNTY.                        :  COUNTY
 UWI .                        :  UNIQUE WELL IDENTIFIER
 LOC .                        :  LOCATION
 LMF .             Drill Floor:  LOG MEASURED FROM
 VSNS.m                   2.88:  VERT SEC N/S
 VSEW.m                  -3.84:  VERT SEC E/W
 AGAP.m                  43.42:  AIR GAP
 APD .m                  43.42:  DEPTH ABOVE PD
 WDMS.m                 118.27:  WD ELEV
 EGL .m                   0.00:  GROUND ELEVATION
 EPD .m                   0.00:  ELEVATION
 AZTC.deg                 6.23:  AZM TOTAL CORR
 GRDC.deg                 0.20:  GRID CORRECTION
 MDEC.deg                 6.43:  MAGNETIC DECL
 MDIP.deg                59.49:  MAGNETIC DIP
 MFLD.nT              50277.00:  MAGNETIC FIELD
 GVFD.g                   1.00:  GRAVITY FIELD
 VSDR.deg               173.20:  VERT SEC DIRECT
 TDD .m                5790.01:  TOTAL DEPTH (DRILLER)
 SDEP.m                5231.01:  START DEPTH
 DFSL.m                   0.00:  DISTANCE FSL
 DFWL.m                   0.00:  DISTANCE FWL
 UTMY.m             4435808.83:  UTM Y
 UTMX.m              526266.40:  UTM X
 WHEW.m                  -3.84:  WELL HEAD E/W
 WHNS.m                   2.88:  WELL HEAD N/S
 LONG.deg                51.31:  LONGITUDE
 LATI.deg                40.06:  LATITUDE
 TVDS.m                  43.42:  TVDSS CORRECTN
 DEP .m                 430.08:  DEPTH
 EKB .m                  43.42:  KB ELEVATION
 EDF .m                  43.42:  DF ELEVATION
 TDL .m                 559.00:  TOTAL DEPTH (LOGGER)
 MAGU.                 1849381:  MAGUTM CHECKSUM
 VSC .                       0:  VS TO CLOSURE
~Parameter Information Block
#MNEM.UNIT       Value        Description
#---------     -----------    ---------------------------
 AV  .mps                 4.87:  Ann Velocity 
 AVMX.mps                 7.08:  Max Ann Veloc 
 AZIF.deg               108.87:  Azm, Final 
 BHAT.                  Rotary:  BHA Type 
 BROT.°/30m               0.35:  Build Rotating 
 BS  .in                  8.50:  Bit Size 
 BSZ .in                  8.50:  Bit Size 
 BTPL.psig              360.00:  Bit Press Loss 
 CABU.                     Yes:  Customer Abuse 
 COMM.                     t›a:  Run Comments 1 
 TCS .hr                106.24:  Time Ciculation Ended 
 CV  .mps                 1.77:  Crit Velocity 
 CVMX.mps                 2.03:  Max Crit Veloc 
 DD1 .         Aykhan Agagulov:  Direct Drillr 1 
 DD2 .            Nonso Okofor:  Direct Drillr 2 
 DDSV.               Geo-Pilot:  DD Service 
 DEFF.%                  98.00:  % Det Eff 
 DLRX.°/30m               0.50:  Dogleg Rot Max 
 DLSO.°/30m               0.40:  Dogleg Oriented 
 DLSX.°/30m               0.94:  Dogleg Str Max 
 DRET.      20.30.00 08-Sep-20:  Drill End Time 
 DRST.      22.15.00 06-Sep-20:  Drill Start Tim 
 DTIM.hr                 31.31:  Time Drilling 
 EDEP.m                5790.01:  End Depth 
 ENG1.           Amrah Tahirov:  Engineer 1 
 ENG2.         Dair Mahammadov:  Engineer 2 
 ENG3.           Emil Huseynov:  Engineer 3 
 ETIM.      04.01.04 12-Sep-20:  End Time 
 FLOI.gpm               450.00:  Flow In 
 FLON.gpm               450.00:  Flow In Min 
 FLOS.cptm                2.00:  Fluid Loss 
 FLOX.gpm               450.00:  Flow In Max 
 FTRO.       Formation Presure:  FTWD Run Obj 
 HFLO.                      No:  High Flow 
 HPRE.                      No:  High Pressure 
 HTEM.                      No:  High Temp 
 HYDO.m                   1.80:  Hydro Offset 
 IFIN.deg                72.03:  Inc, Final 
 IMAX.deg                73.72:  Inc Max 
 IMIN.deg                70.94:  Inc Min 
 IMND.m                5508.52:  Inc Min Depth 
 IMXD.m                5253.60:  Inc Max Depth 
 JARR.                      No:  Jarring 
 LETM.      20.30.00 08-Sep-20:  Log End Time 
 LOST.hr                     0:  Lost Rig Time 
 LSTM.      22.15.00 06-Sep-20:  Log Start Time 
 MDCL.ppm             36000.00:  Mud Chlorides 
 MDES.     Inversion Oil/Synthetic:  Mud Desc 
 DFD .sg                  1.44:  Mud Density 
 MDMN.sg                  1.44:  Dens Mud Min 
 MDMX.sg                  1.57:  Dens Mud Max 
 MOIL.                      70:  Run Mud Oil % 
 MOWR.                   70:30:  Run Mud OWR 
 MSND.                       0:  Run Mud Sand % 
 MSOL.                      21:  Run Mud Solids% 
 DFV .spqt               68.00:  Mud Viscosity 
 MWOD.in                  6.75:  MWD Tool OD 
 MWSI.                     Yes:  Serv Intrp, MWD 
 OTIM.hr                174.84:  Time Operating 
 PCON.           Look Like New:  Pad Condition 
 PMAX.psia            10616.93:  Press Op, Max 
 PV  .cP                 50.00:  Mud PV 
 RUN .                     700:  Run Number 
 ROPA.m/hr               14.24:  ROP Avg 
 ROPN.m/hr               10.00:  ROP Min 
 ROPX.m/hr               32.00:  ROP Max 
 RPMA.rpm               120.90:  RPM Surface Avg 
 RPMN.rpm               120.00:  RPM Surface Min 
 RPMX.rpm               140.00:  RPM Surface Max 
 RRUN.                    0700:  Rig Run Number 
 RTIM.hr                  3.20:  Time Reaming 
 SAZI.deg               109.99:  Azm, Start 
 SDEP.m                5231.01:  Start Depth 
 SIDD.                      No:  Serv Intrp, DD 
 SINC.deg                73.72:  Inc, Start 
 SPPA.psig             3051.00:  SPP Avg 
 SPPN.psig             2950.00:  SPP Min 
 SPPX.psig             3250.00:  SPP Max 
 STIM.      08.00.00 05-Sep-20:  Start Time 
 SVCS.                 DD, MWD:  Services 
 SVER.                    9.20:  Sperry Version 
 TDAT.m                 559.00:  Tot Depth Attmp 
 TDDF.                      No:  Trip for DD 
 TDLG.m                 559.00:  Tot Depth Loggd 
 TFF .                      No:  Trip for Fail 
 TQAA.f-kp               26.49:  Torque Abs Avg 
 TQAN.f-kp               25.00:  Torque Abs Min 
 TQAX.f-kp               27.00:  Torque Abs Max 
 TRRT.°/30m               1.50:  Turn Rotating 
 MRT .                    HCIM:  Maximum Recorded Temperature 
 TTMX.degC               90.20:  Max Tool Temp 
 VS01.                90542671:  Virtual Str1 SN 
 VS02.                90545185:  Virtual Str2 SN 
 VS03.                90602015:  Virtual Str3 SN 
 VS04.                90515230:  Virtual Str4 SN 
 WBMN.klb                 5.00:  WOB Min 
 WOBA.klb                14.79:  WOB Avg 
 WOBX.klb                20.00:  WOB Max 
 YP  .lhf2               29.00:  Yield Point 
~Curve Information Block
#MNEM.UNIT                 API CODE     Curve Description
#---------               -----------    ---------------------------
 TIME.HHMMSS            00 000 000 000:  GT Time & Date
 GTDEPTH.m              00 000 000 000:  GT Depth
 GTPQH.psia             00 000 000 000:  GT HR Quartz Pressure
 GTTQ.degC              00 000 000 000:  GT Quartz Temperature
 GTTN.NONE              00 000 000 000:  GT Test Number
 GTET.sec               00 000 000 000:  GT Elapsed Test Time
 GTTVD.m                00 000 000 000:  GT True Vertical Depth
#Other Information
#
#WARRANTY: Halliburton will use its best efforts to furnish customers with 
#accurate information and interpretations that are part of, and incident to, the services 
#provided.  However, Halliburton cannot and does not warrant the accuracy 
#or correctness of such information and interpretations.  Under no circumstances should any 
#such information or interpretation be relied upon as the sole basis for any drilling, 
#completion, production, or financial decision or any procedure involving any risk to the 
#safety of any drilling venture, drilling rig or its crew or any other third party.  The 
#Customer has full responsibility for all drilling, completion and production operation.  
#Halliburton makes no representations or warranties, either expressed or 
#implied, including, but not limited to, the implied warranties of merchantability or fitness 
#for a particular purpose, with respect to the services rendered.  In no event will 
#Halliburton be liable for failure to obtain any particular results or for 
#any damages, including, but not limited to, indirect, special or consequential damages, 
#resulting from the use of any information or interpretation provided by Halliburton.
#
~A           TIME           GTDEPTH  GTPQH  GTTQ  GTTN  GTET   GTTVD  
# ...
   08:20:29.469.09-Sep-2020 5533.01 6476.42 78.05 5.00 391.15 2629.43
   08:20:29.669.09-Sep-2020 5533.01 6476.42 78.05 5.00 391.35 2629.43
   08:20:29.869.09-Sep-2020 5533.01 6476.38 78.05 5.00 391.55 2629.43
   08:20:30.069.09-Sep-2020 5533.01 6476.75 78.05 5.00 391.75 2629.43
   08:20:30.269.09-Sep-2020 5533.01 6482.49 78.05 5.00 391.95 2629.43
   08:20:30.470.09-Sep-2020 5533.01 6475.22 78.05 5.00 392.15 2629.43
   08:20:30.670.09-Sep-2020 5533.01 6478.46 78.05 5.00 392.35 2629.43
   08:20:30.870.09-Sep-2020 5533.01 6479.07 78.05 5.00 392.56 2629.43
   08:20:31.070.09-Sep-2020 5533.01 6476.73 78.05 5.00 392.76 2629.43
   08:20:31.270.09-Sep-2020 5533.01 6482.71 78.05 5.00 392.96 2629.43
   08:20:31.470.09-Sep-2020 5533.01 6478.21 78.05 5.00 393.16 2629.43
   08:20:31.670.09-Sep-2020 5533.01 6478.21 78.05 5.00 393.36 2629.43
   08:20:31.870.09-Sep-2020 5533.01 6479.56 78.05 5.00 393.56 2629.43
   08:20:32.070.09-Sep-2020 5533.01 6478.68 78.05 5.00 393.76 2629.43
   08:20:32.270.09-Sep-2020 5533.01 6486.06 78.05 5.00 393.96 2629.43
   08:20:32.470.09-Sep-2020 5533.01 6472.62 78.05 5.00 394.16 2629.43
   08:20:32.670.09-Sep-2020 5533.01 6472.62 78.05 5.00 394.36 2629.43
   08:20:32.871.09-Sep-2020 5533.01 6479.77 78.05 5.00 394.56 2629.43
   08:20:33.071.09-Sep-2020 5533.01 6477.19 78.05 5.00 394.76 2629.43
   08:20:33.271.09-Sep-2020 5533.01 6478.26 78.05 5.00 394.96 2629.43
   08:20:33.471.09-Sep-2020 5533.01 6481.42 78.05 5.00 395.16 2629.43
   08:20:33.671.09-Sep-2020 5533.01 6481.42 78.05 5.00 395.36 2629.43
   08:20:33.871.09-Sep-2020 5533.01 6474.46 78.05 5.00 395.56 2629.43
   08:20:34.071.09-Sep-2020 5533.01 6479.90 78.04 5.00 395.76 2629.43
   08:20:34.271.09-Sep-2020 5533.01 6478.60 78.04 5.00 395.96 2629.43
   08:20:34.471.09-Sep-2020 5533.01 6477.70 78.04 5.00 396.16 2629.43
   08:20:34.671.09-Sep-2020 5533.01 6483.58 78.04 5.00 396.36 2629.43
   08:20:34.871.09-Sep-2020 5533.01 6477.20 78.04 5.00 396.56 2629.43
   08:20:35.071.09-Sep-2020 5533.01 6480.50 78.04 5.00 396.76 2629.43
   08:20:35.271.09-Sep-2020 5533.01 6480.03 78.04 5.00 396.96 2629.43
   08:20:35.472.09-Sep-2020 5533.01 6477.84 78.04 5.00 397.16 2629.43
   08:20:35.672.09-Sep-2020 5533.01 6477.84 78.04 5.00 397.36 2629.43
   08:20:35.872.09-Sep-2020 5533.01 6478.09 78.04 5.00 397.56 2629.43
   08:20:36.072.09-Sep-2020 5533.01 6478.89 78.04 5.00 397.76 2629.43
   08:20:36.272.09-Sep-2020 5533.01 6477.40 78.04 5.00 397.96 2629.43
   08:20:36.472.09-Sep-2020 5533.01 6477.58 78.04 5.00 398.16 2629.43
   08:20:36.672.09-Sep-2020 5533.01 6477.58 78.04 5.00 398.36 2629.43
   08:20:36.872.09-Sep-2020 5533.01 6477.55 78.04 5.00 398.56 2629.43
   08:20:37.072.09-Sep-2020 5533.01 6477.40 78.04 5.00 398.76 2629.43
   08:20:37.272.09-Sep-2020 5533.01 6477.03 78.04 5.00 398.96 2629.43
   08:20:37.472.09-Sep-2020 5533.01 6476.98 78.04 5.00 399.16 2629.43
   08:20:37.672.09-Sep-2020 5533.01 6476.98 78.04 5.00 399.36 2629.43
   08:20:37.873.09-Sep-2020 5533.01 6477.24 78.04 5.00 399.56 2629.43
   08:20:38.073.09-Sep-2020 5533.01 6477.50 78.04 5.00 399.76 2629.43
   08:20:38.273.09-Sep-2020 5533.01 6488.87 78.04 5.00 399.96 2629.43
   08:20:38.473.09-Sep-2020 5533.01 6472.51 78.04 5.00 400.16 2629.43
   08:20:38.673.09-Sep-2020 5533.01 6477.04 78.04 5.00 400.36 2629.43
   08:20:38.873.09-Sep-2020 5533.01 6480.68 78.04 5.00 400.56 2629.43
   08:20:39.073.09-Sep-2020 5533.01 6478.98 78.04 5.00 400.76 2629.43
   08:20:39.273.09-Sep-2020 5533.01 6478.96 78.04 5.00 400.96 2629.43
   08:20:39.473.09-Sep-2020 5533.01 6477.24 78.04 5.00 401.16 2629.43
   08:20:39.673.09-Sep-2020 5533.01 6477.24 78.04 5.00 401.36 2629.43
   08:20:39.873.09-Sep-2020 5533.01 6478.04 78.04 5.00 401.56 2629.43
   08:20:40.073.09-Sep-2020 5533.01 6477.89 78.04 5.00 401.76 2629.43
   08:20:40.273.09-Sep-2020 5533.01 6478.13 78.04 5.00 401.96 2629.43
   08:20:40.474.09-Sep-2020 5533.01 6478.00 78.04 5.00 402.16 2629.43
   08:20:40.674.09-Sep-2020 5533.01 6478.00 78.04 5.00 402.36 2629.43
   08:20:40.874.09-Sep-2020 5533.01 6476.68 78.04 5.00 402.56 2629.43
   08:20:41.074.09-Sep-2020 5533.01 6476.55 78.04 5.00 402.76 2629.43
   08:20:41.274.09-Sep-2020 5533.01 6476.39 78.04 5.00 402.96 2629.43
   08:20:41.474.09-Sep-2020 5533.01 6476.75 78.04 5.00 403.16 2629.43
   08:20:41.674.09-Sep-2020 5533.01 6476.75 78.04 5.00 403.36 2629.43
   08:20:41.874.09-Sep-2020 5533.01 6477.82 78.04 5.00 403.56 2629.43
   08:20:42.074.09-Sep-2020 5533.01 6474.90 78.04 5.00 403.76 2629.43
   08:20:42.274.09-Sep-2020 5533.01 6479.76 78.04 5.00 403.96 2629.43
   08:20:42.474.09-Sep-2020 5533.01 6478.00 78.04 5.00 404.16 2629.43
   08:20:42.674.09-Sep-2020 5533.01 6478.00 78.04 5.00 404.36 2629.43
   08:20:42.874.09-Sep-2020 5533.01 6487.51 78.04 5.00 404.56 2629.43
   08:20:43.075.09-Sep-2020 5533.01 6471.94 78.03 5.00 404.76 2629.43
   08:20:43.275.09-Sep-2020 5533.01 6476.30 78.03 5.00 404.96 2629.43
   08:20:43.475.09-Sep-2020 5533.01 6479.54 78.03 5.00 405.16 2629.43
   08:20:43.675.09-Sep-2020 5533.01 6479.54 78.03 5.00 405.36 2629.43
   08:20:43.875.09-Sep-2020 5533.01 6484.12 78.03 5.00 405.56 2629.43
   08:20:44.075.09-Sep-2020 5533.01 6474.26 78.03 5.00 405.76 2629.43
   08:20:44.275.09-Sep-2020 5533.01 6479.42 78.03 5.00 405.96 2629.43
   08:20:44.475.09-Sep-2020 5533.01 6479.03 78.03 5.00 406.16 2629.43
   08:20:44.675.09-Sep-2020 5533.01 6479.03 78.03 5.00 406.36 2629.43
   08:20:44.875.09-Sep-2020 5533.01 6477.59 78.03 5.00 406.56 2629.43
   08:20:45.075.09-Sep-2020 5533.01 6487.77 78.03 5.00 406.76 2629.43
   08:20:45.275.09-Sep-2020 5533.01 6472.49 78.03 5.00 406.96 2629.43
   08:20:45.476.09-Sep-2020 5533.01 6475.30 78.03 5.00 407.16 2629.43
   08:20:45.676.09-Sep-2020 5533.01 6475.30 78.03 5.00 407.36 2629.43
   08:20:45.876.09-Sep-2020 5533.01 6477.84 78.03 5.00 407.56 2629.43
   08:20:46.076.09-Sep-2020 5533.01 6483.16 78.03 5.00 407.76 2629.43
   08:20:46.276.09-Sep-2020 5533.01 6477.95 78.03 5.00 407.96 2629.43
   08:20:46.476.09-Sep-2020 5533.01 6476.95 78.03 5.00 408.16 2629.43
   08:20:46.676.09-Sep-2020 5533.01 6480.60 78.03 5.00 408.36 2629.43
   08:20:46.876.09-Sep-2020 5533.01 6479.08 78.03 5.00 408.56 2629.43
   08:20:47.076.09-Sep-2020 5533.01 6477.65 78.03 5.00 408.76 2629.43
   08:20:47.276.09-Sep-2020 5533.01 6477.83 78.03 5.00 408.96 2629.43
   08:20:47.476.09-Sep-2020 5533.01 6478.16 78.03 5.00 409.16 2629.43
   08:20:47.676.09-Sep-2020 5533.01 6478.16 78.03 5.00 409.36 2629.43
   08:20:47.876.09-Sep-2020 5533.01 6477.82 78.03 5.00 409.56 2629.43
   08:20:48.077.09-Sep-2020 5533.01 6477.80 78.03 5.00 409.76 2629.43
   08:20:48.277.09-Sep-2020 5533.01 6478.21 78.03 5.00 409.96 2629.43
   08:20:48.477.09-Sep-2020 5533.01 6478.26 78.03 5.00 410.16 2629.43
   08:20:48.677.09-Sep-2020 5533.01 6478.26 78.03 5.00 410.36 2629.43
   08:20:48.877.09-Sep-2020 5533.01 6477.74 78.03 5.00 410.56 2629.43
   08:20:49.077.09-Sep-2020 5533.01 6477.83 78.03 5.00 410.76 2629.43
   08:20:49.277.09-Sep-2020 5533.01 6477.62 78.03 5.00 410.96 2629.43
   08:20:49.477.09-Sep-2020 5533.01 6477.81 78.03 5.00 411.16 2629.43
   08:20:49.677.09-Sep-2020 5533.01 6477.81 78.03 5.00 411.36 2629.43
   08:20:49.877.09-Sep-2020 5533.01 6487.06 78.03 5.00 411.56 2629.43
   08:20:50.077.09-Sep-2020 5533.01 6474.17 78.03 5.00 411.76 2629.43
   08:20:50.277.09-Sep-2020 5533.01 6478.45 78.03 5.00 411.96 2629.43
   08:20:50.477.09-Sep-2020 5533.01 6480.59 78.03 5.00 412.16 2629.43
   08:20:50.678.09-Sep-2020 5533.01 6478.81 78.03 5.00 412.36 2629.43
   08:20:50.878.09-Sep-2020 5533.01 6479.50 78.03 5.00 412.56 2629.43
   08:20:51.078.09-Sep-2020 5533.01 6477.44 78.03 5.00 412.76 2629.43
   08:20:51.278.09-Sep-2020 5533.01 6479.43 78.03 5.00 412.96 2629.43
   08:20:51.478.09-Sep-2020 5533.01 6477.43 78.03 5.00 413.16 2629.43
   08:20:51.678.09-Sep-2020 5533.01 6477.43 78.03 5.00 413.36 2629.43
   08:20:51.878.09-Sep-2020 5533.01 6477.85 78.03 5.00 413.56 2629.43
   08:20:52.078.09-Sep-2020 5533.01 6477.70 78.03 5.00 413.76 2629.43
   08:20:52.278.09-Sep-2020 5533.01 6476.70 78.03 5.00 413.96 2629.43
