~Version Information
 VERS.                  2.0:   CWLS log ASCII Standard -VERSION 2.0
 WRAP.                   NO:   One line per depth step
~Well Information Block
#MNEM.UNIT     VALUE/NAME     DESCRIPTION
#---------     -----------    ---------------------------
 STRT.S             08:34:18 09-Sep-20: START TIME 08:34:18 09-Sep-20
 STOP.S             08:41:20 09-Sep-20: STOP TIME  08:41:20 09-Sep-20
 STEP.S                   0.00: STEP TIME
 NULL.                 -999.25: NULL VALUE
 MDS .        Operator Entered:  MAG DATA SOURCE
 PDAT.          Mean Sea Level:  PERMANENT DATUM
 DCON.         Sperry Drilling:  DIRECTNL CONTR
 RIG .              West Azeri:  RIG NAME
 WELL.           C40 (Slot 20):  WELL NAME
 SRVC.     Turan Drilling Engineering:  CONTRACTOR
 FLD .                     ACG:  FIELD NAME
 CTRY.              Azerbaijan:  COUNTRY NAME
 PROV.                    Baku:  PROVINCE
 STAT.                    Baku:  STATE NAME
 REGN.                   EESSA:  REGION
 BASE.              Azerbaijan:  LOGGING EQUIPMENT BASE LOCATION
 COMP.     BP Exploration (Caspian Sea) Ltd:  COMPANY
 WTYP.                Deviated:  WELL TYPE
 SON .        AZ-XX-0906344804:  JOB NUMBER
 FTOP.          Formation Tops:  FORM TOPS DESC
 ILTD.               Lithology:  INTERP LTH DESC
 SVYD.                  Survey:  SURVEY DESC
 DMOD.             Drill Model:  DRILL MOD DESC
 HPTY.       Minimum Curvature:  HOLE POS TYPE
 NREF.                    Grid:  NORTH REFERENCE
 SPUD.               01-Jan-20:  SPUD DATE
 DATE.      00.59.44 15-Sep-20:  END TIME
 STIM.      12.00.00 12-Jun-20:  START TIME
 DMF .             Drill Floor:  DRILL MEAS FROM
 DFST.                        :  DIST FSL TEXT
 DFWT.                        :  DIST FWL TEXT
 API .                        :  API NUMBER
 CNTY.                        :  COUNTY
 UWI .                        :  UNIQUE WELL IDENTIFIER
 LOC .                        :  LOCATION
 LMF .             Drill Floor:  LOG MEASURED FROM
 VSNS.m                   2.88:  VERT SEC N/S
 VSEW.m                  -3.84:  VERT SEC E/W
 AGAP.m                  43.42:  AIR GAP
 APD .m                  43.42:  DEPTH ABOVE PD
 WDMS.m                 118.27:  WD ELEV
 EGL .m                   0.00:  GROUND ELEVATION
 EPD .m                   0.00:  ELEVATION
 AZTC.deg                 6.23:  AZM TOTAL CORR
 GRDC.deg                 0.20:  GRID CORRECTION
 MDEC.deg                 6.43:  MAGNETIC DECL
 MDIP.deg                59.49:  MAGNETIC DIP
 MFLD.nT              50277.00:  MAGNETIC FIELD
 GVFD.g                   1.00:  GRAVITY FIELD
 VSDR.deg               173.20:  VERT SEC DIRECT
 TDD .m                5790.01:  TOTAL DEPTH (DRILLER)
 SDEP.m                5231.01:  START DEPTH
 DFSL.m                   0.00:  DISTANCE FSL
 DFWL.m                   0.00:  DISTANCE FWL
 UTMY.m             4435808.83:  UTM Y
 UTMX.m              526266.40:  UTM X
 WHEW.m                  -3.84:  WELL HEAD E/W
 WHNS.m                   2.88:  WELL HEAD N/S
 LONG.deg                51.31:  LONGITUDE
 LATI.deg                40.06:  LATITUDE
 TVDS.m                  43.42:  TVDSS CORRECTN
 DEP .m                 430.08:  DEPTH
 EKB .m                  43.42:  KB ELEVATION
 EDF .m                  43.42:  DF ELEVATION
 TDL .m                 559.00:  TOTAL DEPTH (LOGGER)
 MAGU.                 1849381:  MAGUTM CHECKSUM
 VSC .                       0:  VS TO CLOSURE
~Parameter Information Block
#MNEM.UNIT       Value        Description
#---------     -----------    ---------------------------
 AV  .mps                 4.87:  Ann Velocity 
 AVMX.mps                 7.08:  Max Ann Veloc 
 AZIF.deg               108.87:  Azm, Final 
 BHAT.                  Rotary:  BHA Type 
 BROT.°/30m               0.35:  Build Rotating 
 BS  .in                  8.50:  Bit Size 
 BSZ .in                  8.50:  Bit Size 
 BTPL.psig              360.00:  Bit Press Loss 
 CABU.                     Yes:  Customer Abuse 
 COMM.                     \¸P:  Run Comments 1 
 TCS .hr                106.24:  Time Ciculation Ended 
 CV  .mps                 1.77:  Crit Velocity 
 CVMX.mps                 2.03:  Max Crit Veloc 
 DD1 .         Aykhan Agagulov:  Direct Drillr 1 
 DD2 .            Nonso Okofor:  Direct Drillr 2 
 DDSV.               Geo-Pilot:  DD Service 
 DEFF.%                  98.00:  % Det Eff 
 DLRX.°/30m               0.50:  Dogleg Rot Max 
 DLSO.°/30m               0.40:  Dogleg Oriented 
 DLSX.°/30m               0.94:  Dogleg Str Max 
 DRET.      20.30.00 08-Sep-20:  Drill End Time 
 DRST.      22.15.00 06-Sep-20:  Drill Start Tim 
 DTIM.hr                 31.31:  Time Drilling 
 EDEP.m                5790.01:  End Depth 
 ENG1.           Amrah Tahirov:  Engineer 1 
 ENG2.         Dair Mahammadov:  Engineer 2 
 ENG3.           Emil Huseynov:  Engineer 3 
 ETIM.      04.01.04 12-Sep-20:  End Time 
 FLOI.gpm               450.00:  Flow In 
 FLON.gpm               450.00:  Flow In Min 
 FLOS.cptm                2.00:  Fluid Loss 
 FLOX.gpm               450.00:  Flow In Max 
 FTRO.       Formation Presure:  FTWD Run Obj 
 HFLO.                      No:  High Flow 
 HPRE.                      No:  High Pressure 
 HTEM.                      No:  High Temp 
 HYDO.m                   1.80:  Hydro Offset 
 IFIN.deg                72.03:  Inc, Final 
 IMAX.deg                73.72:  Inc Max 
 IMIN.deg                70.94:  Inc Min 
 IMND.m                5508.52:  Inc Min Depth 
 IMXD.m                5253.60:  Inc Max Depth 
 JARR.                      No:  Jarring 
 LETM.      20.30.00 08-Sep-20:  Log End Time 
 LOST.hr                     0:  Lost Rig Time 
 LSTM.      22.15.00 06-Sep-20:  Log Start Time 
 MDCL.ppm             36000.00:  Mud Chlorides 
 MDES.     Inversion Oil/Synthetic:  Mud Desc 
 DFD .sg                  1.44:  Mud Density 
 MDMN.sg                  1.44:  Dens Mud Min 
 MDMX.sg                  1.57:  Dens Mud Max 
 MOIL.                      70:  Run Mud Oil % 
 MOWR.                   70:30:  Run Mud OWR 
 MSND.                       0:  Run Mud Sand % 
 MSOL.                      21:  Run Mud Solids% 
 DFV .spqt               68.00:  Mud Viscosity 
 MWOD.in                  6.75:  MWD Tool OD 
 MWSI.                     Yes:  Serv Intrp, MWD 
 OTIM.hr                174.84:  Time Operating 
 PCON.           Look Like New:  Pad Condition 
 PMAX.psia            10616.93:  Press Op, Max 
 PV  .cP                 50.00:  Mud PV 
 RUN .                     700:  Run Number 
 ROPA.m/hr               14.24:  ROP Avg 
 ROPN.m/hr               10.00:  ROP Min 
 ROPX.m/hr               32.00:  ROP Max 
 RPMA.rpm               120.90:  RPM Surface Avg 
 RPMN.rpm               120.00:  RPM Surface Min 
 RPMX.rpm               140.00:  RPM Surface Max 
 RRUN.                    0700:  Rig Run Number 
 RTIM.hr                  3.20:  Time Reaming 
 SAZI.deg               109.99:  Azm, Start 
 SDEP.m                5231.01:  Start Depth 
 SIDD.                      No:  Serv Intrp, DD 
 SINC.deg                73.72:  Inc, Start 
 SPPA.psig             3051.00:  SPP Avg 
 SPPN.psig             2950.00:  SPP Min 
 SPPX.psig             3250.00:  SPP Max 
 STIM.      08.00.00 05-Sep-20:  Start Time 
 SVCS.                 DD, MWD:  Services 
 SVER.                    9.20:  Sperry Version 
 TDAT.m                 559.00:  Tot Depth Attmp 
 TDDF.                      No:  Trip for DD 
 TDLG.m                 559.00:  Tot Depth Loggd 
 TFF .                      No:  Trip for Fail 
 TQAA.f-kp               26.49:  Torque Abs Avg 
 TQAN.f-kp               25.00:  Torque Abs Min 
 TQAX.f-kp               27.00:  Torque Abs Max 
 TRRT.°/30m               1.50:  Turn Rotating 
 MRT .                    HCIM:  Maximum Recorded Temperature 
 TTMX.degC               90.20:  Max Tool Temp 
 VS01.                90542671:  Virtual Str1 SN 
 VS02.                90545185:  Virtual Str2 SN 
 VS03.                90602015:  Virtual Str3 SN 
 VS04.                90515230:  Virtual Str4 SN 
 WBMN.klb                 5.00:  WOB Min 
 WOBA.klb                14.79:  WOB Avg 
 WOBX.klb                20.00:  WOB Max 
 YP  .lhf2               29.00:  Yield Point 
~Curve Information Block
#MNEM.UNIT                 API CODE     Curve Description
#---------               -----------    ---------------------------
 TIME.HHMMSS            00 000 000 000:  GT Time & Date
 GTDEPTH.m              00 000 000 000:  GT Depth
 GTPQH.psia             00 000 000 000:  GT HR Quartz Pressure
 GTTQ.degC              00 000 000 000:  GT Quartz Temperature
 GTTN.NONE              00 000 000 000:  GT Test Number
 GTET.sec               00 000 000 000:  GT Elapsed Test Time
 GTTVD.m                00 000 000 000:  GT True Vertical Depth
#Other Information
#
#WARRANTY: Halliburton will use its best efforts to furnish customers with 
#accurate information and interpretations that are part of, and incident to, the services 
#provided.  However, Halliburton cannot and does not warrant the accuracy 
#or correctness of such information and interpretations.  Under no circumstances should any 
#such information or interpretation be relied upon as the sole basis for any drilling, 
#completion, production, or financial decision or any procedure involving any risk to the 
#safety of any drilling venture, drilling rig or its crew or any other third party.  The 
#Customer has full responsibility for all drilling, completion and production operation.  
#Halliburton makes no representations or warranties, either expressed or 
#implied, including, but not limited to, the implied warranties of merchantability or fitness 
#for a particular purpose, with respect to the services rendered.  In no event will 
#Halliburton be liable for failure to obtain any particular results or for 
#any damages, including, but not limited to, indirect, special or consequential damages, 
#resulting from the use of any information or interpretation provided by Halliburton.
#
~A           TIME           GTDEPTH  GTPQH  GTTQ  GTTN  GTET   GTTVD  
# ...
   08:35:04.815.09-Sep-2020 5524.01 3494.96 77.65 6.00  46.02 2626.56
   08:35:05.015.09-Sep-2020 5524.01 3494.96 77.65 6.00  46.22 2626.56
   08:35:05.215.09-Sep-2020 5524.01 3498.15 77.65 6.00  46.42 2626.56
   08:35:05.415.09-Sep-2020 5524.01 3495.66 77.64 6.00  46.62 2626.56
   08:35:05.615.09-Sep-2020 5524.01 3491.21 77.64 6.00  46.82 2626.56
   08:35:05.815.09-Sep-2020 5524.01 3493.21 77.64 6.00  47.02 2626.56
   08:35:06.015.09-Sep-2020 5524.01 3490.85 77.64 6.00  47.22 2626.56
   08:35:06.215.09-Sep-2020 5524.01 3485.65 77.63 6.00  47.42 2626.56
   08:35:06.415.09-Sep-2020 5524.01 3479.81 77.63 6.00  47.62 2626.56
   08:35:06.616.09-Sep-2020 5524.01 3483.39 77.63 6.00  47.82 2626.56
   08:35:06.816.09-Sep-2020 5524.01 3481.06 77.63 6.00  48.02 2626.56
   08:35:07.016.09-Sep-2020 5524.01 3481.06 77.63 6.00  48.22 2626.56
   08:35:07.216.09-Sep-2020 5524.01 3478.14 77.62 6.00  48.42 2626.56
   08:35:07.416.09-Sep-2020 5524.01 3477.89 77.62 6.00  48.62 2626.56
   08:35:07.616.09-Sep-2020 5524.01 3471.76 77.62 6.00  48.82 2626.56
   08:35:07.816.09-Sep-2020 5524.01 3482.14 77.61 6.00  49.02 2626.56
   08:35:08.016.09-Sep-2020 5524.01 3482.14 77.61 6.00  49.22 2626.56
   08:35:08.216.09-Sep-2020 5524.01 3472.53 77.61 6.00  49.42 2626.56
   08:35:08.416.09-Sep-2020 5524.01 3474.68 77.61 6.00  49.62 2626.56
   08:35:08.616.09-Sep-2020 5524.01 3486.97 77.60 6.00  49.82 2626.56
   08:35:08.816.09-Sep-2020 5524.01 3487.32 77.60 6.00  50.02 2626.56
   08:35:09.016.09-Sep-2020 5524.01 3487.32 77.60 6.00  50.22 2626.56
   08:35:09.217.09-Sep-2020 5524.01 3487.30 77.60 6.00  50.42 2626.56
   08:35:09.417.09-Sep-2020 5524.01 3484.82 77.59 6.00  50.62 2626.56
   08:35:09.617.09-Sep-2020 5524.01 3485.48 77.59 6.00  50.82 2626.56
   08:35:09.817.09-Sep-2020 5524.01 3485.47 77.59 6.00  51.02 2626.56
   08:35:10.017.09-Sep-2020 5524.01 3479.92 77.59 6.00  51.22 2626.56
   08:35:10.217.09-Sep-2020 5524.01 3487.71 77.59 6.00  51.42 2626.56
   08:35:10.417.09-Sep-2020 5524.01 3488.19 77.59 6.00  51.62 2626.56
   08:35:10.617.09-Sep-2020 5524.01 3485.50 77.58 6.00  51.82 2626.56
   08:35:10.817.09-Sep-2020 5524.01 3482.91 77.58 6.00  52.02 2626.56
   08:35:11.017.09-Sep-2020 5524.01 3482.91 77.58 6.00  52.22 2626.56
   08:35:11.217.09-Sep-2020 5524.01 3490.16 77.58 6.00  52.42 2626.56
   08:35:11.417.09-Sep-2020 5524.01 3489.80 77.58 6.00  52.62 2626.56
   08:35:11.618.09-Sep-2020 5524.01 3487.90 77.58 6.00  52.82 2626.56
   08:35:11.818.09-Sep-2020 5524.01 3487.78 77.58 6.00  53.02 2626.56
   08:35:12.018.09-Sep-2020 5524.01 3487.78 77.58 6.00  53.22 2626.56
   08:35:12.218.09-Sep-2020 5524.01 3491.63 77.57 6.00  53.42 2626.56
   08:35:12.418.09-Sep-2020 5524.01 3487.29 77.57 6.00  53.62 2626.56
   08:35:12.618.09-Sep-2020 5524.01 3553.96 77.57 6.00  53.82 2626.56
   08:35:12.818.09-Sep-2020 5524.01 3690.37 77.57 6.00  54.02 2626.56
   08:35:13.018.09-Sep-2020 5524.01 3690.37 77.57 6.00  54.22 2626.56
   08:35:13.218.09-Sep-2020 5524.01 3699.34 77.57 6.00  54.42 2626.56
   08:35:13.418.09-Sep-2020 5524.01 3699.40 77.57 6.00  54.62 2626.56
   08:35:13.618.09-Sep-2020 5524.01 3699.45 77.57 6.00  54.82 2626.56
   08:35:13.818.09-Sep-2020 5524.01 3699.53 77.57 6.00  55.02 2626.56
   08:35:14.018.09-Sep-2020 5524.01 3699.53 77.57 6.00  55.22 2626.56
   08:35:14.219.09-Sep-2020 5524.01 3699.67 77.57 6.00  55.42 2626.56
   08:35:14.419.09-Sep-2020 5524.01 3699.71 77.57 6.00  55.62 2626.56
   08:35:14.619.09-Sep-2020 5524.01 3699.78 77.57 6.00  55.82 2626.56
   08:35:14.819.09-Sep-2020 5524.01 3699.84 77.57 6.00  56.02 2626.56
   08:35:15.019.09-Sep-2020 5524.01 3699.87 77.57 6.00  56.22 2626.56
   08:35:15.219.09-Sep-2020 5524.01 3699.91 77.57 6.00  56.42 2626.56
   08:35:15.419.09-Sep-2020 5524.01 3699.95 77.56 6.00  56.62 2626.56
   08:35:15.619.09-Sep-2020 5524.01 3699.83 77.56 6.00  56.82 2626.56
   08:35:15.819.09-Sep-2020 5524.01 3700.30 77.56 6.00  57.02 2626.56
   08:35:16.019.09-Sep-2020 5524.01 3700.30 77.56 6.00  57.22 2626.56
   08:35:16.219.09-Sep-2020 5524.01 3700.06 77.56 6.00  57.42 2626.56
   08:35:16.419.09-Sep-2020 5524.01 3700.02 77.56 6.00  57.62 2626.56
   08:35:16.619.09-Sep-2020 5524.01 3700.10 77.56 6.00  57.82 2626.56
   08:35:16.820.09-Sep-2020 5524.01 3700.10 77.56 6.00  58.02 2626.56
   08:35:17.020.09-Sep-2020 5524.01 3700.10 77.56 6.00  58.22 2626.56
   08:35:17.220.09-Sep-2020 5524.01 3700.13 77.56 6.00  58.42 2626.56
   08:35:17.420.09-Sep-2020 5524.01 3700.14 77.56 6.00  58.62 2626.56
   08:35:17.620.09-Sep-2020 5524.01 3700.13 77.57 6.00  58.82 2626.56
   08:35:17.820.09-Sep-2020 5524.01 3700.14 77.57 6.00  59.02 2626.56
   08:35:18.020.09-Sep-2020 5524.01 3700.14 77.57 6.00  59.22 2626.56
   08:35:18.220.09-Sep-2020 5524.01 3700.16 77.57 6.00  59.42 2626.56
   08:35:18.420.09-Sep-2020 5524.01 3700.19 77.57 6.00  59.62 2626.56
   08:35:18.620.09-Sep-2020 5524.01 3700.19 77.57 6.00  59.82 2626.56
   08:35:18.820.09-Sep-2020 5524.01 3700.19 77.57 6.00  60.02 2626.56
   08:35:19.020.09-Sep-2020 5524.01 3700.35 77.57 6.00  60.22 2626.56
   08:35:19.221.09-Sep-2020 5524.01 3700.05 77.57 6.00  60.42 2626.56
   08:35:19.421.09-Sep-2020 5524.01 3700.22 77.57 6.00  60.62 2626.56
   08:35:19.621.09-Sep-2020 5524.01 3700.21 77.57 6.00  60.82 2626.56
   08:35:19.821.09-Sep-2020 5524.01 3700.35 77.57 6.00  61.02 2626.56
   08:35:20.021.09-Sep-2020 5524.01 3700.35 77.57 6.00  61.22 2626.56
   08:35:20.221.09-Sep-2020 5524.01 3700.33 77.57 6.00  61.42 2626.56
   08:35:20.421.09-Sep-2020 5524.01 3700.26 77.57 6.00  61.62 2626.56
   08:35:20.621.09-Sep-2020 5524.01 3700.27 77.57 6.00  61.82 2626.56
   08:35:20.821.09-Sep-2020 5524.01 3700.27 77.57 6.00  62.02 2626.56
   08:35:21.021.09-Sep-2020 5524.01 3700.27 77.57 6.00  62.22 2626.56
   08:35:21.221.09-Sep-2020 5524.01 3700.20 77.57 6.00  62.42 2626.56
   08:35:21.421.09-Sep-2020 5524.01 3699.80 77.57 6.00  62.62 2626.56
   08:35:21.621.09-Sep-2020 5524.01 3700.82 77.57 6.00  62.82 2626.56
   08:35:21.822.09-Sep-2020 5524.01 3700.26 77.57 6.00  63.02 2626.56
   08:35:22.022.09-Sep-2020 5524.01 3700.26 77.57 6.00  63.22 2626.56
   08:35:22.222.09-Sep-2020 5524.01 3700.26 77.57 6.00  63.43 2626.56
   08:35:22.422.09-Sep-2020 5524.01 3700.32 77.57 6.00  63.63 2626.56
   08:35:22.622.09-Sep-2020 5524.01 3700.05 77.57 6.00  63.83 2626.56
   08:35:22.822.09-Sep-2020 5524.01 3700.61 77.57 6.00  64.03 2626.56
   08:35:23.022.09-Sep-2020 5524.01 3700.33 77.57 6.00  64.23 2626.56
   08:35:23.222.09-Sep-2020 5524.01 3700.33 77.57 6.00  64.43 2626.56
   08:35:23.422.09-Sep-2020 5524.01 3700.30 77.57 6.00  64.63 2626.56
   08:35:23.622.09-Sep-2020 5524.01 3700.37 77.57 6.00  64.83 2626.56
   08:35:23.822.09-Sep-2020 5524.01 3700.35 77.57 6.00  65.03 2626.56
   08:35:24.022.09-Sep-2020 5524.01 3700.35 77.57 6.00  65.23 2626.56
   08:35:24.222.09-Sep-2020 5524.01 3700.44 77.57 6.00  65.43 2626.56
   08:35:24.423.09-Sep-2020 5524.01 3700.37 77.57 6.00  65.63 2626.56
   08:35:24.623.09-Sep-2020 5524.01 3700.38 77.57 6.00  65.83 2626.56
   08:35:24.823.09-Sep-2020 5524.01 3700.38 77.57 6.00  66.03 2626.56
   08:35:25.023.09-Sep-2020 5524.01 3700.38 77.57 6.00  66.23 2626.56
   08:35:25.223.09-Sep-2020 5524.01 3700.31 77.57 6.00  66.43 2626.56
   08:35:25.423.09-Sep-2020 5524.01 3700.38 77.57 6.00  66.63 2626.56
   08:35:25.623.09-Sep-2020 5524.01 3700.39 77.57 6.00  66.83 2626.56
   08:35:25.823.09-Sep-2020 5524.01 3700.39 77.57 6.00  67.03 2626.56
   08:35:26.023.09-Sep-2020 5524.01 3700.39 77.57 6.00  67.23 2626.56
   08:35:26.223.09-Sep-2020 5524.01 3700.40 77.57 6.00  67.43 2626.56
   08:35:26.423.09-Sep-2020 5524.01 3700.41 77.57 6.00  67.63 2626.56
   08:35:26.623.09-Sep-2020 5524.01 3700.42 77.57 6.00  67.83 2626.56
   08:35:26.824.09-Sep-2020 5524.01 3700.42 77.57 6.00  68.03 2626.56
   08:35:27.024.09-Sep-2020 5524.01 3700.42 77.57 6.00  68.23 2626.56
   08:35:27.224.09-Sep-2020 5524.01 3700.42 77.57 6.00  68.43 2626.56
   08:35:27.424.09-Sep-2020 5524.01 3700.43 77.57 6.00  68.63 2626.56
   08:35:27.624.09-Sep-2020 5524.01 3700.43 77.57 6.00  68.83 2626.56
