~Version Information
 VERS.                  2.0:   CWLS log ASCII Standard -VERSION 2.0
 WRAP.                   NO:   One line per depth step
~Well Information Block
#MNEM.UNIT     VALUE/NAME     DESCRIPTION
#---------     -----------    ---------------------------
 STRT.S             20:20:33 09-Sep-20: START TIME 20:20:33 09-Sep-20
 STOP.S             20:28:41 09-Sep-20: STOP TIME  20:28:41 09-Sep-20
 STEP.S                   0.00: STEP TIME
 NULL.                 -999.25: NULL VALUE
 MDS .        Operator Entered:  MAG DATA SOURCE
 PDAT.          Mean Sea Level:  PERMANENT DATUM
 DCON.         Sperry Drilling:  DIRECTNL CONTR
 RIG .              West Azeri:  RIG NAME
 WELL.           C40 (Slot 20):  WELL NAME
 SRVC.     Turan Drilling Engineering:  CONTRACTOR
 FLD .                     ACG:  FIELD NAME
 CTRY.              Azerbaijan:  COUNTRY NAME
 PROV.                    Baku:  PROVINCE
 STAT.                    Baku:  STATE NAME
 REGN.                   EESSA:  REGION
 BASE.              Azerbaijan:  LOGGING EQUIPMENT BASE LOCATION
 COMP.     BP Exploration (Caspian Sea) Ltd:  COMPANY
 WTYP.                Deviated:  WELL TYPE
 SON .        AZ-XX-0906344804:  JOB NUMBER
 FTOP.          Formation Tops:  FORM TOPS DESC
 ILTD.               Lithology:  INTERP LTH DESC
 SVYD.                  Survey:  SURVEY DESC
 DMOD.             Drill Model:  DRILL MOD DESC
 HPTY.       Minimum Curvature:  HOLE POS TYPE
 NREF.                    Grid:  NORTH REFERENCE
 SPUD.               01-Jan-20:  SPUD DATE
 DATE.      00.59.44 15-Sep-20:  END TIME
 STIM.      12.00.00 12-Jun-20:  START TIME
 DMF .             Drill Floor:  DRILL MEAS FROM
 DFST.                        :  DIST FSL TEXT
 DFWT.                        :  DIST FWL TEXT
 API .                        :  API NUMBER
 CNTY.                        :  COUNTY
 UWI .                        :  UNIQUE WELL IDENTIFIER
 LOC .                        :  LOCATION
 LMF .             Drill Floor:  LOG MEASURED FROM
 VSNS.m                   2.88:  VERT SEC N/S
 VSEW.m                  -3.84:  VERT SEC E/W
 AGAP.m                  43.42:  AIR GAP
 APD .m                  43.42:  DEPTH ABOVE PD
 WDMS.m                 118.27:  WD ELEV
 EGL .m                   0.00:  GROUND ELEVATION
 EPD .m                   0.00:  ELEVATION
 AZTC.deg                 6.23:  AZM TOTAL CORR
 GRDC.deg                 0.20:  GRID CORRECTION
 MDEC.deg                 6.43:  MAGNETIC DECL
 MDIP.deg                59.49:  MAGNETIC DIP
 MFLD.nT              50277.00:  MAGNETIC FIELD
 GVFD.g                   1.00:  GRAVITY FIELD
 VSDR.deg               173.20:  VERT SEC DIRECT
 TDD .m                5790.01:  TOTAL DEPTH (DRILLER)
 SDEP.m                5231.01:  START DEPTH
 DFSL.m                   0.00:  DISTANCE FSL
 DFWL.m                   0.00:  DISTANCE FWL
 UTMY.m             4435808.83:  UTM Y
 UTMX.m              526266.40:  UTM X
 WHEW.m                  -3.84:  WELL HEAD E/W
 WHNS.m                   2.88:  WELL HEAD N/S
 LONG.deg                51.31:  LONGITUDE
 LATI.deg                40.06:  LATITUDE
 TVDS.m                  43.42:  TVDSS CORRECTN
 DEP .m                 430.08:  DEPTH
 EKB .m                  43.42:  KB ELEVATION
 EDF .m                  43.42:  DF ELEVATION
 TDL .m                 559.00:  TOTAL DEPTH (LOGGER)
 MAGU.                 1849381:  MAGUTM CHECKSUM
 VSC .                       0:  VS TO CLOSURE
~Parameter Information Block
#MNEM.UNIT       Value        Description
#---------     -----------    ---------------------------
 AV  .mps                 4.87:  Ann Velocity 
 AVMX.mps                 7.08:  Max Ann Veloc 
 AZIF.deg               108.87:  Azm, Final 
 BHAT.                  Rotary:  BHA Type 
 BROT.°/30m               0.35:  Build Rotating 
 BS  .in                  8.50:  Bit Size 
 BSZ .in                  8.50:  Bit Size 
 BTPL.psig              360.00:  Bit Press Loss 
 CABU.                     Yes:  Customer Abuse 
 COMM.                     ÄìU:  Run Comments 1 
 TCS .hr                106.24:  Time Ciculation Ended 
 CV  .mps                 1.77:  Crit Velocity 
 CVMX.mps                 2.03:  Max Crit Veloc 
 DD1 .         Aykhan Agagulov:  Direct Drillr 1 
 DD2 .            Nonso Okofor:  Direct Drillr 2 
 DDSV.               Geo-Pilot:  DD Service 
 DEFF.%                  98.00:  % Det Eff 
 DLRX.°/30m               0.50:  Dogleg Rot Max 
 DLSO.°/30m               0.40:  Dogleg Oriented 
 DLSX.°/30m               0.94:  Dogleg Str Max 
 DRET.      20.30.00 08-Sep-20:  Drill End Time 
 DRST.      22.15.00 06-Sep-20:  Drill Start Tim 
 DTIM.hr                 31.31:  Time Drilling 
 EDEP.m                5790.01:  End Depth 
 ENG1.           Amrah Tahirov:  Engineer 1 
 ENG2.         Dair Mahammadov:  Engineer 2 
 ENG3.           Emil Huseynov:  Engineer 3 
 ETIM.      04.01.04 12-Sep-20:  End Time 
 FLOI.gpm               450.00:  Flow In 
 FLON.gpm               450.00:  Flow In Min 
 FLOS.cptm                2.00:  Fluid Loss 
 FLOX.gpm               450.00:  Flow In Max 
 FTRO.       Formation Presure:  FTWD Run Obj 
 HFLO.                      No:  High Flow 
 HPRE.                      No:  High Pressure 
 HTEM.                      No:  High Temp 
 HYDO.m                   1.80:  Hydro Offset 
 IFIN.deg                72.03:  Inc, Final 
 IMAX.deg                73.72:  Inc Max 
 IMIN.deg                70.94:  Inc Min 
 IMND.m                5508.52:  Inc Min Depth 
 IMXD.m                5253.60:  Inc Max Depth 
 JARR.                      No:  Jarring 
 LETM.      20.30.00 08-Sep-20:  Log End Time 
 LOST.hr                     0:  Lost Rig Time 
 LSTM.      22.15.00 06-Sep-20:  Log Start Time 
 MDCL.ppm             36000.00:  Mud Chlorides 
 MDES.     Inversion Oil/Synthetic:  Mud Desc 
 DFD .sg                  1.44:  Mud Density 
 MDMN.sg                  1.44:  Dens Mud Min 
 MDMX.sg                  1.57:  Dens Mud Max 
 MOIL.                      70:  Run Mud Oil % 
 MOWR.                   70:30:  Run Mud OWR 
 MSND.                       0:  Run Mud Sand % 
 MSOL.                      21:  Run Mud Solids% 
 DFV .spqt               68.00:  Mud Viscosity 
 MWOD.in                  6.75:  MWD Tool OD 
 MWSI.                     Yes:  Serv Intrp, MWD 
 OTIM.hr                174.84:  Time Operating 
 PCON.           Look Like New:  Pad Condition 
 PMAX.psia            10616.93:  Press Op, Max 
 PV  .cP                 50.00:  Mud PV 
 RUN .                     700:  Run Number 
 ROPA.m/hr               14.24:  ROP Avg 
 ROPN.m/hr               10.00:  ROP Min 
 ROPX.m/hr               32.00:  ROP Max 
 RPMA.rpm               120.90:  RPM Surface Avg 
 RPMN.rpm               120.00:  RPM Surface Min 
 RPMX.rpm               140.00:  RPM Surface Max 
 RRUN.                    0700:  Rig Run Number 
 RTIM.hr                  3.20:  Time Reaming 
 SAZI.deg               109.99:  Azm, Start 
 SDEP.m                5231.01:  Start Depth 
 SIDD.                      No:  Serv Intrp, DD 
 SINC.deg                73.72:  Inc, Start 
 SPPA.psig             3051.00:  SPP Avg 
 SPPN.psig             2950.00:  SPP Min 
 SPPX.psig             3250.00:  SPP Max 
 STIM.      08.00.00 05-Sep-20:  Start Time 
 SVCS.                 DD, MWD:  Services 
 SVER.                    9.20:  Sperry Version 
 TDAT.m                 559.00:  Tot Depth Attmp 
 TDDF.                      No:  Trip for DD 
 TDLG.m                 559.00:  Tot Depth Loggd 
 TFF .                      No:  Trip for Fail 
 TQAA.f-kp               26.49:  Torque Abs Avg 
 TQAN.f-kp               25.00:  Torque Abs Min 
 TQAX.f-kp               27.00:  Torque Abs Max 
 TRRT.°/30m               1.50:  Turn Rotating 
 MRT .                    HCIM:  Maximum Recorded Temperature 
 TTMX.degC               90.20:  Max Tool Temp 
 VS01.                90542671:  Virtual Str1 SN 
 VS02.                90545185:  Virtual Str2 SN 
 VS03.                90602015:  Virtual Str3 SN 
 VS04.                90515230:  Virtual Str4 SN 
 WBMN.klb                 5.00:  WOB Min 
 WOBA.klb                14.79:  WOB Avg 
 WOBX.klb                20.00:  WOB Max 
 YP  .lhf2               29.00:  Yield Point 
~Curve Information Block
#MNEM.UNIT                 API CODE     Curve Description
#---------               -----------    ---------------------------
 TIME.HHMMSS            00 000 000 000:  GT Time & Date
 GTDEPTH.m              00 000 000 000:  GT Depth
 GTPQH.psia             00 000 000 000:  GT HR Quartz Pressure
 GTTQ.degC              00 000 000 000:  GT Quartz Temperature
 GTTN.NONE              00 000 000 000:  GT Test Number
 GTET.sec               00 000 000 000:  GT Elapsed Test Time
 GTTVD.m                00 000 000 000:  GT True Vertical Depth
#Other Information
#
#WARRANTY: Halliburton will use its best efforts to furnish customers with 
#accurate information and interpretations that are part of, and incident to, the services 
#provided.  However, Halliburton cannot and does not warrant the accuracy 
#or correctness of such information and interpretations.  Under no circumstances should any 
#such information or interpretation be relied upon as the sole basis for any drilling, 
#completion, production, or financial decision or any procedure involving any risk to the 
#safety of any drilling venture, drilling rig or its crew or any other third party.  The 
#Customer has full responsibility for all drilling, completion and production operation.  
#Halliburton makes no representations or warranties, either expressed or 
#implied, including, but not limited to, the implied warranties of merchantability or fitness 
#for a particular purpose, with respect to the services rendered.  In no event will 
#Halliburton be liable for failure to obtain any particular results or for 
#any damages, including, but not limited to, indirect, special or consequential damages, 
#resulting from the use of any information or interpretation provided by Halliburton.
#
~A           TIME           GTDEPTH  GTPQH  GTTQ  GTTN   GTET   GTTVD  
# ...
   20:23:34.506.09-Sep-2020 5252.51  470.20 73.97 25.00 180.88 2542.44
   20:23:34.707.09-Sep-2020 5252.51  468.85 73.97 25.00 181.08 2542.44
   20:23:34.907.09-Sep-2020 5252.51  465.00 73.97 25.00 181.28 2542.44
   20:23:35.107.09-Sep-2020 5252.51  464.92 73.97 25.00 181.48 2542.44
   20:23:35.307.09-Sep-2020 5252.51  464.86 73.97 25.00 181.68 2542.44
   20:23:35.507.09-Sep-2020 5252.51  464.41 73.97 25.00 181.88 2542.44
   20:23:35.707.09-Sep-2020 5252.51  464.66 73.97 25.00 182.08 2542.44
   20:23:35.907.09-Sep-2020 5252.51  464.66 73.97 25.00 182.28 2542.44
   20:23:36.107.09-Sep-2020 5252.51  460.70 73.97 25.00 182.48 2542.44
   20:23:36.307.09-Sep-2020 5252.51  460.03 73.96 25.00 182.68 2542.44
   20:23:36.507.09-Sep-2020 5252.51  460.14 73.97 25.00 182.88 2542.44
   20:23:36.707.09-Sep-2020 5252.51  457.77 73.96 25.00 183.08 2542.44
   20:23:36.908.09-Sep-2020 5252.51  457.77 73.96 25.00 183.28 2542.44
   20:23:37.108.09-Sep-2020 5252.51  455.04 73.96 25.00 183.48 2542.44
   20:23:37.308.09-Sep-2020 5252.51  452.77 73.96 25.00 183.68 2542.44
   20:23:37.508.09-Sep-2020 5252.51  450.53 73.96 25.00 183.88 2542.44
   20:23:37.708.09-Sep-2020 5252.51  449.83 73.96 25.00 184.08 2542.44
   20:23:37.908.09-Sep-2020 5252.51  449.83 73.96 25.00 184.28 2542.44
   20:23:38.108.09-Sep-2020 5252.51  450.36 73.96 25.00 184.49 2542.44
   20:23:38.308.09-Sep-2020 5252.51  450.86 73.96 25.00 184.69 2542.44
   20:23:38.508.09-Sep-2020 5252.51  450.98 73.96 25.00 184.89 2542.44
   20:23:38.708.09-Sep-2020 5252.51  451.07 73.96 25.00 185.09 2542.44
   20:23:38.908.09-Sep-2020 5252.51  451.13 73.96 25.00 185.29 2542.44
   20:23:39.109.09-Sep-2020 5252.51  450.78 73.96 25.00 185.49 2542.44
   20:23:39.309.09-Sep-2020 5252.51  449.93 73.96 25.00 185.69 2542.44
   20:23:39.509.09-Sep-2020 5252.51  450.16 73.96 25.00 185.89 2542.44
   20:23:39.709.09-Sep-2020 5252.51  450.36 73.96 25.00 186.09 2542.44
   20:23:39.909.09-Sep-2020 5252.51  450.36 73.96 25.00 186.29 2542.44
   20:23:40.109.09-Sep-2020 5252.51  450.22 73.96 25.00 186.49 2542.44
   20:23:40.309.09-Sep-2020 5252.51  449.46 73.96 25.00 186.69 2542.44
   20:23:40.509.09-Sep-2020 5252.51  448.95 73.96 25.00 186.89 2542.44
   20:23:40.709.09-Sep-2020 5252.51  446.97 73.96 25.00 187.09 2542.44
   20:23:40.909.09-Sep-2020 5252.51  442.60 73.96 25.00 187.29 2542.44
   20:23:41.109.09-Sep-2020 5252.51  442.27 73.96 25.00 187.49 2542.44
   20:23:41.310.09-Sep-2020 5252.51  441.26 73.96 25.00 187.69 2542.44
   20:23:41.510.09-Sep-2020 5252.51  438.40 73.96 25.00 187.89 2542.44
   20:23:41.710.09-Sep-2020 5252.51  430.62 73.96 25.00 188.09 2542.44
   20:23:41.910.09-Sep-2020 5252.51  430.62 73.96 25.00 188.29 2542.44
   20:23:42.110.09-Sep-2020 5252.51  431.12 73.96 25.00 188.49 2542.44
   20:23:42.310.09-Sep-2020 5252.51  433.26 73.96 25.00 188.69 2542.44
   20:23:42.510.09-Sep-2020 5252.51  433.75 73.96 25.00 188.89 2542.44
   20:23:42.710.09-Sep-2020 5252.51  434.40 73.96 25.00 189.09 2542.44
   20:23:42.910.09-Sep-2020 5252.51  434.47 73.96 25.00 189.29 2542.44
   20:23:43.110.09-Sep-2020 5252.51  435.07 73.96 25.00 189.49 2542.44
   20:23:43.311.09-Sep-2020 5252.51  436.09 73.96 25.00 189.69 2542.44
   20:23:43.511.09-Sep-2020 5252.51  436.23 73.96 25.00 189.89 2542.44
   20:23:43.711.09-Sep-2020 5252.51  436.38 73.96 25.00 190.09 2542.44
   20:23:43.911.09-Sep-2020 5252.51  436.38 73.96 25.00 190.29 2542.44
   20:23:44.111.09-Sep-2020 5252.51  437.04 73.96 25.00 190.49 2542.44
   20:23:44.311.09-Sep-2020 5252.51  437.40 73.96 25.00 190.69 2542.44
   20:23:44.511.09-Sep-2020 5252.51  437.54 73.96 25.00 190.89 2542.44
   20:23:44.711.09-Sep-2020 5252.51  437.77 73.96 25.00 191.09 2542.44
   20:23:44.911.09-Sep-2020 5252.51  437.77 73.96 25.00 191.29 2542.44
   20:23:45.111.09-Sep-2020 5252.51  438.24 73.96 25.00 191.49 2542.44
   20:23:45.311.09-Sep-2020 5252.51  438.37 73.96 25.00 191.69 2542.44
   20:23:45.512.09-Sep-2020 5252.51  438.50 73.96 25.00 191.89 2542.44
   20:23:45.712.09-Sep-2020 5252.51  438.77 73.96 25.00 192.09 2542.44
   20:23:45.912.09-Sep-2020 5252.51  438.77 73.96 25.00 192.29 2542.44
   20:23:46.112.09-Sep-2020 5252.51  439.04 73.96 25.00 192.49 2542.44
   20:23:46.312.09-Sep-2020 5252.51  439.17 73.96 25.00 192.69 2542.44
   20:23:46.512.09-Sep-2020 5252.51  439.31 73.96 25.00 192.89 2542.44
   20:23:46.712.09-Sep-2020 5252.51  439.45 73.96 25.00 193.09 2542.44
   20:23:46.912.09-Sep-2020 5252.51  439.45 73.96 25.00 193.29 2542.44
   20:23:47.112.09-Sep-2020 5252.51  439.75 73.96 25.00 193.49 2542.44
   20:23:47.312.09-Sep-2020 5252.51  439.84 73.96 25.00 193.69 2542.44
   20:23:47.512.09-Sep-2020 5252.51  440.01 73.96 25.00 193.89 2542.44
   20:23:47.713.09-Sep-2020 5252.51  440.16 73.96 25.00 194.09 2542.44
   20:23:47.913.09-Sep-2020 5252.51  440.32 73.96 25.00 194.29 2542.44
   20:23:48.113.09-Sep-2020 5252.51  440.50 73.96 25.00 194.49 2542.44
   20:23:48.313.09-Sep-2020 5252.51  440.57 73.96 25.00 194.69 2542.44
   20:23:48.513.09-Sep-2020 5252.51  440.29 73.96 25.00 194.89 2542.44
   20:23:48.713.09-Sep-2020 5252.51  441.08 73.96 25.00 195.09 2542.44
   20:23:48.913.09-Sep-2020 5252.51  441.24 73.96 25.00 195.29 2542.44
   20:23:49.113.09-Sep-2020 5252.51  441.34 73.96 25.00 195.49 2542.44
   20:23:49.313.09-Sep-2020 5252.51  441.64 73.96 25.00 195.69 2542.44
   20:23:49.513.09-Sep-2020 5252.51  441.61 73.96 25.00 195.89 2542.44
   20:23:49.713.09-Sep-2020 5252.51  441.82 73.96 25.00 196.09 2542.44
   20:23:49.914.09-Sep-2020 5252.51  441.82 73.96 25.00 196.29 2542.44
   20:23:50.114.09-Sep-2020 5252.51  442.05 73.96 25.00 196.49 2542.44
   20:23:50.314.09-Sep-2020 5252.51  442.13 73.96 25.00 196.69 2542.44
   20:23:50.514.09-Sep-2020 5252.51  442.25 73.96 25.00 196.89 2542.44
   20:23:50.714.09-Sep-2020 5252.51  442.38 73.96 25.00 197.09 2542.44
   20:23:50.914.09-Sep-2020 5252.51  442.52 73.96 25.00 197.29 2542.44
   20:23:51.114.09-Sep-2020 5252.51  442.68 73.96 25.00 197.49 2542.44
   20:23:51.314.09-Sep-2020 5252.51  442.81 73.96 25.00 197.69 2542.44
   20:23:51.514.09-Sep-2020 5252.51  442.90 73.96 25.00 197.89 2542.44
   20:23:51.714.09-Sep-2020 5252.51  442.44 73.96 25.00 198.09 2542.44
   20:23:51.914.09-Sep-2020 5252.51  442.44 73.96 25.00 198.29 2542.44
   20:23:52.115.09-Sep-2020 5252.51  443.50 73.96 25.00 198.49 2542.44
   20:23:52.315.09-Sep-2020 5252.51  443.56 73.96 25.00 198.69 2542.44
   20:23:52.515.09-Sep-2020 5252.51  443.80 73.96 25.00 198.89 2542.44
   20:23:52.715.09-Sep-2020 5252.51  443.79 73.96 25.00 199.09 2542.44
   20:23:52.915.09-Sep-2020 5252.51  443.46 73.96 25.00 199.29 2542.44
   20:23:53.115.09-Sep-2020 5252.51  444.23 73.96 25.00 199.49 2542.44
   20:23:53.315.09-Sep-2020 5252.51  444.40 73.96 25.00 199.69 2542.44
   20:23:53.515.09-Sep-2020 5252.51  444.45 73.96 25.00 199.89 2542.44
   20:23:53.715.09-Sep-2020 5252.51  444.72 73.96 25.00 200.09 2542.44
   20:23:53.915.09-Sep-2020 5252.51  444.65 73.96 25.00 200.29 2542.44
   20:23:54.115.09-Sep-2020 5252.51  444.85 73.96 25.00 200.49 2542.44
   20:23:54.316.09-Sep-2020 5252.51  444.24 73.96 25.00 200.69 2542.44
   20:23:54.516.09-Sep-2020 5252.51  445.20 73.96 25.00 200.89 2542.44
   20:23:54.716.09-Sep-2020 5252.51  445.22 73.96 25.00 201.09 2542.44
   20:23:54.916.09-Sep-2020 5252.51  445.36 73.96 25.00 201.29 2542.44
   20:23:55.116.09-Sep-2020 5252.51  445.41 73.96 25.00 201.49 2542.44
   20:23:55.316.09-Sep-2020 5252.51  445.72 73.96 25.00 201.69 2542.44
   20:23:55.516.09-Sep-2020 5252.51  445.14 73.96 25.00 201.89 2542.44
   20:23:55.716.09-Sep-2020 5252.51  445.95 73.96 25.00 202.09 2542.44
   20:23:55.916.09-Sep-2020 5252.51  446.11 73.96 25.00 202.29 2542.44
   20:23:56.116.09-Sep-2020 5252.51  446.12 73.96 25.00 202.49 2542.44
   20:23:56.317.09-Sep-2020 5252.51  446.37 73.96 25.00 202.69 2542.44
   20:23:56.517.09-Sep-2020 5252.51  446.45 73.96 25.00 202.89 2542.44
   20:23:56.717.09-Sep-2020 5252.51  446.56 73.96 25.00 203.09 2542.44
   20:23:56.917.09-Sep-2020 5252.51  446.07 73.97 25.00 203.29 2542.44
