~Version Information
 VERS.                  2.0:   CWLS log ASCII Standard -VERSION 2.0
 WRAP.                   NO:   One line per depth step
~Well Information Block
#MNEM.UNIT     VALUE/NAME     DESCRIPTION
#---------     -----------    ---------------------------
 STRT.S             16:52:14 09-Sep-20: START TIME 16:52:14 09-Sep-20
 STOP.S             17:00:39 09-Sep-20: STOP TIME  17:00:39 09-Sep-20
 STEP.S                   0.00: STEP TIME
 NULL.                 -999.25: NULL VALUE
 MDS .        Operator Entered:  MAG DATA SOURCE
 PDAT.          Mean Sea Level:  PERMANENT DATUM
 DCON.         Sperry Drilling:  DIRECTNL CONTR
 RIG .              West Azeri:  RIG NAME
 WELL.           C40 (Slot 20):  WELL NAME
 SRVC.     Turan Drilling Engineering:  CONTRACTOR
 FLD .                     ACG:  FIELD NAME
 CTRY.              Azerbaijan:  COUNTRY NAME
 PROV.                    Baku:  PROVINCE
 STAT.                    Baku:  STATE NAME
 REGN.                   EESSA:  REGION
 BASE.              Azerbaijan:  LOGGING EQUIPMENT BASE LOCATION
 COMP.     BP Exploration (Caspian Sea) Ltd:  COMPANY
 WTYP.                Deviated:  WELL TYPE
 SON .        AZ-XX-0906344804:  JOB NUMBER
 FTOP.          Formation Tops:  FORM TOPS DESC
 ILTD.               Lithology:  INTERP LTH DESC
 SVYD.                  Survey:  SURVEY DESC
 DMOD.             Drill Model:  DRILL MOD DESC
 HPTY.       Minimum Curvature:  HOLE POS TYPE
 NREF.                    Grid:  NORTH REFERENCE
 SPUD.               01-Jan-20:  SPUD DATE
 DATE.      00.59.44 15-Sep-20:  END TIME
 STIM.      12.00.00 12-Jun-20:  START TIME
 DMF .             Drill Floor:  DRILL MEAS FROM
 DFST.                        :  DIST FSL TEXT
 DFWT.                        :  DIST FWL TEXT
 API .                        :  API NUMBER
 CNTY.                        :  COUNTY
 UWI .                        :  UNIQUE WELL IDENTIFIER
 LOC .                        :  LOCATION
 LMF .             Drill Floor:  LOG MEASURED FROM
 VSNS.m                   2.88:  VERT SEC N/S
 VSEW.m                  -3.84:  VERT SEC E/W
 AGAP.m                  43.42:  AIR GAP
 APD .m                  43.42:  DEPTH ABOVE PD
 WDMS.m                 118.27:  WD ELEV
 EGL .m                   0.00:  GROUND ELEVATION
 EPD .m                   0.00:  ELEVATION
 AZTC.deg                 6.23:  AZM TOTAL CORR
 GRDC.deg                 0.20:  GRID CORRECTION
 MDEC.deg                 6.43:  MAGNETIC DECL
 MDIP.deg                59.49:  MAGNETIC DIP
 MFLD.nT              50277.00:  MAGNETIC FIELD
 GVFD.g                   1.00:  GRAVITY FIELD
 VSDR.deg               173.20:  VERT SEC DIRECT
 TDD .m                5790.01:  TOTAL DEPTH (DRILLER)
 SDEP.m                5231.01:  START DEPTH
 DFSL.m                   0.00:  DISTANCE FSL
 DFWL.m                   0.00:  DISTANCE FWL
 UTMY.m             4435808.83:  UTM Y
 UTMX.m              526266.40:  UTM X
 WHEW.m                  -3.84:  WELL HEAD E/W
 WHNS.m                   2.88:  WELL HEAD N/S
 LONG.deg                51.31:  LONGITUDE
 LATI.deg                40.06:  LATITUDE
 TVDS.m                  43.42:  TVDSS CORRECTN
 DEP .m                 430.08:  DEPTH
 EKB .m                  43.42:  KB ELEVATION
 EDF .m                  43.42:  DF ELEVATION
 TDL .m                 559.00:  TOTAL DEPTH (LOGGER)
 MAGU.                 1849381:  MAGUTM CHECKSUM
 VSC .                       0:  VS TO CLOSURE
~Parameter Information Block
#MNEM.UNIT       Value        Description
#---------     -----------    ---------------------------
 AV  .mps                 4.87:  Ann Velocity 
 AVMX.mps                 7.08:  Max Ann Veloc 
 AZIF.deg               108.87:  Azm, Final 
 BHAT.                  Rotary:  BHA Type 
 BROT.°/30m               0.35:  Build Rotating 
 BS  .in                  8.50:  Bit Size 
 BSZ .in                  8.50:  Bit Size 
 BTPL.psig              360.00:  Bit Press Loss 
 CABU.                     Yes:  Customer Abuse 
 TCS .hr                106.24:  Time Ciculation Ended 
 CV  .mps                 1.77:  Crit Velocity 
 CVMX.mps                 2.03:  Max Crit Veloc 
 DD1 .         Aykhan Agagulov:  Direct Drillr 1 
 DD2 .            Nonso Okofor:  Direct Drillr 2 
 DDSV.               Geo-Pilot:  DD Service 
 DEFF.%                  98.00:  % Det Eff 
 DLRX.°/30m               0.50:  Dogleg Rot Max 
 DLSO.°/30m               0.40:  Dogleg Oriented 
 DLSX.°/30m               0.94:  Dogleg Str Max 
 DRET.      20.30.00 08-Sep-20:  Drill End Time 
 DRST.      22.15.00 06-Sep-20:  Drill Start Tim 
 DTIM.hr                 31.31:  Time Drilling 
 EDEP.m                5790.01:  End Depth 
 ENG1.           Amrah Tahirov:  Engineer 1 
 ENG2.         Dair Mahammadov:  Engineer 2 
 ENG3.           Emil Huseynov:  Engineer 3 
 ETIM.      04.01.04 12-Sep-20:  End Time 
 FLOI.gpm               450.00:  Flow In 
 FLON.gpm               450.00:  Flow In Min 
 FLOS.cptm                2.00:  Fluid Loss 
 FLOX.gpm               450.00:  Flow In Max 
 FTRO.       Formation Presure:  FTWD Run Obj 
 HFLO.                      No:  High Flow 
 HPRE.                      No:  High Pressure 
 HTEM.                      No:  High Temp 
 HYDO.m                   1.80:  Hydro Offset 
 IFIN.deg                72.03:  Inc, Final 
 IMAX.deg                73.72:  Inc Max 
 IMIN.deg                70.94:  Inc Min 
 IMND.m                5508.52:  Inc Min Depth 
 IMXD.m                5253.60:  Inc Max Depth 
 JARR.                      No:  Jarring 
 LETM.      20.30.00 08-Sep-20:  Log End Time 
 LOST.hr                     0:  Lost Rig Time 
 LSTM.      22.15.00 06-Sep-20:  Log Start Time 
 MDCL.ppm             36000.00:  Mud Chlorides 
 MDES.     Inversion Oil/Synthetic:  Mud Desc 
 DFD .sg                  1.44:  Mud Density 
 MDMN.sg                  1.44:  Dens Mud Min 
 MDMX.sg                  1.57:  Dens Mud Max 
 MOIL.                      70:  Run Mud Oil % 
 MOWR.                   70:30:  Run Mud OWR 
 MSND.                       0:  Run Mud Sand % 
 MSOL.                      21:  Run Mud Solids% 
 DFV .spqt               68.00:  Mud Viscosity 
 MWOD.in                  6.75:  MWD Tool OD 
 MWSI.                     Yes:  Serv Intrp, MWD 
 OTIM.hr                174.84:  Time Operating 
 PCON.           Look Like New:  Pad Condition 
 PMAX.psia            10616.93:  Press Op, Max 
 PV  .cP                 50.00:  Mud PV 
 RUN .                     700:  Run Number 
 ROPA.m/hr               14.24:  ROP Avg 
 ROPN.m/hr               10.00:  ROP Min 
 ROPX.m/hr               32.00:  ROP Max 
 RPMA.rpm               120.90:  RPM Surface Avg 
 RPMN.rpm               120.00:  RPM Surface Min 
 RPMX.rpm               140.00:  RPM Surface Max 
 RRUN.                    0700:  Rig Run Number 
 RTIM.hr                  3.20:  Time Reaming 
 SAZI.deg               109.99:  Azm, Start 
 SDEP.m                5231.01:  Start Depth 
 SIDD.                      No:  Serv Intrp, DD 
 SINC.deg                73.72:  Inc, Start 
 SPPA.psig             3051.00:  SPP Avg 
 SPPN.psig             2950.00:  SPP Min 
 SPPX.psig             3250.00:  SPP Max 
 STIM.      08.00.00 05-Sep-20:  Start Time 
 SVCS.                 DD, MWD:  Services 
 SVER.                    9.20:  Sperry Version 
 TDAT.m                 559.00:  Tot Depth Attmp 
 TDDF.                      No:  Trip for DD 
 TDLG.m                 559.00:  Tot Depth Loggd 
 TFF .                      No:  Trip for Fail 
 TQAA.f-kp               26.49:  Torque Abs Avg 
 TQAN.f-kp               25.00:  Torque Abs Min 
 TQAX.f-kp               27.00:  Torque Abs Max 
 TRRT.°/30m               1.50:  Turn Rotating 
 MRT .                    HCIM:  Maximum Recorded Temperature 
 TTMX.degC               90.20:  Max Tool Temp 
 VS01.                90542671:  Virtual Str1 SN 
 VS02.                90545185:  Virtual Str2 SN 
 VS03.                90602015:  Virtual Str3 SN 
 VS04.                90515230:  Virtual Str4 SN 
 WBMN.klb                 5.00:  WOB Min 
 WOBA.klb                14.79:  WOB Avg 
 WOBX.klb                20.00:  WOB Max 
 YP  .lhf2               29.00:  Yield Point 
~Curve Information Block
#MNEM.UNIT                 API CODE     Curve Description
#---------               -----------    ---------------------------
 TIME.HHMMSS            00 000 000 000:  GT Time & Date
 GTDEPTH.m              00 000 000 000:  GT Depth
 GTPQH.psia             00 000 000 000:  GT HR Quartz Pressure
 GTTQ.degC              00 000 000 000:  GT Quartz Temperature
 GTTN.NONE              00 000 000 000:  GT Test Number
 GTET.sec               00 000 000 000:  GT Elapsed Test Time
 GTTVD.m                00 000 000 000:  GT True Vertical Depth
#Other Information
#
#WARRANTY: Halliburton will use its best efforts to furnish customers with 
#accurate information and interpretations that are part of, and incident to, the services 
#provided.  However, Halliburton cannot and does not warrant the accuracy 
#or correctness of such information and interpretations.  Under no circumstances should any 
#such information or interpretation be relied upon as the sole basis for any drilling, 
#completion, production, or financial decision or any procedure involving any risk to the 
#safety of any drilling venture, drilling rig or its crew or any other third party.  The 
#Customer has full responsibility for all drilling, completion and production operation.  
#Halliburton makes no representations or warranties, either expressed or 
#implied, including, but not limited to, the implied warranties of merchantability or fitness 
#for a particular purpose, with respect to the services rendered.  In no event will 
#Halliburton be liable for failure to obtain any particular results or for 
#any damages, including, but not limited to, indirect, special or consequential damages, 
#resulting from the use of any information or interpretation provided by Halliburton.
#
~A           TIME           GTDEPTH  GTPQH  GTTQ  GTTN   GTET   GTTVD  
# ...
   16:58:38.525.09-Sep-2020 5303.01 6324.04 74.66 19.00 384.38 2557.08
   16:58:38.725.09-Sep-2020 5303.01 6335.35 74.66 19.00 384.58 2557.08
   16:58:38.926.09-Sep-2020 5303.01 6321.05 74.66 19.00 384.78 2557.08
   16:58:39.126.09-Sep-2020 5303.01 6323.04 74.66 19.00 384.98 2557.08
   16:58:39.326.09-Sep-2020 5303.01 6325.04 74.66 19.00 385.18 2557.08
   16:58:39.526.09-Sep-2020 5303.01 6325.04 74.66 19.00 385.38 2557.08
   16:58:39.726.09-Sep-2020 5303.01 6325.75 74.66 19.00 385.58 2557.08
   16:58:39.926.09-Sep-2020 5303.01 6334.65 74.66 19.00 385.78 2557.08
   16:58:40.126.09-Sep-2020 5303.01 6324.97 74.66 19.00 385.98 2557.08
   16:58:40.326.09-Sep-2020 5303.01 6323.91 74.66 19.00 386.19 2557.08
   16:58:40.526.09-Sep-2020 5303.01 6323.91 74.66 19.00 386.39 2557.08
   16:58:40.726.09-Sep-2020 5303.01 6324.75 74.66 19.00 386.59 2557.08
   16:58:40.926.09-Sep-2020 5303.01 6326.41 74.66 19.00 386.79 2557.08
   16:58:41.127.09-Sep-2020 5303.01 6326.44 74.66 19.00 386.99 2557.08
   16:58:41.327.09-Sep-2020 5303.01 6333.56 74.66 19.00 387.19 2557.08
   16:58:41.527.09-Sep-2020 5303.01 6333.56 74.66 19.00 387.39 2557.08
   16:58:41.727.09-Sep-2020 5303.01 6323.55 74.66 19.00 387.59 2557.08
   16:58:41.927.09-Sep-2020 5303.01 6325.45 74.66 19.00 387.79 2557.08
   16:58:42.127.09-Sep-2020 5303.01 6325.06 74.66 19.00 387.99 2557.08
   16:58:42.327.09-Sep-2020 5303.01 6333.34 74.66 19.00 388.19 2557.08
   16:58:42.527.09-Sep-2020 5303.01 6333.34 74.66 19.00 388.39 2557.08
   16:58:42.727.09-Sep-2020 5303.01 6324.61 74.66 19.00 388.59 2557.08
   16:58:42.927.09-Sep-2020 5303.01 6325.65 74.66 19.00 388.79 2557.08
   16:58:43.128.09-Sep-2020 5303.01 6325.54 74.66 19.00 388.99 2557.08
   16:58:43.328.09-Sep-2020 5303.01 6327.11 74.66 19.00 389.19 2557.08
   16:58:43.528.09-Sep-2020 5303.01 6327.11 74.66 19.00 389.39 2557.08
   16:58:43.728.09-Sep-2020 5303.01 6326.73 74.66 19.00 389.59 2557.08
   16:58:43.928.09-Sep-2020 5303.01 6325.22 74.66 19.00 389.79 2557.08
   16:58:44.128.09-Sep-2020 5303.01 6326.25 74.66 19.00 389.99 2557.08
   16:58:44.328.09-Sep-2020 5303.01 6326.71 74.66 19.00 390.19 2557.08
   16:58:44.528.09-Sep-2020 5303.01 6326.71 74.66 19.00 390.39 2557.08
   16:58:44.728.09-Sep-2020 5303.01 6328.43 74.66 19.00 390.59 2557.08
   16:58:44.928.09-Sep-2020 5303.01 6327.19 74.66 19.00 390.79 2557.08
   16:58:45.128.09-Sep-2020 5303.01 6326.95 74.66 19.00 390.99 2557.08
   16:58:45.329.09-Sep-2020 5303.01 6326.61 74.66 19.00 391.19 2557.08
   16:58:45.529.09-Sep-2020 5303.01 6326.61 74.66 19.00 391.39 2557.08
   16:58:45.729.09-Sep-2020 5303.01 6327.02 74.66 19.00 391.59 2557.08
   16:58:45.929.09-Sep-2020 5303.01 6327.02 74.66 19.00 391.79 2557.08
   16:58:46.129.09-Sep-2020 5303.01 6327.11 74.66 19.00 391.99 2557.08
   16:58:46.329.09-Sep-2020 5303.01 6326.88 74.66 19.00 392.19 2557.08
   16:58:46.529.09-Sep-2020 5303.01 6326.88 74.66 19.00 392.39 2557.08
   16:58:46.729.09-Sep-2020 5303.01 6326.85 74.66 19.00 392.59 2557.08
   16:58:46.929.09-Sep-2020 5303.01 6326.80 74.66 19.00 392.79 2557.08
   16:58:47.129.09-Sep-2020 5303.01 6332.72 74.66 19.00 392.99 2557.08
   16:58:47.330.09-Sep-2020 5303.01 6327.78 74.66 19.00 393.19 2557.08
   16:58:47.530.09-Sep-2020 5303.01 6327.78 74.66 19.00 393.39 2557.08
   16:58:47.730.09-Sep-2020 5303.01 6326.84 74.66 19.00 393.59 2557.08
   16:58:47.930.09-Sep-2020 5303.01 6326.69 74.66 19.00 393.79 2557.08
   16:58:48.130.09-Sep-2020 5303.01 6327.38 74.66 19.00 393.99 2557.08
   16:58:48.330.09-Sep-2020 5303.01 6328.31 74.66 19.00 394.19 2557.08
   16:58:48.530.09-Sep-2020 5303.01 6328.31 74.66 19.00 394.39 2557.08
   16:58:48.730.09-Sep-2020 5303.01 6325.93 74.66 19.00 394.59 2557.08
   16:58:48.930.09-Sep-2020 5303.01 6325.61 74.66 19.00 394.79 2557.08
   16:58:49.130.09-Sep-2020 5303.01 6326.17 74.66 19.00 394.99 2557.08
   16:58:49.330.09-Sep-2020 5303.01 6326.07 74.66 19.00 395.19 2557.08
   16:58:49.531.09-Sep-2020 5303.01 6326.07 74.66 19.00 395.39 2557.08
   16:58:49.731.09-Sep-2020 5303.01 6325.81 74.66 19.00 395.59 2557.08
   16:58:49.931.09-Sep-2020 5303.01 6325.04 74.66 19.00 395.79 2557.08
   16:58:50.131.09-Sep-2020 5303.01 6325.00 74.66 19.00 395.99 2557.08
   16:58:50.331.09-Sep-2020 5303.01 6324.91 74.66 19.00 396.19 2557.08
   16:58:50.531.09-Sep-2020 5303.01 6324.91 74.66 19.00 396.39 2557.08
   16:58:50.731.09-Sep-2020 5303.01 6326.28 74.66 19.00 396.59 2557.08
   16:58:50.931.09-Sep-2020 5303.01 6324.77 74.66 19.00 396.79 2557.08
   16:58:51.131.09-Sep-2020 5303.01 6325.91 74.66 19.00 396.99 2557.08
   16:58:51.331.09-Sep-2020 5303.01 6325.43 74.66 19.00 397.19 2557.08
   16:58:51.532.09-Sep-2020 5303.01 6325.43 74.66 19.00 397.39 2557.08
   16:58:51.732.09-Sep-2020 5303.01 6338.27 74.66 19.00 397.59 2557.08
   16:58:51.932.09-Sep-2020 5303.01 6323.81 74.66 19.00 397.79 2557.08
   16:58:52.132.09-Sep-2020 5303.01 6324.52 74.66 19.00 397.99 2557.08
   16:58:52.332.09-Sep-2020 5303.01 6326.16 74.66 19.00 398.19 2557.08
   16:58:52.532.09-Sep-2020 5303.01 6326.16 74.66 19.00 398.39 2557.08
   16:58:52.732.09-Sep-2020 5303.01 6326.92 74.66 19.00 398.59 2557.08
   16:58:52.932.09-Sep-2020 5303.01 6327.68 74.66 19.00 398.79 2557.08
   16:58:53.132.09-Sep-2020 5303.01 6326.81 74.66 19.00 398.99 2557.08
   16:58:53.332.09-Sep-2020 5303.01 6334.31 74.66 19.00 399.19 2557.08
   16:58:53.533.09-Sep-2020 5303.01 6334.31 74.66 19.00 399.39 2557.08
   16:58:53.733.09-Sep-2020 5303.01 6325.00 74.66 19.00 399.59 2557.08
   16:58:53.933.09-Sep-2020 5303.01 6326.21 74.66 19.00 399.79 2557.08
   16:58:54.133.09-Sep-2020 5303.01 6325.81 74.66 19.00 399.99 2557.08
   16:58:54.333.09-Sep-2020 5303.01 6333.66 74.66 19.00 400.19 2557.08
   16:58:54.533.09-Sep-2020 5303.01 6333.66 74.66 19.00 400.39 2557.08
   16:58:54.733.09-Sep-2020 5303.01 6325.28 74.66 19.00 400.59 2557.08
   16:58:54.933.09-Sep-2020 5303.01 6326.54 74.66 19.00 400.79 2557.08
   16:58:55.133.09-Sep-2020 5303.01 6326.36 74.66 19.00 400.99 2557.08
   16:58:55.333.09-Sep-2020 5303.01 6327.93 74.66 19.00 401.19 2557.08
   16:58:55.533.09-Sep-2020 5303.01 6327.93 74.66 19.00 401.39 2557.08
   16:58:55.734.09-Sep-2020 5303.01 6336.08 74.66 19.00 401.59 2557.08
   16:58:55.934.09-Sep-2020 5303.01 6325.75 74.66 19.00 401.79 2557.08
   16:58:56.134.09-Sep-2020 5303.01 6325.53 74.66 19.00 401.99 2557.08
   16:58:56.334.09-Sep-2020 5303.01 6327.38 74.66 19.00 402.19 2557.08
   16:58:56.534.09-Sep-2020 5303.01 6327.38 74.66 19.00 402.39 2557.08
   16:58:56.734.09-Sep-2020 5303.01 6328.61 74.66 19.00 402.59 2557.08
   16:58:56.934.09-Sep-2020 5303.01 6328.61 74.66 19.00 402.79 2557.08
   16:58:57.134.09-Sep-2020 5303.01 6326.43 74.66 19.00 402.99 2557.08
   16:58:57.334.09-Sep-2020 5303.01 6326.12 74.66 19.00 403.19 2557.08
   16:58:57.534.09-Sep-2020 5303.01 6326.12 74.66 19.00 403.39 2557.08
   16:58:57.735.09-Sep-2020 5303.01 6327.07 74.66 19.00 403.59 2557.08
   16:58:57.935.09-Sep-2020 5303.01 6326.94 74.66 19.00 403.79 2557.08
   16:58:58.135.09-Sep-2020 5303.01 6326.76 74.66 19.00 403.99 2557.08
   16:58:58.335.09-Sep-2020 5303.01 6326.74 74.66 19.00 404.19 2557.08
   16:58:58.535.09-Sep-2020 5303.01 6326.74 74.66 19.00 404.39 2557.08
   16:58:58.735.09-Sep-2020 5303.01 6327.01 74.66 19.00 404.59 2557.08
   16:58:58.935.09-Sep-2020 5303.01 6326.94 74.66 19.00 404.79 2557.08
   16:58:59.135.09-Sep-2020 5303.01 6326.89 74.66 19.00 404.99 2557.08
   16:58:59.335.09-Sep-2020 5303.01 6332.66 74.66 19.00 405.19 2557.08
   16:58:59.535.09-Sep-2020 5303.01 6332.66 74.66 19.00 405.39 2557.08
   16:58:59.735.09-Sep-2020 5303.01 6326.37 74.66 19.00 405.59 2557.08
   16:58:59.936.09-Sep-2020 5303.01 6327.23 74.66 19.00 405.79 2557.08
   16:59:00.136.09-Sep-2020 5303.01 6327.14 74.66 19.00 405.99 2557.08
   16:59:00.336.09-Sep-2020 5303.01 6328.07 74.66 19.00 406.19 2557.08
   16:59:00.536.09-Sep-2020 5303.01 6328.07 74.66 19.00 406.39 2557.08
   16:59:00.736.09-Sep-2020 5303.01 6327.46 74.66 19.00 406.59 2557.08
   16:59:00.936.09-Sep-2020 5303.01 6326.37 74.66 19.00 406.79 2557.08
