~Version Information
 VERS.                  2.0:   CWLS log ASCII Standard -VERSION 2.0
 WRAP.                   NO:   One line per depth step
~Well Information Block
#MNEM.UNIT     VALUE/NAME     DESCRIPTION
#---------     -----------    ---------------------------
 STRT.S             08:13:58 09-Sep-20: START TIME 08:13:58 09-Sep-20
 STOP.S             08:20:59 09-Sep-20: STOP TIME  08:20:59 09-Sep-20
 STEP.S                   0.00: STEP TIME
 NULL.                 -999.25: NULL VALUE
 MDS .        Operator Entered:  MAG DATA SOURCE
 PDAT.          Mean Sea Level:  PERMANENT DATUM
 DCON.         Sperry Drilling:  DIRECTNL CONTR
 RIG .              West Azeri:  RIG NAME
 WELL.           C40 (Slot 20):  WELL NAME
 SRVC.     Turan Drilling Engineering:  CONTRACTOR
 FLD .                     ACG:  FIELD NAME
 CTRY.              Azerbaijan:  COUNTRY NAME
 PROV.                    Baku:  PROVINCE
 STAT.                    Baku:  STATE NAME
 REGN.                   EESSA:  REGION
 BASE.              Azerbaijan:  LOGGING EQUIPMENT BASE LOCATION
 COMP.     BP Exploration (Caspian Sea) Ltd:  COMPANY
 WTYP.                Deviated:  WELL TYPE
 SON .        AZ-XX-0906344804:  JOB NUMBER
 FTOP.          Formation Tops:  FORM TOPS DESC
 ILTD.               Lithology:  INTERP LTH DESC
 SVYD.                  Survey:  SURVEY DESC
 DMOD.             Drill Model:  DRILL MOD DESC
 HPTY.       Minimum Curvature:  HOLE POS TYPE
 NREF.                    Grid:  NORTH REFERENCE
 SPUD.               01-Jan-20:  SPUD DATE
 DATE.      00.59.44 15-Sep-20:  END TIME
 STIM.      12.00.00 12-Jun-20:  START TIME
 DMF .             Drill Floor:  DRILL MEAS FROM
 DFST.                        :  DIST FSL TEXT
 DFWT.                        :  DIST FWL TEXT
 API .                        :  API NUMBER
 CNTY.                        :  COUNTY
 UWI .                        :  UNIQUE WELL IDENTIFIER
 LOC .                        :  LOCATION
 LMF .             Drill Floor:  LOG MEASURED FROM
 VSNS.m                   2.88:  VERT SEC N/S
 VSEW.m                  -3.84:  VERT SEC E/W
 AGAP.m                  43.42:  AIR GAP
 APD .m                  43.42:  DEPTH ABOVE PD
 WDMS.m                 118.27:  WD ELEV
 EGL .m                   0.00:  GROUND ELEVATION
 EPD .m                   0.00:  ELEVATION
 AZTC.deg                 6.23:  AZM TOTAL CORR
 GRDC.deg                 0.20:  GRID CORRECTION
 MDEC.deg                 6.43:  MAGNETIC DECL
 MDIP.deg                59.49:  MAGNETIC DIP
 MFLD.nT              50277.00:  MAGNETIC FIELD
 GVFD.g                   1.00:  GRAVITY FIELD
 VSDR.deg               173.20:  VERT SEC DIRECT
 TDD .m                5790.01:  TOTAL DEPTH (DRILLER)
 SDEP.m                5231.01:  START DEPTH
 DFSL.m                   0.00:  DISTANCE FSL
 DFWL.m                   0.00:  DISTANCE FWL
 UTMY.m             4435808.83:  UTM Y
 UTMX.m              526266.40:  UTM X
 WHEW.m                  -3.84:  WELL HEAD E/W
 WHNS.m                   2.88:  WELL HEAD N/S
 LONG.deg                51.31:  LONGITUDE
 LATI.deg                40.06:  LATITUDE
 TVDS.m                  43.42:  TVDSS CORRECTN
 DEP .m                 430.08:  DEPTH
 EKB .m                  43.42:  KB ELEVATION
 EDF .m                  43.42:  DF ELEVATION
 TDL .m                 559.00:  TOTAL DEPTH (LOGGER)
 MAGU.                 1849381:  MAGUTM CHECKSUM
 VSC .                       0:  VS TO CLOSURE
~Parameter Information Block
#MNEM.UNIT       Value        Description
#---------     -----------    ---------------------------
 AV  .mps                 4.87:  Ann Velocity 
 AVMX.mps                 7.08:  Max Ann Veloc 
 AZIF.deg               108.87:  Azm, Final 
 BHAT.                  Rotary:  BHA Type 
 BROT.°/30m               0.35:  Build Rotating 
 BS  .in                  8.50:  Bit Size 
 BSZ .in                  8.50:  Bit Size 
 BTPL.psig              360.00:  Bit Press Loss 
 CABU.                     Yes:  Customer Abuse 
 COMM.                     t›a:  Run Comments 1 
 TCS .hr                106.24:  Time Ciculation Ended 
 CV  .mps                 1.77:  Crit Velocity 
 CVMX.mps                 2.03:  Max Crit Veloc 
 DD1 .         Aykhan Agagulov:  Direct Drillr 1 
 DD2 .            Nonso Okofor:  Direct Drillr 2 
 DDSV.               Geo-Pilot:  DD Service 
 DEFF.%                  98.00:  % Det Eff 
 DLRX.°/30m               0.50:  Dogleg Rot Max 
 DLSO.°/30m               0.40:  Dogleg Oriented 
 DLSX.°/30m               0.94:  Dogleg Str Max 
 DRET.      20.30.00 08-Sep-20:  Drill End Time 
 DRST.      22.15.00 06-Sep-20:  Drill Start Tim 
 DTIM.hr                 31.31:  Time Drilling 
 EDEP.m                5790.01:  End Depth 
 ENG1.           Amrah Tahirov:  Engineer 1 
 ENG2.         Dair Mahammadov:  Engineer 2 
 ENG3.           Emil Huseynov:  Engineer 3 
 ETIM.      04.01.04 12-Sep-20:  End Time 
 FLOI.gpm               450.00:  Flow In 
 FLON.gpm               450.00:  Flow In Min 
 FLOS.cptm                2.00:  Fluid Loss 
 FLOX.gpm               450.00:  Flow In Max 
 FTRO.       Formation Presure:  FTWD Run Obj 
 HFLO.                      No:  High Flow 
 HPRE.                      No:  High Pressure 
 HTEM.                      No:  High Temp 
 HYDO.m                   1.80:  Hydro Offset 
 IFIN.deg                72.03:  Inc, Final 
 IMAX.deg                73.72:  Inc Max 
 IMIN.deg                70.94:  Inc Min 
 IMND.m                5508.52:  Inc Min Depth 
 IMXD.m                5253.60:  Inc Max Depth 
 JARR.                      No:  Jarring 
 LETM.      20.30.00 08-Sep-20:  Log End Time 
 LOST.hr                     0:  Lost Rig Time 
 LSTM.      22.15.00 06-Sep-20:  Log Start Time 
 MDCL.ppm             36000.00:  Mud Chlorides 
 MDES.     Inversion Oil/Synthetic:  Mud Desc 
 DFD .sg                  1.44:  Mud Density 
 MDMN.sg                  1.44:  Dens Mud Min 
 MDMX.sg                  1.57:  Dens Mud Max 
 MOIL.                      70:  Run Mud Oil % 
 MOWR.                   70:30:  Run Mud OWR 
 MSND.                       0:  Run Mud Sand % 
 MSOL.                      21:  Run Mud Solids% 
 DFV .spqt               68.00:  Mud Viscosity 
 MWOD.in                  6.75:  MWD Tool OD 
 MWSI.                     Yes:  Serv Intrp, MWD 
 OTIM.hr                174.84:  Time Operating 
 PCON.           Look Like New:  Pad Condition 
 PMAX.psia            10616.93:  Press Op, Max 
 PV  .cP                 50.00:  Mud PV 
 RUN .                     700:  Run Number 
 ROPA.m/hr               14.24:  ROP Avg 
 ROPN.m/hr               10.00:  ROP Min 
 ROPX.m/hr               32.00:  ROP Max 
 RPMA.rpm               120.90:  RPM Surface Avg 
 RPMN.rpm               120.00:  RPM Surface Min 
 RPMX.rpm               140.00:  RPM Surface Max 
 RRUN.                    0700:  Rig Run Number 
 RTIM.hr                  3.20:  Time Reaming 
 SAZI.deg               109.99:  Azm, Start 
 SDEP.m                5231.01:  Start Depth 
 SIDD.                      No:  Serv Intrp, DD 
 SINC.deg                73.72:  Inc, Start 
 SPPA.psig             3051.00:  SPP Avg 
 SPPN.psig             2950.00:  SPP Min 
 SPPX.psig             3250.00:  SPP Max 
 STIM.      08.00.00 05-Sep-20:  Start Time 
 SVCS.                 DD, MWD:  Services 
 SVER.                    9.20:  Sperry Version 
 TDAT.m                 559.00:  Tot Depth Attmp 
 TDDF.                      No:  Trip for DD 
 TDLG.m                 559.00:  Tot Depth Loggd 
 TFF .                      No:  Trip for Fail 
 TQAA.f-kp               26.49:  Torque Abs Avg 
 TQAN.f-kp               25.00:  Torque Abs Min 
 TQAX.f-kp               27.00:  Torque Abs Max 
 TRRT.°/30m               1.50:  Turn Rotating 
 MRT .                    HCIM:  Maximum Recorded Temperature 
 TTMX.degC               90.20:  Max Tool Temp 
 VS01.                90542671:  Virtual Str1 SN 
 VS02.                90545185:  Virtual Str2 SN 
 VS03.                90602015:  Virtual Str3 SN 
 VS04.                90515230:  Virtual Str4 SN 
 WBMN.klb                 5.00:  WOB Min 
 WOBA.klb                14.79:  WOB Avg 
 WOBX.klb                20.00:  WOB Max 
 YP  .lhf2               29.00:  Yield Point 
~Curve Information Block
#MNEM.UNIT                 API CODE     Curve Description
#---------               -----------    ---------------------------
 TIME.HHMMSS            00 000 000 000:  GT Time & Date
 GTDEPTH.m              00 000 000 000:  GT Depth
 GTPQH.psia             00 000 000 000:  GT HR Quartz Pressure
 GTTQ.degC              00 000 000 000:  GT Quartz Temperature
 GTTN.NONE              00 000 000 000:  GT Test Number
 GTET.sec               00 000 000 000:  GT Elapsed Test Time
 GTTVD.m                00 000 000 000:  GT True Vertical Depth
#Other Information
#
#WARRANTY: Halliburton will use its best efforts to furnish customers with 
#accurate information and interpretations that are part of, and incident to, the services 
#provided.  However, Halliburton cannot and does not warrant the accuracy 
#or correctness of such information and interpretations.  Under no circumstances should any 
#such information or interpretation be relied upon as the sole basis for any drilling, 
#completion, production, or financial decision or any procedure involving any risk to the 
#safety of any drilling venture, drilling rig or its crew or any other third party.  The 
#Customer has full responsibility for all drilling, completion and production operation.  
#Halliburton makes no representations or warranties, either expressed or 
#implied, including, but not limited to, the implied warranties of merchantability or fitness 
#for a particular purpose, with respect to the services rendered.  In no event will 
#Halliburton be liable for failure to obtain any particular results or for 
#any damages, including, but not limited to, indirect, special or consequential damages, 
#resulting from the use of any information or interpretation provided by Halliburton.
#
~A           TIME           GTDEPTH  GTPQH  GTTQ  GTTN  GTET   GTTVD  
# ...
   08:14:21.324.09-Sep-2020 5533.01 6372.57 78.11 5.00  23.01 2629.43
   08:14:21.524.09-Sep-2020 5533.01 6372.57 78.11 5.00  23.21 2629.43
   08:14:21.724.09-Sep-2020 5533.01 6378.70 78.11 5.00  23.41 2629.43
   08:14:21.924.09-Sep-2020 5533.01 6373.09 78.11 5.00  23.61 2629.43
   08:14:22.124.09-Sep-2020 5533.01 6375.00 78.11 5.00  23.81 2629.43
   08:14:22.324.09-Sep-2020 5533.01 6375.85 78.11 5.00  24.01 2629.43
   08:14:22.524.09-Sep-2020 5533.01 6375.85 78.11 5.00  24.21 2629.43
   08:14:22.724.09-Sep-2020 5533.01 6375.39 78.11 5.00  24.41 2629.43
   08:14:22.924.09-Sep-2020 5533.01 6375.06 78.11 5.00  24.61 2629.43
   08:14:23.125.09-Sep-2020 5533.01 6384.03 78.11 5.00  24.81 2629.43
   08:14:23.325.09-Sep-2020 5533.01 6372.08 78.11 5.00  25.01 2629.43
   08:14:23.525.09-Sep-2020 5533.01 6372.08 78.11 5.00  25.21 2629.43
   08:14:23.725.09-Sep-2020 5533.01 6378.43 78.11 5.00  25.41 2629.43
   08:14:23.925.09-Sep-2020 5533.01 6385.77 78.11 5.00  25.61 2629.43
   08:14:24.125.09-Sep-2020 5533.01 6375.52 78.11 5.00  25.81 2629.43
   08:14:24.325.09-Sep-2020 5533.01 6378.39 78.11 5.00  26.01 2629.43
   08:14:24.525.09-Sep-2020 5533.01 6378.39 78.11 5.00  26.21 2629.43
   08:14:24.725.09-Sep-2020 5533.01 6378.93 78.11 5.00  26.41 2629.43
   08:14:24.925.09-Sep-2020 5533.01 6380.12 78.11 5.00  26.61 2629.43
   08:14:25.125.09-Sep-2020 5533.01 6379.17 78.11 5.00  26.81 2629.43
   08:14:25.325.09-Sep-2020 5533.01 6380.97 78.11 5.00  27.01 2629.43
   08:14:25.525.09-Sep-2020 5533.01 6379.77 78.11 5.00  27.21 2629.43
   08:14:25.726.09-Sep-2020 5533.01 6380.47 78.11 5.00  27.41 2629.43
   08:14:25.926.09-Sep-2020 5533.01 6381.07 78.11 5.00  27.61 2629.43
   08:14:26.126.09-Sep-2020 5533.01 6381.55 78.11 5.00  27.81 2629.43
   08:14:26.326.09-Sep-2020 5533.01 6381.69 78.11 5.00  28.01 2629.43
   08:14:26.526.09-Sep-2020 5533.01 6381.71 78.11 5.00  28.21 2629.43
   08:14:26.726.09-Sep-2020 5533.01 6381.92 78.11 5.00  28.41 2629.43
   08:14:26.926.09-Sep-2020 5533.01 6382.11 78.11 5.00  28.61 2629.43
   08:14:27.126.09-Sep-2020 5533.01 6382.79 78.11 5.00  28.81 2629.43
   08:14:27.326.09-Sep-2020 5533.01 6383.43 78.11 5.00  29.01 2629.43
   08:14:27.526.09-Sep-2020 5533.01 6383.43 78.11 5.00  29.21 2629.43
   08:14:27.726.09-Sep-2020 5533.01 6385.03 78.10 5.00  29.41 2629.43
   08:14:27.926.09-Sep-2020 5533.01 6383.06 78.10 5.00  29.61 2629.43
   08:14:28.127.09-Sep-2020 5533.01 6386.94 78.10 5.00  29.81 2629.43
   08:14:28.327.09-Sep-2020 5533.01 6386.27 78.10 5.00  30.01 2629.43
   08:14:28.527.09-Sep-2020 5533.01 6386.27 78.10 5.00  30.21 2629.43
   08:14:28.727.09-Sep-2020 5533.01 6385.73 78.10 5.00  30.41 2629.43
   08:14:28.927.09-Sep-2020 5533.01 6386.38 78.10 5.00  30.61 2629.43
   08:14:29.127.09-Sep-2020 5533.01 6386.50 78.10 5.00  30.81 2629.43
   08:14:29.327.09-Sep-2020 5533.01 6386.32 78.10 5.00  31.01 2629.43
   08:14:29.527.09-Sep-2020 5533.01 6386.32 78.10 5.00  31.21 2629.43
   08:14:29.727.09-Sep-2020 5533.01 6387.03 78.10 5.00  31.41 2629.43
   08:14:29.927.09-Sep-2020 5533.01 6386.77 78.10 5.00  31.61 2629.43
   08:14:30.127.09-Sep-2020 5533.01 6386.89 78.10 5.00  31.81 2629.43
   08:14:30.327.09-Sep-2020 5533.01 6387.09 78.10 5.00  32.01 2629.43
   08:14:30.527.09-Sep-2020 5533.01 6387.82 78.10 5.00  32.21 2629.43
   08:14:30.728.09-Sep-2020 5533.01 6388.39 78.10 5.00  32.41 2629.43
   08:14:30.928.09-Sep-2020 5533.01 6394.09 78.10 5.00  32.61 2629.43
   08:14:31.128.09-Sep-2020 5533.01 6389.11 78.10 5.00  32.81 2629.43
   08:14:31.328.09-Sep-2020 5533.01 6386.87 78.10 5.00  33.01 2629.43
   08:14:31.528.09-Sep-2020 5533.01 6386.87 78.10 5.00  33.21 2629.43
   08:14:31.728.09-Sep-2020 5533.01 6390.15 78.10 5.00  33.41 2629.43
   08:14:31.928.09-Sep-2020 5533.01 6389.78 78.10 5.00  33.61 2629.43
   08:14:32.128.09-Sep-2020 5533.01 6401.48 78.10 5.00  33.81 2629.43
   08:14:32.328.09-Sep-2020 5533.01 6385.69 78.10 5.00  34.01 2629.43
   08:14:32.528.09-Sep-2020 5533.01 6385.69 78.10 5.00  34.21 2629.43
   08:14:32.728.09-Sep-2020 5533.01 6392.40 78.10 5.00  34.41 2629.43
   08:14:32.928.09-Sep-2020 5533.01 6391.97 78.10 5.00  34.61 2629.43
   08:14:33.128.09-Sep-2020 5533.01 6392.45 78.10 5.00  34.81 2629.43
   08:14:33.329.09-Sep-2020 5533.01 6391.54 78.10 5.00  35.01 2629.43
   08:14:33.529.09-Sep-2020 5533.01 6391.54 78.10 5.00  35.21 2629.43
   08:14:33.729.09-Sep-2020 5533.01 6386.39 78.10 5.00  35.41 2629.43
   08:14:33.929.09-Sep-2020 5533.01 6391.36 78.10 5.00  35.61 2629.43
   08:14:34.129.09-Sep-2020 5533.01 6394.13 78.10 5.00  35.81 2629.43
   08:14:34.329.09-Sep-2020 5533.01 6393.66 78.10 5.00  36.01 2629.43
   08:14:34.529.09-Sep-2020 5533.01 6393.30 78.10 5.00  36.21 2629.43
   08:14:34.729.09-Sep-2020 5533.01 6392.51 78.10 5.00  36.41 2629.43
   08:14:34.929.09-Sep-2020 5533.01 6402.35 78.10 5.00  36.61 2629.43
   08:14:35.129.09-Sep-2020 5533.01 6390.37 78.10 5.00  36.81 2629.43
   08:14:35.329.09-Sep-2020 5533.01 6394.75 78.10 5.00  37.01 2629.43
   08:14:35.529.09-Sep-2020 5533.01 6394.75 78.10 5.00  37.21 2629.43
   08:14:35.730.09-Sep-2020 5533.01 6396.04 78.10 5.00  37.41 2629.43
   08:14:35.930.09-Sep-2020 5533.01 6396.71 78.10 5.00  37.61 2629.43
   08:14:36.130.09-Sep-2020 5533.01 6395.82 78.10 5.00  37.81 2629.43
   08:14:36.330.09-Sep-2020 5533.01 6408.43 78.10 5.00  38.02 2629.43
   08:14:36.530.09-Sep-2020 5533.01 6408.43 78.10 5.00  38.22 2629.43
   08:14:36.730.09-Sep-2020 5533.01 6474.21 78.10 5.00  38.42 2629.43
   08:14:36.930.09-Sep-2020 5533.01 6510.10 78.10 5.00  38.62 2629.43
   08:14:37.130.09-Sep-2020 5533.01 6518.29 78.10 5.00  38.82 2629.43
   08:14:37.330.09-Sep-2020 5533.01 6524.26 78.10 5.00  39.02 2629.43
   08:14:37.530.09-Sep-2020 5533.01 6524.26 78.10 5.00  39.22 2629.43
   08:14:37.730.09-Sep-2020 5533.01 6550.80 78.10 5.00  39.42 2629.43
   08:14:37.930.09-Sep-2020 5533.01 6550.77 78.10 5.00  39.62 2629.43
   08:14:38.130.09-Sep-2020 5533.01 6542.51 78.10 5.00  39.82 2629.43
   08:14:38.331.09-Sep-2020 5533.01 6521.19 78.10 5.00  40.02 2629.43
   08:14:38.531.09-Sep-2020 5533.01 6488.89 78.10 5.00  40.22 2629.43
   08:14:38.731.09-Sep-2020 5533.01 6455.56 78.10 5.00  40.42 2629.43
   08:14:38.931.09-Sep-2020 5533.01 6419.97 78.10 5.00  40.62 2629.43
   08:14:39.131.09-Sep-2020 5533.01 6385.72 78.10 5.00  40.82 2629.43
   08:14:39.331.09-Sep-2020 5533.01 6353.73 78.10 5.00  41.02 2629.43
   08:14:39.531.09-Sep-2020 5533.01 6353.73 78.10 5.00  41.22 2629.43
   08:14:39.731.09-Sep-2020 5533.01 6300.01 78.10 5.00  41.42 2629.43
   08:14:39.931.09-Sep-2020 5533.01 6278.02 78.10 5.00  41.62 2629.43
   08:14:40.131.09-Sep-2020 5533.01 6263.42 78.10 5.00  41.82 2629.43
   08:14:40.331.09-Sep-2020 5533.01 6249.09 78.10 5.00  42.02 2629.43
   08:14:40.531.09-Sep-2020 5533.01 6249.09 78.10 5.00  42.22 2629.43
   08:14:40.731.09-Sep-2020 5533.01 6220.60 78.10 5.00  42.42 2629.43
   08:14:40.932.09-Sep-2020 5533.01 6209.40 78.10 5.00  42.62 2629.43
   08:14:41.132.09-Sep-2020 5533.01 6198.63 78.10 5.00  42.82 2629.43
   08:14:41.332.09-Sep-2020 5533.01 6187.61 78.10 5.00  43.02 2629.43
   08:14:41.532.09-Sep-2020 5533.01 6187.61 78.10 5.00  43.22 2629.43
   08:14:41.732.09-Sep-2020 5533.01 6166.92 78.10 5.00  43.42 2629.43
   08:14:41.932.09-Sep-2020 5533.01 6155.16 78.10 5.00  43.62 2629.43
   08:14:42.132.09-Sep-2020 5533.01 5712.71 78.10 5.00  43.82 2629.43
   08:14:42.332.09-Sep-2020 5533.01 4839.31 78.10 5.00  44.02 2629.43
   08:14:42.532.09-Sep-2020 5533.01 4468.28 78.10 5.00  44.22 2629.43
   08:14:42.732.09-Sep-2020 5533.01 3989.68 78.10 5.00  44.42 2629.43
   08:14:42.932.09-Sep-2020 5533.01 3572.81 78.09 5.00  44.62 2629.43
   08:14:43.132.09-Sep-2020 5533.01 3534.93 78.09 5.00  44.82 2629.43
   08:14:43.333.09-Sep-2020 5533.01 3524.63 78.09 5.00  45.02 2629.43
   08:14:43.533.09-Sep-2020 5533.01 3524.63 78.09 5.00  45.22 2629.43
   08:14:43.733.09-Sep-2020 5533.01 3520.50 78.09 5.00  45.42 2629.43
   08:14:43.933.09-Sep-2020 5533.01 3525.65 78.09 5.00  45.62 2629.43
   08:14:44.133.09-Sep-2020 5533.01 3516.49 78.09 5.00  45.82 2629.43
