~Version Information
 VERS.                  2.0:   CWLS log ASCII Standard -VERSION 2.0
 WRAP.                   NO:   One line per depth step
~Well Information Block
#MNEM.UNIT     VALUE/NAME     DESCRIPTION
#---------     -----------    ---------------------------
 STRT.S             12:49:18 09-Sep-20: START TIME 12:49:18 09-Sep-20
 STOP.S             12:55:59 09-Sep-20: STOP TIME  12:55:59 09-Sep-20
 STEP.S                   0.00: STEP TIME
 NULL.                 -999.25: NULL VALUE
 MDS .        Operator Entered:  MAG DATA SOURCE
 PDAT.          Mean Sea Level:  PERMANENT DATUM
 DCON.         Sperry Drilling:  DIRECTNL CONTR
 RIG .              West Azeri:  RIG NAME
 WELL.           C40 (Slot 20):  WELL NAME
 SRVC.     Turan Drilling Engineering:  CONTRACTOR
 FLD .                     ACG:  FIELD NAME
 CTRY.              Azerbaijan:  COUNTRY NAME
 PROV.                    Baku:  PROVINCE
 STAT.                    Baku:  STATE NAME
 REGN.                   EESSA:  REGION
 BASE.              Azerbaijan:  LOGGING EQUIPMENT BASE LOCATION
 COMP.     BP Exploration (Caspian Sea) Ltd:  COMPANY
 WTYP.                Deviated:  WELL TYPE
 SON .        AZ-XX-0906344804:  JOB NUMBER
 FTOP.          Formation Tops:  FORM TOPS DESC
 ILTD.               Lithology:  INTERP LTH DESC
 SVYD.                  Survey:  SURVEY DESC
 DMOD.             Drill Model:  DRILL MOD DESC
 HPTY.       Minimum Curvature:  HOLE POS TYPE
 NREF.                    Grid:  NORTH REFERENCE
 SPUD.               01-Jan-20:  SPUD DATE
 DATE.      00.59.44 15-Sep-20:  END TIME
 STIM.      12.00.00 12-Jun-20:  START TIME
 DMF .             Drill Floor:  DRILL MEAS FROM
 DFST.                        :  DIST FSL TEXT
 DFWT.                        :  DIST FWL TEXT
 API .                        :  API NUMBER
 CNTY.                        :  COUNTY
 UWI .                        :  UNIQUE WELL IDENTIFIER
 LOC .                        :  LOCATION
 LMF .             Drill Floor:  LOG MEASURED FROM
 VSNS.m                   2.88:  VERT SEC N/S
 VSEW.m                  -3.84:  VERT SEC E/W
 AGAP.m                  43.42:  AIR GAP
 APD .m                  43.42:  DEPTH ABOVE PD
 WDMS.m                 118.27:  WD ELEV
 EGL .m                   0.00:  GROUND ELEVATION
 EPD .m                   0.00:  ELEVATION
 AZTC.deg                 6.23:  AZM TOTAL CORR
 GRDC.deg                 0.20:  GRID CORRECTION
 MDEC.deg                 6.43:  MAGNETIC DECL
 MDIP.deg                59.49:  MAGNETIC DIP
 MFLD.nT              50277.00:  MAGNETIC FIELD
 GVFD.g                   1.00:  GRAVITY FIELD
 VSDR.deg               173.20:  VERT SEC DIRECT
 TDD .m                5790.01:  TOTAL DEPTH (DRILLER)
 SDEP.m                5231.01:  START DEPTH
 DFSL.m                   0.00:  DISTANCE FSL
 DFWL.m                   0.00:  DISTANCE FWL
 UTMY.m             4435808.83:  UTM Y
 UTMX.m              526266.40:  UTM X
 WHEW.m                  -3.84:  WELL HEAD E/W
 WHNS.m                   2.88:  WELL HEAD N/S
 LONG.deg                51.31:  LONGITUDE
 LATI.deg                40.06:  LATITUDE
 TVDS.m                  43.42:  TVDSS CORRECTN
 DEP .m                 430.08:  DEPTH
 EKB .m                  43.42:  KB ELEVATION
 EDF .m                  43.42:  DF ELEVATION
 TDL .m                 559.00:  TOTAL DEPTH (LOGGER)
 MAGU.                 1849381:  MAGUTM CHECKSUM
 VSC .                       0:  VS TO CLOSURE
~Parameter Information Block
#MNEM.UNIT       Value        Description
#---------     -----------    ---------------------------
 AV  .mps                 4.87:  Ann Velocity 
 AVMX.mps                 7.08:  Max Ann Veloc 
 AZIF.deg               108.87:  Azm, Final 
 BHAT.                  Rotary:  BHA Type 
 BROT.°/30m               0.35:  Build Rotating 
 BS  .in                  8.50:  Bit Size 
 BSZ .in                  8.50:  Bit Size 
 BTPL.psig              360.00:  Bit Press Loss 
 CABU.                     Yes:  Customer Abuse 
 COMM.                     ¤C}:  Run Comments 1 
 TCS .hr                106.24:  Time Ciculation Ended 
 CV  .mps                 1.77:  Crit Velocity 
 CVMX.mps                 2.03:  Max Crit Veloc 
 DD1 .         Aykhan Agagulov:  Direct Drillr 1 
 DD2 .            Nonso Okofor:  Direct Drillr 2 
 DDSV.               Geo-Pilot:  DD Service 
 DEFF.%                  98.00:  % Det Eff 
 DLRX.°/30m               0.50:  Dogleg Rot Max 
 DLSO.°/30m               0.40:  Dogleg Oriented 
 DLSX.°/30m               0.94:  Dogleg Str Max 
 DRET.      20.30.00 08-Sep-20:  Drill End Time 
 DRST.      22.15.00 06-Sep-20:  Drill Start Tim 
 DTIM.hr                 31.31:  Time Drilling 
 EDEP.m                5790.01:  End Depth 
 ENG1.           Amrah Tahirov:  Engineer 1 
 ENG2.         Dair Mahammadov:  Engineer 2 
 ENG3.           Emil Huseynov:  Engineer 3 
 ETIM.      04.01.04 12-Sep-20:  End Time 
 FLOI.gpm               450.00:  Flow In 
 FLON.gpm               450.00:  Flow In Min 
 FLOS.cptm                2.00:  Fluid Loss 
 FLOX.gpm               450.00:  Flow In Max 
 FTRO.       Formation Presure:  FTWD Run Obj 
 HFLO.                      No:  High Flow 
 HPRE.                      No:  High Pressure 
 HTEM.                      No:  High Temp 
 HYDO.m                   1.80:  Hydro Offset 
 IFIN.deg                72.03:  Inc, Final 
 IMAX.deg                73.72:  Inc Max 
 IMIN.deg                70.94:  Inc Min 
 IMND.m                5508.52:  Inc Min Depth 
 IMXD.m                5253.60:  Inc Max Depth 
 JARR.                      No:  Jarring 
 LETM.      20.30.00 08-Sep-20:  Log End Time 
 LOST.hr                     0:  Lost Rig Time 
 LSTM.      22.15.00 06-Sep-20:  Log Start Time 
 MDCL.ppm             36000.00:  Mud Chlorides 
 MDES.     Inversion Oil/Synthetic:  Mud Desc 
 DFD .sg                  1.44:  Mud Density 
 MDMN.sg                  1.44:  Dens Mud Min 
 MDMX.sg                  1.57:  Dens Mud Max 
 MOIL.                      70:  Run Mud Oil % 
 MOWR.                   70:30:  Run Mud OWR 
 MSND.                       0:  Run Mud Sand % 
 MSOL.                      21:  Run Mud Solids% 
 DFV .spqt               68.00:  Mud Viscosity 
 MWOD.in                  6.75:  MWD Tool OD 
 MWSI.                     Yes:  Serv Intrp, MWD 
 OTIM.hr                174.84:  Time Operating 
 PCON.           Look Like New:  Pad Condition 
 PMAX.psia            10616.93:  Press Op, Max 
 PV  .cP                 50.00:  Mud PV 
 RUN .                     700:  Run Number 
 ROPA.m/hr               14.24:  ROP Avg 
 ROPN.m/hr               10.00:  ROP Min 
 ROPX.m/hr               32.00:  ROP Max 
 RPMA.rpm               120.90:  RPM Surface Avg 
 RPMN.rpm               120.00:  RPM Surface Min 
 RPMX.rpm               140.00:  RPM Surface Max 
 RRUN.                    0700:  Rig Run Number 
 RTIM.hr                  3.20:  Time Reaming 
 SAZI.deg               109.99:  Azm, Start 
 SDEP.m                5231.01:  Start Depth 
 SIDD.                      No:  Serv Intrp, DD 
 SINC.deg                73.72:  Inc, Start 
 SPPA.psig             3051.00:  SPP Avg 
 SPPN.psig             2950.00:  SPP Min 
 SPPX.psig             3250.00:  SPP Max 
 STIM.      08.00.00 05-Sep-20:  Start Time 
 SVCS.                 DD, MWD:  Services 
 SVER.                    9.20:  Sperry Version 
 TDAT.m                 559.00:  Tot Depth Attmp 
 TDDF.                      No:  Trip for DD 
 TDLG.m                 559.00:  Tot Depth Loggd 
 TFF .                      No:  Trip for Fail 
 TQAA.f-kp               26.49:  Torque Abs Avg 
 TQAN.f-kp               25.00:  Torque Abs Min 
 TQAX.f-kp               27.00:  Torque Abs Max 
 TRRT.°/30m               1.50:  Turn Rotating 
 MRT .                    HCIM:  Maximum Recorded Temperature 
 TTMX.degC               90.20:  Max Tool Temp 
 VS01.                90542671:  Virtual Str1 SN 
 VS02.                90545185:  Virtual Str2 SN 
 VS03.                90602015:  Virtual Str3 SN 
 VS04.                90515230:  Virtual Str4 SN 
 WBMN.klb                 5.00:  WOB Min 
 WOBA.klb                14.79:  WOB Avg 
 WOBX.klb                20.00:  WOB Max 
 YP  .lhf2               29.00:  Yield Point 
~Curve Information Block
#MNEM.UNIT                 API CODE     Curve Description
#---------               -----------    ---------------------------
 TIME.HHMMSS            00 000 000 000:  GT Time & Date
 GTDEPTH.m              00 000 000 000:  GT Depth
 GTPQH.psia             00 000 000 000:  GT HR Quartz Pressure
 GTTQ.degC              00 000 000 000:  GT Quartz Temperature
 GTTN.NONE              00 000 000 000:  GT Test Number
 GTET.sec               00 000 000 000:  GT Elapsed Test Time
 GTTVD.m                00 000 000 000:  GT True Vertical Depth
#Other Information
#
#WARRANTY: Halliburton will use its best efforts to furnish customers with 
#accurate information and interpretations that are part of, and incident to, the services 
#provided.  However, Halliburton cannot and does not warrant the accuracy 
#or correctness of such information and interpretations.  Under no circumstances should any 
#such information or interpretation be relied upon as the sole basis for any drilling, 
#completion, production, or financial decision or any procedure involving any risk to the 
#safety of any drilling venture, drilling rig or its crew or any other third party.  The 
#Customer has full responsibility for all drilling, completion and production operation.  
#Halliburton makes no representations or warranties, either expressed or 
#implied, including, but not limited to, the implied warranties of merchantability or fitness 
#for a particular purpose, with respect to the services rendered.  In no event will 
#Halliburton be liable for failure to obtain any particular results or for 
#any damages, including, but not limited to, indirect, special or consequential damages, 
#resulting from the use of any information or interpretation provided by Halliburton.
#
~A           TIME           GTDEPTH  GTPQH  GTTQ  GTTN   GTET   GTTVD  
# ...
   12:52:41.400.09-Sep-2020 5424.51 1367.48 75.45 14.00 203.40 2594.79
   12:52:41.600.09-Sep-2020 5424.51 1371.01 75.45 14.00 203.60 2594.79
   12:52:41.800.09-Sep-2020 5424.51 1374.55 75.45 14.00 203.80 2594.79
   12:52:42.000.09-Sep-2020 5424.51 1378.03 75.45 14.00 204.00 2594.79
   12:52:42.200.09-Sep-2020 5424.51 1378.03 75.45 14.00 204.20 2594.79
   12:52:42.400.09-Sep-2020 5424.51 1385.01 75.45 14.00 204.40 2594.79
   12:52:42.600.09-Sep-2020 5424.51 1386.34 75.45 14.00 204.60 2594.79
   12:52:42.800.09-Sep-2020 5424.51 1389.47 75.45 14.00 204.80 2594.79
   12:52:43.000.09-Sep-2020 5424.51 1392.07 75.45 14.00 205.00 2594.79
   12:52:43.200.09-Sep-2020 5424.51 1392.07 75.45 14.00 205.20 2594.79
   12:52:43.400.09-Sep-2020 5424.51 1399.58 75.45 14.00 205.40 2594.79
   12:52:43.600.09-Sep-2020 5424.51 1403.11 75.45 14.00 205.60 2594.79
   12:52:43.800.09-Sep-2020 5424.51 1406.55 75.45 14.00 205.80 2594.79
   12:52:44.000.09-Sep-2020 5424.51 1410.27 75.45 14.00 206.00 2594.79
   12:52:44.200.09-Sep-2020 5424.51 1410.27 75.45 14.00 206.20 2594.79
   12:52:44.400.09-Sep-2020 5424.51 1417.11 75.45 14.00 206.40 2594.79
   12:52:44.600.09-Sep-2020 5424.51 1420.57 75.45 14.00 206.60 2594.79
   12:52:44.800.09-Sep-2020 5424.51 1424.03 75.45 14.00 206.80 2594.79
   12:52:45.000.09-Sep-2020 5424.51 1427.52 75.45 14.00 207.00 2594.79
   12:52:45.200.09-Sep-2020 5424.51 1427.52 75.45 14.00 207.20 2594.79
   12:52:45.400.09-Sep-2020 5424.51 1434.34 75.45 14.00 207.40 2594.79
   12:52:45.600.09-Sep-2020 5424.51 1437.73 75.45 14.00 207.60 2594.79
   12:52:45.800.09-Sep-2020 5424.51 1441.18 75.45 14.00 207.80 2594.79
   12:52:46.000.09-Sep-2020 5424.51 1444.62 75.45 14.00 208.00 2594.79
   12:52:46.200.09-Sep-2020 5424.51 1444.62 75.45 14.00 208.20 2594.79
   12:52:46.400.09-Sep-2020 5424.51 1450.39 75.45 14.00 208.40 2594.79
   12:52:46.600.09-Sep-2020 5424.51 1452.28 75.45 14.00 208.60 2594.79
   12:52:46.800.09-Sep-2020 5424.51 1455.53 75.45 14.00 208.80 2594.79
   12:52:47.000.09-Sep-2020 5424.51 1458.93 75.45 14.00 209.00 2594.79
   12:52:47.200.09-Sep-2020 5424.51 1458.93 75.45 14.00 209.20 2594.79
   12:52:47.400.09-Sep-2020 5424.51 1465.85 75.45 14.00 209.40 2594.79
   12:52:47.600.09-Sep-2020 5424.51 1468.27 75.45 14.00 209.60 2594.79
   12:52:47.800.09-Sep-2020 5424.51 1472.37 75.45 14.00 209.80 2594.79
   12:52:48.000.09-Sep-2020 5424.51 1475.91 75.45 14.00 210.00 2594.79
   12:52:48.200.09-Sep-2020 5424.51 1475.91 75.45 14.00 210.20 2594.79
   12:52:48.400.09-Sep-2020 5424.51 1482.93 75.45 14.00 210.40 2594.79
   12:52:48.600.09-Sep-2020 5424.51 1486.12 75.45 14.00 210.60 2594.79
   12:52:48.800.09-Sep-2020 5424.51 1489.55 75.45 14.00 210.80 2594.79
   12:52:49.000.09-Sep-2020 5424.51 1492.02 75.45 14.00 211.00 2594.79
   12:52:49.200.09-Sep-2020 5424.51 1492.02 75.45 14.00 211.20 2594.79
   12:52:49.400.09-Sep-2020 5424.51 1499.64 75.45 14.00 211.40 2594.79
   12:52:49.600.09-Sep-2020 5424.51 1502.95 75.45 14.00 211.60 2594.79
   12:52:49.800.09-Sep-2020 5424.51 1506.55 75.45 14.00 211.80 2594.79
   12:52:50.000.09-Sep-2020 5424.51 1509.72 75.45 14.00 212.00 2594.79
   12:52:50.200.09-Sep-2020 5424.51 1513.15 75.45 14.00 212.20 2594.79
   12:52:50.400.09-Sep-2020 5424.51 1515.12 75.45 14.00 212.40 2594.79
   12:52:50.600.09-Sep-2020 5424.51 1517.30 75.45 14.00 212.60 2594.79
   12:52:50.800.09-Sep-2020 5424.51 1520.70 75.45 14.00 212.80 2594.79
   12:52:51.000.09-Sep-2020 5424.51 1524.09 75.45 14.00 213.00 2594.79
   12:52:51.200.09-Sep-2020 5424.51 1524.09 75.45 14.00 213.20 2594.79
   12:52:51.400.09-Sep-2020 5424.51 1530.64 75.45 14.00 213.40 2594.79
   12:52:51.600.09-Sep-2020 5424.51 1534.17 75.45 14.00 213.60 2594.79
   12:52:51.800.09-Sep-2020 5424.51 1537.56 75.45 14.00 213.80 2594.79
   12:52:52.000.09-Sep-2020 5424.51 1541.16 75.45 14.00 214.00 2594.79
   12:52:52.200.09-Sep-2020 5424.51 1541.16 75.45 14.00 214.20 2594.79
   12:52:52.400.09-Sep-2020 5424.51 1547.81 75.45 14.00 214.40 2594.79
   12:52:52.600.09-Sep-2020 5424.51 1551.18 75.45 14.00 214.60 2594.79
   12:52:52.800.09-Sep-2020 5424.51 1554.57 75.45 14.00 214.80 2594.79
   12:52:53.000.09-Sep-2020 5424.51 1557.86 75.45 14.00 215.00 2594.79
   12:52:53.200.09-Sep-2020 5424.51 1557.86 75.45 14.00 215.20 2594.79
   12:52:53.400.09-Sep-2020 5424.51 1564.45 75.45 14.00 215.40 2594.79
   12:52:53.600.09-Sep-2020 5424.51 1567.79 75.45 14.00 215.60 2594.79
   12:52:53.800.09-Sep-2020 5424.51 1571.10 75.45 14.00 215.80 2594.79
   12:52:54.000.09-Sep-2020 5424.51 1574.41 75.45 14.00 216.00 2594.79
   12:52:54.200.09-Sep-2020 5424.51 1574.41 75.45 14.00 216.20 2594.79
   12:52:54.400.09-Sep-2020 5424.51 1580.97 75.45 14.00 216.40 2594.79
   12:52:54.600.09-Sep-2020 5424.51 1584.19 75.45 14.00 216.60 2594.79
   12:52:54.800.09-Sep-2020 5424.51 1586.39 75.45 14.00 216.80 2594.79
   12:52:55.000.09-Sep-2020 5424.51 1587.63 75.45 14.00 217.00 2594.79
   12:52:55.200.09-Sep-2020 5424.51 1587.63 75.45 14.00 217.20 2594.79
   12:52:55.400.09-Sep-2020 5424.51 1594.08 75.45 14.00 217.40 2594.79
   12:52:55.600.09-Sep-2020 5424.51 1597.51 75.45 14.00 217.60 2594.79
   12:52:55.800.09-Sep-2020 5424.51 1600.74 75.46 14.00 217.80 2594.79
   12:52:56.000.09-Sep-2020 5424.51 1603.98 75.45 14.00 218.00 2594.79
   12:52:56.200.09-Sep-2020 5424.51 1603.98 75.45 14.00 218.20 2594.79
   12:52:56.400.09-Sep-2020 5424.51 1610.50 75.46 14.00 218.40 2594.79
   12:52:56.600.09-Sep-2020 5424.51 1613.68 75.46 14.00 218.60 2594.79
   12:52:56.800.09-Sep-2020 5424.51 1616.94 75.46 14.00 218.80 2594.79
   12:52:57.000.09-Sep-2020 5424.51 1620.17 75.46 14.00 219.00 2594.79
   12:52:57.200.09-Sep-2020 5424.51 1620.17 75.46 14.00 219.20 2594.79
   12:52:57.400.09-Sep-2020 5424.51 1626.68 75.46 14.00 219.40 2594.79
   12:52:57.600.09-Sep-2020 5424.51 1629.82 75.46 14.00 219.60 2594.79
   12:52:57.800.09-Sep-2020 5424.51 1632.99 75.46 14.00 219.80 2594.79
   12:52:58.000.09-Sep-2020 5424.51 1636.17 75.46 14.00 220.00 2594.79
   12:52:58.200.09-Sep-2020 5424.51 1636.17 75.46 14.00 220.20 2594.79
   12:52:58.400.09-Sep-2020 5424.51 1642.20 75.46 14.00 220.40 2594.79
   12:52:58.600.09-Sep-2020 5424.51 1645.42 75.46 14.00 220.60 2594.79
   12:52:58.800.09-Sep-2020 5424.51 1648.56 75.46 14.00 220.80 2594.79
   12:52:59.000.09-Sep-2020 5424.51 1651.89 75.46 14.00 221.00 2594.79
   12:52:59.200.09-Sep-2020 5424.51 1651.89 75.46 14.00 221.20 2594.79
   12:52:59.400.09-Sep-2020 5424.51 1657.78 75.46 14.00 221.40 2594.79
   12:52:59.600.09-Sep-2020 5424.51 1660.09 75.46 14.00 221.60 2594.79
   12:52:59.800.09-Sep-2020 5424.51 1661.78 75.46 14.00 221.80 2594.79
   12:53:00.000.09-Sep-2020 5424.51 1664.95 75.46 14.00 222.00 2594.79
   12:53:00.200.09-Sep-2020 5424.51 1664.95 75.46 14.00 222.20 2594.79
   12:53:00.400.09-Sep-2020 5424.51 1670.50 75.46 14.00 222.40 2594.79
   12:53:00.600.09-Sep-2020 5424.51 1674.39 75.46 14.00 222.60 2594.79
   12:53:00.800.09-Sep-2020 5424.51 1677.61 75.46 14.00 222.80 2594.79
   12:53:01.000.09-Sep-2020 5424.51 1680.87 75.46 14.00 223.00 2594.79
   12:53:01.200.09-Sep-2020 5424.51 1680.87 75.46 14.00 223.20 2594.79
   12:53:01.400.09-Sep-2020 5424.51 1687.41 75.46 14.00 223.40 2594.79
   12:53:01.600.09-Sep-2020 5424.51 1689.55 75.46 14.00 223.60 2594.79
   12:53:01.800.09-Sep-2020 5424.51 1693.43 75.46 14.00 223.80 2594.79
   12:53:02.000.09-Sep-2020 5424.51 1696.63 75.46 14.00 224.00 2594.79
   12:53:02.200.09-Sep-2020 5424.51 1696.63 75.46 14.00 224.20 2594.79
   12:53:02.400.09-Sep-2020 5424.51 1703.01 75.46 14.00 224.40 2594.79
   12:53:02.600.09-Sep-2020 5424.51 1706.38 75.46 14.00 224.60 2594.79
   12:53:02.800.09-Sep-2020 5424.51 1709.39 75.46 14.00 224.80 2594.79
   12:53:03.000.09-Sep-2020 5424.51 1711.56 75.46 14.00 225.00 2594.79
   12:53:03.200.09-Sep-2020 5424.51 1711.56 75.46 14.00 225.20 2594.79
   12:53:03.400.09-Sep-2020 5424.51 1718.75 75.46 14.00 225.40 2594.79
   12:53:03.600.09-Sep-2020 5424.51 1721.91 75.46 14.00 225.60 2594.79
   12:53:03.800.09-Sep-2020 5424.51 1725.29 75.46 14.00 225.80 2594.79
