~Version Information
 VERS.                  2.0:   CWLS log ASCII Standard -VERSION 2.0
 WRAP.                   NO:   One line per depth step
~Well Information Block
#MNEM.UNIT     VALUE/NAME     DESCRIPTION
#---------     -----------    ---------------------------
 STRT.S             16:52:14 09-Sep-20: START TIME 16:52:14 09-Sep-20
 STOP.S             17:00:39 09-Sep-20: STOP TIME  17:00:39 09-Sep-20
 STEP.S                   0.00: STEP TIME
 NULL.                 -999.25: NULL VALUE
 MDS .        Operator Entered:  MAG DATA SOURCE
 PDAT.          Mean Sea Level:  PERMANENT DATUM
 DCON.         Sperry Drilling:  DIRECTNL CONTR
 RIG .              West Azeri:  RIG NAME
 WELL.           C40 (Slot 20):  WELL NAME
 SRVC.     Turan Drilling Engineering:  CONTRACTOR
 FLD .                     ACG:  FIELD NAME
 CTRY.              Azerbaijan:  COUNTRY NAME
 PROV.                    Baku:  PROVINCE
 STAT.                    Baku:  STATE NAME
 REGN.                   EESSA:  REGION
 BASE.              Azerbaijan:  LOGGING EQUIPMENT BASE LOCATION
 COMP.     BP Exploration (Caspian Sea) Ltd:  COMPANY
 WTYP.                Deviated:  WELL TYPE
 SON .        AZ-XX-0906344804:  JOB NUMBER
 FTOP.          Formation Tops:  FORM TOPS DESC
 ILTD.               Lithology:  INTERP LTH DESC
 SVYD.                  Survey:  SURVEY DESC
 DMOD.             Drill Model:  DRILL MOD DESC
 HPTY.       Minimum Curvature:  HOLE POS TYPE
 NREF.                    Grid:  NORTH REFERENCE
 SPUD.               01-Jan-20:  SPUD DATE
 DATE.      00.59.44 15-Sep-20:  END TIME
 STIM.      12.00.00 12-Jun-20:  START TIME
 DMF .             Drill Floor:  DRILL MEAS FROM
 DFST.                        :  DIST FSL TEXT
 DFWT.                        :  DIST FWL TEXT
 API .                        :  API NUMBER
 CNTY.                        :  COUNTY
 UWI .                        :  UNIQUE WELL IDENTIFIER
 LOC .                        :  LOCATION
 LMF .             Drill Floor:  LOG MEASURED FROM
 VSNS.m                   2.88:  VERT SEC N/S
 VSEW.m                  -3.84:  VERT SEC E/W
 AGAP.m                  43.42:  AIR GAP
 APD .m                  43.42:  DEPTH ABOVE PD
 WDMS.m                 118.27:  WD ELEV
 EGL .m                   0.00:  GROUND ELEVATION
 EPD .m                   0.00:  ELEVATION
 AZTC.deg                 6.23:  AZM TOTAL CORR
 GRDC.deg                 0.20:  GRID CORRECTION
 MDEC.deg                 6.43:  MAGNETIC DECL
 MDIP.deg                59.49:  MAGNETIC DIP
 MFLD.nT              50277.00:  MAGNETIC FIELD
 GVFD.g                   1.00:  GRAVITY FIELD
 VSDR.deg               173.20:  VERT SEC DIRECT
 TDD .m                5790.01:  TOTAL DEPTH (DRILLER)
 SDEP.m                5231.01:  START DEPTH
 DFSL.m                   0.00:  DISTANCE FSL
 DFWL.m                   0.00:  DISTANCE FWL
 UTMY.m             4435808.83:  UTM Y
 UTMX.m              526266.40:  UTM X
 WHEW.m                  -3.84:  WELL HEAD E/W
 WHNS.m                   2.88:  WELL HEAD N/S
 LONG.deg                51.31:  LONGITUDE
 LATI.deg                40.06:  LATITUDE
 TVDS.m                  43.42:  TVDSS CORRECTN
 DEP .m                 430.08:  DEPTH
 EKB .m                  43.42:  KB ELEVATION
 EDF .m                  43.42:  DF ELEVATION
 TDL .m                 559.00:  TOTAL DEPTH (LOGGER)
 MAGU.                 1849381:  MAGUTM CHECKSUM
 VSC .                       0:  VS TO CLOSURE
~Parameter Information Block
#MNEM.UNIT       Value        Description
#---------     -----------    ---------------------------
 AV  .mps                 4.87:  Ann Velocity 
 AVMX.mps                 7.08:  Max Ann Veloc 
 AZIF.deg               108.87:  Azm, Final 
 BHAT.                  Rotary:  BHA Type 
 BROT.°/30m               0.35:  Build Rotating 
 BS  .in                  8.50:  Bit Size 
 BSZ .in                  8.50:  Bit Size 
 BTPL.psig              360.00:  Bit Press Loss 
 CABU.                     Yes:  Customer Abuse 
 TCS .hr                106.24:  Time Ciculation Ended 
 CV  .mps                 1.77:  Crit Velocity 
 CVMX.mps                 2.03:  Max Crit Veloc 
 DD1 .         Aykhan Agagulov:  Direct Drillr 1 
 DD2 .            Nonso Okofor:  Direct Drillr 2 
 DDSV.               Geo-Pilot:  DD Service 
 DEFF.%                  98.00:  % Det Eff 
 DLRX.°/30m               0.50:  Dogleg Rot Max 
 DLSO.°/30m               0.40:  Dogleg Oriented 
 DLSX.°/30m               0.94:  Dogleg Str Max 
 DRET.      20.30.00 08-Sep-20:  Drill End Time 
 DRST.      22.15.00 06-Sep-20:  Drill Start Tim 
 DTIM.hr                 31.31:  Time Drilling 
 EDEP.m                5790.01:  End Depth 
 ENG1.           Amrah Tahirov:  Engineer 1 
 ENG2.         Dair Mahammadov:  Engineer 2 
 ENG3.           Emil Huseynov:  Engineer 3 
 ETIM.      04.01.04 12-Sep-20:  End Time 
 FLOI.gpm               450.00:  Flow In 
 FLON.gpm               450.00:  Flow In Min 
 FLOS.cptm                2.00:  Fluid Loss 
 FLOX.gpm               450.00:  Flow In Max 
 FTRO.       Formation Presure:  FTWD Run Obj 
 HFLO.                      No:  High Flow 
 HPRE.                      No:  High Pressure 
 HTEM.                      No:  High Temp 
 HYDO.m                   1.80:  Hydro Offset 
 IFIN.deg                72.03:  Inc, Final 
 IMAX.deg                73.72:  Inc Max 
 IMIN.deg                70.94:  Inc Min 
 IMND.m                5508.52:  Inc Min Depth 
 IMXD.m                5253.60:  Inc Max Depth 
 JARR.                      No:  Jarring 
 LETM.      20.30.00 08-Sep-20:  Log End Time 
 LOST.hr                     0:  Lost Rig Time 
 LSTM.      22.15.00 06-Sep-20:  Log Start Time 
 MDCL.ppm             36000.00:  Mud Chlorides 
 MDES.     Inversion Oil/Synthetic:  Mud Desc 
 DFD .sg                  1.44:  Mud Density 
 MDMN.sg                  1.44:  Dens Mud Min 
 MDMX.sg                  1.57:  Dens Mud Max 
 MOIL.                      70:  Run Mud Oil % 
 MOWR.                   70:30:  Run Mud OWR 
 MSND.                       0:  Run Mud Sand % 
 MSOL.                      21:  Run Mud Solids% 
 DFV .spqt               68.00:  Mud Viscosity 
 MWOD.in                  6.75:  MWD Tool OD 
 MWSI.                     Yes:  Serv Intrp, MWD 
 OTIM.hr                174.84:  Time Operating 
 PCON.           Look Like New:  Pad Condition 
 PMAX.psia            10616.93:  Press Op, Max 
 PV  .cP                 50.00:  Mud PV 
 RUN .                     700:  Run Number 
 ROPA.m/hr               14.24:  ROP Avg 
 ROPN.m/hr               10.00:  ROP Min 
 ROPX.m/hr               32.00:  ROP Max 
 RPMA.rpm               120.90:  RPM Surface Avg 
 RPMN.rpm               120.00:  RPM Surface Min 
 RPMX.rpm               140.00:  RPM Surface Max 
 RRUN.                    0700:  Rig Run Number 
 RTIM.hr                  3.20:  Time Reaming 
 SAZI.deg               109.99:  Azm, Start 
 SDEP.m                5231.01:  Start Depth 
 SIDD.                      No:  Serv Intrp, DD 
 SINC.deg                73.72:  Inc, Start 
 SPPA.psig             3051.00:  SPP Avg 
 SPPN.psig             2950.00:  SPP Min 
 SPPX.psig             3250.00:  SPP Max 
 STIM.      08.00.00 05-Sep-20:  Start Time 
 SVCS.                 DD, MWD:  Services 
 SVER.                    9.20:  Sperry Version 
 TDAT.m                 559.00:  Tot Depth Attmp 
 TDDF.                      No:  Trip for DD 
 TDLG.m                 559.00:  Tot Depth Loggd 
 TFF .                      No:  Trip for Fail 
 TQAA.f-kp               26.49:  Torque Abs Avg 
 TQAN.f-kp               25.00:  Torque Abs Min 
 TQAX.f-kp               27.00:  Torque Abs Max 
 TRRT.°/30m               1.50:  Turn Rotating 
 MRT .                    HCIM:  Maximum Recorded Temperature 
 TTMX.degC               90.20:  Max Tool Temp 
 VS01.                90542671:  Virtual Str1 SN 
 VS02.                90545185:  Virtual Str2 SN 
 VS03.                90602015:  Virtual Str3 SN 
 VS04.                90515230:  Virtual Str4 SN 
 WBMN.klb                 5.00:  WOB Min 
 WOBA.klb                14.79:  WOB Avg 
 WOBX.klb                20.00:  WOB Max 
 YP  .lhf2               29.00:  Yield Point 
~Curve Information Block
#MNEM.UNIT                 API CODE     Curve Description
#---------               -----------    ---------------------------
 TIME.HHMMSS            00 000 000 000:  GT Time & Date
 GTDEPTH.m              00 000 000 000:  GT Depth
 GTPQH.psia             00 000 000 000:  GT HR Quartz Pressure
 GTTQ.degC              00 000 000 000:  GT Quartz Temperature
 GTTN.NONE              00 000 000 000:  GT Test Number
 GTET.sec               00 000 000 000:  GT Elapsed Test Time
 GTTVD.m                00 000 000 000:  GT True Vertical Depth
#Other Information
#
#WARRANTY: Halliburton will use its best efforts to furnish customers with 
#accurate information and interpretations that are part of, and incident to, the services 
#provided.  However, Halliburton cannot and does not warrant the accuracy 
#or correctness of such information and interpretations.  Under no circumstances should any 
#such information or interpretation be relied upon as the sole basis for any drilling, 
#completion, production, or financial decision or any procedure involving any risk to the 
#safety of any drilling venture, drilling rig or its crew or any other third party.  The 
#Customer has full responsibility for all drilling, completion and production operation.  
#Halliburton makes no representations or warranties, either expressed or 
#implied, including, but not limited to, the implied warranties of merchantability or fitness 
#for a particular purpose, with respect to the services rendered.  In no event will 
#Halliburton be liable for failure to obtain any particular results or for 
#any damages, including, but not limited to, indirect, special or consequential damages, 
#resulting from the use of any information or interpretation provided by Halliburton.
#
~A           TIME           GTDEPTH  GTPQH  GTTQ  GTTN   GTET   GTTVD  
# ...
   16:52:36.752.09-Sep-2020 5303.01 6223.37 74.76 19.00  22.61 2557.08
   16:52:36.952.09-Sep-2020 5303.01 6223.67 74.76 19.00  22.81 2557.08
   16:52:37.152.09-Sep-2020 5303.01 6224.74 74.76 19.00  23.01 2557.08
   16:52:37.352.09-Sep-2020 5303.01 6224.74 74.76 19.00  23.21 2557.08
   16:52:37.552.09-Sep-2020 5303.01 6225.50 74.76 19.00  23.41 2557.08
   16:52:37.752.09-Sep-2020 5303.01 6225.82 74.76 19.00  23.61 2557.08
   16:52:37.953.09-Sep-2020 5303.01 6226.28 74.76 19.00  23.81 2557.08
   16:52:38.153.09-Sep-2020 5303.01 6226.61 74.76 19.00  24.01 2557.08
   16:52:38.353.09-Sep-2020 5303.01 6226.61 74.76 19.00  24.21 2557.08
   16:52:38.553.09-Sep-2020 5303.01 6227.29 74.76 19.00  24.41 2557.08
   16:52:38.753.09-Sep-2020 5303.01 6227.48 74.76 19.00  24.61 2557.08
   16:52:38.953.09-Sep-2020 5303.01 6227.79 74.76 19.00  24.81 2557.08
   16:52:39.153.09-Sep-2020 5303.01 6238.75 74.76 19.00  25.01 2557.08
   16:52:39.353.09-Sep-2020 5303.01 6238.75 74.76 19.00  25.21 2557.08
   16:52:39.553.09-Sep-2020 5303.01 6227.15 74.76 19.00  25.41 2557.08
   16:52:39.753.09-Sep-2020 5303.01 6228.65 74.75 19.00  25.61 2557.08
   16:52:39.953.09-Sep-2020 5303.01 6227.90 74.76 19.00  25.81 2557.08
   16:52:40.154.09-Sep-2020 5303.01 6229.04 74.75 19.00  26.01 2557.08
   16:52:40.354.09-Sep-2020 5303.01 6229.04 74.75 19.00  26.21 2557.08
   16:52:40.554.09-Sep-2020 5303.01 6230.12 74.75 19.00  26.41 2557.08
   16:52:40.754.09-Sep-2020 5303.01 6230.73 74.75 19.00  26.61 2557.08
   16:52:40.954.09-Sep-2020 5303.01 6230.85 74.75 19.00  26.81 2557.08
   16:52:41.154.09-Sep-2020 5303.01 6230.70 74.75 19.00  27.01 2557.08
   16:52:41.354.09-Sep-2020 5303.01 6230.70 74.75 19.00  27.21 2557.08
   16:52:41.554.09-Sep-2020 5303.01 6231.25 74.75 19.00  27.41 2557.08
   16:52:41.754.09-Sep-2020 5303.01 6231.85 74.75 19.00  27.61 2557.08
   16:52:41.954.09-Sep-2020 5303.01 6232.47 74.75 19.00  27.81 2557.08
   16:52:42.155.09-Sep-2020 5303.01 6232.56 74.75 19.00  28.01 2557.08
   16:52:42.355.09-Sep-2020 5303.01 6232.28 74.75 19.00  28.21 2557.08
   16:52:42.555.09-Sep-2020 5303.01 6243.04 74.75 19.00  28.41 2557.08
   16:52:42.755.09-Sep-2020 5303.01 6229.72 74.75 19.00  28.61 2557.08
   16:52:42.955.09-Sep-2020 5303.01 6231.60 74.75 19.00  28.81 2557.08
   16:52:43.155.09-Sep-2020 5303.01 6234.14 74.75 19.00  29.01 2557.08
   16:52:43.355.09-Sep-2020 5303.01 6234.14 74.75 19.00  29.21 2557.08
   16:52:43.555.09-Sep-2020 5303.01 6234.51 74.75 19.00  29.41 2557.08
   16:52:43.755.09-Sep-2020 5303.01 6242.07 74.75 19.00  29.61 2557.08
   16:52:43.955.09-Sep-2020 5303.01 6234.43 74.75 19.00  29.81 2557.08
   16:52:44.155.09-Sep-2020 5303.01 6234.50 74.75 19.00  30.01 2557.08
   16:52:44.356.09-Sep-2020 5303.01 6234.50 74.75 19.00  30.21 2557.08
   16:52:44.556.09-Sep-2020 5303.01 6245.99 74.75 19.00  30.41 2557.08
   16:52:44.756.09-Sep-2020 5303.01 6233.01 74.75 19.00  30.61 2557.08
   16:52:44.956.09-Sep-2020 5303.01 6235.00 74.75 19.00  30.81 2557.08
   16:52:45.156.09-Sep-2020 5303.01 6237.10 74.75 19.00  31.01 2557.08
   16:52:45.356.09-Sep-2020 5303.01 6237.10 74.75 19.00  31.21 2557.08
   16:52:45.556.09-Sep-2020 5303.01 6237.69 74.75 19.00  31.42 2557.08
   16:52:45.756.09-Sep-2020 5303.01 6237.62 74.75 19.00  31.62 2557.08
   16:52:45.956.09-Sep-2020 5303.01 6245.24 74.75 19.00  31.82 2557.08
   16:52:46.156.09-Sep-2020 5303.01 6237.82 74.75 19.00  32.02 2557.08
   16:52:46.357.09-Sep-2020 5303.01 6237.82 74.75 19.00  32.22 2557.08
   16:52:46.557.09-Sep-2020 5303.01 6239.54 74.75 19.00  32.42 2557.08
   16:52:46.757.09-Sep-2020 5303.01 6239.41 74.75 19.00  32.62 2557.08
   16:52:46.957.09-Sep-2020 5303.01 6240.54 74.75 19.00  32.82 2557.08
   16:52:47.157.09-Sep-2020 5303.01 6247.07 74.75 19.00  33.02 2557.08
   16:52:47.357.09-Sep-2020 5303.01 6247.07 74.75 19.00  33.22 2557.08
   16:52:47.557.09-Sep-2020 5303.01 6240.46 74.75 19.00  33.42 2557.08
   16:52:47.757.09-Sep-2020 5303.01 6242.31 74.75 19.00  33.62 2557.08
   16:52:47.957.09-Sep-2020 5303.01 6242.21 74.75 19.00  33.82 2557.08
   16:52:48.157.09-Sep-2020 5303.01 6243.13 74.75 19.00  34.02 2557.08
   16:52:48.357.09-Sep-2020 5303.01 6243.13 74.75 19.00  34.22 2557.08
   16:52:48.558.09-Sep-2020 5303.01 6243.58 74.75 19.00  34.42 2557.08
   16:52:48.758.09-Sep-2020 5303.01 6243.87 74.75 19.00  34.62 2557.08
   16:52:48.958.09-Sep-2020 5303.01 6244.52 74.75 19.00  34.82 2557.08
   16:52:49.158.09-Sep-2020 5303.01 6244.32 74.75 19.00  35.02 2557.08
   16:52:49.358.09-Sep-2020 5303.01 6244.32 74.75 19.00  35.22 2557.08
   16:52:49.558.09-Sep-2020 5303.01 6244.31 74.75 19.00  35.42 2557.08
   16:52:49.758.09-Sep-2020 5303.01 6244.55 74.75 19.00  35.62 2557.08
   16:52:49.958.09-Sep-2020 5303.01 6245.16 74.75 19.00  35.82 2557.08
   16:52:50.158.09-Sep-2020 5303.01 6245.63 74.75 19.00  36.02 2557.08
   16:52:50.358.09-Sep-2020 5303.01 6245.63 74.75 19.00  36.22 2557.08
   16:52:50.559.09-Sep-2020 5303.01 6246.09 74.75 19.00  36.42 2557.08
   16:52:50.759.09-Sep-2020 5303.01 6246.40 74.75 19.00  36.62 2557.08
   16:52:50.959.09-Sep-2020 5303.01 6254.56 74.75 19.00  36.82 2557.08
   16:52:51.159.09-Sep-2020 5303.01 6246.62 74.75 19.00  37.02 2557.08
   16:52:51.359.09-Sep-2020 5303.01 6246.62 74.75 19.00  37.22 2557.08
   16:52:51.559.09-Sep-2020 5303.01 6246.71 74.75 19.00  37.42 2557.08
   16:52:51.759.09-Sep-2020 5303.01 6247.04 74.75 19.00  37.62 2557.08
   16:52:51.959.09-Sep-2020 5303.01 6248.16 74.75 19.00  37.82 2557.08
   16:52:52.159.09-Sep-2020 5303.01 6248.63 74.75 19.00  38.02 2557.08
   16:52:52.359.09-Sep-2020 5303.01 6248.63 74.75 19.00  38.22 2557.08
   16:52:52.560.09-Sep-2020 5303.01 6248.84 74.75 19.00  38.42 2557.08
   16:52:52.760.09-Sep-2020 5303.01 6248.95 74.75 19.00  38.62 2557.08
   16:52:52.960.09-Sep-2020 5303.01 6248.76 74.75 19.00  38.82 2557.08
   16:52:53.160.09-Sep-2020 5303.01 6249.00 74.75 19.00  39.02 2557.08
   16:52:53.360.09-Sep-2020 5303.01 6249.00 74.75 19.00  39.22 2557.08
   16:52:53.560.09-Sep-2020 5303.01 6250.52 74.75 19.00  39.42 2557.08
   16:52:53.760.09-Sep-2020 5303.01 6250.22 74.75 19.00  39.62 2557.08
   16:52:53.960.09-Sep-2020 5303.01 6250.15 74.75 19.00  39.82 2557.08
   16:52:54.160.09-Sep-2020 5303.01 6250.52 74.75 19.00  40.02 2557.08
   16:52:54.360.09-Sep-2020 5303.01 6250.52 74.75 19.00  40.22 2557.08
   16:52:54.560.09-Sep-2020 5303.01 6259.01 74.75 19.00  40.42 2557.08
   16:52:54.761.09-Sep-2020 5303.01 6250.23 74.75 19.00  40.62 2557.08
   16:52:54.961.09-Sep-2020 5303.01 6250.28 74.75 19.00  40.82 2557.08
   16:52:55.161.09-Sep-2020 5303.01 6251.13 74.75 19.00  41.02 2557.08
   16:52:55.361.09-Sep-2020 5303.01 6251.13 74.75 19.00  41.22 2557.08
   16:52:55.561.09-Sep-2020 5303.01 6252.26 74.75 19.00  41.42 2557.08
   16:52:55.761.09-Sep-2020 5303.01 6263.42 74.75 19.00  41.62 2557.08
   16:52:55.961.09-Sep-2020 5303.01 6248.75 74.75 19.00  41.82 2557.08
   16:52:56.161.09-Sep-2020 5303.01 6250.61 74.75 19.00  42.02 2557.08
   16:52:56.361.09-Sep-2020 5303.01 6250.61 74.75 19.00  42.22 2557.08
   16:52:56.561.09-Sep-2020 5303.01 6252.13 74.75 19.00  42.42 2557.08
   16:52:56.762.09-Sep-2020 5303.01 6253.63 74.75 19.00  42.62 2557.08
   16:52:56.962.09-Sep-2020 5303.01 6259.76 74.74 19.00  42.82 2557.08
   16:52:57.162.09-Sep-2020 5303.01 6254.59 74.74 19.00  43.02 2557.08
   16:52:57.362.09-Sep-2020 5303.01 6254.59 74.74 19.00  43.22 2557.08
   16:52:57.562.09-Sep-2020 5303.01 6254.53 74.74 19.00  43.42 2557.08
   16:52:57.762.09-Sep-2020 5303.01 6253.98 74.74 19.00  43.62 2557.08
   16:52:57.962.09-Sep-2020 5303.01 6254.82 74.74 19.00  43.82 2557.08
   16:52:58.162.09-Sep-2020 5303.01 6260.84 74.74 19.00  44.02 2557.08
   16:52:58.362.09-Sep-2020 5303.01 6260.84 74.74 19.00  44.22 2557.08
   16:52:58.562.09-Sep-2020 5303.01 6254.59 74.74 19.00  44.42 2557.08
   16:52:58.762.09-Sep-2020 5303.01 6256.55 74.74 19.00  44.62 2557.08
   16:52:58.963.09-Sep-2020 5303.01 6256.45 74.74 19.00  44.82 2557.08
   16:52:59.163.09-Sep-2020 5303.01 6263.12 74.74 19.00  45.02 2557.08
