~Version Information
 VERS.                  2.0:   CWLS log ASCII Standard -VERSION 2.0
 WRAP.                   NO:   One line per depth step
~Well Information Block
#MNEM.UNIT     VALUE/NAME     DESCRIPTION
#---------     -----------    ---------------------------
 STRT.S             20:20:33 09-Sep-20: START TIME 20:20:33 09-Sep-20
 STOP.S             20:28:41 09-Sep-20: STOP TIME  20:28:41 09-Sep-20
 STEP.S                   0.00: STEP TIME
 NULL.                 -999.25: NULL VALUE
 MDS .        Operator Entered:  MAG DATA SOURCE
 PDAT.          Mean Sea Level:  PERMANENT DATUM
 DCON.         Sperry Drilling:  DIRECTNL CONTR
 RIG .              West Azeri:  RIG NAME
 WELL.           C40 (Slot 20):  WELL NAME
 SRVC.     Turan Drilling Engineering:  CONTRACTOR
 FLD .                     ACG:  FIELD NAME
 CTRY.              Azerbaijan:  COUNTRY NAME
 PROV.                    Baku:  PROVINCE
 STAT.                    Baku:  STATE NAME
 REGN.                   EESSA:  REGION
 BASE.              Azerbaijan:  LOGGING EQUIPMENT BASE LOCATION
 COMP.     BP Exploration (Caspian Sea) Ltd:  COMPANY
 WTYP.                Deviated:  WELL TYPE
 SON .        AZ-XX-0906344804:  JOB NUMBER
 FTOP.          Formation Tops:  FORM TOPS DESC
 ILTD.               Lithology:  INTERP LTH DESC
 SVYD.                  Survey:  SURVEY DESC
 DMOD.             Drill Model:  DRILL MOD DESC
 HPTY.       Minimum Curvature:  HOLE POS TYPE
 NREF.                    Grid:  NORTH REFERENCE
 SPUD.               01-Jan-20:  SPUD DATE
 DATE.      00.59.44 15-Sep-20:  END TIME
 STIM.      12.00.00 12-Jun-20:  START TIME
 DMF .             Drill Floor:  DRILL MEAS FROM
 DFST.                        :  DIST FSL TEXT
 DFWT.                        :  DIST FWL TEXT
 API .                        :  API NUMBER
 CNTY.                        :  COUNTY
 UWI .                        :  UNIQUE WELL IDENTIFIER
 LOC .                        :  LOCATION
 LMF .             Drill Floor:  LOG MEASURED FROM
 VSNS.m                   2.88:  VERT SEC N/S
 VSEW.m                  -3.84:  VERT SEC E/W
 AGAP.m                  43.42:  AIR GAP
 APD .m                  43.42:  DEPTH ABOVE PD
 WDMS.m                 118.27:  WD ELEV
 EGL .m                   0.00:  GROUND ELEVATION
 EPD .m                   0.00:  ELEVATION
 AZTC.deg                 6.23:  AZM TOTAL CORR
 GRDC.deg                 0.20:  GRID CORRECTION
 MDEC.deg                 6.43:  MAGNETIC DECL
 MDIP.deg                59.49:  MAGNETIC DIP
 MFLD.nT              50277.00:  MAGNETIC FIELD
 GVFD.g                   1.00:  GRAVITY FIELD
 VSDR.deg               173.20:  VERT SEC DIRECT
 TDD .m                5790.01:  TOTAL DEPTH (DRILLER)
 SDEP.m                5231.01:  START DEPTH
 DFSL.m                   0.00:  DISTANCE FSL
 DFWL.m                   0.00:  DISTANCE FWL
 UTMY.m             4435808.83:  UTM Y
 UTMX.m              526266.40:  UTM X
 WHEW.m                  -3.84:  WELL HEAD E/W
 WHNS.m                   2.88:  WELL HEAD N/S
 LONG.deg                51.31:  LONGITUDE
 LATI.deg                40.06:  LATITUDE
 TVDS.m                  43.42:  TVDSS CORRECTN
 DEP .m                 430.08:  DEPTH
 EKB .m                  43.42:  KB ELEVATION
 EDF .m                  43.42:  DF ELEVATION
 TDL .m                 559.00:  TOTAL DEPTH (LOGGER)
 MAGU.                 1849381:  MAGUTM CHECKSUM
 VSC .                       0:  VS TO CLOSURE
~Parameter Information Block
#MNEM.UNIT       Value        Description
#---------     -----------    ---------------------------
 AV  .mps                 4.87:  Ann Velocity 
 AVMX.mps                 7.08:  Max Ann Veloc 
 AZIF.deg               108.87:  Azm, Final 
 BHAT.                  Rotary:  BHA Type 
 BROT.°/30m               0.35:  Build Rotating 
 BS  .in                  8.50:  Bit Size 
 BSZ .in                  8.50:  Bit Size 
 BTPL.psig              360.00:  Bit Press Loss 
 CABU.                     Yes:  Customer Abuse 
 COMM.                     ÄìU:  Run Comments 1 
 TCS .hr                106.24:  Time Ciculation Ended 
 CV  .mps                 1.77:  Crit Velocity 
 CVMX.mps                 2.03:  Max Crit Veloc 
 DD1 .         Aykhan Agagulov:  Direct Drillr 1 
 DD2 .            Nonso Okofor:  Direct Drillr 2 
 DDSV.               Geo-Pilot:  DD Service 
 DEFF.%                  98.00:  % Det Eff 
 DLRX.°/30m               0.50:  Dogleg Rot Max 
 DLSO.°/30m               0.40:  Dogleg Oriented 
 DLSX.°/30m               0.94:  Dogleg Str Max 
 DRET.      20.30.00 08-Sep-20:  Drill End Time 
 DRST.      22.15.00 06-Sep-20:  Drill Start Tim 
 DTIM.hr                 31.31:  Time Drilling 
 EDEP.m                5790.01:  End Depth 
 ENG1.           Amrah Tahirov:  Engineer 1 
 ENG2.         Dair Mahammadov:  Engineer 2 
 ENG3.           Emil Huseynov:  Engineer 3 
 ETIM.      04.01.04 12-Sep-20:  End Time 
 FLOI.gpm               450.00:  Flow In 
 FLON.gpm               450.00:  Flow In Min 
 FLOS.cptm                2.00:  Fluid Loss 
 FLOX.gpm               450.00:  Flow In Max 
 FTRO.       Formation Presure:  FTWD Run Obj 
 HFLO.                      No:  High Flow 
 HPRE.                      No:  High Pressure 
 HTEM.                      No:  High Temp 
 HYDO.m                   1.80:  Hydro Offset 
 IFIN.deg                72.03:  Inc, Final 
 IMAX.deg                73.72:  Inc Max 
 IMIN.deg                70.94:  Inc Min 
 IMND.m                5508.52:  Inc Min Depth 
 IMXD.m                5253.60:  Inc Max Depth 
 JARR.                      No:  Jarring 
 LETM.      20.30.00 08-Sep-20:  Log End Time 
 LOST.hr                     0:  Lost Rig Time 
 LSTM.      22.15.00 06-Sep-20:  Log Start Time 
 MDCL.ppm             36000.00:  Mud Chlorides 
 MDES.     Inversion Oil/Synthetic:  Mud Desc 
 DFD .sg                  1.44:  Mud Density 
 MDMN.sg                  1.44:  Dens Mud Min 
 MDMX.sg                  1.57:  Dens Mud Max 
 MOIL.                      70:  Run Mud Oil % 
 MOWR.                   70:30:  Run Mud OWR 
 MSND.                       0:  Run Mud Sand % 
 MSOL.                      21:  Run Mud Solids% 
 DFV .spqt               68.00:  Mud Viscosity 
 MWOD.in                  6.75:  MWD Tool OD 
 MWSI.                     Yes:  Serv Intrp, MWD 
 OTIM.hr                174.84:  Time Operating 
 PCON.           Look Like New:  Pad Condition 
 PMAX.psia            10616.93:  Press Op, Max 
 PV  .cP                 50.00:  Mud PV 
 RUN .                     700:  Run Number 
 ROPA.m/hr               14.24:  ROP Avg 
 ROPN.m/hr               10.00:  ROP Min 
 ROPX.m/hr               32.00:  ROP Max 
 RPMA.rpm               120.90:  RPM Surface Avg 
 RPMN.rpm               120.00:  RPM Surface Min 
 RPMX.rpm               140.00:  RPM Surface Max 
 RRUN.                    0700:  Rig Run Number 
 RTIM.hr                  3.20:  Time Reaming 
 SAZI.deg               109.99:  Azm, Start 
 SDEP.m                5231.01:  Start Depth 
 SIDD.                      No:  Serv Intrp, DD 
 SINC.deg                73.72:  Inc, Start 
 SPPA.psig             3051.00:  SPP Avg 
 SPPN.psig             2950.00:  SPP Min 
 SPPX.psig             3250.00:  SPP Max 
 STIM.      08.00.00 05-Sep-20:  Start Time 
 SVCS.                 DD, MWD:  Services 
 SVER.                    9.20:  Sperry Version 
 TDAT.m                 559.00:  Tot Depth Attmp 
 TDDF.                      No:  Trip for DD 
 TDLG.m                 559.00:  Tot Depth Loggd 
 TFF .                      No:  Trip for Fail 
 TQAA.f-kp               26.49:  Torque Abs Avg 
 TQAN.f-kp               25.00:  Torque Abs Min 
 TQAX.f-kp               27.00:  Torque Abs Max 
 TRRT.°/30m               1.50:  Turn Rotating 
 MRT .                    HCIM:  Maximum Recorded Temperature 
 TTMX.degC               90.20:  Max Tool Temp 
 VS01.                90542671:  Virtual Str1 SN 
 VS02.                90545185:  Virtual Str2 SN 
 VS03.                90602015:  Virtual Str3 SN 
 VS04.                90515230:  Virtual Str4 SN 
 WBMN.klb                 5.00:  WOB Min 
 WOBA.klb                14.79:  WOB Avg 
 WOBX.klb                20.00:  WOB Max 
 YP  .lhf2               29.00:  Yield Point 
~Curve Information Block
#MNEM.UNIT                 API CODE     Curve Description
#---------               -----------    ---------------------------
 TIME.HHMMSS            00 000 000 000:  GT Time & Date
 GTDEPTH.m              00 000 000 000:  GT Depth
 GTPQH.psia             00 000 000 000:  GT HR Quartz Pressure
 GTTQ.degC              00 000 000 000:  GT Quartz Temperature
 GTTN.NONE              00 000 000 000:  GT Test Number
 GTET.sec               00 000 000 000:  GT Elapsed Test Time
 GTTVD.m                00 000 000 000:  GT True Vertical Depth
#Other Information
#
#WARRANTY: Halliburton will use its best efforts to furnish customers with 
#accurate information and interpretations that are part of, and incident to, the services 
#provided.  However, Halliburton cannot and does not warrant the accuracy 
#or correctness of such information and interpretations.  Under no circumstances should any 
#such information or interpretation be relied upon as the sole basis for any drilling, 
#completion, production, or financial decision or any procedure involving any risk to the 
#safety of any drilling venture, drilling rig or its crew or any other third party.  The 
#Customer has full responsibility for all drilling, completion and production operation.  
#Halliburton makes no representations or warranties, either expressed or 
#implied, including, but not limited to, the implied warranties of merchantability or fitness 
#for a particular purpose, with respect to the services rendered.  In no event will 
#Halliburton be liable for failure to obtain any particular results or for 
#any damages, including, but not limited to, indirect, special or consequential damages, 
#resulting from the use of any information or interpretation provided by Halliburton.
#
~A           TIME           GTDEPTH  GTPQH  GTTQ  GTTN   GTET   GTTVD  
# ...
   20:20:56.233.09-Sep-2020 5252.51 6225.24 74.06 25.00  22.61 2542.44
   20:20:56.434.09-Sep-2020 5252.51 6226.00 74.06 25.00  22.81 2542.44
   20:20:56.634.09-Sep-2020 5252.51 6227.80 74.06 25.00  23.01 2542.44
   20:20:56.834.09-Sep-2020 5252.51 6226.68 74.06 25.00  23.21 2542.44
   20:20:57.034.09-Sep-2020 5252.51 6227.42 74.06 25.00  23.41 2542.44
   20:20:57.234.09-Sep-2020 5252.51 6227.31 74.06 25.00  23.61 2542.44
   20:20:57.434.09-Sep-2020 5252.51 6227.53 74.06 25.00  23.81 2542.44
   20:20:57.634.09-Sep-2020 5252.51 6227.88 74.06 25.00  24.01 2542.44
   20:20:57.834.09-Sep-2020 5252.51 6227.88 74.06 25.00  24.21 2542.44
   20:20:58.034.09-Sep-2020 5252.51 6229.30 74.06 25.00  24.41 2542.44
   20:20:58.234.09-Sep-2020 5252.51 6229.74 74.06 25.00  24.61 2542.44
   20:20:58.435.09-Sep-2020 5252.51 6229.39 74.06 25.00  24.81 2542.44
   20:20:58.635.09-Sep-2020 5252.51 6229.31 74.06 25.00  25.01 2542.44
   20:20:58.835.09-Sep-2020 5252.51 6229.31 74.06 25.00  25.21 2542.44
   20:20:59.035.09-Sep-2020 5252.51 6223.58 74.06 25.00  25.41 2542.44
   20:20:59.235.09-Sep-2020 5252.51 6231.85 74.06 25.00  25.61 2542.44
   20:20:59.435.09-Sep-2020 5252.51 6230.52 74.06 25.00  25.81 2542.44
   20:20:59.635.09-Sep-2020 5252.51 6230.89 74.06 25.00  26.01 2542.44
   20:20:59.835.09-Sep-2020 5252.51 6231.36 74.06 25.00  26.21 2542.44
   20:21:00.035.09-Sep-2020 5252.51 6242.79 74.06 25.00  26.41 2542.44
   20:21:00.235.09-Sep-2020 5252.51 6227.90 74.06 25.00  26.61 2542.44
   20:21:00.435.09-Sep-2020 5252.51 6233.51 74.06 25.00  26.81 2542.44
   20:21:00.636.09-Sep-2020 5252.51 6232.64 74.06 25.00  27.01 2542.44
   20:21:00.836.09-Sep-2020 5252.51 6233.74 74.06 25.00  27.21 2542.44
   20:21:01.036.09-Sep-2020 5252.51 6242.91 74.06 25.00  27.41 2542.44
   20:21:01.236.09-Sep-2020 5252.51 6233.08 74.06 25.00  27.61 2542.44
   20:21:01.436.09-Sep-2020 5252.51 6235.25 74.06 25.00  27.81 2542.44
   20:21:01.636.09-Sep-2020 5252.51 6235.07 74.06 25.00  28.01 2542.44
   20:21:01.836.09-Sep-2020 5252.51 6235.07 74.06 25.00  28.21 2542.44
   20:21:02.036.09-Sep-2020 5252.51 6236.56 74.06 25.00  28.41 2542.44
   20:21:02.236.09-Sep-2020 5252.51 6246.96 74.06 25.00  28.61 2542.44
   20:21:02.436.09-Sep-2020 5252.51 6233.23 74.06 25.00  28.81 2542.44
   20:21:02.636.09-Sep-2020 5252.51 6238.24 74.06 25.00  29.01 2542.44
   20:21:02.837.09-Sep-2020 5252.51 6238.24 74.06 25.00  29.21 2542.44
   20:21:03.037.09-Sep-2020 5252.51 6238.83 74.06 25.00  29.41 2542.44
   20:21:03.237.09-Sep-2020 5252.51 6238.82 74.06 25.00  29.61 2542.44
   20:21:03.437.09-Sep-2020 5252.51 6240.85 74.06 25.00  29.81 2542.44
   20:21:03.637.09-Sep-2020 5252.51 6249.54 74.06 25.00  30.01 2542.44
   20:21:03.837.09-Sep-2020 5252.51 6249.54 74.06 25.00  30.21 2542.44
   20:21:04.037.09-Sep-2020 5252.51 6242.05 74.06 25.00  30.41 2542.44
   20:21:04.237.09-Sep-2020 5252.51 6241.20 74.06 25.00  30.61 2542.44
   20:21:04.437.09-Sep-2020 5252.51 6242.09 74.06 25.00  30.81 2542.44
   20:21:04.637.09-Sep-2020 5252.51 6241.83 74.06 25.00  31.01 2542.44
   20:21:04.837.09-Sep-2020 5252.51 6244.17 74.06 25.00  31.21 2542.44
   20:21:05.038.09-Sep-2020 5252.51 6242.95 74.06 25.00  31.41 2542.44
   20:21:05.238.09-Sep-2020 5252.51 6243.55 74.06 25.00  31.61 2542.44
   20:21:05.438.09-Sep-2020 5252.51 6243.36 74.06 25.00  31.81 2542.44
   20:21:05.638.09-Sep-2020 5252.51 6243.73 74.06 25.00  32.01 2542.44
   20:21:05.838.09-Sep-2020 5252.51 6243.73 74.06 25.00  32.21 2542.44
   20:21:06.038.09-Sep-2020 5252.51 6244.38 74.05 25.00  32.41 2542.44
   20:21:06.238.09-Sep-2020 5252.51 6245.25 74.05 25.00  32.62 2542.44
   20:21:06.438.09-Sep-2020 5252.51 6245.49 74.05 25.00  32.82 2542.44
   20:21:06.638.09-Sep-2020 5252.51 6246.14 74.05 25.00  33.02 2542.44
   20:21:06.838.09-Sep-2020 5252.51 6246.14 74.05 25.00  33.22 2542.44
   20:21:07.038.09-Sep-2020 5252.51 6247.08 74.05 25.00  33.42 2542.44
   20:21:07.239.09-Sep-2020 5252.51 6257.39 74.05 25.00  33.62 2542.44
   20:21:07.439.09-Sep-2020 5252.51 6245.42 74.05 25.00  33.82 2542.44
   20:21:07.639.09-Sep-2020 5252.51 6248.76 74.05 25.00  34.02 2542.44
   20:21:07.839.09-Sep-2020 5252.51 6248.76 74.05 25.00  34.22 2542.44
   20:21:08.039.09-Sep-2020 5252.51 6248.37 74.05 25.00  34.42 2542.44
   20:21:08.239.09-Sep-2020 5252.51 6249.38 74.05 25.00  34.62 2542.44
   20:21:08.439.09-Sep-2020 5252.51 6249.88 74.05 25.00  34.82 2542.44
   20:21:08.639.09-Sep-2020 5252.51 6249.64 74.05 25.00  35.02 2542.44
   20:21:08.839.09-Sep-2020 5252.51 6249.64 74.05 25.00  35.22 2542.44
   20:21:09.039.09-Sep-2020 5252.51 6249.47 74.05 25.00  35.42 2542.44
   20:21:09.239.09-Sep-2020 5252.51 6249.56 74.05 25.00  35.62 2542.44
   20:21:09.440.09-Sep-2020 5252.51 6250.07 74.05 25.00  35.82 2542.44
   20:21:09.640.09-Sep-2020 5252.51 6250.76 74.05 25.00  36.02 2542.44
   20:21:09.840.09-Sep-2020 5252.51 6250.76 74.05 25.00  36.22 2542.44
   20:21:10.040.09-Sep-2020 5252.51 6251.16 74.05 25.00  36.42 2542.44
   20:21:10.240.09-Sep-2020 5252.51 6251.45 74.05 25.00  36.62 2542.44
   20:21:10.440.09-Sep-2020 5252.51 6251.73 74.05 25.00  36.82 2542.44
   20:21:10.640.09-Sep-2020 5252.51 6251.92 74.05 25.00  37.02 2542.44
   20:21:10.840.09-Sep-2020 5252.51 6251.92 74.05 25.00  37.22 2542.44
   20:21:11.040.09-Sep-2020 5252.51 6249.65 74.05 25.00  37.42 2542.44
   20:21:11.240.09-Sep-2020 5252.51 6252.98 74.05 25.00  37.62 2542.44
   20:21:11.441.09-Sep-2020 5252.51 6251.90 74.05 25.00  37.82 2542.44
   20:21:11.641.09-Sep-2020 5252.51 6252.46 74.05 25.00  38.02 2542.44
   20:21:11.841.09-Sep-2020 5252.51 6252.46 74.05 25.00  38.22 2542.44
   20:21:12.041.09-Sep-2020 5252.51 6361.52 74.05 25.00  38.42 2542.44
   20:21:12.241.09-Sep-2020 5252.51 6372.52 74.05 25.00  38.62 2542.44
   20:21:12.441.09-Sep-2020 5252.51 6385.68 74.05 25.00  38.82 2542.44
   20:21:12.641.09-Sep-2020 5252.51 6406.37 74.05 25.00  39.02 2542.44
   20:21:12.841.09-Sep-2020 5252.51 6412.91 74.05 25.00  39.22 2542.44
   20:21:13.041.09-Sep-2020 5252.51 6413.64 74.05 25.00  39.42 2542.44
   20:21:13.241.09-Sep-2020 5252.51 6403.68 74.05 25.00  39.62 2542.44
   20:21:13.441.09-Sep-2020 5252.51 6378.09 74.05 25.00  39.82 2542.44
   20:21:13.642.09-Sep-2020 5252.51 6319.42 74.05 25.00  40.02 2542.44
   20:21:13.842.09-Sep-2020 5252.51 6319.42 74.05 25.00  40.22 2542.44
   20:21:14.042.09-Sep-2020 5252.51 6210.82 74.05 25.00  40.42 2542.44
   20:21:14.242.09-Sep-2020 5252.51 6171.64 74.05 25.00  40.62 2542.44
   20:21:14.442.09-Sep-2020 5252.51 6137.95 74.05 25.00  40.82 2542.44
   20:21:14.642.09-Sep-2020 5252.51 6125.55 74.05 25.00  41.02 2542.44
   20:21:14.842.09-Sep-2020 5252.51 6125.55 74.05 25.00  41.22 2542.44
   20:21:15.042.09-Sep-2020 5252.51 6084.84 74.05 25.00  41.42 2542.44
   20:21:15.242.09-Sep-2020 5252.51 6062.86 74.05 25.00  41.62 2542.44
   20:21:15.442.09-Sep-2020 5252.51 6050.00 74.05 25.00  41.82 2542.44
   20:21:15.642.09-Sep-2020 5252.51 6042.43 74.05 25.00  42.02 2542.44
   20:21:15.843.09-Sep-2020 5252.51 6042.43 74.05 25.00  42.22 2542.44
   20:21:16.043.09-Sep-2020 5252.51 6012.00 74.05 25.00  42.42 2542.44
   20:21:16.243.09-Sep-2020 5252.51 5998.58 74.05 25.00  42.62 2542.44
   20:21:16.443.09-Sep-2020 5252.51 5986.97 74.05 25.00  42.82 2542.44
   20:21:16.643.09-Sep-2020 5252.51 5978.82 74.05 25.00  43.02 2542.44
   20:21:16.843.09-Sep-2020 5252.51 5978.82 74.05 25.00  43.22 2542.44
   20:21:17.043.09-Sep-2020 5252.51 5970.72 74.05 25.00  43.42 2542.44
   20:21:17.243.09-Sep-2020 5252.51 5699.22 74.05 25.00  43.62 2542.44
   20:21:17.443.09-Sep-2020 5252.51 4786.09 74.05 25.00  43.82 2542.44
   20:21:17.643.09-Sep-2020 5252.51 4166.41 74.05 25.00  44.02 2542.44
   20:21:17.843.09-Sep-2020 5252.51 4166.41 74.05 25.00  44.22 2542.44
   20:21:18.044.09-Sep-2020 5252.51 2743.08 74.05 25.00  44.42 2542.44
   20:21:18.244.09-Sep-2020 5252.51 2061.60 74.05 25.00  44.62 2542.44
   20:21:18.444.09-Sep-2020 5252.51 1484.58 74.05 25.00  44.82 2542.44
   20:21:18.644.09-Sep-2020 5252.51  999.31 74.04 25.00  45.02 2542.44
