~Version Information
 VERS.                  2.0:   CWLS log ASCII Standard -VERSION 2.0
 WRAP.                   NO:   One line per depth step
~Well Information Block
#MNEM.UNIT     VALUE/NAME     DESCRIPTION
#---------     -----------    ---------------------------
 STRT.S             10:55:02 09-Sep-20: START TIME 10:55:02 09-Sep-20
 STOP.S             11:02:04 09-Sep-20: STOP TIME  11:02:04 09-Sep-20
 STEP.S                   0.00: STEP TIME
 NULL.                 -999.25: NULL VALUE
 MDS .        Operator Entered:  MAG DATA SOURCE
 PDAT.          Mean Sea Level:  PERMANENT DATUM
 DCON.         Sperry Drilling:  DIRECTNL CONTR
 RIG .              West Azeri:  RIG NAME
 WELL.           C40 (Slot 20):  WELL NAME
 SRVC.     Turan Drilling Engineering:  CONTRACTOR
 FLD .                     ACG:  FIELD NAME
 CTRY.              Azerbaijan:  COUNTRY NAME
 PROV.                    Baku:  PROVINCE
 STAT.                    Baku:  STATE NAME
 REGN.                   EESSA:  REGION
 BASE.              Azerbaijan:  LOGGING EQUIPMENT BASE LOCATION
 COMP.     BP Exploration (Caspian Sea) Ltd:  COMPANY
 WTYP.                Deviated:  WELL TYPE
 SON .        AZ-XX-0906344804:  JOB NUMBER
 FTOP.          Formation Tops:  FORM TOPS DESC
 ILTD.               Lithology:  INTERP LTH DESC
 SVYD.                  Survey:  SURVEY DESC
 DMOD.             Drill Model:  DRILL MOD DESC
 HPTY.       Minimum Curvature:  HOLE POS TYPE
 NREF.                    Grid:  NORTH REFERENCE
 SPUD.               01-Jan-20:  SPUD DATE
 DATE.      00.59.44 15-Sep-20:  END TIME
 STIM.      12.00.00 12-Jun-20:  START TIME
 DMF .             Drill Floor:  DRILL MEAS FROM
 DFST.                        :  DIST FSL TEXT
 DFWT.                        :  DIST FWL TEXT
 API .                        :  API NUMBER
 CNTY.                        :  COUNTY
 UWI .                        :  UNIQUE WELL IDENTIFIER
 LOC .                        :  LOCATION
 LMF .             Drill Floor:  LOG MEASURED FROM
 VSNS.m                   2.88:  VERT SEC N/S
 VSEW.m                  -3.84:  VERT SEC E/W
 AGAP.m                  43.42:  AIR GAP
 APD .m                  43.42:  DEPTH ABOVE PD
 WDMS.m                 118.27:  WD ELEV
 EGL .m                   0.00:  GROUND ELEVATION
 EPD .m                   0.00:  ELEVATION
 AZTC.deg                 6.23:  AZM TOTAL CORR
 GRDC.deg                 0.20:  GRID CORRECTION
 MDEC.deg                 6.43:  MAGNETIC DECL
 MDIP.deg                59.49:  MAGNETIC DIP
 MFLD.nT              50277.00:  MAGNETIC FIELD
 GVFD.g                   1.00:  GRAVITY FIELD
 VSDR.deg               173.20:  VERT SEC DIRECT
 TDD .m                5790.01:  TOTAL DEPTH (DRILLER)
 SDEP.m                5231.01:  START DEPTH
 DFSL.m                   0.00:  DISTANCE FSL
 DFWL.m                   0.00:  DISTANCE FWL
 UTMY.m             4435808.83:  UTM Y
 UTMX.m              526266.40:  UTM X
 WHEW.m                  -3.84:  WELL HEAD E/W
 WHNS.m                   2.88:  WELL HEAD N/S
 LONG.deg                51.31:  LONGITUDE
 LATI.deg                40.06:  LATITUDE
 TVDS.m                  43.42:  TVDSS CORRECTN
 DEP .m                 430.08:  DEPTH
 EKB .m                  43.42:  KB ELEVATION
 EDF .m                  43.42:  DF ELEVATION
 TDL .m                 559.00:  TOTAL DEPTH (LOGGER)
 MAGU.                 1849381:  MAGUTM CHECKSUM
 VSC .                       0:  VS TO CLOSURE
~Parameter Information Block
#MNEM.UNIT       Value        Description
#---------     -----------    ---------------------------
 AV  .mps                 4.87:  Ann Velocity 
 AVMX.mps                 7.08:  Max Ann Veloc 
 AZIF.deg               108.87:  Azm, Final 
 BHAT.                  Rotary:  BHA Type 
 BROT.°/30m               0.35:  Build Rotating 
 BS  .in                  8.50:  Bit Size 
 BSZ .in                  8.50:  Bit Size 
 BTPL.psig              360.00:  Bit Press Loss 
 CABU.                     Yes:  Customer Abuse 
 COMM.                     ¬Î:  Run Comments 1 
 TCS .hr                106.24:  Time Ciculation Ended 
 CV  .mps                 1.77:  Crit Velocity 
 CVMX.mps                 2.03:  Max Crit Veloc 
 DD1 .         Aykhan Agagulov:  Direct Drillr 1 
 DD2 .            Nonso Okofor:  Direct Drillr 2 
 DDSV.               Geo-Pilot:  DD Service 
 DEFF.%                  98.00:  % Det Eff 
 DLRX.°/30m               0.50:  Dogleg Rot Max 
 DLSO.°/30m               0.40:  Dogleg Oriented 
 DLSX.°/30m               0.94:  Dogleg Str Max 
 DRET.      20.30.00 08-Sep-20:  Drill End Time 
 DRST.      22.15.00 06-Sep-20:  Drill Start Tim 
 DTIM.hr                 31.31:  Time Drilling 
 EDEP.m                5790.01:  End Depth 
 ENG1.           Amrah Tahirov:  Engineer 1 
 ENG2.         Dair Mahammadov:  Engineer 2 
 ENG3.           Emil Huseynov:  Engineer 3 
 ETIM.      04.01.04 12-Sep-20:  End Time 
 FLOI.gpm               450.00:  Flow In 
 FLON.gpm               450.00:  Flow In Min 
 FLOS.cptm                2.00:  Fluid Loss 
 FLOX.gpm               450.00:  Flow In Max 
 FTRO.       Formation Presure:  FTWD Run Obj 
 HFLO.                      No:  High Flow 
 HPRE.                      No:  High Pressure 
 HTEM.                      No:  High Temp 
 HYDO.m                   1.80:  Hydro Offset 
 IFIN.deg                72.03:  Inc, Final 
 IMAX.deg                73.72:  Inc Max 
 IMIN.deg                70.94:  Inc Min 
 IMND.m                5508.52:  Inc Min Depth 
 IMXD.m                5253.60:  Inc Max Depth 
 JARR.                      No:  Jarring 
 LETM.      20.30.00 08-Sep-20:  Log End Time 
 LOST.hr                     0:  Lost Rig Time 
 LSTM.      22.15.00 06-Sep-20:  Log Start Time 
 MDCL.ppm             36000.00:  Mud Chlorides 
 MDES.     Inversion Oil/Synthetic:  Mud Desc 
 DFD .sg                  1.44:  Mud Density 
 MDMN.sg                  1.44:  Dens Mud Min 
 MDMX.sg                  1.57:  Dens Mud Max 
 MOIL.                      70:  Run Mud Oil % 
 MOWR.                   70:30:  Run Mud OWR 
 MSND.                       0:  Run Mud Sand % 
 MSOL.                      21:  Run Mud Solids% 
 DFV .spqt               68.00:  Mud Viscosity 
 MWOD.in                  6.75:  MWD Tool OD 
 MWSI.                     Yes:  Serv Intrp, MWD 
 OTIM.hr                174.84:  Time Operating 
 PCON.           Look Like New:  Pad Condition 
 PMAX.psia            10616.93:  Press Op, Max 
 PV  .cP                 50.00:  Mud PV 
 RUN .                     700:  Run Number 
 ROPA.m/hr               14.24:  ROP Avg 
 ROPN.m/hr               10.00:  ROP Min 
 ROPX.m/hr               32.00:  ROP Max 
 RPMA.rpm               120.90:  RPM Surface Avg 
 RPMN.rpm               120.00:  RPM Surface Min 
 RPMX.rpm               140.00:  RPM Surface Max 
 RRUN.                    0700:  Rig Run Number 
 RTIM.hr                  3.20:  Time Reaming 
 SAZI.deg               109.99:  Azm, Start 
 SDEP.m                5231.01:  Start Depth 
 SIDD.                      No:  Serv Intrp, DD 
 SINC.deg                73.72:  Inc, Start 
 SPPA.psig             3051.00:  SPP Avg 
 SPPN.psig             2950.00:  SPP Min 
 SPPX.psig             3250.00:  SPP Max 
 STIM.      08.00.00 05-Sep-20:  Start Time 
 SVCS.                 DD, MWD:  Services 
 SVER.                    9.20:  Sperry Version 
 TDAT.m                 559.00:  Tot Depth Attmp 
 TDDF.                      No:  Trip for DD 
 TDLG.m                 559.00:  Tot Depth Loggd 
 TFF .                      No:  Trip for Fail 
 TQAA.f-kp               26.49:  Torque Abs Avg 
 TQAN.f-kp               25.00:  Torque Abs Min 
 TQAX.f-kp               27.00:  Torque Abs Max 
 TRRT.°/30m               1.50:  Turn Rotating 
 MRT .                    HCIM:  Maximum Recorded Temperature 
 TTMX.degC               90.20:  Max Tool Temp 
 VS01.                90542671:  Virtual Str1 SN 
 VS02.                90545185:  Virtual Str2 SN 
 VS03.                90602015:  Virtual Str3 SN 
 VS04.                90515230:  Virtual Str4 SN 
 WBMN.klb                 5.00:  WOB Min 
 WOBA.klb                14.79:  WOB Avg 
 WOBX.klb                20.00:  WOB Max 
 YP  .lhf2               29.00:  Yield Point 
~Curve Information Block
#MNEM.UNIT                 API CODE     Curve Description
#---------               -----------    ---------------------------
 TIME.HHMMSS            00 000 000 000:  GT Time & Date
 GTDEPTH.m              00 000 000 000:  GT Depth
 GTPQH.psia             00 000 000 000:  GT HR Quartz Pressure
 GTTQ.degC              00 000 000 000:  GT Quartz Temperature
 GTTN.NONE              00 000 000 000:  GT Test Number
 GTET.sec               00 000 000 000:  GT Elapsed Test Time
 GTTVD.m                00 000 000 000:  GT True Vertical Depth
#Other Information
#
#WARRANTY: Halliburton will use its best efforts to furnish customers with 
#accurate information and interpretations that are part of, and incident to, the services 
#provided.  However, Halliburton cannot and does not warrant the accuracy 
#or correctness of such information and interpretations.  Under no circumstances should any 
#such information or interpretation be relied upon as the sole basis for any drilling, 
#completion, production, or financial decision or any procedure involving any risk to the 
#safety of any drilling venture, drilling rig or its crew or any other third party.  The 
#Customer has full responsibility for all drilling, completion and production operation.  
#Halliburton makes no representations or warranties, either expressed or 
#implied, including, but not limited to, the implied warranties of merchantability or fitness 
#for a particular purpose, with respect to the services rendered.  In no event will 
#Halliburton be liable for failure to obtain any particular results or for 
#any damages, including, but not limited to, indirect, special or consequential damages, 
#resulting from the use of any information or interpretation provided by Halliburton.
#
~A           TIME           GTDEPTH  GTPQH  GTTQ  GTTN   GTET   GTTVD  
# ...
   10:55:24.797.09-Sep-2020 5456.01 6331.58 76.43 10.00  22.61 2604.72
   10:55:24.997.09-Sep-2020 5456.01 6332.27 76.43 10.00  22.81 2604.72
   10:55:25.198.09-Sep-2020 5456.01 6332.22 76.43 10.00  23.01 2604.72
   10:55:25.398.09-Sep-2020 5456.01 6332.22 76.43 10.00  23.21 2604.72
   10:55:25.598.09-Sep-2020 5456.01 6333.42 76.43 10.00  23.41 2604.72
   10:55:25.798.09-Sep-2020 5456.01 6334.10 76.43 10.00  23.61 2604.72
   10:55:25.998.09-Sep-2020 5456.01 6334.75 76.43 10.00  23.81 2604.72
   10:55:26.198.09-Sep-2020 5456.01 6334.92 76.43 10.00  24.01 2604.72
   10:55:26.398.09-Sep-2020 5456.01 6334.92 76.43 10.00  24.21 2604.72
   10:55:26.598.09-Sep-2020 5456.01 6335.64 76.43 10.00  24.41 2604.72
   10:55:26.798.09-Sep-2020 5456.01 6336.27 76.43 10.00  24.61 2604.72
   10:55:26.998.09-Sep-2020 5456.01 6336.62 76.43 10.00  24.81 2604.72
   10:55:27.198.09-Sep-2020 5456.01 6336.65 76.43 10.00  25.01 2604.72
   10:55:27.398.09-Sep-2020 5456.01 6336.65 76.43 10.00  25.21 2604.72
   10:55:27.598.09-Sep-2020 5456.01 6334.92 76.43 10.00  25.41 2604.72
   10:55:27.798.09-Sep-2020 5456.01 6336.63 76.43 10.00  25.61 2604.72
   10:55:27.998.09-Sep-2020 5456.01 6339.49 76.43 10.00  25.81 2604.72
   10:55:28.198.09-Sep-2020 5456.01 6338.02 76.43 10.00  26.01 2604.72
   10:55:28.398.09-Sep-2020 5456.01 6338.02 76.43 10.00  26.21 2604.72
   10:55:28.598.09-Sep-2020 5456.01 6337.61 76.43 10.00  26.41 2604.72
   10:55:28.799.09-Sep-2020 5456.01 6337.92 76.43 10.00  26.61 2604.72
   10:55:28.999.09-Sep-2020 5456.01 6338.82 76.43 10.00  26.81 2604.72
   10:55:29.199.09-Sep-2020 5456.01 6339.33 76.43 10.00  27.01 2604.72
   10:55:29.399.09-Sep-2020 5456.01 6339.33 76.43 10.00  27.21 2604.72
   10:55:29.599.09-Sep-2020 5456.01 6339.35 76.43 10.00  27.41 2604.72
   10:55:29.799.09-Sep-2020 5456.01 6339.18 76.43 10.00  27.61 2604.72
   10:55:29.999.09-Sep-2020 5456.01 6339.45 76.43 10.00  27.81 2604.72
   10:55:30.199.09-Sep-2020 5456.01 6340.20 76.43 10.00  28.01 2604.72
   10:55:30.399.09-Sep-2020 5456.01 6340.20 76.43 10.00  28.21 2604.72
   10:55:30.599.09-Sep-2020 5456.01 6341.43 76.43 10.00  28.41 2604.72
   10:55:30.799.09-Sep-2020 5456.01 6350.65 76.43 10.00  28.61 2604.72
   10:55:30.999.09-Sep-2020 5456.01 6338.85 76.43 10.00  28.81 2604.72
   10:55:31.199.09-Sep-2020 5456.01 6340.67 76.43 10.00  29.01 2604.72
   10:55:31.399.09-Sep-2020 5456.01 6340.67 76.43 10.00  29.21 2604.72
   10:55:31.599.09-Sep-2020 5456.01 6342.67 76.43 10.00  29.41 2604.72
   10:55:31.799.09-Sep-2020 5456.01 6343.88 76.43 10.00  29.61 2604.72
   10:55:31.999.09-Sep-2020 5456.01 6349.22 76.43 10.00  29.81 2604.72
   10:55:32.199.09-Sep-2020 5456.01 6343.65 76.43 10.00  30.01 2604.72
   10:55:32.400.09-Sep-2020 5456.01 6343.65 76.43 10.00  30.21 2604.72
   10:55:32.600.09-Sep-2020 5456.01 6345.40 76.43 10.00  30.41 2604.72
   10:55:32.800.09-Sep-2020 5456.01 6343.76 76.43 10.00  30.61 2604.72
   10:55:33.000.09-Sep-2020 5456.01 6344.73 76.43 10.00  30.81 2604.72
   10:55:33.200.09-Sep-2020 5456.01 6344.70 76.43 10.00  31.01 2604.72
   10:55:33.400.09-Sep-2020 5456.01 6344.70 76.43 10.00  31.21 2604.72
   10:55:33.600.09-Sep-2020 5456.01 6339.40 76.43 10.00  31.41 2604.72
   10:55:33.800.09-Sep-2020 5456.01 6345.76 76.43 10.00  31.61 2604.72
   10:55:34.000.09-Sep-2020 5456.01 6348.01 76.43 10.00  31.81 2604.72
   10:55:34.200.09-Sep-2020 5456.01 6346.18 76.43 10.00  32.01 2604.72
   10:55:34.400.09-Sep-2020 5456.01 6346.18 76.43 10.00  32.21 2604.72
   10:55:34.600.09-Sep-2020 5456.01 6347.12 76.43 10.00  32.41 2604.72
   10:55:34.800.09-Sep-2020 5456.01 6347.43 76.43 10.00  32.61 2604.72
   10:55:35.000.09-Sep-2020 5456.01 6349.83 76.43 10.00  32.81 2604.72
   10:55:35.200.09-Sep-2020 5456.01 6347.92 76.43 10.00  33.01 2604.72
   10:55:35.400.09-Sep-2020 5456.01 6347.92 76.43 10.00  33.21 2604.72
   10:55:35.600.09-Sep-2020 5456.01 6343.02 76.43 10.00  33.41 2604.72
   10:55:35.800.09-Sep-2020 5456.01 6349.08 76.43 10.00  33.61 2604.72
   10:55:36.000.09-Sep-2020 5456.01 6351.96 76.43 10.00  33.81 2604.72
   10:55:36.201.09-Sep-2020 5456.01 6350.49 76.43 10.00  34.01 2604.72
   10:55:36.401.09-Sep-2020 5456.01 6350.49 76.43 10.00  34.21 2604.72
   10:55:36.601.09-Sep-2020 5456.01 6351.26 76.43 10.00  34.41 2604.72
   10:55:36.801.09-Sep-2020 5456.01 6351.72 76.43 10.00  34.61 2604.72
   10:55:37.001.09-Sep-2020 5456.01 6352.01 76.43 10.00  34.81 2604.72
   10:55:37.201.09-Sep-2020 5456.01 6352.37 76.43 10.00  35.01 2604.72
   10:55:37.401.09-Sep-2020 5456.01 6352.37 76.43 10.00  35.21 2604.72
   10:55:37.601.09-Sep-2020 5456.01 6352.80 76.43 10.00  35.41 2604.72
   10:55:37.801.09-Sep-2020 5456.01 6352.34 76.42 10.00  35.61 2604.72
   10:55:38.001.09-Sep-2020 5456.01 6352.11 76.43 10.00  35.81 2604.72
   10:55:38.201.09-Sep-2020 5456.01 6352.52 76.42 10.00  36.01 2604.72
   10:55:38.401.09-Sep-2020 5456.01 6352.52 76.42 10.00  36.21 2604.72
   10:55:38.601.09-Sep-2020 5456.01 6353.89 76.42 10.00  36.41 2604.72
   10:55:38.801.09-Sep-2020 5456.01 6354.29 76.42 10.00  36.61 2604.72
   10:55:39.001.09-Sep-2020 5456.01 6354.47 76.42 10.00  36.81 2604.72
   10:55:39.201.09-Sep-2020 5456.01 6361.34 76.42 10.00  37.01 2604.72
   10:55:39.401.09-Sep-2020 5456.01 6361.34 76.42 10.00  37.21 2604.72
   10:55:39.601.09-Sep-2020 5456.01 6354.83 76.42 10.00  37.41 2604.72
   10:55:39.802.09-Sep-2020 5456.01 6356.96 76.42 10.00  37.61 2604.72
   10:55:40.002.09-Sep-2020 5456.01 6355.69 76.42 10.00  37.81 2604.72
   10:55:40.202.09-Sep-2020 5456.01 6356.47 76.42 10.00  38.01 2604.72
   10:55:40.402.09-Sep-2020 5456.01 6356.47 76.42 10.00  38.21 2604.72
   10:55:40.602.09-Sep-2020 5456.01 6356.25 76.42 10.00  38.41 2604.72
   10:55:40.802.09-Sep-2020 5456.01 6428.87 76.42 10.00  38.61 2604.72
   10:55:41.002.09-Sep-2020 5456.01 6475.74 76.42 10.00  38.81 2604.72
   10:55:41.202.09-Sep-2020 5456.01 6489.77 76.42 10.00  39.01 2604.72
   10:55:41.402.09-Sep-2020 5456.01 6489.77 76.42 10.00  39.21 2604.72
   10:55:41.602.09-Sep-2020 5456.01 6516.27 76.42 10.00  39.41 2604.72
   10:55:41.802.09-Sep-2020 5456.01 6523.76 76.42 10.00  39.61 2604.72
   10:55:42.002.09-Sep-2020 5456.01 6519.88 76.42 10.00  39.81 2604.72
   10:55:42.202.09-Sep-2020 5456.01 6503.18 76.42 10.00  40.01 2604.72
   10:55:42.402.09-Sep-2020 5456.01 6503.18 76.42 10.00  40.21 2604.72
   10:55:42.602.09-Sep-2020 5456.01 6427.60 76.42 10.00  40.41 2604.72
   10:55:42.802.09-Sep-2020 5456.01 6401.34 76.42 10.00  40.61 2604.72
   10:55:43.002.09-Sep-2020 5456.01 6376.60 76.42 10.00  40.81 2604.72
   10:55:43.202.09-Sep-2020 5456.01 6353.27 76.42 10.00  41.01 2604.72
   10:55:43.403.09-Sep-2020 5456.01 6353.27 76.42 10.00  41.21 2604.72
   10:55:43.603.09-Sep-2020 5456.01 6318.70 76.42 10.00  41.41 2604.72
   10:55:43.803.09-Sep-2020 5456.01 6304.27 76.42 10.00  41.61 2604.72
   10:55:44.003.09-Sep-2020 5456.01 6296.42 76.42 10.00  41.81 2604.72
   10:55:44.203.09-Sep-2020 5456.01 6286.51 76.42 10.00  42.01 2604.72
   10:55:44.403.09-Sep-2020 5456.01 6286.51 76.42 10.00  42.21 2604.72
   10:55:44.603.09-Sep-2020 5456.01 6272.87 76.42 10.00  42.41 2604.72
   10:55:44.803.09-Sep-2020 5456.01 6263.90 76.42 10.00  42.61 2604.72
   10:55:45.003.09-Sep-2020 5456.01 6255.83 76.42 10.00  42.81 2604.72
   10:55:45.203.09-Sep-2020 5456.01 6250.72 76.42 10.00  43.01 2604.72
   10:55:45.403.09-Sep-2020 5456.01 6250.72 76.42 10.00  43.21 2604.72
   10:55:45.603.09-Sep-2020 5456.01 6241.27 76.42 10.00  43.41 2604.72
   10:55:45.803.09-Sep-2020 5456.01 6237.09 76.42 10.00  43.61 2604.72
   10:55:46.003.09-Sep-2020 5456.01 6223.03 76.42 10.00  43.81 2604.72
   10:55:46.203.09-Sep-2020 5456.01 5854.32 76.42 10.00  44.01 2604.72
   10:55:46.403.09-Sep-2020 5456.01 5854.32 76.42 10.00  44.21 2604.72
   10:55:46.603.09-Sep-2020 5456.01 4398.35 76.42 10.00  44.41 2604.72
   10:55:46.803.09-Sep-2020 5456.01 3883.31 76.42 10.00  44.61 2604.72
   10:55:47.004.09-Sep-2020 5456.01 3385.09 76.42 10.00  44.81 2604.72
   10:55:47.204.09-Sep-2020 5456.01 3314.61 76.42 10.00  45.01 2604.72
