~Version Information
 VERS.                  2.0:   CWLS log ASCII Standard -VERSION 2.0
 WRAP.                   NO:   One line per depth step
~Well Information Block
#MNEM.UNIT     VALUE/NAME     DESCRIPTION
#---------     -----------    ---------------------------
 STRT.S             05:36:14 09-Sep-20: START TIME 05:36:14 09-Sep-20
 STOP.S             05:43:10 09-Sep-20: STOP TIME  05:43:10 09-Sep-20
 STEP.S                   0.00: STEP TIME
 NULL.                 -999.25: NULL VALUE
 MDS .        Operator Entered:  MAG DATA SOURCE
 PDAT.          Mean Sea Level:  PERMANENT DATUM
 DCON.         Sperry Drilling:  DIRECTNL CONTR
 RIG .              West Azeri:  RIG NAME
 WELL.           C40 (Slot 20):  WELL NAME
 SRVC.     Turan Drilling Engineering:  CONTRACTOR
 FLD .                     ACG:  FIELD NAME
 CTRY.              Azerbaijan:  COUNTRY NAME
 PROV.                    Baku:  PROVINCE
 STAT.                    Baku:  STATE NAME
 REGN.                   EESSA:  REGION
 BASE.              Azerbaijan:  LOGGING EQUIPMENT BASE LOCATION
 COMP.     BP Exploration (Caspian Sea) Ltd:  COMPANY
 WTYP.                Deviated:  WELL TYPE
 SON .        AZ-XX-0906344804:  JOB NUMBER
 FTOP.          Formation Tops:  FORM TOPS DESC
 ILTD.               Lithology:  INTERP LTH DESC
 SVYD.                  Survey:  SURVEY DESC
 DMOD.             Drill Model:  DRILL MOD DESC
 HPTY.       Minimum Curvature:  HOLE POS TYPE
 NREF.                    Grid:  NORTH REFERENCE
 SPUD.               01-Jan-20:  SPUD DATE
 DATE.      00.59.44 15-Sep-20:  END TIME
 STIM.      12.00.00 12-Jun-20:  START TIME
 DMF .             Drill Floor:  DRILL MEAS FROM
 DFST.                        :  DIST FSL TEXT
 DFWT.                        :  DIST FWL TEXT
 API .                        :  API NUMBER
 CNTY.                        :  COUNTY
 UWI .                        :  UNIQUE WELL IDENTIFIER
 LOC .                        :  LOCATION
 LMF .             Drill Floor:  LOG MEASURED FROM
 VSNS.m                   2.88:  VERT SEC N/S
 VSEW.m                  -3.84:  VERT SEC E/W
 AGAP.m                  43.42:  AIR GAP
 APD .m                  43.42:  DEPTH ABOVE PD
 WDMS.m                 118.27:  WD ELEV
 EGL .m                   0.00:  GROUND ELEVATION
 EPD .m                   0.00:  ELEVATION
 AZTC.deg                 6.23:  AZM TOTAL CORR
 GRDC.deg                 0.20:  GRID CORRECTION
 MDEC.deg                 6.43:  MAGNETIC DECL
 MDIP.deg                59.49:  MAGNETIC DIP
 MFLD.nT              50277.00:  MAGNETIC FIELD
 GVFD.g                   1.00:  GRAVITY FIELD
 VSDR.deg               173.20:  VERT SEC DIRECT
 TDD .m                5790.01:  TOTAL DEPTH (DRILLER)
 SDEP.m                5231.01:  START DEPTH
 DFSL.m                   0.00:  DISTANCE FSL
 DFWL.m                   0.00:  DISTANCE FWL
 UTMY.m             4435808.83:  UTM Y
 UTMX.m              526266.40:  UTM X
 WHEW.m                  -3.84:  WELL HEAD E/W
 WHNS.m                   2.88:  WELL HEAD N/S
 LONG.deg                51.31:  LONGITUDE
 LATI.deg                40.06:  LATITUDE
 TVDS.m                  43.42:  TVDSS CORRECTN
 DEP .m                 430.08:  DEPTH
 EKB .m                  43.42:  KB ELEVATION
 EDF .m                  43.42:  DF ELEVATION
 TDL .m                 559.00:  TOTAL DEPTH (LOGGER)
 MAGU.                 1849381:  MAGUTM CHECKSUM
 VSC .                       0:  VS TO CLOSURE
~Parameter Information Block
#MNEM.UNIT       Value        Description
#---------     -----------    ---------------------------
 AV  .mps                 4.87:  Ann Velocity 
 AVMX.mps                 7.08:  Max Ann Veloc 
 AZIF.deg               108.87:  Azm, Final 
 BHAT.                  Rotary:  BHA Type 
 BROT.°/30m               0.35:  Build Rotating 
 BS  .in                  8.50:  Bit Size 
 BSZ .in                  8.50:  Bit Size 
 BTPL.psig              360.00:  Bit Press Loss 
 CABU.                     Yes:  Customer Abuse 
 COMM.                     ”£|:  Run Comments 1 
 TCS .hr                106.24:  Time Ciculation Ended 
 CV  .mps                 1.77:  Crit Velocity 
 CVMX.mps                 2.03:  Max Crit Veloc 
 DD1 .         Aykhan Agagulov:  Direct Drillr 1 
 DD2 .            Nonso Okofor:  Direct Drillr 2 
 DDSV.               Geo-Pilot:  DD Service 
 DEFF.%                  98.00:  % Det Eff 
 DLRX.°/30m               0.50:  Dogleg Rot Max 
 DLSO.°/30m               0.40:  Dogleg Oriented 
 DLSX.°/30m               0.94:  Dogleg Str Max 
 DRET.      20.30.00 08-Sep-20:  Drill End Time 
 DRST.      22.15.00 06-Sep-20:  Drill Start Tim 
 DTIM.hr                 31.31:  Time Drilling 
 EDEP.m                5790.01:  End Depth 
 ENG1.           Amrah Tahirov:  Engineer 1 
 ENG2.         Dair Mahammadov:  Engineer 2 
 ENG3.           Emil Huseynov:  Engineer 3 
 ETIM.      04.01.04 12-Sep-20:  End Time 
 FLOI.gpm               450.00:  Flow In 
 FLON.gpm               450.00:  Flow In Min 
 FLOS.cptm                2.00:  Fluid Loss 
 FLOX.gpm               450.00:  Flow In Max 
 FTRO.       Formation Presure:  FTWD Run Obj 
 HFLO.                      No:  High Flow 
 HPRE.                      No:  High Pressure 
 HTEM.                      No:  High Temp 
 HYDO.m                   1.80:  Hydro Offset 
 IFIN.deg                72.03:  Inc, Final 
 IMAX.deg                73.72:  Inc Max 
 IMIN.deg                70.94:  Inc Min 
 IMND.m                5508.52:  Inc Min Depth 
 IMXD.m                5253.60:  Inc Max Depth 
 JARR.                      No:  Jarring 
 LETM.      20.30.00 08-Sep-20:  Log End Time 
 LOST.hr                     0:  Lost Rig Time 
 LSTM.      22.15.00 06-Sep-20:  Log Start Time 
 MDCL.ppm             36000.00:  Mud Chlorides 
 MDES.     Inversion Oil/Synthetic:  Mud Desc 
 DFD .sg                  1.44:  Mud Density 
 MDMN.sg                  1.44:  Dens Mud Min 
 MDMX.sg                  1.57:  Dens Mud Max 
 MOIL.                      70:  Run Mud Oil % 
 MOWR.                   70:30:  Run Mud OWR 
 MSND.                       0:  Run Mud Sand % 
 MSOL.                      21:  Run Mud Solids% 
 DFV .spqt               68.00:  Mud Viscosity 
 MWOD.in                  6.75:  MWD Tool OD 
 MWSI.                     Yes:  Serv Intrp, MWD 
 OTIM.hr                174.84:  Time Operating 
 PCON.           Look Like New:  Pad Condition 
 PMAX.psia            10616.93:  Press Op, Max 
 PV  .cP                 50.00:  Mud PV 
 RUN .                     700:  Run Number 
 ROPA.m/hr               14.24:  ROP Avg 
 ROPN.m/hr               10.00:  ROP Min 
 ROPX.m/hr               32.00:  ROP Max 
 RPMA.rpm               120.90:  RPM Surface Avg 
 RPMN.rpm               120.00:  RPM Surface Min 
 RPMX.rpm               140.00:  RPM Surface Max 
 RRUN.                    0700:  Rig Run Number 
 RTIM.hr                  3.20:  Time Reaming 
 SAZI.deg               109.99:  Azm, Start 
 SDEP.m                5231.01:  Start Depth 
 SIDD.                      No:  Serv Intrp, DD 
 SINC.deg                73.72:  Inc, Start 
 SPPA.psig             3051.00:  SPP Avg 
 SPPN.psig             2950.00:  SPP Min 
 SPPX.psig             3250.00:  SPP Max 
 STIM.      08.00.00 05-Sep-20:  Start Time 
 SVCS.                 DD, MWD:  Services 
 SVER.                    9.20:  Sperry Version 
 TDAT.m                 559.00:  Tot Depth Attmp 
 TDDF.                      No:  Trip for DD 
 TDLG.m                 559.00:  Tot Depth Loggd 
 TFF .                      No:  Trip for Fail 
 TQAA.f-kp               26.49:  Torque Abs Avg 
 TQAN.f-kp               25.00:  Torque Abs Min 
 TQAX.f-kp               27.00:  Torque Abs Max 
 TRRT.°/30m               1.50:  Turn Rotating 
 MRT .                    HCIM:  Maximum Recorded Temperature 
 TTMX.degC               90.20:  Max Tool Temp 
 VS01.                90542671:  Virtual Str1 SN 
 VS02.                90545185:  Virtual Str2 SN 
 VS03.                90602015:  Virtual Str3 SN 
 VS04.                90515230:  Virtual Str4 SN 
 WBMN.klb                 5.00:  WOB Min 
 WOBA.klb                14.79:  WOB Avg 
 WOBX.klb                20.00:  WOB Max 
 YP  .lhf2               29.00:  Yield Point 
~Curve Information Block
#MNEM.UNIT                 API CODE     Curve Description
#---------               -----------    ---------------------------
 TIME.HHMMSS            00 000 000 000:  GT Time & Date
 GTDEPTH.m              00 000 000 000:  GT Depth
 GTPQH.psia             00 000 000 000:  GT HR Quartz Pressure
 GTTQ.degC              00 000 000 000:  GT Quartz Temperature
 GTTN.NONE              00 000 000 000:  GT Test Number
 GTET.sec               00 000 000 000:  GT Elapsed Test Time
 GTTVD.m                00 000 000 000:  GT True Vertical Depth
#Other Information
#
#WARRANTY: Halliburton will use its best efforts to furnish customers with 
#accurate information and interpretations that are part of, and incident to, the services 
#provided.  However, Halliburton cannot and does not warrant the accuracy 
#or correctness of such information and interpretations.  Under no circumstances should any 
#such information or interpretation be relied upon as the sole basis for any drilling, 
#completion, production, or financial decision or any procedure involving any risk to the 
#safety of any drilling venture, drilling rig or its crew or any other third party.  The 
#Customer has full responsibility for all drilling, completion and production operation.  
#Halliburton makes no representations or warranties, either expressed or 
#implied, including, but not limited to, the implied warranties of merchantability or fitness 
#for a particular purpose, with respect to the services rendered.  In no event will 
#Halliburton be liable for failure to obtain any particular results or for 
#any damages, including, but not limited to, indirect, special or consequential damages, 
#resulting from the use of any information or interpretation provided by Halliburton.
#
~A           TIME           GTDEPTH  GTPQH  GTTQ  GTTN  GTET   GTTVD  
# ...
   05:40:27.072.09-Sep-2020 5634.01 3689.91 79.93 1.00 252.99 2660.75
   05:40:27.272.09-Sep-2020 5634.01 3689.91 79.93 1.00 253.19 2660.75
   05:40:27.472.09-Sep-2020 5634.01 3689.77 79.93 1.00 253.39 2660.75
   05:40:27.672.09-Sep-2020 5634.01 3678.30 79.93 1.00 253.59 2660.75
   05:40:27.872.09-Sep-2020 5634.01 3618.92 79.93 1.00 253.79 2660.75
   05:40:28.072.09-Sep-2020 5634.01 3608.75 79.93 1.00 253.99 2660.75
   05:40:28.272.09-Sep-2020 5634.01 3608.75 79.93 1.00 254.19 2660.75
   05:40:28.472.09-Sep-2020 5634.01 3611.27 79.93 1.00 254.39 2660.75
   05:40:28.672.09-Sep-2020 5634.01 3608.40 79.93 1.00 254.59 2660.75
   05:40:28.872.09-Sep-2020 5634.01 3608.78 79.93 1.00 254.79 2660.75
   05:40:29.072.09-Sep-2020 5634.01 3606.47 79.93 1.00 254.99 2660.75
   05:40:29.272.09-Sep-2020 5634.01 3606.47 79.93 1.00 255.19 2660.75
   05:40:29.472.09-Sep-2020 5634.01 3607.54 79.93 1.00 255.39 2660.75
   05:40:29.672.09-Sep-2020 5634.01 3607.75 79.93 1.00 255.59 2660.75
   05:40:29.872.09-Sep-2020 5634.01 3607.53 79.93 1.00 255.79 2660.75
   05:40:30.072.09-Sep-2020 5634.01 3606.17 79.93 1.00 255.99 2660.75
   05:40:30.272.09-Sep-2020 5634.01 3606.17 79.93 1.00 256.19 2660.75
   05:40:30.472.09-Sep-2020 5634.01 3606.50 79.92 1.00 256.39 2660.75
   05:40:30.672.09-Sep-2020 5634.01 3605.82 79.92 1.00 256.59 2660.75
   05:40:30.872.09-Sep-2020 5634.01 3605.82 79.92 1.00 256.79 2660.75
   05:40:31.072.09-Sep-2020 5634.01 3607.47 79.92 1.00 256.99 2660.75
   05:40:31.272.09-Sep-2020 5634.01 3607.47 79.92 1.00 257.19 2660.75
   05:40:31.472.09-Sep-2020 5634.01 3605.82 79.92 1.00 257.39 2660.75
   05:40:31.672.09-Sep-2020 5634.01 3605.60 79.92 1.00 257.59 2660.75
   05:40:31.872.09-Sep-2020 5634.01 3605.54 79.92 1.00 257.79 2660.75
   05:40:32.072.09-Sep-2020 5634.01 3607.59 79.92 1.00 257.99 2660.75
   05:40:32.272.09-Sep-2020 5634.01 3607.59 79.92 1.00 258.19 2660.75
   05:40:32.472.09-Sep-2020 5634.01 3605.68 79.92 1.00 258.39 2660.75
   05:40:32.672.09-Sep-2020 5634.01 3604.85 79.92 1.00 258.59 2660.75
   05:40:32.872.09-Sep-2020 5634.01 3605.71 79.92 1.00 258.79 2660.75
   05:40:33.072.09-Sep-2020 5634.01 3607.99 79.92 1.00 258.99 2660.75
   05:40:33.272.09-Sep-2020 5634.01 3607.99 79.92 1.00 259.19 2660.75
   05:40:33.472.09-Sep-2020 5634.01 3606.19 79.92 1.00 259.39 2660.75
   05:40:33.672.09-Sep-2020 5634.01 3606.66 79.92 1.00 259.59 2660.75
   05:40:33.872.09-Sep-2020 5634.01 3604.02 79.92 1.00 259.79 2660.75
   05:40:34.072.09-Sep-2020 5634.01 3605.30 79.92 1.00 259.99 2660.75
   05:40:34.272.09-Sep-2020 5634.01 3605.30 79.92 1.00 260.19 2660.75
   05:40:34.472.09-Sep-2020 5634.01 3605.33 79.92 1.00 260.39 2660.75
   05:40:34.672.09-Sep-2020 5634.01 3606.05 79.92 1.00 260.59 2660.75
   05:40:34.872.09-Sep-2020 5634.01 3605.62 79.92 1.00 260.79 2660.75
   05:40:35.072.09-Sep-2020 5634.01 3605.13 79.92 1.00 260.99 2660.75
   05:40:35.272.09-Sep-2020 5634.01 3605.13 79.92 1.00 261.19 2660.75
   05:40:35.472.09-Sep-2020 5634.01 3605.30 79.92 1.00 261.39 2660.75
   05:40:35.672.09-Sep-2020 5634.01 3606.06 79.92 1.00 261.59 2660.75
   05:40:35.872.09-Sep-2020 5634.01 3604.18 79.92 1.00 261.79 2660.75
   05:40:36.072.09-Sep-2020 5634.01 3604.12 79.92 1.00 261.99 2660.75
   05:40:36.272.09-Sep-2020 5634.01 3604.12 79.92 1.00 262.19 2660.75
   05:40:36.472.09-Sep-2020 5634.01 3604.00 79.92 1.00 262.39 2660.75
   05:40:36.672.09-Sep-2020 5634.01 3604.97 79.92 1.00 262.59 2660.75
   05:40:36.872.09-Sep-2020 5634.01 3603.83 79.92 1.00 262.79 2660.75
   05:40:37.072.09-Sep-2020 5634.01 3603.55 79.92 1.00 262.99 2660.75
   05:40:37.272.09-Sep-2020 5634.01 3603.55 79.92 1.00 263.19 2660.75
   05:40:37.472.09-Sep-2020 5634.01 3606.53 79.92 1.00 263.39 2660.75
   05:40:37.672.09-Sep-2020 5634.01 3603.73 79.92 1.00 263.59 2660.75
   05:40:37.872.09-Sep-2020 5634.01 3652.57 79.92 1.00 263.79 2660.75
   05:40:38.072.09-Sep-2020 5634.01 3684.77 79.92 1.00 263.99 2660.75
   05:40:38.272.09-Sep-2020 5634.01 3684.77 79.92 1.00 264.19 2660.75
   05:40:38.472.09-Sep-2020 5634.01 3687.23 79.92 1.00 264.39 2660.75
   05:40:38.672.09-Sep-2020 5634.01 3687.88 79.92 1.00 264.59 2660.75
   05:40:38.872.09-Sep-2020 5634.01 3687.66 79.92 1.00 264.79 2660.75
   05:40:39.072.09-Sep-2020 5634.01 3688.11 79.92 1.00 264.99 2660.75
   05:40:39.272.09-Sep-2020 5634.01 3688.11 79.92 1.00 265.19 2660.75
   05:40:39.472.09-Sep-2020 5634.01 3688.39 79.92 1.00 265.39 2660.75
   05:40:39.672.09-Sep-2020 5634.01 3688.48 79.92 1.00 265.59 2660.75
   05:40:39.872.09-Sep-2020 5634.01 3688.55 79.92 1.00 265.79 2660.75
   05:40:40.072.09-Sep-2020 5634.01 3688.69 79.92 1.00 265.99 2660.75
   05:40:40.272.09-Sep-2020 5634.01 3688.69 79.92 1.00 266.19 2660.75
   05:40:40.472.09-Sep-2020 5634.01 3688.80 79.92 1.00 266.39 2660.75
   05:40:40.672.09-Sep-2020 5634.01 3688.83 79.92 1.00 266.59 2660.75
   05:40:40.872.09-Sep-2020 5634.01 3688.94 79.92 1.00 266.79 2660.75
   05:40:41.072.09-Sep-2020 5634.01 3689.14 79.92 1.00 266.99 2660.75
   05:40:41.272.09-Sep-2020 5634.01 3689.14 79.92 1.00 267.19 2660.75
   05:40:41.472.09-Sep-2020 5634.01 3689.06 79.92 1.00 267.39 2660.75
   05:40:41.672.09-Sep-2020 5634.01 3689.05 79.92 1.00 267.59 2660.75
   05:40:41.872.09-Sep-2020 5634.01 3689.12 79.92 1.00 267.79 2660.75
   05:40:42.072.09-Sep-2020 5634.01 3689.11 79.92 1.00 267.99 2660.75
   05:40:42.272.09-Sep-2020 5634.01 3689.11 79.92 1.00 268.19 2660.75
   05:40:42.472.09-Sep-2020 5634.01 3689.17 79.92 1.00 268.39 2660.75
   05:40:42.672.09-Sep-2020 5634.01 3689.19 79.92 1.00 268.59 2660.75
   05:40:42.872.09-Sep-2020 5634.01 3689.19 79.92 1.00 268.79 2660.75
   05:40:43.072.09-Sep-2020 5634.01 3689.23 79.92 1.00 268.99 2660.75
   05:40:43.272.09-Sep-2020 5634.01 3689.23 79.92 1.00 269.19 2660.75
   05:40:43.472.09-Sep-2020 5634.01 3689.24 79.92 1.00 269.39 2660.75
   05:40:43.672.09-Sep-2020 5634.01 3689.25 79.92 1.00 269.59 2660.75
   05:40:43.872.09-Sep-2020 5634.01 3689.27 79.92 1.00 269.79 2660.75
   05:40:44.072.09-Sep-2020 5634.01 3689.28 79.92 1.00 269.99 2660.75
   05:40:44.272.09-Sep-2020 5634.01 3689.28 79.92 1.00 270.19 2660.75
   05:40:44.472.09-Sep-2020 5634.01 3689.31 79.92 1.00 270.39 2660.75
   05:40:44.672.09-Sep-2020 5634.01 3689.31 79.92 1.00 270.59 2660.75
   05:40:44.872.09-Sep-2020 5634.01 3689.32 79.92 1.00 270.79 2660.75
   05:40:45.071.09-Sep-2020 5634.01 3689.35 79.92 1.00 270.99 2660.75
   05:40:45.271.09-Sep-2020 5634.01 3689.35 79.92 1.00 271.19 2660.75
   05:40:45.471.09-Sep-2020 5634.01 3689.35 79.92 1.00 271.39 2660.75
   05:40:45.671.09-Sep-2020 5634.01 3689.39 79.92 1.00 271.59 2660.75
   05:40:45.871.09-Sep-2020 5634.01 3689.34 79.92 1.00 271.79 2660.75
   05:40:46.071.09-Sep-2020 5634.01 3689.38 79.92 1.00 271.99 2660.75
   05:40:46.271.09-Sep-2020 5634.01 3689.38 79.92 1.00 272.19 2660.75
   05:40:46.471.09-Sep-2020 5634.01 3689.39 79.92 1.00 272.39 2660.75
   05:40:46.671.09-Sep-2020 5634.01 3689.39 79.92 1.00 272.59 2660.75
   05:40:46.871.09-Sep-2020 5634.01 3689.39 79.92 1.00 272.79 2660.75
   05:40:47.071.09-Sep-2020 5634.01 3689.40 79.92 1.00 272.99 2660.75
   05:40:47.271.09-Sep-2020 5634.01 3689.40 79.92 1.00 273.19 2660.75
   05:40:47.471.09-Sep-2020 5634.01 3689.42 79.92 1.00 273.39 2660.75
   05:40:47.671.09-Sep-2020 5634.01 3689.42 79.92 1.00 273.59 2660.75
   05:40:47.871.09-Sep-2020 5634.01 3689.44 79.92 1.00 273.79 2660.75
   05:40:48.071.09-Sep-2020 5634.01 3689.40 79.92 1.00 273.99 2660.75
   05:40:48.271.09-Sep-2020 5634.01 3689.40 79.92 1.00 274.19 2660.75
   05:40:48.471.09-Sep-2020 5634.01 3689.46 79.92 1.00 274.39 2660.75
   05:40:48.671.09-Sep-2020 5634.01 3689.43 79.92 1.00 274.59 2660.75
   05:40:48.871.09-Sep-2020 5634.01 3689.43 79.92 1.00 274.79 2660.75
   05:40:49.071.09-Sep-2020 5634.01 3689.47 79.92 1.00 274.99 2660.75
   05:40:49.271.09-Sep-2020 5634.01 3689.47 79.92 1.00 275.19 2660.75
   05:40:49.471.09-Sep-2020 5634.01 3689.26 79.92 1.00 275.39 2660.75
   05:40:49.671.09-Sep-2020 5634.01 3689.49 79.92 1.00 275.59 2660.75
   05:40:49.871.09-Sep-2020 5634.01 3689.45 79.92 1.00 275.79 2660.75
