~Version Information
 VERS.                  2.0:   CWLS log ASCII Standard -VERSION 2.0
 WRAP.                   NO:   One line per depth step
~Well Information Block
#MNEM.UNIT     VALUE/NAME     DESCRIPTION
#---------     -----------    ---------------------------
 STRT.S             11:14:18 09-Sep-20: START TIME 11:14:18 09-Sep-20
 STOP.S             11:21:20 09-Sep-20: STOP TIME  11:21:20 09-Sep-20
 STEP.S                   0.00: STEP TIME
 NULL.                 -999.25: NULL VALUE
 MDS .        Operator Entered:  MAG DATA SOURCE
 PDAT.          Mean Sea Level:  PERMANENT DATUM
 DCON.         Sperry Drilling:  DIRECTNL CONTR
 RIG .              West Azeri:  RIG NAME
 WELL.           C40 (Slot 20):  WELL NAME
 SRVC.     Turan Drilling Engineering:  CONTRACTOR
 FLD .                     ACG:  FIELD NAME
 CTRY.              Azerbaijan:  COUNTRY NAME
 PROV.                    Baku:  PROVINCE
 STAT.                    Baku:  STATE NAME
 REGN.                   EESSA:  REGION
 BASE.              Azerbaijan:  LOGGING EQUIPMENT BASE LOCATION
 COMP.     BP Exploration (Caspian Sea) Ltd:  COMPANY
 WTYP.                Deviated:  WELL TYPE
 SON .        AZ-XX-0906344804:  JOB NUMBER
 FTOP.          Formation Tops:  FORM TOPS DESC
 ILTD.               Lithology:  INTERP LTH DESC
 SVYD.                  Survey:  SURVEY DESC
 DMOD.             Drill Model:  DRILL MOD DESC
 HPTY.       Minimum Curvature:  HOLE POS TYPE
 NREF.                    Grid:  NORTH REFERENCE
 SPUD.               01-Jan-20:  SPUD DATE
 DATE.      00.59.44 15-Sep-20:  END TIME
 STIM.      12.00.00 12-Jun-20:  START TIME
 DMF .             Drill Floor:  DRILL MEAS FROM
 DFST.                        :  DIST FSL TEXT
 DFWT.                        :  DIST FWL TEXT
 API .                        :  API NUMBER
 CNTY.                        :  COUNTY
 UWI .                        :  UNIQUE WELL IDENTIFIER
 LOC .                        :  LOCATION
 LMF .             Drill Floor:  LOG MEASURED FROM
 VSNS.m                   2.88:  VERT SEC N/S
 VSEW.m                  -3.84:  VERT SEC E/W
 AGAP.m                  43.42:  AIR GAP
 APD .m                  43.42:  DEPTH ABOVE PD
 WDMS.m                 118.27:  WD ELEV
 EGL .m                   0.00:  GROUND ELEVATION
 EPD .m                   0.00:  ELEVATION
 AZTC.deg                 6.23:  AZM TOTAL CORR
 GRDC.deg                 0.20:  GRID CORRECTION
 MDEC.deg                 6.43:  MAGNETIC DECL
 MDIP.deg                59.49:  MAGNETIC DIP
 MFLD.nT              50277.00:  MAGNETIC FIELD
 GVFD.g                   1.00:  GRAVITY FIELD
 VSDR.deg               173.20:  VERT SEC DIRECT
 TDD .m                5790.01:  TOTAL DEPTH (DRILLER)
 SDEP.m                5231.01:  START DEPTH
 DFSL.m                   0.00:  DISTANCE FSL
 DFWL.m                   0.00:  DISTANCE FWL
 UTMY.m             4435808.83:  UTM Y
 UTMX.m              526266.40:  UTM X
 WHEW.m                  -3.84:  WELL HEAD E/W
 WHNS.m                   2.88:  WELL HEAD N/S
 LONG.deg                51.31:  LONGITUDE
 LATI.deg                40.06:  LATITUDE
 TVDS.m                  43.42:  TVDSS CORRECTN
 DEP .m                 430.08:  DEPTH
 EKB .m                  43.42:  KB ELEVATION
 EDF .m                  43.42:  DF ELEVATION
 TDL .m                 559.00:  TOTAL DEPTH (LOGGER)
 MAGU.                 1849381:  MAGUTM CHECKSUM
 VSC .                       0:  VS TO CLOSURE
~Parameter Information Block
#MNEM.UNIT       Value        Description
#---------     -----------    ---------------------------
 AV  .mps                 4.87:  Ann Velocity 
 AVMX.mps                 7.08:  Max Ann Veloc 
 AZIF.deg               108.87:  Azm, Final 
 BHAT.                  Rotary:  BHA Type 
 BROT.°/30m               0.35:  Build Rotating 
 BS  .in                  8.50:  Bit Size 
 BSZ .in                  8.50:  Bit Size 
 BTPL.psig              360.00:  Bit Press Loss 
 CABU.                     Yes:  Customer Abuse 
 TCS .hr                106.24:  Time Ciculation Ended 
 CV  .mps                 1.77:  Crit Velocity 
 CVMX.mps                 2.03:  Max Crit Veloc 
 DD1 .         Aykhan Agagulov:  Direct Drillr 1 
 DD2 .            Nonso Okofor:  Direct Drillr 2 
 DDSV.               Geo-Pilot:  DD Service 
 DEFF.%                  98.00:  % Det Eff 
 DLRX.°/30m               0.50:  Dogleg Rot Max 
 DLSO.°/30m               0.40:  Dogleg Oriented 
 DLSX.°/30m               0.94:  Dogleg Str Max 
 DRET.      20.30.00 08-Sep-20:  Drill End Time 
 DRST.      22.15.00 06-Sep-20:  Drill Start Tim 
 DTIM.hr                 31.31:  Time Drilling 
 EDEP.m                5790.01:  End Depth 
 ENG1.           Amrah Tahirov:  Engineer 1 
 ENG2.         Dair Mahammadov:  Engineer 2 
 ENG3.           Emil Huseynov:  Engineer 3 
 ETIM.      04.01.04 12-Sep-20:  End Time 
 FLOI.gpm               450.00:  Flow In 
 FLON.gpm               450.00:  Flow In Min 
 FLOS.cptm                2.00:  Fluid Loss 
 FLOX.gpm               450.00:  Flow In Max 
 FTRO.       Formation Presure:  FTWD Run Obj 
 HFLO.                      No:  High Flow 
 HPRE.                      No:  High Pressure 
 HTEM.                      No:  High Temp 
 HYDO.m                   1.80:  Hydro Offset 
 IFIN.deg                72.03:  Inc, Final 
 IMAX.deg                73.72:  Inc Max 
 IMIN.deg                70.94:  Inc Min 
 IMND.m                5508.52:  Inc Min Depth 
 IMXD.m                5253.60:  Inc Max Depth 
 JARR.                      No:  Jarring 
 LETM.      20.30.00 08-Sep-20:  Log End Time 
 LOST.hr                     0:  Lost Rig Time 
 LSTM.      22.15.00 06-Sep-20:  Log Start Time 
 MDCL.ppm             36000.00:  Mud Chlorides 
 MDES.     Inversion Oil/Synthetic:  Mud Desc 
 DFD .sg                  1.44:  Mud Density 
 MDMN.sg                  1.44:  Dens Mud Min 
 MDMX.sg                  1.57:  Dens Mud Max 
 MOIL.                      70:  Run Mud Oil % 
 MOWR.                   70:30:  Run Mud OWR 
 MSND.                       0:  Run Mud Sand % 
 MSOL.                      21:  Run Mud Solids% 
 DFV .spqt               68.00:  Mud Viscosity 
 MWOD.in                  6.75:  MWD Tool OD 
 MWSI.                     Yes:  Serv Intrp, MWD 
 OTIM.hr                174.84:  Time Operating 
 PCON.           Look Like New:  Pad Condition 
 PMAX.psia            10616.93:  Press Op, Max 
 PV  .cP                 50.00:  Mud PV 
 RUN .                     700:  Run Number 
 ROPA.m/hr               14.24:  ROP Avg 
 ROPN.m/hr               10.00:  ROP Min 
 ROPX.m/hr               32.00:  ROP Max 
 RPMA.rpm               120.90:  RPM Surface Avg 
 RPMN.rpm               120.00:  RPM Surface Min 
 RPMX.rpm               140.00:  RPM Surface Max 
 RRUN.                    0700:  Rig Run Number 
 RTIM.hr                  3.20:  Time Reaming 
 SAZI.deg               109.99:  Azm, Start 
 SDEP.m                5231.01:  Start Depth 
 SIDD.                      No:  Serv Intrp, DD 
 SINC.deg                73.72:  Inc, Start 
 SPPA.psig             3051.00:  SPP Avg 
 SPPN.psig             2950.00:  SPP Min 
 SPPX.psig             3250.00:  SPP Max 
 STIM.      08.00.00 05-Sep-20:  Start Time 
 SVCS.                 DD, MWD:  Services 
 SVER.                    9.20:  Sperry Version 
 TDAT.m                 559.00:  Tot Depth Attmp 
 TDDF.                      No:  Trip for DD 
 TDLG.m                 559.00:  Tot Depth Loggd 
 TFF .                      No:  Trip for Fail 
 TQAA.f-kp               26.49:  Torque Abs Avg 
 TQAN.f-kp               25.00:  Torque Abs Min 
 TQAX.f-kp               27.00:  Torque Abs Max 
 TRRT.°/30m               1.50:  Turn Rotating 
 MRT .                    HCIM:  Maximum Recorded Temperature 
 TTMX.degC               90.20:  Max Tool Temp 
 VS01.                90542671:  Virtual Str1 SN 
 VS02.                90545185:  Virtual Str2 SN 
 VS03.                90602015:  Virtual Str3 SN 
 VS04.                90515230:  Virtual Str4 SN 
 WBMN.klb                 5.00:  WOB Min 
 WOBA.klb                14.79:  WOB Avg 
 WOBX.klb                20.00:  WOB Max 
 YP  .lhf2               29.00:  Yield Point 
~Curve Information Block
#MNEM.UNIT                 API CODE     Curve Description
#---------               -----------    ---------------------------
 TIME.HHMMSS            00 000 000 000:  GT Time & Date
 GTDEPTH.m              00 000 000 000:  GT Depth
 GTPQH.psia             00 000 000 000:  GT HR Quartz Pressure
 GTTQ.degC              00 000 000 000:  GT Quartz Temperature
 GTTN.NONE              00 000 000 000:  GT Test Number
 GTET.sec               00 000 000 000:  GT Elapsed Test Time
 GTTVD.m                00 000 000 000:  GT True Vertical Depth
#Other Information
#
#WARRANTY: Halliburton will use its best efforts to furnish customers with 
#accurate information and interpretations that are part of, and incident to, the services 
#provided.  However, Halliburton cannot and does not warrant the accuracy 
#or correctness of such information and interpretations.  Under no circumstances should any 
#such information or interpretation be relied upon as the sole basis for any drilling, 
#completion, production, or financial decision or any procedure involving any risk to the 
#safety of any drilling venture, drilling rig or its crew or any other third party.  The 
#Customer has full responsibility for all drilling, completion and production operation.  
#Halliburton makes no representations or warranties, either expressed or 
#implied, including, but not limited to, the implied warranties of merchantability or fitness 
#for a particular purpose, with respect to the services rendered.  In no event will 
#Halliburton be liable for failure to obtain any particular results or for 
#any damages, including, but not limited to, indirect, special or consequential damages, 
#resulting from the use of any information or interpretation provided by Halliburton.
#
~A           TIME           GTDEPTH  GTPQH  GTTQ  GTTN   GTET   GTTVD  
# ...
   11:18:04.573.09-Sep-2020 5442.01 3582.10 76.11 11.00 226.06 2600.30
   11:18:04.773.09-Sep-2020 5442.01 3582.10 76.11 11.00 226.26 2600.30
   11:18:04.973.09-Sep-2020 5442.01 3582.08 76.11 11.00 226.46 2600.30
   11:18:05.173.09-Sep-2020 5442.01 3582.07 76.11 11.00 226.66 2600.30
   11:18:05.373.09-Sep-2020 5442.01 3582.09 76.11 11.00 226.86 2600.30
   11:18:05.573.09-Sep-2020 5442.01 3582.06 76.11 11.00 227.06 2600.30
   11:18:05.773.09-Sep-2020 5442.01 3582.07 76.11 11.00 227.26 2600.30
   11:18:05.973.09-Sep-2020 5442.01 3582.05 76.11 11.00 227.46 2600.30
   11:18:06.173.09-Sep-2020 5442.01 3582.12 76.11 11.00 227.66 2600.30
   11:18:06.373.09-Sep-2020 5442.01 3582.07 76.11 11.00 227.86 2600.30
   11:18:06.573.09-Sep-2020 5442.01 3582.08 76.11 11.00 228.06 2600.30
   11:18:06.773.09-Sep-2020 5442.01 3582.07 76.11 11.00 228.26 2600.30
   11:18:06.973.09-Sep-2020 5442.01 3582.08 76.11 11.00 228.46 2600.30
   11:18:07.174.09-Sep-2020 5442.01 3582.08 76.11 11.00 228.66 2600.30
   11:18:07.374.09-Sep-2020 5442.01 3582.04 76.11 11.00 228.86 2600.30
   11:18:07.574.09-Sep-2020 5442.01 3582.11 76.11 11.00 229.06 2600.30
   11:18:07.774.09-Sep-2020 5442.01 3582.11 76.11 11.00 229.26 2600.30
   11:18:07.974.09-Sep-2020 5442.01 3582.07 76.11 11.00 229.46 2600.30
   11:18:08.174.09-Sep-2020 5442.01 3582.07 76.11 11.00 229.66 2600.30
   11:18:08.374.09-Sep-2020 5442.01 3582.07 76.11 11.00 229.86 2600.30
   11:18:08.574.09-Sep-2020 5442.01 3582.07 76.11 11.00 230.06 2600.30
   11:18:08.774.09-Sep-2020 5442.01 3582.07 76.11 11.00 230.26 2600.30
   11:18:08.974.09-Sep-2020 5442.01 3582.07 76.11 11.00 230.46 2600.30
   11:18:09.174.09-Sep-2020 5442.01 3582.07 76.11 11.00 230.66 2600.30
   11:18:09.374.09-Sep-2020 5442.01 3582.07 76.11 11.00 230.86 2600.30
   11:18:09.574.09-Sep-2020 5442.01 3582.07 76.11 11.00 231.06 2600.30
   11:18:09.774.09-Sep-2020 5442.01 3582.07 76.11 11.00 231.26 2600.30
   11:18:09.974.09-Sep-2020 5442.01 3582.07 76.11 11.00 231.46 2600.30
   11:18:10.174.09-Sep-2020 5442.01 3582.08 76.11 11.00 231.66 2600.30
   11:18:10.374.09-Sep-2020 5442.01 3582.08 76.11 11.00 231.86 2600.30
   11:18:10.574.09-Sep-2020 5442.01 3582.08 76.11 11.00 232.06 2600.30
   11:18:10.775.09-Sep-2020 5442.01 3582.08 76.11 11.00 232.26 2600.30
   11:18:10.975.09-Sep-2020 5442.01 3582.08 76.11 11.00 232.46 2600.30
   11:18:11.175.09-Sep-2020 5442.01 3582.10 76.11 11.00 232.66 2600.30
   11:18:11.375.09-Sep-2020 5442.01 3582.06 76.11 11.00 232.86 2600.30
   11:18:11.575.09-Sep-2020 5442.01 3582.08 76.11 11.00 233.06 2600.30
   11:18:11.775.09-Sep-2020 5442.01 3582.08 76.11 11.00 233.26 2600.30
   11:18:11.975.09-Sep-2020 5442.01 3582.09 76.11 11.00 233.46 2600.30
   11:18:12.175.09-Sep-2020 5442.01 3582.06 76.11 11.00 233.66 2600.30
   11:18:12.375.09-Sep-2020 5442.01 3582.08 76.11 11.00 233.86 2600.30
   11:18:12.575.09-Sep-2020 5442.01 3582.08 76.11 11.00 234.06 2600.30
   11:18:12.775.09-Sep-2020 5442.01 3582.08 76.11 11.00 234.26 2600.30
   11:18:12.975.09-Sep-2020 5442.01 3582.07 76.11 11.00 234.46 2600.30
   11:18:13.175.09-Sep-2020 5442.01 3582.08 76.11 11.00 234.66 2600.30
   11:18:13.375.09-Sep-2020 5442.01 3582.08 76.11 11.00 234.86 2600.30
   11:18:13.575.09-Sep-2020 5442.01 3582.08 76.11 11.00 235.06 2600.30
   11:18:13.775.09-Sep-2020 5442.01 3582.08 76.11 11.00 235.26 2600.30
   11:18:13.975.09-Sep-2020 5442.01 3582.08 76.11 11.00 235.47 2600.30
   11:18:14.175.09-Sep-2020 5442.01 3582.08 76.11 11.00 235.67 2600.30
   11:18:14.376.09-Sep-2020 5442.01 3582.08 76.11 11.00 235.87 2600.30
   11:18:14.576.09-Sep-2020 5442.01 3582.06 76.11 11.00 236.07 2600.30
   11:18:14.776.09-Sep-2020 5442.01 3582.09 76.11 11.00 236.27 2600.30
   11:18:14.976.09-Sep-2020 5442.01 3582.09 76.11 11.00 236.47 2600.30
   11:18:15.176.09-Sep-2020 5442.01 3582.08 76.11 11.00 236.67 2600.30
   11:18:15.376.09-Sep-2020 5442.01 3582.08 76.11 11.00 236.87 2600.30
   11:18:15.576.09-Sep-2020 5442.01 3582.02 76.11 11.00 237.07 2600.30
   11:18:15.776.09-Sep-2020 5442.01 3582.02 76.11 11.00 237.27 2600.30
   11:18:15.976.09-Sep-2020 5442.01 3582.07 76.11 11.00 237.47 2600.30
   11:18:16.176.09-Sep-2020 5442.01 3582.07 76.11 11.00 237.67 2600.30
   11:18:16.376.09-Sep-2020 5442.01 3582.06 76.11 11.00 237.87 2600.30
   11:18:16.576.09-Sep-2020 5442.01 3582.07 76.11 11.00 238.07 2600.30
   11:18:16.776.09-Sep-2020 5442.01 3582.07 76.11 11.00 238.27 2600.30
   11:18:16.976.09-Sep-2020 5442.01 3582.07 76.11 11.00 238.47 2600.30
   11:18:17.176.09-Sep-2020 5442.01 3582.07 76.11 11.00 238.67 2600.30
   11:18:17.376.09-Sep-2020 5442.01 3582.07 76.11 11.00 238.87 2600.30
   11:18:17.576.09-Sep-2020 5442.01 3582.07 76.11 11.00 239.07 2600.30
   11:18:17.776.09-Sep-2020 5442.01 3582.07 76.11 11.00 239.27 2600.30
   11:18:17.977.09-Sep-2020 5442.01 3582.06 76.11 11.00 239.47 2600.30
   11:18:18.177.09-Sep-2020 5442.01 3582.08 76.11 11.00 239.67 2600.30
   11:18:18.377.09-Sep-2020 5442.01 3582.07 76.11 11.00 239.87 2600.30
   11:18:18.577.09-Sep-2020 5442.01 3582.07 76.11 11.00 240.07 2600.30
   11:18:18.777.09-Sep-2020 5442.01 3582.06 76.11 11.00 240.27 2600.30
   11:18:18.977.09-Sep-2020 5442.01 3582.08 76.11 11.00 240.47 2600.30
   11:18:19.177.09-Sep-2020 5442.01 3582.08 76.11 11.00 240.67 2600.30
   11:18:19.377.09-Sep-2020 5442.01 3582.08 76.11 11.00 240.87 2600.30
   11:18:19.577.09-Sep-2020 5442.01 3582.07 76.11 11.00 241.07 2600.30
   11:18:19.777.09-Sep-2020 5442.01 3582.07 76.11 11.00 241.27 2600.30
   11:18:19.977.09-Sep-2020 5442.01 3582.07 76.11 11.00 241.47 2600.30
   11:18:20.177.09-Sep-2020 5442.01 3582.06 76.11 11.00 241.67 2600.30
   11:18:20.377.09-Sep-2020 5442.01 3582.08 76.11 11.00 241.87 2600.30
   11:18:20.577.09-Sep-2020 5442.01 3582.07 76.11 11.00 242.07 2600.30
   11:18:20.777.09-Sep-2020 5442.01 3582.07 76.11 11.00 242.27 2600.30
   11:18:20.977.09-Sep-2020 5442.01 3582.07 76.11 11.00 242.47 2600.30
   11:18:21.177.09-Sep-2020 5442.01 3582.06 76.11 11.00 242.67 2600.30
   11:18:21.377.09-Sep-2020 5442.01 3582.07 76.11 11.00 242.87 2600.30
   11:18:21.578.09-Sep-2020 5442.01 3582.06 76.11 11.00 243.07 2600.30
   11:18:21.778.09-Sep-2020 5442.01 3582.07 76.11 11.00 243.27 2600.30
   11:18:21.978.09-Sep-2020 5442.01 3582.07 76.11 11.00 243.47 2600.30
   11:18:22.178.09-Sep-2020 5442.01 3582.07 76.11 11.00 243.67 2600.30
   11:18:22.378.09-Sep-2020 5442.01 3582.06 76.11 11.00 243.87 2600.30
   11:18:22.578.09-Sep-2020 5442.01 3582.07 76.11 11.00 244.07 2600.30
   11:18:22.778.09-Sep-2020 5442.01 3582.06 76.11 11.00 244.27 2600.30
   11:18:22.978.09-Sep-2020 5442.01 3582.07 76.11 11.00 244.47 2600.30
   11:18:23.178.09-Sep-2020 5442.01 3582.07 76.11 11.00 244.67 2600.30
   11:18:23.378.09-Sep-2020 5442.01 3582.06 76.11 11.00 244.87 2600.30
   11:18:23.578.09-Sep-2020 5442.01 3582.07 76.11 11.00 245.07 2600.30
   11:18:23.778.09-Sep-2020 5442.01 3582.07 76.11 11.00 245.27 2600.30
   11:18:23.978.09-Sep-2020 5442.01 3582.07 76.11 11.00 245.47 2600.30
   11:18:24.178.09-Sep-2020 5442.01 3582.07 76.11 11.00 245.67 2600.30
   11:18:24.378.09-Sep-2020 5442.01 3582.06 76.11 11.00 245.87 2600.30
   11:18:24.578.09-Sep-2020 5442.01 3582.06 76.11 11.00 246.07 2600.30
   11:18:24.778.09-Sep-2020 5442.01 3582.06 76.11 11.00 246.27 2600.30
   11:18:24.978.09-Sep-2020 5442.01 3582.07 76.11 11.00 246.47 2600.30
   11:18:25.179.09-Sep-2020 5442.01 3582.07 76.11 11.00 246.67 2600.30
   11:18:25.379.09-Sep-2020 5442.01 3582.06 76.11 11.00 246.87 2600.30
   11:18:25.579.09-Sep-2020 5442.01 3582.07 76.11 11.00 247.07 2600.30
   11:18:25.779.09-Sep-2020 5442.01 3582.06 76.11 11.00 247.27 2600.30
   11:18:25.979.09-Sep-2020 5442.01 3582.07 76.11 11.00 247.47 2600.30
   11:18:26.179.09-Sep-2020 5442.01 3582.06 76.11 11.00 247.67 2600.30
   11:18:26.379.09-Sep-2020 5442.01 3582.06 76.11 11.00 247.87 2600.30
   11:18:26.579.09-Sep-2020 5442.01 3582.06 76.11 11.00 248.07 2600.30
   11:18:26.779.09-Sep-2020 5442.01 3582.07 76.11 11.00 248.27 2600.30
   11:18:26.979.09-Sep-2020 5442.01 3582.06 76.11 11.00 248.47 2600.30
