~Version Information
 VERS.                  2.0:   CWLS log ASCII Standard -VERSION 2.0
 WRAP.                   NO:   One line per depth step
~Well Information Block
#MNEM.UNIT     VALUE/NAME     DESCRIPTION
#---------     -----------    ---------------------------
 STRT.S             15:34:19 09-Sep-20: START TIME 15:34:19 09-Sep-20
 STOP.S             15:42:34 09-Sep-20: STOP TIME  15:42:34 09-Sep-20
 STEP.S                   0.00: STEP TIME
 NULL.                 -999.25: NULL VALUE
 MDS .        Operator Entered:  MAG DATA SOURCE
 PDAT.          Mean Sea Level:  PERMANENT DATUM
 DCON.         Sperry Drilling:  DIRECTNL CONTR
 RIG .              West Azeri:  RIG NAME
 WELL.           C40 (Slot 20):  WELL NAME
 SRVC.     Turan Drilling Engineering:  CONTRACTOR
 FLD .                     ACG:  FIELD NAME
 CTRY.              Azerbaijan:  COUNTRY NAME
 PROV.                    Baku:  PROVINCE
 STAT.                    Baku:  STATE NAME
 REGN.                   EESSA:  REGION
 BASE.              Azerbaijan:  LOGGING EQUIPMENT BASE LOCATION
 COMP.     BP Exploration (Caspian Sea) Ltd:  COMPANY
 WTYP.                Deviated:  WELL TYPE
 SON .        AZ-XX-0906344804:  JOB NUMBER
 FTOP.          Formation Tops:  FORM TOPS DESC
 ILTD.               Lithology:  INTERP LTH DESC
 SVYD.                  Survey:  SURVEY DESC
 DMOD.             Drill Model:  DRILL MOD DESC
 HPTY.       Minimum Curvature:  HOLE POS TYPE
 NREF.                    Grid:  NORTH REFERENCE
 SPUD.               01-Jan-20:  SPUD DATE
 DATE.      00.59.44 15-Sep-20:  END TIME
 STIM.      12.00.00 12-Jun-20:  START TIME
 DMF .             Drill Floor:  DRILL MEAS FROM
 DFST.                        :  DIST FSL TEXT
 DFWT.                        :  DIST FWL TEXT
 API .                        :  API NUMBER
 CNTY.                        :  COUNTY
 UWI .                        :  UNIQUE WELL IDENTIFIER
 LOC .                        :  LOCATION
 LMF .             Drill Floor:  LOG MEASURED FROM
 VSNS.m                   2.88:  VERT SEC N/S
 VSEW.m                  -3.84:  VERT SEC E/W
 AGAP.m                  43.42:  AIR GAP
 APD .m                  43.42:  DEPTH ABOVE PD
 WDMS.m                 118.27:  WD ELEV
 EGL .m                   0.00:  GROUND ELEVATION
 EPD .m                   0.00:  ELEVATION
 AZTC.deg                 6.23:  AZM TOTAL CORR
 GRDC.deg                 0.20:  GRID CORRECTION
 MDEC.deg                 6.43:  MAGNETIC DECL
 MDIP.deg                59.49:  MAGNETIC DIP
 MFLD.nT              50277.00:  MAGNETIC FIELD
 GVFD.g                   1.00:  GRAVITY FIELD
 VSDR.deg               173.20:  VERT SEC DIRECT
 TDD .m                5790.01:  TOTAL DEPTH (DRILLER)
 SDEP.m                5231.01:  START DEPTH
 DFSL.m                   0.00:  DISTANCE FSL
 DFWL.m                   0.00:  DISTANCE FWL
 UTMY.m             4435808.83:  UTM Y
 UTMX.m              526266.40:  UTM X
 WHEW.m                  -3.84:  WELL HEAD E/W
 WHNS.m                   2.88:  WELL HEAD N/S
 LONG.deg                51.31:  LONGITUDE
 LATI.deg                40.06:  LATITUDE
 TVDS.m                  43.42:  TVDSS CORRECTN
 DEP .m                 430.08:  DEPTH
 EKB .m                  43.42:  KB ELEVATION
 EDF .m                  43.42:  DF ELEVATION
 TDL .m                 559.00:  TOTAL DEPTH (LOGGER)
 MAGU.                 1849381:  MAGUTM CHECKSUM
 VSC .                       0:  VS TO CLOSURE
~Parameter Information Block
#MNEM.UNIT       Value        Description
#---------     -----------    ---------------------------
 AV  .mps                 4.87:  Ann Velocity 
 AVMX.mps                 7.08:  Max Ann Veloc 
 AZIF.deg               108.87:  Azm, Final 
 BHAT.                  Rotary:  BHA Type 
 BROT.°/30m               0.35:  Build Rotating 
 BS  .in                  8.50:  Bit Size 
 BSZ .in                  8.50:  Bit Size 
 BTPL.psig              360.00:  Bit Press Loss 
 CABU.                     Yes:  Customer Abuse 
 COMM.                     ¼m:  Run Comments 1 
 TCS .hr                106.24:  Time Ciculation Ended 
 CV  .mps                 1.77:  Crit Velocity 
 CVMX.mps                 2.03:  Max Crit Veloc 
 DD1 .         Aykhan Agagulov:  Direct Drillr 1 
 DD2 .            Nonso Okofor:  Direct Drillr 2 
 DDSV.               Geo-Pilot:  DD Service 
 DEFF.%                  98.00:  % Det Eff 
 DLRX.°/30m               0.50:  Dogleg Rot Max 
 DLSO.°/30m               0.40:  Dogleg Oriented 
 DLSX.°/30m               0.94:  Dogleg Str Max 
 DRET.      20.30.00 08-Sep-20:  Drill End Time 
 DRST.      22.15.00 06-Sep-20:  Drill Start Tim 
 DTIM.hr                 31.31:  Time Drilling 
 EDEP.m                5790.01:  End Depth 
 ENG1.           Amrah Tahirov:  Engineer 1 
 ENG2.         Dair Mahammadov:  Engineer 2 
 ENG3.           Emil Huseynov:  Engineer 3 
 ETIM.      04.01.04 12-Sep-20:  End Time 
 FLOI.gpm               450.00:  Flow In 
 FLON.gpm               450.00:  Flow In Min 
 FLOS.cptm                2.00:  Fluid Loss 
 FLOX.gpm               450.00:  Flow In Max 
 FTRO.       Formation Presure:  FTWD Run Obj 
 HFLO.                      No:  High Flow 
 HPRE.                      No:  High Pressure 
 HTEM.                      No:  High Temp 
 HYDO.m                   1.80:  Hydro Offset 
 IFIN.deg                72.03:  Inc, Final 
 IMAX.deg                73.72:  Inc Max 
 IMIN.deg                70.94:  Inc Min 
 IMND.m                5508.52:  Inc Min Depth 
 IMXD.m                5253.60:  Inc Max Depth 
 JARR.                      No:  Jarring 
 LETM.      20.30.00 08-Sep-20:  Log End Time 
 LOST.hr                     0:  Lost Rig Time 
 LSTM.      22.15.00 06-Sep-20:  Log Start Time 
 MDCL.ppm             36000.00:  Mud Chlorides 
 MDES.     Inversion Oil/Synthetic:  Mud Desc 
 DFD .sg                  1.44:  Mud Density 
 MDMN.sg                  1.44:  Dens Mud Min 
 MDMX.sg                  1.57:  Dens Mud Max 
 MOIL.                      70:  Run Mud Oil % 
 MOWR.                   70:30:  Run Mud OWR 
 MSND.                       0:  Run Mud Sand % 
 MSOL.                      21:  Run Mud Solids% 
 DFV .spqt               68.00:  Mud Viscosity 
 MWOD.in                  6.75:  MWD Tool OD 
 MWSI.                     Yes:  Serv Intrp, MWD 
 OTIM.hr                174.84:  Time Operating 
 PCON.           Look Like New:  Pad Condition 
 PMAX.psia            10616.93:  Press Op, Max 
 PV  .cP                 50.00:  Mud PV 
 RUN .                     700:  Run Number 
 ROPA.m/hr               14.24:  ROP Avg 
 ROPN.m/hr               10.00:  ROP Min 
 ROPX.m/hr               32.00:  ROP Max 
 RPMA.rpm               120.90:  RPM Surface Avg 
 RPMN.rpm               120.00:  RPM Surface Min 
 RPMX.rpm               140.00:  RPM Surface Max 
 RRUN.                    0700:  Rig Run Number 
 RTIM.hr                  3.20:  Time Reaming 
 SAZI.deg               109.99:  Azm, Start 
 SDEP.m                5231.01:  Start Depth 
 SIDD.                      No:  Serv Intrp, DD 
 SINC.deg                73.72:  Inc, Start 
 SPPA.psig             3051.00:  SPP Avg 
 SPPN.psig             2950.00:  SPP Min 
 SPPX.psig             3250.00:  SPP Max 
 STIM.      08.00.00 05-Sep-20:  Start Time 
 SVCS.                 DD, MWD:  Services 
 SVER.                    9.20:  Sperry Version 
 TDAT.m                 559.00:  Tot Depth Attmp 
 TDDF.                      No:  Trip for DD 
 TDLG.m                 559.00:  Tot Depth Loggd 
 TFF .                      No:  Trip for Fail 
 TQAA.f-kp               26.49:  Torque Abs Avg 
 TQAN.f-kp               25.00:  Torque Abs Min 
 TQAX.f-kp               27.00:  Torque Abs Max 
 TRRT.°/30m               1.50:  Turn Rotating 
 MRT .                    HCIM:  Maximum Recorded Temperature 
 TTMX.degC               90.20:  Max Tool Temp 
 VS01.                90542671:  Virtual Str1 SN 
 VS02.                90545185:  Virtual Str2 SN 
 VS03.                90602015:  Virtual Str3 SN 
 VS04.                90515230:  Virtual Str4 SN 
 WBMN.klb                 5.00:  WOB Min 
 WOBA.klb                14.79:  WOB Avg 
 WOBX.klb                20.00:  WOB Max 
 YP  .lhf2               29.00:  Yield Point 
~Curve Information Block
#MNEM.UNIT                 API CODE     Curve Description
#---------               -----------    ---------------------------
 TIME.HHMMSS            00 000 000 000:  GT Time & Date
 GTDEPTH.m              00 000 000 000:  GT Depth
 GTPQH.psia             00 000 000 000:  GT HR Quartz Pressure
 GTTQ.degC              00 000 000 000:  GT Quartz Temperature
 GTTN.NONE              00 000 000 000:  GT Test Number
 GTET.sec               00 000 000 000:  GT Elapsed Test Time
 GTTVD.m                00 000 000 000:  GT True Vertical Depth
#Other Information
#
#WARRANTY: Halliburton will use its best efforts to furnish customers with 
#accurate information and interpretations that are part of, and incident to, the services 
#provided.  However, Halliburton cannot and does not warrant the accuracy 
#or correctness of such information and interpretations.  Under no circumstances should any 
#such information or interpretation be relied upon as the sole basis for any drilling, 
#completion, production, or financial decision or any procedure involving any risk to the 
#safety of any drilling venture, drilling rig or its crew or any other third party.  The 
#Customer has full responsibility for all drilling, completion and production operation.  
#Halliburton makes no representations or warranties, either expressed or 
#implied, including, but not limited to, the implied warranties of merchantability or fitness 
#for a particular purpose, with respect to the services rendered.  In no event will 
#Halliburton be liable for failure to obtain any particular results or for 
#any damages, including, but not limited to, indirect, special or consequential damages, 
#resulting from the use of any information or interpretation provided by Halliburton.
#
~A           TIME           GTDEPTH  GTPQH  GTTQ  GTTN   GTET   GTTVD  
# ...
   15:41:51.000.09-Sep-2020 5351.51 6369.20 75.25 17.00 452.00 2571.85
   15:41:51.200.09-Sep-2020 5351.51 6365.69 75.25 17.00 452.20 2571.85
   15:41:51.400.09-Sep-2020 5351.51 6364.36 75.25 17.00 452.40 2571.85
   15:41:51.600.09-Sep-2020 5351.51 6366.02 75.25 17.00 452.60 2571.85
   15:41:51.800.09-Sep-2020 5351.51 6367.07 75.25 17.00 452.80 2571.85
   15:41:52.000.09-Sep-2020 5351.51 6367.47 75.25 17.00 453.00 2571.85
   15:41:52.200.09-Sep-2020 5351.51 6367.47 75.25 17.00 453.20 2571.85
   15:41:52.400.09-Sep-2020 5351.51 6374.68 75.25 17.00 453.40 2571.85
   15:41:52.600.09-Sep-2020 5351.51 6367.01 75.26 17.00 453.60 2571.85
   15:41:52.800.09-Sep-2020 5351.51 6370.51 75.26 17.00 453.80 2571.85
   15:41:53.000.09-Sep-2020 5351.51 6367.87 75.26 17.00 454.00 2571.85
   15:41:53.200.09-Sep-2020 5351.51 6367.87 75.26 17.00 454.20 2571.85
   15:41:53.400.09-Sep-2020 5351.51 6373.19 75.26 17.00 454.40 2571.85
   15:41:53.600.09-Sep-2020 5351.51 6371.85 75.27 17.00 454.60 2571.85
   15:41:53.800.09-Sep-2020 5351.51 6375.10 75.27 17.00 454.80 2571.85
   15:41:54.000.09-Sep-2020 5351.51 6372.37 75.27 17.00 455.00 2571.85
   15:41:54.200.09-Sep-2020 5351.51 6372.37 75.27 17.00 455.20 2571.85
   15:41:54.400.09-Sep-2020 5351.51 6371.78 75.27 17.00 455.40 2571.85
   15:41:54.600.09-Sep-2020 5351.51 6381.14 75.28 17.00 455.60 2571.85
   15:41:54.800.09-Sep-2020 5351.51 6372.47 75.28 17.00 455.80 2571.85
   15:41:55.000.09-Sep-2020 5351.51 6373.67 75.28 17.00 456.00 2571.85
   15:41:55.200.09-Sep-2020 5351.51 6373.67 75.28 17.00 456.20 2571.85
   15:41:55.400.09-Sep-2020 5351.51 6372.33 75.29 17.00 456.40 2571.85
   15:41:55.600.09-Sep-2020 5351.51 6377.23 75.29 17.00 456.60 2571.85
   15:41:55.800.09-Sep-2020 5351.51 6373.87 75.29 17.00 456.80 2571.85
   15:41:56.000.09-Sep-2020 5351.51 6373.62 75.29 17.00 457.00 2571.85
   15:41:56.200.09-Sep-2020 5351.51 6373.62 75.29 17.00 457.20 2571.85
   15:41:56.400.09-Sep-2020 5351.51 6373.96 75.29 17.00 457.40 2571.85
   15:41:56.600.09-Sep-2020 5351.51 6372.63 75.30 17.00 457.60 2571.85
   15:41:56.800.09-Sep-2020 5351.51 6373.07 75.30 17.00 457.80 2571.85
   15:41:57.000.09-Sep-2020 5351.51 6372.85 75.30 17.00 458.00 2571.85
   15:41:57.200.09-Sep-2020 5351.51 6372.85 75.30 17.00 458.20 2571.85
   15:41:57.400.09-Sep-2020 5351.51 6372.84 75.30 17.00 458.40 2571.85
   15:41:57.600.09-Sep-2020 5351.51 6372.89 75.30 17.00 458.60 2571.85
   15:41:57.800.09-Sep-2020 5351.51 6372.96 75.31 17.00 458.80 2571.85
   15:41:58.000.09-Sep-2020 5351.51 6372.98 75.31 17.00 459.00 2571.85
   15:41:58.200.09-Sep-2020 5351.51 6372.98 75.31 17.00 459.20 2571.85
   15:41:58.400.09-Sep-2020 5351.51 6371.65 75.31 17.00 459.40 2571.85
   15:41:58.600.09-Sep-2020 5351.51 6374.73 75.31 17.00 459.60 2571.85
   15:41:58.800.09-Sep-2020 5351.51 6372.56 75.31 17.00 459.80 2571.85
   15:41:59.000.09-Sep-2020 5351.51 6372.85 75.31 17.00 460.00 2571.85
   15:41:59.200.09-Sep-2020 5351.51 6376.68 75.31 17.00 460.20 2571.85
   15:41:59.400.09-Sep-2020 5351.51 6373.42 75.31 17.00 460.40 2571.85
   15:41:59.600.09-Sep-2020 5351.51 6374.45 75.31 17.00 460.60 2571.85
   15:41:59.800.09-Sep-2020 5351.51 6372.76 75.32 17.00 460.80 2571.85
   15:42:00.000.09-Sep-2020 5351.51 6372.72 75.32 17.00 461.00 2571.85
   15:42:00.200.09-Sep-2020 5351.51 6372.72 75.32 17.00 461.20 2571.85
   15:42:00.400.09-Sep-2020 5351.51 6373.01 75.32 17.00 461.40 2571.85
   15:42:00.600.09-Sep-2020 5351.51 6373.07 75.32 17.00 461.60 2571.85
   15:42:00.800.09-Sep-2020 5351.51 6372.85 75.32 17.00 461.80 2571.85
   15:42:01.000.09-Sep-2020 5351.51 6372.01 75.32 17.00 462.00 2571.85
   15:42:01.200.09-Sep-2020 5351.51 6372.01 75.32 17.00 462.20 2571.85
   15:42:01.400.09-Sep-2020 5351.51 6371.80 75.32 17.00 462.40 2571.85
   15:42:01.600.09-Sep-2020 5351.51 6378.59 75.32 17.00 462.60 2571.85
   15:42:01.800.09-Sep-2020 5351.51 6370.29 75.32 17.00 462.80 2571.85
   15:42:02.000.09-Sep-2020 5351.51 6373.46 75.32 17.00 463.00 2571.85
   15:42:02.200.09-Sep-2020 5351.51 6373.46 75.32 17.00 463.20 2571.85
   15:42:02.400.09-Sep-2020 5351.51 6371.51 75.32 17.00 463.40 2571.85
   15:42:02.600.09-Sep-2020 5351.51 6374.85 75.32 17.00 463.60 2571.85
   15:42:02.800.09-Sep-2020 5351.51 6381.58 75.32 17.00 463.80 2571.85
   15:42:03.000.09-Sep-2020 5351.51 6368.22 75.32 17.00 464.00 2571.85
   15:42:03.200.09-Sep-2020 5351.51 6368.22 75.32 17.00 464.20 2571.85
   15:42:03.400.09-Sep-2020 5351.51 6372.06 75.32 17.00 464.40 2571.85
   15:42:03.600.09-Sep-2020 5351.51 6371.92 75.32 17.00 464.60 2571.85
   15:42:03.800.09-Sep-2020 5351.51 6374.83 75.32 17.00 464.80 2571.85
   15:42:04.000.09-Sep-2020 5351.51 6371.53 75.32 17.00 465.00 2571.85
   15:42:04.200.09-Sep-2020 5351.51 6371.53 75.32 17.00 465.20 2571.85
   15:42:04.400.09-Sep-2020 5351.51 6370.74 75.32 17.00 465.40 2571.85
   15:42:04.600.09-Sep-2020 5351.51 6371.60 75.32 17.00 465.60 2571.85
   15:42:04.800.09-Sep-2020 5351.51 6371.37 75.32 17.00 465.80 2571.85
   15:42:05.000.09-Sep-2020 5351.51 6371.27 75.32 17.00 466.00 2571.85
   15:42:05.200.09-Sep-2020 5351.51 6371.27 75.32 17.00 466.20 2571.85
   15:42:05.400.09-Sep-2020 5351.51 6372.75 75.32 17.00 466.40 2571.85
   15:42:05.600.09-Sep-2020 5351.51 6378.41 75.32 17.00 466.60 2571.85
   15:42:05.800.09-Sep-2020 5351.51 6370.48 75.32 17.00 466.80 2571.85
   15:42:06.000.09-Sep-2020 5351.51 6374.06 75.32 17.00 467.00 2571.85
   15:42:06.200.09-Sep-2020 5351.51 6374.06 75.32 17.00 467.20 2571.85
   15:42:06.400.09-Sep-2020 5351.51 6371.73 75.32 17.00 467.40 2571.85
   15:42:06.600.09-Sep-2020 5351.51 6375.44 75.32 17.00 467.60 2571.85
   15:42:06.800.09-Sep-2020 5351.51 6371.80 75.32 17.00 467.80 2571.85
   15:42:07.000.09-Sep-2020 5351.51 6380.88 75.32 17.00 468.00 2571.85
   15:42:07.200.09-Sep-2020 5351.51 6380.88 75.32 17.00 468.20 2571.85
   15:42:07.400.09-Sep-2020 5351.51 6372.56 75.32 17.00 468.40 2571.85
   15:42:07.600.09-Sep-2020 5351.51 6372.94 75.32 17.00 468.60 2571.85
   15:42:07.800.09-Sep-2020 5351.51 6372.66 75.32 17.00 468.80 2571.85
   15:42:08.000.09-Sep-2020 5351.51 6376.04 75.32 17.00 469.00 2571.85
   15:42:08.200.09-Sep-2020 5351.51 6376.04 75.32 17.00 469.20 2571.85
   15:42:08.400.09-Sep-2020 5351.51 6372.07 75.32 17.00 469.40 2571.85
   15:42:08.600.09-Sep-2020 5351.51 6372.40 75.32 17.00 469.60 2571.85
   15:42:08.800.09-Sep-2020 5351.51 6373.57 75.32 17.00 469.80 2571.85
   15:42:09.000.09-Sep-2020 5351.51 6372.75 75.32 17.00 470.00 2571.85
   15:42:09.200.09-Sep-2020 5351.51 6372.75 75.32 17.00 470.20 2571.85
   15:42:09.400.09-Sep-2020 5351.51 6372.68 75.32 17.00 470.40 2571.85
   15:42:09.600.09-Sep-2020 5351.51 6373.09 75.32 17.00 470.60 2571.85
   15:42:09.800.09-Sep-2020 5351.51 6372.89 75.32 17.00 470.80 2571.85
   15:42:10.000.09-Sep-2020 5351.51 6372.74 75.32 17.00 471.00 2571.85
   15:42:10.200.09-Sep-2020 5351.51 6372.74 75.32 17.00 471.20 2571.85
   15:42:10.400.09-Sep-2020 5351.51 6372.54 75.32 17.00 471.40 2571.85
   15:42:10.600.09-Sep-2020 5351.51 6379.29 75.32 17.00 471.60 2571.85
   15:42:10.800.09-Sep-2020 5351.51 6371.45 75.32 17.00 471.80 2571.85
   15:42:11.000.09-Sep-2020 5351.51 6374.06 75.32 17.00 472.00 2571.85
   15:42:11.200.09-Sep-2020 5351.51 6374.06 75.32 17.00 472.20 2571.85
   15:42:11.400.09-Sep-2020 5351.51 6372.14 75.32 17.00 472.40 2571.85
   15:42:11.600.09-Sep-2020 5351.51 6375.60 75.31 17.00 472.60 2571.85
   15:42:11.800.09-Sep-2020 5351.51 6371.68 75.31 17.00 472.80 2571.85
   15:42:12.000.09-Sep-2020 5351.51 6372.54 75.31 17.00 473.00 2571.85
   15:42:12.200.09-Sep-2020 5351.51 6372.54 75.31 17.00 473.20 2571.85
   15:42:12.400.09-Sep-2020 5351.51 6372.08 75.31 17.00 473.40 2571.85
   15:42:12.600.09-Sep-2020 5351.51 6372.38 75.31 17.00 473.60 2571.85
   15:42:12.800.09-Sep-2020 5351.51 6371.43 75.31 17.00 473.80 2571.85
   15:42:13.000.09-Sep-2020 5351.51 6370.85 75.31 17.00 474.00 2571.85
   15:42:13.200.09-Sep-2020 5351.51 6370.85 75.31 17.00 474.20 2571.85
   15:42:13.400.09-Sep-2020 5351.51 6370.69 75.31 17.00 474.40 2571.85
