~Version Information
 VERS.                  2.0:   CWLS log ASCII Standard -VERSION 2.0
 WRAP.                   NO:   One line per depth step
~Well Information Block
#MNEM.UNIT     VALUE/NAME     DESCRIPTION
#---------     -----------    ---------------------------
 STRT.S             16:52:14 09-Sep-20: START TIME 16:52:14 09-Sep-20
 STOP.S             17:00:39 09-Sep-20: STOP TIME  17:00:39 09-Sep-20
 STEP.S                   0.00: STEP TIME
 NULL.                 -999.25: NULL VALUE
 MDS .        Operator Entered:  MAG DATA SOURCE
 PDAT.          Mean Sea Level:  PERMANENT DATUM
 DCON.         Sperry Drilling:  DIRECTNL CONTR
 RIG .              West Azeri:  RIG NAME
 WELL.           C40 (Slot 20):  WELL NAME
 SRVC.     Turan Drilling Engineering:  CONTRACTOR
 FLD .                     ACG:  FIELD NAME
 CTRY.              Azerbaijan:  COUNTRY NAME
 PROV.                    Baku:  PROVINCE
 STAT.                    Baku:  STATE NAME
 REGN.                   EESSA:  REGION
 BASE.              Azerbaijan:  LOGGING EQUIPMENT BASE LOCATION
 COMP.     BP Exploration (Caspian Sea) Ltd:  COMPANY
 WTYP.                Deviated:  WELL TYPE
 SON .        AZ-XX-0906344804:  JOB NUMBER
 FTOP.          Formation Tops:  FORM TOPS DESC
 ILTD.               Lithology:  INTERP LTH DESC
 SVYD.                  Survey:  SURVEY DESC
 DMOD.             Drill Model:  DRILL MOD DESC
 HPTY.       Minimum Curvature:  HOLE POS TYPE
 NREF.                    Grid:  NORTH REFERENCE
 SPUD.               01-Jan-20:  SPUD DATE
 DATE.      00.59.44 15-Sep-20:  END TIME
 STIM.      12.00.00 12-Jun-20:  START TIME
 DMF .             Drill Floor:  DRILL MEAS FROM
 DFST.                        :  DIST FSL TEXT
 DFWT.                        :  DIST FWL TEXT
 API .                        :  API NUMBER
 CNTY.                        :  COUNTY
 UWI .                        :  UNIQUE WELL IDENTIFIER
 LOC .                        :  LOCATION
 LMF .             Drill Floor:  LOG MEASURED FROM
 VSNS.m                   2.88:  VERT SEC N/S
 VSEW.m                  -3.84:  VERT SEC E/W
 AGAP.m                  43.42:  AIR GAP
 APD .m                  43.42:  DEPTH ABOVE PD
 WDMS.m                 118.27:  WD ELEV
 EGL .m                   0.00:  GROUND ELEVATION
 EPD .m                   0.00:  ELEVATION
 AZTC.deg                 6.23:  AZM TOTAL CORR
 GRDC.deg                 0.20:  GRID CORRECTION
 MDEC.deg                 6.43:  MAGNETIC DECL
 MDIP.deg                59.49:  MAGNETIC DIP
 MFLD.nT              50277.00:  MAGNETIC FIELD
 GVFD.g                   1.00:  GRAVITY FIELD
 VSDR.deg               173.20:  VERT SEC DIRECT
 TDD .m                5790.01:  TOTAL DEPTH (DRILLER)
 SDEP.m                5231.01:  START DEPTH
 DFSL.m                   0.00:  DISTANCE FSL
 DFWL.m                   0.00:  DISTANCE FWL
 UTMY.m             4435808.83:  UTM Y
 UTMX.m              526266.40:  UTM X
 WHEW.m                  -3.84:  WELL HEAD E/W
 WHNS.m                   2.88:  WELL HEAD N/S
 LONG.deg                51.31:  LONGITUDE
 LATI.deg                40.06:  LATITUDE
 TVDS.m                  43.42:  TVDSS CORRECTN
 DEP .m                 430.08:  DEPTH
 EKB .m                  43.42:  KB ELEVATION
 EDF .m                  43.42:  DF ELEVATION
 TDL .m                 559.00:  TOTAL DEPTH (LOGGER)
 MAGU.                 1849381:  MAGUTM CHECKSUM
 VSC .                       0:  VS TO CLOSURE
~Parameter Information Block
#MNEM.UNIT       Value        Description
#---------     -----------    ---------------------------
 AV  .mps                 4.87:  Ann Velocity 
 AVMX.mps                 7.08:  Max Ann Veloc 
 AZIF.deg               108.87:  Azm, Final 
 BHAT.                  Rotary:  BHA Type 
 BROT.°/30m               0.35:  Build Rotating 
 BS  .in                  8.50:  Bit Size 
 BSZ .in                  8.50:  Bit Size 
 BTPL.psig              360.00:  Bit Press Loss 
 CABU.                     Yes:  Customer Abuse 
 TCS .hr                106.24:  Time Ciculation Ended 
 CV  .mps                 1.77:  Crit Velocity 
 CVMX.mps                 2.03:  Max Crit Veloc 
 DD1 .         Aykhan Agagulov:  Direct Drillr 1 
 DD2 .            Nonso Okofor:  Direct Drillr 2 
 DDSV.               Geo-Pilot:  DD Service 
 DEFF.%                  98.00:  % Det Eff 
 DLRX.°/30m               0.50:  Dogleg Rot Max 
 DLSO.°/30m               0.40:  Dogleg Oriented 
 DLSX.°/30m               0.94:  Dogleg Str Max 
 DRET.      20.30.00 08-Sep-20:  Drill End Time 
 DRST.      22.15.00 06-Sep-20:  Drill Start Tim 
 DTIM.hr                 31.31:  Time Drilling 
 EDEP.m                5790.01:  End Depth 
 ENG1.           Amrah Tahirov:  Engineer 1 
 ENG2.         Dair Mahammadov:  Engineer 2 
 ENG3.           Emil Huseynov:  Engineer 3 
 ETIM.      04.01.04 12-Sep-20:  End Time 
 FLOI.gpm               450.00:  Flow In 
 FLON.gpm               450.00:  Flow In Min 
 FLOS.cptm                2.00:  Fluid Loss 
 FLOX.gpm               450.00:  Flow In Max 
 FTRO.       Formation Presure:  FTWD Run Obj 
 HFLO.                      No:  High Flow 
 HPRE.                      No:  High Pressure 
 HTEM.                      No:  High Temp 
 HYDO.m                   1.80:  Hydro Offset 
 IFIN.deg                72.03:  Inc, Final 
 IMAX.deg                73.72:  Inc Max 
 IMIN.deg                70.94:  Inc Min 
 IMND.m                5508.52:  Inc Min Depth 
 IMXD.m                5253.60:  Inc Max Depth 
 JARR.                      No:  Jarring 
 LETM.      20.30.00 08-Sep-20:  Log End Time 
 LOST.hr                     0:  Lost Rig Time 
 LSTM.      22.15.00 06-Sep-20:  Log Start Time 
 MDCL.ppm             36000.00:  Mud Chlorides 
 MDES.     Inversion Oil/Synthetic:  Mud Desc 
 DFD .sg                  1.44:  Mud Density 
 MDMN.sg                  1.44:  Dens Mud Min 
 MDMX.sg                  1.57:  Dens Mud Max 
 MOIL.                      70:  Run Mud Oil % 
 MOWR.                   70:30:  Run Mud OWR 
 MSND.                       0:  Run Mud Sand % 
 MSOL.                      21:  Run Mud Solids% 
 DFV .spqt               68.00:  Mud Viscosity 
 MWOD.in                  6.75:  MWD Tool OD 
 MWSI.                     Yes:  Serv Intrp, MWD 
 OTIM.hr                174.84:  Time Operating 
 PCON.           Look Like New:  Pad Condition 
 PMAX.psia            10616.93:  Press Op, Max 
 PV  .cP                 50.00:  Mud PV 
 RUN .                     700:  Run Number 
 ROPA.m/hr               14.24:  ROP Avg 
 ROPN.m/hr               10.00:  ROP Min 
 ROPX.m/hr               32.00:  ROP Max 
 RPMA.rpm               120.90:  RPM Surface Avg 
 RPMN.rpm               120.00:  RPM Surface Min 
 RPMX.rpm               140.00:  RPM Surface Max 
 RRUN.                    0700:  Rig Run Number 
 RTIM.hr                  3.20:  Time Reaming 
 SAZI.deg               109.99:  Azm, Start 
 SDEP.m                5231.01:  Start Depth 
 SIDD.                      No:  Serv Intrp, DD 
 SINC.deg                73.72:  Inc, Start 
 SPPA.psig             3051.00:  SPP Avg 
 SPPN.psig             2950.00:  SPP Min 
 SPPX.psig             3250.00:  SPP Max 
 STIM.      08.00.00 05-Sep-20:  Start Time 
 SVCS.                 DD, MWD:  Services 
 SVER.                    9.20:  Sperry Version 
 TDAT.m                 559.00:  Tot Depth Attmp 
 TDDF.                      No:  Trip for DD 
 TDLG.m                 559.00:  Tot Depth Loggd 
 TFF .                      No:  Trip for Fail 
 TQAA.f-kp               26.49:  Torque Abs Avg 
 TQAN.f-kp               25.00:  Torque Abs Min 
 TQAX.f-kp               27.00:  Torque Abs Max 
 TRRT.°/30m               1.50:  Turn Rotating 
 MRT .                    HCIM:  Maximum Recorded Temperature 
 TTMX.degC               90.20:  Max Tool Temp 
 VS01.                90542671:  Virtual Str1 SN 
 VS02.                90545185:  Virtual Str2 SN 
 VS03.                90602015:  Virtual Str3 SN 
 VS04.                90515230:  Virtual Str4 SN 
 WBMN.klb                 5.00:  WOB Min 
 WOBA.klb                14.79:  WOB Avg 
 WOBX.klb                20.00:  WOB Max 
 YP  .lhf2               29.00:  Yield Point 
~Curve Information Block
#MNEM.UNIT                 API CODE     Curve Description
#---------               -----------    ---------------------------
 TIME.HHMMSS            00 000 000 000:  GT Time & Date
 GTDEPTH.m              00 000 000 000:  GT Depth
 GTPQH.psia             00 000 000 000:  GT HR Quartz Pressure
 GTTQ.degC              00 000 000 000:  GT Quartz Temperature
 GTTN.NONE              00 000 000 000:  GT Test Number
 GTET.sec               00 000 000 000:  GT Elapsed Test Time
 GTTVD.m                00 000 000 000:  GT True Vertical Depth
#Other Information
#
#WARRANTY: Halliburton will use its best efforts to furnish customers with 
#accurate information and interpretations that are part of, and incident to, the services 
#provided.  However, Halliburton cannot and does not warrant the accuracy 
#or correctness of such information and interpretations.  Under no circumstances should any 
#such information or interpretation be relied upon as the sole basis for any drilling, 
#completion, production, or financial decision or any procedure involving any risk to the 
#safety of any drilling venture, drilling rig or its crew or any other third party.  The 
#Customer has full responsibility for all drilling, completion and production operation.  
#Halliburton makes no representations or warranties, either expressed or 
#implied, including, but not limited to, the implied warranties of merchantability or fitness 
#for a particular purpose, with respect to the services rendered.  In no event will 
#Halliburton be liable for failure to obtain any particular results or for 
#any damages, including, but not limited to, indirect, special or consequential damages, 
#resulting from the use of any information or interpretation provided by Halliburton.
#
~A           TIME           GTDEPTH  GTPQH  GTTQ  GTTN   GTET   GTTVD  
# ...
   16:54:29.806.09-Sep-2020 5303.01 6312.13 74.70 19.00 135.67 2557.08
   16:54:30.006.09-Sep-2020 5303.01 6312.37 74.70 19.00 135.87 2557.08
   16:54:30.206.09-Sep-2020 5303.01 6312.04 74.70 19.00 136.07 2557.08
   16:54:30.406.09-Sep-2020 5303.01 6312.04 74.70 19.00 136.27 2557.08
   16:54:30.607.09-Sep-2020 5303.01 6311.74 74.70 19.00 136.47 2557.08
   16:54:30.807.09-Sep-2020 5303.01 6318.56 74.70 19.00 136.67 2557.08
   16:54:31.007.09-Sep-2020 5303.01 6312.68 74.70 19.00 136.87 2557.08
   16:54:31.207.09-Sep-2020 5303.01 6313.23 74.70 19.00 137.07 2557.08
   16:54:31.407.09-Sep-2020 5303.01 6313.23 74.70 19.00 137.27 2557.08
   16:54:31.607.09-Sep-2020 5303.01 6312.88 74.70 19.00 137.47 2557.08
   16:54:31.807.09-Sep-2020 5303.01 6317.06 74.70 19.00 137.67 2557.08
   16:54:32.007.09-Sep-2020 5303.01 6315.68 74.70 19.00 137.87 2557.08
   16:54:32.207.09-Sep-2020 5303.01 6312.29 74.70 19.00 138.07 2557.08
   16:54:32.407.09-Sep-2020 5303.01 6312.29 74.70 19.00 138.27 2557.08
   16:54:32.607.09-Sep-2020 5303.01 6313.35 74.70 19.00 138.47 2557.08
   16:54:32.808.09-Sep-2020 5303.01 6313.89 74.70 19.00 138.67 2557.08
   16:54:33.008.09-Sep-2020 5303.01 6313.03 74.70 19.00 138.87 2557.08
   16:54:33.208.09-Sep-2020 5303.01 6317.78 74.70 19.00 139.07 2557.08
   16:54:33.408.09-Sep-2020 5303.01 6317.78 74.70 19.00 139.27 2557.08
   16:54:33.608.09-Sep-2020 5303.01 6312.91 74.70 19.00 139.47 2557.08
   16:54:33.808.09-Sep-2020 5303.01 6314.21 74.70 19.00 139.67 2557.08
   16:54:34.008.09-Sep-2020 5303.01 6313.48 74.70 19.00 139.87 2557.08
   16:54:34.208.09-Sep-2020 5303.01 6324.57 74.70 19.00 140.07 2557.08
   16:54:34.408.09-Sep-2020 5303.01 6324.57 74.70 19.00 140.27 2557.08
   16:54:34.608.09-Sep-2020 5303.01 6313.02 74.70 19.00 140.47 2557.08
   16:54:34.809.09-Sep-2020 5303.01 6314.46 74.70 19.00 140.67 2557.08
   16:54:35.009.09-Sep-2020 5303.01 6314.33 74.70 19.00 140.87 2557.08
   16:54:35.209.09-Sep-2020 5303.01 6315.48 74.70 19.00 141.07 2557.08
   16:54:35.409.09-Sep-2020 5303.01 6315.48 74.70 19.00 141.27 2557.08
   16:54:35.609.09-Sep-2020 5303.01 6324.54 74.70 19.00 141.47 2557.08
   16:54:35.809.09-Sep-2020 5303.01 6312.22 74.70 19.00 141.67 2557.08
   16:54:36.009.09-Sep-2020 5303.01 6313.64 74.70 19.00 141.87 2557.08
   16:54:36.209.09-Sep-2020 5303.01 6316.05 74.70 19.00 142.07 2557.08
   16:54:36.409.09-Sep-2020 5303.01 6316.05 74.70 19.00 142.27 2557.08
   16:54:36.609.09-Sep-2020 5303.01 6316.01 74.70 19.00 142.47 2557.08
   16:54:36.809.09-Sep-2020 5303.01 6315.88 74.70 19.00 142.67 2557.08
   16:54:37.010.09-Sep-2020 5303.01 6315.70 74.70 19.00 142.87 2557.08
   16:54:37.210.09-Sep-2020 5303.01 6315.32 74.70 19.00 143.07 2557.08
   16:54:37.410.09-Sep-2020 5303.01 6315.32 74.70 19.00 143.27 2557.08
   16:54:37.610.09-Sep-2020 5303.01 6315.27 74.70 19.00 143.47 2557.08
   16:54:37.810.09-Sep-2020 5303.01 6315.05 74.70 19.00 143.67 2557.08
   16:54:38.010.09-Sep-2020 5303.01 6315.18 74.70 19.00 143.87 2557.08
   16:54:38.210.09-Sep-2020 5303.01 6315.40 74.70 19.00 144.07 2557.08
   16:54:38.410.09-Sep-2020 5303.01 6315.40 74.70 19.00 144.27 2557.08
   16:54:38.610.09-Sep-2020 5303.01 6315.70 74.70 19.00 144.47 2557.08
   16:54:38.810.09-Sep-2020 5303.01 6315.50 74.70 19.00 144.67 2557.08
   16:54:39.011.09-Sep-2020 5303.01 6315.55 74.70 19.00 144.87 2557.08
   16:54:39.211.09-Sep-2020 5303.01 6315.64 74.70 19.00 145.07 2557.08
   16:54:39.411.09-Sep-2020 5303.01 6315.64 74.70 19.00 145.27 2557.08
   16:54:39.611.09-Sep-2020 5303.01 6316.47 74.70 19.00 145.47 2557.08
   16:54:39.811.09-Sep-2020 5303.01 6316.40 74.70 19.00 145.67 2557.08
   16:54:40.011.09-Sep-2020 5303.01 6316.48 74.70 19.00 145.87 2557.08
   16:54:40.211.09-Sep-2020 5303.01 6316.70 74.70 19.00 146.07 2557.08
   16:54:40.411.09-Sep-2020 5303.01 6316.70 74.70 19.00 146.27 2557.08
   16:54:40.611.09-Sep-2020 5303.01 6316.62 74.70 19.00 146.47 2557.08
   16:54:40.811.09-Sep-2020 5303.01 6315.41 74.70 19.00 146.67 2557.08
   16:54:41.011.09-Sep-2020 5303.01 6315.50 74.70 19.00 146.87 2557.08
   16:54:41.212.09-Sep-2020 5303.01 6315.80 74.70 19.00 147.07 2557.08
   16:54:41.412.09-Sep-2020 5303.01 6315.80 74.70 19.00 147.27 2557.08
   16:54:41.612.09-Sep-2020 5303.01 6316.03 74.70 19.00 147.47 2557.08
   16:54:41.812.09-Sep-2020 5303.01 6315.99 74.70 19.00 147.67 2557.08
   16:54:42.012.09-Sep-2020 5303.01 6315.59 74.70 19.00 147.87 2557.08
   16:54:42.212.09-Sep-2020 5303.01 6315.40 74.70 19.00 148.07 2557.08
   16:54:42.412.09-Sep-2020 5303.01 6315.40 74.70 19.00 148.27 2557.08
   16:54:42.612.09-Sep-2020 5303.01 6315.06 74.70 19.00 148.47 2557.08
   16:54:42.812.09-Sep-2020 5303.01 6322.21 74.70 19.00 148.67 2557.08
   16:54:43.012.09-Sep-2020 5303.01 6316.51 74.70 19.00 148.87 2557.08
   16:54:43.213.09-Sep-2020 5303.01 6316.16 74.70 19.00 149.07 2557.08
   16:54:43.413.09-Sep-2020 5303.01 6316.16 74.70 19.00 149.27 2557.08
   16:54:43.613.09-Sep-2020 5303.01 6315.93 74.70 19.00 149.47 2557.08
   16:54:43.813.09-Sep-2020 5303.01 6320.37 74.70 19.00 149.67 2557.08
   16:54:44.013.09-Sep-2020 5303.01 6319.08 74.70 19.00 149.87 2557.08
   16:54:44.213.09-Sep-2020 5303.01 6314.99 74.70 19.00 150.07 2557.08
   16:54:44.413.09-Sep-2020 5303.01 6314.99 74.70 19.00 150.27 2557.08
   16:54:44.613.09-Sep-2020 5303.01 6316.16 74.70 19.00 150.47 2557.08
   16:54:44.813.09-Sep-2020 5303.01 6316.71 74.70 19.00 150.67 2557.08
   16:54:45.013.09-Sep-2020 5303.01 6316.03 74.70 19.00 150.87 2557.08
   16:54:45.214.09-Sep-2020 5303.01 6316.27 74.70 19.00 151.07 2557.08
   16:54:45.414.09-Sep-2020 5303.01 6316.27 74.70 19.00 151.27 2557.08
   16:54:45.614.09-Sep-2020 5303.01 6314.30 74.70 19.00 151.47 2557.08
   16:54:45.814.09-Sep-2020 5303.01 6314.96 74.70 19.00 151.67 2557.08
   16:54:46.014.09-Sep-2020 5303.01 6316.31 74.70 19.00 151.87 2557.08
   16:54:46.214.09-Sep-2020 5303.01 6315.94 74.70 19.00 152.07 2557.08
   16:54:46.414.09-Sep-2020 5303.01 6315.94 74.70 19.00 152.27 2557.08
   16:54:46.614.09-Sep-2020 5303.01 6317.69 74.70 19.00 152.47 2557.08
   16:54:46.814.09-Sep-2020 5303.01 6316.59 74.70 19.00 152.67 2557.08
   16:54:47.014.09-Sep-2020 5303.01 6316.54 74.70 19.00 152.87 2557.08
   16:54:47.214.09-Sep-2020 5303.01 6317.35 74.70 19.00 153.07 2557.08
   16:54:47.415.09-Sep-2020 5303.01 6317.35 74.70 19.00 153.27 2557.08
   16:54:47.615.09-Sep-2020 5303.01 6318.28 74.70 19.00 153.47 2557.08
   16:54:47.815.09-Sep-2020 5303.01 6317.06 74.70 19.00 153.67 2557.08
   16:54:48.015.09-Sep-2020 5303.01 6317.42 74.70 19.00 153.87 2557.08
   16:54:48.215.09-Sep-2020 5303.01 6317.61 74.70 19.00 154.07 2557.08
   16:54:48.415.09-Sep-2020 5303.01 6317.61 74.70 19.00 154.27 2557.08
   16:54:48.615.09-Sep-2020 5303.01 6317.78 74.70 19.00 154.47 2557.08
   16:54:48.815.09-Sep-2020 5303.01 6317.08 74.70 19.00 154.67 2557.08
   16:54:49.015.09-Sep-2020 5303.01 6317.59 74.70 19.00 154.87 2557.08
   16:54:49.215.09-Sep-2020 5303.01 6317.59 74.70 19.00 155.07 2557.08
   16:54:49.416.09-Sep-2020 5303.01 6317.59 74.70 19.00 155.27 2557.08
   16:54:49.616.09-Sep-2020 5303.01 6316.93 74.70 19.00 155.47 2557.08
   16:54:49.816.09-Sep-2020 5303.01 6317.13 74.70 19.00 155.67 2557.08
   16:54:50.016.09-Sep-2020 5303.01 6317.15 74.70 19.00 155.87 2557.08
   16:54:50.216.09-Sep-2020 5303.01 6317.29 74.70 19.00 156.07 2557.08
   16:54:50.416.09-Sep-2020 5303.01 6317.29 74.70 19.00 156.27 2557.08
   16:54:50.616.09-Sep-2020 5303.01 6317.48 74.70 19.00 156.47 2557.08
   16:54:50.816.09-Sep-2020 5303.01 6317.63 74.70 19.00 156.68 2557.08
   16:54:51.016.09-Sep-2020 5303.01 6327.50 74.70 19.00 156.88 2557.08
   16:54:51.216.09-Sep-2020 5303.01 6315.83 74.70 19.00 157.08 2557.08
   16:54:51.416.09-Sep-2020 5303.01 6315.83 74.70 19.00 157.28 2557.08
   16:54:51.617.09-Sep-2020 5303.01 6318.78 74.70 19.00 157.48 2557.08
   16:54:51.817.09-Sep-2020 5303.01 6318.13 74.70 19.00 157.68 2557.08
   16:54:52.017.09-Sep-2020 5303.01 6318.87 74.70 19.00 157.88 2557.08
   16:54:52.217.09-Sep-2020 5303.01 6318.35 74.70 19.00 158.08 2557.08
