~Version Information
 VERS.                  2.0:   CWLS log ASCII Standard -VERSION 2.0
 WRAP.                   NO:   One line per depth step
~Well Information Block
#MNEM.UNIT     VALUE/NAME     DESCRIPTION
#---------     -----------    ---------------------------
 STRT.S             19:35:07 09-Sep-20: START TIME 19:35:07 09-Sep-20
 STOP.S             19:43:27 09-Sep-20: STOP TIME  19:43:27 09-Sep-20
 STEP.S                   0.00: STEP TIME
 NULL.                 -999.25: NULL VALUE
 MDS .        Operator Entered:  MAG DATA SOURCE
 PDAT.          Mean Sea Level:  PERMANENT DATUM
 DCON.         Sperry Drilling:  DIRECTNL CONTR
 RIG .              West Azeri:  RIG NAME
 WELL.           C40 (Slot 20):  WELL NAME
 SRVC.     Turan Drilling Engineering:  CONTRACTOR
 FLD .                     ACG:  FIELD NAME
 CTRY.              Azerbaijan:  COUNTRY NAME
 PROV.                    Baku:  PROVINCE
 STAT.                    Baku:  STATE NAME
 REGN.                   EESSA:  REGION
 BASE.              Azerbaijan:  LOGGING EQUIPMENT BASE LOCATION
 COMP.     BP Exploration (Caspian Sea) Ltd:  COMPANY
 WTYP.                Deviated:  WELL TYPE
 SON .        AZ-XX-0906344804:  JOB NUMBER
 FTOP.          Formation Tops:  FORM TOPS DESC
 ILTD.               Lithology:  INTERP LTH DESC
 SVYD.                  Survey:  SURVEY DESC
 DMOD.             Drill Model:  DRILL MOD DESC
 HPTY.       Minimum Curvature:  HOLE POS TYPE
 NREF.                    Grid:  NORTH REFERENCE
 SPUD.               01-Jan-20:  SPUD DATE
 DATE.      00.59.44 15-Sep-20:  END TIME
 STIM.      12.00.00 12-Jun-20:  START TIME
 DMF .             Drill Floor:  DRILL MEAS FROM
 DFST.                        :  DIST FSL TEXT
 DFWT.                        :  DIST FWL TEXT
 API .                        :  API NUMBER
 CNTY.                        :  COUNTY
 UWI .                        :  UNIQUE WELL IDENTIFIER
 LOC .                        :  LOCATION
 LMF .             Drill Floor:  LOG MEASURED FROM
 VSNS.m                   2.88:  VERT SEC N/S
 VSEW.m                  -3.84:  VERT SEC E/W
 AGAP.m                  43.42:  AIR GAP
 APD .m                  43.42:  DEPTH ABOVE PD
 WDMS.m                 118.27:  WD ELEV
 EGL .m                   0.00:  GROUND ELEVATION
 EPD .m                   0.00:  ELEVATION
 AZTC.deg                 6.23:  AZM TOTAL CORR
 GRDC.deg                 0.20:  GRID CORRECTION
 MDEC.deg                 6.43:  MAGNETIC DECL
 MDIP.deg                59.49:  MAGNETIC DIP
 MFLD.nT              50277.00:  MAGNETIC FIELD
 GVFD.g                   1.00:  GRAVITY FIELD
 VSDR.deg               173.20:  VERT SEC DIRECT
 TDD .m                5790.01:  TOTAL DEPTH (DRILLER)
 SDEP.m                5231.01:  START DEPTH
 DFSL.m                   0.00:  DISTANCE FSL
 DFWL.m                   0.00:  DISTANCE FWL
 UTMY.m             4435808.83:  UTM Y
 UTMX.m              526266.40:  UTM X
 WHEW.m                  -3.84:  WELL HEAD E/W
 WHNS.m                   2.88:  WELL HEAD N/S
 LONG.deg                51.31:  LONGITUDE
 LATI.deg                40.06:  LATITUDE
 TVDS.m                  43.42:  TVDSS CORRECTN
 DEP .m                 430.08:  DEPTH
 EKB .m                  43.42:  KB ELEVATION
 EDF .m                  43.42:  DF ELEVATION
 TDL .m                 559.00:  TOTAL DEPTH (LOGGER)
 MAGU.                 1849381:  MAGUTM CHECKSUM
 VSC .                       0:  VS TO CLOSURE
~Parameter Information Block
#MNEM.UNIT       Value        Description
#---------     -----------    ---------------------------
 AV  .mps                 4.87:  Ann Velocity 
 AVMX.mps                 7.08:  Max Ann Veloc 
 AZIF.deg               108.87:  Azm, Final 
 BHAT.                  Rotary:  BHA Type 
 BROT.°/30m               0.35:  Build Rotating 
 BS  .in                  8.50:  Bit Size 
 BSZ .in                  8.50:  Bit Size 
 BTPL.psig              360.00:  Bit Press Loss 
 CABU.                     Yes:  Customer Abuse 
 COMM.                     ¼«|:  Run Comments 1 
 TCS .hr                106.24:  Time Ciculation Ended 
 CV  .mps                 1.77:  Crit Velocity 
 CVMX.mps                 2.03:  Max Crit Veloc 
 DD1 .         Aykhan Agagulov:  Direct Drillr 1 
 DD2 .            Nonso Okofor:  Direct Drillr 2 
 DDSV.               Geo-Pilot:  DD Service 
 DEFF.%                  98.00:  % Det Eff 
 DLRX.°/30m               0.50:  Dogleg Rot Max 
 DLSO.°/30m               0.40:  Dogleg Oriented 
 DLSX.°/30m               0.94:  Dogleg Str Max 
 DRET.      20.30.00 08-Sep-20:  Drill End Time 
 DRST.      22.15.00 06-Sep-20:  Drill Start Tim 
 DTIM.hr                 31.31:  Time Drilling 
 EDEP.m                5790.01:  End Depth 
 ENG1.           Amrah Tahirov:  Engineer 1 
 ENG2.         Dair Mahammadov:  Engineer 2 
 ENG3.           Emil Huseynov:  Engineer 3 
 ETIM.      04.01.04 12-Sep-20:  End Time 
 FLOI.gpm               450.00:  Flow In 
 FLON.gpm               450.00:  Flow In Min 
 FLOS.cptm                2.00:  Fluid Loss 
 FLOX.gpm               450.00:  Flow In Max 
 FTRO.       Formation Presure:  FTWD Run Obj 
 HFLO.                      No:  High Flow 
 HPRE.                      No:  High Pressure 
 HTEM.                      No:  High Temp 
 HYDO.m                   1.80:  Hydro Offset 
 IFIN.deg                72.03:  Inc, Final 
 IMAX.deg                73.72:  Inc Max 
 IMIN.deg                70.94:  Inc Min 
 IMND.m                5508.52:  Inc Min Depth 
 IMXD.m                5253.60:  Inc Max Depth 
 JARR.                      No:  Jarring 
 LETM.      20.30.00 08-Sep-20:  Log End Time 
 LOST.hr                     0:  Lost Rig Time 
 LSTM.      22.15.00 06-Sep-20:  Log Start Time 
 MDCL.ppm             36000.00:  Mud Chlorides 
 MDES.     Inversion Oil/Synthetic:  Mud Desc 
 DFD .sg                  1.44:  Mud Density 
 MDMN.sg                  1.44:  Dens Mud Min 
 MDMX.sg                  1.57:  Dens Mud Max 
 MOIL.                      70:  Run Mud Oil % 
 MOWR.                   70:30:  Run Mud OWR 
 MSND.                       0:  Run Mud Sand % 
 MSOL.                      21:  Run Mud Solids% 
 DFV .spqt               68.00:  Mud Viscosity 
 MWOD.in                  6.75:  MWD Tool OD 
 MWSI.                     Yes:  Serv Intrp, MWD 
 OTIM.hr                174.84:  Time Operating 
 PCON.           Look Like New:  Pad Condition 
 PMAX.psia            10616.93:  Press Op, Max 
 PV  .cP                 50.00:  Mud PV 
 RUN .                     700:  Run Number 
 ROPA.m/hr               14.24:  ROP Avg 
 ROPN.m/hr               10.00:  ROP Min 
 ROPX.m/hr               32.00:  ROP Max 
 RPMA.rpm               120.90:  RPM Surface Avg 
 RPMN.rpm               120.00:  RPM Surface Min 
 RPMX.rpm               140.00:  RPM Surface Max 
 RRUN.                    0700:  Rig Run Number 
 RTIM.hr                  3.20:  Time Reaming 
 SAZI.deg               109.99:  Azm, Start 
 SDEP.m                5231.01:  Start Depth 
 SIDD.                      No:  Serv Intrp, DD 
 SINC.deg                73.72:  Inc, Start 
 SPPA.psig             3051.00:  SPP Avg 
 SPPN.psig             2950.00:  SPP Min 
 SPPX.psig             3250.00:  SPP Max 
 STIM.      08.00.00 05-Sep-20:  Start Time 
 SVCS.                 DD, MWD:  Services 
 SVER.                    9.20:  Sperry Version 
 TDAT.m                 559.00:  Tot Depth Attmp 
 TDDF.                      No:  Trip for DD 
 TDLG.m                 559.00:  Tot Depth Loggd 
 TFF .                      No:  Trip for Fail 
 TQAA.f-kp               26.49:  Torque Abs Avg 
 TQAN.f-kp               25.00:  Torque Abs Min 
 TQAX.f-kp               27.00:  Torque Abs Max 
 TRRT.°/30m               1.50:  Turn Rotating 
 MRT .                    HCIM:  Maximum Recorded Temperature 
 TTMX.degC               90.20:  Max Tool Temp 
 VS01.                90542671:  Virtual Str1 SN 
 VS02.                90545185:  Virtual Str2 SN 
 VS03.                90602015:  Virtual Str3 SN 
 VS04.                90515230:  Virtual Str4 SN 
 WBMN.klb                 5.00:  WOB Min 
 WOBA.klb                14.79:  WOB Avg 
 WOBX.klb                20.00:  WOB Max 
 YP  .lhf2               29.00:  Yield Point 
~Curve Information Block
#MNEM.UNIT                 API CODE     Curve Description
#---------               -----------    ---------------------------
 TIME.HHMMSS            00 000 000 000:  GT Time & Date
 GTDEPTH.m              00 000 000 000:  GT Depth
 GTPQH.psia             00 000 000 000:  GT HR Quartz Pressure
 GTTQ.degC              00 000 000 000:  GT Quartz Temperature
 GTTN.NONE              00 000 000 000:  GT Test Number
 GTET.sec               00 000 000 000:  GT Elapsed Test Time
 GTTVD.m                00 000 000 000:  GT True Vertical Depth
#Other Information
#
#WARRANTY: Halliburton will use its best efforts to furnish customers with 
#accurate information and interpretations that are part of, and incident to, the services 
#provided.  However, Halliburton cannot and does not warrant the accuracy 
#or correctness of such information and interpretations.  Under no circumstances should any 
#such information or interpretation be relied upon as the sole basis for any drilling, 
#completion, production, or financial decision or any procedure involving any risk to the 
#safety of any drilling venture, drilling rig or its crew or any other third party.  The 
#Customer has full responsibility for all drilling, completion and production operation.  
#Halliburton makes no representations or warranties, either expressed or 
#implied, including, but not limited to, the implied warranties of merchantability or fitness 
#for a particular purpose, with respect to the services rendered.  In no event will 
#Halliburton be liable for failure to obtain any particular results or for 
#any damages, including, but not limited to, indirect, special or consequential damages, 
#resulting from the use of any information or interpretation provided by Halliburton.
#
~A           TIME           GTDEPTH  GTPQH  GTTQ  GTTN   GTET   GTTVD  
# ...
   19:35:29.977.09-Sep-2020 5260.01 6179.45 74.30 23.00  22.61 2544.55
   19:35:30.177.09-Sep-2020 5260.01 6181.73 74.30 23.00  22.81 2544.55
   19:35:30.377.09-Sep-2020 5260.01 6181.04 74.30 23.00  23.01 2544.55
   19:35:30.577.09-Sep-2020 5260.01 6181.04 74.30 23.00  23.21 2544.55
   19:35:30.777.09-Sep-2020 5260.01 6181.98 74.30 23.00  23.41 2544.55
   19:35:30.977.09-Sep-2020 5260.01 6183.28 74.30 23.00  23.61 2544.55
   19:35:31.178.09-Sep-2020 5260.01 6183.45 74.30 23.00  23.81 2544.55
   19:35:31.378.09-Sep-2020 5260.01 6184.36 74.30 23.00  24.01 2544.55
   19:35:31.578.09-Sep-2020 5260.01 6184.36 74.30 23.00  24.21 2544.55
   19:35:31.778.09-Sep-2020 5260.01 6185.24 74.30 23.00  24.41 2544.55
   19:35:31.978.09-Sep-2020 5260.01 6185.51 74.30 23.00  24.61 2544.55
   19:35:32.178.09-Sep-2020 5260.01 6186.02 74.30 23.00  24.81 2544.55
   19:35:32.378.09-Sep-2020 5260.01 6186.24 74.30 23.00  25.01 2544.55
   19:35:32.578.09-Sep-2020 5260.01 6186.63 74.30 23.00  25.21 2544.55
   19:35:32.778.09-Sep-2020 5260.01 6186.84 74.30 23.00  25.41 2544.55
   19:35:32.978.09-Sep-2020 5260.01 6187.14 74.30 23.00  25.61 2544.55
   19:35:33.178.09-Sep-2020 5260.01 6187.23 74.30 23.00  25.81 2544.55
   19:35:33.379.09-Sep-2020 5260.01 6198.26 74.30 23.00  26.01 2544.55
   19:35:33.579.09-Sep-2020 5260.01 6198.26 74.30 23.00  26.21 2544.55
   19:35:33.779.09-Sep-2020 5260.01 6188.36 74.30 23.00  26.41 2544.55
   19:35:33.979.09-Sep-2020 5260.01 6186.91 74.30 23.00  26.61 2544.55
   19:35:34.179.09-Sep-2020 5260.01 6187.08 74.30 23.00  26.81 2544.55
   19:35:34.379.09-Sep-2020 5260.01 6187.86 74.30 23.00  27.01 2544.55
   19:35:34.579.09-Sep-2020 5260.01 6187.86 74.30 23.00  27.21 2544.55
   19:35:34.779.09-Sep-2020 5260.01 6188.71 74.30 23.00  27.41 2544.55
   19:35:34.979.09-Sep-2020 5260.01 6189.20 74.30 23.00  27.61 2544.55
   19:35:35.179.09-Sep-2020 5260.01 6189.10 74.30 23.00  27.81 2544.55
   19:35:35.379.09-Sep-2020 5260.01 6189.48 74.30 23.00  28.01 2544.55
   19:35:35.580.09-Sep-2020 5260.01 6189.48 74.30 23.00  28.21 2544.55
   19:35:35.780.09-Sep-2020 5260.01 6190.38 74.30 23.00  28.41 2544.55
   19:35:35.980.09-Sep-2020 5260.01 6191.17 74.30 23.00  28.61 2544.55
   19:35:36.180.09-Sep-2020 5260.01 6191.39 74.30 23.00  28.81 2544.55
   19:35:36.380.09-Sep-2020 5260.01 6191.15 74.30 23.00  29.01 2544.55
   19:35:36.580.09-Sep-2020 5260.01 6191.15 74.30 23.00  29.21 2544.55
   19:35:36.780.09-Sep-2020 5260.01 6201.87 74.30 23.00  29.41 2544.55
   19:35:36.980.09-Sep-2020 5260.01 6187.31 74.30 23.00  29.61 2544.55
   19:35:37.180.09-Sep-2020 5260.01 6193.12 74.30 23.00  29.81 2544.55
   19:35:37.380.09-Sep-2020 5260.01 6192.50 74.30 23.00  30.01 2544.55
   19:35:37.580.09-Sep-2020 5260.01 6192.50 74.30 23.00  30.21 2544.55
   19:35:37.781.09-Sep-2020 5260.01 6192.96 74.30 23.00  30.41 2544.55
   19:35:37.981.09-Sep-2020 5260.01 6201.98 74.30 23.00  30.61 2544.55
   19:35:38.181.09-Sep-2020 5260.01 6191.08 74.30 23.00  30.81 2544.55
   19:35:38.381.09-Sep-2020 5260.01 6194.96 74.30 23.00  31.01 2544.55
   19:35:38.581.09-Sep-2020 5260.01 6194.96 74.30 23.00  31.21 2544.55
   19:35:38.781.09-Sep-2020 5260.01 6194.93 74.30 23.00  31.41 2544.55
   19:35:38.981.09-Sep-2020 5260.01 6205.27 74.30 23.00  31.61 2544.55
   19:35:39.181.09-Sep-2020 5260.01 6192.07 74.30 23.00  31.81 2544.55
   19:35:39.381.09-Sep-2020 5260.01 6196.87 74.30 23.00  32.01 2544.55
   19:35:39.581.09-Sep-2020 5260.01 6196.87 74.30 23.00  32.21 2544.55
   19:35:39.781.09-Sep-2020 5260.01 6196.40 74.30 23.00  32.41 2544.55
   19:35:39.982.09-Sep-2020 5260.01 6205.45 74.30 23.00  32.62 2544.55
   19:35:40.182.09-Sep-2020 5260.01 6195.53 74.30 23.00  32.82 2544.55
   19:35:40.382.09-Sep-2020 5260.01 6198.88 74.30 23.00  33.02 2544.55
   19:35:40.582.09-Sep-2020 5260.01 6198.88 74.30 23.00  33.22 2544.55
   19:35:40.782.09-Sep-2020 5260.01 6199.10 74.30 23.00  33.42 2544.55
   19:35:40.982.09-Sep-2020 5260.01 6199.30 74.30 23.00  33.62 2544.55
   19:35:41.182.09-Sep-2020 5260.01 6210.01 74.30 23.00  33.82 2544.55
   19:35:41.382.09-Sep-2020 5260.01 6196.51 74.30 23.00  34.02 2544.55
   19:35:41.582.09-Sep-2020 5260.01 6199.22 74.30 23.00  34.22 2544.55
   19:35:41.782.09-Sep-2020 5260.01 6198.45 74.30 23.00  34.42 2544.55
   19:35:41.983.09-Sep-2020 5260.01 6200.04 74.30 23.00  34.62 2544.55
   19:35:42.183.09-Sep-2020 5260.01 6201.30 74.30 23.00  34.82 2544.55
   19:35:42.383.09-Sep-2020 5260.01 6203.33 74.30 23.00  35.02 2544.55
   19:35:42.583.09-Sep-2020 5260.01 6203.33 74.30 23.00  35.22 2544.55
   19:35:42.783.09-Sep-2020 5260.01 6203.33 74.30 23.00  35.42 2544.55
   19:35:42.983.09-Sep-2020 5260.01 6203.70 74.30 23.00  35.62 2544.55
   19:35:43.183.09-Sep-2020 5260.01 6203.41 74.30 23.00  35.82 2544.55
   19:35:43.383.09-Sep-2020 5260.01 6202.75 74.30 23.00  36.02 2544.55
   19:35:43.583.09-Sep-2020 5260.01 6202.75 74.30 23.00  36.22 2544.55
   19:35:43.783.09-Sep-2020 5260.01 6203.08 74.30 23.00  36.42 2544.55
   19:35:43.983.09-Sep-2020 5260.01 6203.39 74.30 23.00  36.62 2544.55
   19:35:44.184.09-Sep-2020 5260.01 6204.01 74.30 23.00  36.82 2544.55
   19:35:44.384.09-Sep-2020 5260.01 6204.49 74.30 23.00  37.02 2544.55
   19:35:44.584.09-Sep-2020 5260.01 6203.75 74.30 23.00  37.22 2544.55
   19:35:44.784.09-Sep-2020 5260.01 6204.22 74.30 23.00  37.42 2544.55
   19:35:44.984.09-Sep-2020 5260.01 6213.65 74.30 23.00  37.62 2544.55
   19:35:45.184.09-Sep-2020 5260.01 6202.44 74.30 23.00  37.82 2544.55
   19:35:45.384.09-Sep-2020 5260.01 6205.59 74.30 23.00  38.02 2544.55
   19:35:45.584.09-Sep-2020 5260.01 6202.73 74.30 23.00  38.22 2544.55
   19:35:45.784.09-Sep-2020 5260.01 6201.81 74.30 23.00  38.42 2544.55
   19:35:45.984.09-Sep-2020 5260.01 6197.19 74.30 23.00  38.62 2544.55
   19:35:46.184.09-Sep-2020 5260.01 6201.05 74.30 23.00  38.82 2544.55
   19:35:46.385.09-Sep-2020 5260.01 6201.41 74.30 23.00  39.02 2544.55
   19:35:46.585.09-Sep-2020 5260.01 6201.41 74.30 23.00  39.22 2544.55
   19:35:46.785.09-Sep-2020 5260.01 6201.56 74.30 23.00  39.42 2544.55
   19:35:46.985.09-Sep-2020 5260.01 6202.00 74.30 23.00  39.62 2544.55
   19:35:47.185.09-Sep-2020 5260.01 6201.83 74.30 23.00  39.82 2544.55
   19:35:47.385.09-Sep-2020 5260.01 6202.64 74.30 23.00  40.02 2544.55
   19:35:47.585.09-Sep-2020 5260.01 6202.64 74.30 23.00  40.22 2544.55
   19:35:47.785.09-Sep-2020 5260.01 6203.74 74.30 23.00  40.42 2544.55
   19:35:47.985.09-Sep-2020 5260.01 6205.08 74.30 23.00  40.62 2544.55
   19:35:48.185.09-Sep-2020 5260.01 6205.53 74.30 23.00  40.82 2544.55
   19:35:48.385.09-Sep-2020 5260.01 6207.31 74.30 23.00  41.02 2544.55
   19:35:48.586.09-Sep-2020 5260.01 6207.31 74.30 23.00  41.22 2544.55
   19:35:48.786.09-Sep-2020 5260.01 6207.44 74.30 23.00  41.42 2544.55
   19:35:48.986.09-Sep-2020 5260.01 6211.02 74.30 23.00  41.62 2544.55
   19:35:49.186.09-Sep-2020 5260.01 6209.98 74.30 23.00  41.82 2544.55
   19:35:49.386.09-Sep-2020 5260.01 6211.39 74.30 23.00  42.02 2544.55
   19:35:49.586.09-Sep-2020 5260.01 6211.39 74.30 23.00  42.22 2544.55
   19:35:49.786.09-Sep-2020 5260.01 6223.49 74.30 23.00  42.42 2544.55
   19:35:49.986.09-Sep-2020 5260.01 6206.96 74.30 23.00  42.62 2544.55
   19:35:50.186.09-Sep-2020 5260.01 6210.99 74.30 23.00  42.82 2544.55
   19:35:50.386.09-Sep-2020 5260.01 6210.35 74.30 23.00  43.02 2544.55
   19:35:50.586.09-Sep-2020 5260.01 6210.35 74.30 23.00  43.22 2544.55
   19:35:50.787.09-Sep-2020 5260.01 6211.81 74.30 23.00  43.42 2544.55
   19:35:50.987.09-Sep-2020 5260.01 6222.11 74.30 23.00  43.62 2544.55
   19:35:51.187.09-Sep-2020 5260.01 6207.90 74.30 23.00  43.82 2544.55
   19:35:51.387.09-Sep-2020 5260.01 6212.18 74.30 23.00  44.02 2544.55
   19:35:51.587.09-Sep-2020 5260.01 6212.18 74.30 23.00  44.22 2544.55
   19:35:51.787.09-Sep-2020 5260.01 6212.42 74.30 23.00  44.42 2544.55
   19:35:51.987.09-Sep-2020 5260.01 6213.36 74.30 23.00  44.62 2544.55
   19:35:52.187.09-Sep-2020 5260.01 6223.29 74.30 23.00  44.82 2544.55
   19:35:52.387.09-Sep-2020 5260.01 6210.67 74.30 23.00  45.02 2544.55
