~Version Information
 VERS.                  2.0:   CWLS log ASCII Standard -VERSION 2.0
 WRAP.                   NO:   One line per depth step
~Well Information Block
#MNEM.UNIT     VALUE/NAME     DESCRIPTION
#---------     -----------    ---------------------------
 STRT.S             13:30:41 09-Sep-20: START TIME 13:30:41 09-Sep-20
 STOP.S             13:37:24 09-Sep-20: STOP TIME  13:37:24 09-Sep-20
 STEP.S                   0.00: STEP TIME
 NULL.                 -999.25: NULL VALUE
 MDS .        Operator Entered:  MAG DATA SOURCE
 PDAT.          Mean Sea Level:  PERMANENT DATUM
 DCON.         Sperry Drilling:  DIRECTNL CONTR
 RIG .              West Azeri:  RIG NAME
 WELL.           C40 (Slot 20):  WELL NAME
 SRVC.     Turan Drilling Engineering:  CONTRACTOR
 FLD .                     ACG:  FIELD NAME
 CTRY.              Azerbaijan:  COUNTRY NAME
 PROV.                    Baku:  PROVINCE
 STAT.                    Baku:  STATE NAME
 REGN.                   EESSA:  REGION
 BASE.              Azerbaijan:  LOGGING EQUIPMENT BASE LOCATION
 COMP.     BP Exploration (Caspian Sea) Ltd:  COMPANY
 WTYP.                Deviated:  WELL TYPE
 SON .        AZ-XX-0906344804:  JOB NUMBER
 FTOP.          Formation Tops:  FORM TOPS DESC
 ILTD.               Lithology:  INTERP LTH DESC
 SVYD.                  Survey:  SURVEY DESC
 DMOD.             Drill Model:  DRILL MOD DESC
 HPTY.       Minimum Curvature:  HOLE POS TYPE
 NREF.                    Grid:  NORTH REFERENCE
 SPUD.               01-Jan-20:  SPUD DATE
 DATE.      00.59.44 15-Sep-20:  END TIME
 STIM.      12.00.00 12-Jun-20:  START TIME
 DMF .             Drill Floor:  DRILL MEAS FROM
 DFST.                        :  DIST FSL TEXT
 DFWT.                        :  DIST FWL TEXT
 API .                        :  API NUMBER
 CNTY.                        :  COUNTY
 UWI .                        :  UNIQUE WELL IDENTIFIER
 LOC .                        :  LOCATION
 LMF .             Drill Floor:  LOG MEASURED FROM
 VSNS.m                   2.88:  VERT SEC N/S
 VSEW.m                  -3.84:  VERT SEC E/W
 AGAP.m                  43.42:  AIR GAP
 APD .m                  43.42:  DEPTH ABOVE PD
 WDMS.m                 118.27:  WD ELEV
 EGL .m                   0.00:  GROUND ELEVATION
 EPD .m                   0.00:  ELEVATION
 AZTC.deg                 6.23:  AZM TOTAL CORR
 GRDC.deg                 0.20:  GRID CORRECTION
 MDEC.deg                 6.43:  MAGNETIC DECL
 MDIP.deg                59.49:  MAGNETIC DIP
 MFLD.nT              50277.00:  MAGNETIC FIELD
 GVFD.g                   1.00:  GRAVITY FIELD
 VSDR.deg               173.20:  VERT SEC DIRECT
 TDD .m                5790.01:  TOTAL DEPTH (DRILLER)
 SDEP.m                5231.01:  START DEPTH
 DFSL.m                   0.00:  DISTANCE FSL
 DFWL.m                   0.00:  DISTANCE FWL
 UTMY.m             4435808.83:  UTM Y
 UTMX.m              526266.40:  UTM X
 WHEW.m                  -3.84:  WELL HEAD E/W
 WHNS.m                   2.88:  WELL HEAD N/S
 LONG.deg                51.31:  LONGITUDE
 LATI.deg                40.06:  LATITUDE
 TVDS.m                  43.42:  TVDSS CORRECTN
 DEP .m                 430.08:  DEPTH
 EKB .m                  43.42:  KB ELEVATION
 EDF .m                  43.42:  DF ELEVATION
 TDL .m                 559.00:  TOTAL DEPTH (LOGGER)
 MAGU.                 1849381:  MAGUTM CHECKSUM
 VSC .                       0:  VS TO CLOSURE
~Parameter Information Block
#MNEM.UNIT       Value        Description
#---------     -----------    ---------------------------
 AV  .mps                 4.87:  Ann Velocity 
 AVMX.mps                 7.08:  Max Ann Veloc 
 AZIF.deg               108.87:  Azm, Final 
 BHAT.                  Rotary:  BHA Type 
 BROT.°/30m               0.35:  Build Rotating 
 BS  .in                  8.50:  Bit Size 
 BSZ .in                  8.50:  Bit Size 
 BTPL.psig              360.00:  Bit Press Loss 
 CABU.                     Yes:  Customer Abuse 
 COMM.                     $ñd:  Run Comments 1 
 TCS .hr                106.24:  Time Ciculation Ended 
 CV  .mps                 1.77:  Crit Velocity 
 CVMX.mps                 2.03:  Max Crit Veloc 
 DD1 .         Aykhan Agagulov:  Direct Drillr 1 
 DD2 .            Nonso Okofor:  Direct Drillr 2 
 DDSV.               Geo-Pilot:  DD Service 
 DEFF.%                  98.00:  % Det Eff 
 DLRX.°/30m               0.50:  Dogleg Rot Max 
 DLSO.°/30m               0.40:  Dogleg Oriented 
 DLSX.°/30m               0.94:  Dogleg Str Max 
 DRET.      20.30.00 08-Sep-20:  Drill End Time 
 DRST.      22.15.00 06-Sep-20:  Drill Start Tim 
 DTIM.hr                 31.31:  Time Drilling 
 EDEP.m                5790.01:  End Depth 
 ENG1.           Amrah Tahirov:  Engineer 1 
 ENG2.         Dair Mahammadov:  Engineer 2 
 ENG3.           Emil Huseynov:  Engineer 3 
 ETIM.      04.01.04 12-Sep-20:  End Time 
 FLOI.gpm               450.00:  Flow In 
 FLON.gpm               450.00:  Flow In Min 
 FLOS.cptm                2.00:  Fluid Loss 
 FLOX.gpm               450.00:  Flow In Max 
 FTRO.       Formation Presure:  FTWD Run Obj 
 HFLO.                      No:  High Flow 
 HPRE.                      No:  High Pressure 
 HTEM.                      No:  High Temp 
 HYDO.m                   1.80:  Hydro Offset 
 IFIN.deg                72.03:  Inc, Final 
 IMAX.deg                73.72:  Inc Max 
 IMIN.deg                70.94:  Inc Min 
 IMND.m                5508.52:  Inc Min Depth 
 IMXD.m                5253.60:  Inc Max Depth 
 JARR.                      No:  Jarring 
 LETM.      20.30.00 08-Sep-20:  Log End Time 
 LOST.hr                     0:  Lost Rig Time 
 LSTM.      22.15.00 06-Sep-20:  Log Start Time 
 MDCL.ppm             36000.00:  Mud Chlorides 
 MDES.     Inversion Oil/Synthetic:  Mud Desc 
 DFD .sg                  1.44:  Mud Density 
 MDMN.sg                  1.44:  Dens Mud Min 
 MDMX.sg                  1.57:  Dens Mud Max 
 MOIL.                      70:  Run Mud Oil % 
 MOWR.                   70:30:  Run Mud OWR 
 MSND.                       0:  Run Mud Sand % 
 MSOL.                      21:  Run Mud Solids% 
 DFV .spqt               68.00:  Mud Viscosity 
 MWOD.in                  6.75:  MWD Tool OD 
 MWSI.                     Yes:  Serv Intrp, MWD 
 OTIM.hr                174.84:  Time Operating 
 PCON.           Look Like New:  Pad Condition 
 PMAX.psia            10616.93:  Press Op, Max 
 PV  .cP                 50.00:  Mud PV 
 RUN .                     700:  Run Number 
 ROPA.m/hr               14.24:  ROP Avg 
 ROPN.m/hr               10.00:  ROP Min 
 ROPX.m/hr               32.00:  ROP Max 
 RPMA.rpm               120.90:  RPM Surface Avg 
 RPMN.rpm               120.00:  RPM Surface Min 
 RPMX.rpm               140.00:  RPM Surface Max 
 RRUN.                    0700:  Rig Run Number 
 RTIM.hr                  3.20:  Time Reaming 
 SAZI.deg               109.99:  Azm, Start 
 SDEP.m                5231.01:  Start Depth 
 SIDD.                      No:  Serv Intrp, DD 
 SINC.deg                73.72:  Inc, Start 
 SPPA.psig             3051.00:  SPP Avg 
 SPPN.psig             2950.00:  SPP Min 
 SPPX.psig             3250.00:  SPP Max 
 STIM.      08.00.00 05-Sep-20:  Start Time 
 SVCS.                 DD, MWD:  Services 
 SVER.                    9.20:  Sperry Version 
 TDAT.m                 559.00:  Tot Depth Attmp 
 TDDF.                      No:  Trip for DD 
 TDLG.m                 559.00:  Tot Depth Loggd 
 TFF .                      No:  Trip for Fail 
 TQAA.f-kp               26.49:  Torque Abs Avg 
 TQAN.f-kp               25.00:  Torque Abs Min 
 TQAX.f-kp               27.00:  Torque Abs Max 
 TRRT.°/30m               1.50:  Turn Rotating 
 MRT .                    HCIM:  Maximum Recorded Temperature 
 TTMX.degC               90.20:  Max Tool Temp 
 VS01.                90542671:  Virtual Str1 SN 
 VS02.                90545185:  Virtual Str2 SN 
 VS03.                90602015:  Virtual Str3 SN 
 VS04.                90515230:  Virtual Str4 SN 
 WBMN.klb                 5.00:  WOB Min 
 WOBA.klb                14.79:  WOB Avg 
 WOBX.klb                20.00:  WOB Max 
 YP  .lhf2               29.00:  Yield Point 
~Curve Information Block
#MNEM.UNIT                 API CODE     Curve Description
#---------               -----------    ---------------------------
 TIME.HHMMSS            00 000 000 000:  GT Time & Date
 GTDEPTH.m              00 000 000 000:  GT Depth
 GTPQH.psia             00 000 000 000:  GT HR Quartz Pressure
 GTTQ.degC              00 000 000 000:  GT Quartz Temperature
 GTTN.NONE              00 000 000 000:  GT Test Number
 GTET.sec               00 000 000 000:  GT Elapsed Test Time
 GTTVD.m                00 000 000 000:  GT True Vertical Depth
#Other Information
#
#WARRANTY: Halliburton will use its best efforts to furnish customers with 
#accurate information and interpretations that are part of, and incident to, the services 
#provided.  However, Halliburton cannot and does not warrant the accuracy 
#or correctness of such information and interpretations.  Under no circumstances should any 
#such information or interpretation be relied upon as the sole basis for any drilling, 
#completion, production, or financial decision or any procedure involving any risk to the 
#safety of any drilling venture, drilling rig or its crew or any other third party.  The 
#Customer has full responsibility for all drilling, completion and production operation.  
#Halliburton makes no representations or warranties, either expressed or 
#implied, including, but not limited to, the implied warranties of merchantability or fitness 
#for a particular purpose, with respect to the services rendered.  In no event will 
#Halliburton be liable for failure to obtain any particular results or for 
#any damages, including, but not limited to, indirect, special or consequential damages, 
#resulting from the use of any information or interpretation provided by Halliburton.
#
~A           TIME           GTDEPTH  GTPQH  GTTQ  GTTN   GTET   GTTVD  
# ...
   13:31:26.712.09-Sep-2020 5408.01  648.98 75.48 15.00  45.23 2589.60
   13:31:26.912.09-Sep-2020 5408.01  650.40 75.47 15.00  45.43 2589.60
   13:31:27.112.09-Sep-2020 5408.01  649.55 75.46 15.00  45.63 2589.60
   13:31:27.312.09-Sep-2020 5408.01  646.84 75.46 15.00  45.83 2589.60
   13:31:27.513.09-Sep-2020 5408.01  650.38 75.45 15.00  46.03 2589.60
   13:31:27.713.09-Sep-2020 5408.01  650.38 75.45 15.00  46.23 2589.60
   13:31:27.913.09-Sep-2020 5408.01  656.62 75.45 15.00  46.43 2589.60
   13:31:28.113.09-Sep-2020 5408.01  657.36 75.44 15.00  46.63 2589.60
   13:31:28.313.09-Sep-2020 5408.01  658.26 75.44 15.00  46.83 2589.60
   13:31:28.513.09-Sep-2020 5408.01  657.94 75.43 15.00  47.03 2589.60
   13:31:28.713.09-Sep-2020 5408.01  657.94 75.43 15.00  47.23 2589.60
   13:31:28.913.09-Sep-2020 5408.01  662.36 75.43 15.00  47.43 2589.60
   13:31:29.114.09-Sep-2020 5408.01  659.48 75.42 15.00  47.63 2589.60
   13:31:29.314.09-Sep-2020 5408.01  658.36 75.42 15.00  47.83 2589.60
   13:31:29.514.09-Sep-2020 5408.01  659.34 75.42 15.00  48.03 2589.60
   13:31:29.714.09-Sep-2020 5408.01  664.04 75.41 15.00  48.23 2589.60
   13:31:29.914.09-Sep-2020 5408.01  655.05 75.41 15.00  48.43 2589.60
   13:31:30.114.09-Sep-2020 5408.01  657.91 75.41 15.00  48.63 2589.60
   13:31:30.314.09-Sep-2020 5408.01  657.28 75.40 15.00  48.83 2589.60
   13:31:30.514.09-Sep-2020 5408.01  650.86 75.40 15.00  49.03 2589.60
   13:31:30.715.09-Sep-2020 5408.01  650.86 75.40 15.00  49.23 2589.60
   13:31:30.915.09-Sep-2020 5408.01  649.32 75.40 15.00  49.43 2589.60
   13:31:31.115.09-Sep-2020 5408.01  657.64 75.39 15.00  49.63 2589.60
   13:31:31.315.09-Sep-2020 5408.01  667.80 75.39 15.00  49.83 2589.60
   13:31:31.515.09-Sep-2020 5408.01  671.05 75.39 15.00  50.03 2589.60
   13:31:31.715.09-Sep-2020 5408.01  671.05 75.39 15.00  50.23 2589.60
   13:31:31.915.09-Sep-2020 5408.01  662.41 75.39 15.00  50.43 2589.60
   13:31:32.115.09-Sep-2020 5408.01  658.78 75.38 15.00  50.63 2589.60
   13:31:32.316.09-Sep-2020 5408.01  656.82 75.38 15.00  50.83 2589.60
   13:31:32.516.09-Sep-2020 5408.01  648.27 75.38 15.00  51.03 2589.60
   13:31:32.716.09-Sep-2020 5408.01  648.27 75.38 15.00  51.23 2589.60
   13:31:32.916.09-Sep-2020 5408.01  671.87 75.38 15.00  51.43 2589.60
   13:31:33.116.09-Sep-2020 5408.01  808.23 75.38 15.00  51.63 2589.60
   13:31:33.316.09-Sep-2020 5408.01  974.35 75.38 15.00  51.83 2589.60
   13:31:33.516.09-Sep-2020 5408.01 1140.45 75.38 15.00  52.03 2589.60
   13:31:33.716.09-Sep-2020 5408.01 1291.41 75.37 15.00  52.23 2589.60
   13:31:33.916.09-Sep-2020 5408.01 1430.46 75.37 15.00  52.43 2589.60
   13:31:34.117.09-Sep-2020 5408.01 1559.43 75.37 15.00  52.63 2589.60
   13:31:34.317.09-Sep-2020 5408.01 1678.30 75.37 15.00  52.83 2589.60
   13:31:34.517.09-Sep-2020 5408.01 1791.72 75.37 15.00  53.03 2589.60
   13:31:34.717.09-Sep-2020 5408.01 1791.72 75.37 15.00  53.23 2589.60
   13:31:34.917.09-Sep-2020 5408.01 1995.81 75.37 15.00  53.43 2589.60
   13:31:35.117.09-Sep-2020 5408.01 2087.00 75.37 15.00  53.63 2589.60
   13:31:35.317.09-Sep-2020 5408.01 2174.40 75.37 15.00  53.83 2589.60
   13:31:35.517.09-Sep-2020 5408.01 2256.00 75.37 15.00  54.03 2589.60
   13:31:35.718.09-Sep-2020 5408.01 2256.00 75.37 15.00  54.23 2589.60
   13:31:35.918.09-Sep-2020 5408.01 2403.53 75.37 15.00  54.43 2589.60
   13:31:36.118.09-Sep-2020 5408.01 2469.64 75.37 15.00  54.63 2589.60
   13:31:36.318.09-Sep-2020 5408.01 2531.83 75.37 15.00  54.83 2589.60
   13:31:36.518.09-Sep-2020 5408.01 2589.91 75.38 15.00  55.03 2589.60
   13:31:36.718.09-Sep-2020 5408.01 2589.91 75.38 15.00  55.23 2589.60
   13:31:36.918.09-Sep-2020 5408.01 2697.13 75.38 15.00  55.43 2589.60
   13:31:37.118.09-Sep-2020 5408.01 2746.32 75.38 15.00  55.63 2589.60
   13:31:37.319.09-Sep-2020 5408.01 2792.24 75.38 15.00  55.83 2589.60
   13:31:37.519.09-Sep-2020 5408.01 2834.24 75.38 15.00  56.03 2589.60
   13:31:37.719.09-Sep-2020 5408.01 2876.27 75.38 15.00  56.23 2589.60
   13:31:37.919.09-Sep-2020 5408.01 2914.84 75.39 15.00  56.43 2589.60
   13:31:38.119.09-Sep-2020 5408.01 2950.96 75.39 15.00  56.63 2589.60
   13:31:38.319.09-Sep-2020 5408.01 2984.80 75.39 15.00  56.83 2589.60
   13:31:38.519.09-Sep-2020 5408.01 3017.18 75.39 15.00  57.03 2589.60
   13:31:38.719.09-Sep-2020 5408.01 3017.18 75.39 15.00  57.23 2589.60
   13:31:38.920.09-Sep-2020 5408.01 3075.13 75.40 15.00  57.44 2589.60
   13:31:39.120.09-Sep-2020 5408.01 3102.03 75.40 15.00  57.64 2589.60
   13:31:39.320.09-Sep-2020 5408.01 3126.79 75.40 15.00  57.84 2589.60
   13:31:39.520.09-Sep-2020 5408.01 3150.53 75.40 15.00  58.04 2589.60
   13:31:39.720.09-Sep-2020 5408.01 3150.53 75.40 15.00  58.24 2589.60
   13:31:39.920.09-Sep-2020 5408.01 3193.19 75.41 15.00  58.44 2589.60
   13:31:40.120.09-Sep-2020 5408.01 3213.88 75.41 15.00  58.64 2589.60
   13:31:40.320.09-Sep-2020 5408.01 3232.42 75.41 15.00  58.84 2589.60
   13:31:40.521.09-Sep-2020 5408.01 3249.66 75.41 15.00  59.04 2589.60
   13:31:40.721.09-Sep-2020 5408.01 3249.66 75.41 15.00  59.24 2589.60
   13:31:40.921.09-Sep-2020 5408.01 3283.37 75.42 15.00  59.44 2589.60
   13:31:41.121.09-Sep-2020 5408.01 3297.08 75.42 15.00  59.64 2589.60
   13:31:41.321.09-Sep-2020 5408.01 3310.59 75.42 15.00  59.84 2589.60
   13:31:41.521.09-Sep-2020 5408.01 3325.75 75.42 15.00  60.04 2589.60
   13:31:41.721.09-Sep-2020 5408.01 3339.25 75.43 15.00  60.24 2589.60
   13:31:41.921.09-Sep-2020 5408.01 3351.61 75.43 15.00  60.44 2589.60
   13:31:42.122.09-Sep-2020 5408.01 3361.58 75.43 15.00  60.64 2589.60
   13:31:42.322.09-Sep-2020 5408.01 3372.63 75.43 15.00  60.84 2589.60
   13:31:42.522.09-Sep-2020 5408.01 3383.57 75.43 15.00  61.04 2589.60
   13:31:42.722.09-Sep-2020 5408.01 3383.57 75.43 15.00  61.24 2589.60
   13:31:42.922.09-Sep-2020 5408.01 3403.27 75.44 15.00  61.44 2589.60
   13:31:43.122.09-Sep-2020 5408.01 3412.22 75.44 15.00  61.64 2589.60
   13:31:43.322.09-Sep-2020 5408.01 3420.74 75.44 15.00  61.84 2589.60
   13:31:43.522.09-Sep-2020 5408.01 3428.92 75.44 15.00  62.04 2589.60
   13:31:43.722.09-Sep-2020 5408.01 3428.92 75.44 15.00  62.24 2589.60
   13:31:43.923.09-Sep-2020 5408.01 3441.43 75.45 15.00  62.44 2589.60
   13:31:44.123.09-Sep-2020 5408.01 3448.58 75.45 15.00  62.64 2589.60
   13:31:44.323.09-Sep-2020 5408.01 3455.31 75.45 15.00  62.84 2589.60
   13:31:44.523.09-Sep-2020 5408.01 3460.16 75.45 15.00  63.04 2589.60
   13:31:44.723.09-Sep-2020 5408.01 3460.16 75.45 15.00  63.24 2589.60
   13:31:44.923.09-Sep-2020 5408.01 3473.67 75.45 15.00  63.44 2589.60
   13:31:45.123.09-Sep-2020 5408.01 3479.14 75.45 15.00  63.64 2589.60
   13:31:45.323.09-Sep-2020 5408.01 3484.16 75.46 15.00  63.84 2589.60
   13:31:45.524.09-Sep-2020 5408.01 3489.39 75.46 15.00  64.04 2589.60
   13:31:45.724.09-Sep-2020 5408.01 3491.52 75.46 15.00  64.24 2589.60
   13:31:45.924.09-Sep-2020 5408.01 3496.58 75.46 15.00  64.44 2589.60
   13:31:46.124.09-Sep-2020 5408.01 3501.08 75.46 15.00  64.64 2589.60
   13:31:46.324.09-Sep-2020 5408.01 3505.24 75.46 15.00  64.84 2589.60
   13:31:46.524.09-Sep-2020 5408.01 3509.49 75.46 15.00  65.04 2589.60
   13:31:46.724.09-Sep-2020 5408.01 3509.49 75.46 15.00  65.24 2589.60
   13:31:46.924.09-Sep-2020 5408.01 3516.40 75.47 15.00  65.44 2589.60
   13:31:47.125.09-Sep-2020 5408.01 3519.19 75.47 15.00  65.64 2589.60
   13:31:47.325.09-Sep-2020 5408.01 3523.46 75.47 15.00  65.84 2589.60
   13:31:47.525.09-Sep-2020 5408.01 3526.59 75.47 15.00  66.04 2589.60
   13:31:47.725.09-Sep-2020 5408.01 3526.59 75.47 15.00  66.24 2589.60
   13:31:47.925.09-Sep-2020 5408.01 3531.33 75.47 15.00  66.44 2589.60
   13:31:48.125.09-Sep-2020 5408.01 3535.84 75.47 15.00  66.64 2589.60
   13:31:48.325.09-Sep-2020 5408.01 3538.20 75.47 15.00  66.84 2589.60
   13:31:48.525.09-Sep-2020 5408.01 3540.76 75.47 15.00  67.04 2589.60
   13:31:48.726.09-Sep-2020 5408.01 3540.76 75.47 15.00  67.24 2589.60
   13:31:48.926.09-Sep-2020 5408.01 3544.64 75.47 15.00  67.44 2589.60
   13:31:49.126.09-Sep-2020 5408.01 3547.94 75.47 15.00  67.64 2589.60
