~Version Information
 VERS.                  2.0:   CWLS log ASCII Standard -VERSION 2.0
 WRAP.                   NO:   One line per depth step
~Well Information Block
#MNEM.UNIT     VALUE/NAME     DESCRIPTION
#---------     -----------    ---------------------------
 STRT.S             08:34:18 09-Sep-20: START TIME 08:34:18 09-Sep-20
 STOP.S             08:41:20 09-Sep-20: STOP TIME  08:41:20 09-Sep-20
 STEP.S                   0.00: STEP TIME
 NULL.                 -999.25: NULL VALUE
 MDS .        Operator Entered:  MAG DATA SOURCE
 PDAT.          Mean Sea Level:  PERMANENT DATUM
 DCON.         Sperry Drilling:  DIRECTNL CONTR
 RIG .              West Azeri:  RIG NAME
 WELL.           C40 (Slot 20):  WELL NAME
 SRVC.     Turan Drilling Engineering:  CONTRACTOR
 FLD .                     ACG:  FIELD NAME
 CTRY.              Azerbaijan:  COUNTRY NAME
 PROV.                    Baku:  PROVINCE
 STAT.                    Baku:  STATE NAME
 REGN.                   EESSA:  REGION
 BASE.              Azerbaijan:  LOGGING EQUIPMENT BASE LOCATION
 COMP.     BP Exploration (Caspian Sea) Ltd:  COMPANY
 WTYP.                Deviated:  WELL TYPE
 SON .        AZ-XX-0906344804:  JOB NUMBER
 FTOP.          Formation Tops:  FORM TOPS DESC
 ILTD.               Lithology:  INTERP LTH DESC
 SVYD.                  Survey:  SURVEY DESC
 DMOD.             Drill Model:  DRILL MOD DESC
 HPTY.       Minimum Curvature:  HOLE POS TYPE
 NREF.                    Grid:  NORTH REFERENCE
 SPUD.               01-Jan-20:  SPUD DATE
 DATE.      00.59.44 15-Sep-20:  END TIME
 STIM.      12.00.00 12-Jun-20:  START TIME
 DMF .             Drill Floor:  DRILL MEAS FROM
 DFST.                        :  DIST FSL TEXT
 DFWT.                        :  DIST FWL TEXT
 API .                        :  API NUMBER
 CNTY.                        :  COUNTY
 UWI .                        :  UNIQUE WELL IDENTIFIER
 LOC .                        :  LOCATION
 LMF .             Drill Floor:  LOG MEASURED FROM
 VSNS.m                   2.88:  VERT SEC N/S
 VSEW.m                  -3.84:  VERT SEC E/W
 AGAP.m                  43.42:  AIR GAP
 APD .m                  43.42:  DEPTH ABOVE PD
 WDMS.m                 118.27:  WD ELEV
 EGL .m                   0.00:  GROUND ELEVATION
 EPD .m                   0.00:  ELEVATION
 AZTC.deg                 6.23:  AZM TOTAL CORR
 GRDC.deg                 0.20:  GRID CORRECTION
 MDEC.deg                 6.43:  MAGNETIC DECL
 MDIP.deg                59.49:  MAGNETIC DIP
 MFLD.nT              50277.00:  MAGNETIC FIELD
 GVFD.g                   1.00:  GRAVITY FIELD
 VSDR.deg               173.20:  VERT SEC DIRECT
 TDD .m                5790.01:  TOTAL DEPTH (DRILLER)
 SDEP.m                5231.01:  START DEPTH
 DFSL.m                   0.00:  DISTANCE FSL
 DFWL.m                   0.00:  DISTANCE FWL
 UTMY.m             4435808.83:  UTM Y
 UTMX.m              526266.40:  UTM X
 WHEW.m                  -3.84:  WELL HEAD E/W
 WHNS.m                   2.88:  WELL HEAD N/S
 LONG.deg                51.31:  LONGITUDE
 LATI.deg                40.06:  LATITUDE
 TVDS.m                  43.42:  TVDSS CORRECTN
 DEP .m                 430.08:  DEPTH
 EKB .m                  43.42:  KB ELEVATION
 EDF .m                  43.42:  DF ELEVATION
 TDL .m                 559.00:  TOTAL DEPTH (LOGGER)
 MAGU.                 1849381:  MAGUTM CHECKSUM
 VSC .                       0:  VS TO CLOSURE
~Parameter Information Block
#MNEM.UNIT       Value        Description
#---------     -----------    ---------------------------
 AV  .mps                 4.87:  Ann Velocity 
 AVMX.mps                 7.08:  Max Ann Veloc 
 AZIF.deg               108.87:  Azm, Final 
 BHAT.                  Rotary:  BHA Type 
 BROT.°/30m               0.35:  Build Rotating 
 BS  .in                  8.50:  Bit Size 
 BSZ .in                  8.50:  Bit Size 
 BTPL.psig              360.00:  Bit Press Loss 
 CABU.                     Yes:  Customer Abuse 
 COMM.                     \¸P:  Run Comments 1 
 TCS .hr                106.24:  Time Ciculation Ended 
 CV  .mps                 1.77:  Crit Velocity 
 CVMX.mps                 2.03:  Max Crit Veloc 
 DD1 .         Aykhan Agagulov:  Direct Drillr 1 
 DD2 .            Nonso Okofor:  Direct Drillr 2 
 DDSV.               Geo-Pilot:  DD Service 
 DEFF.%                  98.00:  % Det Eff 
 DLRX.°/30m               0.50:  Dogleg Rot Max 
 DLSO.°/30m               0.40:  Dogleg Oriented 
 DLSX.°/30m               0.94:  Dogleg Str Max 
 DRET.      20.30.00 08-Sep-20:  Drill End Time 
 DRST.      22.15.00 06-Sep-20:  Drill Start Tim 
 DTIM.hr                 31.31:  Time Drilling 
 EDEP.m                5790.01:  End Depth 
 ENG1.           Amrah Tahirov:  Engineer 1 
 ENG2.         Dair Mahammadov:  Engineer 2 
 ENG3.           Emil Huseynov:  Engineer 3 
 ETIM.      04.01.04 12-Sep-20:  End Time 
 FLOI.gpm               450.00:  Flow In 
 FLON.gpm               450.00:  Flow In Min 
 FLOS.cptm                2.00:  Fluid Loss 
 FLOX.gpm               450.00:  Flow In Max 
 FTRO.       Formation Presure:  FTWD Run Obj 
 HFLO.                      No:  High Flow 
 HPRE.                      No:  High Pressure 
 HTEM.                      No:  High Temp 
 HYDO.m                   1.80:  Hydro Offset 
 IFIN.deg                72.03:  Inc, Final 
 IMAX.deg                73.72:  Inc Max 
 IMIN.deg                70.94:  Inc Min 
 IMND.m                5508.52:  Inc Min Depth 
 IMXD.m                5253.60:  Inc Max Depth 
 JARR.                      No:  Jarring 
 LETM.      20.30.00 08-Sep-20:  Log End Time 
 LOST.hr                     0:  Lost Rig Time 
 LSTM.      22.15.00 06-Sep-20:  Log Start Time 
 MDCL.ppm             36000.00:  Mud Chlorides 
 MDES.     Inversion Oil/Synthetic:  Mud Desc 
 DFD .sg                  1.44:  Mud Density 
 MDMN.sg                  1.44:  Dens Mud Min 
 MDMX.sg                  1.57:  Dens Mud Max 
 MOIL.                      70:  Run Mud Oil % 
 MOWR.                   70:30:  Run Mud OWR 
 MSND.                       0:  Run Mud Sand % 
 MSOL.                      21:  Run Mud Solids% 
 DFV .spqt               68.00:  Mud Viscosity 
 MWOD.in                  6.75:  MWD Tool OD 
 MWSI.                     Yes:  Serv Intrp, MWD 
 OTIM.hr                174.84:  Time Operating 
 PCON.           Look Like New:  Pad Condition 
 PMAX.psia            10616.93:  Press Op, Max 
 PV  .cP                 50.00:  Mud PV 
 RUN .                     700:  Run Number 
 ROPA.m/hr               14.24:  ROP Avg 
 ROPN.m/hr               10.00:  ROP Min 
 ROPX.m/hr               32.00:  ROP Max 
 RPMA.rpm               120.90:  RPM Surface Avg 
 RPMN.rpm               120.00:  RPM Surface Min 
 RPMX.rpm               140.00:  RPM Surface Max 
 RRUN.                    0700:  Rig Run Number 
 RTIM.hr                  3.20:  Time Reaming 
 SAZI.deg               109.99:  Azm, Start 
 SDEP.m                5231.01:  Start Depth 
 SIDD.                      No:  Serv Intrp, DD 
 SINC.deg                73.72:  Inc, Start 
 SPPA.psig             3051.00:  SPP Avg 
 SPPN.psig             2950.00:  SPP Min 
 SPPX.psig             3250.00:  SPP Max 
 STIM.      08.00.00 05-Sep-20:  Start Time 
 SVCS.                 DD, MWD:  Services 
 SVER.                    9.20:  Sperry Version 
 TDAT.m                 559.00:  Tot Depth Attmp 
 TDDF.                      No:  Trip for DD 
 TDLG.m                 559.00:  Tot Depth Loggd 
 TFF .                      No:  Trip for Fail 
 TQAA.f-kp               26.49:  Torque Abs Avg 
 TQAN.f-kp               25.00:  Torque Abs Min 
 TQAX.f-kp               27.00:  Torque Abs Max 
 TRRT.°/30m               1.50:  Turn Rotating 
 MRT .                    HCIM:  Maximum Recorded Temperature 
 TTMX.degC               90.20:  Max Tool Temp 
 VS01.                90542671:  Virtual Str1 SN 
 VS02.                90545185:  Virtual Str2 SN 
 VS03.                90602015:  Virtual Str3 SN 
 VS04.                90515230:  Virtual Str4 SN 
 WBMN.klb                 5.00:  WOB Min 
 WOBA.klb                14.79:  WOB Avg 
 WOBX.klb                20.00:  WOB Max 
 YP  .lhf2               29.00:  Yield Point 
~Curve Information Block
#MNEM.UNIT                 API CODE     Curve Description
#---------               -----------    ---------------------------
 TIME.HHMMSS            00 000 000 000:  GT Time & Date
 GTDEPTH.m              00 000 000 000:  GT Depth
 GTPQH.psia             00 000 000 000:  GT HR Quartz Pressure
 GTTQ.degC              00 000 000 000:  GT Quartz Temperature
 GTTN.NONE              00 000 000 000:  GT Test Number
 GTET.sec               00 000 000 000:  GT Elapsed Test Time
 GTTVD.m                00 000 000 000:  GT True Vertical Depth
#Other Information
#
#WARRANTY: Halliburton will use its best efforts to furnish customers with 
#accurate information and interpretations that are part of, and incident to, the services 
#provided.  However, Halliburton cannot and does not warrant the accuracy 
#or correctness of such information and interpretations.  Under no circumstances should any 
#such information or interpretation be relied upon as the sole basis for any drilling, 
#completion, production, or financial decision or any procedure involving any risk to the 
#safety of any drilling venture, drilling rig or its crew or any other third party.  The 
#Customer has full responsibility for all drilling, completion and production operation.  
#Halliburton makes no representations or warranties, either expressed or 
#implied, including, but not limited to, the implied warranties of merchantability or fitness 
#for a particular purpose, with respect to the services rendered.  In no event will 
#Halliburton be liable for failure to obtain any particular results or for 
#any damages, including, but not limited to, indirect, special or consequential damages, 
#resulting from the use of any information or interpretation provided by Halliburton.
#
~A           TIME           GTDEPTH  GTPQH  GTTQ  GTTN  GTET   GTTVD  
# ...
   08:40:26.942.09-Sep-2020 5524.01 6469.02 77.56 6.00 368.15 2626.56
   08:40:27.142.09-Sep-2020 5524.01 6469.02 77.56 6.00 368.35 2626.56
   08:40:27.342.09-Sep-2020 5524.01 6469.91 77.57 6.00 368.55 2626.56
   08:40:27.542.09-Sep-2020 5524.01 6470.07 77.57 6.00 368.75 2626.56
   08:40:27.742.09-Sep-2020 5524.01 6469.71 77.57 6.00 368.95 2626.56
   08:40:27.942.09-Sep-2020 5524.01 6469.57 77.57 6.00 369.15 2626.56
   08:40:28.142.09-Sep-2020 5524.01 6469.57 77.57 6.00 369.35 2626.56
   08:40:28.343.09-Sep-2020 5524.01 6469.72 77.58 6.00 369.55 2626.56
   08:40:28.543.09-Sep-2020 5524.01 6469.91 77.58 6.00 369.75 2626.56
   08:40:28.743.09-Sep-2020 5524.01 6471.27 77.58 6.00 369.95 2626.56
   08:40:28.943.09-Sep-2020 5524.01 6475.79 77.58 6.00 370.15 2626.56
   08:40:29.143.09-Sep-2020 5524.01 6475.79 77.58 6.00 370.35 2626.56
   08:40:29.343.09-Sep-2020 5524.01 6471.85 77.59 6.00 370.55 2626.56
   08:40:29.543.09-Sep-2020 5524.01 6474.01 77.59 6.00 370.75 2626.56
   08:40:29.743.09-Sep-2020 5524.01 6469.88 77.59 6.00 370.95 2626.56
   08:40:29.943.09-Sep-2020 5524.01 6471.35 77.59 6.00 371.15 2626.56
   08:40:30.143.09-Sep-2020 5524.01 6471.35 77.60 6.00 371.35 2626.56
   08:40:30.343.09-Sep-2020 5524.01 6471.30 77.60 6.00 371.55 2626.56
   08:40:30.543.09-Sep-2020 5524.01 6470.27 77.60 6.00 371.75 2626.56
   08:40:30.744.09-Sep-2020 5524.01 6470.54 77.60 6.00 371.95 2626.56
   08:40:30.944.09-Sep-2020 5524.01 6470.27 77.60 6.00 372.15 2626.56
   08:40:31.144.09-Sep-2020 5524.01 6469.57 77.61 6.00 372.35 2626.56
   08:40:31.344.09-Sep-2020 5524.01 6469.38 77.61 6.00 372.55 2626.56
   08:40:31.544.09-Sep-2020 5524.01 6469.20 77.61 6.00 372.75 2626.56
   08:40:31.744.09-Sep-2020 5524.01 6469.56 77.61 6.00 372.95 2626.56
   08:40:31.944.09-Sep-2020 5524.01 6469.81 77.61 6.00 373.15 2626.56
   08:40:32.144.09-Sep-2020 5524.01 6469.81 77.61 6.00 373.35 2626.56
   08:40:32.344.09-Sep-2020 5524.01 6462.81 77.61 6.00 373.55 2626.56
   08:40:32.544.09-Sep-2020 5524.01 6469.32 77.61 6.00 373.75 2626.56
   08:40:32.744.09-Sep-2020 5524.01 6471.73 77.61 6.00 373.95 2626.56
   08:40:32.944.09-Sep-2020 5524.01 6469.64 77.62 6.00 374.15 2626.56
   08:40:33.144.09-Sep-2020 5524.01 6469.64 77.62 6.00 374.35 2626.56
   08:40:33.345.09-Sep-2020 5524.01 6475.90 77.62 6.00 374.55 2626.56
   08:40:33.545.09-Sep-2020 5524.01 6466.81 77.62 6.00 374.75 2626.56
   08:40:33.745.09-Sep-2020 5524.01 6469.28 77.62 6.00 374.95 2626.56
   08:40:33.945.09-Sep-2020 5524.01 6472.04 77.62 6.00 375.15 2626.56
   08:40:34.145.09-Sep-2020 5524.01 6472.04 77.62 6.00 375.35 2626.56
   08:40:34.345.09-Sep-2020 5524.01 6478.64 77.62 6.00 375.55 2626.56
   08:40:34.545.09-Sep-2020 5524.01 6466.09 77.62 6.00 375.75 2626.56
   08:40:34.745.09-Sep-2020 5524.01 6470.86 77.62 6.00 375.95 2626.56
   08:40:34.945.09-Sep-2020 5524.01 6472.33 77.62 6.00 376.15 2626.56
   08:40:35.145.09-Sep-2020 5524.01 6469.43 77.62 6.00 376.35 2626.56
   08:40:35.345.09-Sep-2020 5524.01 6471.28 77.62 6.00 376.55 2626.56
   08:40:35.545.09-Sep-2020 5524.01 6469.15 77.62 6.00 376.75 2626.56
   08:40:35.746.09-Sep-2020 5524.01 6478.34 77.62 6.00 376.95 2626.56
   08:40:35.946.09-Sep-2020 5524.01 6467.62 77.62 6.00 377.15 2626.56
   08:40:36.146.09-Sep-2020 5524.01 6467.62 77.62 6.00 377.35 2626.56
   08:40:36.346.09-Sep-2020 5524.01 6472.69 77.62 6.00 377.55 2626.56
   08:40:36.546.09-Sep-2020 5524.01 6472.61 77.62 6.00 377.75 2626.56
   08:40:36.746.09-Sep-2020 5524.01 6475.49 77.62 6.00 377.95 2626.56
   08:40:36.946.09-Sep-2020 5524.01 6468.56 77.62 6.00 378.15 2626.56
   08:40:37.146.09-Sep-2020 5524.01 6468.56 77.62 6.00 378.35 2626.56
   08:40:37.346.09-Sep-2020 5524.01 6474.55 77.62 6.00 378.55 2626.56
   08:40:37.546.09-Sep-2020 5524.01 6474.55 77.62 6.00 378.75 2626.56
   08:40:37.746.09-Sep-2020 5524.01 6471.41 77.62 6.00 378.95 2626.56
   08:40:37.946.09-Sep-2020 5524.01 6471.06 77.62 6.00 379.15 2626.56
   08:40:38.146.09-Sep-2020 5524.01 6471.06 77.62 6.00 379.35 2626.56
   08:40:38.347.09-Sep-2020 5524.01 6470.53 77.62 6.00 379.55 2626.56
   08:40:38.547.09-Sep-2020 5524.01 6470.82 77.62 6.00 379.75 2626.56
   08:40:38.747.09-Sep-2020 5524.01 6471.16 77.62 6.00 379.95 2626.56
   08:40:38.947.09-Sep-2020 5524.01 6471.06 77.62 6.00 380.15 2626.56
   08:40:39.147.09-Sep-2020 5524.01 6470.99 77.62 6.00 380.35 2626.56
   08:40:39.347.09-Sep-2020 5524.01 6470.34 77.62 6.00 380.55 2626.56
   08:40:39.547.09-Sep-2020 5524.01 6470.14 77.62 6.00 380.75 2626.56
   08:40:39.747.09-Sep-2020 5524.01 6469.93 77.62 6.00 380.95 2626.56
   08:40:39.947.09-Sep-2020 5524.01 6469.98 77.62 6.00 381.15 2626.56
   08:40:40.147.09-Sep-2020 5524.01 6469.98 77.62 6.00 381.35 2626.56
   08:40:40.347.09-Sep-2020 5524.01 6482.22 77.62 6.00 381.55 2626.56
   08:40:40.547.09-Sep-2020 5524.01 6464.17 77.62 6.00 381.75 2626.56
   08:40:40.747.09-Sep-2020 5524.01 6470.58 77.62 6.00 381.95 2626.56
   08:40:40.948.09-Sep-2020 5524.01 6473.25 77.62 6.00 382.15 2626.56
   08:40:41.148.09-Sep-2020 5524.01 6473.25 77.62 6.00 382.35 2626.56
   08:40:41.348.09-Sep-2020 5524.01 6471.56 77.62 6.00 382.55 2626.56
   08:40:41.548.09-Sep-2020 5524.01 6469.93 77.62 6.00 382.75 2626.56
   08:40:41.748.09-Sep-2020 5524.01 6471.69 77.62 6.00 382.95 2626.56
   08:40:41.948.09-Sep-2020 5524.01 6470.48 77.62 6.00 383.15 2626.56
   08:40:42.148.09-Sep-2020 5524.01 6470.48 77.62 6.00 383.35 2626.56
   08:40:42.348.09-Sep-2020 5524.01 6470.89 77.62 6.00 383.55 2626.56
   08:40:42.548.09-Sep-2020 5524.01 6470.24 77.62 6.00 383.75 2626.56
   08:40:42.748.09-Sep-2020 5524.01 6469.65 77.62 6.00 383.95 2626.56
   08:40:42.948.09-Sep-2020 5524.01 6469.40 77.62 6.00 384.15 2626.56
   08:40:43.148.09-Sep-2020 5524.01 6469.23 77.62 6.00 384.35 2626.56
   08:40:43.349.09-Sep-2020 5524.01 6469.59 77.62 6.00 384.55 2626.56
   08:40:43.549.09-Sep-2020 5524.01 6469.69 77.62 6.00 384.75 2626.56
   08:40:43.749.09-Sep-2020 5524.01 6476.79 77.62 6.00 384.95 2626.56
   08:40:43.949.09-Sep-2020 5524.01 6467.38 77.62 6.00 385.15 2626.56
   08:40:44.149.09-Sep-2020 5524.01 6467.38 77.62 6.00 385.35 2626.56
   08:40:44.349.09-Sep-2020 5524.01 6471.57 77.62 6.00 385.55 2626.56
   08:40:44.549.09-Sep-2020 5524.01 6470.78 77.62 6.00 385.75 2626.56
   08:40:44.749.09-Sep-2020 5524.01 6468.63 77.62 6.00 385.95 2626.56
   08:40:44.949.09-Sep-2020 5524.01 6480.51 77.62 6.00 386.15 2626.56
   08:40:45.149.09-Sep-2020 5524.01 6480.51 77.62 6.00 386.35 2626.56
   08:40:45.349.09-Sep-2020 5524.01 6469.29 77.62 6.00 386.55 2626.56
   08:40:45.549.09-Sep-2020 5524.01 6471.46 77.62 6.00 386.75 2626.56
   08:40:45.749.09-Sep-2020 5524.01 6481.56 77.62 6.00 386.95 2626.56
   08:40:45.950.09-Sep-2020 5524.01 6463.95 77.62 6.00 387.15 2626.56
   08:40:46.150.09-Sep-2020 5524.01 6463.95 77.62 6.00 387.35 2626.56
   08:40:46.350.09-Sep-2020 5524.01 6472.59 77.62 6.00 387.55 2626.56
   08:40:46.550.09-Sep-2020 5524.01 6469.90 77.62 6.00 387.75 2626.56
   08:40:46.750.09-Sep-2020 5524.01 6470.27 77.61 6.00 387.95 2626.56
   08:40:46.950.09-Sep-2020 5524.01 6468.71 77.61 6.00 388.15 2626.56
   08:40:47.150.09-Sep-2020 5524.01 6468.71 77.61 6.00 388.35 2626.56
   08:40:47.350.09-Sep-2020 5524.01 6465.86 77.61 6.00 388.55 2626.56
   08:40:47.550.09-Sep-2020 5524.01 6469.59 77.61 6.00 388.75 2626.56
   08:40:47.750.09-Sep-2020 5524.01 6472.90 77.61 6.00 388.95 2626.56
   08:40:47.950.09-Sep-2020 5524.01 6469.73 77.61 6.00 389.15 2626.56
   08:40:48.150.09-Sep-2020 5524.01 6469.73 77.61 6.00 389.35 2626.56
   08:40:48.350.09-Sep-2020 5524.01 6469.57 77.61 6.00 389.55 2626.56
   08:40:48.551.09-Sep-2020 5524.01 6472.09 77.61 6.00 389.75 2626.56
   08:40:48.751.09-Sep-2020 5524.01 6475.27 77.61 6.00 389.95 2626.56
   08:40:48.951.09-Sep-2020 5524.01 6468.82 77.61 6.00 390.15 2626.56
   08:40:49.151.09-Sep-2020 5524.01 6468.82 77.61 6.00 390.35 2626.56
   08:40:49.351.09-Sep-2020 5524.01 6473.83 77.61 6.00 390.55 2626.56
   08:40:49.551.09-Sep-2020 5524.01 6469.94 77.61 6.00 390.75 2626.56
   08:40:49.751.09-Sep-2020 5524.01 6471.32 77.61 6.00 390.95 2626.56
