~Version Information
 VERS.                  2.0:   CWLS log ASCII Standard -VERSION 2.0
 WRAP.                   NO:   One line per depth step
~Well Information Block
#MNEM.UNIT     VALUE/NAME     DESCRIPTION
#---------     -----------    ---------------------------
 STRT.S             20:00:32 09-Sep-20: START TIME 20:00:32 09-Sep-20
 STOP.S             20:08:52 09-Sep-20: STOP TIME  20:08:52 09-Sep-20
 STEP.S                   0.00: STEP TIME
 NULL.                 -999.25: NULL VALUE
 MDS .        Operator Entered:  MAG DATA SOURCE
 PDAT.          Mean Sea Level:  PERMANENT DATUM
 DCON.         Sperry Drilling:  DIRECTNL CONTR
 RIG .              West Azeri:  RIG NAME
 WELL.           C40 (Slot 20):  WELL NAME
 SRVC.     Turan Drilling Engineering:  CONTRACTOR
 FLD .                     ACG:  FIELD NAME
 CTRY.              Azerbaijan:  COUNTRY NAME
 PROV.                    Baku:  PROVINCE
 STAT.                    Baku:  STATE NAME
 REGN.                   EESSA:  REGION
 BASE.              Azerbaijan:  LOGGING EQUIPMENT BASE LOCATION
 COMP.     BP Exploration (Caspian Sea) Ltd:  COMPANY
 WTYP.                Deviated:  WELL TYPE
 SON .        AZ-XX-0906344804:  JOB NUMBER
 FTOP.          Formation Tops:  FORM TOPS DESC
 ILTD.               Lithology:  INTERP LTH DESC
 SVYD.                  Survey:  SURVEY DESC
 DMOD.             Drill Model:  DRILL MOD DESC
 HPTY.       Minimum Curvature:  HOLE POS TYPE
 NREF.                    Grid:  NORTH REFERENCE
 SPUD.               01-Jan-20:  SPUD DATE
 DATE.      00.59.44 15-Sep-20:  END TIME
 STIM.      12.00.00 12-Jun-20:  START TIME
 DMF .             Drill Floor:  DRILL MEAS FROM
 DFST.                        :  DIST FSL TEXT
 DFWT.                        :  DIST FWL TEXT
 API .                        :  API NUMBER
 CNTY.                        :  COUNTY
 UWI .                        :  UNIQUE WELL IDENTIFIER
 LOC .                        :  LOCATION
 LMF .             Drill Floor:  LOG MEASURED FROM
 VSNS.m                   2.88:  VERT SEC N/S
 VSEW.m                  -3.84:  VERT SEC E/W
 AGAP.m                  43.42:  AIR GAP
 APD .m                  43.42:  DEPTH ABOVE PD
 WDMS.m                 118.27:  WD ELEV
 EGL .m                   0.00:  GROUND ELEVATION
 EPD .m                   0.00:  ELEVATION
 AZTC.deg                 6.23:  AZM TOTAL CORR
 GRDC.deg                 0.20:  GRID CORRECTION
 MDEC.deg                 6.43:  MAGNETIC DECL
 MDIP.deg                59.49:  MAGNETIC DIP
 MFLD.nT              50277.00:  MAGNETIC FIELD
 GVFD.g                   1.00:  GRAVITY FIELD
 VSDR.deg               173.20:  VERT SEC DIRECT
 TDD .m                5790.01:  TOTAL DEPTH (DRILLER)
 SDEP.m                5231.01:  START DEPTH
 DFSL.m                   0.00:  DISTANCE FSL
 DFWL.m                   0.00:  DISTANCE FWL
 UTMY.m             4435808.83:  UTM Y
 UTMX.m              526266.40:  UTM X
 WHEW.m                  -3.84:  WELL HEAD E/W
 WHNS.m                   2.88:  WELL HEAD N/S
 LONG.deg                51.31:  LONGITUDE
 LATI.deg                40.06:  LATITUDE
 TVDS.m                  43.42:  TVDSS CORRECTN
 DEP .m                 430.08:  DEPTH
 EKB .m                  43.42:  KB ELEVATION
 EDF .m                  43.42:  DF ELEVATION
 TDL .m                 559.00:  TOTAL DEPTH (LOGGER)
 MAGU.                 1849381:  MAGUTM CHECKSUM
 VSC .                       0:  VS TO CLOSURE
~Parameter Information Block
#MNEM.UNIT       Value        Description
#---------     -----------    ---------------------------
 AV  .mps                 4.87:  Ann Velocity 
 AVMX.mps                 7.08:  Max Ann Veloc 
 AZIF.deg               108.87:  Azm, Final 
 BHAT.                  Rotary:  BHA Type 
 BROT.°/30m               0.35:  Build Rotating 
 BS  .in                  8.50:  Bit Size 
 BSZ .in                  8.50:  Bit Size 
 BTPL.psig              360.00:  Bit Press Loss 
 CABU.                     Yes:  Customer Abuse 
 TCS .hr                106.24:  Time Ciculation Ended 
 CV  .mps                 1.77:  Crit Velocity 
 CVMX.mps                 2.03:  Max Crit Veloc 
 DD1 .         Aykhan Agagulov:  Direct Drillr 1 
 DD2 .            Nonso Okofor:  Direct Drillr 2 
 DDSV.               Geo-Pilot:  DD Service 
 DEFF.%                  98.00:  % Det Eff 
 DLRX.°/30m               0.50:  Dogleg Rot Max 
 DLSO.°/30m               0.40:  Dogleg Oriented 
 DLSX.°/30m               0.94:  Dogleg Str Max 
 DRET.      20.30.00 08-Sep-20:  Drill End Time 
 DRST.      22.15.00 06-Sep-20:  Drill Start Tim 
 DTIM.hr                 31.31:  Time Drilling 
 EDEP.m                5790.01:  End Depth 
 ENG1.           Amrah Tahirov:  Engineer 1 
 ENG2.         Dair Mahammadov:  Engineer 2 
 ENG3.           Emil Huseynov:  Engineer 3 
 ETIM.      04.01.04 12-Sep-20:  End Time 
 FLOI.gpm               450.00:  Flow In 
 FLON.gpm               450.00:  Flow In Min 
 FLOS.cptm                2.00:  Fluid Loss 
 FLOX.gpm               450.00:  Flow In Max 
 FTRO.       Formation Presure:  FTWD Run Obj 
 HFLO.                      No:  High Flow 
 HPRE.                      No:  High Pressure 
 HTEM.                      No:  High Temp 
 HYDO.m                   1.80:  Hydro Offset 
 IFIN.deg                72.03:  Inc, Final 
 IMAX.deg                73.72:  Inc Max 
 IMIN.deg                70.94:  Inc Min 
 IMND.m                5508.52:  Inc Min Depth 
 IMXD.m                5253.60:  Inc Max Depth 
 JARR.                      No:  Jarring 
 LETM.      20.30.00 08-Sep-20:  Log End Time 
 LOST.hr                     0:  Lost Rig Time 
 LSTM.      22.15.00 06-Sep-20:  Log Start Time 
 MDCL.ppm             36000.00:  Mud Chlorides 
 MDES.     Inversion Oil/Synthetic:  Mud Desc 
 DFD .sg                  1.44:  Mud Density 
 MDMN.sg                  1.44:  Dens Mud Min 
 MDMX.sg                  1.57:  Dens Mud Max 
 MOIL.                      70:  Run Mud Oil % 
 MOWR.                   70:30:  Run Mud OWR 
 MSND.                       0:  Run Mud Sand % 
 MSOL.                      21:  Run Mud Solids% 
 DFV .spqt               68.00:  Mud Viscosity 
 MWOD.in                  6.75:  MWD Tool OD 
 MWSI.                     Yes:  Serv Intrp, MWD 
 OTIM.hr                174.84:  Time Operating 
 PCON.           Look Like New:  Pad Condition 
 PMAX.psia            10616.93:  Press Op, Max 
 PV  .cP                 50.00:  Mud PV 
 RUN .                     700:  Run Number 
 ROPA.m/hr               14.24:  ROP Avg 
 ROPN.m/hr               10.00:  ROP Min 
 ROPX.m/hr               32.00:  ROP Max 
 RPMA.rpm               120.90:  RPM Surface Avg 
 RPMN.rpm               120.00:  RPM Surface Min 
 RPMX.rpm               140.00:  RPM Surface Max 
 RRUN.                    0700:  Rig Run Number 
 RTIM.hr                  3.20:  Time Reaming 
 SAZI.deg               109.99:  Azm, Start 
 SDEP.m                5231.01:  Start Depth 
 SIDD.                      No:  Serv Intrp, DD 
 SINC.deg                73.72:  Inc, Start 
 SPPA.psig             3051.00:  SPP Avg 
 SPPN.psig             2950.00:  SPP Min 
 SPPX.psig             3250.00:  SPP Max 
 STIM.      08.00.00 05-Sep-20:  Start Time 
 SVCS.                 DD, MWD:  Services 
 SVER.                    9.20:  Sperry Version 
 TDAT.m                 559.00:  Tot Depth Attmp 
 TDDF.                      No:  Trip for DD 
 TDLG.m                 559.00:  Tot Depth Loggd 
 TFF .                      No:  Trip for Fail 
 TQAA.f-kp               26.49:  Torque Abs Avg 
 TQAN.f-kp               25.00:  Torque Abs Min 
 TQAX.f-kp               27.00:  Torque Abs Max 
 TRRT.°/30m               1.50:  Turn Rotating 
 MRT .                    HCIM:  Maximum Recorded Temperature 
 TTMX.degC               90.20:  Max Tool Temp 
 VS01.                90542671:  Virtual Str1 SN 
 VS02.                90545185:  Virtual Str2 SN 
 VS03.                90602015:  Virtual Str3 SN 
 VS04.                90515230:  Virtual Str4 SN 
 WBMN.klb                 5.00:  WOB Min 
 WOBA.klb                14.79:  WOB Avg 
 WOBX.klb                20.00:  WOB Max 
 YP  .lhf2               29.00:  Yield Point 
~Curve Information Block
#MNEM.UNIT                 API CODE     Curve Description
#---------               -----------    ---------------------------
 TIME.HHMMSS            00 000 000 000:  GT Time & Date
 GTDEPTH.m              00 000 000 000:  GT Depth
 GTPQH.psia             00 000 000 000:  GT HR Quartz Pressure
 GTTQ.degC              00 000 000 000:  GT Quartz Temperature
 GTTN.NONE              00 000 000 000:  GT Test Number
 GTET.sec               00 000 000 000:  GT Elapsed Test Time
 GTTVD.m                00 000 000 000:  GT True Vertical Depth
#Other Information
#
#WARRANTY: Halliburton will use its best efforts to furnish customers with 
#accurate information and interpretations that are part of, and incident to, the services 
#provided.  However, Halliburton cannot and does not warrant the accuracy 
#or correctness of such information and interpretations.  Under no circumstances should any 
#such information or interpretation be relied upon as the sole basis for any drilling, 
#completion, production, or financial decision or any procedure involving any risk to the 
#safety of any drilling venture, drilling rig or its crew or any other third party.  The 
#Customer has full responsibility for all drilling, completion and production operation.  
#Halliburton makes no representations or warranties, either expressed or 
#implied, including, but not limited to, the implied warranties of merchantability or fitness 
#for a particular purpose, with respect to the services rendered.  In no event will 
#Halliburton be liable for failure to obtain any particular results or for 
#any damages, including, but not limited to, indirect, special or consequential damages, 
#resulting from the use of any information or interpretation provided by Halliburton.
#
~A           TIME           GTDEPTH  GTPQH  GTTQ  GTTN   GTET   GTTVD  
# ...
   20:08:26.888.09-Sep-2020 5259.51 6302.76 74.16 24.00 474.82 2544.41
   20:08:27.088.09-Sep-2020 5259.51 6300.64 74.16 24.00 475.02 2544.41
   20:08:27.288.09-Sep-2020 5259.51 6300.81 74.16 24.00 475.22 2544.41
   20:08:27.488.09-Sep-2020 5259.51 6300.81 74.16 24.00 475.42 2544.41
   20:08:27.688.09-Sep-2020 5259.51 6300.01 74.16 24.00 475.62 2544.41
   20:08:27.889.09-Sep-2020 5259.51 6299.74 74.16 24.00 475.82 2544.41
   20:08:28.089.09-Sep-2020 5259.51 6299.39 74.16 24.00 476.02 2544.41
   20:08:28.289.09-Sep-2020 5259.51 6299.23 74.16 24.00 476.22 2544.41
   20:08:28.489.09-Sep-2020 5259.51 6299.23 74.16 24.00 476.42 2544.41
   20:08:28.689.09-Sep-2020 5259.51 6299.55 74.16 24.00 476.62 2544.41
   20:08:28.889.09-Sep-2020 5259.51 6299.51 74.16 24.00 476.82 2544.41
   20:08:29.089.09-Sep-2020 5259.51 6299.64 74.16 24.00 477.02 2544.41
   20:08:29.289.09-Sep-2020 5259.51 6299.47 74.16 24.00 477.22 2544.41
   20:08:29.489.09-Sep-2020 5259.51 6299.47 74.16 24.00 477.42 2544.41
   20:08:29.689.09-Sep-2020 5259.51 6297.03 74.16 24.00 477.62 2544.41
   20:08:29.890.09-Sep-2020 5259.51 6300.55 74.16 24.00 477.82 2544.41
   20:08:30.090.09-Sep-2020 5259.51 6299.84 74.16 24.00 478.02 2544.41
   20:08:30.290.09-Sep-2020 5259.51 6299.96 74.16 24.00 478.22 2544.41
   20:08:30.490.09-Sep-2020 5259.51 6299.96 74.16 24.00 478.42 2544.41
   20:08:30.690.09-Sep-2020 5259.51 6302.91 74.16 24.00 478.62 2544.41
   20:08:30.890.09-Sep-2020 5259.51 6299.47 74.16 24.00 478.82 2544.41
   20:08:31.090.09-Sep-2020 5259.51 6299.16 74.16 24.00 479.02 2544.41
   20:08:31.290.09-Sep-2020 5259.51 6298.52 74.16 24.00 479.22 2544.41
   20:08:31.490.09-Sep-2020 5259.51 6298.80 74.16 24.00 479.42 2544.41
   20:08:31.690.09-Sep-2020 5259.51 6298.72 74.16 24.00 479.62 2544.41
   20:08:31.890.09-Sep-2020 5259.51 6299.07 74.16 24.00 479.82 2544.41
   20:08:32.091.09-Sep-2020 5259.51 6299.10 74.16 24.00 480.02 2544.41
   20:08:32.291.09-Sep-2020 5259.51 6298.29 74.16 24.00 480.22 2544.41
   20:08:32.491.09-Sep-2020 5259.51 6298.29 74.16 24.00 480.42 2544.41
   20:08:32.691.09-Sep-2020 5259.51 6298.37 74.16 24.00 480.62 2544.41
   20:08:32.891.09-Sep-2020 5259.51 6307.33 74.16 24.00 480.82 2544.41
   20:08:33.091.09-Sep-2020 5259.51 6296.70 74.16 24.00 481.02 2544.41
   20:08:33.291.09-Sep-2020 5259.51 6300.63 74.16 24.00 481.22 2544.41
   20:08:33.491.09-Sep-2020 5259.51 6299.44 74.16 24.00 481.42 2544.41
   20:08:33.691.09-Sep-2020 5259.51 6299.78 74.16 24.00 481.62 2544.41
   20:08:33.891.09-Sep-2020 5259.51 6303.03 74.16 24.00 481.82 2544.41
   20:08:34.091.09-Sep-2020 5259.51 6306.39 74.16 24.00 482.02 2544.41
   20:08:34.292.09-Sep-2020 5259.51 6299.40 74.16 24.00 482.22 2544.41
   20:08:34.492.09-Sep-2020 5259.51 6299.40 74.16 24.00 482.42 2544.41
   20:08:34.692.09-Sep-2020 5259.51 6299.02 74.16 24.00 482.62 2544.41
   20:08:34.892.09-Sep-2020 5259.51 6300.39 74.16 24.00 482.82 2544.41
   20:08:35.092.09-Sep-2020 5259.51 6300.38 74.16 24.00 483.02 2544.41
   20:08:35.292.09-Sep-2020 5259.51 6312.80 74.16 24.00 483.22 2544.41
   20:08:35.492.09-Sep-2020 5259.51 6295.67 74.16 24.00 483.42 2544.41
   20:08:35.692.09-Sep-2020 5259.51 6299.93 74.16 24.00 483.62 2544.41
   20:08:35.892.09-Sep-2020 5259.51 6299.01 74.16 24.00 483.82 2544.41
   20:08:36.092.09-Sep-2020 5259.51 6299.21 74.16 24.00 484.02 2544.41
   20:08:36.292.09-Sep-2020 5259.51 6304.02 74.16 24.00 484.22 2544.41
   20:08:36.493.09-Sep-2020 5259.51 6305.85 74.16 24.00 484.42 2544.41
   20:08:36.693.09-Sep-2020 5259.51 6299.41 74.16 24.00 484.62 2544.41
   20:08:36.893.09-Sep-2020 5259.51 6299.84 74.16 24.00 484.82 2544.41
   20:08:37.093.09-Sep-2020 5259.51 6299.82 74.16 24.00 485.02 2544.41
   20:08:37.293.09-Sep-2020 5259.51 6300.78 74.16 24.00 485.22 2544.41
   20:08:37.493.09-Sep-2020 5259.51 6300.78 74.16 24.00 485.42 2544.41
   20:08:37.693.09-Sep-2020 5259.51 6301.97 74.16 24.00 485.62 2544.41
   20:08:37.893.09-Sep-2020 5259.51 6309.23 74.15 24.00 485.82 2544.41
   20:08:38.093.09-Sep-2020 5259.51 6297.54 74.15 24.00 486.02 2544.41
   20:08:38.293.09-Sep-2020 5259.51 6300.95 74.15 24.00 486.22 2544.41
   20:08:38.493.09-Sep-2020 5259.51 6300.95 74.15 24.00 486.42 2544.41
   20:08:38.694.09-Sep-2020 5259.51 6300.97 74.15 24.00 486.62 2544.41
   20:08:38.894.09-Sep-2020 5259.51 6300.17 74.15 24.00 486.82 2544.41
   20:08:39.094.09-Sep-2020 5259.51 6303.63 74.15 24.00 487.02 2544.41
   20:08:39.294.09-Sep-2020 5259.51 6299.35 74.15 24.00 487.22 2544.41
   20:08:39.494.09-Sep-2020 5259.51 6299.35 74.15 24.00 487.42 2544.41
   20:08:39.694.09-Sep-2020 5259.51 6299.64 74.15 24.00 487.62 2544.41
   20:08:39.894.09-Sep-2020 5259.51 6300.32 74.15 24.00 487.82 2544.41
   20:08:40.094.09-Sep-2020 5259.51 6299.87 74.15 24.00 488.02 2544.41
   20:08:40.294.09-Sep-2020 5259.51 6299.85 74.15 24.00 488.23 2544.41
   20:08:40.494.09-Sep-2020 5259.51 6299.85 74.15 24.00 488.43 2544.41
   20:08:40.694.09-Sep-2020 5259.51 6299.60 74.15 24.00 488.63 2544.41
   20:08:40.895.09-Sep-2020 5259.51 6299.65 74.15 24.00 488.83 2544.41
   20:08:41.095.09-Sep-2020 5259.51 6299.47 74.15 24.00 489.03 2544.41
   20:08:41.295.09-Sep-2020 5259.51 6299.16 74.15 24.00 489.23 2544.41
   20:08:41.495.09-Sep-2020 5259.51 6309.59 74.15 24.00 489.43 2544.41
   20:08:41.695.09-Sep-2020 5259.51 6294.58 74.15 24.00 489.63 2544.41
   20:08:41.895.09-Sep-2020 5259.51 6300.18 74.15 24.00 489.83 2544.41
   20:08:42.095.09-Sep-2020 5259.51 6299.52 74.15 24.00 490.03 2544.41
   20:08:42.295.09-Sep-2020 5259.51 6299.07 74.15 24.00 490.23 2544.41
   20:08:42.495.09-Sep-2020 5259.51 6300.08 74.15 24.00 490.43 2544.41
   20:08:42.695.09-Sep-2020 5259.51 6300.97 74.15 24.00 490.63 2544.41
   20:08:42.896.09-Sep-2020 5259.51 6298.89 74.15 24.00 490.83 2544.41
   20:08:43.096.09-Sep-2020 5259.51 6298.53 74.15 24.00 491.03 2544.41
   20:08:43.296.09-Sep-2020 5259.51 6298.67 74.15 24.00 491.23 2544.41
   20:08:43.496.09-Sep-2020 5259.51 6298.87 74.15 24.00 491.43 2544.41
   20:08:43.696.09-Sep-2020 5259.51 6299.16 74.15 24.00 491.63 2544.41
   20:08:43.896.09-Sep-2020 5259.51 6298.04 74.15 24.00 491.83 2544.41
   20:08:44.096.09-Sep-2020 5259.51 6298.06 74.15 24.00 492.03 2544.41
   20:08:44.296.09-Sep-2020 5259.51 6298.10 74.15 24.00 492.23 2544.41
   20:08:44.496.09-Sep-2020 5259.51 6298.02 74.15 24.00 492.43 2544.41
   20:08:44.696.09-Sep-2020 5259.51 6298.31 74.15 24.00 492.63 2544.41
   20:08:44.896.09-Sep-2020 5259.51 6308.97 74.15 24.00 492.83 2544.41
   20:08:45.097.09-Sep-2020 5259.51 6293.73 74.15 24.00 493.03 2544.41
   20:08:45.297.09-Sep-2020 5259.51 6298.97 74.15 24.00 493.23 2544.41
   20:08:45.497.09-Sep-2020 5259.51 6298.97 74.15 24.00 493.43 2544.41
   20:08:45.697.09-Sep-2020 5259.51 6298.18 74.15 24.00 493.63 2544.41
   20:08:45.897.09-Sep-2020 5259.51 6299.76 74.15 24.00 493.83 2544.41
   20:08:46.097.09-Sep-2020 5259.51 6312.69 74.15 24.00 494.03 2544.41
   20:08:46.297.09-Sep-2020 5259.51 6292.81 74.15 24.00 494.23 2544.41
   20:08:46.497.09-Sep-2020 5259.51 6299.76 74.15 24.00 494.43 2544.41
   20:08:46.697.09-Sep-2020 5259.51 6299.03 74.15 24.00 494.63 2544.41
   20:08:46.897.09-Sep-2020 5259.51 6299.08 74.15 24.00 494.83 2544.41
   20:08:47.097.09-Sep-2020 5259.51 6300.01 74.15 24.00 495.03 2544.41
   20:08:47.298.09-Sep-2020 5259.51 6303.11 74.15 24.00 495.23 2544.41
   20:08:47.498.09-Sep-2020 5259.51 6307.68 74.15 24.00 495.43 2544.41
   20:08:47.698.09-Sep-2020 5259.51 6296.38 74.15 24.00 495.63 2544.41
   20:08:47.898.09-Sep-2020 5259.51 6299.81 74.15 24.00 495.83 2544.41
   20:08:48.098.09-Sep-2020 5259.51 6300.19 74.15 24.00 496.03 2544.41
   20:08:48.298.09-Sep-2020 5259.51 6300.32 74.15 24.00 496.23 2544.41
   20:08:48.498.09-Sep-2020 5259.51 6310.92 74.15 24.00 496.43 2544.41
   20:08:48.698.09-Sep-2020 5259.51 6297.47 74.15 24.00 496.63 2544.41
   20:08:48.898.09-Sep-2020 5259.51 6300.19 74.15 24.00 496.83 2544.41
   20:08:49.098.09-Sep-2020 5259.51 6299.73 74.15 24.00 497.03 2544.41
   20:08:49.298.09-Sep-2020 5259.51 6299.29 74.15 24.00 497.23 2544.41
