~Version Information
 VERS.                  2.0:   CWLS log ASCII Standard -VERSION 2.0
 WRAP.                   NO:   One line per depth step
~Well Information Block
#MNEM.UNIT     VALUE/NAME     DESCRIPTION
#---------     -----------    ---------------------------
 STRT.S             20:00:32 09-Sep-20: START TIME 20:00:32 09-Sep-20
 STOP.S             20:08:52 09-Sep-20: STOP TIME  20:08:52 09-Sep-20
 STEP.S                   0.00: STEP TIME
 NULL.                 -999.25: NULL VALUE
 MDS .        Operator Entered:  MAG DATA SOURCE
 PDAT.          Mean Sea Level:  PERMANENT DATUM
 DCON.         Sperry Drilling:  DIRECTNL CONTR
 RIG .              West Azeri:  RIG NAME
 WELL.           C40 (Slot 20):  WELL NAME
 SRVC.     Turan Drilling Engineering:  CONTRACTOR
 FLD .                     ACG:  FIELD NAME
 CTRY.              Azerbaijan:  COUNTRY NAME
 PROV.                    Baku:  PROVINCE
 STAT.                    Baku:  STATE NAME
 REGN.                   EESSA:  REGION
 BASE.              Azerbaijan:  LOGGING EQUIPMENT BASE LOCATION
 COMP.     BP Exploration (Caspian Sea) Ltd:  COMPANY
 WTYP.                Deviated:  WELL TYPE
 SON .        AZ-XX-0906344804:  JOB NUMBER
 FTOP.          Formation Tops:  FORM TOPS DESC
 ILTD.               Lithology:  INTERP LTH DESC
 SVYD.                  Survey:  SURVEY DESC
 DMOD.             Drill Model:  DRILL MOD DESC
 HPTY.       Minimum Curvature:  HOLE POS TYPE
 NREF.                    Grid:  NORTH REFERENCE
 SPUD.               01-Jan-20:  SPUD DATE
 DATE.      00.59.44 15-Sep-20:  END TIME
 STIM.      12.00.00 12-Jun-20:  START TIME
 DMF .             Drill Floor:  DRILL MEAS FROM
 DFST.                        :  DIST FSL TEXT
 DFWT.                        :  DIST FWL TEXT
 API .                        :  API NUMBER
 CNTY.                        :  COUNTY
 UWI .                        :  UNIQUE WELL IDENTIFIER
 LOC .                        :  LOCATION
 LMF .             Drill Floor:  LOG MEASURED FROM
 VSNS.m                   2.88:  VERT SEC N/S
 VSEW.m                  -3.84:  VERT SEC E/W
 AGAP.m                  43.42:  AIR GAP
 APD .m                  43.42:  DEPTH ABOVE PD
 WDMS.m                 118.27:  WD ELEV
 EGL .m                   0.00:  GROUND ELEVATION
 EPD .m                   0.00:  ELEVATION
 AZTC.deg                 6.23:  AZM TOTAL CORR
 GRDC.deg                 0.20:  GRID CORRECTION
 MDEC.deg                 6.43:  MAGNETIC DECL
 MDIP.deg                59.49:  MAGNETIC DIP
 MFLD.nT              50277.00:  MAGNETIC FIELD
 GVFD.g                   1.00:  GRAVITY FIELD
 VSDR.deg               173.20:  VERT SEC DIRECT
 TDD .m                5790.01:  TOTAL DEPTH (DRILLER)
 SDEP.m                5231.01:  START DEPTH
 DFSL.m                   0.00:  DISTANCE FSL
 DFWL.m                   0.00:  DISTANCE FWL
 UTMY.m             4435808.83:  UTM Y
 UTMX.m              526266.40:  UTM X
 WHEW.m                  -3.84:  WELL HEAD E/W
 WHNS.m                   2.88:  WELL HEAD N/S
 LONG.deg                51.31:  LONGITUDE
 LATI.deg                40.06:  LATITUDE
 TVDS.m                  43.42:  TVDSS CORRECTN
 DEP .m                 430.08:  DEPTH
 EKB .m                  43.42:  KB ELEVATION
 EDF .m                  43.42:  DF ELEVATION
 TDL .m                 559.00:  TOTAL DEPTH (LOGGER)
 MAGU.                 1849381:  MAGUTM CHECKSUM
 VSC .                       0:  VS TO CLOSURE
~Parameter Information Block
#MNEM.UNIT       Value        Description
#---------     -----------    ---------------------------
 AV  .mps                 4.87:  Ann Velocity 
 AVMX.mps                 7.08:  Max Ann Veloc 
 AZIF.deg               108.87:  Azm, Final 
 BHAT.                  Rotary:  BHA Type 
 BROT.°/30m               0.35:  Build Rotating 
 BS  .in                  8.50:  Bit Size 
 BSZ .in                  8.50:  Bit Size 
 BTPL.psig              360.00:  Bit Press Loss 
 CABU.                     Yes:  Customer Abuse 
 TCS .hr                106.24:  Time Ciculation Ended 
 CV  .mps                 1.77:  Crit Velocity 
 CVMX.mps                 2.03:  Max Crit Veloc 
 DD1 .         Aykhan Agagulov:  Direct Drillr 1 
 DD2 .            Nonso Okofor:  Direct Drillr 2 
 DDSV.               Geo-Pilot:  DD Service 
 DEFF.%                  98.00:  % Det Eff 
 DLRX.°/30m               0.50:  Dogleg Rot Max 
 DLSO.°/30m               0.40:  Dogleg Oriented 
 DLSX.°/30m               0.94:  Dogleg Str Max 
 DRET.      20.30.00 08-Sep-20:  Drill End Time 
 DRST.      22.15.00 06-Sep-20:  Drill Start Tim 
 DTIM.hr                 31.31:  Time Drilling 
 EDEP.m                5790.01:  End Depth 
 ENG1.           Amrah Tahirov:  Engineer 1 
 ENG2.         Dair Mahammadov:  Engineer 2 
 ENG3.           Emil Huseynov:  Engineer 3 
 ETIM.      04.01.04 12-Sep-20:  End Time 
 FLOI.gpm               450.00:  Flow In 
 FLON.gpm               450.00:  Flow In Min 
 FLOS.cptm                2.00:  Fluid Loss 
 FLOX.gpm               450.00:  Flow In Max 
 FTRO.       Formation Presure:  FTWD Run Obj 
 HFLO.                      No:  High Flow 
 HPRE.                      No:  High Pressure 
 HTEM.                      No:  High Temp 
 HYDO.m                   1.80:  Hydro Offset 
 IFIN.deg                72.03:  Inc, Final 
 IMAX.deg                73.72:  Inc Max 
 IMIN.deg                70.94:  Inc Min 
 IMND.m                5508.52:  Inc Min Depth 
 IMXD.m                5253.60:  Inc Max Depth 
 JARR.                      No:  Jarring 
 LETM.      20.30.00 08-Sep-20:  Log End Time 
 LOST.hr                     0:  Lost Rig Time 
 LSTM.      22.15.00 06-Sep-20:  Log Start Time 
 MDCL.ppm             36000.00:  Mud Chlorides 
 MDES.     Inversion Oil/Synthetic:  Mud Desc 
 DFD .sg                  1.44:  Mud Density 
 MDMN.sg                  1.44:  Dens Mud Min 
 MDMX.sg                  1.57:  Dens Mud Max 
 MOIL.                      70:  Run Mud Oil % 
 MOWR.                   70:30:  Run Mud OWR 
 MSND.                       0:  Run Mud Sand % 
 MSOL.                      21:  Run Mud Solids% 
 DFV .spqt               68.00:  Mud Viscosity 
 MWOD.in                  6.75:  MWD Tool OD 
 MWSI.                     Yes:  Serv Intrp, MWD 
 OTIM.hr                174.84:  Time Operating 
 PCON.           Look Like New:  Pad Condition 
 PMAX.psia            10616.93:  Press Op, Max 
 PV  .cP                 50.00:  Mud PV 
 RUN .                     700:  Run Number 
 ROPA.m/hr               14.24:  ROP Avg 
 ROPN.m/hr               10.00:  ROP Min 
 ROPX.m/hr               32.00:  ROP Max 
 RPMA.rpm               120.90:  RPM Surface Avg 
 RPMN.rpm               120.00:  RPM Surface Min 
 RPMX.rpm               140.00:  RPM Surface Max 
 RRUN.                    0700:  Rig Run Number 
 RTIM.hr                  3.20:  Time Reaming 
 SAZI.deg               109.99:  Azm, Start 
 SDEP.m                5231.01:  Start Depth 
 SIDD.                      No:  Serv Intrp, DD 
 SINC.deg                73.72:  Inc, Start 
 SPPA.psig             3051.00:  SPP Avg 
 SPPN.psig             2950.00:  SPP Min 
 SPPX.psig             3250.00:  SPP Max 
 STIM.      08.00.00 05-Sep-20:  Start Time 
 SVCS.                 DD, MWD:  Services 
 SVER.                    9.20:  Sperry Version 
 TDAT.m                 559.00:  Tot Depth Attmp 
 TDDF.                      No:  Trip for DD 
 TDLG.m                 559.00:  Tot Depth Loggd 
 TFF .                      No:  Trip for Fail 
 TQAA.f-kp               26.49:  Torque Abs Avg 
 TQAN.f-kp               25.00:  Torque Abs Min 
 TQAX.f-kp               27.00:  Torque Abs Max 
 TRRT.°/30m               1.50:  Turn Rotating 
 MRT .                    HCIM:  Maximum Recorded Temperature 
 TTMX.degC               90.20:  Max Tool Temp 
 VS01.                90542671:  Virtual Str1 SN 
 VS02.                90545185:  Virtual Str2 SN 
 VS03.                90602015:  Virtual Str3 SN 
 VS04.                90515230:  Virtual Str4 SN 
 WBMN.klb                 5.00:  WOB Min 
 WOBA.klb                14.79:  WOB Avg 
 WOBX.klb                20.00:  WOB Max 
 YP  .lhf2               29.00:  Yield Point 
~Curve Information Block
#MNEM.UNIT                 API CODE     Curve Description
#---------               -----------    ---------------------------
 TIME.HHMMSS            00 000 000 000:  GT Time & Date
 GTDEPTH.m              00 000 000 000:  GT Depth
 GTPQH.psia             00 000 000 000:  GT HR Quartz Pressure
 GTTQ.degC              00 000 000 000:  GT Quartz Temperature
 GTTN.NONE              00 000 000 000:  GT Test Number
 GTET.sec               00 000 000 000:  GT Elapsed Test Time
 GTTVD.m                00 000 000 000:  GT True Vertical Depth
#Other Information
#
#WARRANTY: Halliburton will use its best efforts to furnish customers with 
#accurate information and interpretations that are part of, and incident to, the services 
#provided.  However, Halliburton cannot and does not warrant the accuracy 
#or correctness of such information and interpretations.  Under no circumstances should any 
#such information or interpretation be relied upon as the sole basis for any drilling, 
#completion, production, or financial decision or any procedure involving any risk to the 
#safety of any drilling venture, drilling rig or its crew or any other third party.  The 
#Customer has full responsibility for all drilling, completion and production operation.  
#Halliburton makes no representations or warranties, either expressed or 
#implied, including, but not limited to, the implied warranties of merchantability or fitness 
#for a particular purpose, with respect to the services rendered.  In no event will 
#Halliburton be liable for failure to obtain any particular results or for 
#any damages, including, but not limited to, indirect, special or consequential damages, 
#resulting from the use of any information or interpretation provided by Halliburton.
#
~A           TIME           GTDEPTH  GTPQH  GTTQ  GTTN   GTET   GTTVD  
# ...
   20:03:32.953.09-Sep-2020 5259.51 2977.47 74.10 24.00 180.88 2544.41
   20:03:33.153.09-Sep-2020 5259.51 2981.03 74.10 24.00 181.08 2544.41
   20:03:33.353.09-Sep-2020 5259.51 2981.03 74.10 24.00 181.28 2544.41
   20:03:33.553.09-Sep-2020 5259.51 2987.19 74.10 24.00 181.48 2544.41
   20:03:33.753.09-Sep-2020 5259.51 2995.87 74.10 24.00 181.68 2544.41
   20:03:33.953.09-Sep-2020 5259.51 2989.10 74.10 24.00 181.88 2544.41
   20:03:34.153.09-Sep-2020 5259.51 2980.29 74.10 24.00 182.08 2544.41
   20:03:34.353.09-Sep-2020 5259.51 2980.29 74.10 24.00 182.28 2544.41
   20:03:34.553.09-Sep-2020 5259.51 2986.37 74.10 24.00 182.48 2544.41
   20:03:34.753.09-Sep-2020 5259.51 2987.50 74.09 24.00 182.68 2544.41
   20:03:34.954.09-Sep-2020 5259.51 2993.76 74.09 24.00 182.88 2544.41
   20:03:35.154.09-Sep-2020 5259.51 3006.09 74.09 24.00 183.08 2544.41
   20:03:35.354.09-Sep-2020 5259.51 3006.09 74.09 24.00 183.28 2544.41
   20:03:35.554.09-Sep-2020 5259.51 2997.98 74.09 24.00 183.48 2544.41
   20:03:35.754.09-Sep-2020 5259.51 2992.61 74.09 24.00 183.68 2544.41
   20:03:35.954.09-Sep-2020 5259.51 2999.95 74.09 24.00 183.88 2544.41
   20:03:36.154.09-Sep-2020 5259.51 3001.74 74.09 24.00 184.08 2544.41
   20:03:36.354.09-Sep-2020 5259.51 3001.74 74.09 24.00 184.28 2544.41
   20:03:36.554.09-Sep-2020 5259.51 3001.21 74.09 24.00 184.49 2544.41
   20:03:36.754.09-Sep-2020 5259.51 2990.18 74.08 24.00 184.69 2544.41
   20:03:36.954.09-Sep-2020 5259.51 2991.62 74.08 24.00 184.89 2544.41
   20:03:37.155.09-Sep-2020 5259.51 2994.71 74.08 24.00 185.09 2544.41
   20:03:37.355.09-Sep-2020 5259.51 2994.71 74.08 24.00 185.29 2544.41
   20:03:37.555.09-Sep-2020 5259.51 2984.57 74.08 24.00 185.49 2544.41
   20:03:37.755.09-Sep-2020 5259.51 2983.08 74.08 24.00 185.69 2544.41
   20:03:37.955.09-Sep-2020 5259.51 2989.86 74.08 24.00 185.89 2544.41
   20:03:38.155.09-Sep-2020 5259.51 2999.69 74.08 24.00 186.09 2544.41
   20:03:38.355.09-Sep-2020 5259.51 2999.69 74.08 24.00 186.29 2544.41
   20:03:38.555.09-Sep-2020 5259.51 2991.78 74.08 24.00 186.49 2544.41
   20:03:38.755.09-Sep-2020 5259.51 2995.13 74.08 24.00 186.69 2544.41
   20:03:38.955.09-Sep-2020 5259.51 2988.68 74.08 24.00 186.89 2544.41
   20:03:39.156.09-Sep-2020 5259.51 2986.81 74.08 24.00 187.09 2544.41
   20:03:39.356.09-Sep-2020 5259.51 2986.81 74.08 24.00 187.29 2544.41
   20:03:39.556.09-Sep-2020 5259.51 2986.59 74.08 24.00 187.49 2544.41
   20:03:39.756.09-Sep-2020 5259.51 2975.43 74.08 24.00 187.69 2544.41
   20:03:39.956.09-Sep-2020 5259.51 2978.86 74.08 24.00 187.89 2544.41
   20:03:40.156.09-Sep-2020 5259.51 2985.25 74.08 24.00 188.09 2544.41
   20:03:40.356.09-Sep-2020 5259.51 2985.25 74.08 24.00 188.29 2544.41
   20:03:40.556.09-Sep-2020 5259.51 3367.27 74.07 24.00 188.49 2544.41
   20:03:40.756.09-Sep-2020 5259.51 3580.94 74.07 24.00 188.69 2544.41
   20:03:40.956.09-Sep-2020 5259.51 3744.65 74.07 24.00 188.89 2544.41
   20:03:41.156.09-Sep-2020 5259.51 3859.01 74.07 24.00 189.09 2544.41
   20:03:41.357.09-Sep-2020 5259.51 3939.19 74.07 24.00 189.29 2544.41
   20:03:41.557.09-Sep-2020 5259.51 3995.53 74.07 24.00 189.49 2544.41
   20:03:41.757.09-Sep-2020 5259.51 4035.22 74.07 24.00 189.69 2544.41
   20:03:41.957.09-Sep-2020 5259.51 4061.91 74.07 24.00 189.89 2544.41
   20:03:42.157.09-Sep-2020 5259.51 4082.51 74.08 24.00 190.09 2544.41
   20:03:42.357.09-Sep-2020 5259.51 4082.51 74.08 24.00 190.29 2544.41
   20:03:42.557.09-Sep-2020 5259.51 4107.41 74.08 24.00 190.49 2544.41
   20:03:42.757.09-Sep-2020 5259.51 4114.85 74.08 24.00 190.69 2544.41
   20:03:42.957.09-Sep-2020 5259.51 4120.25 74.08 24.00 190.89 2544.41
   20:03:43.157.09-Sep-2020 5259.51 4124.05 74.08 24.00 191.09 2544.41
   20:03:43.357.09-Sep-2020 5259.51 4124.05 74.08 24.00 191.29 2544.41
   20:03:43.558.09-Sep-2020 5259.51 4129.10 74.08 24.00 191.49 2544.41
   20:03:43.758.09-Sep-2020 5259.51 4130.66 74.08 24.00 191.69 2544.41
   20:03:43.958.09-Sep-2020 5259.51 4131.90 74.08 24.00 191.89 2544.41
   20:03:44.158.09-Sep-2020 5259.51 4132.79 74.08 24.00 192.09 2544.41
   20:03:44.358.09-Sep-2020 5259.51 4132.79 74.08 24.00 192.29 2544.41
   20:03:44.558.09-Sep-2020 5259.51 4134.25 74.08 24.00 192.49 2544.41
   20:03:44.758.09-Sep-2020 5259.51 4134.76 74.08 24.00 192.69 2544.41
   20:03:44.958.09-Sep-2020 5259.51 4135.21 74.09 24.00 192.89 2544.41
   20:03:45.158.09-Sep-2020 5259.51 4134.30 74.09 24.00 193.09 2544.41
   20:03:45.358.09-Sep-2020 5259.51 4134.30 74.09 24.00 193.29 2544.41
   20:03:45.558.09-Sep-2020 5259.51 4135.68 74.09 24.00 193.49 2544.41
   20:03:45.759.09-Sep-2020 5259.51 4136.04 74.09 24.00 193.69 2544.41
   20:03:45.959.09-Sep-2020 5259.51 4136.27 74.09 24.00 193.89 2544.41
   20:03:46.159.09-Sep-2020 5259.51 4136.76 74.09 24.00 194.09 2544.41
   20:03:46.359.09-Sep-2020 5259.51 4136.76 74.09 24.00 194.29 2544.41
   20:03:46.559.09-Sep-2020 5259.51 4137.11 74.09 24.00 194.49 2544.41
   20:03:46.759.09-Sep-2020 5259.51 4137.10 74.09 24.00 194.69 2544.41
   20:03:46.959.09-Sep-2020 5259.51 4137.16 74.10 24.00 194.89 2544.41
   20:03:47.159.09-Sep-2020 5259.51 4137.38 74.10 24.00 195.09 2544.41
   20:03:47.359.09-Sep-2020 5259.51 4137.38 74.10 24.00 195.29 2544.41
   20:03:47.559.09-Sep-2020 5259.51 4137.53 74.10 24.00 195.49 2544.41
   20:03:47.759.09-Sep-2020 5259.51 4136.90 74.10 24.00 195.69 2544.41
   20:03:47.960.09-Sep-2020 5259.51 4138.18 74.10 24.00 195.89 2544.41
   20:03:48.160.09-Sep-2020 5259.51 4137.99 74.10 24.00 196.09 2544.41
   20:03:48.360.09-Sep-2020 5259.51 4137.99 74.10 24.00 196.29 2544.41
   20:03:48.560.09-Sep-2020 5259.51 4137.42 74.10 24.00 196.49 2544.41
   20:03:48.760.09-Sep-2020 5259.51 4138.35 74.10 24.00 196.69 2544.41
   20:03:48.960.09-Sep-2020 5259.51 4138.34 74.10 24.00 196.89 2544.41
   20:03:49.160.09-Sep-2020 5259.51 4138.15 74.10 24.00 197.09 2544.41
   20:03:49.360.09-Sep-2020 5259.51 4138.15 74.10 24.00 197.29 2544.41
   20:03:49.560.09-Sep-2020 5259.51 4138.40 74.10 24.00 197.49 2544.41
   20:03:49.760.09-Sep-2020 5259.51 4138.34 74.10 24.00 197.69 2544.41
   20:03:49.960.09-Sep-2020 5259.51 4137.93 74.10 24.00 197.89 2544.41
   20:03:50.161.09-Sep-2020 5259.51 4138.69 74.11 24.00 198.09 2544.41
   20:03:50.361.09-Sep-2020 5259.51 4138.69 74.11 24.00 198.29 2544.41
   20:03:50.561.09-Sep-2020 5259.51 4138.52 74.11 24.00 198.49 2544.41
   20:03:50.761.09-Sep-2020 5259.51 4138.78 74.11 24.00 198.69 2544.41
   20:03:50.961.09-Sep-2020 5259.51 4138.57 74.11 24.00 198.89 2544.41
   20:03:51.161.09-Sep-2020 5259.51 4138.62 74.11 24.00 199.09 2544.41
   20:03:51.361.09-Sep-2020 5259.51 4138.62 74.11 24.00 199.29 2544.41
   20:03:51.561.09-Sep-2020 5259.51 4138.70 74.11 24.00 199.49 2544.41
   20:03:51.761.09-Sep-2020 5259.51 4138.68 74.11 24.00 199.69 2544.41
   20:03:51.961.09-Sep-2020 5259.51 4138.77 74.11 24.00 199.89 2544.41
   20:03:52.162.09-Sep-2020 5259.51 4138.80 74.11 24.00 200.09 2544.41
   20:03:52.362.09-Sep-2020 5259.51 4138.80 74.11 24.00 200.29 2544.41
   20:03:52.562.09-Sep-2020 5259.51 4138.87 74.11 24.00 200.49 2544.41
   20:03:52.762.09-Sep-2020 5259.51 4138.92 74.11 24.00 200.69 2544.41
   20:03:52.962.09-Sep-2020 5259.51 4138.93 74.11 24.00 200.89 2544.41
   20:03:53.162.09-Sep-2020 5259.51 4138.95 74.11 24.00 201.09 2544.41
   20:03:53.362.09-Sep-2020 5259.51 4138.95 74.11 24.00 201.29 2544.41
   20:03:53.562.09-Sep-2020 5259.51 4138.55 74.11 24.00 201.49 2544.41
   20:03:53.762.09-Sep-2020 5259.51 4139.38 74.11 24.00 201.69 2544.41
   20:03:53.962.09-Sep-2020 5259.51 4139.32 74.11 24.00 201.89 2544.41
   20:03:54.162.09-Sep-2020 5259.51 4139.20 74.11 24.00 202.09 2544.41
   20:03:54.363.09-Sep-2020 5259.51 4139.20 74.11 24.00 202.29 2544.41
   20:03:54.563.09-Sep-2020 5259.51 4139.12 74.11 24.00 202.49 2544.41
   20:03:54.763.09-Sep-2020 5259.51 4139.15 74.11 24.00 202.69 2544.41
   20:03:54.963.09-Sep-2020 5259.51 4139.13 74.11 24.00 202.89 2544.41
   20:03:55.163.09-Sep-2020 5259.51 4139.13 74.11 24.00 203.09 2544.41
   20:03:55.363.09-Sep-2020 5259.51 4139.13 74.11 24.00 203.29 2544.41
