~Version Information
 VERS.                  2.0:   CWLS log ASCII Standard -VERSION 2.0
 WRAP.                   NO:   One line per depth step
~Well Information Block
#MNEM.UNIT     VALUE/NAME     DESCRIPTION
#---------     -----------    ---------------------------
 STRT.S             19:35:07 09-Sep-20: START TIME 19:35:07 09-Sep-20
 STOP.S             19:43:27 09-Sep-20: STOP TIME  19:43:27 09-Sep-20
 STEP.S                   0.00: STEP TIME
 NULL.                 -999.25: NULL VALUE
 MDS .        Operator Entered:  MAG DATA SOURCE
 PDAT.          Mean Sea Level:  PERMANENT DATUM
 DCON.         Sperry Drilling:  DIRECTNL CONTR
 RIG .              West Azeri:  RIG NAME
 WELL.           C40 (Slot 20):  WELL NAME
 SRVC.     Turan Drilling Engineering:  CONTRACTOR
 FLD .                     ACG:  FIELD NAME
 CTRY.              Azerbaijan:  COUNTRY NAME
 PROV.                    Baku:  PROVINCE
 STAT.                    Baku:  STATE NAME
 REGN.                   EESSA:  REGION
 BASE.              Azerbaijan:  LOGGING EQUIPMENT BASE LOCATION
 COMP.     BP Exploration (Caspian Sea) Ltd:  COMPANY
 WTYP.                Deviated:  WELL TYPE
 SON .        AZ-XX-0906344804:  JOB NUMBER
 FTOP.          Formation Tops:  FORM TOPS DESC
 ILTD.               Lithology:  INTERP LTH DESC
 SVYD.                  Survey:  SURVEY DESC
 DMOD.             Drill Model:  DRILL MOD DESC
 HPTY.       Minimum Curvature:  HOLE POS TYPE
 NREF.                    Grid:  NORTH REFERENCE
 SPUD.               01-Jan-20:  SPUD DATE
 DATE.      00.59.44 15-Sep-20:  END TIME
 STIM.      12.00.00 12-Jun-20:  START TIME
 DMF .             Drill Floor:  DRILL MEAS FROM
 DFST.                        :  DIST FSL TEXT
 DFWT.                        :  DIST FWL TEXT
 API .                        :  API NUMBER
 CNTY.                        :  COUNTY
 UWI .                        :  UNIQUE WELL IDENTIFIER
 LOC .                        :  LOCATION
 LMF .             Drill Floor:  LOG MEASURED FROM
 VSNS.m                   2.88:  VERT SEC N/S
 VSEW.m                  -3.84:  VERT SEC E/W
 AGAP.m                  43.42:  AIR GAP
 APD .m                  43.42:  DEPTH ABOVE PD
 WDMS.m                 118.27:  WD ELEV
 EGL .m                   0.00:  GROUND ELEVATION
 EPD .m                   0.00:  ELEVATION
 AZTC.deg                 6.23:  AZM TOTAL CORR
 GRDC.deg                 0.20:  GRID CORRECTION
 MDEC.deg                 6.43:  MAGNETIC DECL
 MDIP.deg                59.49:  MAGNETIC DIP
 MFLD.nT              50277.00:  MAGNETIC FIELD
 GVFD.g                   1.00:  GRAVITY FIELD
 VSDR.deg               173.20:  VERT SEC DIRECT
 TDD .m                5790.01:  TOTAL DEPTH (DRILLER)
 SDEP.m                5231.01:  START DEPTH
 DFSL.m                   0.00:  DISTANCE FSL
 DFWL.m                   0.00:  DISTANCE FWL
 UTMY.m             4435808.83:  UTM Y
 UTMX.m              526266.40:  UTM X
 WHEW.m                  -3.84:  WELL HEAD E/W
 WHNS.m                   2.88:  WELL HEAD N/S
 LONG.deg                51.31:  LONGITUDE
 LATI.deg                40.06:  LATITUDE
 TVDS.m                  43.42:  TVDSS CORRECTN
 DEP .m                 430.08:  DEPTH
 EKB .m                  43.42:  KB ELEVATION
 EDF .m                  43.42:  DF ELEVATION
 TDL .m                 559.00:  TOTAL DEPTH (LOGGER)
 MAGU.                 1849381:  MAGUTM CHECKSUM
 VSC .                       0:  VS TO CLOSURE
~Parameter Information Block
#MNEM.UNIT       Value        Description
#---------     -----------    ---------------------------
 AV  .mps                 4.87:  Ann Velocity 
 AVMX.mps                 7.08:  Max Ann Veloc 
 AZIF.deg               108.87:  Azm, Final 
 BHAT.                  Rotary:  BHA Type 
 BROT.°/30m               0.35:  Build Rotating 
 BS  .in                  8.50:  Bit Size 
 BSZ .in                  8.50:  Bit Size 
 BTPL.psig              360.00:  Bit Press Loss 
 CABU.                     Yes:  Customer Abuse 
 COMM.                     ¼«|:  Run Comments 1 
 TCS .hr                106.24:  Time Ciculation Ended 
 CV  .mps                 1.77:  Crit Velocity 
 CVMX.mps                 2.03:  Max Crit Veloc 
 DD1 .         Aykhan Agagulov:  Direct Drillr 1 
 DD2 .            Nonso Okofor:  Direct Drillr 2 
 DDSV.               Geo-Pilot:  DD Service 
 DEFF.%                  98.00:  % Det Eff 
 DLRX.°/30m               0.50:  Dogleg Rot Max 
 DLSO.°/30m               0.40:  Dogleg Oriented 
 DLSX.°/30m               0.94:  Dogleg Str Max 
 DRET.      20.30.00 08-Sep-20:  Drill End Time 
 DRST.      22.15.00 06-Sep-20:  Drill Start Tim 
 DTIM.hr                 31.31:  Time Drilling 
 EDEP.m                5790.01:  End Depth 
 ENG1.           Amrah Tahirov:  Engineer 1 
 ENG2.         Dair Mahammadov:  Engineer 2 
 ENG3.           Emil Huseynov:  Engineer 3 
 ETIM.      04.01.04 12-Sep-20:  End Time 
 FLOI.gpm               450.00:  Flow In 
 FLON.gpm               450.00:  Flow In Min 
 FLOS.cptm                2.00:  Fluid Loss 
 FLOX.gpm               450.00:  Flow In Max 
 FTRO.       Formation Presure:  FTWD Run Obj 
 HFLO.                      No:  High Flow 
 HPRE.                      No:  High Pressure 
 HTEM.                      No:  High Temp 
 HYDO.m                   1.80:  Hydro Offset 
 IFIN.deg                72.03:  Inc, Final 
 IMAX.deg                73.72:  Inc Max 
 IMIN.deg                70.94:  Inc Min 
 IMND.m                5508.52:  Inc Min Depth 
 IMXD.m                5253.60:  Inc Max Depth 
 JARR.                      No:  Jarring 
 LETM.      20.30.00 08-Sep-20:  Log End Time 
 LOST.hr                     0:  Lost Rig Time 
 LSTM.      22.15.00 06-Sep-20:  Log Start Time 
 MDCL.ppm             36000.00:  Mud Chlorides 
 MDES.     Inversion Oil/Synthetic:  Mud Desc 
 DFD .sg                  1.44:  Mud Density 
 MDMN.sg                  1.44:  Dens Mud Min 
 MDMX.sg                  1.57:  Dens Mud Max 
 MOIL.                      70:  Run Mud Oil % 
 MOWR.                   70:30:  Run Mud OWR 
 MSND.                       0:  Run Mud Sand % 
 MSOL.                      21:  Run Mud Solids% 
 DFV .spqt               68.00:  Mud Viscosity 
 MWOD.in                  6.75:  MWD Tool OD 
 MWSI.                     Yes:  Serv Intrp, MWD 
 OTIM.hr                174.84:  Time Operating 
 PCON.           Look Like New:  Pad Condition 
 PMAX.psia            10616.93:  Press Op, Max 
 PV  .cP                 50.00:  Mud PV 
 RUN .                     700:  Run Number 
 ROPA.m/hr               14.24:  ROP Avg 
 ROPN.m/hr               10.00:  ROP Min 
 ROPX.m/hr               32.00:  ROP Max 
 RPMA.rpm               120.90:  RPM Surface Avg 
 RPMN.rpm               120.00:  RPM Surface Min 
 RPMX.rpm               140.00:  RPM Surface Max 
 RRUN.                    0700:  Rig Run Number 
 RTIM.hr                  3.20:  Time Reaming 
 SAZI.deg               109.99:  Azm, Start 
 SDEP.m                5231.01:  Start Depth 
 SIDD.                      No:  Serv Intrp, DD 
 SINC.deg                73.72:  Inc, Start 
 SPPA.psig             3051.00:  SPP Avg 
 SPPN.psig             2950.00:  SPP Min 
 SPPX.psig             3250.00:  SPP Max 
 STIM.      08.00.00 05-Sep-20:  Start Time 
 SVCS.                 DD, MWD:  Services 
 SVER.                    9.20:  Sperry Version 
 TDAT.m                 559.00:  Tot Depth Attmp 
 TDDF.                      No:  Trip for DD 
 TDLG.m                 559.00:  Tot Depth Loggd 
 TFF .                      No:  Trip for Fail 
 TQAA.f-kp               26.49:  Torque Abs Avg 
 TQAN.f-kp               25.00:  Torque Abs Min 
 TQAX.f-kp               27.00:  Torque Abs Max 
 TRRT.°/30m               1.50:  Turn Rotating 
 MRT .                    HCIM:  Maximum Recorded Temperature 
 TTMX.degC               90.20:  Max Tool Temp 
 VS01.                90542671:  Virtual Str1 SN 
 VS02.                90545185:  Virtual Str2 SN 
 VS03.                90602015:  Virtual Str3 SN 
 VS04.                90515230:  Virtual Str4 SN 
 WBMN.klb                 5.00:  WOB Min 
 WOBA.klb                14.79:  WOB Avg 
 WOBX.klb                20.00:  WOB Max 
 YP  .lhf2               29.00:  Yield Point 
~Curve Information Block
#MNEM.UNIT                 API CODE     Curve Description
#---------               -----------    ---------------------------
 TIME.HHMMSS            00 000 000 000:  GT Time & Date
 GTDEPTH.m              00 000 000 000:  GT Depth
 GTPQH.psia             00 000 000 000:  GT HR Quartz Pressure
 GTTQ.degC              00 000 000 000:  GT Quartz Temperature
 GTTN.NONE              00 000 000 000:  GT Test Number
 GTET.sec               00 000 000 000:  GT Elapsed Test Time
 GTTVD.m                00 000 000 000:  GT True Vertical Depth
#Other Information
#
#WARRANTY: Halliburton will use its best efforts to furnish customers with 
#accurate information and interpretations that are part of, and incident to, the services 
#provided.  However, Halliburton cannot and does not warrant the accuracy 
#or correctness of such information and interpretations.  Under no circumstances should any 
#such information or interpretation be relied upon as the sole basis for any drilling, 
#completion, production, or financial decision or any procedure involving any risk to the 
#safety of any drilling venture, drilling rig or its crew or any other third party.  The 
#Customer has full responsibility for all drilling, completion and production operation.  
#Halliburton makes no representations or warranties, either expressed or 
#implied, including, but not limited to, the implied warranties of merchantability or fitness 
#for a particular purpose, with respect to the services rendered.  In no event will 
#Halliburton be liable for failure to obtain any particular results or for 
#any damages, including, but not limited to, indirect, special or consequential damages, 
#resulting from the use of any information or interpretation provided by Halliburton.
#
~A           TIME           GTDEPTH  GTPQH  GTTQ  GTTN   GTET   GTTVD  
# ...
   19:40:46.523.09-Sep-2020 5260.01 6287.79 74.29 23.00 339.16 2544.55
   19:40:46.723.09-Sep-2020 5260.01 6287.79 74.29 23.00 339.36 2544.55
   19:40:46.923.09-Sep-2020 5260.01 6287.66 74.29 23.00 339.56 2544.55
   19:40:47.123.09-Sep-2020 5260.01 6287.70 74.29 23.00 339.76 2544.55
   19:40:47.323.09-Sep-2020 5260.01 6287.49 74.29 23.00 339.96 2544.55
   19:40:47.523.09-Sep-2020 5260.01 6287.43 74.29 23.00 340.16 2544.55
   19:40:47.723.09-Sep-2020 5260.01 6287.43 74.29 23.00 340.36 2544.55
   19:40:47.924.09-Sep-2020 5260.01 6295.40 74.29 23.00 340.56 2544.55
   19:40:48.124.09-Sep-2020 5260.01 6284.85 74.29 23.00 340.76 2544.55
   19:40:48.324.09-Sep-2020 5260.01 6288.53 74.29 23.00 340.96 2544.55
   19:40:48.524.09-Sep-2020 5260.01 6287.12 74.29 23.00 341.16 2544.55
   19:40:48.724.09-Sep-2020 5260.01 6287.12 74.29 23.00 341.36 2544.55
   19:40:48.924.09-Sep-2020 5260.01 6287.35 74.29 23.00 341.56 2544.55
   19:40:49.124.09-Sep-2020 5260.01 6290.04 74.29 23.00 341.76 2544.55
   19:40:49.324.09-Sep-2020 5260.01 6287.21 74.29 23.00 341.96 2544.55
   19:40:49.524.09-Sep-2020 5260.01 6287.03 74.29 23.00 342.16 2544.55
   19:40:49.724.09-Sep-2020 5260.01 6286.27 74.29 23.00 342.36 2544.55
   19:40:49.924.09-Sep-2020 5260.01 6286.62 74.29 23.00 342.56 2544.55
   19:40:50.125.09-Sep-2020 5260.01 6286.33 74.29 23.00 342.76 2544.55
   19:40:50.325.09-Sep-2020 5260.01 6286.45 74.29 23.00 342.96 2544.55
   19:40:50.525.09-Sep-2020 5260.01 6286.41 74.29 23.00 343.16 2544.55
   19:40:50.725.09-Sep-2020 5260.01 6286.41 74.29 23.00 343.36 2544.55
   19:40:50.925.09-Sep-2020 5260.01 6285.65 74.29 23.00 343.56 2544.55
   19:40:51.125.09-Sep-2020 5260.01 6285.71 74.29 23.00 343.76 2544.55
   19:40:51.325.09-Sep-2020 5260.01 6293.84 74.29 23.00 343.96 2544.55
   19:40:51.525.09-Sep-2020 5260.01 6283.88 74.29 23.00 344.16 2544.55
   19:40:51.725.09-Sep-2020 5260.01 6283.88 74.29 23.00 344.36 2544.55
   19:40:51.925.09-Sep-2020 5260.01 6285.79 74.29 23.00 344.56 2544.55
   19:40:52.125.09-Sep-2020 5260.01 6286.51 74.29 23.00 344.76 2544.55
   19:40:52.326.09-Sep-2020 5260.01 6289.95 74.29 23.00 344.96 2544.55
   19:40:52.526.09-Sep-2020 5260.01 6292.46 74.29 23.00 345.16 2544.55
   19:40:52.726.09-Sep-2020 5260.01 6292.46 74.29 23.00 345.36 2544.55
   19:40:52.926.09-Sep-2020 5260.01 6287.45 74.29 23.00 345.56 2544.55
   19:40:53.126.09-Sep-2020 5260.01 6285.22 74.29 23.00 345.76 2544.55
   19:40:53.326.09-Sep-2020 5260.01 6287.13 74.29 23.00 345.96 2544.55
   19:40:53.526.09-Sep-2020 5260.01 6287.23 74.29 23.00 346.16 2544.55
   19:40:53.726.09-Sep-2020 5260.01 6287.23 74.29 23.00 346.36 2544.55
   19:40:53.926.09-Sep-2020 5260.01 6281.50 74.29 23.00 346.56 2544.55
   19:40:54.126.09-Sep-2020 5260.01 6286.90 74.29 23.00 346.76 2544.55
   19:40:54.326.09-Sep-2020 5260.01 6285.70 74.29 23.00 346.96 2544.55
   19:40:54.527.09-Sep-2020 5260.01 6286.95 74.29 23.00 347.16 2544.55
   19:40:54.727.09-Sep-2020 5260.01 6286.95 74.29 23.00 347.36 2544.55
   19:40:54.927.09-Sep-2020 5260.01 6287.98 74.29 23.00 347.56 2544.55
   19:40:55.127.09-Sep-2020 5260.01 6288.00 74.29 23.00 347.76 2544.55
   19:40:55.327.09-Sep-2020 5260.01 6286.51 74.29 23.00 347.96 2544.55
   19:40:55.527.09-Sep-2020 5260.01 6287.30 74.29 23.00 348.16 2544.55
   19:40:55.727.09-Sep-2020 5260.01 6287.30 74.29 23.00 348.36 2544.55
   19:40:55.927.09-Sep-2020 5260.01 6285.95 74.29 23.00 348.56 2544.55
   19:40:56.127.09-Sep-2020 5260.01 6288.68 74.29 23.00 348.76 2544.55
   19:40:56.327.09-Sep-2020 5260.01 6287.85 74.29 23.00 348.96 2544.55
   19:40:56.527.09-Sep-2020 5260.01 6287.23 74.29 23.00 349.16 2544.55
   19:40:56.728.09-Sep-2020 5260.01 6287.23 74.29 23.00 349.36 2544.55
   19:40:56.928.09-Sep-2020 5260.01 6291.17 74.29 23.00 349.56 2544.55
   19:40:57.128.09-Sep-2020 5260.01 6288.40 74.29 23.00 349.76 2544.55
   19:40:57.328.09-Sep-2020 5260.01 6288.69 74.29 23.00 349.96 2544.55
   19:40:57.528.09-Sep-2020 5260.01 6288.20 74.29 23.00 350.16 2544.55
   19:40:57.728.09-Sep-2020 5260.01 6288.14 74.29 23.00 350.36 2544.55
   19:40:57.928.09-Sep-2020 5260.01 6287.62 74.29 23.00 350.56 2544.55
   19:40:58.128.09-Sep-2020 5260.01 6287.61 74.29 23.00 350.76 2544.55
   19:40:58.328.09-Sep-2020 5260.01 6287.60 74.29 23.00 350.96 2544.55
   19:40:58.528.09-Sep-2020 5260.01 6287.57 74.29 23.00 351.16 2544.55
   19:40:58.728.09-Sep-2020 5260.01 6287.57 74.29 23.00 351.36 2544.55
   19:40:58.929.09-Sep-2020 5260.01 6287.35 74.29 23.00 351.56 2544.55
   19:40:59.129.09-Sep-2020 5260.01 6287.28 74.29 23.00 351.76 2544.55
   19:40:59.329.09-Sep-2020 5260.01 6290.93 74.29 23.00 351.96 2544.55
   19:40:59.529.09-Sep-2020 5260.01 6291.13 74.29 23.00 352.16 2544.55
   19:40:59.729.09-Sep-2020 5260.01 6291.13 74.29 23.00 352.36 2544.55
   19:40:59.929.09-Sep-2020 5260.01 6288.38 74.29 23.00 352.56 2544.55
   19:41:00.129.09-Sep-2020 5260.01 6287.19 74.29 23.00 352.76 2544.55
   19:41:00.329.09-Sep-2020 5260.01 6287.98 74.29 23.00 352.96 2544.55
   19:41:00.529.09-Sep-2020 5260.01 6288.09 74.29 23.00 353.16 2544.55
   19:41:00.729.09-Sep-2020 5260.01 6288.09 74.29 23.00 353.36 2544.55
   19:41:00.930.09-Sep-2020 5260.01 6287.56 74.29 23.00 353.56 2544.55
   19:41:01.130.09-Sep-2020 5260.01 6287.13 74.29 23.00 353.76 2544.55
   19:41:01.330.09-Sep-2020 5260.01 6286.20 74.29 23.00 353.96 2544.55
   19:41:01.530.09-Sep-2020 5260.01 6286.82 74.29 23.00 354.16 2544.55
   19:41:01.730.09-Sep-2020 5260.01 6286.54 74.29 23.00 354.36 2544.55
   19:41:01.930.09-Sep-2020 5260.01 6286.70 74.29 23.00 354.56 2544.55
   19:41:02.130.09-Sep-2020 5260.01 6286.62 74.29 23.00 354.76 2544.55
   19:41:02.330.09-Sep-2020 5260.01 6285.96 74.29 23.00 354.96 2544.55
   19:41:02.530.09-Sep-2020 5260.01 6285.88 74.29 23.00 355.16 2544.55
   19:41:02.730.09-Sep-2020 5260.01 6285.88 74.29 23.00 355.36 2544.55
   19:41:02.930.09-Sep-2020 5260.01 6289.58 74.29 23.00 355.56 2544.55
   19:41:03.131.09-Sep-2020 5260.01 6285.08 74.29 23.00 355.76 2544.55
   19:41:03.331.09-Sep-2020 5260.01 6287.76 74.29 23.00 355.96 2544.55
   19:41:03.531.09-Sep-2020 5260.01 6285.97 74.29 23.00 356.16 2544.55
   19:41:03.731.09-Sep-2020 5260.01 6285.97 74.29 23.00 356.36 2544.55
   19:41:03.931.09-Sep-2020 5260.01 6297.27 74.29 23.00 356.56 2544.55
   19:41:04.131.09-Sep-2020 5260.01 6284.30 74.29 23.00 356.76 2544.55
   19:41:04.331.09-Sep-2020 5260.01 6287.40 74.29 23.00 356.96 2544.55
   19:41:04.531.09-Sep-2020 5260.01 6287.11 74.29 23.00 357.16 2544.55
   19:41:04.731.09-Sep-2020 5260.01 6287.11 74.29 23.00 357.36 2544.55
   19:41:04.931.09-Sep-2020 5260.01 6287.26 74.29 23.00 357.56 2544.55
   19:41:05.131.09-Sep-2020 5260.01 6289.01 74.29 23.00 357.76 2544.55
   19:41:05.332.09-Sep-2020 5260.01 6298.42 74.29 23.00 357.96 2544.55
   19:41:05.532.09-Sep-2020 5260.01 6281.81 74.29 23.00 358.17 2544.55
   19:41:05.732.09-Sep-2020 5260.01 6281.81 74.29 23.00 358.37 2544.55
   19:41:05.932.09-Sep-2020 5260.01 6286.02 74.29 23.00 358.57 2544.55
   19:41:06.132.09-Sep-2020 5260.01 6286.71 74.29 23.00 358.77 2544.55
   19:41:06.332.09-Sep-2020 5260.01 6295.36 74.29 23.00 358.97 2544.55
   19:41:06.532.09-Sep-2020 5260.01 6287.42 74.29 23.00 359.17 2544.55
   19:41:06.732.09-Sep-2020 5260.01 6287.42 74.29 23.00 359.37 2544.55
   19:41:06.932.09-Sep-2020 5260.01 6286.11 74.29 23.00 359.57 2544.55
   19:41:07.132.09-Sep-2020 5260.01 6298.00 74.29 23.00 359.77 2544.55
   19:41:07.332.09-Sep-2020 5260.01 6282.49 74.29 23.00 359.97 2544.55
   19:41:07.533.09-Sep-2020 5260.01 6291.47 74.29 23.00 360.17 2544.55
   19:41:07.733.09-Sep-2020 5260.01 6291.47 74.29 23.00 360.37 2544.55
   19:41:07.933.09-Sep-2020 5260.01 6287.79 74.29 23.00 360.57 2544.55
   19:41:08.133.09-Sep-2020 5260.01 6287.23 74.29 23.00 360.77 2544.55
   19:41:08.333.09-Sep-2020 5260.01 6291.03 74.29 23.00 360.97 2544.55
   19:41:08.533.09-Sep-2020 5260.01 6287.63 74.29 23.00 361.17 2544.55
   19:41:08.733.09-Sep-2020 5260.01 6287.63 74.29 23.00 361.37 2544.55
   19:41:08.933.09-Sep-2020 5260.01 6287.77 74.29 23.00 361.57 2544.55
