~Version Information
 VERS.                  2.0:   CWLS log ASCII Standard -VERSION 2.0
 WRAP.                   NO:   One line per depth step
~Well Information Block
#MNEM.UNIT     VALUE/NAME     DESCRIPTION
#---------     -----------    ---------------------------
 STRT.S             12:11:10 09-Sep-20: START TIME 12:11:10 09-Sep-20
 STOP.S             12:17:44 09-Sep-20: STOP TIME  12:17:44 09-Sep-20
 STEP.S                   0.00: STEP TIME
 NULL.                 -999.25: NULL VALUE
 MDS .        Operator Entered:  MAG DATA SOURCE
 PDAT.          Mean Sea Level:  PERMANENT DATUM
 DCON.         Sperry Drilling:  DIRECTNL CONTR
 RIG .              West Azeri:  RIG NAME
 WELL.           C40 (Slot 20):  WELL NAME
 SRVC.     Turan Drilling Engineering:  CONTRACTOR
 FLD .                     ACG:  FIELD NAME
 CTRY.              Azerbaijan:  COUNTRY NAME
 PROV.                    Baku:  PROVINCE
 STAT.                    Baku:  STATE NAME
 REGN.                   EESSA:  REGION
 BASE.              Azerbaijan:  LOGGING EQUIPMENT BASE LOCATION
 COMP.     BP Exploration (Caspian Sea) Ltd:  COMPANY
 WTYP.                Deviated:  WELL TYPE
 SON .        AZ-XX-0906344804:  JOB NUMBER
 FTOP.          Formation Tops:  FORM TOPS DESC
 ILTD.               Lithology:  INTERP LTH DESC
 SVYD.                  Survey:  SURVEY DESC
 DMOD.             Drill Model:  DRILL MOD DESC
 HPTY.       Minimum Curvature:  HOLE POS TYPE
 NREF.                    Grid:  NORTH REFERENCE
 SPUD.               01-Jan-20:  SPUD DATE
 DATE.      00.59.44 15-Sep-20:  END TIME
 STIM.      12.00.00 12-Jun-20:  START TIME
 DMF .             Drill Floor:  DRILL MEAS FROM
 DFST.                        :  DIST FSL TEXT
 DFWT.                        :  DIST FWL TEXT
 API .                        :  API NUMBER
 CNTY.                        :  COUNTY
 UWI .                        :  UNIQUE WELL IDENTIFIER
 LOC .                        :  LOCATION
 LMF .             Drill Floor:  LOG MEASURED FROM
 VSNS.m                   2.88:  VERT SEC N/S
 VSEW.m                  -3.84:  VERT SEC E/W
 AGAP.m                  43.42:  AIR GAP
 APD .m                  43.42:  DEPTH ABOVE PD
 WDMS.m                 118.27:  WD ELEV
 EGL .m                   0.00:  GROUND ELEVATION
 EPD .m                   0.00:  ELEVATION
 AZTC.deg                 6.23:  AZM TOTAL CORR
 GRDC.deg                 0.20:  GRID CORRECTION
 MDEC.deg                 6.43:  MAGNETIC DECL
 MDIP.deg                59.49:  MAGNETIC DIP
 MFLD.nT              50277.00:  MAGNETIC FIELD
 GVFD.g                   1.00:  GRAVITY FIELD
 VSDR.deg               173.20:  VERT SEC DIRECT
 TDD .m                5790.01:  TOTAL DEPTH (DRILLER)
 SDEP.m                5231.01:  START DEPTH
 DFSL.m                   0.00:  DISTANCE FSL
 DFWL.m                   0.00:  DISTANCE FWL
 UTMY.m             4435808.83:  UTM Y
 UTMX.m              526266.40:  UTM X
 WHEW.m                  -3.84:  WELL HEAD E/W
 WHNS.m                   2.88:  WELL HEAD N/S
 LONG.deg                51.31:  LONGITUDE
 LATI.deg                40.06:  LATITUDE
 TVDS.m                  43.42:  TVDSS CORRECTN
 DEP .m                 430.08:  DEPTH
 EKB .m                  43.42:  KB ELEVATION
 EDF .m                  43.42:  DF ELEVATION
 TDL .m                 559.00:  TOTAL DEPTH (LOGGER)
 MAGU.                 1849381:  MAGUTM CHECKSUM
 VSC .                       0:  VS TO CLOSURE
~Parameter Information Block
#MNEM.UNIT       Value        Description
#---------     -----------    ---------------------------
 AV  .mps                 4.87:  Ann Velocity 
 AVMX.mps                 7.08:  Max Ann Veloc 
 AZIF.deg               108.87:  Azm, Final 
 BHAT.                  Rotary:  BHA Type 
 BROT.°/30m               0.35:  Build Rotating 
 BS  .in                  8.50:  Bit Size 
 BSZ .in                  8.50:  Bit Size 
 BTPL.psig              360.00:  Bit Press Loss 
 CABU.                     Yes:  Customer Abuse 
 COMM.                     œ-L:  Run Comments 1 
 TCS .hr                106.24:  Time Ciculation Ended 
 CV  .mps                 1.77:  Crit Velocity 
 CVMX.mps                 2.03:  Max Crit Veloc 
 DD1 .         Aykhan Agagulov:  Direct Drillr 1 
 DD2 .            Nonso Okofor:  Direct Drillr 2 
 DDSV.               Geo-Pilot:  DD Service 
 DEFF.%                  98.00:  % Det Eff 
 DLRX.°/30m               0.50:  Dogleg Rot Max 
 DLSO.°/30m               0.40:  Dogleg Oriented 
 DLSX.°/30m               0.94:  Dogleg Str Max 
 DRET.      20.30.00 08-Sep-20:  Drill End Time 
 DRST.      22.15.00 06-Sep-20:  Drill Start Tim 
 DTIM.hr                 31.31:  Time Drilling 
 EDEP.m                5790.01:  End Depth 
 ENG1.           Amrah Tahirov:  Engineer 1 
 ENG2.         Dair Mahammadov:  Engineer 2 
 ENG3.           Emil Huseynov:  Engineer 3 
 ETIM.      04.01.04 12-Sep-20:  End Time 
 FLOI.gpm               450.00:  Flow In 
 FLON.gpm               450.00:  Flow In Min 
 FLOS.cptm                2.00:  Fluid Loss 
 FLOX.gpm               450.00:  Flow In Max 
 FTRO.       Formation Presure:  FTWD Run Obj 
 HFLO.                      No:  High Flow 
 HPRE.                      No:  High Pressure 
 HTEM.                      No:  High Temp 
 HYDO.m                   1.80:  Hydro Offset 
 IFIN.deg                72.03:  Inc, Final 
 IMAX.deg                73.72:  Inc Max 
 IMIN.deg                70.94:  Inc Min 
 IMND.m                5508.52:  Inc Min Depth 
 IMXD.m                5253.60:  Inc Max Depth 
 JARR.                      No:  Jarring 
 LETM.      20.30.00 08-Sep-20:  Log End Time 
 LOST.hr                     0:  Lost Rig Time 
 LSTM.      22.15.00 06-Sep-20:  Log Start Time 
 MDCL.ppm             36000.00:  Mud Chlorides 
 MDES.     Inversion Oil/Synthetic:  Mud Desc 
 DFD .sg                  1.44:  Mud Density 
 MDMN.sg                  1.44:  Dens Mud Min 
 MDMX.sg                  1.57:  Dens Mud Max 
 MOIL.                      70:  Run Mud Oil % 
 MOWR.                   70:30:  Run Mud OWR 
 MSND.                       0:  Run Mud Sand % 
 MSOL.                      21:  Run Mud Solids% 
 DFV .spqt               68.00:  Mud Viscosity 
 MWOD.in                  6.75:  MWD Tool OD 
 MWSI.                     Yes:  Serv Intrp, MWD 
 OTIM.hr                174.84:  Time Operating 
 PCON.           Look Like New:  Pad Condition 
 PMAX.psia            10616.93:  Press Op, Max 
 PV  .cP                 50.00:  Mud PV 
 RUN .                     700:  Run Number 
 ROPA.m/hr               14.24:  ROP Avg 
 ROPN.m/hr               10.00:  ROP Min 
 ROPX.m/hr               32.00:  ROP Max 
 RPMA.rpm               120.90:  RPM Surface Avg 
 RPMN.rpm               120.00:  RPM Surface Min 
 RPMX.rpm               140.00:  RPM Surface Max 
 RRUN.                    0700:  Rig Run Number 
 RTIM.hr                  3.20:  Time Reaming 
 SAZI.deg               109.99:  Azm, Start 
 SDEP.m                5231.01:  Start Depth 
 SIDD.                      No:  Serv Intrp, DD 
 SINC.deg                73.72:  Inc, Start 
 SPPA.psig             3051.00:  SPP Avg 
 SPPN.psig             2950.00:  SPP Min 
 SPPX.psig             3250.00:  SPP Max 
 STIM.      08.00.00 05-Sep-20:  Start Time 
 SVCS.                 DD, MWD:  Services 
 SVER.                    9.20:  Sperry Version 
 TDAT.m                 559.00:  Tot Depth Attmp 
 TDDF.                      No:  Trip for DD 
 TDLG.m                 559.00:  Tot Depth Loggd 
 TFF .                      No:  Trip for Fail 
 TQAA.f-kp               26.49:  Torque Abs Avg 
 TQAN.f-kp               25.00:  Torque Abs Min 
 TQAX.f-kp               27.00:  Torque Abs Max 
 TRRT.°/30m               1.50:  Turn Rotating 
 MRT .                    HCIM:  Maximum Recorded Temperature 
 TTMX.degC               90.20:  Max Tool Temp 
 VS01.                90542671:  Virtual Str1 SN 
 VS02.                90545185:  Virtual Str2 SN 
 VS03.                90602015:  Virtual Str3 SN 
 VS04.                90515230:  Virtual Str4 SN 
 WBMN.klb                 5.00:  WOB Min 
 WOBA.klb                14.79:  WOB Avg 
 WOBX.klb                20.00:  WOB Max 
 YP  .lhf2               29.00:  Yield Point 
~Curve Information Block
#MNEM.UNIT                 API CODE     Curve Description
#---------               -----------    ---------------------------
 TIME.HHMMSS            00 000 000 000:  GT Time & Date
 GTDEPTH.m              00 000 000 000:  GT Depth
 GTPQH.psia             00 000 000 000:  GT HR Quartz Pressure
 GTTQ.degC              00 000 000 000:  GT Quartz Temperature
 GTTN.NONE              00 000 000 000:  GT Test Number
 GTET.sec               00 000 000 000:  GT Elapsed Test Time
 GTTVD.m                00 000 000 000:  GT True Vertical Depth
#Other Information
#
#WARRANTY: Halliburton will use its best efforts to furnish customers with 
#accurate information and interpretations that are part of, and incident to, the services 
#provided.  However, Halliburton cannot and does not warrant the accuracy 
#or correctness of such information and interpretations.  Under no circumstances should any 
#such information or interpretation be relied upon as the sole basis for any drilling, 
#completion, production, or financial decision or any procedure involving any risk to the 
#safety of any drilling venture, drilling rig or its crew or any other third party.  The 
#Customer has full responsibility for all drilling, completion and production operation.  
#Halliburton makes no representations or warranties, either expressed or 
#implied, including, but not limited to, the implied warranties of merchantability or fitness 
#for a particular purpose, with respect to the services rendered.  In no event will 
#Halliburton be liable for failure to obtain any particular results or for 
#any damages, including, but not limited to, indirect, special or consequential damages, 
#resulting from the use of any information or interpretation provided by Halliburton.
#
~A           TIME           GTDEPTH  GTPQH  GTTQ  GTTN   GTET   GTTVD  
# ...
   12:13:25.600.09-Sep-2020 5424.01  939.18 75.70 13.00 135.60 2594.63
   12:13:25.800.09-Sep-2020 5424.01  939.75 75.70 13.00 135.80 2594.63
   12:13:26.000.09-Sep-2020 5424.01  940.52 75.70 13.00 136.00 2594.63
   12:13:26.200.09-Sep-2020 5424.01  940.85 75.70 13.00 136.20 2594.63
   12:13:26.400.09-Sep-2020 5424.01  940.87 75.70 13.00 136.40 2594.63
   12:13:26.600.09-Sep-2020 5424.01  942.25 75.70 13.00 136.60 2594.63
   12:13:26.800.09-Sep-2020 5424.01  942.86 75.70 13.00 136.80 2594.63
   12:13:27.000.09-Sep-2020 5424.01  943.45 75.70 13.00 137.00 2594.63
   12:13:27.200.09-Sep-2020 5424.01  943.45 75.70 13.00 137.20 2594.63
   12:13:27.400.09-Sep-2020 5424.01  944.62 75.70 13.00 137.40 2594.63
   12:13:27.600.09-Sep-2020 5424.01  945.23 75.70 13.00 137.60 2594.63
   12:13:27.800.09-Sep-2020 5424.01  945.86 75.70 13.00 137.80 2594.63
   12:13:28.000.09-Sep-2020 5424.01  946.48 75.70 13.00 138.00 2594.63
   12:13:28.200.09-Sep-2020 5424.01  946.48 75.70 13.00 138.20 2594.63
   12:13:28.400.09-Sep-2020 5424.01  947.78 75.70 13.00 138.40 2594.63
   12:13:28.600.09-Sep-2020 5424.01  948.40 75.70 13.00 138.60 2594.63
   12:13:28.800.09-Sep-2020 5424.01  948.21 75.70 13.00 138.80 2594.63
   12:13:29.000.09-Sep-2020 5424.01  949.56 75.70 13.00 139.00 2594.63
   12:13:29.200.09-Sep-2020 5424.01  949.56 75.70 13.00 139.20 2594.63
   12:13:29.400.09-Sep-2020 5424.01  950.79 75.70 13.00 139.40 2594.63
   12:13:29.600.09-Sep-2020 5424.01  951.54 75.70 13.00 139.60 2594.63
   12:13:29.800.09-Sep-2020 5424.01  952.07 75.70 13.00 139.80 2594.63
   12:13:30.000.09-Sep-2020 5424.01  952.70 75.70 13.00 140.00 2594.63
   12:13:30.200.09-Sep-2020 5424.01  953.31 75.70 13.00 140.20 2594.63
   12:13:30.400.09-Sep-2020 5424.01  953.98 75.70 13.00 140.40 2594.63
   12:13:30.600.09-Sep-2020 5424.01  954.56 75.70 13.00 140.60 2594.63
   12:13:30.800.09-Sep-2020 5424.01  955.17 75.70 13.00 140.80 2594.63
   12:13:31.000.09-Sep-2020 5424.01  958.90 75.70 13.00 141.00 2594.63
   12:13:31.200.09-Sep-2020 5424.01  958.90 75.70 13.00 141.20 2594.63
   12:13:31.400.09-Sep-2020 5424.01  958.90 75.70 13.00 141.40 2594.63
   12:13:31.600.09-Sep-2020 5424.01  960.54 75.70 13.00 141.60 2594.63
   12:13:31.800.09-Sep-2020 5424.01  960.27 75.70 13.00 141.80 2594.63
   12:13:32.000.09-Sep-2020 5424.01  960.19 75.70 13.00 142.00 2594.63
   12:13:32.200.09-Sep-2020 5424.01  960.19 75.70 13.00 142.20 2594.63
   12:13:32.400.09-Sep-2020 5424.01  961.57 75.70 13.00 142.40 2594.63
   12:13:32.600.09-Sep-2020 5424.01  962.07 75.70 13.00 142.60 2594.63
   12:13:32.800.09-Sep-2020 5424.01  962.67 75.70 13.00 142.80 2594.63
   12:13:33.000.09-Sep-2020 5424.01  963.26 75.70 13.00 143.00 2594.63
   12:13:33.200.09-Sep-2020 5424.01  963.83 75.70 13.00 143.20 2594.63
   12:13:33.400.09-Sep-2020 5424.01  964.48 75.70 13.00 143.40 2594.63
   12:13:33.600.09-Sep-2020 5424.01  965.12 75.70 13.00 143.60 2594.63
   12:13:33.800.09-Sep-2020 5424.01  965.76 75.70 13.00 143.80 2594.63
   12:13:34.000.09-Sep-2020 5424.01  966.38 75.70 13.00 144.00 2594.63
   12:13:34.200.09-Sep-2020 5424.01  966.38 75.70 13.00 144.20 2594.63
   12:13:34.400.09-Sep-2020 5424.01  967.54 75.70 13.00 144.40 2594.63
   12:13:34.600.09-Sep-2020 5424.01  967.28 75.70 13.00 144.60 2594.63
   12:13:34.800.09-Sep-2020 5424.01  968.72 75.70 13.00 144.80 2594.63
   12:13:35.000.09-Sep-2020 5424.01  969.34 75.70 13.00 145.00 2594.63
   12:13:35.200.09-Sep-2020 5424.01  969.34 75.70 13.00 145.20 2594.63
   12:13:35.400.09-Sep-2020 5424.01  970.45 75.70 13.00 145.40 2594.63
   12:13:35.600.09-Sep-2020 5424.01  971.19 75.70 13.00 145.60 2594.63
   12:13:35.800.09-Sep-2020 5424.01  970.46 75.70 13.00 145.80 2594.63
   12:13:36.000.09-Sep-2020 5424.01  972.63 75.70 13.00 146.00 2594.63
   12:13:36.200.09-Sep-2020 5424.01  972.63 75.70 13.00 146.20 2594.63
   12:13:36.400.09-Sep-2020 5424.01  973.42 75.70 13.00 146.40 2594.63
   12:13:36.600.09-Sep-2020 5424.01  973.93 75.70 13.00 146.60 2594.63
   12:13:36.800.09-Sep-2020 5424.01  974.78 75.70 13.00 146.80 2594.63
   12:13:37.000.09-Sep-2020 5424.01  975.26 75.70 13.00 147.00 2594.63
   12:13:37.200.09-Sep-2020 5424.01  975.86 75.71 13.00 147.20 2594.63
   12:13:37.400.09-Sep-2020 5424.01  975.65 75.70 13.00 147.40 2594.63
   12:13:37.600.09-Sep-2020 5424.01  976.99 75.70 13.00 147.60 2594.63
   12:13:37.800.09-Sep-2020 5424.01  978.25 75.71 13.00 147.80 2594.63
   12:13:38.000.09-Sep-2020 5424.01  837.77 75.70 13.00 148.00 2594.63
   12:13:38.200.09-Sep-2020 5424.01  837.77 75.70 13.00 148.20 2594.63
   12:13:38.400.09-Sep-2020 5424.01  599.66 75.70 13.00 148.40 2594.63
   12:13:38.600.09-Sep-2020 5424.01  574.14 75.71 13.00 148.60 2594.63
   12:13:38.800.09-Sep-2020 5424.01  563.80 75.70 13.00 148.80 2594.63
   12:13:39.000.09-Sep-2020 5424.01  556.10 75.71 13.00 149.00 2594.63
   12:13:39.200.09-Sep-2020 5424.01  556.10 75.71 13.00 149.20 2594.63
   12:13:39.400.09-Sep-2020 5424.01  548.51 75.70 13.00 149.40 2594.63
   12:13:39.600.09-Sep-2020 5424.01  541.30 75.70 13.00 149.60 2594.63
   12:13:39.800.09-Sep-2020 5424.01  542.02 75.70 13.00 149.80 2594.63
   12:13:40.000.09-Sep-2020 5424.01  543.46 75.70 13.00 150.00 2594.63
   12:13:40.200.09-Sep-2020 5424.01  543.46 75.70 13.00 150.20 2594.63
   12:13:40.400.09-Sep-2020 5424.01  546.68 75.70 13.00 150.40 2594.63
   12:13:40.600.09-Sep-2020 5424.01  548.39 75.70 13.00 150.60 2594.63
   12:13:40.800.09-Sep-2020 5424.01  548.17 75.70 13.00 150.80 2594.63
   12:13:41.000.09-Sep-2020 5424.01  546.45 75.70 13.00 151.00 2594.63
   12:13:41.200.09-Sep-2020 5424.01  546.45 75.70 13.00 151.20 2594.63
   12:13:41.400.09-Sep-2020 5424.01  542.19 75.70 13.00 151.40 2594.63
   12:13:41.600.09-Sep-2020 5424.01  542.09 75.70 13.00 151.60 2594.63
   12:13:41.800.09-Sep-2020 5424.01  540.67 75.70 13.00 151.80 2594.63
   12:13:42.000.09-Sep-2020 5424.01  540.47 75.70 13.00 152.00 2594.63
   12:13:42.200.09-Sep-2020 5424.01  540.47 75.70 13.00 152.20 2594.63
   12:13:42.400.09-Sep-2020 5424.01  542.76 75.70 13.00 152.40 2594.63
   12:13:42.600.09-Sep-2020 5424.01  543.96 75.70 13.00 152.60 2594.63
   12:13:42.800.09-Sep-2020 5424.01  545.21 75.70 13.00 152.80 2594.63
   12:13:43.000.09-Sep-2020 5424.01  544.64 75.70 13.00 153.00 2594.63
   12:13:43.200.09-Sep-2020 5424.01  544.64 75.70 13.00 153.20 2594.63
   12:13:43.400.09-Sep-2020 5424.01  536.25 75.70 13.00 153.40 2594.63
   12:13:43.600.09-Sep-2020 5424.01  537.13 75.70 13.00 153.60 2594.63
   12:13:43.800.09-Sep-2020 5424.01  537.75 75.70 13.00 153.80 2594.63
   12:13:44.000.09-Sep-2020 5424.01  539.24 75.70 13.00 154.00 2594.63
   12:13:44.200.09-Sep-2020 5424.01  539.24 75.70 13.00 154.20 2594.63
   12:13:44.400.09-Sep-2020 5424.01  541.30 75.70 13.00 154.40 2594.63
   12:13:44.600.09-Sep-2020 5424.01  542.50 75.70 13.00 154.60 2594.63
   12:13:44.800.09-Sep-2020 5424.01  543.40 75.70 13.00 154.80 2594.63
   12:13:45.000.09-Sep-2020 5424.01  544.46 75.70 13.00 155.00 2594.63
   12:13:45.200.09-Sep-2020 5424.01  545.54 75.70 13.00 155.20 2594.63
   12:13:45.400.09-Sep-2020 5424.01  546.67 75.70 13.00 155.40 2594.63
   12:13:45.600.09-Sep-2020 5424.01  547.81 75.69 13.00 155.60 2594.63
   12:13:45.800.09-Sep-2020 5424.01  548.91 75.69 13.00 155.80 2594.63
   12:13:46.000.09-Sep-2020 5424.01  549.86 75.69 13.00 156.00 2594.63
   12:13:46.200.09-Sep-2020 5424.01  549.86 75.69 13.00 156.20 2594.63
   12:13:46.400.09-Sep-2020 5424.01  541.45 75.69 13.00 156.40 2594.63
   12:13:46.600.09-Sep-2020 5424.01  534.76 75.69 13.00 156.60 2594.63
   12:13:46.800.09-Sep-2020 5424.01  534.66 75.69 13.00 156.80 2594.63
   12:13:47.000.09-Sep-2020 5424.01  534.91 75.69 13.00 157.00 2594.63
   12:13:47.200.09-Sep-2020 5424.01  534.91 75.69 13.00 157.20 2594.63
   12:13:47.400.09-Sep-2020 5424.01  535.49 75.69 13.00 157.40 2594.63
   12:13:47.600.09-Sep-2020 5424.01  529.51 75.69 13.00 157.60 2594.63
   12:13:47.800.09-Sep-2020 5424.01  528.27 75.69 13.00 157.80 2594.63
   12:13:48.000.09-Sep-2020 5424.01  529.15 75.69 13.00 158.00 2594.63
