~Version Information
 VERS.                  2.0:   CWLS log ASCII Standard -VERSION 2.0
 WRAP.                   NO:   One line per depth step
~Well Information Block
#MNEM.UNIT     VALUE/NAME     DESCRIPTION
#---------     -----------    ---------------------------
 STRT.S             10:55:02 09-Sep-20: START TIME 10:55:02 09-Sep-20
 STOP.S             11:02:04 09-Sep-20: STOP TIME  11:02:04 09-Sep-20
 STEP.S                   0.00: STEP TIME
 NULL.                 -999.25: NULL VALUE
 MDS .        Operator Entered:  MAG DATA SOURCE
 PDAT.          Mean Sea Level:  PERMANENT DATUM
 DCON.         Sperry Drilling:  DIRECTNL CONTR
 RIG .              West Azeri:  RIG NAME
 WELL.           C40 (Slot 20):  WELL NAME
 SRVC.     Turan Drilling Engineering:  CONTRACTOR
 FLD .                     ACG:  FIELD NAME
 CTRY.              Azerbaijan:  COUNTRY NAME
 PROV.                    Baku:  PROVINCE
 STAT.                    Baku:  STATE NAME
 REGN.                   EESSA:  REGION
 BASE.              Azerbaijan:  LOGGING EQUIPMENT BASE LOCATION
 COMP.     BP Exploration (Caspian Sea) Ltd:  COMPANY
 WTYP.                Deviated:  WELL TYPE
 SON .        AZ-XX-0906344804:  JOB NUMBER
 FTOP.          Formation Tops:  FORM TOPS DESC
 ILTD.               Lithology:  INTERP LTH DESC
 SVYD.                  Survey:  SURVEY DESC
 DMOD.             Drill Model:  DRILL MOD DESC
 HPTY.       Minimum Curvature:  HOLE POS TYPE
 NREF.                    Grid:  NORTH REFERENCE
 SPUD.               01-Jan-20:  SPUD DATE
 DATE.      00.59.44 15-Sep-20:  END TIME
 STIM.      12.00.00 12-Jun-20:  START TIME
 DMF .             Drill Floor:  DRILL MEAS FROM
 DFST.                        :  DIST FSL TEXT
 DFWT.                        :  DIST FWL TEXT
 API .                        :  API NUMBER
 CNTY.                        :  COUNTY
 UWI .                        :  UNIQUE WELL IDENTIFIER
 LOC .                        :  LOCATION
 LMF .             Drill Floor:  LOG MEASURED FROM
 VSNS.m                   2.88:  VERT SEC N/S
 VSEW.m                  -3.84:  VERT SEC E/W
 AGAP.m                  43.42:  AIR GAP
 APD .m                  43.42:  DEPTH ABOVE PD
 WDMS.m                 118.27:  WD ELEV
 EGL .m                   0.00:  GROUND ELEVATION
 EPD .m                   0.00:  ELEVATION
 AZTC.deg                 6.23:  AZM TOTAL CORR
 GRDC.deg                 0.20:  GRID CORRECTION
 MDEC.deg                 6.43:  MAGNETIC DECL
 MDIP.deg                59.49:  MAGNETIC DIP
 MFLD.nT              50277.00:  MAGNETIC FIELD
 GVFD.g                   1.00:  GRAVITY FIELD
 VSDR.deg               173.20:  VERT SEC DIRECT
 TDD .m                5790.01:  TOTAL DEPTH (DRILLER)
 SDEP.m                5231.01:  START DEPTH
 DFSL.m                   0.00:  DISTANCE FSL
 DFWL.m                   0.00:  DISTANCE FWL
 UTMY.m             4435808.83:  UTM Y
 UTMX.m              526266.40:  UTM X
 WHEW.m                  -3.84:  WELL HEAD E/W
 WHNS.m                   2.88:  WELL HEAD N/S
 LONG.deg                51.31:  LONGITUDE
 LATI.deg                40.06:  LATITUDE
 TVDS.m                  43.42:  TVDSS CORRECTN
 DEP .m                 430.08:  DEPTH
 EKB .m                  43.42:  KB ELEVATION
 EDF .m                  43.42:  DF ELEVATION
 TDL .m                 559.00:  TOTAL DEPTH (LOGGER)
 MAGU.                 1849381:  MAGUTM CHECKSUM
 VSC .                       0:  VS TO CLOSURE
~Parameter Information Block
#MNEM.UNIT       Value        Description
#---------     -----------    ---------------------------
 AV  .mps                 4.87:  Ann Velocity 
 AVMX.mps                 7.08:  Max Ann Veloc 
 AZIF.deg               108.87:  Azm, Final 
 BHAT.                  Rotary:  BHA Type 
 BROT.°/30m               0.35:  Build Rotating 
 BS  .in                  8.50:  Bit Size 
 BSZ .in                  8.50:  Bit Size 
 BTPL.psig              360.00:  Bit Press Loss 
 CABU.                     Yes:  Customer Abuse 
 COMM.                     ¬Î:  Run Comments 1 
 TCS .hr                106.24:  Time Ciculation Ended 
 CV  .mps                 1.77:  Crit Velocity 
 CVMX.mps                 2.03:  Max Crit Veloc 
 DD1 .         Aykhan Agagulov:  Direct Drillr 1 
 DD2 .            Nonso Okofor:  Direct Drillr 2 
 DDSV.               Geo-Pilot:  DD Service 
 DEFF.%                  98.00:  % Det Eff 
 DLRX.°/30m               0.50:  Dogleg Rot Max 
 DLSO.°/30m               0.40:  Dogleg Oriented 
 DLSX.°/30m               0.94:  Dogleg Str Max 
 DRET.      20.30.00 08-Sep-20:  Drill End Time 
 DRST.      22.15.00 06-Sep-20:  Drill Start Tim 
 DTIM.hr                 31.31:  Time Drilling 
 EDEP.m                5790.01:  End Depth 
 ENG1.           Amrah Tahirov:  Engineer 1 
 ENG2.         Dair Mahammadov:  Engineer 2 
 ENG3.           Emil Huseynov:  Engineer 3 
 ETIM.      04.01.04 12-Sep-20:  End Time 
 FLOI.gpm               450.00:  Flow In 
 FLON.gpm               450.00:  Flow In Min 
 FLOS.cptm                2.00:  Fluid Loss 
 FLOX.gpm               450.00:  Flow In Max 
 FTRO.       Formation Presure:  FTWD Run Obj 
 HFLO.                      No:  High Flow 
 HPRE.                      No:  High Pressure 
 HTEM.                      No:  High Temp 
 HYDO.m                   1.80:  Hydro Offset 
 IFIN.deg                72.03:  Inc, Final 
 IMAX.deg                73.72:  Inc Max 
 IMIN.deg                70.94:  Inc Min 
 IMND.m                5508.52:  Inc Min Depth 
 IMXD.m                5253.60:  Inc Max Depth 
 JARR.                      No:  Jarring 
 LETM.      20.30.00 08-Sep-20:  Log End Time 
 LOST.hr                     0:  Lost Rig Time 
 LSTM.      22.15.00 06-Sep-20:  Log Start Time 
 MDCL.ppm             36000.00:  Mud Chlorides 
 MDES.     Inversion Oil/Synthetic:  Mud Desc 
 DFD .sg                  1.44:  Mud Density 
 MDMN.sg                  1.44:  Dens Mud Min 
 MDMX.sg                  1.57:  Dens Mud Max 
 MOIL.                      70:  Run Mud Oil % 
 MOWR.                   70:30:  Run Mud OWR 
 MSND.                       0:  Run Mud Sand % 
 MSOL.                      21:  Run Mud Solids% 
 DFV .spqt               68.00:  Mud Viscosity 
 MWOD.in                  6.75:  MWD Tool OD 
 MWSI.                     Yes:  Serv Intrp, MWD 
 OTIM.hr                174.84:  Time Operating 
 PCON.           Look Like New:  Pad Condition 
 PMAX.psia            10616.93:  Press Op, Max 
 PV  .cP                 50.00:  Mud PV 
 RUN .                     700:  Run Number 
 ROPA.m/hr               14.24:  ROP Avg 
 ROPN.m/hr               10.00:  ROP Min 
 ROPX.m/hr               32.00:  ROP Max 
 RPMA.rpm               120.90:  RPM Surface Avg 
 RPMN.rpm               120.00:  RPM Surface Min 
 RPMX.rpm               140.00:  RPM Surface Max 
 RRUN.                    0700:  Rig Run Number 
 RTIM.hr                  3.20:  Time Reaming 
 SAZI.deg               109.99:  Azm, Start 
 SDEP.m                5231.01:  Start Depth 
 SIDD.                      No:  Serv Intrp, DD 
 SINC.deg                73.72:  Inc, Start 
 SPPA.psig             3051.00:  SPP Avg 
 SPPN.psig             2950.00:  SPP Min 
 SPPX.psig             3250.00:  SPP Max 
 STIM.      08.00.00 05-Sep-20:  Start Time 
 SVCS.                 DD, MWD:  Services 
 SVER.                    9.20:  Sperry Version 
 TDAT.m                 559.00:  Tot Depth Attmp 
 TDDF.                      No:  Trip for DD 
 TDLG.m                 559.00:  Tot Depth Loggd 
 TFF .                      No:  Trip for Fail 
 TQAA.f-kp               26.49:  Torque Abs Avg 
 TQAN.f-kp               25.00:  Torque Abs Min 
 TQAX.f-kp               27.00:  Torque Abs Max 
 TRRT.°/30m               1.50:  Turn Rotating 
 MRT .                    HCIM:  Maximum Recorded Temperature 
 TTMX.degC               90.20:  Max Tool Temp 
 VS01.                90542671:  Virtual Str1 SN 
 VS02.                90545185:  Virtual Str2 SN 
 VS03.                90602015:  Virtual Str3 SN 
 VS04.                90515230:  Virtual Str4 SN 
 WBMN.klb                 5.00:  WOB Min 
 WOBA.klb                14.79:  WOB Avg 
 WOBX.klb                20.00:  WOB Max 
 YP  .lhf2               29.00:  Yield Point 
~Curve Information Block
#MNEM.UNIT                 API CODE     Curve Description
#---------               -----------    ---------------------------
 TIME.HHMMSS            00 000 000 000:  GT Time & Date
 GTDEPTH.m              00 000 000 000:  GT Depth
 GTPQH.psia             00 000 000 000:  GT HR Quartz Pressure
 GTTQ.degC              00 000 000 000:  GT Quartz Temperature
 GTTN.NONE              00 000 000 000:  GT Test Number
 GTET.sec               00 000 000 000:  GT Elapsed Test Time
 GTTVD.m                00 000 000 000:  GT True Vertical Depth
#Other Information
#
#WARRANTY: Halliburton will use its best efforts to furnish customers with 
#accurate information and interpretations that are part of, and incident to, the services 
#provided.  However, Halliburton cannot and does not warrant the accuracy 
#or correctness of such information and interpretations.  Under no circumstances should any 
#such information or interpretation be relied upon as the sole basis for any drilling, 
#completion, production, or financial decision or any procedure involving any risk to the 
#safety of any drilling venture, drilling rig or its crew or any other third party.  The 
#Customer has full responsibility for all drilling, completion and production operation.  
#Halliburton makes no representations or warranties, either expressed or 
#implied, including, but not limited to, the implied warranties of merchantability or fitness 
#for a particular purpose, with respect to the services rendered.  In no event will 
#Halliburton be liable for failure to obtain any particular results or for 
#any damages, including, but not limited to, indirect, special or consequential damages, 
#resulting from the use of any information or interpretation provided by Halliburton.
#
~A           TIME           GTDEPTH  GTPQH  GTTQ  GTTN   GTET   GTTVD  
# ...
   10:56:32.616.09-Sep-2020 5456.01 3588.82 76.36 10.00  90.42 2604.72
   10:56:32.816.09-Sep-2020 5456.01 3588.87 76.36 10.00  90.63 2604.72
   10:56:33.016.09-Sep-2020 5456.01 3588.88 76.36 10.00  90.83 2604.72
   10:56:33.216.09-Sep-2020 5456.01 3588.83 76.36 10.00  91.03 2604.72
   10:56:33.416.09-Sep-2020 5456.01 3588.83 76.36 10.00  91.23 2604.72
   10:56:33.616.09-Sep-2020 5456.01 3588.88 76.36 10.00  91.43 2604.72
   10:56:33.816.09-Sep-2020 5456.01 3588.82 76.36 10.00  91.63 2604.72
   10:56:34.017.09-Sep-2020 5456.01 3588.88 76.36 10.00  91.83 2604.72
   10:56:34.217.09-Sep-2020 5456.01 3588.96 76.36 10.00  92.03 2604.72
   10:56:34.417.09-Sep-2020 5456.01 3588.96 76.36 10.00  92.23 2604.72
   10:56:34.617.09-Sep-2020 5456.01 3588.85 76.36 10.00  92.43 2604.72
   10:56:34.817.09-Sep-2020 5456.01 3588.87 76.36 10.00  92.63 2604.72
   10:56:35.017.09-Sep-2020 5456.01 3588.87 76.36 10.00  92.83 2604.72
   10:56:35.217.09-Sep-2020 5456.01 3588.87 76.36 10.00  93.03 2604.72
   10:56:35.417.09-Sep-2020 5456.01 3588.87 76.36 10.00  93.23 2604.72
   10:56:35.617.09-Sep-2020 5456.01 3588.88 76.36 10.00  93.43 2604.72
   10:56:35.817.09-Sep-2020 5456.01 3588.87 76.36 10.00  93.63 2604.72
   10:56:36.017.09-Sep-2020 5456.01 3588.86 76.36 10.00  93.83 2604.72
   10:56:36.217.09-Sep-2020 5456.01 3588.86 76.36 10.00  94.03 2604.72
   10:56:36.417.09-Sep-2020 5456.01 3588.86 76.36 10.00  94.23 2604.72
   10:56:36.617.09-Sep-2020 5456.01 3588.89 76.36 10.00  94.43 2604.72
   10:56:36.817.09-Sep-2020 5456.01 3588.88 76.36 10.00  94.63 2604.72
   10:56:37.017.09-Sep-2020 5456.01 3588.42 76.36 10.00  94.83 2604.72
   10:56:37.217.09-Sep-2020 5456.01 3589.36 76.36 10.00  95.03 2604.72
   10:56:37.417.09-Sep-2020 5456.01 3589.36 76.36 10.00  95.23 2604.72
   10:56:37.618.09-Sep-2020 5456.01 3588.86 76.36 10.00  95.43 2604.72
   10:56:37.818.09-Sep-2020 5456.01 3588.89 76.36 10.00  95.63 2604.72
   10:56:38.018.09-Sep-2020 5456.01 3588.90 76.36 10.00  95.83 2604.72
   10:56:38.218.09-Sep-2020 5456.01 3588.86 76.36 10.00  96.03 2604.72
   10:56:38.418.09-Sep-2020 5456.01 3588.86 76.36 10.00  96.23 2604.72
   10:56:38.618.09-Sep-2020 5456.01 3588.89 76.36 10.00  96.43 2604.72
   10:56:38.818.09-Sep-2020 5456.01 3588.88 76.36 10.00  96.63 2604.72
   10:56:39.018.09-Sep-2020 5456.01 3588.91 76.36 10.00  96.83 2604.72
   10:56:39.218.09-Sep-2020 5456.01 3588.89 76.36 10.00  97.03 2604.72
   10:56:39.418.09-Sep-2020 5456.01 3588.89 76.36 10.00  97.23 2604.72
   10:56:39.618.09-Sep-2020 5456.01 3588.88 76.36 10.00  97.43 2604.72
   10:56:39.818.09-Sep-2020 5456.01 3588.91 76.36 10.00  97.63 2604.72
   10:56:40.018.09-Sep-2020 5456.01 3588.91 76.36 10.00  97.83 2604.72
   10:56:40.218.09-Sep-2020 5456.01 3588.91 76.36 10.00  98.03 2604.72
   10:56:40.418.09-Sep-2020 5456.01 3588.91 76.36 10.00  98.23 2604.72
   10:56:40.618.09-Sep-2020 5456.01 3588.88 76.36 10.00  98.43 2604.72
   10:56:40.818.09-Sep-2020 5456.01 3588.90 76.36 10.00  98.63 2604.72
   10:56:41.018.09-Sep-2020 5456.01 3588.89 76.36 10.00  98.83 2604.72
   10:56:41.219.09-Sep-2020 5456.01 3588.97 76.36 10.00  99.03 2604.72
   10:56:41.419.09-Sep-2020 5456.01 3588.97 76.36 10.00  99.23 2604.72
   10:56:41.619.09-Sep-2020 5456.01 3588.92 76.36 10.00  99.43 2604.72
   10:56:41.819.09-Sep-2020 5456.01 3588.92 76.36 10.00  99.63 2604.72
   10:56:42.019.09-Sep-2020 5456.01 3588.91 76.36 10.00  99.83 2604.72
   10:56:42.219.09-Sep-2020 5456.01 3588.90 76.36 10.00 100.03 2604.72
   10:56:42.419.09-Sep-2020 5456.01 3588.90 76.36 10.00 100.23 2604.72
   10:56:42.619.09-Sep-2020 5456.01 3588.83 76.36 10.00 100.43 2604.72
   10:56:42.819.09-Sep-2020 5456.01 3588.90 76.36 10.00 100.63 2604.72
   10:56:43.019.09-Sep-2020 5456.01 3588.93 76.36 10.00 100.83 2604.72
   10:56:43.219.09-Sep-2020 5456.01 3588.52 76.36 10.00 101.03 2604.72
   10:56:43.419.09-Sep-2020 5456.01 3588.52 76.36 10.00 101.23 2604.72
   10:56:43.619.09-Sep-2020 5456.01 3588.88 76.36 10.00 101.43 2604.72
   10:56:43.819.09-Sep-2020 5456.01 3588.93 76.36 10.00 101.63 2604.72
   10:56:44.019.09-Sep-2020 5456.01 3588.86 76.36 10.00 101.83 2604.72
   10:56:44.219.09-Sep-2020 5456.01 3588.96 76.36 10.00 102.03 2604.72
   10:56:44.419.09-Sep-2020 5456.01 3588.96 76.36 10.00 102.23 2604.72
   10:56:44.619.09-Sep-2020 5456.01 3589.39 76.36 10.00 102.43 2604.72
   10:56:44.819.09-Sep-2020 5456.01 3588.95 76.36 10.00 102.63 2604.72
   10:56:45.020.09-Sep-2020 5456.01 3588.89 76.36 10.00 102.83 2604.72
   10:56:45.220.09-Sep-2020 5456.01 3588.94 76.36 10.00 103.03 2604.72
   10:56:45.420.09-Sep-2020 5456.01 3588.94 76.36 10.00 103.23 2604.72
   10:56:45.620.09-Sep-2020 5456.01 3588.90 76.36 10.00 103.43 2604.72
   10:56:45.820.09-Sep-2020 5456.01 3588.92 76.36 10.00 103.63 2604.72
   10:56:46.020.09-Sep-2020 5456.01 3588.94 76.36 10.00 103.83 2604.72
   10:56:46.220.09-Sep-2020 5456.01 3588.90 76.36 10.00 104.03 2604.72
   10:56:46.420.09-Sep-2020 5456.01 3588.90 76.36 10.00 104.23 2604.72
   10:56:46.620.09-Sep-2020 5456.01 3588.92 76.36 10.00 104.43 2604.72
   10:56:46.820.09-Sep-2020 5456.01 3588.94 76.36 10.00 104.63 2604.72
   10:56:47.020.09-Sep-2020 5456.01 3588.93 76.36 10.00 104.83 2604.72
   10:56:47.220.09-Sep-2020 5456.01 3588.92 76.36 10.00 105.03 2604.72
   10:56:47.420.09-Sep-2020 5456.01 3588.92 76.36 10.00 105.23 2604.72
   10:56:47.620.09-Sep-2020 5456.01 3588.93 76.36 10.00 105.43 2604.72
   10:56:47.820.09-Sep-2020 5456.01 3588.94 76.36 10.00 105.63 2604.72
   10:56:48.020.09-Sep-2020 5456.01 3588.95 76.36 10.00 105.83 2604.72
   10:56:48.220.09-Sep-2020 5456.01 3588.47 76.36 10.00 106.03 2604.72
   10:56:48.420.09-Sep-2020 5456.01 3588.47 76.36 10.00 106.23 2604.72
   10:56:48.621.09-Sep-2020 5456.01 3588.92 76.36 10.00 106.43 2604.72
   10:56:48.821.09-Sep-2020 5456.01 3588.95 76.36 10.00 106.63 2604.72
   10:56:49.021.09-Sep-2020 5456.01 3588.87 76.36 10.00 106.83 2604.72
   10:56:49.221.09-Sep-2020 5456.01 3588.98 76.36 10.00 107.03 2604.72
   10:56:49.421.09-Sep-2020 5456.01 3588.98 76.36 10.00 107.23 2604.72
   10:56:49.621.09-Sep-2020 5456.01 3588.93 76.37 10.00 107.43 2604.72
   10:56:49.821.09-Sep-2020 5456.01 3588.94 76.37 10.00 107.63 2604.72
   10:56:50.021.09-Sep-2020 5456.01 3588.93 76.37 10.00 107.83 2604.72
   10:56:50.221.09-Sep-2020 5456.01 3588.95 76.37 10.00 108.03 2604.72
   10:56:50.421.09-Sep-2020 5456.01 3588.95 76.37 10.00 108.23 2604.72
   10:56:50.621.09-Sep-2020 5456.01 3588.93 76.37 10.00 108.43 2604.72
   10:56:50.821.09-Sep-2020 5456.01 3588.93 76.37 10.00 108.63 2604.72
   10:56:51.021.09-Sep-2020 5456.01 3588.96 76.37 10.00 108.83 2604.72
   10:56:51.221.09-Sep-2020 5456.01 3588.96 76.37 10.00 109.03 2604.72
   10:56:51.421.09-Sep-2020 5456.01 3588.96 76.37 10.00 109.23 2604.72
   10:56:51.621.09-Sep-2020 5456.01 3588.95 76.37 10.00 109.43 2604.72
   10:56:51.821.09-Sep-2020 5456.01 3588.95 76.37 10.00 109.63 2604.72
   10:56:52.021.09-Sep-2020 5456.01 3588.95 76.37 10.00 109.83 2604.72
   10:56:52.222.09-Sep-2020 5456.01 3588.96 76.37 10.00 110.03 2604.72
   10:56:52.422.09-Sep-2020 5456.01 3588.96 76.37 10.00 110.23 2604.72
   10:56:52.622.09-Sep-2020 5456.01 3588.38 76.37 10.00 110.43 2604.72
   10:56:52.822.09-Sep-2020 5456.01 3589.40 76.37 10.00 110.63 2604.72
   10:56:53.022.09-Sep-2020 5456.01 3588.98 76.37 10.00 110.83 2604.72
   10:56:53.222.09-Sep-2020 5456.01 3588.95 76.37 10.00 111.03 2604.72
   10:56:53.422.09-Sep-2020 5456.01 3588.95 76.37 10.00 111.23 2604.72
   10:56:53.622.09-Sep-2020 5456.01 3589.42 76.37 10.00 111.43 2604.72
   10:56:53.822.09-Sep-2020 5456.01 3588.96 76.37 10.00 111.63 2604.72
   10:56:54.022.09-Sep-2020 5456.01 3588.94 76.37 10.00 111.83 2604.72
   10:56:54.222.09-Sep-2020 5456.01 3588.99 76.37 10.00 112.03 2604.72
   10:56:54.422.09-Sep-2020 5456.01 3588.99 76.37 10.00 112.23 2604.72
   10:56:54.622.09-Sep-2020 5456.01 3588.94 76.37 10.00 112.43 2604.72
   10:56:54.822.09-Sep-2020 5456.01 3588.94 76.37 10.00 112.63 2604.72
   10:56:55.022.09-Sep-2020 5456.01 3588.95 76.37 10.00 112.83 2604.72
