~Version Information
 VERS.                  2.0:   CWLS log ASCII Standard -VERSION 2.0
 WRAP.                   NO:   One line per depth step
~Well Information Block
#MNEM.UNIT     VALUE/NAME     DESCRIPTION
#---------     -----------    ---------------------------
 STRT.S             17:25:53 09-Sep-20: START TIME 17:25:53 09-Sep-20
 STOP.S             17:34:04 09-Sep-20: STOP TIME  17:34:04 09-Sep-20
 STEP.S                   0.00: STEP TIME
 NULL.                 -999.25: NULL VALUE
 MDS .        Operator Entered:  MAG DATA SOURCE
 PDAT.          Mean Sea Level:  PERMANENT DATUM
 DCON.         Sperry Drilling:  DIRECTNL CONTR
 RIG .              West Azeri:  RIG NAME
 WELL.           C40 (Slot 20):  WELL NAME
 SRVC.     Turan Drilling Engineering:  CONTRACTOR
 FLD .                     ACG:  FIELD NAME
 CTRY.              Azerbaijan:  COUNTRY NAME
 PROV.                    Baku:  PROVINCE
 STAT.                    Baku:  STATE NAME
 REGN.                   EESSA:  REGION
 BASE.              Azerbaijan:  LOGGING EQUIPMENT BASE LOCATION
 COMP.     BP Exploration (Caspian Sea) Ltd:  COMPANY
 WTYP.                Deviated:  WELL TYPE
 SON .        AZ-XX-0906344804:  JOB NUMBER
 FTOP.          Formation Tops:  FORM TOPS DESC
 ILTD.               Lithology:  INTERP LTH DESC
 SVYD.                  Survey:  SURVEY DESC
 DMOD.             Drill Model:  DRILL MOD DESC
 HPTY.       Minimum Curvature:  HOLE POS TYPE
 NREF.                    Grid:  NORTH REFERENCE
 SPUD.               01-Jan-20:  SPUD DATE
 DATE.      00.59.44 15-Sep-20:  END TIME
 STIM.      12.00.00 12-Jun-20:  START TIME
 DMF .             Drill Floor:  DRILL MEAS FROM
 DFST.                        :  DIST FSL TEXT
 DFWT.                        :  DIST FWL TEXT
 API .                        :  API NUMBER
 CNTY.                        :  COUNTY
 UWI .                        :  UNIQUE WELL IDENTIFIER
 LOC .                        :  LOCATION
 LMF .             Drill Floor:  LOG MEASURED FROM
 VSNS.m                   2.88:  VERT SEC N/S
 VSEW.m                  -3.84:  VERT SEC E/W
 AGAP.m                  43.42:  AIR GAP
 APD .m                  43.42:  DEPTH ABOVE PD
 WDMS.m                 118.27:  WD ELEV
 EGL .m                   0.00:  GROUND ELEVATION
 EPD .m                   0.00:  ELEVATION
 AZTC.deg                 6.23:  AZM TOTAL CORR
 GRDC.deg                 0.20:  GRID CORRECTION
 MDEC.deg                 6.43:  MAGNETIC DECL
 MDIP.deg                59.49:  MAGNETIC DIP
 MFLD.nT              50277.00:  MAGNETIC FIELD
 GVFD.g                   1.00:  GRAVITY FIELD
 VSDR.deg               173.20:  VERT SEC DIRECT
 TDD .m                5790.01:  TOTAL DEPTH (DRILLER)
 SDEP.m                5231.01:  START DEPTH
 DFSL.m                   0.00:  DISTANCE FSL
 DFWL.m                   0.00:  DISTANCE FWL
 UTMY.m             4435808.83:  UTM Y
 UTMX.m              526266.40:  UTM X
 WHEW.m                  -3.84:  WELL HEAD E/W
 WHNS.m                   2.88:  WELL HEAD N/S
 LONG.deg                51.31:  LONGITUDE
 LATI.deg                40.06:  LATITUDE
 TVDS.m                  43.42:  TVDSS CORRECTN
 DEP .m                 430.08:  DEPTH
 EKB .m                  43.42:  KB ELEVATION
 EDF .m                  43.42:  DF ELEVATION
 TDL .m                 559.00:  TOTAL DEPTH (LOGGER)
 MAGU.                 1849381:  MAGUTM CHECKSUM
 VSC .                       0:  VS TO CLOSURE
~Parameter Information Block
#MNEM.UNIT       Value        Description
#---------     -----------    ---------------------------
 AV  .mps                 4.87:  Ann Velocity 
 AVMX.mps                 7.08:  Max Ann Veloc 
 AZIF.deg               108.87:  Azm, Final 
 BHAT.                  Rotary:  BHA Type 
 BROT.°/30m               0.35:  Build Rotating 
 BS  .in                  8.50:  Bit Size 
 BSZ .in                  8.50:  Bit Size 
 BTPL.psig              360.00:  Bit Press Loss 
 CABU.                     Yes:  Customer Abuse 
 COMM.                     ô¸n:  Run Comments 1 
 TCS .hr                106.24:  Time Ciculation Ended 
 CV  .mps                 1.77:  Crit Velocity 
 CVMX.mps                 2.03:  Max Crit Veloc 
 DD1 .         Aykhan Agagulov:  Direct Drillr 1 
 DD2 .            Nonso Okofor:  Direct Drillr 2 
 DDSV.               Geo-Pilot:  DD Service 
 DEFF.%                  98.00:  % Det Eff 
 DLRX.°/30m               0.50:  Dogleg Rot Max 
 DLSO.°/30m               0.40:  Dogleg Oriented 
 DLSX.°/30m               0.94:  Dogleg Str Max 
 DRET.      20.30.00 08-Sep-20:  Drill End Time 
 DRST.      22.15.00 06-Sep-20:  Drill Start Tim 
 DTIM.hr                 31.31:  Time Drilling 
 EDEP.m                5790.01:  End Depth 
 ENG1.           Amrah Tahirov:  Engineer 1 
 ENG2.         Dair Mahammadov:  Engineer 2 
 ENG3.           Emil Huseynov:  Engineer 3 
 ETIM.      04.01.04 12-Sep-20:  End Time 
 FLOI.gpm               450.00:  Flow In 
 FLON.gpm               450.00:  Flow In Min 
 FLOS.cptm                2.00:  Fluid Loss 
 FLOX.gpm               450.00:  Flow In Max 
 FTRO.       Formation Presure:  FTWD Run Obj 
 HFLO.                      No:  High Flow 
 HPRE.                      No:  High Pressure 
 HTEM.                      No:  High Temp 
 HYDO.m                   1.80:  Hydro Offset 
 IFIN.deg                72.03:  Inc, Final 
 IMAX.deg                73.72:  Inc Max 
 IMIN.deg                70.94:  Inc Min 
 IMND.m                5508.52:  Inc Min Depth 
 IMXD.m                5253.60:  Inc Max Depth 
 JARR.                      No:  Jarring 
 LETM.      20.30.00 08-Sep-20:  Log End Time 
 LOST.hr                     0:  Lost Rig Time 
 LSTM.      22.15.00 06-Sep-20:  Log Start Time 
 MDCL.ppm             36000.00:  Mud Chlorides 
 MDES.     Inversion Oil/Synthetic:  Mud Desc 
 DFD .sg                  1.44:  Mud Density 
 MDMN.sg                  1.44:  Dens Mud Min 
 MDMX.sg                  1.57:  Dens Mud Max 
 MOIL.                      70:  Run Mud Oil % 
 MOWR.                   70:30:  Run Mud OWR 
 MSND.                       0:  Run Mud Sand % 
 MSOL.                      21:  Run Mud Solids% 
 DFV .spqt               68.00:  Mud Viscosity 
 MWOD.in                  6.75:  MWD Tool OD 
 MWSI.                     Yes:  Serv Intrp, MWD 
 OTIM.hr                174.84:  Time Operating 
 PCON.           Look Like New:  Pad Condition 
 PMAX.psia            10616.93:  Press Op, Max 
 PV  .cP                 50.00:  Mud PV 
 RUN .                     700:  Run Number 
 ROPA.m/hr               14.24:  ROP Avg 
 ROPN.m/hr               10.00:  ROP Min 
 ROPX.m/hr               32.00:  ROP Max 
 RPMA.rpm               120.90:  RPM Surface Avg 
 RPMN.rpm               120.00:  RPM Surface Min 
 RPMX.rpm               140.00:  RPM Surface Max 
 RRUN.                    0700:  Rig Run Number 
 RTIM.hr                  3.20:  Time Reaming 
 SAZI.deg               109.99:  Azm, Start 
 SDEP.m                5231.01:  Start Depth 
 SIDD.                      No:  Serv Intrp, DD 
 SINC.deg                73.72:  Inc, Start 
 SPPA.psig             3051.00:  SPP Avg 
 SPPN.psig             2950.00:  SPP Min 
 SPPX.psig             3250.00:  SPP Max 
 STIM.      08.00.00 05-Sep-20:  Start Time 
 SVCS.                 DD, MWD:  Services 
 SVER.                    9.20:  Sperry Version 
 TDAT.m                 559.00:  Tot Depth Attmp 
 TDDF.                      No:  Trip for DD 
 TDLG.m                 559.00:  Tot Depth Loggd 
 TFF .                      No:  Trip for Fail 
 TQAA.f-kp               26.49:  Torque Abs Avg 
 TQAN.f-kp               25.00:  Torque Abs Min 
 TQAX.f-kp               27.00:  Torque Abs Max 
 TRRT.°/30m               1.50:  Turn Rotating 
 MRT .                    HCIM:  Maximum Recorded Temperature 
 TTMX.degC               90.20:  Max Tool Temp 
 VS01.                90542671:  Virtual Str1 SN 
 VS02.                90545185:  Virtual Str2 SN 
 VS03.                90602015:  Virtual Str3 SN 
 VS04.                90515230:  Virtual Str4 SN 
 WBMN.klb                 5.00:  WOB Min 
 WOBA.klb                14.79:  WOB Avg 
 WOBX.klb                20.00:  WOB Max 
 YP  .lhf2               29.00:  Yield Point 
~Curve Information Block
#MNEM.UNIT                 API CODE     Curve Description
#---------               -----------    ---------------------------
 TIME.HHMMSS            00 000 000 000:  GT Time & Date
 GTDEPTH.m              00 000 000 000:  GT Depth
 GTPQH.psia             00 000 000 000:  GT HR Quartz Pressure
 GTTQ.degC              00 000 000 000:  GT Quartz Temperature
 GTTN.NONE              00 000 000 000:  GT Test Number
 GTET.sec               00 000 000 000:  GT Elapsed Test Time
 GTTVD.m                00 000 000 000:  GT True Vertical Depth
#Other Information
#
#WARRANTY: Halliburton will use its best efforts to furnish customers with 
#accurate information and interpretations that are part of, and incident to, the services 
#provided.  However, Halliburton cannot and does not warrant the accuracy 
#or correctness of such information and interpretations.  Under no circumstances should any 
#such information or interpretation be relied upon as the sole basis for any drilling, 
#completion, production, or financial decision or any procedure involving any risk to the 
#safety of any drilling venture, drilling rig or its crew or any other third party.  The 
#Customer has full responsibility for all drilling, completion and production operation.  
#Halliburton makes no representations or warranties, either expressed or 
#implied, including, but not limited to, the implied warranties of merchantability or fitness 
#for a particular purpose, with respect to the services rendered.  In no event will 
#Halliburton be liable for failure to obtain any particular results or for 
#any damages, including, but not limited to, indirect, special or consequential damages, 
#resulting from the use of any information or interpretation provided by Halliburton.
#
~A           TIME           GTDEPTH  GTPQH  GTTQ  GTTN   GTET   GTTVD  
# ...
   17:31:32.271.09-Sep-2020 5302.51  586.15 74.53 20.00 339.16 2556.93
   17:31:32.471.09-Sep-2020 5302.51  586.15 74.53 20.00 339.36 2556.93
   17:31:32.671.09-Sep-2020 5302.51  585.73 74.53 20.00 339.56 2556.93
   17:31:32.871.09-Sep-2020 5302.51  586.14 74.53 20.00 339.76 2556.93
   17:31:33.072.09-Sep-2020 5302.51  586.29 74.53 20.00 339.96 2556.93
   17:31:33.272.09-Sep-2020 5302.51  586.39 74.53 20.00 340.16 2556.93
   17:31:33.472.09-Sep-2020 5302.51  586.68 74.53 20.00 340.36 2556.93
   17:31:33.672.09-Sep-2020 5302.51  586.64 74.53 20.00 340.56 2556.93
   17:31:33.872.09-Sep-2020 5302.51  586.33 74.53 20.00 340.76 2556.93
   17:31:34.072.09-Sep-2020 5302.51  586.93 74.53 20.00 340.96 2556.93
   17:31:34.272.09-Sep-2020 5302.51  587.02 74.53 20.00 341.16 2556.93
   17:31:34.472.09-Sep-2020 5302.51  587.02 74.53 20.00 341.36 2556.93
   17:31:34.672.09-Sep-2020 5302.51  586.74 74.53 20.00 341.56 2556.93
   17:31:34.872.09-Sep-2020 5302.51  587.22 74.53 20.00 341.76 2556.93
   17:31:35.073.09-Sep-2020 5302.51  587.43 74.53 20.00 341.96 2556.93
   17:31:35.273.09-Sep-2020 5302.51  587.56 74.53 20.00 342.16 2556.93
   17:31:35.473.09-Sep-2020 5302.51  587.56 74.53 20.00 342.36 2556.93
   17:31:35.673.09-Sep-2020 5302.51  587.88 74.53 20.00 342.56 2556.93
   17:31:35.873.09-Sep-2020 5302.51  587.43 74.53 20.00 342.76 2556.93
   17:31:36.073.09-Sep-2020 5302.51  588.07 74.53 20.00 342.96 2556.93
   17:31:36.273.09-Sep-2020 5302.51  588.36 74.53 20.00 343.16 2556.93
   17:31:36.473.09-Sep-2020 5302.51  588.36 74.53 20.00 343.36 2556.93
   17:31:36.673.09-Sep-2020 5302.51  588.83 74.53 20.00 343.56 2556.93
   17:31:36.873.09-Sep-2020 5302.51  588.99 74.53 20.00 343.76 2556.93
   17:31:37.073.09-Sep-2020 5302.51  589.12 74.53 20.00 343.96 2556.93
   17:31:37.274.09-Sep-2020 5302.51  588.47 74.53 20.00 344.16 2556.93
   17:31:37.474.09-Sep-2020 5302.51  589.45 74.53 20.00 344.37 2556.93
   17:31:37.674.09-Sep-2020 5302.51  589.38 74.53 20.00 344.57 2556.93
   17:31:37.874.09-Sep-2020 5302.51  589.55 74.53 20.00 344.77 2556.93
   17:31:38.074.09-Sep-2020 5302.51  589.62 74.53 20.00 344.97 2556.93
   17:31:38.274.09-Sep-2020 5302.51  589.94 74.53 20.00 345.17 2556.93
   17:31:38.474.09-Sep-2020 5302.51  589.94 74.53 20.00 345.37 2556.93
   17:31:38.674.09-Sep-2020 5302.51  590.10 74.53 20.00 345.57 2556.93
   17:31:38.874.09-Sep-2020 5302.51  590.24 74.53 20.00 345.77 2556.93
   17:31:39.074.09-Sep-2020 5302.51  590.36 74.53 20.00 345.97 2556.93
   17:31:39.275.09-Sep-2020 5302.51  590.49 74.53 20.00 346.17 2556.93
   17:31:39.475.09-Sep-2020 5302.51  590.49 74.53 20.00 346.37 2556.93
   17:31:39.675.09-Sep-2020 5302.51  590.70 74.53 20.00 346.57 2556.93
   17:31:39.875.09-Sep-2020 5302.51  590.85 74.53 20.00 346.77 2556.93
   17:31:40.075.09-Sep-2020 5302.51  591.00 74.53 20.00 346.97 2556.93
   17:31:40.275.09-Sep-2020 5302.51  591.14 74.53 20.00 347.17 2556.93
   17:31:40.475.09-Sep-2020 5302.51  591.27 74.53 20.00 347.37 2556.93
   17:31:40.675.09-Sep-2020 5302.51  591.39 74.53 20.00 347.57 2556.93
   17:31:40.875.09-Sep-2020 5302.51  591.37 74.53 20.00 347.77 2556.93
   17:31:41.075.09-Sep-2020 5302.51  591.12 74.53 20.00 347.97 2556.93
   17:31:41.276.09-Sep-2020 5302.51  591.72 74.53 20.00 348.17 2556.93
   17:31:41.476.09-Sep-2020 5302.51  591.72 74.53 20.00 348.37 2556.93
   17:31:41.676.09-Sep-2020 5302.51  591.87 74.53 20.00 348.57 2556.93
   17:31:41.876.09-Sep-2020 5302.51  592.17 74.53 20.00 348.77 2556.93
   17:31:42.076.09-Sep-2020 5302.51  592.17 74.53 20.00 348.97 2556.93
   17:31:42.276.09-Sep-2020 5302.51  592.33 74.53 20.00 349.17 2556.93
   17:31:42.476.09-Sep-2020 5302.51  592.33 74.53 20.00 349.37 2556.93
   17:31:42.676.09-Sep-2020 5302.51  592.47 74.53 20.00 349.57 2556.93
   17:31:42.876.09-Sep-2020 5302.51  592.58 74.53 20.00 349.77 2556.93
   17:31:43.076.09-Sep-2020 5302.51  592.75 74.54 20.00 349.97 2556.93
   17:31:43.276.09-Sep-2020 5302.51  592.90 74.53 20.00 350.17 2556.93
   17:31:43.477.09-Sep-2020 5302.51  592.90 74.53 20.00 350.37 2556.93
   17:31:43.677.09-Sep-2020 5302.51  593.07 74.54 20.00 350.57 2556.93
   17:31:43.877.09-Sep-2020 5302.51  593.16 74.53 20.00 350.77 2556.93
   17:31:44.077.09-Sep-2020 5302.51  593.17 74.54 20.00 350.97 2556.93
   17:31:44.277.09-Sep-2020 5302.51  592.84 74.54 20.00 351.17 2556.93
   17:31:44.477.09-Sep-2020 5302.51  593.46 74.54 20.00 351.37 2556.93
   17:31:44.677.09-Sep-2020 5302.51  593.50 74.54 20.00 351.57 2556.93
   17:31:44.877.09-Sep-2020 5302.51  593.58 74.54 20.00 351.77 2556.93
   17:31:45.077.09-Sep-2020 5302.51  593.87 74.54 20.00 351.97 2556.93
   17:31:45.277.09-Sep-2020 5302.51  593.15 74.54 20.00 352.17 2556.93
   17:31:45.478.09-Sep-2020 5302.51  593.15 74.54 20.00 352.37 2556.93
   17:31:45.678.09-Sep-2020 5302.51  594.06 74.54 20.00 352.57 2556.93
   17:31:45.878.09-Sep-2020 5302.51  594.10 74.54 20.00 352.77 2556.93
   17:31:46.078.09-Sep-2020 5302.51  594.14 74.54 20.00 352.97 2556.93
   17:31:46.278.09-Sep-2020 5302.51  593.62 74.54 20.00 353.17 2556.93
   17:31:46.478.09-Sep-2020 5302.51  593.62 74.54 20.00 353.37 2556.93
   17:31:46.678.09-Sep-2020 5302.51  594.56 74.54 20.00 353.57 2556.93
   17:31:46.878.09-Sep-2020 5302.51  594.69 74.54 20.00 353.77 2556.93
   17:31:47.078.09-Sep-2020 5302.51  594.69 74.54 20.00 353.97 2556.93
   17:31:47.278.09-Sep-2020 5302.51  595.03 74.54 20.00 354.17 2556.93
   17:31:47.478.09-Sep-2020 5302.51  595.03 74.54 20.00 354.37 2556.93
   17:31:47.679.09-Sep-2020 5302.51  595.34 74.54 20.00 354.57 2556.93
   17:31:47.879.09-Sep-2020 5302.51  595.17 74.54 20.00 354.77 2556.93
   17:31:48.079.09-Sep-2020 5302.51  595.29 74.54 20.00 354.97 2556.93
   17:31:48.279.09-Sep-2020 5302.51  595.37 74.54 20.00 355.17 2556.93
   17:31:48.479.09-Sep-2020 5302.51  595.37 74.54 20.00 355.37 2556.93
   17:31:48.679.09-Sep-2020 5302.51  595.18 74.54 20.00 355.57 2556.93
   17:31:48.879.09-Sep-2020 5302.51  595.81 74.54 20.00 355.77 2556.93
   17:31:49.079.09-Sep-2020 5302.51  595.89 74.54 20.00 355.97 2556.93
   17:31:49.279.09-Sep-2020 5302.51  595.96 74.54 20.00 356.17 2556.93
   17:31:49.479.09-Sep-2020 5302.51  595.96 74.54 20.00 356.37 2556.93
   17:31:49.680.09-Sep-2020 5302.51  596.39 74.54 20.00 356.57 2556.93
   17:31:49.880.09-Sep-2020 5302.51  596.53 74.54 20.00 356.77 2556.93
   17:31:50.080.09-Sep-2020 5302.51  596.64 74.54 20.00 356.97 2556.93
   17:31:50.280.09-Sep-2020 5302.51  596.76 74.54 20.00 357.17 2556.93
   17:31:50.480.09-Sep-2020 5302.51  596.76 74.54 20.00 357.37 2556.93
   17:31:50.680.09-Sep-2020 5302.51  596.99 74.54 20.00 357.57 2556.93
   17:31:50.880.09-Sep-2020 5302.51  597.06 74.54 20.00 357.77 2556.93
   17:31:51.080.09-Sep-2020 5302.51  597.13 74.54 20.00 357.97 2556.93
   17:31:51.280.09-Sep-2020 5302.51  597.26 74.54 20.00 358.17 2556.93
   17:31:51.480.09-Sep-2020 5302.51  597.26 74.54 20.00 358.37 2556.93
   17:31:51.680.09-Sep-2020 5302.51  597.51 74.54 20.00 358.57 2556.93
   17:31:51.881.09-Sep-2020 5302.51  597.62 74.54 20.00 358.77 2556.93
   17:31:52.081.09-Sep-2020 5302.51  597.71 74.54 20.00 358.97 2556.93
   17:31:52.281.09-Sep-2020 5302.51  597.25 74.54 20.00 359.17 2556.93
   17:31:52.481.09-Sep-2020 5302.51  597.25 74.54 20.00 359.37 2556.93
   17:31:52.681.09-Sep-2020 5302.51  598.00 74.54 20.00 359.57 2556.93
   17:31:52.881.09-Sep-2020 5302.51  598.05 74.54 20.00 359.77 2556.93
   17:31:53.081.09-Sep-2020 5302.51  598.28 74.54 20.00 359.97 2556.93
   17:31:53.281.09-Sep-2020 5302.51  598.34 74.54 20.00 360.17 2556.93
   17:31:53.481.09-Sep-2020 5302.51  598.43 74.54 20.00 360.37 2556.93
   17:31:53.681.09-Sep-2020 5302.51  598.52 74.54 20.00 360.57 2556.93
   17:31:53.882.09-Sep-2020 5302.51  598.62 74.54 20.00 360.77 2556.93
   17:31:54.082.09-Sep-2020 5302.51  598.64 74.54 20.00 360.97 2556.93
   17:31:54.282.09-Sep-2020 5302.51  598.76 74.54 20.00 361.17 2556.93
   17:31:54.482.09-Sep-2020 5302.51  598.76 74.54 20.00 361.37 2556.93
   17:31:54.682.09-Sep-2020 5302.51  599.00 74.54 20.00 361.57 2556.93
