~Version Information
 VERS.                  2.0:   CWLS log ASCII Standard -VERSION 2.0
 WRAP.                   NO:   One line per depth step
~Well Information Block
#MNEM.UNIT     VALUE/NAME     DESCRIPTION
#---------     -----------    ---------------------------
 STRT.S             20:00:32 09-Sep-20: START TIME 20:00:32 09-Sep-20
 STOP.S             20:08:52 09-Sep-20: STOP TIME  20:08:52 09-Sep-20
 STEP.S                   0.00: STEP TIME
 NULL.                 -999.25: NULL VALUE
 MDS .        Operator Entered:  MAG DATA SOURCE
 PDAT.          Mean Sea Level:  PERMANENT DATUM
 DCON.         Sperry Drilling:  DIRECTNL CONTR
 RIG .              West Azeri:  RIG NAME
 WELL.           C40 (Slot 20):  WELL NAME
 SRVC.     Turan Drilling Engineering:  CONTRACTOR
 FLD .                     ACG:  FIELD NAME
 CTRY.              Azerbaijan:  COUNTRY NAME
 PROV.                    Baku:  PROVINCE
 STAT.                    Baku:  STATE NAME
 REGN.                   EESSA:  REGION
 BASE.              Azerbaijan:  LOGGING EQUIPMENT BASE LOCATION
 COMP.     BP Exploration (Caspian Sea) Ltd:  COMPANY
 WTYP.                Deviated:  WELL TYPE
 SON .        AZ-XX-0906344804:  JOB NUMBER
 FTOP.          Formation Tops:  FORM TOPS DESC
 ILTD.               Lithology:  INTERP LTH DESC
 SVYD.                  Survey:  SURVEY DESC
 DMOD.             Drill Model:  DRILL MOD DESC
 HPTY.       Minimum Curvature:  HOLE POS TYPE
 NREF.                    Grid:  NORTH REFERENCE
 SPUD.               01-Jan-20:  SPUD DATE
 DATE.      00.59.44 15-Sep-20:  END TIME
 STIM.      12.00.00 12-Jun-20:  START TIME
 DMF .             Drill Floor:  DRILL MEAS FROM
 DFST.                        :  DIST FSL TEXT
 DFWT.                        :  DIST FWL TEXT
 API .                        :  API NUMBER
 CNTY.                        :  COUNTY
 UWI .                        :  UNIQUE WELL IDENTIFIER
 LOC .                        :  LOCATION
 LMF .             Drill Floor:  LOG MEASURED FROM
 VSNS.m                   2.88:  VERT SEC N/S
 VSEW.m                  -3.84:  VERT SEC E/W
 AGAP.m                  43.42:  AIR GAP
 APD .m                  43.42:  DEPTH ABOVE PD
 WDMS.m                 118.27:  WD ELEV
 EGL .m                   0.00:  GROUND ELEVATION
 EPD .m                   0.00:  ELEVATION
 AZTC.deg                 6.23:  AZM TOTAL CORR
 GRDC.deg                 0.20:  GRID CORRECTION
 MDEC.deg                 6.43:  MAGNETIC DECL
 MDIP.deg                59.49:  MAGNETIC DIP
 MFLD.nT              50277.00:  MAGNETIC FIELD
 GVFD.g                   1.00:  GRAVITY FIELD
 VSDR.deg               173.20:  VERT SEC DIRECT
 TDD .m                5790.01:  TOTAL DEPTH (DRILLER)
 SDEP.m                5231.01:  START DEPTH
 DFSL.m                   0.00:  DISTANCE FSL
 DFWL.m                   0.00:  DISTANCE FWL
 UTMY.m             4435808.83:  UTM Y
 UTMX.m              526266.40:  UTM X
 WHEW.m                  -3.84:  WELL HEAD E/W
 WHNS.m                   2.88:  WELL HEAD N/S
 LONG.deg                51.31:  LONGITUDE
 LATI.deg                40.06:  LATITUDE
 TVDS.m                  43.42:  TVDSS CORRECTN
 DEP .m                 430.08:  DEPTH
 EKB .m                  43.42:  KB ELEVATION
 EDF .m                  43.42:  DF ELEVATION
 TDL .m                 559.00:  TOTAL DEPTH (LOGGER)
 MAGU.                 1849381:  MAGUTM CHECKSUM
 VSC .                       0:  VS TO CLOSURE
~Parameter Information Block
#MNEM.UNIT       Value        Description
#---------     -----------    ---------------------------
 AV  .mps                 4.87:  Ann Velocity 
 AVMX.mps                 7.08:  Max Ann Veloc 
 AZIF.deg               108.87:  Azm, Final 
 BHAT.                  Rotary:  BHA Type 
 BROT.°/30m               0.35:  Build Rotating 
 BS  .in                  8.50:  Bit Size 
 BSZ .in                  8.50:  Bit Size 
 BTPL.psig              360.00:  Bit Press Loss 
 CABU.                     Yes:  Customer Abuse 
 TCS .hr                106.24:  Time Ciculation Ended 
 CV  .mps                 1.77:  Crit Velocity 
 CVMX.mps                 2.03:  Max Crit Veloc 
 DD1 .         Aykhan Agagulov:  Direct Drillr 1 
 DD2 .            Nonso Okofor:  Direct Drillr 2 
 DDSV.               Geo-Pilot:  DD Service 
 DEFF.%                  98.00:  % Det Eff 
 DLRX.°/30m               0.50:  Dogleg Rot Max 
 DLSO.°/30m               0.40:  Dogleg Oriented 
 DLSX.°/30m               0.94:  Dogleg Str Max 
 DRET.      20.30.00 08-Sep-20:  Drill End Time 
 DRST.      22.15.00 06-Sep-20:  Drill Start Tim 
 DTIM.hr                 31.31:  Time Drilling 
 EDEP.m                5790.01:  End Depth 
 ENG1.           Amrah Tahirov:  Engineer 1 
 ENG2.         Dair Mahammadov:  Engineer 2 
 ENG3.           Emil Huseynov:  Engineer 3 
 ETIM.      04.01.04 12-Sep-20:  End Time 
 FLOI.gpm               450.00:  Flow In 
 FLON.gpm               450.00:  Flow In Min 
 FLOS.cptm                2.00:  Fluid Loss 
 FLOX.gpm               450.00:  Flow In Max 
 FTRO.       Formation Presure:  FTWD Run Obj 
 HFLO.                      No:  High Flow 
 HPRE.                      No:  High Pressure 
 HTEM.                      No:  High Temp 
 HYDO.m                   1.80:  Hydro Offset 
 IFIN.deg                72.03:  Inc, Final 
 IMAX.deg                73.72:  Inc Max 
 IMIN.deg                70.94:  Inc Min 
 IMND.m                5508.52:  Inc Min Depth 
 IMXD.m                5253.60:  Inc Max Depth 
 JARR.                      No:  Jarring 
 LETM.      20.30.00 08-Sep-20:  Log End Time 
 LOST.hr                     0:  Lost Rig Time 
 LSTM.      22.15.00 06-Sep-20:  Log Start Time 
 MDCL.ppm             36000.00:  Mud Chlorides 
 MDES.     Inversion Oil/Synthetic:  Mud Desc 
 DFD .sg                  1.44:  Mud Density 
 MDMN.sg                  1.44:  Dens Mud Min 
 MDMX.sg                  1.57:  Dens Mud Max 
 MOIL.                      70:  Run Mud Oil % 
 MOWR.                   70:30:  Run Mud OWR 
 MSND.                       0:  Run Mud Sand % 
 MSOL.                      21:  Run Mud Solids% 
 DFV .spqt               68.00:  Mud Viscosity 
 MWOD.in                  6.75:  MWD Tool OD 
 MWSI.                     Yes:  Serv Intrp, MWD 
 OTIM.hr                174.84:  Time Operating 
 PCON.           Look Like New:  Pad Condition 
 PMAX.psia            10616.93:  Press Op, Max 
 PV  .cP                 50.00:  Mud PV 
 RUN .                     700:  Run Number 
 ROPA.m/hr               14.24:  ROP Avg 
 ROPN.m/hr               10.00:  ROP Min 
 ROPX.m/hr               32.00:  ROP Max 
 RPMA.rpm               120.90:  RPM Surface Avg 
 RPMN.rpm               120.00:  RPM Surface Min 
 RPMX.rpm               140.00:  RPM Surface Max 
 RRUN.                    0700:  Rig Run Number 
 RTIM.hr                  3.20:  Time Reaming 
 SAZI.deg               109.99:  Azm, Start 
 SDEP.m                5231.01:  Start Depth 
 SIDD.                      No:  Serv Intrp, DD 
 SINC.deg                73.72:  Inc, Start 
 SPPA.psig             3051.00:  SPP Avg 
 SPPN.psig             2950.00:  SPP Min 
 SPPX.psig             3250.00:  SPP Max 
 STIM.      08.00.00 05-Sep-20:  Start Time 
 SVCS.                 DD, MWD:  Services 
 SVER.                    9.20:  Sperry Version 
 TDAT.m                 559.00:  Tot Depth Attmp 
 TDDF.                      No:  Trip for DD 
 TDLG.m                 559.00:  Tot Depth Loggd 
 TFF .                      No:  Trip for Fail 
 TQAA.f-kp               26.49:  Torque Abs Avg 
 TQAN.f-kp               25.00:  Torque Abs Min 
 TQAX.f-kp               27.00:  Torque Abs Max 
 TRRT.°/30m               1.50:  Turn Rotating 
 MRT .                    HCIM:  Maximum Recorded Temperature 
 TTMX.degC               90.20:  Max Tool Temp 
 VS01.                90542671:  Virtual Str1 SN 
 VS02.                90545185:  Virtual Str2 SN 
 VS03.                90602015:  Virtual Str3 SN 
 VS04.                90515230:  Virtual Str4 SN 
 WBMN.klb                 5.00:  WOB Min 
 WOBA.klb                14.79:  WOB Avg 
 WOBX.klb                20.00:  WOB Max 
 YP  .lhf2               29.00:  Yield Point 
~Curve Information Block
#MNEM.UNIT                 API CODE     Curve Description
#---------               -----------    ---------------------------
 TIME.HHMMSS            00 000 000 000:  GT Time & Date
 GTDEPTH.m              00 000 000 000:  GT Depth
 GTPQH.psia             00 000 000 000:  GT HR Quartz Pressure
 GTTQ.degC              00 000 000 000:  GT Quartz Temperature
 GTTN.NONE              00 000 000 000:  GT Test Number
 GTET.sec               00 000 000 000:  GT Elapsed Test Time
 GTTVD.m                00 000 000 000:  GT True Vertical Depth
#Other Information
#
#WARRANTY: Halliburton will use its best efforts to furnish customers with 
#accurate information and interpretations that are part of, and incident to, the services 
#provided.  However, Halliburton cannot and does not warrant the accuracy 
#or correctness of such information and interpretations.  Under no circumstances should any 
#such information or interpretation be relied upon as the sole basis for any drilling, 
#completion, production, or financial decision or any procedure involving any risk to the 
#safety of any drilling venture, drilling rig or its crew or any other third party.  The 
#Customer has full responsibility for all drilling, completion and production operation.  
#Halliburton makes no representations or warranties, either expressed or 
#implied, including, but not limited to, the implied warranties of merchantability or fitness 
#for a particular purpose, with respect to the services rendered.  In no event will 
#Halliburton be liable for failure to obtain any particular results or for 
#any damages, including, but not limited to, indirect, special or consequential damages, 
#resulting from the use of any information or interpretation provided by Halliburton.
#
~A           TIME           GTDEPTH  GTPQH  GTTQ  GTTN   GTET   GTTVD  
# ...
   20:05:48.615.09-Sep-2020 5259.51 3535.67 74.10 24.00 316.55 2544.41
   20:05:48.815.09-Sep-2020 5259.51 3374.50 74.10 24.00 316.75 2544.41
   20:05:49.015.09-Sep-2020 5259.51 3270.61 74.10 24.00 316.95 2544.41
   20:05:49.215.09-Sep-2020 5259.51 3189.90 74.10 24.00 317.15 2544.41
   20:05:49.416.09-Sep-2020 5259.51 3189.90 74.10 24.00 317.35 2544.41
   20:05:49.616.09-Sep-2020 5259.51 3055.07 74.10 24.00 317.55 2544.41
   20:05:49.816.09-Sep-2020 5259.51 3012.36 74.10 24.00 317.75 2544.41
   20:05:50.016.09-Sep-2020 5259.51 2989.23 74.10 24.00 317.95 2544.41
   20:05:50.216.09-Sep-2020 5259.51 2961.97 74.10 24.00 318.15 2544.41
   20:05:50.416.09-Sep-2020 5259.51 2961.97 74.10 24.00 318.35 2544.41
   20:05:50.616.09-Sep-2020 5259.51 2949.48 74.10 24.00 318.55 2544.41
   20:05:50.816.09-Sep-2020 5259.51 2927.63 74.10 24.00 318.75 2544.41
   20:05:51.016.09-Sep-2020 5259.51 2912.14 74.10 24.00 318.95 2544.41
   20:05:51.216.09-Sep-2020 5259.51 2902.96 74.10 24.00 319.15 2544.41
   20:05:51.416.09-Sep-2020 5259.51 2902.96 74.10 24.00 319.35 2544.41
   20:05:51.617.09-Sep-2020 5259.51 2884.66 74.09 24.00 319.55 2544.41
   20:05:51.817.09-Sep-2020 5259.51 2878.50 74.09 24.00 319.75 2544.41
   20:05:52.017.09-Sep-2020 5259.51 2871.70 74.09 24.00 319.95 2544.41
   20:05:52.217.09-Sep-2020 5259.51 2867.54 74.09 24.00 320.15 2544.41
   20:05:52.417.09-Sep-2020 5259.51 2867.54 74.09 24.00 320.35 2544.41
   20:05:52.617.09-Sep-2020 5259.51 2850.21 74.09 24.00 320.55 2544.41
   20:05:52.817.09-Sep-2020 5259.51 2838.98 74.09 24.00 320.75 2544.41
   20:05:53.017.09-Sep-2020 5259.51 2837.32 74.09 24.00 320.95 2544.41
   20:05:53.217.09-Sep-2020 5259.51 2838.44 74.08 24.00 321.15 2544.41
   20:05:53.417.09-Sep-2020 5259.51 2838.44 74.08 24.00 321.35 2544.41
   20:05:53.617.09-Sep-2020 5259.51 2819.69 74.08 24.00 321.55 2544.41
   20:05:53.818.09-Sep-2020 5259.51 2820.06 74.08 24.00 321.75 2544.41
   20:05:54.018.09-Sep-2020 5259.51 2813.47 74.08 24.00 321.95 2544.41
   20:05:54.218.09-Sep-2020 5259.51 2812.73 74.08 24.00 322.15 2544.41
   20:05:54.418.09-Sep-2020 5259.51 2812.73 74.08 24.00 322.35 2544.41
   20:05:54.618.09-Sep-2020 5259.51 2802.36 74.08 24.00 322.55 2544.41
   20:05:54.818.09-Sep-2020 5259.51 2801.01 74.08 24.00 322.75 2544.41
   20:05:55.018.09-Sep-2020 5259.51 2801.15 74.08 24.00 322.95 2544.41
   20:05:55.218.09-Sep-2020 5259.51 2801.75 74.07 24.00 323.15 2544.41
   20:05:55.418.09-Sep-2020 5259.51 2801.75 74.07 24.00 323.35 2544.41
   20:05:55.618.09-Sep-2020 5259.51 2794.36 74.07 24.00 323.55 2544.41
   20:05:55.818.09-Sep-2020 5259.51 2789.95 74.07 24.00 323.75 2544.41
   20:05:56.019.09-Sep-2020 5259.51 2786.43 74.07 24.00 323.95 2544.41
   20:05:56.219.09-Sep-2020 5259.51 2785.69 74.07 24.00 324.15 2544.41
   20:05:56.419.09-Sep-2020 5259.51 2785.69 74.07 24.00 324.35 2544.41
   20:05:56.619.09-Sep-2020 5259.51 2782.21 74.07 24.00 324.55 2544.41
   20:05:56.819.09-Sep-2020 5259.51 2772.09 74.07 24.00 324.75 2544.41
   20:05:57.019.09-Sep-2020 5259.51 2769.06 74.07 24.00 324.95 2544.41
   20:05:57.219.09-Sep-2020 5259.51 2765.29 74.07 24.00 325.15 2544.41
   20:05:57.419.09-Sep-2020 5259.51 2766.64 74.07 24.00 325.35 2544.41
   20:05:57.619.09-Sep-2020 5259.51 2763.33 74.07 24.00 325.55 2544.41
   20:05:57.819.09-Sep-2020 5259.51 2757.75 74.07 24.00 325.75 2544.41
   20:05:58.020.09-Sep-2020 5259.51 2752.26 74.07 24.00 325.95 2544.41
   20:05:58.220.09-Sep-2020 5259.51 2736.81 74.06 24.00 326.15 2544.41
   20:05:58.420.09-Sep-2020 5259.51 2736.81 74.06 24.00 326.35 2544.41
   20:05:58.620.09-Sep-2020 5259.51 3143.37 74.06 24.00 326.55 2544.41
   20:05:58.820.09-Sep-2020 5259.51 3363.23 74.06 24.00 326.75 2544.41
   20:05:59.020.09-Sep-2020 5259.51 3544.42 74.06 24.00 326.95 2544.41
   20:05:59.220.09-Sep-2020 5259.51 3684.86 74.06 24.00 327.15 2544.41
   20:05:59.420.09-Sep-2020 5259.51 3684.86 74.06 24.00 327.35 2544.41
   20:05:59.620.09-Sep-2020 5259.51 3871.90 74.06 24.00 327.55 2544.41
   20:05:59.820.09-Sep-2020 5259.51 3933.79 74.06 24.00 327.75 2544.41
   20:06:00.020.09-Sep-2020 5259.51 3981.49 74.06 24.00 327.95 2544.41
   20:06:00.221.09-Sep-2020 5259.51 4016.72 74.06 24.00 328.15 2544.41
   20:06:00.421.09-Sep-2020 5259.51 4016.72 74.06 24.00 328.35 2544.41
   20:06:00.621.09-Sep-2020 5259.51 4066.32 74.06 24.00 328.55 2544.41
   20:06:00.821.09-Sep-2020 5259.51 4082.28 74.06 24.00 328.75 2544.41
   20:06:01.021.09-Sep-2020 5259.51 4093.78 74.07 24.00 328.95 2544.41
   20:06:01.221.09-Sep-2020 5259.51 4104.03 74.07 24.00 329.15 2544.41
   20:06:01.421.09-Sep-2020 5259.51 4104.03 74.07 24.00 329.35 2544.41
   20:06:01.621.09-Sep-2020 5259.51 4116.70 74.07 24.00 329.55 2544.41
   20:06:01.821.09-Sep-2020 5259.51 4119.96 74.07 24.00 329.75 2544.41
   20:06:02.021.09-Sep-2020 5259.51 4124.73 74.07 24.00 329.95 2544.41
   20:06:02.221.09-Sep-2020 5259.51 4126.81 74.07 24.00 330.15 2544.41
   20:06:02.422.09-Sep-2020 5259.51 4126.81 74.07 24.00 330.35 2544.41
   20:06:02.622.09-Sep-2020 5259.51 4130.23 74.07 24.00 330.55 2544.41
   20:06:02.822.09-Sep-2020 5259.51 4131.70 74.07 24.00 330.75 2544.41
   20:06:03.022.09-Sep-2020 5259.51 4132.57 74.07 24.00 330.95 2544.41
   20:06:03.222.09-Sep-2020 5259.51 4133.34 74.08 24.00 331.15 2544.41
   20:06:03.422.09-Sep-2020 5259.51 4133.34 74.08 24.00 331.35 2544.41
   20:06:03.622.09-Sep-2020 5259.51 4134.45 74.08 24.00 331.55 2544.41
   20:06:03.822.09-Sep-2020 5259.51 4134.98 74.08 24.00 331.75 2544.41
   20:06:04.022.09-Sep-2020 5259.51 4135.34 74.08 24.00 331.95 2544.41
   20:06:04.222.09-Sep-2020 5259.51 4135.66 74.08 24.00 332.15 2544.41
   20:06:04.422.09-Sep-2020 5259.51 4135.66 74.08 24.00 332.35 2544.41
   20:06:04.623.09-Sep-2020 5259.51 4136.10 74.08 24.00 332.55 2544.41
   20:06:04.823.09-Sep-2020 5259.51 4136.34 74.08 24.00 332.75 2544.41
   20:06:05.023.09-Sep-2020 5259.51 4136.56 74.09 24.00 332.95 2544.41
   20:06:05.223.09-Sep-2020 5259.51 4136.72 74.09 24.00 333.15 2544.41
   20:06:05.423.09-Sep-2020 5259.51 4136.72 74.09 24.00 333.35 2544.41
   20:06:05.623.09-Sep-2020 5259.51 4136.11 74.09 24.00 333.55 2544.41
   20:06:05.823.09-Sep-2020 5259.51 4137.62 74.09 24.00 333.75 2544.41
   20:06:06.023.09-Sep-2020 5259.51 4137.49 74.09 24.00 333.95 2544.41
   20:06:06.223.09-Sep-2020 5259.51 4137.45 74.09 24.00 334.15 2544.41
   20:06:06.423.09-Sep-2020 5259.51 4137.45 74.09 24.00 334.35 2544.41
   20:06:06.623.09-Sep-2020 5259.51 4137.77 74.09 24.00 334.55 2544.41
   20:06:06.824.09-Sep-2020 5259.51 4137.72 74.09 24.00 334.75 2544.41
   20:06:07.024.09-Sep-2020 5259.51 4137.72 74.09 24.00 334.95 2544.41
   20:06:07.224.09-Sep-2020 5259.51 4137.83 74.10 24.00 335.15 2544.41
   20:06:07.424.09-Sep-2020 5259.51 4137.83 74.10 24.00 335.35 2544.41
   20:06:07.624.09-Sep-2020 5259.51 4137.95 74.10 24.00 335.55 2544.41
   20:06:07.824.09-Sep-2020 5259.51 4137.93 74.10 24.00 335.75 2544.41
   20:06:08.024.09-Sep-2020 5259.51 4138.00 74.10 24.00 335.95 2544.41
   20:06:08.224.09-Sep-2020 5259.51 4138.07 74.10 24.00 336.15 2544.41
   20:06:08.424.09-Sep-2020 5259.51 4138.07 74.10 24.00 336.36 2544.41
   20:06:08.624.09-Sep-2020 5259.51 4138.24 74.10 24.00 336.56 2544.41
   20:06:08.824.09-Sep-2020 5259.51 4137.36 74.10 24.00 336.76 2544.41
   20:06:09.025.09-Sep-2020 5259.51 4138.78 74.10 24.00 336.96 2544.41
   20:06:09.225.09-Sep-2020 5259.51 4138.54 74.10 24.00 337.16 2544.41
   20:06:09.425.09-Sep-2020 5259.51 4138.54 74.10 24.00 337.36 2544.41
   20:06:09.625.09-Sep-2020 5259.51 4138.49 74.10 24.00 337.56 2544.41
   20:06:09.825.09-Sep-2020 5259.51 4138.68 74.10 24.00 337.76 2544.41
   20:06:10.025.09-Sep-2020 5259.51 4138.06 74.10 24.00 337.96 2544.41
   20:06:10.225.09-Sep-2020 5259.51 4138.42 74.10 24.00 338.16 2544.41
   20:06:10.425.09-Sep-2020 5259.51 4138.42 74.10 24.00 338.36 2544.41
   20:06:10.625.09-Sep-2020 5259.51 4138.50 74.10 24.00 338.56 2544.41
   20:06:10.825.09-Sep-2020 5259.51 4138.76 74.10 24.00 338.76 2544.41
   20:06:11.026.09-Sep-2020 5259.51 4138.56 74.10 24.00 338.96 2544.41
