~Version Information
 VERS.                  2.0:   CWLS log ASCII Standard -VERSION 2.0
 WRAP.                   NO:   One line per depth step
~Well Information Block
#MNEM.UNIT     VALUE/NAME     DESCRIPTION
#---------     -----------    ---------------------------
 STRT.S             21:21:48 09-Sep-20: START TIME 21:21:48 09-Sep-20
 STOP.S             21:29:57 09-Sep-20: STOP TIME  21:29:57 09-Sep-20
 STEP.S                   0.00: STEP TIME
 NULL.                 -999.25: NULL VALUE
 MDS .        Operator Entered:  MAG DATA SOURCE
 PDAT.          Mean Sea Level:  PERMANENT DATUM
 DCON.         Sperry Drilling:  DIRECTNL CONTR
 RIG .              West Azeri:  RIG NAME
 WELL.           C40 (Slot 20):  WELL NAME
 SRVC.     Turan Drilling Engineering:  CONTRACTOR
 FLD .                     ACG:  FIELD NAME
 CTRY.              Azerbaijan:  COUNTRY NAME
 PROV.                    Baku:  PROVINCE
 STAT.                    Baku:  STATE NAME
 REGN.                   EESSA:  REGION
 BASE.              Azerbaijan:  LOGGING EQUIPMENT BASE LOCATION
 COMP.     BP Exploration (Caspian Sea) Ltd:  COMPANY
 WTYP.                Deviated:  WELL TYPE
 SON .        AZ-XX-0906344804:  JOB NUMBER
 FTOP.          Formation Tops:  FORM TOPS DESC
 ILTD.               Lithology:  INTERP LTH DESC
 SVYD.                  Survey:  SURVEY DESC
 DMOD.             Drill Model:  DRILL MOD DESC
 HPTY.       Minimum Curvature:  HOLE POS TYPE
 NREF.                    Grid:  NORTH REFERENCE
 SPUD.               01-Jan-20:  SPUD DATE
 DATE.      00.59.44 15-Sep-20:  END TIME
 STIM.      12.00.00 12-Jun-20:  START TIME
 DMF .             Drill Floor:  DRILL MEAS FROM
 DFST.                        :  DIST FSL TEXT
 DFWT.                        :  DIST FWL TEXT
 API .                        :  API NUMBER
 CNTY.                        :  COUNTY
 UWI .                        :  UNIQUE WELL IDENTIFIER
 LOC .                        :  LOCATION
 LMF .             Drill Floor:  LOG MEASURED FROM
 VSNS.m                   2.88:  VERT SEC N/S
 VSEW.m                  -3.84:  VERT SEC E/W
 AGAP.m                  43.42:  AIR GAP
 APD .m                  43.42:  DEPTH ABOVE PD
 WDMS.m                 118.27:  WD ELEV
 EGL .m                   0.00:  GROUND ELEVATION
 EPD .m                   0.00:  ELEVATION
 AZTC.deg                 6.23:  AZM TOTAL CORR
 GRDC.deg                 0.20:  GRID CORRECTION
 MDEC.deg                 6.43:  MAGNETIC DECL
 MDIP.deg                59.49:  MAGNETIC DIP
 MFLD.nT              50277.00:  MAGNETIC FIELD
 GVFD.g                   1.00:  GRAVITY FIELD
 VSDR.deg               173.20:  VERT SEC DIRECT
 TDD .m                5790.01:  TOTAL DEPTH (DRILLER)
 SDEP.m                5231.01:  START DEPTH
 DFSL.m                   0.00:  DISTANCE FSL
 DFWL.m                   0.00:  DISTANCE FWL
 UTMY.m             4435808.83:  UTM Y
 UTMX.m              526266.40:  UTM X
 WHEW.m                  -3.84:  WELL HEAD E/W
 WHNS.m                   2.88:  WELL HEAD N/S
 LONG.deg                51.31:  LONGITUDE
 LATI.deg                40.06:  LATITUDE
 TVDS.m                  43.42:  TVDSS CORRECTN
 DEP .m                 430.08:  DEPTH
 EKB .m                  43.42:  KB ELEVATION
 EDF .m                  43.42:  DF ELEVATION
 TDL .m                 559.00:  TOTAL DEPTH (LOGGER)
 MAGU.                 1849381:  MAGUTM CHECKSUM
 VSC .                       0:  VS TO CLOSURE
~Parameter Information Block
#MNEM.UNIT       Value        Description
#---------     -----------    ---------------------------
 AV  .mps                 4.87:  Ann Velocity 
 AVMX.mps                 7.08:  Max Ann Veloc 
 AZIF.deg               108.87:  Azm, Final 
 BHAT.                  Rotary:  BHA Type 
 BROT.°/30m               0.35:  Build Rotating 
 BS  .in                  8.50:  Bit Size 
 BSZ .in                  8.50:  Bit Size 
 BTPL.psig              360.00:  Bit Press Loss 
 CABU.                     Yes:  Customer Abuse 
 COMM.                     ¼¥|:  Run Comments 1 
 TCS .hr                106.24:  Time Ciculation Ended 
 CV  .mps                 1.77:  Crit Velocity 
 CVMX.mps                 2.03:  Max Crit Veloc 
 DD1 .         Aykhan Agagulov:  Direct Drillr 1 
 DD2 .            Nonso Okofor:  Direct Drillr 2 
 DDSV.               Geo-Pilot:  DD Service 
 DEFF.%                  98.00:  % Det Eff 
 DLRX.°/30m               0.50:  Dogleg Rot Max 
 DLSO.°/30m               0.40:  Dogleg Oriented 
 DLSX.°/30m               0.94:  Dogleg Str Max 
 DRET.      20.30.00 08-Sep-20:  Drill End Time 
 DRST.      22.15.00 06-Sep-20:  Drill Start Tim 
 DTIM.hr                 31.31:  Time Drilling 
 EDEP.m                5790.01:  End Depth 
 ENG1.           Amrah Tahirov:  Engineer 1 
 ENG2.         Dair Mahammadov:  Engineer 2 
 ENG3.           Emil Huseynov:  Engineer 3 
 ETIM.      04.01.04 12-Sep-20:  End Time 
 FLOI.gpm               450.00:  Flow In 
 FLON.gpm               450.00:  Flow In Min 
 FLOS.cptm                2.00:  Fluid Loss 
 FLOX.gpm               450.00:  Flow In Max 
 FTRO.       Formation Presure:  FTWD Run Obj 
 HFLO.                      No:  High Flow 
 HPRE.                      No:  High Pressure 
 HTEM.                      No:  High Temp 
 HYDO.m                   1.80:  Hydro Offset 
 IFIN.deg                72.03:  Inc, Final 
 IMAX.deg                73.72:  Inc Max 
 IMIN.deg                70.94:  Inc Min 
 IMND.m                5508.52:  Inc Min Depth 
 IMXD.m                5253.60:  Inc Max Depth 
 JARR.                      No:  Jarring 
 LETM.      20.30.00 08-Sep-20:  Log End Time 
 LOST.hr                     0:  Lost Rig Time 
 LSTM.      22.15.00 06-Sep-20:  Log Start Time 
 MDCL.ppm             36000.00:  Mud Chlorides 
 MDES.     Inversion Oil/Synthetic:  Mud Desc 
 DFD .sg                  1.44:  Mud Density 
 MDMN.sg                  1.44:  Dens Mud Min 
 MDMX.sg                  1.57:  Dens Mud Max 
 MOIL.                      70:  Run Mud Oil % 
 MOWR.                   70:30:  Run Mud OWR 
 MSND.                       0:  Run Mud Sand % 
 MSOL.                      21:  Run Mud Solids% 
 DFV .spqt               68.00:  Mud Viscosity 
 MWOD.in                  6.75:  MWD Tool OD 
 MWSI.                     Yes:  Serv Intrp, MWD 
 OTIM.hr                174.84:  Time Operating 
 PCON.           Look Like New:  Pad Condition 
 PMAX.psia            10616.93:  Press Op, Max 
 PV  .cP                 50.00:  Mud PV 
 RUN .                     700:  Run Number 
 ROPA.m/hr               14.24:  ROP Avg 
 ROPN.m/hr               10.00:  ROP Min 
 ROPX.m/hr               32.00:  ROP Max 
 RPMA.rpm               120.90:  RPM Surface Avg 
 RPMN.rpm               120.00:  RPM Surface Min 
 RPMX.rpm               140.00:  RPM Surface Max 
 RRUN.                    0700:  Rig Run Number 
 RTIM.hr                  3.20:  Time Reaming 
 SAZI.deg               109.99:  Azm, Start 
 SDEP.m                5231.01:  Start Depth 
 SIDD.                      No:  Serv Intrp, DD 
 SINC.deg                73.72:  Inc, Start 
 SPPA.psig             3051.00:  SPP Avg 
 SPPN.psig             2950.00:  SPP Min 
 SPPX.psig             3250.00:  SPP Max 
 STIM.      08.00.00 05-Sep-20:  Start Time 
 SVCS.                 DD, MWD:  Services 
 SVER.                    9.20:  Sperry Version 
 TDAT.m                 559.00:  Tot Depth Attmp 
 TDDF.                      No:  Trip for DD 
 TDLG.m                 559.00:  Tot Depth Loggd 
 TFF .                      No:  Trip for Fail 
 TQAA.f-kp               26.49:  Torque Abs Avg 
 TQAN.f-kp               25.00:  Torque Abs Min 
 TQAX.f-kp               27.00:  Torque Abs Max 
 TRRT.°/30m               1.50:  Turn Rotating 
 MRT .                    HCIM:  Maximum Recorded Temperature 
 TTMX.degC               90.20:  Max Tool Temp 
 VS01.                90542671:  Virtual Str1 SN 
 VS02.                90545185:  Virtual Str2 SN 
 VS03.                90602015:  Virtual Str3 SN 
 VS04.                90515230:  Virtual Str4 SN 
 WBMN.klb                 5.00:  WOB Min 
 WOBA.klb                14.79:  WOB Avg 
 WOBX.klb                20.00:  WOB Max 
 YP  .lhf2               29.00:  Yield Point 
~Curve Information Block
#MNEM.UNIT                 API CODE     Curve Description
#---------               -----------    ---------------------------
 TIME.HHMMSS            00 000 000 000:  GT Time & Date
 GTDEPTH.m              00 000 000 000:  GT Depth
 GTPQH.psia             00 000 000 000:  GT HR Quartz Pressure
 GTTQ.degC              00 000 000 000:  GT Quartz Temperature
 GTTN.NONE              00 000 000 000:  GT Test Number
 GTET.sec               00 000 000 000:  GT Elapsed Test Time
 GTTVD.m                00 000 000 000:  GT True Vertical Depth
#Other Information
#
#WARRANTY: Halliburton will use its best efforts to furnish customers with 
#accurate information and interpretations that are part of, and incident to, the services 
#provided.  However, Halliburton cannot and does not warrant the accuracy 
#or correctness of such information and interpretations.  Under no circumstances should any 
#such information or interpretation be relied upon as the sole basis for any drilling, 
#completion, production, or financial decision or any procedure involving any risk to the 
#safety of any drilling venture, drilling rig or its crew or any other third party.  The 
#Customer has full responsibility for all drilling, completion and production operation.  
#Halliburton makes no representations or warranties, either expressed or 
#implied, including, but not limited to, the implied warranties of merchantability or fitness 
#for a particular purpose, with respect to the services rendered.  In no event will 
#Halliburton be liable for failure to obtain any particular results or for 
#any damages, including, but not limited to, indirect, special or consequential damages, 
#resulting from the use of any information or interpretation provided by Halliburton.
#
~A           TIME           GTDEPTH  GTPQH  GTTQ  GTTN   GTET   GTTVD  
# ...
   21:22:10.927.09-Sep-2020 5252.22 6060.28 73.63 26.00  22.61 2542.36
   21:22:11.127.09-Sep-2020 5252.22 6060.71 73.63 26.00  22.81 2542.36
   21:22:11.327.09-Sep-2020 5252.22 6060.80 73.63 26.00  23.01 2542.36
   21:22:11.527.09-Sep-2020 5252.22 6060.58 73.63 26.00  23.21 2542.36
   21:22:11.728.09-Sep-2020 5252.22 6061.10 73.63 26.00  23.41 2542.36
   21:22:11.928.09-Sep-2020 5252.22 6061.75 73.63 26.00  23.61 2542.36
   21:22:12.128.09-Sep-2020 5252.22 6061.88 73.63 26.00  23.81 2542.36
   21:22:12.328.09-Sep-2020 5252.22 6061.87 73.63 26.00  24.01 2542.36
   21:22:12.528.09-Sep-2020 5252.22 6061.87 73.63 26.00  24.21 2542.36
   21:22:12.728.09-Sep-2020 5252.22 6062.13 73.62 26.00  24.41 2542.36
   21:22:12.928.09-Sep-2020 5252.22 6062.82 73.62 26.00  24.61 2542.36
   21:22:13.128.09-Sep-2020 5252.22 6063.32 73.62 26.00  24.81 2542.36
   21:22:13.328.09-Sep-2020 5252.22 6063.26 73.62 26.00  25.01 2542.36
   21:22:13.528.09-Sep-2020 5252.22 6063.26 73.62 26.00  25.21 2542.36
   21:22:13.728.09-Sep-2020 5252.22 6073.18 73.62 26.00  25.41 2542.36
   21:22:13.929.09-Sep-2020 5252.22 6057.84 73.62 26.00  25.61 2542.36
   21:22:14.129.09-Sep-2020 5252.22 6064.01 73.62 26.00  25.81 2542.36
   21:22:14.329.09-Sep-2020 5252.22 6063.56 73.62 26.00  26.01 2542.36
   21:22:14.529.09-Sep-2020 5252.22 6063.37 73.62 26.00  26.21 2542.36
   21:22:14.729.09-Sep-2020 5252.22 6063.83 73.62 26.00  26.41 2542.36
   21:22:14.929.09-Sep-2020 5252.22 6072.17 73.62 26.00  26.61 2542.36
   21:22:15.129.09-Sep-2020 5252.22 6061.40 73.62 26.00  26.81 2542.36
   21:22:15.329.09-Sep-2020 5252.22 6064.69 73.62 26.00  27.01 2542.36
   21:22:15.529.09-Sep-2020 5252.22 6064.69 73.62 26.00  27.21 2542.36
   21:22:15.729.09-Sep-2020 5252.22 6064.75 73.62 26.00  27.41 2542.36
   21:22:15.929.09-Sep-2020 5252.22 6064.22 73.62 26.00  27.61 2542.36
   21:22:16.130.09-Sep-2020 5252.22 6065.85 73.62 26.00  27.81 2542.36
   21:22:16.330.09-Sep-2020 5252.22 6075.91 73.62 26.00  28.01 2542.36
   21:22:16.530.09-Sep-2020 5252.22 6075.91 73.62 26.00  28.21 2542.36
   21:22:16.730.09-Sep-2020 5252.22 6066.23 73.62 26.00  28.41 2542.36
   21:22:16.930.09-Sep-2020 5252.22 6065.93 73.62 26.00  28.61 2542.36
   21:22:17.130.09-Sep-2020 5252.22 6075.67 73.62 26.00  28.81 2542.36
   21:22:17.330.09-Sep-2020 5252.22 6061.13 73.62 26.00  29.01 2542.36
   21:22:17.530.09-Sep-2020 5252.22 6061.13 73.62 26.00  29.21 2542.36
   21:22:17.730.09-Sep-2020 5252.22 6066.32 73.62 26.00  29.41 2542.36
   21:22:17.930.09-Sep-2020 5252.22 6066.69 73.62 26.00  29.61 2542.36
   21:22:18.130.09-Sep-2020 5252.22 6067.29 73.62 26.00  29.81 2542.36
   21:22:18.331.09-Sep-2020 5252.22 6068.79 73.62 26.00  30.01 2542.36
   21:22:18.531.09-Sep-2020 5252.22 6068.79 73.62 26.00  30.21 2542.36
   21:22:18.731.09-Sep-2020 5252.22 6065.45 73.62 26.00  30.41 2542.36
   21:22:18.931.09-Sep-2020 5252.22 6069.22 73.62 26.00  30.61 2542.36
   21:22:19.131.09-Sep-2020 5252.22 6068.89 73.62 26.00  30.81 2542.36
   21:22:19.331.09-Sep-2020 5252.22 6068.96 73.62 26.00  31.01 2542.36
   21:22:19.531.09-Sep-2020 5252.22 6068.96 73.62 26.00  31.21 2542.36
   21:22:19.731.09-Sep-2020 5252.22 6070.28 73.62 26.00  31.41 2542.36
   21:22:19.931.09-Sep-2020 5252.22 6069.61 73.62 26.00  31.61 2542.36
   21:22:20.131.09-Sep-2020 5252.22 6069.94 73.62 26.00  31.81 2542.36
   21:22:20.332.09-Sep-2020 5252.22 6069.47 73.62 26.00  32.01 2542.36
   21:22:20.532.09-Sep-2020 5252.22 6069.47 73.62 26.00  32.21 2542.36
   21:22:20.732.09-Sep-2020 5252.22 6069.21 73.62 26.00  32.41 2542.36
   21:22:20.932.09-Sep-2020 5252.22 6069.65 73.62 26.00  32.62 2542.36
   21:22:21.132.09-Sep-2020 5252.22 6070.12 73.62 26.00  32.82 2542.36
   21:22:21.332.09-Sep-2020 5252.22 6070.54 73.62 26.00  33.02 2542.36
   21:22:21.532.09-Sep-2020 5252.22 6070.54 73.62 26.00  33.22 2542.36
   21:22:21.732.09-Sep-2020 5252.22 6071.25 73.62 26.00  33.42 2542.36
   21:22:21.932.09-Sep-2020 5252.22 6071.36 73.62 26.00  33.62 2542.36
   21:22:22.132.09-Sep-2020 5252.22 6079.60 73.62 26.00  33.82 2542.36
   21:22:22.332.09-Sep-2020 5252.22 6069.10 73.62 26.00  34.02 2542.36
   21:22:22.533.09-Sep-2020 5252.22 6072.19 73.62 26.00  34.22 2542.36
   21:22:22.733.09-Sep-2020 5252.22 6071.99 73.62 26.00  34.42 2542.36
   21:22:22.933.09-Sep-2020 5252.22 6071.74 73.62 26.00  34.62 2542.36
   21:22:23.133.09-Sep-2020 5252.22 6072.38 73.62 26.00  34.82 2542.36
   21:22:23.333.09-Sep-2020 5252.22 6077.91 73.62 26.00  35.02 2542.36
   21:22:23.533.09-Sep-2020 5252.22 6071.05 73.62 26.00  35.22 2542.36
   21:22:23.733.09-Sep-2020 5252.22 6068.98 73.62 26.00  35.42 2542.36
   21:22:23.933.09-Sep-2020 5252.22 6052.96 73.62 26.00  35.62 2542.36
   21:22:24.133.09-Sep-2020 5252.22 6007.98 73.62 26.00  35.82 2542.36
   21:22:24.333.09-Sep-2020 5252.22 5936.84 73.62 26.00  36.02 2542.36
   21:22:24.533.09-Sep-2020 5252.22 5936.84 73.62 26.00  36.22 2542.36
   21:22:24.734.09-Sep-2020 5252.22 5756.44 73.62 26.00  36.42 2542.36
   21:22:24.934.09-Sep-2020 5252.22 5690.21 73.62 26.00  36.62 2542.36
   21:22:25.134.09-Sep-2020 5252.22 5731.38 73.62 26.00  36.82 2542.36
   21:22:25.334.09-Sep-2020 5252.22 5783.16 73.62 26.00  37.02 2542.36
   21:22:25.534.09-Sep-2020 5252.22 5783.16 73.62 26.00  37.22 2542.36
   21:22:25.734.09-Sep-2020 5252.22 5959.24 73.62 26.00  37.42 2542.36
   21:22:25.934.09-Sep-2020 5252.22 6016.19 73.62 26.00  37.62 2542.36
   21:22:26.134.09-Sep-2020 5252.22 6042.10 73.62 26.00  37.82 2542.36
   21:22:26.334.09-Sep-2020 5252.22 6002.01 73.61 26.00  38.02 2542.36
   21:22:26.534.09-Sep-2020 5252.22 5961.01 73.61 26.00  38.22 2542.36
   21:22:26.734.09-Sep-2020 5252.22 5917.45 73.61 26.00  38.42 2542.36
   21:22:26.935.09-Sep-2020 5252.22 5875.25 73.61 26.00  38.62 2542.36
   21:22:27.135.09-Sep-2020 5252.22 5845.21 73.61 26.00  38.82 2542.36
   21:22:27.335.09-Sep-2020 5252.22 5817.95 73.61 26.00  39.02 2542.36
   21:22:27.535.09-Sep-2020 5252.22 5817.95 73.61 26.00  39.22 2542.36
   21:22:27.735.09-Sep-2020 5252.22 5747.16 73.61 26.00  39.42 2542.36
   21:22:27.935.09-Sep-2020 5252.22 5717.70 73.61 26.00  39.62 2542.36
   21:22:28.135.09-Sep-2020 5252.22 5690.19 73.61 26.00  39.82 2542.36
   21:22:28.335.09-Sep-2020 5252.22 5672.47 73.61 26.00  40.02 2542.36
   21:22:28.535.09-Sep-2020 5252.22 5672.47 73.61 26.00  40.22 2542.36
   21:22:28.735.09-Sep-2020 5252.22 5633.67 73.61 26.00  40.42 2542.36
   21:22:28.935.09-Sep-2020 5252.22 5619.59 73.61 26.00  40.62 2542.36
   21:22:29.136.09-Sep-2020 5252.22 5056.31 73.61 26.00  40.82 2542.36
   21:22:29.336.09-Sep-2020 5252.22 4395.28 73.61 26.00  41.02 2542.36
   21:22:29.536.09-Sep-2020 5252.22 4395.28 73.61 26.00  41.22 2542.36
   21:22:29.736.09-Sep-2020 5252.22 3725.88 73.61 26.00  41.42 2542.36
   21:22:29.936.09-Sep-2020 5252.22 3068.21 73.61 26.00  41.62 2542.36
   21:22:30.136.09-Sep-2020 5252.22 2458.69 73.61 26.00  41.82 2542.36
   21:22:30.336.09-Sep-2020 5252.22 1892.07 73.61 26.00  42.02 2542.36
   21:22:30.536.09-Sep-2020 5252.22 1892.07 73.61 26.00  42.22 2542.36
   21:22:30.736.09-Sep-2020 5252.22  977.33 73.60 26.00  42.42 2542.36
   21:22:30.936.09-Sep-2020 5252.22  597.96 73.60 26.00  42.62 2542.36
   21:22:31.136.09-Sep-2020 5252.22  402.29 73.60 26.00  42.82 2542.36
   21:22:31.337.09-Sep-2020 5252.22  335.15 73.59 26.00  43.02 2542.36
   21:22:31.537.09-Sep-2020 5252.22  315.91 73.59 26.00  43.22 2542.36
   21:22:31.737.09-Sep-2020 5252.22  306.32 73.59 26.00  43.42 2542.36
   21:22:31.937.09-Sep-2020 5252.22  297.51 73.58 26.00  43.62 2542.36
   21:22:32.137.09-Sep-2020 5252.22  271.22 73.58 26.00  43.82 2542.36
   21:22:32.337.09-Sep-2020 5252.22  256.89 73.58 26.00  44.02 2542.36
   21:22:32.537.09-Sep-2020 5252.22  256.89 73.58 26.00  44.22 2542.36
   21:22:32.737.09-Sep-2020 5252.22  239.79 73.57 26.00  44.42 2542.36
   21:22:32.937.09-Sep-2020 5252.22  232.43 73.56 26.00  44.62 2542.36
   21:22:33.137.09-Sep-2020 5252.22  223.49 73.56 26.00  44.82 2542.36
   21:22:33.337.09-Sep-2020 5252.22  218.06 73.55 26.00  45.02 2542.36
