~Version Information
 VERS.                  2.0:   CWLS log ASCII Standard -VERSION 2.0
 WRAP.                   NO:   One line per depth step
~Well Information Block
#MNEM.UNIT     VALUE/NAME     DESCRIPTION
#---------     -----------    ---------------------------
 STRT.S             09:56:49 09-Sep-20: START TIME 09:56:49 09-Sep-20
 STOP.S             10:03:50 09-Sep-20: STOP TIME  10:03:50 09-Sep-20
 STEP.S                   0.00: STEP TIME
 NULL.                 -999.25: NULL VALUE
 MDS .        Operator Entered:  MAG DATA SOURCE
 PDAT.          Mean Sea Level:  PERMANENT DATUM
 DCON.         Sperry Drilling:  DIRECTNL CONTR
 RIG .              West Azeri:  RIG NAME
 WELL.           C40 (Slot 20):  WELL NAME
 SRVC.     Turan Drilling Engineering:  CONTRACTOR
 FLD .                     ACG:  FIELD NAME
 CTRY.              Azerbaijan:  COUNTRY NAME
 PROV.                    Baku:  PROVINCE
 STAT.                    Baku:  STATE NAME
 REGN.                   EESSA:  REGION
 BASE.              Azerbaijan:  LOGGING EQUIPMENT BASE LOCATION
 COMP.     BP Exploration (Caspian Sea) Ltd:  COMPANY
 WTYP.                Deviated:  WELL TYPE
 SON .        AZ-XX-0906344804:  JOB NUMBER
 FTOP.          Formation Tops:  FORM TOPS DESC
 ILTD.               Lithology:  INTERP LTH DESC
 SVYD.                  Survey:  SURVEY DESC
 DMOD.             Drill Model:  DRILL MOD DESC
 HPTY.       Minimum Curvature:  HOLE POS TYPE
 NREF.                    Grid:  NORTH REFERENCE
 SPUD.               01-Jan-20:  SPUD DATE
 DATE.      00.59.44 15-Sep-20:  END TIME
 STIM.      12.00.00 12-Jun-20:  START TIME
 DMF .             Drill Floor:  DRILL MEAS FROM
 DFST.                        :  DIST FSL TEXT
 DFWT.                        :  DIST FWL TEXT
 API .                        :  API NUMBER
 CNTY.                        :  COUNTY
 UWI .                        :  UNIQUE WELL IDENTIFIER
 LOC .                        :  LOCATION
 LMF .             Drill Floor:  LOG MEASURED FROM
 VSNS.m                   2.88:  VERT SEC N/S
 VSEW.m                  -3.84:  VERT SEC E/W
 AGAP.m                  43.42:  AIR GAP
 APD .m                  43.42:  DEPTH ABOVE PD
 WDMS.m                 118.27:  WD ELEV
 EGL .m                   0.00:  GROUND ELEVATION
 EPD .m                   0.00:  ELEVATION
 AZTC.deg                 6.23:  AZM TOTAL CORR
 GRDC.deg                 0.20:  GRID CORRECTION
 MDEC.deg                 6.43:  MAGNETIC DECL
 MDIP.deg                59.49:  MAGNETIC DIP
 MFLD.nT              50277.00:  MAGNETIC FIELD
 GVFD.g                   1.00:  GRAVITY FIELD
 VSDR.deg               173.20:  VERT SEC DIRECT
 TDD .m                5790.01:  TOTAL DEPTH (DRILLER)
 SDEP.m                5231.01:  START DEPTH
 DFSL.m                   0.00:  DISTANCE FSL
 DFWL.m                   0.00:  DISTANCE FWL
 UTMY.m             4435808.83:  UTM Y
 UTMX.m              526266.40:  UTM X
 WHEW.m                  -3.84:  WELL HEAD E/W
 WHNS.m                   2.88:  WELL HEAD N/S
 LONG.deg                51.31:  LONGITUDE
 LATI.deg                40.06:  LATITUDE
 TVDS.m                  43.42:  TVDSS CORRECTN
 DEP .m                 430.08:  DEPTH
 EKB .m                  43.42:  KB ELEVATION
 EDF .m                  43.42:  DF ELEVATION
 TDL .m                 559.00:  TOTAL DEPTH (LOGGER)
 MAGU.                 1849381:  MAGUTM CHECKSUM
 VSC .                       0:  VS TO CLOSURE
~Parameter Information Block
#MNEM.UNIT       Value        Description
#---------     -----------    ---------------------------
 AV  .mps                 4.87:  Ann Velocity 
 AVMX.mps                 7.08:  Max Ann Veloc 
 AZIF.deg               108.87:  Azm, Final 
 BHAT.                  Rotary:  BHA Type 
 BROT.°/30m               0.35:  Build Rotating 
 BS  .in                  8.50:  Bit Size 
 BSZ .in                  8.50:  Bit Size 
 BTPL.psig              360.00:  Bit Press Loss 
 CABU.                     Yes:  Customer Abuse 
 COMM.                     ÜQ{:  Run Comments 1 
 TCS .hr                106.24:  Time Ciculation Ended 
 CV  .mps                 1.77:  Crit Velocity 
 CVMX.mps                 2.03:  Max Crit Veloc 
 DD1 .         Aykhan Agagulov:  Direct Drillr 1 
 DD2 .            Nonso Okofor:  Direct Drillr 2 
 DDSV.               Geo-Pilot:  DD Service 
 DEFF.%                  98.00:  % Det Eff 
 DLRX.°/30m               0.50:  Dogleg Rot Max 
 DLSO.°/30m               0.40:  Dogleg Oriented 
 DLSX.°/30m               0.94:  Dogleg Str Max 
 DRET.      20.30.00 08-Sep-20:  Drill End Time 
 DRST.      22.15.00 06-Sep-20:  Drill Start Tim 
 DTIM.hr                 31.31:  Time Drilling 
 EDEP.m                5790.01:  End Depth 
 ENG1.           Amrah Tahirov:  Engineer 1 
 ENG2.         Dair Mahammadov:  Engineer 2 
 ENG3.           Emil Huseynov:  Engineer 3 
 ETIM.      04.01.04 12-Sep-20:  End Time 
 FLOI.gpm               450.00:  Flow In 
 FLON.gpm               450.00:  Flow In Min 
 FLOS.cptm                2.00:  Fluid Loss 
 FLOX.gpm               450.00:  Flow In Max 
 FTRO.       Formation Presure:  FTWD Run Obj 
 HFLO.                      No:  High Flow 
 HPRE.                      No:  High Pressure 
 HTEM.                      No:  High Temp 
 HYDO.m                   1.80:  Hydro Offset 
 IFIN.deg                72.03:  Inc, Final 
 IMAX.deg                73.72:  Inc Max 
 IMIN.deg                70.94:  Inc Min 
 IMND.m                5508.52:  Inc Min Depth 
 IMXD.m                5253.60:  Inc Max Depth 
 JARR.                      No:  Jarring 
 LETM.      20.30.00 08-Sep-20:  Log End Time 
 LOST.hr                     0:  Lost Rig Time 
 LSTM.      22.15.00 06-Sep-20:  Log Start Time 
 MDCL.ppm             36000.00:  Mud Chlorides 
 MDES.     Inversion Oil/Synthetic:  Mud Desc 
 DFD .sg                  1.44:  Mud Density 
 MDMN.sg                  1.44:  Dens Mud Min 
 MDMX.sg                  1.57:  Dens Mud Max 
 MOIL.                      70:  Run Mud Oil % 
 MOWR.                   70:30:  Run Mud OWR 
 MSND.                       0:  Run Mud Sand % 
 MSOL.                      21:  Run Mud Solids% 
 DFV .spqt               68.00:  Mud Viscosity 
 MWOD.in                  6.75:  MWD Tool OD 
 MWSI.                     Yes:  Serv Intrp, MWD 
 OTIM.hr                174.84:  Time Operating 
 PCON.           Look Like New:  Pad Condition 
 PMAX.psia            10616.93:  Press Op, Max 
 PV  .cP                 50.00:  Mud PV 
 RUN .                     700:  Run Number 
 ROPA.m/hr               14.24:  ROP Avg 
 ROPN.m/hr               10.00:  ROP Min 
 ROPX.m/hr               32.00:  ROP Max 
 RPMA.rpm               120.90:  RPM Surface Avg 
 RPMN.rpm               120.00:  RPM Surface Min 
 RPMX.rpm               140.00:  RPM Surface Max 
 RRUN.                    0700:  Rig Run Number 
 RTIM.hr                  3.20:  Time Reaming 
 SAZI.deg               109.99:  Azm, Start 
 SDEP.m                5231.01:  Start Depth 
 SIDD.                      No:  Serv Intrp, DD 
 SINC.deg                73.72:  Inc, Start 
 SPPA.psig             3051.00:  SPP Avg 
 SPPN.psig             2950.00:  SPP Min 
 SPPX.psig             3250.00:  SPP Max 
 STIM.      08.00.00 05-Sep-20:  Start Time 
 SVCS.                 DD, MWD:  Services 
 SVER.                    9.20:  Sperry Version 
 TDAT.m                 559.00:  Tot Depth Attmp 
 TDDF.                      No:  Trip for DD 
 TDLG.m                 559.00:  Tot Depth Loggd 
 TFF .                      No:  Trip for Fail 
 TQAA.f-kp               26.49:  Torque Abs Avg 
 TQAN.f-kp               25.00:  Torque Abs Min 
 TQAX.f-kp               27.00:  Torque Abs Max 
 TRRT.°/30m               1.50:  Turn Rotating 
 MRT .                    HCIM:  Maximum Recorded Temperature 
 TTMX.degC               90.20:  Max Tool Temp 
 VS01.                90542671:  Virtual Str1 SN 
 VS02.                90545185:  Virtual Str2 SN 
 VS03.                90602015:  Virtual Str3 SN 
 VS04.                90515230:  Virtual Str4 SN 
 WBMN.klb                 5.00:  WOB Min 
 WOBA.klb                14.79:  WOB Avg 
 WOBX.klb                20.00:  WOB Max 
 YP  .lhf2               29.00:  Yield Point 
~Curve Information Block
#MNEM.UNIT                 API CODE     Curve Description
#---------               -----------    ---------------------------
 TIME.HHMMSS            00 000 000 000:  GT Time & Date
 GTDEPTH.m              00 000 000 000:  GT Depth
 GTPQH.psia             00 000 000 000:  GT HR Quartz Pressure
 GTTQ.degC              00 000 000 000:  GT Quartz Temperature
 GTTN.NONE              00 000 000 000:  GT Test Number
 GTET.sec               00 000 000 000:  GT Elapsed Test Time
 GTTVD.m                00 000 000 000:  GT True Vertical Depth
#Other Information
#
#WARRANTY: Halliburton will use its best efforts to furnish customers with 
#accurate information and interpretations that are part of, and incident to, the services 
#provided.  However, Halliburton cannot and does not warrant the accuracy 
#or correctness of such information and interpretations.  Under no circumstances should any 
#such information or interpretation be relied upon as the sole basis for any drilling, 
#completion, production, or financial decision or any procedure involving any risk to the 
#safety of any drilling venture, drilling rig or its crew or any other third party.  The 
#Customer has full responsibility for all drilling, completion and production operation.  
#Halliburton makes no representations or warranties, either expressed or 
#implied, including, but not limited to, the implied warranties of merchantability or fitness 
#for a particular purpose, with respect to the services rendered.  In no event will 
#Halliburton be liable for failure to obtain any particular results or for 
#any damages, including, but not limited to, indirect, special or consequential damages, 
#resulting from the use of any information or interpretation provided by Halliburton.
#
~A           TIME           GTDEPTH  GTPQH  GTTQ  GTTN  GTET   GTTVD  
# ...
   10:01:02.000.09-Sep-2020 5480.01 3592.48 77.04 8.00 253.00 2612.34
   10:01:02.200.09-Sep-2020 5480.01 3592.48 77.04 8.00 253.20 2612.34
   10:01:02.400.09-Sep-2020 5480.01 3592.47 77.04 8.00 253.40 2612.34
   10:01:02.600.09-Sep-2020 5480.01 3592.47 77.04 8.00 253.60 2612.34
   10:01:02.800.09-Sep-2020 5480.01 3592.48 77.04 8.00 253.80 2612.34
   10:01:03.000.09-Sep-2020 5480.01 3592.47 77.04 8.00 254.00 2612.34
   10:01:03.200.09-Sep-2020 5480.01 3592.47 77.04 8.00 254.20 2612.34
   10:01:03.400.09-Sep-2020 5480.01 3592.47 77.04 8.00 254.40 2612.34
   10:01:03.600.09-Sep-2020 5480.01 3592.47 77.04 8.00 254.60 2612.34
   10:01:03.800.09-Sep-2020 5480.01 3592.48 77.04 8.00 254.80 2612.34
   10:01:04.000.09-Sep-2020 5480.01 3592.51 77.04 8.00 255.00 2612.34
   10:01:04.200.09-Sep-2020 5480.01 3592.51 77.04 8.00 255.20 2612.34
   10:01:04.400.09-Sep-2020 5480.01 3592.47 77.04 8.00 255.40 2612.34
   10:01:04.600.09-Sep-2020 5480.01 3592.48 77.04 8.00 255.60 2612.34
   10:01:04.800.09-Sep-2020 5480.01 3592.48 77.04 8.00 255.80 2612.34
   10:01:05.000.09-Sep-2020 5480.01 3592.38 77.04 8.00 256.00 2612.34
   10:01:05.200.09-Sep-2020 5480.01 3592.38 77.04 8.00 256.20 2612.34
   10:01:05.400.09-Sep-2020 5480.01 3592.49 77.04 8.00 256.40 2612.34
   10:01:05.600.09-Sep-2020 5480.01 3592.47 77.04 8.00 256.60 2612.34
   10:01:05.800.09-Sep-2020 5480.01 3592.47 77.04 8.00 256.80 2612.34
   10:01:06.000.09-Sep-2020 5480.01 3592.57 77.04 8.00 257.00 2612.34
   10:01:06.200.09-Sep-2020 5480.01 3592.57 77.04 8.00 257.20 2612.34
   10:01:06.400.09-Sep-2020 5480.01 3592.46 77.04 8.00 257.40 2612.34
   10:01:06.600.09-Sep-2020 5480.01 3571.06 77.03 8.00 257.60 2612.34
   10:01:06.800.09-Sep-2020 5480.01 3535.88 77.03 8.00 257.80 2612.34
   10:01:07.000.09-Sep-2020 5480.01 3520.43 77.03 8.00 258.00 2612.34
   10:01:07.200.09-Sep-2020 5480.01 3520.43 77.03 8.00 258.20 2612.34
   10:01:07.400.09-Sep-2020 5480.01 3518.44 77.03 8.00 258.40 2612.34
   10:01:07.600.09-Sep-2020 5480.01 3518.60 77.03 8.00 258.60 2612.34
   10:01:07.800.09-Sep-2020 5480.01 3519.15 77.03 8.00 258.80 2612.34
   10:01:08.000.09-Sep-2020 5480.01 3517.28 77.03 8.00 259.00 2612.34
   10:01:08.200.09-Sep-2020 5480.01 3517.28 77.03 8.00 259.20 2612.34
   10:01:08.400.09-Sep-2020 5480.01 3517.64 77.03 8.00 259.40 2612.34
   10:01:08.600.09-Sep-2020 5480.01 3517.60 77.03 8.00 259.60 2612.34
   10:01:08.800.09-Sep-2020 5480.01 3516.90 77.03 8.00 259.80 2612.34
   10:01:09.000.09-Sep-2020 5480.01 3514.88 77.03 8.00 260.00 2612.34
   10:01:09.200.09-Sep-2020 5480.01 3514.88 77.03 8.00 260.20 2612.34
   10:01:09.400.09-Sep-2020 5480.01 3510.73 77.03 8.00 260.40 2612.34
   10:01:09.600.09-Sep-2020 5480.01 3508.98 77.03 8.00 260.60 2612.34
   10:01:09.800.09-Sep-2020 5480.01 3509.32 77.03 8.00 260.80 2612.34
   10:01:10.000.09-Sep-2020 5480.01 3510.87 77.03 8.00 261.00 2612.34
   10:01:10.200.09-Sep-2020 5480.01 3510.87 77.03 8.00 261.20 2612.34
   10:01:10.400.09-Sep-2020 5480.01 3509.47 77.03 8.00 261.40 2612.34
   10:01:10.600.09-Sep-2020 5480.01 3505.52 77.03 8.00 261.60 2612.34
   10:01:10.800.09-Sep-2020 5480.01 3507.00 77.03 8.00 261.80 2612.34
   10:01:11.000.09-Sep-2020 5480.01 3504.84 77.03 8.00 262.00 2612.34
   10:01:11.200.09-Sep-2020 5480.01 3504.84 77.03 8.00 262.20 2612.34
   10:01:11.400.09-Sep-2020 5480.01 3504.92 77.03 8.00 262.40 2612.34
   10:01:11.600.09-Sep-2020 5480.01 3508.28 77.03 8.00 262.60 2612.34
   10:01:11.800.09-Sep-2020 5480.01 3503.47 77.03 8.00 262.80 2612.34
   10:01:12.000.09-Sep-2020 5480.01 3509.76 77.03 8.00 263.00 2612.34
   10:01:12.200.09-Sep-2020 5480.01 3509.76 77.03 8.00 263.20 2612.34
   10:01:12.400.09-Sep-2020 5480.01 3508.51 77.03 8.00 263.40 2612.34
   10:01:12.600.09-Sep-2020 5480.01 3507.45 77.03 8.00 263.60 2612.34
   10:01:12.800.09-Sep-2020 5480.01 3507.05 77.03 8.00 263.80 2612.34
   10:01:13.000.09-Sep-2020 5480.01 3508.52 77.03 8.00 264.00 2612.34
   10:01:13.200.09-Sep-2020 5480.01 3508.52 77.03 8.00 264.20 2612.34
   10:01:13.400.09-Sep-2020 5480.01 3505.08 77.03 8.00 264.40 2612.34
   10:01:13.600.09-Sep-2020 5480.01 3505.58 77.03 8.00 264.60 2612.34
   10:01:13.800.09-Sep-2020 5480.01 3507.04 77.03 8.00 264.80 2612.34
   10:01:14.000.09-Sep-2020 5480.01 3507.59 77.03 8.00 265.00 2612.34
   10:01:14.200.09-Sep-2020 5480.01 3507.59 77.03 8.00 265.20 2612.34
   10:01:14.400.09-Sep-2020 5480.01 3500.66 77.03 8.00 265.40 2612.34
   10:01:14.600.09-Sep-2020 5480.01 3504.72 77.03 8.00 265.60 2612.34
   10:01:14.800.09-Sep-2020 5480.01 3506.55 77.03 8.00 265.80 2612.34
   10:01:15.000.09-Sep-2020 5480.01 3502.98 77.03 8.00 266.00 2612.34
   10:01:15.200.09-Sep-2020 5480.01 3502.98 77.03 8.00 266.20 2612.34
   10:01:15.400.09-Sep-2020 5480.01 3503.13 77.03 8.00 266.40 2612.34
   10:01:15.600.09-Sep-2020 5480.01 3504.80 77.03 8.00 266.60 2612.34
   10:01:15.800.09-Sep-2020 5480.01 3502.82 77.03 8.00 266.80 2612.34
   10:01:16.000.09-Sep-2020 5480.01 3498.95 77.03 8.00 267.00 2612.34
   10:01:16.200.09-Sep-2020 5480.01 3498.95 77.03 8.00 267.20 2612.34
   10:01:16.400.09-Sep-2020 5480.01 3504.12 77.03 8.00 267.40 2612.34
   10:01:16.600.09-Sep-2020 5480.01 3509.50 77.03 8.00 267.60 2612.34
   10:01:16.800.09-Sep-2020 5480.01 3586.32 77.03 8.00 267.80 2612.34
   10:01:17.000.09-Sep-2020 5480.01 3591.15 77.03 8.00 268.00 2612.34
   10:01:17.200.09-Sep-2020 5480.01 3591.15 77.03 8.00 268.20 2612.34
   10:01:17.400.09-Sep-2020 5480.01 3592.15 77.03 8.00 268.40 2612.34
   10:01:17.600.09-Sep-2020 5480.01 3592.21 77.03 8.00 268.60 2612.34
   10:01:17.800.09-Sep-2020 5480.01 3592.31 77.03 8.00 268.80 2612.34
   10:01:18.000.09-Sep-2020 5480.01 3592.14 77.03 8.00 269.00 2612.34
   10:01:18.200.09-Sep-2020 5480.01 3592.14 77.03 8.00 269.20 2612.34
   10:01:18.400.09-Sep-2020 5480.01 3592.28 77.03 8.00 269.40 2612.34
   10:01:18.600.09-Sep-2020 5480.01 3592.30 77.03 8.00 269.60 2612.34
   10:01:18.800.09-Sep-2020 5480.01 3592.38 77.03 8.00 269.80 2612.34
   10:01:19.000.09-Sep-2020 5480.01 3592.23 77.03 8.00 270.00 2612.34
   10:01:19.200.09-Sep-2020 5480.01 3592.23 77.03 8.00 270.20 2612.34
   10:01:19.400.09-Sep-2020 5480.01 3592.38 77.03 8.00 270.40 2612.34
   10:01:19.600.09-Sep-2020 5480.01 3592.35 77.03 8.00 270.60 2612.34
   10:01:19.800.09-Sep-2020 5480.01 3592.37 77.03 8.00 270.80 2612.34
   10:01:20.000.09-Sep-2020 5480.01 3592.39 77.03 8.00 271.00 2612.34
   10:01:20.200.09-Sep-2020 5480.01 3592.39 77.03 8.00 271.20 2612.34
   10:01:20.400.09-Sep-2020 5480.01 3592.40 77.03 8.00 271.40 2612.34
   10:01:20.600.09-Sep-2020 5480.01 3592.41 77.03 8.00 271.60 2612.34
   10:01:20.800.09-Sep-2020 5480.01 3592.41 77.03 8.00 271.80 2612.34
   10:01:21.000.09-Sep-2020 5480.01 3592.41 77.03 8.00 272.00 2612.34
   10:01:21.200.09-Sep-2020 5480.01 3592.41 77.03 8.00 272.20 2612.34
   10:01:21.400.09-Sep-2020 5480.01 3592.42 77.03 8.00 272.40 2612.34
   10:01:21.600.09-Sep-2020 5480.01 3592.42 77.03 8.00 272.60 2612.34
   10:01:21.800.09-Sep-2020 5480.01 3592.42 77.03 8.00 272.80 2612.34
   10:01:22.000.09-Sep-2020 5480.01 3592.42 77.03 8.00 273.00 2612.34
   10:01:22.200.09-Sep-2020 5480.01 3592.42 77.03 8.00 273.20 2612.34
   10:01:22.400.09-Sep-2020 5480.01 3592.35 77.03 8.00 273.40 2612.34
   10:01:22.600.09-Sep-2020 5480.01 3592.48 77.03 8.00 273.60 2612.34
   10:01:22.800.09-Sep-2020 5480.01 3592.47 77.03 8.00 273.80 2612.34
   10:01:23.000.09-Sep-2020 5480.01 3592.43 77.03 8.00 274.00 2612.34
   10:01:23.200.09-Sep-2020 5480.01 3592.43 77.03 8.00 274.20 2612.34
   10:01:23.400.09-Sep-2020 5480.01 3592.44 77.03 8.00 274.40 2612.34
   10:01:23.600.09-Sep-2020 5480.01 3592.43 77.03 8.00 274.60 2612.34
   10:01:23.800.09-Sep-2020 5480.01 3592.44 77.03 8.00 274.80 2612.34
   10:01:24.000.09-Sep-2020 5480.01 3592.44 77.03 8.00 275.00 2612.34
   10:01:24.200.09-Sep-2020 5480.01 3592.44 77.03 8.00 275.20 2612.34
   10:01:24.400.09-Sep-2020 5480.01 3592.45 77.03 8.00 275.40 2612.34
   10:01:24.600.09-Sep-2020 5480.01 3592.44 77.03 8.00 275.60 2612.34
   10:01:24.800.09-Sep-2020 5480.01 3592.44 77.03 8.00 275.80 2612.34
