~Version Information
 VERS.                  2.0:   CWLS log ASCII Standard -VERSION 2.0
 WRAP.                   NO:   One line per depth step
~Well Information Block
#MNEM.UNIT     VALUE/NAME     DESCRIPTION
#---------     -----------    ---------------------------
 STRT.S             06:25:59 09-Sep-20: START TIME 06:25:59 09-Sep-20
 STOP.S             06:32:43 09-Sep-20: STOP TIME  06:32:43 09-Sep-20
 STEP.S                   0.00: STEP TIME
 NULL.                 -999.25: NULL VALUE
 MDS .        Operator Entered:  MAG DATA SOURCE
 PDAT.          Mean Sea Level:  PERMANENT DATUM
 DCON.         Sperry Drilling:  DIRECTNL CONTR
 RIG .              West Azeri:  RIG NAME
 WELL.           C40 (Slot 20):  WELL NAME
 SRVC.     Turan Drilling Engineering:  CONTRACTOR
 FLD .                     ACG:  FIELD NAME
 CTRY.              Azerbaijan:  COUNTRY NAME
 PROV.                    Baku:  PROVINCE
 STAT.                    Baku:  STATE NAME
 REGN.                   EESSA:  REGION
 BASE.              Azerbaijan:  LOGGING EQUIPMENT BASE LOCATION
 COMP.     BP Exploration (Caspian Sea) Ltd:  COMPANY
 WTYP.                Deviated:  WELL TYPE
 SON .        AZ-XX-0906344804:  JOB NUMBER
 FTOP.          Formation Tops:  FORM TOPS DESC
 ILTD.               Lithology:  INTERP LTH DESC
 SVYD.                  Survey:  SURVEY DESC
 DMOD.             Drill Model:  DRILL MOD DESC
 HPTY.       Minimum Curvature:  HOLE POS TYPE
 NREF.                    Grid:  NORTH REFERENCE
 SPUD.               01-Jan-20:  SPUD DATE
 DATE.      00.59.44 15-Sep-20:  END TIME
 STIM.      12.00.00 12-Jun-20:  START TIME
 DMF .             Drill Floor:  DRILL MEAS FROM
 DFST.                        :  DIST FSL TEXT
 DFWT.                        :  DIST FWL TEXT
 API .                        :  API NUMBER
 CNTY.                        :  COUNTY
 UWI .                        :  UNIQUE WELL IDENTIFIER
 LOC .                        :  LOCATION
 LMF .             Drill Floor:  LOG MEASURED FROM
 VSNS.m                   2.88:  VERT SEC N/S
 VSEW.m                  -3.84:  VERT SEC E/W
 AGAP.m                  43.42:  AIR GAP
 APD .m                  43.42:  DEPTH ABOVE PD
 WDMS.m                 118.27:  WD ELEV
 EGL .m                   0.00:  GROUND ELEVATION
 EPD .m                   0.00:  ELEVATION
 AZTC.deg                 6.23:  AZM TOTAL CORR
 GRDC.deg                 0.20:  GRID CORRECTION
 MDEC.deg                 6.43:  MAGNETIC DECL
 MDIP.deg                59.49:  MAGNETIC DIP
 MFLD.nT              50277.00:  MAGNETIC FIELD
 GVFD.g                   1.00:  GRAVITY FIELD
 VSDR.deg               173.20:  VERT SEC DIRECT
 TDD .m                5790.01:  TOTAL DEPTH (DRILLER)
 SDEP.m                5231.01:  START DEPTH
 DFSL.m                   0.00:  DISTANCE FSL
 DFWL.m                   0.00:  DISTANCE FWL
 UTMY.m             4435808.83:  UTM Y
 UTMX.m              526266.40:  UTM X
 WHEW.m                  -3.84:  WELL HEAD E/W
 WHNS.m                   2.88:  WELL HEAD N/S
 LONG.deg                51.31:  LONGITUDE
 LATI.deg                40.06:  LATITUDE
 TVDS.m                  43.42:  TVDSS CORRECTN
 DEP .m                 430.08:  DEPTH
 EKB .m                  43.42:  KB ELEVATION
 EDF .m                  43.42:  DF ELEVATION
 TDL .m                 559.00:  TOTAL DEPTH (LOGGER)
 MAGU.                 1849381:  MAGUTM CHECKSUM
 VSC .                       0:  VS TO CLOSURE
~Parameter Information Block
#MNEM.UNIT       Value        Description
#---------     -----------    ---------------------------
 AV  .mps                 4.87:  Ann Velocity 
 AVMX.mps                 7.08:  Max Ann Veloc 
 AZIF.deg               108.87:  Azm, Final 
 BHAT.                  Rotary:  BHA Type 
 BROT.°/30m               0.35:  Build Rotating 
 BS  .in                  8.50:  Bit Size 
 BSZ .in                  8.50:  Bit Size 
 BTPL.psig              360.00:  Bit Press Loss 
 CABU.                     Yes:  Customer Abuse 
 COMM.                     ìOW:  Run Comments 1 
 TCS .hr                106.24:  Time Ciculation Ended 
 CV  .mps                 1.77:  Crit Velocity 
 CVMX.mps                 2.03:  Max Crit Veloc 
 DD1 .         Aykhan Agagulov:  Direct Drillr 1 
 DD2 .            Nonso Okofor:  Direct Drillr 2 
 DDSV.               Geo-Pilot:  DD Service 
 DEFF.%                  98.00:  % Det Eff 
 DLRX.°/30m               0.50:  Dogleg Rot Max 
 DLSO.°/30m               0.40:  Dogleg Oriented 
 DLSX.°/30m               0.94:  Dogleg Str Max 
 DRET.      20.30.00 08-Sep-20:  Drill End Time 
 DRST.      22.15.00 06-Sep-20:  Drill Start Tim 
 DTIM.hr                 31.31:  Time Drilling 
 EDEP.m                5790.01:  End Depth 
 ENG1.           Amrah Tahirov:  Engineer 1 
 ENG2.         Dair Mahammadov:  Engineer 2 
 ENG3.           Emil Huseynov:  Engineer 3 
 ETIM.      04.01.04 12-Sep-20:  End Time 
 FLOI.gpm               450.00:  Flow In 
 FLON.gpm               450.00:  Flow In Min 
 FLOS.cptm                2.00:  Fluid Loss 
 FLOX.gpm               450.00:  Flow In Max 
 FTRO.       Formation Presure:  FTWD Run Obj 
 HFLO.                      No:  High Flow 
 HPRE.                      No:  High Pressure 
 HTEM.                      No:  High Temp 
 HYDO.m                   1.80:  Hydro Offset 
 IFIN.deg                72.03:  Inc, Final 
 IMAX.deg                73.72:  Inc Max 
 IMIN.deg                70.94:  Inc Min 
 IMND.m                5508.52:  Inc Min Depth 
 IMXD.m                5253.60:  Inc Max Depth 
 JARR.                      No:  Jarring 
 LETM.      20.30.00 08-Sep-20:  Log End Time 
 LOST.hr                     0:  Lost Rig Time 
 LSTM.      22.15.00 06-Sep-20:  Log Start Time 
 MDCL.ppm             36000.00:  Mud Chlorides 
 MDES.     Inversion Oil/Synthetic:  Mud Desc 
 DFD .sg                  1.44:  Mud Density 
 MDMN.sg                  1.44:  Dens Mud Min 
 MDMX.sg                  1.57:  Dens Mud Max 
 MOIL.                      70:  Run Mud Oil % 
 MOWR.                   70:30:  Run Mud OWR 
 MSND.                       0:  Run Mud Sand % 
 MSOL.                      21:  Run Mud Solids% 
 DFV .spqt               68.00:  Mud Viscosity 
 MWOD.in                  6.75:  MWD Tool OD 
 MWSI.                     Yes:  Serv Intrp, MWD 
 OTIM.hr                174.84:  Time Operating 
 PCON.           Look Like New:  Pad Condition 
 PMAX.psia            10616.93:  Press Op, Max 
 PV  .cP                 50.00:  Mud PV 
 RUN .                     700:  Run Number 
 ROPA.m/hr               14.24:  ROP Avg 
 ROPN.m/hr               10.00:  ROP Min 
 ROPX.m/hr               32.00:  ROP Max 
 RPMA.rpm               120.90:  RPM Surface Avg 
 RPMN.rpm               120.00:  RPM Surface Min 
 RPMX.rpm               140.00:  RPM Surface Max 
 RRUN.                    0700:  Rig Run Number 
 RTIM.hr                  3.20:  Time Reaming 
 SAZI.deg               109.99:  Azm, Start 
 SDEP.m                5231.01:  Start Depth 
 SIDD.                      No:  Serv Intrp, DD 
 SINC.deg                73.72:  Inc, Start 
 SPPA.psig             3051.00:  SPP Avg 
 SPPN.psig             2950.00:  SPP Min 
 SPPX.psig             3250.00:  SPP Max 
 STIM.      08.00.00 05-Sep-20:  Start Time 
 SVCS.                 DD, MWD:  Services 
 SVER.                    9.20:  Sperry Version 
 TDAT.m                 559.00:  Tot Depth Attmp 
 TDDF.                      No:  Trip for DD 
 TDLG.m                 559.00:  Tot Depth Loggd 
 TFF .                      No:  Trip for Fail 
 TQAA.f-kp               26.49:  Torque Abs Avg 
 TQAN.f-kp               25.00:  Torque Abs Min 
 TQAX.f-kp               27.00:  Torque Abs Max 
 TRRT.°/30m               1.50:  Turn Rotating 
 MRT .                    HCIM:  Maximum Recorded Temperature 
 TTMX.degC               90.20:  Max Tool Temp 
 VS01.                90542671:  Virtual Str1 SN 
 VS02.                90545185:  Virtual Str2 SN 
 VS03.                90602015:  Virtual Str3 SN 
 VS04.                90515230:  Virtual Str4 SN 
 WBMN.klb                 5.00:  WOB Min 
 WOBA.klb                14.79:  WOB Avg 
 WOBX.klb                20.00:  WOB Max 
 YP  .lhf2               29.00:  Yield Point 
~Curve Information Block
#MNEM.UNIT                 API CODE     Curve Description
#---------               -----------    ---------------------------
 TIME.HHMMSS            00 000 000 000:  GT Time & Date
 GTDEPTH.m              00 000 000 000:  GT Depth
 GTPQH.psia             00 000 000 000:  GT HR Quartz Pressure
 GTTQ.degC              00 000 000 000:  GT Quartz Temperature
 GTTN.NONE              00 000 000 000:  GT Test Number
 GTET.sec               00 000 000 000:  GT Elapsed Test Time
 GTTVD.m                00 000 000 000:  GT True Vertical Depth
#Other Information
#
#WARRANTY: Halliburton will use its best efforts to furnish customers with 
#accurate information and interpretations that are part of, and incident to, the services 
#provided.  However, Halliburton cannot and does not warrant the accuracy 
#or correctness of such information and interpretations.  Under no circumstances should any 
#such information or interpretation be relied upon as the sole basis for any drilling, 
#completion, production, or financial decision or any procedure involving any risk to the 
#safety of any drilling venture, drilling rig or its crew or any other third party.  The 
#Customer has full responsibility for all drilling, completion and production operation.  
#Halliburton makes no representations or warranties, either expressed or 
#implied, including, but not limited to, the implied warranties of merchantability or fitness 
#for a particular purpose, with respect to the services rendered.  In no event will 
#Halliburton be liable for failure to obtain any particular results or for 
#any damages, including, but not limited to, indirect, special or consequential damages, 
#resulting from the use of any information or interpretation provided by Halliburton.
#
~A           TIME           GTDEPTH  GTPQH  GTTQ  GTTN  GTET   GTTVD  
# ...
   06:32:07.000.09-Sep-2020 5602.01 6468.75 79.44 2.00 368.00 2651.01
   06:32:07.200.09-Sep-2020 5602.01 6468.75 79.44 2.00 368.20 2651.01
   06:32:07.400.09-Sep-2020 5602.01 6477.46 79.44 2.00 368.40 2651.01
   06:32:07.600.09-Sep-2020 5602.01 6476.01 79.45 2.00 368.60 2651.01
   06:32:07.800.09-Sep-2020 5602.01 6478.54 79.45 2.00 368.80 2651.01
   06:32:08.000.09-Sep-2020 5602.01 6475.81 79.46 2.00 369.00 2651.01
   06:32:08.200.09-Sep-2020 5602.01 6475.81 79.46 2.00 369.20 2651.01
   06:32:08.400.09-Sep-2020 5602.01 6484.79 79.46 2.00 369.40 2651.01
   06:32:08.600.09-Sep-2020 5602.01 6478.58 79.47 2.00 369.60 2651.01
   06:32:08.800.09-Sep-2020 5602.01 6481.89 79.47 2.00 369.80 2651.01
   06:32:09.000.09-Sep-2020 5602.01 6480.74 79.48 2.00 370.00 2651.01
   06:32:09.200.09-Sep-2020 5602.01 6480.74 79.48 2.00 370.20 2651.01
   06:32:09.400.09-Sep-2020 5602.01 6480.50 79.48 2.00 370.40 2651.01
   06:32:09.600.09-Sep-2020 5602.01 6480.83 79.49 2.00 370.60 2651.01
   06:32:09.800.09-Sep-2020 5602.01 6481.08 79.49 2.00 370.80 2651.01
   06:32:10.000.09-Sep-2020 5602.01 6480.76 79.50 2.00 371.00 2651.01
   06:32:10.200.09-Sep-2020 5602.01 6480.51 79.50 2.00 371.20 2651.01
   06:32:10.400.09-Sep-2020 5602.01 6480.92 79.50 2.00 371.40 2651.01
   06:32:10.600.09-Sep-2020 5602.01 6480.98 79.51 2.00 371.60 2651.01
   06:32:10.800.09-Sep-2020 5602.01 6480.61 79.51 2.00 371.80 2651.01
   06:32:11.000.09-Sep-2020 5602.01 6480.34 79.51 2.00 372.00 2651.01
   06:32:11.200.09-Sep-2020 5602.01 6480.34 79.51 2.00 372.20 2651.01
   06:32:11.400.09-Sep-2020 5602.01 6480.04 79.52 2.00 372.40 2651.01
   06:32:11.600.09-Sep-2020 5602.01 6480.48 79.52 2.00 372.60 2651.01
   06:32:11.800.09-Sep-2020 5602.01 6481.06 79.52 2.00 372.80 2651.01
   06:32:12.000.09-Sep-2020 5602.01 6491.41 79.53 2.00 373.00 2651.01
   06:32:12.200.09-Sep-2020 5602.01 6491.41 79.53 2.00 373.20 2651.01
   06:32:12.400.09-Sep-2020 5602.01 6484.66 79.53 2.00 373.40 2651.01
   06:32:12.600.09-Sep-2020 5602.01 6482.18 79.53 2.00 373.60 2651.01
   06:32:12.800.09-Sep-2020 5602.01 6481.39 79.53 2.00 373.80 2651.01
   06:32:13.000.09-Sep-2020 5602.01 6483.45 79.54 2.00 374.00 2651.01
   06:32:13.200.09-Sep-2020 5602.01 6483.45 79.54 2.00 374.20 2651.01
   06:32:13.400.09-Sep-2020 5602.01 6483.23 79.54 2.00 374.40 2651.01
   06:32:13.600.09-Sep-2020 5602.01 6481.83 79.54 2.00 374.60 2651.01
   06:32:13.800.09-Sep-2020 5602.01 6481.29 79.54 2.00 374.80 2651.01
   06:32:14.000.09-Sep-2020 5602.01 6481.92 79.54 2.00 375.00 2651.01
   06:32:14.200.09-Sep-2020 5602.01 6481.14 79.55 2.00 375.20 2651.01
   06:32:14.400.09-Sep-2020 5602.01 6480.72 79.55 2.00 375.40 2651.01
   06:32:14.600.09-Sep-2020 5602.01 6480.13 79.55 2.00 375.60 2651.01
   06:32:14.800.09-Sep-2020 5602.01 6480.13 79.55 2.00 375.80 2651.01
   06:32:15.000.09-Sep-2020 5602.01 6480.49 79.55 2.00 376.00 2651.01
   06:32:15.200.09-Sep-2020 5602.01 6480.49 79.55 2.00 376.20 2651.01
   06:32:15.400.09-Sep-2020 5602.01 6486.77 79.55 2.00 376.40 2651.01
   06:32:15.600.09-Sep-2020 5602.01 6479.68 79.55 2.00 376.60 2651.01
   06:32:15.800.09-Sep-2020 5602.01 6482.30 79.55 2.00 376.80 2651.01
   06:32:16.000.09-Sep-2020 5602.01 6481.16 79.55 2.00 377.00 2651.01
   06:32:16.200.09-Sep-2020 5602.01 6481.16 79.55 2.00 377.20 2651.01
   06:32:16.400.09-Sep-2020 5602.01 6483.65 79.55 2.00 377.40 2651.01
   06:32:16.600.09-Sep-2020 5602.01 6483.43 79.55 2.00 377.60 2651.01
   06:32:16.800.09-Sep-2020 5602.01 6480.49 79.55 2.00 377.80 2651.01
   06:32:17.000.09-Sep-2020 5602.01 6482.41 79.56 2.00 378.00 2651.01
   06:32:17.200.09-Sep-2020 5602.01 6482.41 79.56 2.00 378.20 2651.01
   06:32:17.400.09-Sep-2020 5602.01 6481.12 79.56 2.00 378.40 2651.01
   06:32:17.600.09-Sep-2020 5602.01 6479.31 79.56 2.00 378.60 2651.01
   06:32:17.800.09-Sep-2020 5602.01 6480.95 79.56 2.00 378.80 2651.01
   06:32:18.000.09-Sep-2020 5602.01 6485.71 79.56 2.00 379.00 2651.01
   06:32:18.200.09-Sep-2020 5602.01 6479.32 79.56 2.00 379.20 2651.01
   06:32:18.400.09-Sep-2020 5602.01 6482.78 79.56 2.00 379.40 2651.01
   06:32:18.600.09-Sep-2020 5602.01 6482.16 79.56 2.00 379.60 2651.01
   06:32:18.800.09-Sep-2020 5602.01 6481.47 79.56 2.00 379.80 2651.01
   06:32:19.000.09-Sep-2020 5602.01 6481.01 79.56 2.00 380.00 2651.01
   06:32:19.200.09-Sep-2020 5602.01 6481.01 79.56 2.00 380.20 2651.01
   06:32:19.400.09-Sep-2020 5602.01 6475.55 79.56 2.00 380.40 2651.01
   06:32:19.600.09-Sep-2020 5602.01 6483.52 79.56 2.00 380.60 2651.01
   06:32:19.800.09-Sep-2020 5602.01 6481.12 79.55 2.00 380.80 2651.01
   06:32:20.000.09-Sep-2020 5602.01 6481.04 79.55 2.00 381.00 2651.01
   06:32:20.200.09-Sep-2020 5602.01 6481.04 79.55 2.00 381.20 2651.01
   06:32:20.400.09-Sep-2020 5602.01 6480.09 79.55 2.00 381.40 2651.01
   06:32:20.600.09-Sep-2020 5602.01 6492.72 79.55 2.00 381.60 2651.01
   06:32:20.800.09-Sep-2020 5602.01 6476.36 79.55 2.00 381.80 2651.01
   06:32:21.000.09-Sep-2020 5602.01 6483.68 79.55 2.00 382.00 2651.01
   06:32:21.200.09-Sep-2020 5602.01 6483.68 79.55 2.00 382.20 2651.01
   06:32:21.400.09-Sep-2020 5602.01 6480.75 79.55 2.00 382.40 2651.01
   06:32:21.600.09-Sep-2020 5602.01 6482.86 79.55 2.00 382.60 2651.01
   06:32:21.800.09-Sep-2020 5602.01 6480.03 79.55 2.00 382.80 2651.01
   06:32:22.000.09-Sep-2020 5602.01 6482.88 79.55 2.00 383.00 2651.01
   06:32:22.200.09-Sep-2020 5602.01 6482.88 79.55 2.00 383.20 2651.01
   06:32:22.400.09-Sep-2020 5602.01 6481.13 79.55 2.00 383.40 2651.01
   06:32:22.600.09-Sep-2020 5602.01 6481.37 79.55 2.00 383.60 2651.01
   06:32:22.800.09-Sep-2020 5602.01 6480.55 79.55 2.00 383.80 2651.01
   06:32:23.000.09-Sep-2020 5602.01 6480.54 79.55 2.00 384.00 2651.01
   06:32:23.200.09-Sep-2020 5602.01 6480.54 79.55 2.00 384.20 2651.01
   06:32:23.400.09-Sep-2020 5602.01 6481.02 79.55 2.00 384.40 2651.01
   06:32:23.600.09-Sep-2020 5602.01 6481.33 79.55 2.00 384.60 2651.01
   06:32:23.800.09-Sep-2020 5602.01 6481.51 79.55 2.00 384.80 2651.01
   06:32:24.000.09-Sep-2020 5602.01 6481.56 79.55 2.00 385.00 2651.01
   06:32:24.200.09-Sep-2020 5602.01 6481.56 79.55 2.00 385.20 2651.01
   06:32:24.400.09-Sep-2020 5602.01 6484.33 79.55 2.00 385.40 2651.01
   06:32:24.600.09-Sep-2020 5602.01 6480.85 79.54 2.00 385.60 2651.01
   06:32:24.800.09-Sep-2020 5602.01 6482.96 79.54 2.00 385.80 2651.01
   06:32:25.000.09-Sep-2020 5602.01 6482.23 79.54 2.00 386.00 2651.01
   06:32:25.200.09-Sep-2020 5602.01 6482.23 79.54 2.00 386.20 2651.01
   06:32:25.400.09-Sep-2020 5602.01 6480.48 79.54 2.00 386.40 2651.01
   06:32:25.600.09-Sep-2020 5602.01 6482.59 79.54 2.00 386.60 2651.01
   06:32:25.800.09-Sep-2020 5602.01 6481.01 79.54 2.00 386.80 2651.01
   06:32:26.000.09-Sep-2020 5602.01 6480.32 79.54 2.00 387.00 2651.01
   06:32:26.200.09-Sep-2020 5602.01 6479.69 79.54 2.00 387.20 2651.01
   06:32:26.400.09-Sep-2020 5602.01 6479.19 79.54 2.00 387.40 2651.01
   06:32:26.600.09-Sep-2020 5602.01 6479.65 79.54 2.00 387.60 2651.01
   06:32:26.800.09-Sep-2020 5602.01 6479.87 79.54 2.00 387.80 2651.01
   06:32:27.000.09-Sep-2020 5602.01 6480.42 79.54 2.00 388.00 2651.01
   06:32:27.200.09-Sep-2020 5602.01 6480.42 79.54 2.00 388.20 2651.01
   06:32:27.400.09-Sep-2020 5602.01 6479.44 79.54 2.00 388.40 2651.01
   06:32:27.600.09-Sep-2020 5602.01 6479.03 79.54 2.00 388.60 2651.01
   06:32:27.800.09-Sep-2020 5602.01 6485.21 79.54 2.00 388.80 2651.01
   06:32:28.000.09-Sep-2020 5602.01 6478.66 79.54 2.00 389.00 2651.01
   06:32:28.200.09-Sep-2020 5602.01 6478.66 79.54 2.00 389.20 2651.01
   06:32:28.400.09-Sep-2020 5602.01 6481.06 79.53 2.00 389.40 2651.01
   06:32:28.600.09-Sep-2020 5602.01 6479.77 79.53 2.00 389.60 2651.01
   06:32:28.800.09-Sep-2020 5602.01 6482.65 79.53 2.00 389.80 2651.01
   06:32:29.000.09-Sep-2020 5602.01 6482.50 79.53 2.00 390.00 2651.01
   06:32:29.200.09-Sep-2020 5602.01 6482.50 79.53 2.00 390.20 2651.01
   06:32:29.400.09-Sep-2020 5602.01 6482.12 79.53 2.00 390.40 2651.01
   06:32:29.600.09-Sep-2020 5602.01 6484.18 79.53 2.00 390.60 2651.01
   06:32:29.800.09-Sep-2020 5602.01 6484.06 79.53 2.00 390.80 2651.01
