~Version Information
 VERS.                  2.0:   CWLS log ASCII Standard -VERSION 2.0
 WRAP.                   NO:   One line per depth step
~Well Information Block
#MNEM.UNIT     VALUE/NAME     DESCRIPTION
#---------     -----------    ---------------------------
 STRT.S             19:35:07 09-Sep-20: START TIME 19:35:07 09-Sep-20
 STOP.S             19:43:27 09-Sep-20: STOP TIME  19:43:27 09-Sep-20
 STEP.S                   0.00: STEP TIME
 NULL.                 -999.25: NULL VALUE
 MDS .        Operator Entered:  MAG DATA SOURCE
 PDAT.          Mean Sea Level:  PERMANENT DATUM
 DCON.         Sperry Drilling:  DIRECTNL CONTR
 RIG .              West Azeri:  RIG NAME
 WELL.           C40 (Slot 20):  WELL NAME
 SRVC.     Turan Drilling Engineering:  CONTRACTOR
 FLD .                     ACG:  FIELD NAME
 CTRY.              Azerbaijan:  COUNTRY NAME
 PROV.                    Baku:  PROVINCE
 STAT.                    Baku:  STATE NAME
 REGN.                   EESSA:  REGION
 BASE.              Azerbaijan:  LOGGING EQUIPMENT BASE LOCATION
 COMP.     BP Exploration (Caspian Sea) Ltd:  COMPANY
 WTYP.                Deviated:  WELL TYPE
 SON .        AZ-XX-0906344804:  JOB NUMBER
 FTOP.          Formation Tops:  FORM TOPS DESC
 ILTD.               Lithology:  INTERP LTH DESC
 SVYD.                  Survey:  SURVEY DESC
 DMOD.             Drill Model:  DRILL MOD DESC
 HPTY.       Minimum Curvature:  HOLE POS TYPE
 NREF.                    Grid:  NORTH REFERENCE
 SPUD.               01-Jan-20:  SPUD DATE
 DATE.      00.59.44 15-Sep-20:  END TIME
 STIM.      12.00.00 12-Jun-20:  START TIME
 DMF .             Drill Floor:  DRILL MEAS FROM
 DFST.                        :  DIST FSL TEXT
 DFWT.                        :  DIST FWL TEXT
 API .                        :  API NUMBER
 CNTY.                        :  COUNTY
 UWI .                        :  UNIQUE WELL IDENTIFIER
 LOC .                        :  LOCATION
 LMF .             Drill Floor:  LOG MEASURED FROM
 VSNS.m                   2.88:  VERT SEC N/S
 VSEW.m                  -3.84:  VERT SEC E/W
 AGAP.m                  43.42:  AIR GAP
 APD .m                  43.42:  DEPTH ABOVE PD
 WDMS.m                 118.27:  WD ELEV
 EGL .m                   0.00:  GROUND ELEVATION
 EPD .m                   0.00:  ELEVATION
 AZTC.deg                 6.23:  AZM TOTAL CORR
 GRDC.deg                 0.20:  GRID CORRECTION
 MDEC.deg                 6.43:  MAGNETIC DECL
 MDIP.deg                59.49:  MAGNETIC DIP
 MFLD.nT              50277.00:  MAGNETIC FIELD
 GVFD.g                   1.00:  GRAVITY FIELD
 VSDR.deg               173.20:  VERT SEC DIRECT
 TDD .m                5790.01:  TOTAL DEPTH (DRILLER)
 SDEP.m                5231.01:  START DEPTH
 DFSL.m                   0.00:  DISTANCE FSL
 DFWL.m                   0.00:  DISTANCE FWL
 UTMY.m             4435808.83:  UTM Y
 UTMX.m              526266.40:  UTM X
 WHEW.m                  -3.84:  WELL HEAD E/W
 WHNS.m                   2.88:  WELL HEAD N/S
 LONG.deg                51.31:  LONGITUDE
 LATI.deg                40.06:  LATITUDE
 TVDS.m                  43.42:  TVDSS CORRECTN
 DEP .m                 430.08:  DEPTH
 EKB .m                  43.42:  KB ELEVATION
 EDF .m                  43.42:  DF ELEVATION
 TDL .m                 559.00:  TOTAL DEPTH (LOGGER)
 MAGU.                 1849381:  MAGUTM CHECKSUM
 VSC .                       0:  VS TO CLOSURE
~Parameter Information Block
#MNEM.UNIT       Value        Description
#---------     -----------    ---------------------------
 AV  .mps                 4.87:  Ann Velocity 
 AVMX.mps                 7.08:  Max Ann Veloc 
 AZIF.deg               108.87:  Azm, Final 
 BHAT.                  Rotary:  BHA Type 
 BROT.°/30m               0.35:  Build Rotating 
 BS  .in                  8.50:  Bit Size 
 BSZ .in                  8.50:  Bit Size 
 BTPL.psig              360.00:  Bit Press Loss 
 CABU.                     Yes:  Customer Abuse 
 COMM.                     ¼«|:  Run Comments 1 
 TCS .hr                106.24:  Time Ciculation Ended 
 CV  .mps                 1.77:  Crit Velocity 
 CVMX.mps                 2.03:  Max Crit Veloc 
 DD1 .         Aykhan Agagulov:  Direct Drillr 1 
 DD2 .            Nonso Okofor:  Direct Drillr 2 
 DDSV.               Geo-Pilot:  DD Service 
 DEFF.%                  98.00:  % Det Eff 
 DLRX.°/30m               0.50:  Dogleg Rot Max 
 DLSO.°/30m               0.40:  Dogleg Oriented 
 DLSX.°/30m               0.94:  Dogleg Str Max 
 DRET.      20.30.00 08-Sep-20:  Drill End Time 
 DRST.      22.15.00 06-Sep-20:  Drill Start Tim 
 DTIM.hr                 31.31:  Time Drilling 
 EDEP.m                5790.01:  End Depth 
 ENG1.           Amrah Tahirov:  Engineer 1 
 ENG2.         Dair Mahammadov:  Engineer 2 
 ENG3.           Emil Huseynov:  Engineer 3 
 ETIM.      04.01.04 12-Sep-20:  End Time 
 FLOI.gpm               450.00:  Flow In 
 FLON.gpm               450.00:  Flow In Min 
 FLOS.cptm                2.00:  Fluid Loss 
 FLOX.gpm               450.00:  Flow In Max 
 FTRO.       Formation Presure:  FTWD Run Obj 
 HFLO.                      No:  High Flow 
 HPRE.                      No:  High Pressure 
 HTEM.                      No:  High Temp 
 HYDO.m                   1.80:  Hydro Offset 
 IFIN.deg                72.03:  Inc, Final 
 IMAX.deg                73.72:  Inc Max 
 IMIN.deg                70.94:  Inc Min 
 IMND.m                5508.52:  Inc Min Depth 
 IMXD.m                5253.60:  Inc Max Depth 
 JARR.                      No:  Jarring 
 LETM.      20.30.00 08-Sep-20:  Log End Time 
 LOST.hr                     0:  Lost Rig Time 
 LSTM.      22.15.00 06-Sep-20:  Log Start Time 
 MDCL.ppm             36000.00:  Mud Chlorides 
 MDES.     Inversion Oil/Synthetic:  Mud Desc 
 DFD .sg                  1.44:  Mud Density 
 MDMN.sg                  1.44:  Dens Mud Min 
 MDMX.sg                  1.57:  Dens Mud Max 
 MOIL.                      70:  Run Mud Oil % 
 MOWR.                   70:30:  Run Mud OWR 
 MSND.                       0:  Run Mud Sand % 
 MSOL.                      21:  Run Mud Solids% 
 DFV .spqt               68.00:  Mud Viscosity 
 MWOD.in                  6.75:  MWD Tool OD 
 MWSI.                     Yes:  Serv Intrp, MWD 
 OTIM.hr                174.84:  Time Operating 
 PCON.           Look Like New:  Pad Condition 
 PMAX.psia            10616.93:  Press Op, Max 
 PV  .cP                 50.00:  Mud PV 
 RUN .                     700:  Run Number 
 ROPA.m/hr               14.24:  ROP Avg 
 ROPN.m/hr               10.00:  ROP Min 
 ROPX.m/hr               32.00:  ROP Max 
 RPMA.rpm               120.90:  RPM Surface Avg 
 RPMN.rpm               120.00:  RPM Surface Min 
 RPMX.rpm               140.00:  RPM Surface Max 
 RRUN.                    0700:  Rig Run Number 
 RTIM.hr                  3.20:  Time Reaming 
 SAZI.deg               109.99:  Azm, Start 
 SDEP.m                5231.01:  Start Depth 
 SIDD.                      No:  Serv Intrp, DD 
 SINC.deg                73.72:  Inc, Start 
 SPPA.psig             3051.00:  SPP Avg 
 SPPN.psig             2950.00:  SPP Min 
 SPPX.psig             3250.00:  SPP Max 
 STIM.      08.00.00 05-Sep-20:  Start Time 
 SVCS.                 DD, MWD:  Services 
 SVER.                    9.20:  Sperry Version 
 TDAT.m                 559.00:  Tot Depth Attmp 
 TDDF.                      No:  Trip for DD 
 TDLG.m                 559.00:  Tot Depth Loggd 
 TFF .                      No:  Trip for Fail 
 TQAA.f-kp               26.49:  Torque Abs Avg 
 TQAN.f-kp               25.00:  Torque Abs Min 
 TQAX.f-kp               27.00:  Torque Abs Max 
 TRRT.°/30m               1.50:  Turn Rotating 
 MRT .                    HCIM:  Maximum Recorded Temperature 
 TTMX.degC               90.20:  Max Tool Temp 
 VS01.                90542671:  Virtual Str1 SN 
 VS02.                90545185:  Virtual Str2 SN 
 VS03.                90602015:  Virtual Str3 SN 
 VS04.                90515230:  Virtual Str4 SN 
 WBMN.klb                 5.00:  WOB Min 
 WOBA.klb                14.79:  WOB Avg 
 WOBX.klb                20.00:  WOB Max 
 YP  .lhf2               29.00:  Yield Point 
~Curve Information Block
#MNEM.UNIT                 API CODE     Curve Description
#---------               -----------    ---------------------------
 TIME.HHMMSS            00 000 000 000:  GT Time & Date
 GTDEPTH.m              00 000 000 000:  GT Depth
 GTPQH.psia             00 000 000 000:  GT HR Quartz Pressure
 GTTQ.degC              00 000 000 000:  GT Quartz Temperature
 GTTN.NONE              00 000 000 000:  GT Test Number
 GTET.sec               00 000 000 000:  GT Elapsed Test Time
 GTTVD.m                00 000 000 000:  GT True Vertical Depth
#Other Information
#
#WARRANTY: Halliburton will use its best efforts to furnish customers with 
#accurate information and interpretations that are part of, and incident to, the services 
#provided.  However, Halliburton cannot and does not warrant the accuracy 
#or correctness of such information and interpretations.  Under no circumstances should any 
#such information or interpretation be relied upon as the sole basis for any drilling, 
#completion, production, or financial decision or any procedure involving any risk to the 
#safety of any drilling venture, drilling rig or its crew or any other third party.  The 
#Customer has full responsibility for all drilling, completion and production operation.  
#Halliburton makes no representations or warranties, either expressed or 
#implied, including, but not limited to, the implied warranties of merchantability or fitness 
#for a particular purpose, with respect to the services rendered.  In no event will 
#Halliburton be liable for failure to obtain any particular results or for 
#any damages, including, but not limited to, indirect, special or consequential damages, 
#resulting from the use of any information or interpretation provided by Halliburton.
#
~A           TIME           GTDEPTH  GTPQH  GTTQ  GTTN   GTET   GTTVD  
# ...
   19:43:02.185.09-Sep-2020 5260.01 6289.92 74.29 23.00 474.82 2544.55
   19:43:02.385.09-Sep-2020 5260.01 6295.12 74.29 23.00 475.02 2544.55
   19:43:02.586.09-Sep-2020 5260.01 6289.72 74.29 23.00 475.22 2544.55
   19:43:02.786.09-Sep-2020 5260.01 6289.72 74.29 23.00 475.42 2544.55
   19:43:02.986.09-Sep-2020 5260.01 6288.82 74.29 23.00 475.62 2544.55
   19:43:03.186.09-Sep-2020 5260.01 6289.39 74.29 23.00 475.82 2544.55
   19:43:03.386.09-Sep-2020 5260.01 6289.09 74.29 23.00 476.02 2544.55
   19:43:03.586.09-Sep-2020 5260.01 6292.07 74.29 23.00 476.22 2544.55
   19:43:03.786.09-Sep-2020 5260.01 6292.07 74.29 23.00 476.42 2544.55
   19:43:03.986.09-Sep-2020 5260.01 6289.56 74.29 23.00 476.62 2544.55
   19:43:04.186.09-Sep-2020 5260.01 6289.11 74.29 23.00 476.82 2544.55
   19:43:04.386.09-Sep-2020 5260.01 6289.60 74.29 23.00 477.02 2544.55
   19:43:04.586.09-Sep-2020 5260.01 6288.72 74.29 23.00 477.22 2544.55
   19:43:04.787.09-Sep-2020 5260.01 6288.72 74.29 23.00 477.42 2544.55
   19:43:04.987.09-Sep-2020 5260.01 6288.57 74.29 23.00 477.62 2544.55
   19:43:05.187.09-Sep-2020 5260.01 6288.85 74.29 23.00 477.82 2544.55
   19:43:05.387.09-Sep-2020 5260.01 6289.15 74.29 23.00 478.02 2544.55
   19:43:05.587.09-Sep-2020 5260.01 6289.28 74.29 23.00 478.22 2544.55
   19:43:05.787.09-Sep-2020 5260.01 6289.00 74.29 23.00 478.42 2544.55
   19:43:05.987.09-Sep-2020 5260.01 6300.40 74.29 23.00 478.62 2544.55
   19:43:06.187.09-Sep-2020 5260.01 6284.15 74.29 23.00 478.82 2544.55
   19:43:06.387.09-Sep-2020 5260.01 6289.89 74.29 23.00 479.02 2544.55
   19:43:06.587.09-Sep-2020 5260.01 6289.04 74.29 23.00 479.22 2544.55
   19:43:06.788.09-Sep-2020 5260.01 6289.04 74.29 23.00 479.42 2544.55
   19:43:06.988.09-Sep-2020 5260.01 6289.08 74.29 23.00 479.62 2544.55
   19:43:07.188.09-Sep-2020 5260.01 6291.47 74.29 23.00 479.82 2544.55
   19:43:07.388.09-Sep-2020 5260.01 6288.73 74.29 23.00 480.02 2544.55
   19:43:07.588.09-Sep-2020 5260.01 6288.87 74.29 23.00 480.22 2544.55
   19:43:07.788.09-Sep-2020 5260.01 6288.87 74.29 23.00 480.42 2544.55
   19:43:07.988.09-Sep-2020 5260.01 6287.86 74.29 23.00 480.62 2544.55
   19:43:08.188.09-Sep-2020 5260.01 6287.63 74.29 23.00 480.82 2544.55
   19:43:08.388.09-Sep-2020 5260.01 6287.14 74.29 23.00 481.02 2544.55
   19:43:08.588.09-Sep-2020 5260.01 6287.48 74.29 23.00 481.22 2544.55
   19:43:08.788.09-Sep-2020 5260.01 6287.48 74.29 23.00 481.42 2544.55
   19:43:08.989.09-Sep-2020 5260.01 6287.32 74.29 23.00 481.62 2544.55
   19:43:09.189.09-Sep-2020 5260.01 6286.53 74.29 23.00 481.82 2544.55
   19:43:09.389.09-Sep-2020 5260.01 6297.58 74.29 23.00 482.02 2544.55
   19:43:09.589.09-Sep-2020 5260.01 6281.43 74.29 23.00 482.22 2544.55
   19:43:09.789.09-Sep-2020 5260.01 6287.89 74.29 23.00 482.42 2544.55
   19:43:09.989.09-Sep-2020 5260.01 6287.63 74.29 23.00 482.62 2544.55
   19:43:10.189.09-Sep-2020 5260.01 6287.11 74.29 23.00 482.82 2544.55
   19:43:10.389.09-Sep-2020 5260.01 6287.32 74.29 23.00 483.02 2544.55
   19:43:10.589.09-Sep-2020 5260.01 6298.58 74.29 23.00 483.22 2544.55
   19:43:10.789.09-Sep-2020 5260.01 6298.58 74.29 23.00 483.42 2544.55
   19:43:10.989.09-Sep-2020 5260.01 6288.64 74.29 23.00 483.62 2544.55
   19:43:11.190.09-Sep-2020 5260.01 6287.17 74.29 23.00 483.82 2544.55
   19:43:11.390.09-Sep-2020 5260.01 6287.45 74.29 23.00 484.02 2544.55
   19:43:11.590.09-Sep-2020 5260.01 6287.17 74.29 23.00 484.22 2544.55
   19:43:11.790.09-Sep-2020 5260.01 6287.17 74.29 23.00 484.42 2544.55
   19:43:11.990.09-Sep-2020 5260.01 6283.60 74.29 23.00 484.62 2544.55
   19:43:12.190.09-Sep-2020 5260.01 6288.71 74.29 23.00 484.82 2544.55
   19:43:12.390.09-Sep-2020 5260.01 6286.61 74.29 23.00 485.02 2544.55
   19:43:12.590.09-Sep-2020 5260.01 6288.06 74.29 23.00 485.22 2544.55
   19:43:12.790.09-Sep-2020 5260.01 6288.06 74.29 23.00 485.42 2544.55
   19:43:12.990.09-Sep-2020 5260.01 6288.08 74.29 23.00 485.62 2544.55
   19:43:13.190.09-Sep-2020 5260.01 6289.31 74.29 23.00 485.82 2544.55
   19:43:13.391.09-Sep-2020 5260.01 6289.04 74.29 23.00 486.02 2544.55
   19:43:13.591.09-Sep-2020 5260.01 6290.65 74.29 23.00 486.22 2544.55
   19:43:13.791.09-Sep-2020 5260.01 6290.65 74.29 23.00 486.42 2544.55
   19:43:13.991.09-Sep-2020 5260.01 6291.05 74.29 23.00 486.62 2544.55
   19:43:14.191.09-Sep-2020 5260.01 6290.82 74.29 23.00 486.82 2544.55
   19:43:14.391.09-Sep-2020 5260.01 6289.56 74.29 23.00 487.02 2544.55
   19:43:14.591.09-Sep-2020 5260.01 6289.78 74.29 23.00 487.22 2544.55
   19:43:14.791.09-Sep-2020 5260.01 6289.78 74.29 23.00 487.42 2544.55
   19:43:14.991.09-Sep-2020 5260.01 6292.27 74.29 23.00 487.62 2544.55
   19:43:15.191.09-Sep-2020 5260.01 6289.94 74.29 23.00 487.82 2544.55
   19:43:15.391.09-Sep-2020 5260.01 6290.61 74.29 23.00 488.02 2544.55
   19:43:15.592.09-Sep-2020 5260.01 6290.14 74.29 23.00 488.23 2544.55
   19:43:15.792.09-Sep-2020 5260.01 6290.14 74.29 23.00 488.43 2544.55
   19:43:15.992.09-Sep-2020 5260.01 6289.53 74.29 23.00 488.63 2544.55
   19:43:16.192.09-Sep-2020 5260.01 6289.29 74.29 23.00 488.83 2544.55
   19:43:16.392.09-Sep-2020 5260.01 6289.33 74.29 23.00 489.03 2544.55
   19:43:16.592.09-Sep-2020 5260.01 6289.47 74.29 23.00 489.23 2544.55
   19:43:16.792.09-Sep-2020 5260.01 6289.47 74.29 23.00 489.43 2544.55
   19:43:16.992.09-Sep-2020 5260.01 6289.37 74.29 23.00 489.63 2544.55
   19:43:17.192.09-Sep-2020 5260.01 6289.22 74.29 23.00 489.83 2544.55
   19:43:17.392.09-Sep-2020 5260.01 6300.68 74.29 23.00 490.03 2544.55
   19:43:17.592.09-Sep-2020 5260.01 6284.43 74.29 23.00 490.23 2544.55
   19:43:17.793.09-Sep-2020 5260.01 6284.43 74.29 23.00 490.43 2544.55
   19:43:17.993.09-Sep-2020 5260.01 6289.58 74.29 23.00 490.63 2544.55
   19:43:18.193.09-Sep-2020 5260.01 6289.71 74.29 23.00 490.83 2544.55
   19:43:18.393.09-Sep-2020 5260.01 6290.09 74.29 23.00 491.03 2544.55
   19:43:18.593.09-Sep-2020 5260.01 6292.68 74.29 23.00 491.23 2544.55
   19:43:18.793.09-Sep-2020 5260.01 6292.68 74.29 23.00 491.43 2544.55
   19:43:18.993.09-Sep-2020 5260.01 6289.91 74.29 23.00 491.63 2544.55
   19:43:19.193.09-Sep-2020 5260.01 6289.07 74.29 23.00 491.83 2544.55
   19:43:19.393.09-Sep-2020 5260.01 6288.85 74.29 23.00 492.03 2544.55
   19:43:19.593.09-Sep-2020 5260.01 6288.65 74.29 23.00 492.23 2544.55
   19:43:19.794.09-Sep-2020 5260.01 6288.65 74.29 23.00 492.43 2544.55
   19:43:19.994.09-Sep-2020 5260.01 6288.68 74.29 23.00 492.63 2544.55
   19:43:20.194.09-Sep-2020 5260.01 6288.67 74.29 23.00 492.83 2544.55
   19:43:20.394.09-Sep-2020 5260.01 6288.22 74.29 23.00 493.03 2544.55
   19:43:20.594.09-Sep-2020 5260.01 6287.74 74.29 23.00 493.23 2544.55
   19:43:20.794.09-Sep-2020 5260.01 6299.03 74.29 23.00 493.43 2544.55
   19:43:20.994.09-Sep-2020 5260.01 6282.71 74.29 23.00 493.63 2544.55
   19:43:21.194.09-Sep-2020 5260.01 6289.24 74.29 23.00 493.83 2544.55
   19:43:21.394.09-Sep-2020 5260.01 6288.76 74.29 23.00 494.03 2544.55
   19:43:21.594.09-Sep-2020 5260.01 6288.26 74.29 23.00 494.23 2544.55
   19:43:21.794.09-Sep-2020 5260.01 6288.66 74.29 23.00 494.43 2544.55
   19:43:21.995.09-Sep-2020 5260.01 6300.69 74.29 23.00 494.63 2544.55
   19:43:22.195.09-Sep-2020 5260.01 6284.90 74.29 23.00 494.83 2544.55
   19:43:22.395.09-Sep-2020 5260.01 6290.35 74.29 23.00 495.03 2544.55
   19:43:22.595.09-Sep-2020 5260.01 6288.33 74.29 23.00 495.23 2544.55
   19:43:22.795.09-Sep-2020 5260.01 6288.33 74.29 23.00 495.43 2544.55
   19:43:22.995.09-Sep-2020 5260.01 6288.74 74.29 23.00 495.63 2544.55
   19:43:23.195.09-Sep-2020 5260.01 6300.09 74.29 23.00 495.83 2544.55
   19:43:23.395.09-Sep-2020 5260.01 6287.83 74.29 23.00 496.03 2544.55
   19:43:23.595.09-Sep-2020 5260.01 6289.30 74.29 23.00 496.23 2544.55
   19:43:23.795.09-Sep-2020 5260.01 6289.30 74.29 23.00 496.43 2544.55
   19:43:23.995.09-Sep-2020 5260.01 6290.08 74.29 23.00 496.63 2544.55
   19:43:24.196.09-Sep-2020 5260.01 6295.22 74.29 23.00 496.83 2544.55
   19:43:24.396.09-Sep-2020 5260.01 6289.78 74.29 23.00 497.03 2544.55
   19:43:24.596.09-Sep-2020 5260.01 6291.30 74.29 23.00 497.23 2544.55
