~Version Information
 VERS.                  2.0:   CWLS log ASCII Standard -VERSION 2.0
 WRAP.                   NO:   One line per depth step
~Well Information Block
#MNEM.UNIT     VALUE/NAME     DESCRIPTION
#---------     -----------    ---------------------------
 STRT.S             06:25:59 09-Sep-20: START TIME 06:25:59 09-Sep-20
 STOP.S             06:32:43 09-Sep-20: STOP TIME  06:32:43 09-Sep-20
 STEP.S                   0.00: STEP TIME
 NULL.                 -999.25: NULL VALUE
 MDS .        Operator Entered:  MAG DATA SOURCE
 PDAT.          Mean Sea Level:  PERMANENT DATUM
 DCON.         Sperry Drilling:  DIRECTNL CONTR
 RIG .              West Azeri:  RIG NAME
 WELL.           C40 (Slot 20):  WELL NAME
 SRVC.     Turan Drilling Engineering:  CONTRACTOR
 FLD .                     ACG:  FIELD NAME
 CTRY.              Azerbaijan:  COUNTRY NAME
 PROV.                    Baku:  PROVINCE
 STAT.                    Baku:  STATE NAME
 REGN.                   EESSA:  REGION
 BASE.              Azerbaijan:  LOGGING EQUIPMENT BASE LOCATION
 COMP.     BP Exploration (Caspian Sea) Ltd:  COMPANY
 WTYP.                Deviated:  WELL TYPE
 SON .        AZ-XX-0906344804:  JOB NUMBER
 FTOP.          Formation Tops:  FORM TOPS DESC
 ILTD.               Lithology:  INTERP LTH DESC
 SVYD.                  Survey:  SURVEY DESC
 DMOD.             Drill Model:  DRILL MOD DESC
 HPTY.       Minimum Curvature:  HOLE POS TYPE
 NREF.                    Grid:  NORTH REFERENCE
 SPUD.               01-Jan-20:  SPUD DATE
 DATE.      00.59.44 15-Sep-20:  END TIME
 STIM.      12.00.00 12-Jun-20:  START TIME
 DMF .             Drill Floor:  DRILL MEAS FROM
 DFST.                        :  DIST FSL TEXT
 DFWT.                        :  DIST FWL TEXT
 API .                        :  API NUMBER
 CNTY.                        :  COUNTY
 UWI .                        :  UNIQUE WELL IDENTIFIER
 LOC .                        :  LOCATION
 LMF .             Drill Floor:  LOG MEASURED FROM
 VSNS.m                   2.88:  VERT SEC N/S
 VSEW.m                  -3.84:  VERT SEC E/W
 AGAP.m                  43.42:  AIR GAP
 APD .m                  43.42:  DEPTH ABOVE PD
 WDMS.m                 118.27:  WD ELEV
 EGL .m                   0.00:  GROUND ELEVATION
 EPD .m                   0.00:  ELEVATION
 AZTC.deg                 6.23:  AZM TOTAL CORR
 GRDC.deg                 0.20:  GRID CORRECTION
 MDEC.deg                 6.43:  MAGNETIC DECL
 MDIP.deg                59.49:  MAGNETIC DIP
 MFLD.nT              50277.00:  MAGNETIC FIELD
 GVFD.g                   1.00:  GRAVITY FIELD
 VSDR.deg               173.20:  VERT SEC DIRECT
 TDD .m                5790.01:  TOTAL DEPTH (DRILLER)
 SDEP.m                5231.01:  START DEPTH
 DFSL.m                   0.00:  DISTANCE FSL
 DFWL.m                   0.00:  DISTANCE FWL
 UTMY.m             4435808.83:  UTM Y
 UTMX.m              526266.40:  UTM X
 WHEW.m                  -3.84:  WELL HEAD E/W
 WHNS.m                   2.88:  WELL HEAD N/S
 LONG.deg                51.31:  LONGITUDE
 LATI.deg                40.06:  LATITUDE
 TVDS.m                  43.42:  TVDSS CORRECTN
 DEP .m                 430.08:  DEPTH
 EKB .m                  43.42:  KB ELEVATION
 EDF .m                  43.42:  DF ELEVATION
 TDL .m                 559.00:  TOTAL DEPTH (LOGGER)
 MAGU.                 1849381:  MAGUTM CHECKSUM
 VSC .                       0:  VS TO CLOSURE
~Parameter Information Block
#MNEM.UNIT       Value        Description
#---------     -----------    ---------------------------
 AV  .mps                 4.87:  Ann Velocity 
 AVMX.mps                 7.08:  Max Ann Veloc 
 AZIF.deg               108.87:  Azm, Final 
 BHAT.                  Rotary:  BHA Type 
 BROT.°/30m               0.35:  Build Rotating 
 BS  .in                  8.50:  Bit Size 
 BSZ .in                  8.50:  Bit Size 
 BTPL.psig              360.00:  Bit Press Loss 
 CABU.                     Yes:  Customer Abuse 
 COMM.                     ìOW:  Run Comments 1 
 TCS .hr                106.24:  Time Ciculation Ended 
 CV  .mps                 1.77:  Crit Velocity 
 CVMX.mps                 2.03:  Max Crit Veloc 
 DD1 .         Aykhan Agagulov:  Direct Drillr 1 
 DD2 .            Nonso Okofor:  Direct Drillr 2 
 DDSV.               Geo-Pilot:  DD Service 
 DEFF.%                  98.00:  % Det Eff 
 DLRX.°/30m               0.50:  Dogleg Rot Max 
 DLSO.°/30m               0.40:  Dogleg Oriented 
 DLSX.°/30m               0.94:  Dogleg Str Max 
 DRET.      20.30.00 08-Sep-20:  Drill End Time 
 DRST.      22.15.00 06-Sep-20:  Drill Start Tim 
 DTIM.hr                 31.31:  Time Drilling 
 EDEP.m                5790.01:  End Depth 
 ENG1.           Amrah Tahirov:  Engineer 1 
 ENG2.         Dair Mahammadov:  Engineer 2 
 ENG3.           Emil Huseynov:  Engineer 3 
 ETIM.      04.01.04 12-Sep-20:  End Time 
 FLOI.gpm               450.00:  Flow In 
 FLON.gpm               450.00:  Flow In Min 
 FLOS.cptm                2.00:  Fluid Loss 
 FLOX.gpm               450.00:  Flow In Max 
 FTRO.       Formation Presure:  FTWD Run Obj 
 HFLO.                      No:  High Flow 
 HPRE.                      No:  High Pressure 
 HTEM.                      No:  High Temp 
 HYDO.m                   1.80:  Hydro Offset 
 IFIN.deg                72.03:  Inc, Final 
 IMAX.deg                73.72:  Inc Max 
 IMIN.deg                70.94:  Inc Min 
 IMND.m                5508.52:  Inc Min Depth 
 IMXD.m                5253.60:  Inc Max Depth 
 JARR.                      No:  Jarring 
 LETM.      20.30.00 08-Sep-20:  Log End Time 
 LOST.hr                     0:  Lost Rig Time 
 LSTM.      22.15.00 06-Sep-20:  Log Start Time 
 MDCL.ppm             36000.00:  Mud Chlorides 
 MDES.     Inversion Oil/Synthetic:  Mud Desc 
 DFD .sg                  1.44:  Mud Density 
 MDMN.sg                  1.44:  Dens Mud Min 
 MDMX.sg                  1.57:  Dens Mud Max 
 MOIL.                      70:  Run Mud Oil % 
 MOWR.                   70:30:  Run Mud OWR 
 MSND.                       0:  Run Mud Sand % 
 MSOL.                      21:  Run Mud Solids% 
 DFV .spqt               68.00:  Mud Viscosity 
 MWOD.in                  6.75:  MWD Tool OD 
 MWSI.                     Yes:  Serv Intrp, MWD 
 OTIM.hr                174.84:  Time Operating 
 PCON.           Look Like New:  Pad Condition 
 PMAX.psia            10616.93:  Press Op, Max 
 PV  .cP                 50.00:  Mud PV 
 RUN .                     700:  Run Number 
 ROPA.m/hr               14.24:  ROP Avg 
 ROPN.m/hr               10.00:  ROP Min 
 ROPX.m/hr               32.00:  ROP Max 
 RPMA.rpm               120.90:  RPM Surface Avg 
 RPMN.rpm               120.00:  RPM Surface Min 
 RPMX.rpm               140.00:  RPM Surface Max 
 RRUN.                    0700:  Rig Run Number 
 RTIM.hr                  3.20:  Time Reaming 
 SAZI.deg               109.99:  Azm, Start 
 SDEP.m                5231.01:  Start Depth 
 SIDD.                      No:  Serv Intrp, DD 
 SINC.deg                73.72:  Inc, Start 
 SPPA.psig             3051.00:  SPP Avg 
 SPPN.psig             2950.00:  SPP Min 
 SPPX.psig             3250.00:  SPP Max 
 STIM.      08.00.00 05-Sep-20:  Start Time 
 SVCS.                 DD, MWD:  Services 
 SVER.                    9.20:  Sperry Version 
 TDAT.m                 559.00:  Tot Depth Attmp 
 TDDF.                      No:  Trip for DD 
 TDLG.m                 559.00:  Tot Depth Loggd 
 TFF .                      No:  Trip for Fail 
 TQAA.f-kp               26.49:  Torque Abs Avg 
 TQAN.f-kp               25.00:  Torque Abs Min 
 TQAX.f-kp               27.00:  Torque Abs Max 
 TRRT.°/30m               1.50:  Turn Rotating 
 MRT .                    HCIM:  Maximum Recorded Temperature 
 TTMX.degC               90.20:  Max Tool Temp 
 VS01.                90542671:  Virtual Str1 SN 
 VS02.                90545185:  Virtual Str2 SN 
 VS03.                90602015:  Virtual Str3 SN 
 VS04.                90515230:  Virtual Str4 SN 
 WBMN.klb                 5.00:  WOB Min 
 WOBA.klb                14.79:  WOB Avg 
 WOBX.klb                20.00:  WOB Max 
 YP  .lhf2               29.00:  Yield Point 
~Curve Information Block
#MNEM.UNIT                 API CODE     Curve Description
#---------               -----------    ---------------------------
 TIME.HHMMSS            00 000 000 000:  GT Time & Date
 GTDEPTH.m              00 000 000 000:  GT Depth
 GTPQH.psia             00 000 000 000:  GT HR Quartz Pressure
 GTTQ.degC              00 000 000 000:  GT Quartz Temperature
 GTTN.NONE              00 000 000 000:  GT Test Number
 GTET.sec               00 000 000 000:  GT Elapsed Test Time
 GTTVD.m                00 000 000 000:  GT True Vertical Depth
#Other Information
#
#WARRANTY: Halliburton will use its best efforts to furnish customers with 
#accurate information and interpretations that are part of, and incident to, the services 
#provided.  However, Halliburton cannot and does not warrant the accuracy 
#or correctness of such information and interpretations.  Under no circumstances should any 
#such information or interpretation be relied upon as the sole basis for any drilling, 
#completion, production, or financial decision or any procedure involving any risk to the 
#safety of any drilling venture, drilling rig or its crew or any other third party.  The 
#Customer has full responsibility for all drilling, completion and production operation.  
#Halliburton makes no representations or warranties, either expressed or 
#implied, including, but not limited to, the implied warranties of merchantability or fitness 
#for a particular purpose, with respect to the services rendered.  In no event will 
#Halliburton be liable for failure to obtain any particular results or for 
#any damages, including, but not limited to, indirect, special or consequential damages, 
#resulting from the use of any information or interpretation provided by Halliburton.
#
~A           TIME           GTDEPTH  GTPQH  GTTQ  GTTN  GTET   GTTVD  
# ...
   06:28:40.000.09-Sep-2020 5602.01  609.62 79.43 2.00 161.00 2651.01
   06:28:40.200.09-Sep-2020 5602.01  611.10 79.43 2.00 161.20 2651.01
   06:28:40.400.09-Sep-2020 5602.01  607.04 79.43 2.00 161.40 2651.01
   06:28:40.600.09-Sep-2020 5602.01  616.36 79.43 2.00 161.60 2651.01
   06:28:40.800.09-Sep-2020 5602.01  627.35 79.43 2.00 161.80 2651.01
   06:28:41.000.09-Sep-2020 5602.01  639.43 79.43 2.00 162.00 2651.01
   06:28:41.200.09-Sep-2020 5602.01  639.43 79.43 2.00 162.20 2651.01
   06:28:41.400.09-Sep-2020 5602.01  662.05 79.43 2.00 162.40 2651.01
   06:28:41.600.09-Sep-2020 5602.01  672.21 79.43 2.00 162.60 2651.01
   06:28:41.800.09-Sep-2020 5602.01  681.74 79.43 2.00 162.80 2651.01
   06:28:42.000.09-Sep-2020 5602.01  691.23 79.43 2.00 163.00 2651.01
   06:28:42.200.09-Sep-2020 5602.01  691.23 79.43 2.00 163.20 2651.01
   06:28:42.400.09-Sep-2020 5602.01  708.81 79.43 2.00 163.40 2651.01
   06:28:42.600.09-Sep-2020 5602.01  717.71 79.43 2.00 163.60 2651.01
   06:28:42.800.09-Sep-2020 5602.01  725.88 79.42 2.00 163.80 2651.01
   06:28:43.000.09-Sep-2020 5602.01  733.88 79.42 2.00 164.00 2651.01
   06:28:43.200.09-Sep-2020 5602.01  733.88 79.42 2.00 164.20 2651.01
   06:28:43.400.09-Sep-2020 5602.01  749.61 79.42 2.00 164.40 2651.01
   06:28:43.600.09-Sep-2020 5602.01  757.15 79.42 2.00 164.60 2651.01
   06:28:43.800.09-Sep-2020 5602.01  764.59 79.42 2.00 164.80 2651.01
   06:28:44.000.09-Sep-2020 5602.01  771.99 79.42 2.00 165.00 2651.01
   06:28:44.200.09-Sep-2020 5602.01  771.99 79.42 2.00 165.20 2651.01
   06:28:44.400.09-Sep-2020 5602.01  786.31 79.42 2.00 165.40 2651.01
   06:28:44.600.09-Sep-2020 5602.01  792.71 79.42 2.00 165.60 2651.01
   06:28:44.800.09-Sep-2020 5602.01  800.19 79.42 2.00 165.80 2651.01
   06:28:45.000.09-Sep-2020 5602.01  807.36 79.42 2.00 166.00 2651.01
   06:28:45.200.09-Sep-2020 5602.01  807.36 79.42 2.00 166.20 2651.01
   06:28:45.400.09-Sep-2020 5602.01  820.47 79.42 2.00 166.40 2651.01
   06:28:45.600.09-Sep-2020 5602.01  827.25 79.42 2.00 166.60 2651.01
   06:28:45.800.09-Sep-2020 5602.01  833.64 79.42 2.00 166.80 2651.01
   06:28:46.000.09-Sep-2020 5602.01  840.09 79.42 2.00 167.00 2651.01
   06:28:46.200.09-Sep-2020 5602.01  846.34 79.42 2.00 167.20 2651.01
   06:28:46.400.09-Sep-2020 5602.01  852.46 79.42 2.00 167.40 2651.01
   06:28:46.600.09-Sep-2020 5602.01  858.01 79.42 2.00 167.60 2651.01
   06:28:46.800.09-Sep-2020 5602.01  863.18 79.42 2.00 167.80 2651.01
   06:28:47.000.09-Sep-2020 5602.01  869.28 79.42 2.00 168.00 2651.01
   06:28:47.200.09-Sep-2020 5602.01  869.28 79.42 2.00 168.20 2651.01
   06:28:47.400.09-Sep-2020 5602.01  881.32 79.42 2.00 168.40 2651.01
   06:28:47.600.09-Sep-2020 5602.01  887.19 79.42 2.00 168.60 2651.01
   06:28:47.800.09-Sep-2020 5602.01  892.36 79.43 2.00 168.80 2651.01
   06:28:48.000.09-Sep-2020 5602.01  898.50 79.43 2.00 169.00 2651.01
   06:28:48.200.09-Sep-2020 5602.01  898.50 79.43 2.00 169.20 2651.01
   06:28:48.400.09-Sep-2020 5602.01  909.84 79.43 2.00 169.40 2651.01
   06:28:48.600.09-Sep-2020 5602.01  915.37 79.43 2.00 169.60 2651.01
   06:28:48.800.09-Sep-2020 5602.01  921.19 79.43 2.00 169.80 2651.01
   06:28:49.000.09-Sep-2020 5602.01  926.03 79.43 2.00 170.00 2651.01
   06:28:49.200.09-Sep-2020 5602.01  926.03 79.43 2.00 170.20 2651.01
   06:28:49.400.09-Sep-2020 5602.01  937.18 79.43 2.00 170.40 2651.01
   06:28:49.600.09-Sep-2020 5602.01  942.82 79.43 2.00 170.60 2651.01
   06:28:49.800.09-Sep-2020 5602.01  948.34 79.43 2.00 170.80 2651.01
   06:28:50.000.09-Sep-2020 5602.01  954.09 79.43 2.00 171.00 2651.01
   06:28:50.200.09-Sep-2020 5602.01  959.11 79.43 2.00 171.20 2651.01
   06:28:50.400.09-Sep-2020 5602.01  965.07 79.43 2.00 171.40 2651.01
   06:28:50.600.09-Sep-2020 5602.01  970.63 79.43 2.00 171.60 2651.01
   06:28:50.800.09-Sep-2020 5602.01  975.79 79.43 2.00 171.80 2651.01
   06:28:51.000.09-Sep-2020 5602.01  980.92 79.43 2.00 172.00 2651.01
   06:28:51.200.09-Sep-2020 5602.01  980.92 79.43 2.00 172.20 2651.01
   06:28:51.400.09-Sep-2020 5602.01  990.49 79.43 2.00 172.40 2651.01
   06:28:51.600.09-Sep-2020 5602.01  995.15 79.43 2.00 172.60 2651.01
   06:28:51.800.09-Sep-2020 5602.01 1000.92 79.43 2.00 172.80 2651.01
   06:28:52.000.09-Sep-2020 5602.01 1005.99 79.43 2.00 173.00 2651.01
   06:28:52.200.09-Sep-2020 5602.01 1005.99 79.43 2.00 173.20 2651.01
   06:28:52.400.09-Sep-2020 5602.01 1015.93 79.43 2.00 173.40 2651.01
   06:28:52.600.09-Sep-2020 5602.01 1020.41 79.43 2.00 173.60 2651.01
   06:28:52.800.09-Sep-2020 5602.01 1025.75 79.43 2.00 173.80 2651.01
   06:28:53.000.09-Sep-2020 5602.01 1030.91 79.43 2.00 174.00 2651.01
   06:28:53.200.09-Sep-2020 5602.01 1030.91 79.43 2.00 174.20 2651.01
   06:28:53.400.09-Sep-2020 5602.01 1041.16 79.43 2.00 174.40 2651.01
   06:28:53.600.09-Sep-2020 5602.01 1046.03 79.43 2.00 174.60 2651.01
   06:28:53.800.09-Sep-2020 5602.01 1050.96 79.43 2.00 174.80 2651.01
   06:28:54.000.09-Sep-2020 5602.01 1055.81 79.44 2.00 175.00 2651.01
   06:28:54.200.09-Sep-2020 5602.01 1060.40 79.44 2.00 175.20 2651.01
   06:28:54.400.09-Sep-2020 5602.01 1064.59 79.44 2.00 175.40 2651.01
   06:28:54.600.09-Sep-2020 5602.01 1068.21 79.44 2.00 175.60 2651.01
   06:28:54.800.09-Sep-2020 5602.01 1072.89 79.44 2.00 175.80 2651.01
   06:28:55.000.09-Sep-2020 5602.01 1077.49 79.44 2.00 176.00 2651.01
   06:28:55.200.09-Sep-2020 5602.01 1077.49 79.44 2.00 176.20 2651.01
   06:28:55.400.09-Sep-2020 5602.01 1086.41 79.44 2.00 176.40 2651.01
   06:28:55.600.09-Sep-2020 5602.01 1090.81 79.44 2.00 176.60 2651.01
   06:28:55.800.09-Sep-2020 5602.01 1095.18 79.44 2.00 176.80 2651.01
   06:28:56.000.09-Sep-2020 5602.01 1098.77 79.44 2.00 177.00 2651.01
   06:28:56.200.09-Sep-2020 5602.01 1098.77 79.44 2.00 177.20 2651.01
   06:28:56.400.09-Sep-2020 5602.01 1108.01 79.44 2.00 177.40 2651.01
   06:28:56.600.09-Sep-2020 5602.01 1112.18 79.44 2.00 177.60 2651.01
   06:28:56.800.09-Sep-2020 5602.01 1116.18 79.44 2.00 177.80 2651.01
   06:28:57.000.09-Sep-2020 5602.01 1120.63 79.44 2.00 178.00 2651.01
   06:28:57.200.09-Sep-2020 5602.01 1120.63 79.44 2.00 178.20 2651.01
   06:28:57.400.09-Sep-2020 5602.01 1129.02 79.44 2.00 178.40 2651.01
   06:28:57.600.09-Sep-2020 5602.01 1133.11 79.44 2.00 178.60 2651.01
   06:28:57.800.09-Sep-2020 5602.01 1137.15 79.44 2.00 178.80 2651.01
   06:28:58.000.09-Sep-2020 5602.01 1141.10 79.44 2.00 179.00 2651.01
   06:28:58.200.09-Sep-2020 5602.01 1143.74 79.44 2.00 179.20 2651.01
   06:28:58.400.09-Sep-2020 5602.01 1147.43 79.44 2.00 179.40 2651.01
   06:28:58.600.09-Sep-2020 5602.01 1151.35 79.44 2.00 179.60 2651.01
   06:28:58.800.09-Sep-2020 5602.01 1155.29 79.44 2.00 179.80 2651.01
   06:28:59.000.09-Sep-2020 5602.01 1159.20 79.44 2.00 180.00 2651.01
   06:28:59.200.09-Sep-2020 5602.01 1159.20 79.44 2.00 180.20 2651.01
   06:28:59.400.09-Sep-2020 5602.01 1166.73 79.44 2.00 180.40 2651.01
   06:28:59.600.09-Sep-2020 5602.01 1170.92 79.44 2.00 180.60 2651.01
   06:28:59.800.09-Sep-2020 5602.01 1174.95 79.44 2.00 180.80 2651.01
   06:29:00.000.09-Sep-2020 5602.01 1178.72 79.44 2.00 181.00 2651.01
   06:29:00.200.09-Sep-2020 5602.01 1178.72 79.44 2.00 181.20 2651.01
   06:29:00.400.09-Sep-2020 5602.01 1185.79 79.45 2.00 181.40 2651.01
   06:29:00.600.09-Sep-2020 5602.01 1190.12 79.45 2.00 181.60 2651.01
   06:29:00.800.09-Sep-2020 5602.01 1193.85 79.45 2.00 181.80 2651.01
   06:29:01.000.09-Sep-2020 5602.01 1197.75 79.45 2.00 182.00 2651.01
   06:29:01.200.09-Sep-2020 5602.01 1197.75 79.45 2.00 182.20 2651.01
   06:29:01.400.09-Sep-2020 5602.01 1205.55 79.45 2.00 182.40 2651.01
   06:29:01.600.09-Sep-2020 5602.01 1209.20 79.45 2.00 182.60 2651.01
   06:29:01.800.09-Sep-2020 5602.01 1212.36 79.45 2.00 182.80 2651.01
   06:29:02.000.09-Sep-2020 5602.01 1215.69 79.45 2.00 183.00 2651.01
   06:29:02.200.09-Sep-2020 5602.01 1215.69 79.45 2.00 183.20 2651.01
   06:29:02.400.09-Sep-2020 5602.01 1223.20 79.45 2.00 183.40 2651.01
   06:29:02.600.09-Sep-2020 5602.01 1226.61 79.45 2.00 183.60 2651.01
   06:29:02.800.09-Sep-2020 5602.01 1229.95 79.45 2.00 183.80 2651.01
