~Version Information
 VERS.                  2.0:   CWLS log ASCII Standard -VERSION 2.0
 WRAP.                   NO:   One line per depth step
~Well Information Block
#MNEM.UNIT     VALUE/NAME     DESCRIPTION
#---------     -----------    ---------------------------
 STRT.S             21:21:48 09-Sep-20: START TIME 21:21:48 09-Sep-20
 STOP.S             21:29:57 09-Sep-20: STOP TIME  21:29:57 09-Sep-20
 STEP.S                   0.00: STEP TIME
 NULL.                 -999.25: NULL VALUE
 MDS .        Operator Entered:  MAG DATA SOURCE
 PDAT.          Mean Sea Level:  PERMANENT DATUM
 DCON.         Sperry Drilling:  DIRECTNL CONTR
 RIG .              West Azeri:  RIG NAME
 WELL.           C40 (Slot 20):  WELL NAME
 SRVC.     Turan Drilling Engineering:  CONTRACTOR
 FLD .                     ACG:  FIELD NAME
 CTRY.              Azerbaijan:  COUNTRY NAME
 PROV.                    Baku:  PROVINCE
 STAT.                    Baku:  STATE NAME
 REGN.                   EESSA:  REGION
 BASE.              Azerbaijan:  LOGGING EQUIPMENT BASE LOCATION
 COMP.     BP Exploration (Caspian Sea) Ltd:  COMPANY
 WTYP.                Deviated:  WELL TYPE
 SON .        AZ-XX-0906344804:  JOB NUMBER
 FTOP.          Formation Tops:  FORM TOPS DESC
 ILTD.               Lithology:  INTERP LTH DESC
 SVYD.                  Survey:  SURVEY DESC
 DMOD.             Drill Model:  DRILL MOD DESC
 HPTY.       Minimum Curvature:  HOLE POS TYPE
 NREF.                    Grid:  NORTH REFERENCE
 SPUD.               01-Jan-20:  SPUD DATE
 DATE.      00.59.44 15-Sep-20:  END TIME
 STIM.      12.00.00 12-Jun-20:  START TIME
 DMF .             Drill Floor:  DRILL MEAS FROM
 DFST.                        :  DIST FSL TEXT
 DFWT.                        :  DIST FWL TEXT
 API .                        :  API NUMBER
 CNTY.                        :  COUNTY
 UWI .                        :  UNIQUE WELL IDENTIFIER
 LOC .                        :  LOCATION
 LMF .             Drill Floor:  LOG MEASURED FROM
 VSNS.m                   2.88:  VERT SEC N/S
 VSEW.m                  -3.84:  VERT SEC E/W
 AGAP.m                  43.42:  AIR GAP
 APD .m                  43.42:  DEPTH ABOVE PD
 WDMS.m                 118.27:  WD ELEV
 EGL .m                   0.00:  GROUND ELEVATION
 EPD .m                   0.00:  ELEVATION
 AZTC.deg                 6.23:  AZM TOTAL CORR
 GRDC.deg                 0.20:  GRID CORRECTION
 MDEC.deg                 6.43:  MAGNETIC DECL
 MDIP.deg                59.49:  MAGNETIC DIP
 MFLD.nT              50277.00:  MAGNETIC FIELD
 GVFD.g                   1.00:  GRAVITY FIELD
 VSDR.deg               173.20:  VERT SEC DIRECT
 TDD .m                5790.01:  TOTAL DEPTH (DRILLER)
 SDEP.m                5231.01:  START DEPTH
 DFSL.m                   0.00:  DISTANCE FSL
 DFWL.m                   0.00:  DISTANCE FWL
 UTMY.m             4435808.83:  UTM Y
 UTMX.m              526266.40:  UTM X
 WHEW.m                  -3.84:  WELL HEAD E/W
 WHNS.m                   2.88:  WELL HEAD N/S
 LONG.deg                51.31:  LONGITUDE
 LATI.deg                40.06:  LATITUDE
 TVDS.m                  43.42:  TVDSS CORRECTN
 DEP .m                 430.08:  DEPTH
 EKB .m                  43.42:  KB ELEVATION
 EDF .m                  43.42:  DF ELEVATION
 TDL .m                 559.00:  TOTAL DEPTH (LOGGER)
 MAGU.                 1849381:  MAGUTM CHECKSUM
 VSC .                       0:  VS TO CLOSURE
~Parameter Information Block
#MNEM.UNIT       Value        Description
#---------     -----------    ---------------------------
 AV  .mps                 4.87:  Ann Velocity 
 AVMX.mps                 7.08:  Max Ann Veloc 
 AZIF.deg               108.87:  Azm, Final 
 BHAT.                  Rotary:  BHA Type 
 BROT.°/30m               0.35:  Build Rotating 
 BS  .in                  8.50:  Bit Size 
 BSZ .in                  8.50:  Bit Size 
 BTPL.psig              360.00:  Bit Press Loss 
 CABU.                     Yes:  Customer Abuse 
 COMM.                     ¼¥|:  Run Comments 1 
 TCS .hr                106.24:  Time Ciculation Ended 
 CV  .mps                 1.77:  Crit Velocity 
 CVMX.mps                 2.03:  Max Crit Veloc 
 DD1 .         Aykhan Agagulov:  Direct Drillr 1 
 DD2 .            Nonso Okofor:  Direct Drillr 2 
 DDSV.               Geo-Pilot:  DD Service 
 DEFF.%                  98.00:  % Det Eff 
 DLRX.°/30m               0.50:  Dogleg Rot Max 
 DLSO.°/30m               0.40:  Dogleg Oriented 
 DLSX.°/30m               0.94:  Dogleg Str Max 
 DRET.      20.30.00 08-Sep-20:  Drill End Time 
 DRST.      22.15.00 06-Sep-20:  Drill Start Tim 
 DTIM.hr                 31.31:  Time Drilling 
 EDEP.m                5790.01:  End Depth 
 ENG1.           Amrah Tahirov:  Engineer 1 
 ENG2.         Dair Mahammadov:  Engineer 2 
 ENG3.           Emil Huseynov:  Engineer 3 
 ETIM.      04.01.04 12-Sep-20:  End Time 
 FLOI.gpm               450.00:  Flow In 
 FLON.gpm               450.00:  Flow In Min 
 FLOS.cptm                2.00:  Fluid Loss 
 FLOX.gpm               450.00:  Flow In Max 
 FTRO.       Formation Presure:  FTWD Run Obj 
 HFLO.                      No:  High Flow 
 HPRE.                      No:  High Pressure 
 HTEM.                      No:  High Temp 
 HYDO.m                   1.80:  Hydro Offset 
 IFIN.deg                72.03:  Inc, Final 
 IMAX.deg                73.72:  Inc Max 
 IMIN.deg                70.94:  Inc Min 
 IMND.m                5508.52:  Inc Min Depth 
 IMXD.m                5253.60:  Inc Max Depth 
 JARR.                      No:  Jarring 
 LETM.      20.30.00 08-Sep-20:  Log End Time 
 LOST.hr                     0:  Lost Rig Time 
 LSTM.      22.15.00 06-Sep-20:  Log Start Time 
 MDCL.ppm             36000.00:  Mud Chlorides 
 MDES.     Inversion Oil/Synthetic:  Mud Desc 
 DFD .sg                  1.44:  Mud Density 
 MDMN.sg                  1.44:  Dens Mud Min 
 MDMX.sg                  1.57:  Dens Mud Max 
 MOIL.                      70:  Run Mud Oil % 
 MOWR.                   70:30:  Run Mud OWR 
 MSND.                       0:  Run Mud Sand % 
 MSOL.                      21:  Run Mud Solids% 
 DFV .spqt               68.00:  Mud Viscosity 
 MWOD.in                  6.75:  MWD Tool OD 
 MWSI.                     Yes:  Serv Intrp, MWD 
 OTIM.hr                174.84:  Time Operating 
 PCON.           Look Like New:  Pad Condition 
 PMAX.psia            10616.93:  Press Op, Max 
 PV  .cP                 50.00:  Mud PV 
 RUN .                     700:  Run Number 
 ROPA.m/hr               14.24:  ROP Avg 
 ROPN.m/hr               10.00:  ROP Min 
 ROPX.m/hr               32.00:  ROP Max 
 RPMA.rpm               120.90:  RPM Surface Avg 
 RPMN.rpm               120.00:  RPM Surface Min 
 RPMX.rpm               140.00:  RPM Surface Max 
 RRUN.                    0700:  Rig Run Number 
 RTIM.hr                  3.20:  Time Reaming 
 SAZI.deg               109.99:  Azm, Start 
 SDEP.m                5231.01:  Start Depth 
 SIDD.                      No:  Serv Intrp, DD 
 SINC.deg                73.72:  Inc, Start 
 SPPA.psig             3051.00:  SPP Avg 
 SPPN.psig             2950.00:  SPP Min 
 SPPX.psig             3250.00:  SPP Max 
 STIM.      08.00.00 05-Sep-20:  Start Time 
 SVCS.                 DD, MWD:  Services 
 SVER.                    9.20:  Sperry Version 
 TDAT.m                 559.00:  Tot Depth Attmp 
 TDDF.                      No:  Trip for DD 
 TDLG.m                 559.00:  Tot Depth Loggd 
 TFF .                      No:  Trip for Fail 
 TQAA.f-kp               26.49:  Torque Abs Avg 
 TQAN.f-kp               25.00:  Torque Abs Min 
 TQAX.f-kp               27.00:  Torque Abs Max 
 TRRT.°/30m               1.50:  Turn Rotating 
 MRT .                    HCIM:  Maximum Recorded Temperature 
 TTMX.degC               90.20:  Max Tool Temp 
 VS01.                90542671:  Virtual Str1 SN 
 VS02.                90545185:  Virtual Str2 SN 
 VS03.                90602015:  Virtual Str3 SN 
 VS04.                90515230:  Virtual Str4 SN 
 WBMN.klb                 5.00:  WOB Min 
 WOBA.klb                14.79:  WOB Avg 
 WOBX.klb                20.00:  WOB Max 
 YP  .lhf2               29.00:  Yield Point 
~Curve Information Block
#MNEM.UNIT                 API CODE     Curve Description
#---------               -----------    ---------------------------
 TIME.HHMMSS            00 000 000 000:  GT Time & Date
 GTDEPTH.m              00 000 000 000:  GT Depth
 GTPQH.psia             00 000 000 000:  GT HR Quartz Pressure
 GTTQ.degC              00 000 000 000:  GT Quartz Temperature
 GTTN.NONE              00 000 000 000:  GT Test Number
 GTET.sec               00 000 000 000:  GT Elapsed Test Time
 GTTVD.m                00 000 000 000:  GT True Vertical Depth
#Other Information
#
#WARRANTY: Halliburton will use its best efforts to furnish customers with 
#accurate information and interpretations that are part of, and incident to, the services 
#provided.  However, Halliburton cannot and does not warrant the accuracy 
#or correctness of such information and interpretations.  Under no circumstances should any 
#such information or interpretation be relied upon as the sole basis for any drilling, 
#completion, production, or financial decision or any procedure involving any risk to the 
#safety of any drilling venture, drilling rig or its crew or any other third party.  The 
#Customer has full responsibility for all drilling, completion and production operation.  
#Halliburton makes no representations or warranties, either expressed or 
#implied, including, but not limited to, the implied warranties of merchantability or fitness 
#for a particular purpose, with respect to the services rendered.  In no event will 
#Halliburton be liable for failure to obtain any particular results or for 
#any damages, including, but not limited to, indirect, special or consequential damages, 
#resulting from the use of any information or interpretation provided by Halliburton.
#
~A           TIME           GTDEPTH  GTPQH  GTTQ  GTTN   GTET   GTTVD  
# ...
   21:25:34.421.09-Sep-2020 5252.22  276.00 73.48 26.00 226.10 2542.36
   21:25:34.621.09-Sep-2020 5252.22  275.93 73.48 26.00 226.30 2542.36
   21:25:34.821.09-Sep-2020 5252.22  276.43 73.48 26.00 226.50 2542.36
   21:25:35.021.09-Sep-2020 5252.22  276.64 73.48 26.00 226.70 2542.36
   21:25:35.221.09-Sep-2020 5252.22  276.79 73.48 26.00 226.90 2542.36
   21:25:35.421.09-Sep-2020 5252.22  277.10 73.48 26.00 227.10 2542.36
   21:25:35.622.09-Sep-2020 5252.22  277.18 73.48 26.00 227.30 2542.36
   21:25:35.822.09-Sep-2020 5252.22  277.42 73.48 26.00 227.50 2542.36
   21:25:36.022.09-Sep-2020 5252.22  277.58 73.48 26.00 227.70 2542.36
   21:25:36.222.09-Sep-2020 5252.22  277.77 73.48 26.00 227.91 2542.36
   21:25:36.422.09-Sep-2020 5252.22  277.93 73.48 26.00 228.11 2542.36
   21:25:36.622.09-Sep-2020 5252.22  277.93 73.48 26.00 228.31 2542.36
   21:25:36.822.09-Sep-2020 5252.22  278.31 73.48 26.00 228.51 2542.36
   21:25:37.022.09-Sep-2020 5252.22  278.47 73.48 26.00 228.71 2542.36
   21:25:37.222.09-Sep-2020 5252.22  278.61 73.48 26.00 228.91 2542.36
   21:25:37.422.09-Sep-2020 5252.22  278.77 73.48 26.00 229.11 2542.36
   21:25:37.622.09-Sep-2020 5252.22  278.77 73.48 26.00 229.31 2542.36
   21:25:37.823.09-Sep-2020 5252.22  279.15 73.48 26.00 229.51 2542.36
   21:25:38.023.09-Sep-2020 5252.22  279.32 73.48 26.00 229.71 2542.36
   21:25:38.223.09-Sep-2020 5252.22  279.18 73.48 26.00 229.91 2542.36
   21:25:38.423.09-Sep-2020 5252.22  279.69 73.48 26.00 230.11 2542.36
   21:25:38.623.09-Sep-2020 5252.22  279.89 73.48 26.00 230.31 2542.36
   21:25:38.823.09-Sep-2020 5252.22  280.03 73.48 26.00 230.51 2542.36
   21:25:39.023.09-Sep-2020 5252.22  280.29 73.48 26.00 230.71 2542.36
   21:25:39.223.09-Sep-2020 5252.22  280.35 73.48 26.00 230.91 2542.36
   21:25:39.423.09-Sep-2020 5252.22  280.59 73.48 26.00 231.11 2542.36
   21:25:39.623.09-Sep-2020 5252.22  280.74 73.48 26.00 231.31 2542.36
   21:25:39.823.09-Sep-2020 5252.22  280.92 73.48 26.00 231.51 2542.36
   21:25:40.024.09-Sep-2020 5252.22  281.06 73.48 26.00 231.71 2542.36
   21:25:40.224.09-Sep-2020 5252.22  281.23 73.48 26.00 231.91 2542.36
   21:25:40.424.09-Sep-2020 5252.22  281.35 73.48 26.00 232.11 2542.36
   21:25:40.624.09-Sep-2020 5252.22  281.49 73.48 26.00 232.31 2542.36
   21:25:40.824.09-Sep-2020 5252.22  281.64 73.48 26.00 232.51 2542.36
   21:25:41.024.09-Sep-2020 5252.22  281.81 73.48 26.00 232.71 2542.36
   21:25:41.224.09-Sep-2020 5252.22  282.00 73.48 26.00 232.91 2542.36
   21:25:41.424.09-Sep-2020 5252.22  281.78 73.48 26.00 233.11 2542.36
   21:25:41.624.09-Sep-2020 5252.22  282.23 73.48 26.00 233.31 2542.36
   21:25:41.824.09-Sep-2020 5252.22  282.44 73.48 26.00 233.51 2542.36
   21:25:42.024.09-Sep-2020 5252.22  282.54 73.48 26.00 233.71 2542.36
   21:25:42.225.09-Sep-2020 5252.22  282.81 73.48 26.00 233.91 2542.36
   21:25:42.425.09-Sep-2020 5252.22  282.91 73.48 26.00 234.11 2542.36
   21:25:42.625.09-Sep-2020 5252.22  282.74 73.48 26.00 234.31 2542.36
   21:25:42.825.09-Sep-2020 5252.22  283.23 73.48 26.00 234.51 2542.36
   21:25:43.025.09-Sep-2020 5252.22  283.46 73.48 26.00 234.71 2542.36
   21:25:43.225.09-Sep-2020 5252.22  283.57 73.48 26.00 234.91 2542.36
   21:25:43.425.09-Sep-2020 5252.22  283.51 73.48 26.00 235.11 2542.36
   21:25:43.625.09-Sep-2020 5252.22  283.93 73.48 26.00 235.31 2542.36
   21:25:43.825.09-Sep-2020 5252.22  284.24 73.48 26.00 235.51 2542.36
   21:25:44.025.09-Sep-2020 5252.22  284.39 73.48 26.00 235.71 2542.36
   21:25:44.225.09-Sep-2020 5252.22  284.68 73.48 26.00 235.91 2542.36
   21:25:44.426.09-Sep-2020 5252.22  284.37 73.48 26.00 236.11 2542.36
   21:25:44.626.09-Sep-2020 5252.22  284.37 73.48 26.00 236.31 2542.36
   21:25:44.826.09-Sep-2020 5252.22  285.17 73.48 26.00 236.51 2542.36
   21:25:45.026.09-Sep-2020 5252.22  285.34 73.48 26.00 236.71 2542.36
   21:25:45.226.09-Sep-2020 5252.22  285.11 73.48 26.00 236.91 2542.36
   21:25:45.426.09-Sep-2020 5252.22  285.80 73.48 26.00 237.11 2542.36
   21:25:45.626.09-Sep-2020 5252.22  285.80 73.48 26.00 237.31 2542.36
   21:25:45.826.09-Sep-2020 5252.22  286.10 73.48 26.00 237.51 2542.36
   21:25:46.026.09-Sep-2020 5252.22  286.29 73.48 26.00 237.71 2542.36
   21:25:46.226.09-Sep-2020 5252.22  286.53 73.48 26.00 237.91 2542.36
   21:25:46.426.09-Sep-2020 5252.22  286.62 73.48 26.00 238.11 2542.36
   21:25:46.627.09-Sep-2020 5252.22  286.81 73.48 26.00 238.31 2542.36
   21:25:46.827.09-Sep-2020 5252.22  286.97 73.48 26.00 238.51 2542.36
   21:25:47.027.09-Sep-2020 5252.22  287.11 73.48 26.00 238.71 2542.36
   21:25:47.227.09-Sep-2020 5252.22  287.26 73.48 26.00 238.91 2542.36
   21:25:47.427.09-Sep-2020 5252.22  287.42 73.48 26.00 239.11 2542.36
   21:25:47.627.09-Sep-2020 5252.22  287.59 73.48 26.00 239.31 2542.36
   21:25:47.827.09-Sep-2020 5252.22  287.73 73.48 26.00 239.51 2542.36
   21:25:48.027.09-Sep-2020 5252.22  287.83 73.48 26.00 239.71 2542.36
   21:25:48.227.09-Sep-2020 5252.22  287.94 73.48 26.00 239.91 2542.36
   21:25:48.427.09-Sep-2020 5252.22  288.09 73.48 26.00 240.11 2542.36
   21:25:48.628.09-Sep-2020 5252.22  288.24 73.48 26.00 240.31 2542.36
   21:25:48.828.09-Sep-2020 5252.22  287.96 73.48 26.00 240.51 2542.36
   21:25:49.028.09-Sep-2020 5252.22  288.60 73.48 26.00 240.71 2542.36
   21:25:49.228.09-Sep-2020 5252.22  288.73 73.48 26.00 240.91 2542.36
   21:25:49.428.09-Sep-2020 5252.22  289.04 73.48 26.00 241.11 2542.36
   21:25:49.628.09-Sep-2020 5252.22  289.25 73.48 26.00 241.31 2542.36
   21:25:49.828.09-Sep-2020 5252.22  289.52 73.48 26.00 241.51 2542.36
   21:25:50.028.09-Sep-2020 5252.22  289.60 73.48 26.00 241.71 2542.36
   21:25:50.228.09-Sep-2020 5252.22  289.77 73.48 26.00 241.91 2542.36
   21:25:50.428.09-Sep-2020 5252.22  289.91 73.48 26.00 242.11 2542.36
   21:25:50.628.09-Sep-2020 5252.22  290.04 73.48 26.00 242.31 2542.36
   21:25:50.829.09-Sep-2020 5252.22  290.20 73.48 26.00 242.51 2542.36
   21:25:51.029.09-Sep-2020 5252.22  290.35 73.48 26.00 242.71 2542.36
   21:25:51.229.09-Sep-2020 5252.22  290.48 73.48 26.00 242.91 2542.36
   21:25:51.429.09-Sep-2020 5252.22  290.59 73.48 26.00 243.11 2542.36
   21:25:51.629.09-Sep-2020 5252.22  290.72 73.48 26.00 243.31 2542.36
   21:25:51.829.09-Sep-2020 5252.22  290.85 73.48 26.00 243.51 2542.36
   21:25:52.029.09-Sep-2020 5252.22  291.04 73.48 26.00 243.71 2542.36
   21:25:52.229.09-Sep-2020 5252.22  290.81 73.48 26.00 243.91 2542.36
   21:25:52.429.09-Sep-2020 5252.22  291.27 73.48 26.00 244.11 2542.36
   21:25:52.629.09-Sep-2020 5252.22  291.27 73.48 26.00 244.31 2542.36
   21:25:52.829.09-Sep-2020 5252.22  291.52 73.48 26.00 244.51 2542.36
   21:25:53.030.09-Sep-2020 5252.22  291.79 73.48 26.00 244.71 2542.36
   21:25:53.230.09-Sep-2020 5252.22  291.38 73.48 26.00 244.91 2542.36
   21:25:53.430.09-Sep-2020 5252.22  292.06 73.48 26.00 245.11 2542.36
   21:25:53.630.09-Sep-2020 5252.22  292.06 73.48 26.00 245.31 2542.36
   21:25:53.830.09-Sep-2020 5252.22  292.32 73.48 26.00 245.51 2542.36
   21:25:54.030.09-Sep-2020 5252.22  292.46 73.48 26.00 245.71 2542.36
   21:25:54.230.09-Sep-2020 5252.22  292.40 73.48 26.00 245.91 2542.36
   21:25:54.430.09-Sep-2020 5252.22  292.83 73.48 26.00 246.11 2542.36
   21:25:54.630.09-Sep-2020 5252.22  293.09 73.48 26.00 246.31 2542.36
   21:25:54.830.09-Sep-2020 5252.22  293.22 73.48 26.00 246.51 2542.36
   21:25:55.030.09-Sep-2020 5252.22  293.47 73.48 26.00 246.71 2542.36
   21:25:55.231.09-Sep-2020 5252.22  292.99 73.48 26.00 246.91 2542.36
   21:25:55.431.09-Sep-2020 5252.22  294.07 73.48 26.00 247.11 2542.36
   21:25:55.631.09-Sep-2020 5252.22  294.01 73.48 26.00 247.31 2542.36
   21:25:55.831.09-Sep-2020 5252.22  294.19 73.48 26.00 247.51 2542.36
   21:25:56.031.09-Sep-2020 5252.22  294.30 73.48 26.00 247.71 2542.36
   21:25:56.231.09-Sep-2020 5252.22  294.64 73.48 26.00 247.91 2542.36
   21:25:56.431.09-Sep-2020 5252.22  294.75 73.48 26.00 248.11 2542.36
   21:25:56.631.09-Sep-2020 5252.22  294.75 73.48 26.00 248.31 2542.36
   21:25:56.831.09-Sep-2020 5252.22  295.06 73.48 26.00 248.51 2542.36
