~Version Information
 VERS.                  2.0:   CWLS log ASCII Standard -VERSION 2.0
 WRAP.                   NO:   One line per depth step
~Well Information Block
#MNEM.UNIT     VALUE/NAME     DESCRIPTION
#---------     -----------    ---------------------------
 STRT.S             18:49:58 09-Sep-20: START TIME 18:49:58 09-Sep-20
 STOP.S             18:58:03 09-Sep-20: STOP TIME  18:58:03 09-Sep-20
 STEP.S                   0.00: STEP TIME
 NULL.                 -999.25: NULL VALUE
 MDS .        Operator Entered:  MAG DATA SOURCE
 PDAT.          Mean Sea Level:  PERMANENT DATUM
 DCON.         Sperry Drilling:  DIRECTNL CONTR
 RIG .              West Azeri:  RIG NAME
 WELL.           C40 (Slot 20):  WELL NAME
 SRVC.     Turan Drilling Engineering:  CONTRACTOR
 FLD .                     ACG:  FIELD NAME
 CTRY.              Azerbaijan:  COUNTRY NAME
 PROV.                    Baku:  PROVINCE
 STAT.                    Baku:  STATE NAME
 REGN.                   EESSA:  REGION
 BASE.              Azerbaijan:  LOGGING EQUIPMENT BASE LOCATION
 COMP.     BP Exploration (Caspian Sea) Ltd:  COMPANY
 WTYP.                Deviated:  WELL TYPE
 SON .        AZ-XX-0906344804:  JOB NUMBER
 FTOP.          Formation Tops:  FORM TOPS DESC
 ILTD.               Lithology:  INTERP LTH DESC
 SVYD.                  Survey:  SURVEY DESC
 DMOD.             Drill Model:  DRILL MOD DESC
 HPTY.       Minimum Curvature:  HOLE POS TYPE
 NREF.                    Grid:  NORTH REFERENCE
 SPUD.               01-Jan-20:  SPUD DATE
 DATE.      00.59.44 15-Sep-20:  END TIME
 STIM.      12.00.00 12-Jun-20:  START TIME
 DMF .             Drill Floor:  DRILL MEAS FROM
 DFST.                        :  DIST FSL TEXT
 DFWT.                        :  DIST FWL TEXT
 API .                        :  API NUMBER
 CNTY.                        :  COUNTY
 UWI .                        :  UNIQUE WELL IDENTIFIER
 LOC .                        :  LOCATION
 LMF .             Drill Floor:  LOG MEASURED FROM
 VSNS.m                   2.88:  VERT SEC N/S
 VSEW.m                  -3.84:  VERT SEC E/W
 AGAP.m                  43.42:  AIR GAP
 APD .m                  43.42:  DEPTH ABOVE PD
 WDMS.m                 118.27:  WD ELEV
 EGL .m                   0.00:  GROUND ELEVATION
 EPD .m                   0.00:  ELEVATION
 AZTC.deg                 6.23:  AZM TOTAL CORR
 GRDC.deg                 0.20:  GRID CORRECTION
 MDEC.deg                 6.43:  MAGNETIC DECL
 MDIP.deg                59.49:  MAGNETIC DIP
 MFLD.nT              50277.00:  MAGNETIC FIELD
 GVFD.g                   1.00:  GRAVITY FIELD
 VSDR.deg               173.20:  VERT SEC DIRECT
 TDD .m                5790.01:  TOTAL DEPTH (DRILLER)
 SDEP.m                5231.01:  START DEPTH
 DFSL.m                   0.00:  DISTANCE FSL
 DFWL.m                   0.00:  DISTANCE FWL
 UTMY.m             4435808.83:  UTM Y
 UTMX.m              526266.40:  UTM X
 WHEW.m                  -3.84:  WELL HEAD E/W
 WHNS.m                   2.88:  WELL HEAD N/S
 LONG.deg                51.31:  LONGITUDE
 LATI.deg                40.06:  LATITUDE
 TVDS.m                  43.42:  TVDSS CORRECTN
 DEP .m                 430.08:  DEPTH
 EKB .m                  43.42:  KB ELEVATION
 EDF .m                  43.42:  DF ELEVATION
 TDL .m                 559.00:  TOTAL DEPTH (LOGGER)
 MAGU.                 1849381:  MAGUTM CHECKSUM
 VSC .                       0:  VS TO CLOSURE
~Parameter Information Block
#MNEM.UNIT       Value        Description
#---------     -----------    ---------------------------
 AV  .mps                 4.87:  Ann Velocity 
 AVMX.mps                 7.08:  Max Ann Veloc 
 AZIF.deg               108.87:  Azm, Final 
 BHAT.                  Rotary:  BHA Type 
 BROT.°/30m               0.35:  Build Rotating 
 BS  .in                  8.50:  Bit Size 
 BSZ .in                  8.50:  Bit Size 
 BTPL.psig              360.00:  Bit Press Loss 
 CABU.                     Yes:  Customer Abuse 
 COMM.                     „T:  Run Comments 1 
 TCS .hr                106.24:  Time Ciculation Ended 
 CV  .mps                 1.77:  Crit Velocity 
 CVMX.mps                 2.03:  Max Crit Veloc 
 DD1 .         Aykhan Agagulov:  Direct Drillr 1 
 DD2 .            Nonso Okofor:  Direct Drillr 2 
 DDSV.               Geo-Pilot:  DD Service 
 DEFF.%                  98.00:  % Det Eff 
 DLRX.°/30m               0.50:  Dogleg Rot Max 
 DLSO.°/30m               0.40:  Dogleg Oriented 
 DLSX.°/30m               0.94:  Dogleg Str Max 
 DRET.      20.30.00 08-Sep-20:  Drill End Time 
 DRST.      22.15.00 06-Sep-20:  Drill Start Tim 
 DTIM.hr                 31.31:  Time Drilling 
 EDEP.m                5790.01:  End Depth 
 ENG1.           Amrah Tahirov:  Engineer 1 
 ENG2.         Dair Mahammadov:  Engineer 2 
 ENG3.           Emil Huseynov:  Engineer 3 
 ETIM.      04.01.04 12-Sep-20:  End Time 
 FLOI.gpm               450.00:  Flow In 
 FLON.gpm               450.00:  Flow In Min 
 FLOS.cptm                2.00:  Fluid Loss 
 FLOX.gpm               450.00:  Flow In Max 
 FTRO.       Formation Presure:  FTWD Run Obj 
 HFLO.                      No:  High Flow 
 HPRE.                      No:  High Pressure 
 HTEM.                      No:  High Temp 
 HYDO.m                   1.80:  Hydro Offset 
 IFIN.deg                72.03:  Inc, Final 
 IMAX.deg                73.72:  Inc Max 
 IMIN.deg                70.94:  Inc Min 
 IMND.m                5508.52:  Inc Min Depth 
 IMXD.m                5253.60:  Inc Max Depth 
 JARR.                      No:  Jarring 
 LETM.      20.30.00 08-Sep-20:  Log End Time 
 LOST.hr                     0:  Lost Rig Time 
 LSTM.      22.15.00 06-Sep-20:  Log Start Time 
 MDCL.ppm             36000.00:  Mud Chlorides 
 MDES.     Inversion Oil/Synthetic:  Mud Desc 
 DFD .sg                  1.44:  Mud Density 
 MDMN.sg                  1.44:  Dens Mud Min 
 MDMX.sg                  1.57:  Dens Mud Max 
 MOIL.                      70:  Run Mud Oil % 
 MOWR.                   70:30:  Run Mud OWR 
 MSND.                       0:  Run Mud Sand % 
 MSOL.                      21:  Run Mud Solids% 
 DFV .spqt               68.00:  Mud Viscosity 
 MWOD.in                  6.75:  MWD Tool OD 
 MWSI.                     Yes:  Serv Intrp, MWD 
 OTIM.hr                174.84:  Time Operating 
 PCON.           Look Like New:  Pad Condition 
 PMAX.psia            10616.93:  Press Op, Max 
 PV  .cP                 50.00:  Mud PV 
 RUN .                     700:  Run Number 
 ROPA.m/hr               14.24:  ROP Avg 
 ROPN.m/hr               10.00:  ROP Min 
 ROPX.m/hr               32.00:  ROP Max 
 RPMA.rpm               120.90:  RPM Surface Avg 
 RPMN.rpm               120.00:  RPM Surface Min 
 RPMX.rpm               140.00:  RPM Surface Max 
 RRUN.                    0700:  Rig Run Number 
 RTIM.hr                  3.20:  Time Reaming 
 SAZI.deg               109.99:  Azm, Start 
 SDEP.m                5231.01:  Start Depth 
 SIDD.                      No:  Serv Intrp, DD 
 SINC.deg                73.72:  Inc, Start 
 SPPA.psig             3051.00:  SPP Avg 
 SPPN.psig             2950.00:  SPP Min 
 SPPX.psig             3250.00:  SPP Max 
 STIM.      08.00.00 05-Sep-20:  Start Time 
 SVCS.                 DD, MWD:  Services 
 SVER.                    9.20:  Sperry Version 
 TDAT.m                 559.00:  Tot Depth Attmp 
 TDDF.                      No:  Trip for DD 
 TDLG.m                 559.00:  Tot Depth Loggd 
 TFF .                      No:  Trip for Fail 
 TQAA.f-kp               26.49:  Torque Abs Avg 
 TQAN.f-kp               25.00:  Torque Abs Min 
 TQAX.f-kp               27.00:  Torque Abs Max 
 TRRT.°/30m               1.50:  Turn Rotating 
 MRT .                    HCIM:  Maximum Recorded Temperature 
 TTMX.degC               90.20:  Max Tool Temp 
 VS01.                90542671:  Virtual Str1 SN 
 VS02.                90545185:  Virtual Str2 SN 
 VS03.                90602015:  Virtual Str3 SN 
 VS04.                90515230:  Virtual Str4 SN 
 WBMN.klb                 5.00:  WOB Min 
 WOBA.klb                14.79:  WOB Avg 
 WOBX.klb                20.00:  WOB Max 
 YP  .lhf2               29.00:  Yield Point 
~Curve Information Block
#MNEM.UNIT                 API CODE     Curve Description
#---------               -----------    ---------------------------
 TIME.HHMMSS            00 000 000 000:  GT Time & Date
 GTDEPTH.m              00 000 000 000:  GT Depth
 GTPQH.psia             00 000 000 000:  GT HR Quartz Pressure
 GTTQ.degC              00 000 000 000:  GT Quartz Temperature
 GTTN.NONE              00 000 000 000:  GT Test Number
 GTET.sec               00 000 000 000:  GT Elapsed Test Time
 GTTVD.m                00 000 000 000:  GT True Vertical Depth
#Other Information
#
#WARRANTY: Halliburton will use its best efforts to furnish customers with 
#accurate information and interpretations that are part of, and incident to, the services 
#provided.  However, Halliburton cannot and does not warrant the accuracy 
#or correctness of such information and interpretations.  Under no circumstances should any 
#such information or interpretation be relied upon as the sole basis for any drilling, 
#completion, production, or financial decision or any procedure involving any risk to the 
#safety of any drilling venture, drilling rig or its crew or any other third party.  The 
#Customer has full responsibility for all drilling, completion and production operation.  
#Halliburton makes no representations or warranties, either expressed or 
#implied, including, but not limited to, the implied warranties of merchantability or fitness 
#for a particular purpose, with respect to the services rendered.  In no event will 
#Halliburton be liable for failure to obtain any particular results or for 
#any damages, including, but not limited to, indirect, special or consequential damages, 
#resulting from the use of any information or interpretation provided by Halliburton.
#
~A           TIME           GTDEPTH  GTPQH  GTTQ  GTTN   GTET   GTTVD  
# ...
   18:56:44.981.09-Sep-2020 5280.51  539.53 74.31 22.00 406.48 2550.44
   18:56:45.181.09-Sep-2020 5280.51  538.67 74.31 22.00 406.68 2550.44
   18:56:45.381.09-Sep-2020 5280.51  540.15 74.31 22.00 406.88 2550.44
   18:56:45.580.09-Sep-2020 5280.51  539.86 74.31 22.00 407.08 2550.44
   18:56:45.780.09-Sep-2020 5280.51  540.01 74.31 22.00 407.28 2550.44
   18:56:45.980.09-Sep-2020 5280.51  540.07 74.31 22.00 407.48 2550.44
   18:56:46.180.09-Sep-2020 5280.51  540.39 74.31 22.00 407.68 2550.44
   18:56:46.380.09-Sep-2020 5280.51  540.39 74.31 22.00 407.88 2550.44
   18:56:46.580.09-Sep-2020 5280.51  540.38 74.31 22.00 408.08 2550.44
   18:56:46.780.09-Sep-2020 5280.51  540.57 74.31 22.00 408.28 2550.44
   18:56:46.979.09-Sep-2020 5280.51  540.64 74.31 22.00 408.48 2550.44
   18:56:47.179.09-Sep-2020 5280.51  540.96 74.31 22.00 408.68 2550.44
   18:56:47.379.09-Sep-2020 5280.51  540.96 74.31 22.00 408.88 2550.44
   18:56:47.579.09-Sep-2020 5280.51  540.64 74.31 22.00 409.08 2550.44
   18:56:47.779.09-Sep-2020 5280.51  541.19 74.31 22.00 409.28 2550.44
   18:56:47.979.09-Sep-2020 5280.51  541.32 74.31 22.00 409.48 2550.44
   18:56:48.178.09-Sep-2020 5280.51  541.36 74.31 22.00 409.68 2550.44
   18:56:48.378.09-Sep-2020 5280.51  541.36 74.31 22.00 409.88 2550.44
   18:56:48.578.09-Sep-2020 5280.51  541.64 74.31 22.00 410.08 2550.44
   18:56:48.778.09-Sep-2020 5280.51  541.82 74.31 22.00 410.28 2550.44
   18:56:48.978.09-Sep-2020 5280.51  541.93 74.31 22.00 410.48 2550.44
   18:56:49.178.09-Sep-2020 5280.51  542.02 74.31 22.00 410.68 2550.44
   18:56:49.377.09-Sep-2020 5280.51  542.02 74.31 22.00 410.88 2550.44
   18:56:49.577.09-Sep-2020 5280.51  542.31 74.31 22.00 411.08 2550.44
   18:56:49.777.09-Sep-2020 5280.51  542.42 74.31 22.00 411.28 2550.44
   18:56:49.977.09-Sep-2020 5280.51  542.48 74.31 22.00 411.48 2550.44
   18:56:50.177.09-Sep-2020 5280.51  542.60 74.31 22.00 411.68 2550.44
   18:56:50.377.09-Sep-2020 5280.51  542.60 74.31 22.00 411.88 2550.44
   18:56:50.577.09-Sep-2020 5280.51  542.88 74.31 22.00 412.08 2550.44
   18:56:50.776.09-Sep-2020 5280.51  543.01 74.31 22.00 412.28 2550.44
   18:56:50.976.09-Sep-2020 5280.51  543.12 74.31 22.00 412.48 2550.44
   18:56:51.176.09-Sep-2020 5280.51  542.62 74.31 22.00 412.68 2550.44
   18:56:51.376.09-Sep-2020 5280.51  542.62 74.31 22.00 412.88 2550.44
   18:56:51.576.09-Sep-2020 5280.51  543.48 74.31 22.00 413.08 2550.44
   18:56:51.776.09-Sep-2020 5280.51  543.53 74.31 22.00 413.28 2550.44
   18:56:51.975.09-Sep-2020 5280.51  543.81 74.31 22.00 413.48 2550.44
   18:56:52.175.09-Sep-2020 5280.51  543.83 74.31 22.00 413.68 2550.44
   18:56:52.375.09-Sep-2020 5280.51  543.98 74.31 22.00 413.88 2550.44
   18:56:52.575.09-Sep-2020 5280.51  544.08 74.31 22.00 414.08 2550.44
   18:56:52.775.09-Sep-2020 5280.51  544.23 74.31 22.00 414.28 2550.44
   18:56:52.975.09-Sep-2020 5280.51  544.31 74.31 22.00 414.47 2550.44
   18:56:53.174.09-Sep-2020 5280.51  544.40 74.31 22.00 414.67 2550.44
   18:56:53.374.09-Sep-2020 5280.51  544.40 74.31 22.00 414.87 2550.44
   18:56:53.574.09-Sep-2020 5280.51  544.64 74.31 22.00 415.07 2550.44
   18:56:53.774.09-Sep-2020 5280.51  544.78 74.31 22.00 415.27 2550.44
   18:56:53.974.09-Sep-2020 5280.51  544.92 74.31 22.00 415.47 2550.44
   18:56:54.174.09-Sep-2020 5280.51  545.05 74.31 22.00 415.67 2550.44
   18:56:54.374.09-Sep-2020 5280.51  545.05 74.31 22.00 415.87 2550.44
   18:56:54.573.09-Sep-2020 5280.51  545.17 74.31 22.00 416.07 2550.44
   18:56:54.773.09-Sep-2020 5280.51  545.37 74.31 22.00 416.27 2550.44
   18:56:54.973.09-Sep-2020 5280.51  545.43 74.31 22.00 416.47 2550.44
   18:56:55.173.09-Sep-2020 5280.51  545.67 74.31 22.00 416.67 2550.44
   18:56:55.373.09-Sep-2020 5280.51  545.67 74.31 22.00 416.87 2550.44
   18:56:55.573.09-Sep-2020 5280.51  545.37 74.31 22.00 417.07 2550.44
   18:56:55.772.09-Sep-2020 5280.51  545.95 74.31 22.00 417.27 2550.44
   18:56:55.972.09-Sep-2020 5280.51  546.09 74.31 22.00 417.47 2550.44
   18:56:56.172.09-Sep-2020 5280.51  546.07 74.31 22.00 417.67 2550.44
   18:56:56.372.09-Sep-2020 5280.51  545.43 74.31 22.00 417.87 2550.44
   18:56:56.572.09-Sep-2020 5280.51  546.54 74.31 22.00 418.07 2550.44
   18:56:56.772.09-Sep-2020 5280.51  546.42 74.31 22.00 418.27 2550.44
   18:56:56.972.09-Sep-2020 5280.51  546.58 74.31 22.00 418.47 2550.44
   18:56:57.171.09-Sep-2020 5280.51  546.61 74.31 22.00 418.67 2550.44
   18:56:57.371.09-Sep-2020 5280.51  546.61 74.31 22.00 418.87 2550.44
   18:56:57.571.09-Sep-2020 5280.51  546.41 74.31 22.00 419.07 2550.44
   18:56:57.771.09-Sep-2020 5280.51  547.02 74.31 22.00 419.27 2550.44
   18:56:57.971.09-Sep-2020 5280.51  547.11 74.31 22.00 419.47 2550.44
   18:56:58.171.09-Sep-2020 5280.51  547.19 74.31 22.00 419.67 2550.44
   18:56:58.370.09-Sep-2020 5280.51  547.19 74.31 22.00 419.87 2550.44
   18:56:58.570.09-Sep-2020 5280.51  547.46 74.31 22.00 420.07 2550.44
   18:56:58.770.09-Sep-2020 5280.51  547.63 74.31 22.00 420.27 2550.44
   18:56:58.970.09-Sep-2020 5280.51  547.11 74.31 22.00 420.47 2550.44
   18:56:59.170.09-Sep-2020 5280.51  547.72 74.31 22.00 420.67 2550.44
   18:56:59.370.09-Sep-2020 5280.51  547.72 74.31 22.00 420.87 2550.44
   18:56:59.569.09-Sep-2020 5280.51  548.02 74.31 22.00 421.07 2550.44
   18:56:59.769.09-Sep-2020 5280.51  548.29 74.31 22.00 421.27 2550.44
   18:56:59.969.09-Sep-2020 5280.51  548.28 74.31 22.00 421.47 2550.44
   18:57:00.169.09-Sep-2020 5280.51  548.43 74.31 22.00 421.67 2550.44
   18:57:00.369.09-Sep-2020 5280.51  548.51 74.31 22.00 421.87 2550.44
   18:57:00.569.09-Sep-2020 5280.51  548.68 74.31 22.00 422.07 2550.44
   18:57:00.769.09-Sep-2020 5280.51  548.77 74.31 22.00 422.27 2550.44
   18:57:00.968.09-Sep-2020 5280.51  548.86 74.31 22.00 422.47 2550.44
   18:57:01.168.09-Sep-2020 5280.51  548.97 74.31 22.00 422.67 2550.44
   18:57:01.368.09-Sep-2020 5280.51  548.97 74.31 22.00 422.87 2550.44
   18:57:01.568.09-Sep-2020 5280.51  549.25 74.31 22.00 423.07 2550.44
   18:57:01.768.09-Sep-2020 5280.51  549.38 74.31 22.00 423.27 2550.44
   18:57:01.968.09-Sep-2020 5280.51  549.52 74.31 22.00 423.47 2550.44
   18:57:02.167.09-Sep-2020 5280.51  549.61 74.31 22.00 423.67 2550.44
   18:57:02.367.09-Sep-2020 5280.51  549.61 74.31 22.00 423.87 2550.44
   18:57:02.567.09-Sep-2020 5280.51  548.96 74.31 22.00 424.07 2550.44
   18:57:02.767.09-Sep-2020 5280.51  550.14 74.31 22.00 424.27 2550.44
   18:57:02.967.09-Sep-2020 5280.51  550.07 74.31 22.00 424.47 2550.44
   18:57:03.167.09-Sep-2020 5280.51  550.18 74.31 22.00 424.67 2550.44
   18:57:03.367.09-Sep-2020 5280.51  550.18 74.31 22.00 424.87 2550.44
   18:57:03.566.09-Sep-2020 5280.51  550.55 74.31 22.00 425.07 2550.44
   18:57:03.766.09-Sep-2020 5280.51  550.57 74.31 22.00 425.27 2550.44
   18:57:03.966.09-Sep-2020 5280.51  550.68 74.31 22.00 425.47 2550.44
   18:57:04.166.09-Sep-2020 5280.51  550.76 74.31 22.00 425.67 2550.44
   18:57:04.366.09-Sep-2020 5280.51  550.76 74.31 22.00 425.87 2550.44
   18:57:04.566.09-Sep-2020 5280.51  551.00 74.31 22.00 426.07 2550.44
   18:57:04.765.09-Sep-2020 5280.51  551.13 74.31 22.00 426.27 2550.44
   18:57:04.965.09-Sep-2020 5280.51  551.27 74.31 22.00 426.47 2550.44
   18:57:05.165.09-Sep-2020 5280.51  551.41 74.31 22.00 426.67 2550.44
   18:57:05.365.09-Sep-2020 5280.51  551.41 74.31 22.00 426.87 2550.44
   18:57:05.565.09-Sep-2020 5280.51  551.58 74.31 22.00 427.06 2550.44
   18:57:05.765.09-Sep-2020 5280.51  550.81 74.31 22.00 427.26 2550.44
   18:57:05.964.09-Sep-2020 5280.51  552.04 74.31 22.00 427.46 2550.44
   18:57:06.164.09-Sep-2020 5280.51  551.95 74.31 22.00 427.66 2550.44
   18:57:06.364.09-Sep-2020 5280.51  551.95 74.31 22.00 427.86 2550.44
   18:57:06.564.09-Sep-2020 5280.51  552.06 74.31 22.00 428.06 2550.44
   18:57:06.764.09-Sep-2020 5280.51  552.40 74.31 22.00 428.26 2550.44
   18:57:06.964.09-Sep-2020 5280.51  551.85 74.31 22.00 428.46 2550.44
   18:57:07.164.09-Sep-2020 5280.51  552.41 74.31 22.00 428.66 2550.44
   18:57:07.363.09-Sep-2020 5280.51  552.41 74.31 22.00 428.86 2550.44
