~Version Information
 VERS.                  2.0:   CWLS log ASCII Standard -VERSION 2.0
 WRAP.                   NO:   One line per depth step
~Well Information Block
#MNEM.UNIT     VALUE/NAME     DESCRIPTION
#---------     -----------    ---------------------------
 STRT.S             06:25:59 09-Sep-20: START TIME 06:25:59 09-Sep-20
 STOP.S             06:32:43 09-Sep-20: STOP TIME  06:32:43 09-Sep-20
 STEP.S                   0.00: STEP TIME
 NULL.                 -999.25: NULL VALUE
 MDS .        Operator Entered:  MAG DATA SOURCE
 PDAT.          Mean Sea Level:  PERMANENT DATUM
 DCON.         Sperry Drilling:  DIRECTNL CONTR
 RIG .              West Azeri:  RIG NAME
 WELL.           C40 (Slot 20):  WELL NAME
 SRVC.     Turan Drilling Engineering:  CONTRACTOR
 FLD .                     ACG:  FIELD NAME
 CTRY.              Azerbaijan:  COUNTRY NAME
 PROV.                    Baku:  PROVINCE
 STAT.                    Baku:  STATE NAME
 REGN.                   EESSA:  REGION
 BASE.              Azerbaijan:  LOGGING EQUIPMENT BASE LOCATION
 COMP.     BP Exploration (Caspian Sea) Ltd:  COMPANY
 WTYP.                Deviated:  WELL TYPE
 SON .        AZ-XX-0906344804:  JOB NUMBER
 FTOP.          Formation Tops:  FORM TOPS DESC
 ILTD.               Lithology:  INTERP LTH DESC
 SVYD.                  Survey:  SURVEY DESC
 DMOD.             Drill Model:  DRILL MOD DESC
 HPTY.       Minimum Curvature:  HOLE POS TYPE
 NREF.                    Grid:  NORTH REFERENCE
 SPUD.               01-Jan-20:  SPUD DATE
 DATE.      00.59.44 15-Sep-20:  END TIME
 STIM.      12.00.00 12-Jun-20:  START TIME
 DMF .             Drill Floor:  DRILL MEAS FROM
 DFST.                        :  DIST FSL TEXT
 DFWT.                        :  DIST FWL TEXT
 API .                        :  API NUMBER
 CNTY.                        :  COUNTY
 UWI .                        :  UNIQUE WELL IDENTIFIER
 LOC .                        :  LOCATION
 LMF .             Drill Floor:  LOG MEASURED FROM
 VSNS.m                   2.88:  VERT SEC N/S
 VSEW.m                  -3.84:  VERT SEC E/W
 AGAP.m                  43.42:  AIR GAP
 APD .m                  43.42:  DEPTH ABOVE PD
 WDMS.m                 118.27:  WD ELEV
 EGL .m                   0.00:  GROUND ELEVATION
 EPD .m                   0.00:  ELEVATION
 AZTC.deg                 6.23:  AZM TOTAL CORR
 GRDC.deg                 0.20:  GRID CORRECTION
 MDEC.deg                 6.43:  MAGNETIC DECL
 MDIP.deg                59.49:  MAGNETIC DIP
 MFLD.nT              50277.00:  MAGNETIC FIELD
 GVFD.g                   1.00:  GRAVITY FIELD
 VSDR.deg               173.20:  VERT SEC DIRECT
 TDD .m                5790.01:  TOTAL DEPTH (DRILLER)
 SDEP.m                5231.01:  START DEPTH
 DFSL.m                   0.00:  DISTANCE FSL
 DFWL.m                   0.00:  DISTANCE FWL
 UTMY.m             4435808.83:  UTM Y
 UTMX.m              526266.40:  UTM X
 WHEW.m                  -3.84:  WELL HEAD E/W
 WHNS.m                   2.88:  WELL HEAD N/S
 LONG.deg                51.31:  LONGITUDE
 LATI.deg                40.06:  LATITUDE
 TVDS.m                  43.42:  TVDSS CORRECTN
 DEP .m                 430.08:  DEPTH
 EKB .m                  43.42:  KB ELEVATION
 EDF .m                  43.42:  DF ELEVATION
 TDL .m                 559.00:  TOTAL DEPTH (LOGGER)
 MAGU.                 1849381:  MAGUTM CHECKSUM
 VSC .                       0:  VS TO CLOSURE
~Parameter Information Block
#MNEM.UNIT       Value        Description
#---------     -----------    ---------------------------
 AV  .mps                 4.87:  Ann Velocity 
 AVMX.mps                 7.08:  Max Ann Veloc 
 AZIF.deg               108.87:  Azm, Final 
 BHAT.                  Rotary:  BHA Type 
 BROT.°/30m               0.35:  Build Rotating 
 BS  .in                  8.50:  Bit Size 
 BSZ .in                  8.50:  Bit Size 
 BTPL.psig              360.00:  Bit Press Loss 
 CABU.                     Yes:  Customer Abuse 
 COMM.                     ìOW:  Run Comments 1 
 TCS .hr                106.24:  Time Ciculation Ended 
 CV  .mps                 1.77:  Crit Velocity 
 CVMX.mps                 2.03:  Max Crit Veloc 
 DD1 .         Aykhan Agagulov:  Direct Drillr 1 
 DD2 .            Nonso Okofor:  Direct Drillr 2 
 DDSV.               Geo-Pilot:  DD Service 
 DEFF.%                  98.00:  % Det Eff 
 DLRX.°/30m               0.50:  Dogleg Rot Max 
 DLSO.°/30m               0.40:  Dogleg Oriented 
 DLSX.°/30m               0.94:  Dogleg Str Max 
 DRET.      20.30.00 08-Sep-20:  Drill End Time 
 DRST.      22.15.00 06-Sep-20:  Drill Start Tim 
 DTIM.hr                 31.31:  Time Drilling 
 EDEP.m                5790.01:  End Depth 
 ENG1.           Amrah Tahirov:  Engineer 1 
 ENG2.         Dair Mahammadov:  Engineer 2 
 ENG3.           Emil Huseynov:  Engineer 3 
 ETIM.      04.01.04 12-Sep-20:  End Time 
 FLOI.gpm               450.00:  Flow In 
 FLON.gpm               450.00:  Flow In Min 
 FLOS.cptm                2.00:  Fluid Loss 
 FLOX.gpm               450.00:  Flow In Max 
 FTRO.       Formation Presure:  FTWD Run Obj 
 HFLO.                      No:  High Flow 
 HPRE.                      No:  High Pressure 
 HTEM.                      No:  High Temp 
 HYDO.m                   1.80:  Hydro Offset 
 IFIN.deg                72.03:  Inc, Final 
 IMAX.deg                73.72:  Inc Max 
 IMIN.deg                70.94:  Inc Min 
 IMND.m                5508.52:  Inc Min Depth 
 IMXD.m                5253.60:  Inc Max Depth 
 JARR.                      No:  Jarring 
 LETM.      20.30.00 08-Sep-20:  Log End Time 
 LOST.hr                     0:  Lost Rig Time 
 LSTM.      22.15.00 06-Sep-20:  Log Start Time 
 MDCL.ppm             36000.00:  Mud Chlorides 
 MDES.     Inversion Oil/Synthetic:  Mud Desc 
 DFD .sg                  1.44:  Mud Density 
 MDMN.sg                  1.44:  Dens Mud Min 
 MDMX.sg                  1.57:  Dens Mud Max 
 MOIL.                      70:  Run Mud Oil % 
 MOWR.                   70:30:  Run Mud OWR 
 MSND.                       0:  Run Mud Sand % 
 MSOL.                      21:  Run Mud Solids% 
 DFV .spqt               68.00:  Mud Viscosity 
 MWOD.in                  6.75:  MWD Tool OD 
 MWSI.                     Yes:  Serv Intrp, MWD 
 OTIM.hr                174.84:  Time Operating 
 PCON.           Look Like New:  Pad Condition 
 PMAX.psia            10616.93:  Press Op, Max 
 PV  .cP                 50.00:  Mud PV 
 RUN .                     700:  Run Number 
 ROPA.m/hr               14.24:  ROP Avg 
 ROPN.m/hr               10.00:  ROP Min 
 ROPX.m/hr               32.00:  ROP Max 
 RPMA.rpm               120.90:  RPM Surface Avg 
 RPMN.rpm               120.00:  RPM Surface Min 
 RPMX.rpm               140.00:  RPM Surface Max 
 RRUN.                    0700:  Rig Run Number 
 RTIM.hr                  3.20:  Time Reaming 
 SAZI.deg               109.99:  Azm, Start 
 SDEP.m                5231.01:  Start Depth 
 SIDD.                      No:  Serv Intrp, DD 
 SINC.deg                73.72:  Inc, Start 
 SPPA.psig             3051.00:  SPP Avg 
 SPPN.psig             2950.00:  SPP Min 
 SPPX.psig             3250.00:  SPP Max 
 STIM.      08.00.00 05-Sep-20:  Start Time 
 SVCS.                 DD, MWD:  Services 
 SVER.                    9.20:  Sperry Version 
 TDAT.m                 559.00:  Tot Depth Attmp 
 TDDF.                      No:  Trip for DD 
 TDLG.m                 559.00:  Tot Depth Loggd 
 TFF .                      No:  Trip for Fail 
 TQAA.f-kp               26.49:  Torque Abs Avg 
 TQAN.f-kp               25.00:  Torque Abs Min 
 TQAX.f-kp               27.00:  Torque Abs Max 
 TRRT.°/30m               1.50:  Turn Rotating 
 MRT .                    HCIM:  Maximum Recorded Temperature 
 TTMX.degC               90.20:  Max Tool Temp 
 VS01.                90542671:  Virtual Str1 SN 
 VS02.                90545185:  Virtual Str2 SN 
 VS03.                90602015:  Virtual Str3 SN 
 VS04.                90515230:  Virtual Str4 SN 
 WBMN.klb                 5.00:  WOB Min 
 WOBA.klb                14.79:  WOB Avg 
 WOBX.klb                20.00:  WOB Max 
 YP  .lhf2               29.00:  Yield Point 
~Curve Information Block
#MNEM.UNIT                 API CODE     Curve Description
#---------               -----------    ---------------------------
 TIME.HHMMSS            00 000 000 000:  GT Time & Date
 GTDEPTH.m              00 000 000 000:  GT Depth
 GTPQH.psia             00 000 000 000:  GT HR Quartz Pressure
 GTTQ.degC              00 000 000 000:  GT Quartz Temperature
 GTTN.NONE              00 000 000 000:  GT Test Number
 GTET.sec               00 000 000 000:  GT Elapsed Test Time
 GTTVD.m                00 000 000 000:  GT True Vertical Depth
#Other Information
#
#WARRANTY: Halliburton will use its best efforts to furnish customers with 
#accurate information and interpretations that are part of, and incident to, the services 
#provided.  However, Halliburton cannot and does not warrant the accuracy 
#or correctness of such information and interpretations.  Under no circumstances should any 
#such information or interpretation be relied upon as the sole basis for any drilling, 
#completion, production, or financial decision or any procedure involving any risk to the 
#safety of any drilling venture, drilling rig or its crew or any other third party.  The 
#Customer has full responsibility for all drilling, completion and production operation.  
#Halliburton makes no representations or warranties, either expressed or 
#implied, including, but not limited to, the implied warranties of merchantability or fitness 
#for a particular purpose, with respect to the services rendered.  In no event will 
#Halliburton be liable for failure to obtain any particular results or for 
#any damages, including, but not limited to, indirect, special or consequential damages, 
#resulting from the use of any information or interpretation provided by Halliburton.
#
~A           TIME           GTDEPTH  GTPQH  GTTQ  GTTN  GTET   GTTVD  
# ...
   06:29:49.000.09-Sep-2020 5602.01 1841.79 79.46 2.00 230.00 2651.01
   06:29:49.200.09-Sep-2020 5602.01 1841.79 79.46 2.00 230.20 2651.01
   06:29:49.400.09-Sep-2020 5602.01 1845.75 79.46 2.00 230.40 2651.01
   06:29:49.600.09-Sep-2020 5602.01 1848.51 79.46 2.00 230.60 2651.01
   06:29:49.800.09-Sep-2020 5602.01 1850.75 79.46 2.00 230.80 2651.01
   06:29:50.000.09-Sep-2020 5602.01 1852.81 79.46 2.00 231.00 2651.01
   06:29:50.200.09-Sep-2020 5602.01 1855.27 79.46 2.00 231.20 2651.01
   06:29:50.400.09-Sep-2020 5602.01 1857.40 79.46 2.00 231.40 2651.01
   06:29:50.600.09-Sep-2020 5602.01 1858.51 79.46 2.00 231.60 2651.01
   06:29:50.800.09-Sep-2020 5602.01 1860.87 79.46 2.00 231.80 2651.01
   06:29:51.000.09-Sep-2020 5602.01 1863.06 79.46 2.00 232.00 2651.01
   06:29:51.200.09-Sep-2020 5602.01 1863.06 79.46 2.00 232.20 2651.01
   06:29:51.400.09-Sep-2020 5602.01 1867.31 79.46 2.00 232.40 2651.01
   06:29:51.600.09-Sep-2020 5602.01 1869.70 79.46 2.00 232.60 2651.01
   06:29:51.800.09-Sep-2020 5602.01 1871.66 79.46 2.00 232.80 2651.01
   06:29:52.000.09-Sep-2020 5602.01 1873.90 79.46 2.00 233.00 2651.01
   06:29:52.200.09-Sep-2020 5602.01 1873.90 79.46 2.00 233.20 2651.01
   06:29:52.400.09-Sep-2020 5602.01 1878.04 79.46 2.00 233.40 2651.01
   06:29:52.600.09-Sep-2020 5602.01 1880.22 79.46 2.00 233.60 2651.01
   06:29:52.800.09-Sep-2020 5602.01 1882.27 79.46 2.00 233.80 2651.01
   06:29:53.000.09-Sep-2020 5602.01 1884.31 79.46 2.00 234.00 2651.01
   06:29:53.200.09-Sep-2020 5602.01 1884.31 79.46 2.00 234.20 2651.01
   06:29:53.400.09-Sep-2020 5602.01 1888.45 79.46 2.00 234.40 2651.01
   06:29:53.600.09-Sep-2020 5602.01 1890.53 79.46 2.00 234.60 2651.01
   06:29:53.800.09-Sep-2020 5602.01 1892.60 79.46 2.00 234.80 2651.01
   06:29:54.000.09-Sep-2020 5602.01 1894.65 79.46 2.00 235.00 2651.01
   06:29:54.200.09-Sep-2020 5602.01 1896.06 79.46 2.00 235.20 2651.01
   06:29:54.400.09-Sep-2020 5602.01 1898.39 79.46 2.00 235.40 2651.01
   06:29:54.600.09-Sep-2020 5602.01 1900.81 79.46 2.00 235.60 2651.01
   06:29:54.800.09-Sep-2020 5602.01 1902.83 79.46 2.00 235.80 2651.01
   06:29:55.000.09-Sep-2020 5602.01 1904.71 79.46 2.00 236.00 2651.01
   06:29:55.200.09-Sep-2020 5602.01 1904.71 79.46 2.00 236.20 2651.01
   06:29:55.400.09-Sep-2020 5602.01 1907.95 79.46 2.00 236.40 2651.01
   06:29:55.600.09-Sep-2020 5602.01 1909.77 79.46 2.00 236.60 2651.01
   06:29:55.800.09-Sep-2020 5602.01 1911.79 79.46 2.00 236.80 2651.01
   06:29:56.000.09-Sep-2020 5602.01 1913.87 79.46 2.00 237.00 2651.01
   06:29:56.200.09-Sep-2020 5602.01 1913.87 79.46 2.00 237.20 2651.01
   06:29:56.400.09-Sep-2020 5602.01 1917.99 79.46 2.00 237.40 2651.01
   06:29:56.600.09-Sep-2020 5602.01 1920.04 79.46 2.00 237.60 2651.01
   06:29:56.800.09-Sep-2020 5602.01 1922.10 79.46 2.00 237.80 2651.01
   06:29:57.000.09-Sep-2020 5602.01 1924.16 79.46 2.00 238.00 2651.01
   06:29:57.200.09-Sep-2020 5602.01 1924.16 79.46 2.00 238.20 2651.01
   06:29:57.400.09-Sep-2020 5602.01 1928.13 79.46 2.00 238.40 2651.01
   06:29:57.600.09-Sep-2020 5602.01 1929.24 79.46 2.00 238.60 2651.01
   06:29:57.800.09-Sep-2020 5602.01 1932.16 79.46 2.00 238.80 2651.01
   06:29:58.000.09-Sep-2020 5602.01 1934.31 79.46 2.00 239.00 2651.01
   06:29:58.200.09-Sep-2020 5602.01 1936.40 79.46 2.00 239.20 2651.01
   06:29:58.400.09-Sep-2020 5602.01 1938.26 79.46 2.00 239.40 2651.01
   06:29:58.600.09-Sep-2020 5602.01 1940.51 79.46 2.00 239.60 2651.01
   06:29:58.800.09-Sep-2020 5602.01 1941.88 79.46 2.00 239.80 2651.01
   06:29:59.000.09-Sep-2020 5602.01 1944.49 79.46 2.00 240.00 2651.01
   06:29:59.200.09-Sep-2020 5602.01 1944.49 79.46 2.00 240.20 2651.01
   06:29:59.400.09-Sep-2020 5602.01 1948.58 79.46 2.00 240.40 2651.01
   06:29:59.600.09-Sep-2020 5602.01 1950.60 79.46 2.00 240.60 2651.01
   06:29:59.800.09-Sep-2020 5602.01 1951.71 79.46 2.00 240.80 2651.01
   06:30:00.000.09-Sep-2020 5602.01 1953.76 79.46 2.00 241.00 2651.01
   06:30:00.200.09-Sep-2020 5602.01 1953.76 79.46 2.00 241.20 2651.01
   06:30:00.400.09-Sep-2020 5602.01 1958.13 79.46 2.00 241.40 2651.01
   06:30:00.600.09-Sep-2020 5602.01 1959.98 79.46 2.00 241.60 2651.01
   06:30:00.800.09-Sep-2020 5602.01 1962.48 79.46 2.00 241.80 2651.01
   06:30:01.000.09-Sep-2020 5602.01 1964.65 79.46 2.00 242.00 2651.01
   06:30:01.200.09-Sep-2020 5602.01 1964.65 79.46 2.00 242.20 2651.01
   06:30:01.400.09-Sep-2020 5602.01 1968.97 79.46 2.00 242.40 2651.01
   06:30:01.600.09-Sep-2020 5602.01 1970.98 79.46 2.00 242.60 2651.01
   06:30:01.800.09-Sep-2020 5602.01 1972.11 79.46 2.00 242.80 2651.01
   06:30:02.000.09-Sep-2020 5602.01 1975.21 79.46 2.00 243.00 2651.01
   06:30:02.200.09-Sep-2020 5602.01 1975.21 79.46 2.00 243.20 2651.01
   06:30:02.400.09-Sep-2020 5602.01 1979.37 79.46 2.00 243.40 2651.01
   06:30:02.600.09-Sep-2020 5602.01 1981.22 79.46 2.00 243.60 2651.01
   06:30:02.800.09-Sep-2020 5602.01 1983.51 79.46 2.00 243.80 2651.01
   06:30:03.000.09-Sep-2020 5602.01 1985.38 79.46 2.00 244.00 2651.01
   06:30:03.200.09-Sep-2020 5602.01 1985.38 79.46 2.00 244.20 2651.01
   06:30:03.400.09-Sep-2020 5602.01 1989.28 79.46 2.00 244.40 2651.01
   06:30:03.600.09-Sep-2020 5602.01 1990.12 79.46 2.00 244.60 2651.01
   06:30:03.800.09-Sep-2020 5602.01 1991.42 79.46 2.00 244.80 2651.01
   06:30:04.000.09-Sep-2020 5602.01 1993.32 79.46 2.00 245.00 2651.01
   06:30:04.200.09-Sep-2020 5602.01 1993.32 79.46 2.00 245.20 2651.01
   06:30:04.400.09-Sep-2020 5602.01 1997.19 79.46 2.00 245.40 2651.01
   06:30:04.600.09-Sep-2020 5602.01 1999.13 79.46 2.00 245.60 2651.01
   06:30:04.800.09-Sep-2020 5602.01 2000.98 79.46 2.00 245.80 2651.01
   06:30:05.000.09-Sep-2020 5602.01 2002.85 79.46 2.00 246.00 2651.01
   06:30:05.200.09-Sep-2020 5602.01 2002.85 79.46 2.00 246.20 2651.01
   06:30:05.400.09-Sep-2020 5602.01 2006.06 79.46 2.00 246.40 2651.01
   06:30:05.600.09-Sep-2020 5602.01 2008.30 79.46 2.00 246.60 2651.01
   06:30:05.800.09-Sep-2020 5602.01 2010.67 79.46 2.00 246.80 2651.01
   06:30:06.000.09-Sep-2020 5602.01 2012.61 79.46 2.00 247.00 2651.01
   06:30:06.200.09-Sep-2020 5602.01 2014.36 79.46 2.00 247.20 2651.01
   06:30:06.400.09-Sep-2020 5602.01 2016.45 79.46 2.00 247.40 2651.01
   06:30:06.600.09-Sep-2020 5602.01 2018.27 79.46 2.00 247.60 2651.01
   06:30:06.800.09-Sep-2020 5602.01 2020.24 79.46 2.00 247.80 2651.01
   06:30:07.000.09-Sep-2020 5602.01 2022.06 79.46 2.00 248.00 2651.01
   06:30:07.200.09-Sep-2020 5602.01 2022.06 79.46 2.00 248.20 2651.01
   06:30:07.400.09-Sep-2020 5602.01 2025.81 79.46 2.00 248.40 2651.01
   06:30:07.600.09-Sep-2020 5602.01 2027.67 79.46 2.00 248.60 2651.01
   06:30:07.800.09-Sep-2020 5602.01 2029.51 79.46 2.00 248.80 2651.01
   06:30:08.000.09-Sep-2020 5602.01 2031.24 79.46 2.00 249.00 2651.01
   06:30:08.200.09-Sep-2020 5602.01 2031.24 79.46 2.00 249.20 2651.01
   06:30:08.400.09-Sep-2020 5602.01 2034.47 79.46 2.00 249.40 2651.01
   06:30:08.600.09-Sep-2020 5602.01 2036.03 79.46 2.00 249.60 2651.01
   06:30:08.800.09-Sep-2020 5602.01 2036.89 79.46 2.00 249.80 2651.01
   06:30:09.000.09-Sep-2020 5602.01 2039.64 79.46 2.00 250.00 2651.01
   06:30:09.200.09-Sep-2020 5602.01 2039.64 79.46 2.00 250.20 2651.01
   06:30:09.400.09-Sep-2020 5602.01 2043.40 79.46 2.00 250.40 2651.01
   06:30:09.600.09-Sep-2020 5602.01 2045.07 79.46 2.00 250.60 2651.01
   06:30:09.800.09-Sep-2020 5602.01 2047.21 79.46 2.00 250.80 2651.01
   06:30:10.000.09-Sep-2020 5602.01 2048.35 79.46 2.00 251.00 2651.01
   06:30:10.200.09-Sep-2020 5602.01 2051.30 79.46 2.00 251.20 2651.01
   06:30:10.400.09-Sep-2020 5602.01 2053.53 79.46 2.00 251.40 2651.01
   06:30:10.600.09-Sep-2020 5602.01 2055.45 79.46 2.00 251.60 2651.01
   06:30:10.800.09-Sep-2020 5602.01 2057.50 79.46 2.00 251.80 2651.01
   06:30:11.000.09-Sep-2020 5602.01 2059.40 79.46 2.00 252.00 2651.01
   06:30:11.200.09-Sep-2020 5602.01 2059.40 79.46 2.00 252.20 2651.01
   06:30:11.400.09-Sep-2020 5602.01 2062.05 79.46 2.00 252.40 2651.01
   06:30:11.600.09-Sep-2020 5602.01 2064.04 79.46 2.00 252.60 2651.01
   06:30:11.800.09-Sep-2020 5602.01 2065.85 79.46 2.00 252.80 2651.01
