~Version Information
 VERS.                  2.0:   CWLS log ASCII Standard -VERSION 2.0
 WRAP.                   NO:   One line per depth step
~Well Information Block
#MNEM.UNIT     VALUE/NAME     DESCRIPTION
#---------     -----------    ---------------------------
 STRT.S             14:18:02 09-Sep-20: START TIME 14:18:02 09-Sep-20
 STOP.S             14:26:13 09-Sep-20: STOP TIME  14:26:13 09-Sep-20
 STEP.S                   0.00: STEP TIME
 NULL.                 -999.25: NULL VALUE
 MDS .        Operator Entered:  MAG DATA SOURCE
 PDAT.          Mean Sea Level:  PERMANENT DATUM
 DCON.         Sperry Drilling:  DIRECTNL CONTR
 RIG .              West Azeri:  RIG NAME
 WELL.           C40 (Slot 20):  WELL NAME
 SRVC.     Turan Drilling Engineering:  CONTRACTOR
 FLD .                     ACG:  FIELD NAME
 CTRY.              Azerbaijan:  COUNTRY NAME
 PROV.                    Baku:  PROVINCE
 STAT.                    Baku:  STATE NAME
 REGN.                   EESSA:  REGION
 BASE.              Azerbaijan:  LOGGING EQUIPMENT BASE LOCATION
 COMP.     BP Exploration (Caspian Sea) Ltd:  COMPANY
 WTYP.                Deviated:  WELL TYPE
 SON .        AZ-XX-0906344804:  JOB NUMBER
 FTOP.          Formation Tops:  FORM TOPS DESC
 ILTD.               Lithology:  INTERP LTH DESC
 SVYD.                  Survey:  SURVEY DESC
 DMOD.             Drill Model:  DRILL MOD DESC
 HPTY.       Minimum Curvature:  HOLE POS TYPE
 NREF.                    Grid:  NORTH REFERENCE
 SPUD.               01-Jan-20:  SPUD DATE
 DATE.      00.59.44 15-Sep-20:  END TIME
 STIM.      12.00.00 12-Jun-20:  START TIME
 DMF .             Drill Floor:  DRILL MEAS FROM
 DFST.                        :  DIST FSL TEXT
 DFWT.                        :  DIST FWL TEXT
 API .                        :  API NUMBER
 CNTY.                        :  COUNTY
 UWI .                        :  UNIQUE WELL IDENTIFIER
 LOC .                        :  LOCATION
 LMF .             Drill Floor:  LOG MEASURED FROM
 VSNS.m                   2.88:  VERT SEC N/S
 VSEW.m                  -3.84:  VERT SEC E/W
 AGAP.m                  43.42:  AIR GAP
 APD .m                  43.42:  DEPTH ABOVE PD
 WDMS.m                 118.27:  WD ELEV
 EGL .m                   0.00:  GROUND ELEVATION
 EPD .m                   0.00:  ELEVATION
 AZTC.deg                 6.23:  AZM TOTAL CORR
 GRDC.deg                 0.20:  GRID CORRECTION
 MDEC.deg                 6.43:  MAGNETIC DECL
 MDIP.deg                59.49:  MAGNETIC DIP
 MFLD.nT              50277.00:  MAGNETIC FIELD
 GVFD.g                   1.00:  GRAVITY FIELD
 VSDR.deg               173.20:  VERT SEC DIRECT
 TDD .m                5790.01:  TOTAL DEPTH (DRILLER)
 SDEP.m                5231.01:  START DEPTH
 DFSL.m                   0.00:  DISTANCE FSL
 DFWL.m                   0.00:  DISTANCE FWL
 UTMY.m             4435808.83:  UTM Y
 UTMX.m              526266.40:  UTM X
 WHEW.m                  -3.84:  WELL HEAD E/W
 WHNS.m                   2.88:  WELL HEAD N/S
 LONG.deg                51.31:  LONGITUDE
 LATI.deg                40.06:  LATITUDE
 TVDS.m                  43.42:  TVDSS CORRECTN
 DEP .m                 430.08:  DEPTH
 EKB .m                  43.42:  KB ELEVATION
 EDF .m                  43.42:  DF ELEVATION
 TDL .m                 559.00:  TOTAL DEPTH (LOGGER)
 MAGU.                 1849381:  MAGUTM CHECKSUM
 VSC .                       0:  VS TO CLOSURE
~Parameter Information Block
#MNEM.UNIT       Value        Description
#---------     -----------    ---------------------------
 AV  .mps                 4.87:  Ann Velocity 
 AVMX.mps                 7.08:  Max Ann Veloc 
 AZIF.deg               108.87:  Azm, Final 
 BHAT.                  Rotary:  BHA Type 
 BROT.°/30m               0.35:  Build Rotating 
 BS  .in                  8.50:  Bit Size 
 BSZ .in                  8.50:  Bit Size 
 BTPL.psig              360.00:  Bit Press Loss 
 CABU.                     Yes:  Customer Abuse 
 TCS .hr                106.24:  Time Ciculation Ended 
 CV  .mps                 1.77:  Crit Velocity 
 CVMX.mps                 2.03:  Max Crit Veloc 
 DD1 .         Aykhan Agagulov:  Direct Drillr 1 
 DD2 .            Nonso Okofor:  Direct Drillr 2 
 DDSV.               Geo-Pilot:  DD Service 
 DEFF.%                  98.00:  % Det Eff 
 DLRX.°/30m               0.50:  Dogleg Rot Max 
 DLSO.°/30m               0.40:  Dogleg Oriented 
 DLSX.°/30m               0.94:  Dogleg Str Max 
 DRET.      20.30.00 08-Sep-20:  Drill End Time 
 DRST.      22.15.00 06-Sep-20:  Drill Start Tim 
 DTIM.hr                 31.31:  Time Drilling 
 EDEP.m                5790.01:  End Depth 
 ENG1.           Amrah Tahirov:  Engineer 1 
 ENG2.         Dair Mahammadov:  Engineer 2 
 ENG3.           Emil Huseynov:  Engineer 3 
 ETIM.      04.01.04 12-Sep-20:  End Time 
 FLOI.gpm               450.00:  Flow In 
 FLON.gpm               450.00:  Flow In Min 
 FLOS.cptm                2.00:  Fluid Loss 
 FLOX.gpm               450.00:  Flow In Max 
 FTRO.       Formation Presure:  FTWD Run Obj 
 HFLO.                      No:  High Flow 
 HPRE.                      No:  High Pressure 
 HTEM.                      No:  High Temp 
 HYDO.m                   1.80:  Hydro Offset 
 IFIN.deg                72.03:  Inc, Final 
 IMAX.deg                73.72:  Inc Max 
 IMIN.deg                70.94:  Inc Min 
 IMND.m                5508.52:  Inc Min Depth 
 IMXD.m                5253.60:  Inc Max Depth 
 JARR.                      No:  Jarring 
 LETM.      20.30.00 08-Sep-20:  Log End Time 
 LOST.hr                     0:  Lost Rig Time 
 LSTM.      22.15.00 06-Sep-20:  Log Start Time 
 MDCL.ppm             36000.00:  Mud Chlorides 
 MDES.     Inversion Oil/Synthetic:  Mud Desc 
 DFD .sg                  1.44:  Mud Density 
 MDMN.sg                  1.44:  Dens Mud Min 
 MDMX.sg                  1.57:  Dens Mud Max 
 MOIL.                      70:  Run Mud Oil % 
 MOWR.                   70:30:  Run Mud OWR 
 MSND.                       0:  Run Mud Sand % 
 MSOL.                      21:  Run Mud Solids% 
 DFV .spqt               68.00:  Mud Viscosity 
 MWOD.in                  6.75:  MWD Tool OD 
 MWSI.                     Yes:  Serv Intrp, MWD 
 OTIM.hr                174.84:  Time Operating 
 PCON.           Look Like New:  Pad Condition 
 PMAX.psia            10616.93:  Press Op, Max 
 PV  .cP                 50.00:  Mud PV 
 RUN .                     700:  Run Number 
 ROPA.m/hr               14.24:  ROP Avg 
 ROPN.m/hr               10.00:  ROP Min 
 ROPX.m/hr               32.00:  ROP Max 
 RPMA.rpm               120.90:  RPM Surface Avg 
 RPMN.rpm               120.00:  RPM Surface Min 
 RPMX.rpm               140.00:  RPM Surface Max 
 RRUN.                    0700:  Rig Run Number 
 RTIM.hr                  3.20:  Time Reaming 
 SAZI.deg               109.99:  Azm, Start 
 SDEP.m                5231.01:  Start Depth 
 SIDD.                      No:  Serv Intrp, DD 
 SINC.deg                73.72:  Inc, Start 
 SPPA.psig             3051.00:  SPP Avg 
 SPPN.psig             2950.00:  SPP Min 
 SPPX.psig             3250.00:  SPP Max 
 STIM.      08.00.00 05-Sep-20:  Start Time 
 SVCS.                 DD, MWD:  Services 
 SVER.                    9.20:  Sperry Version 
 TDAT.m                 559.00:  Tot Depth Attmp 
 TDDF.                      No:  Trip for DD 
 TDLG.m                 559.00:  Tot Depth Loggd 
 TFF .                      No:  Trip for Fail 
 TQAA.f-kp               26.49:  Torque Abs Avg 
 TQAN.f-kp               25.00:  Torque Abs Min 
 TQAX.f-kp               27.00:  Torque Abs Max 
 TRRT.°/30m               1.50:  Turn Rotating 
 MRT .                    HCIM:  Maximum Recorded Temperature 
 TTMX.degC               90.20:  Max Tool Temp 
 VS01.                90542671:  Virtual Str1 SN 
 VS02.                90545185:  Virtual Str2 SN 
 VS03.                90602015:  Virtual Str3 SN 
 VS04.                90515230:  Virtual Str4 SN 
 WBMN.klb                 5.00:  WOB Min 
 WOBA.klb                14.79:  WOB Avg 
 WOBX.klb                20.00:  WOB Max 
 YP  .lhf2               29.00:  Yield Point 
~Curve Information Block
#MNEM.UNIT                 API CODE     Curve Description
#---------               -----------    ---------------------------
 TIME.HHMMSS            00 000 000 000:  GT Time & Date
 GTDEPTH.m              00 000 000 000:  GT Depth
 GTPQH.psia             00 000 000 000:  GT HR Quartz Pressure
 GTTQ.degC              00 000 000 000:  GT Quartz Temperature
 GTTN.NONE              00 000 000 000:  GT Test Number
 GTET.sec               00 000 000 000:  GT Elapsed Test Time
 GTTVD.m                00 000 000 000:  GT True Vertical Depth
#Other Information
#
#WARRANTY: Halliburton will use its best efforts to furnish customers with 
#accurate information and interpretations that are part of, and incident to, the services 
#provided.  However, Halliburton cannot and does not warrant the accuracy 
#or correctness of such information and interpretations.  Under no circumstances should any 
#such information or interpretation be relied upon as the sole basis for any drilling, 
#completion, production, or financial decision or any procedure involving any risk to the 
#safety of any drilling venture, drilling rig or its crew or any other third party.  The 
#Customer has full responsibility for all drilling, completion and production operation.  
#Halliburton makes no representations or warranties, either expressed or 
#implied, including, but not limited to, the implied warranties of merchantability or fitness 
#for a particular purpose, with respect to the services rendered.  In no event will 
#Halliburton be liable for failure to obtain any particular results or for 
#any damages, including, but not limited to, indirect, special or consequential damages, 
#resulting from the use of any information or interpretation provided by Halliburton.
#
~A           TIME           GTDEPTH  GTPQH  GTTQ  GTTN   GTET   GTTVD  
# ...
   14:22:10.973.09-Sep-2020 5408.01  682.31 75.20 16.00 248.75 2589.60
   14:22:11.173.09-Sep-2020 5408.01  682.48 75.20 16.00 248.95 2589.60
   14:22:11.373.09-Sep-2020 5408.01  683.04 75.20 16.00 249.15 2589.60
   14:22:11.573.09-Sep-2020 5408.01  683.04 75.20 16.00 249.35 2589.60
   14:22:11.773.09-Sep-2020 5408.01  683.26 75.20 16.00 249.55 2589.60
   14:22:11.973.09-Sep-2020 5408.01  683.58 75.20 16.00 249.75 2589.60
   14:22:12.173.09-Sep-2020 5408.01  683.78 75.20 16.00 249.95 2589.60
   14:22:12.373.09-Sep-2020 5408.01  683.81 75.20 16.00 250.15 2589.60
   14:22:12.574.09-Sep-2020 5408.01  683.81 75.20 16.00 250.35 2589.60
   14:22:12.774.09-Sep-2020 5408.01  684.44 75.20 16.00 250.55 2589.60
   14:22:12.974.09-Sep-2020 5408.01  684.09 75.20 16.00 250.75 2589.60
   14:22:13.174.09-Sep-2020 5408.01  684.67 75.20 16.00 250.95 2589.60
   14:22:13.374.09-Sep-2020 5408.01  684.98 75.20 16.00 251.15 2589.60
   14:22:13.574.09-Sep-2020 5408.01  684.98 75.20 16.00 251.35 2589.60
   14:22:13.774.09-Sep-2020 5408.01  685.69 75.20 16.00 251.55 2589.60
   14:22:13.974.09-Sep-2020 5408.01  685.58 75.20 16.00 251.75 2589.60
   14:22:14.175.09-Sep-2020 5408.01  685.38 75.20 16.00 251.95 2589.60
   14:22:14.375.09-Sep-2020 5408.01  686.28 75.20 16.00 252.15 2589.60
   14:22:14.575.09-Sep-2020 5408.01  686.38 75.20 16.00 252.35 2589.60
   14:22:14.775.09-Sep-2020 5408.01  686.54 75.20 16.00 252.55 2589.60
   14:22:14.975.09-Sep-2020 5408.01  687.12 75.20 16.00 252.75 2589.60
   14:22:15.175.09-Sep-2020 5408.01  687.09 75.20 16.00 252.95 2589.60
   14:22:15.375.09-Sep-2020 5408.01  687.29 75.20 16.00 253.15 2589.60
   14:22:15.575.09-Sep-2020 5408.01  687.29 75.20 16.00 253.35 2589.60
   14:22:15.776.09-Sep-2020 5408.01  687.90 75.20 16.00 253.55 2589.60
   14:22:15.976.09-Sep-2020 5408.01  688.16 75.20 16.00 253.76 2589.60
   14:22:16.176.09-Sep-2020 5408.01  688.29 75.20 16.00 253.96 2589.60
   14:22:16.376.09-Sep-2020 5408.01  688.34 75.20 16.00 254.16 2589.60
   14:22:16.576.09-Sep-2020 5408.01  688.34 75.20 16.00 254.36 2589.60
   14:22:16.776.09-Sep-2020 5408.01  688.95 75.20 16.00 254.56 2589.60
   14:22:16.976.09-Sep-2020 5408.01  689.15 75.20 16.00 254.76 2589.60
   14:22:17.176.09-Sep-2020 5408.01  689.33 75.20 16.00 254.96 2589.60
   14:22:17.377.09-Sep-2020 5408.01  689.53 75.20 16.00 255.16 2589.60
   14:22:17.577.09-Sep-2020 5408.01  689.53 75.20 16.00 255.36 2589.60
   14:22:17.777.09-Sep-2020 5408.01  689.87 75.20 16.00 255.56 2589.60
   14:22:17.977.09-Sep-2020 5408.01  690.10 75.20 16.00 255.76 2589.60
   14:22:18.177.09-Sep-2020 5408.01  690.35 75.20 16.00 255.96 2589.60
   14:22:18.377.09-Sep-2020 5408.01  690.58 75.20 16.00 256.16 2589.60
   14:22:18.577.09-Sep-2020 5408.01  690.76 75.20 16.00 256.36 2589.60
   14:22:18.777.09-Sep-2020 5408.01  690.94 75.20 16.00 256.56 2589.60
   14:22:18.977.09-Sep-2020 5408.01  691.13 75.20 16.00 256.76 2589.60
   14:22:19.178.09-Sep-2020 5408.01  691.25 75.20 16.00 256.96 2589.60
   14:22:19.378.09-Sep-2020 5408.01  691.04 75.20 16.00 257.16 2589.60
   14:22:19.578.09-Sep-2020 5408.01  691.04 75.20 16.00 257.36 2589.60
   14:22:19.778.09-Sep-2020 5408.01  691.97 75.20 16.00 257.56 2589.60
   14:22:19.978.09-Sep-2020 5408.01  692.14 75.20 16.00 257.76 2589.60
   14:22:20.178.09-Sep-2020 5408.01  692.61 75.20 16.00 257.96 2589.60
   14:22:20.378.09-Sep-2020 5408.01  692.56 75.20 16.00 258.16 2589.60
   14:22:20.578.09-Sep-2020 5408.01  692.56 75.20 16.00 258.36 2589.60
   14:22:20.779.09-Sep-2020 5408.01  692.92 75.20 16.00 258.56 2589.60
   14:22:20.979.09-Sep-2020 5408.01  693.17 75.20 16.00 258.76 2589.60
   14:22:21.179.09-Sep-2020 5408.01  693.39 75.20 16.00 258.96 2589.60
   14:22:21.379.09-Sep-2020 5408.01  693.55 75.20 16.00 259.16 2589.60
   14:22:21.579.09-Sep-2020 5408.01  693.55 75.20 16.00 259.36 2589.60
   14:22:21.779.09-Sep-2020 5408.01  693.88 75.20 16.00 259.56 2589.60
   14:22:21.979.09-Sep-2020 5408.01  694.09 75.20 16.00 259.76 2589.60
   14:22:22.179.09-Sep-2020 5408.01  694.27 75.20 16.00 259.96 2589.60
   14:22:22.380.09-Sep-2020 5408.01  694.41 75.20 16.00 260.16 2589.60
   14:22:22.580.09-Sep-2020 5408.01  694.16 75.20 16.00 260.36 2589.60
   14:22:22.780.09-Sep-2020 5408.01  695.02 75.20 16.00 260.56 2589.60
   14:22:22.980.09-Sep-2020 5408.01  695.06 75.20 16.00 260.76 2589.60
   14:22:23.180.09-Sep-2020 5408.01  695.16 75.20 16.00 260.96 2589.60
   14:22:23.380.09-Sep-2020 5408.01  695.68 75.20 16.00 261.16 2589.60
   14:22:23.580.09-Sep-2020 5408.01  695.68 75.20 16.00 261.36 2589.60
   14:22:23.780.09-Sep-2020 5408.01  695.97 75.20 16.00 261.56 2589.60
   14:22:23.981.09-Sep-2020 5408.01  696.28 75.20 16.00 261.76 2589.60
   14:22:24.181.09-Sep-2020 5408.01  696.42 75.20 16.00 261.96 2589.60
   14:22:24.381.09-Sep-2020 5408.01  696.40 75.20 16.00 262.16 2589.60
   14:22:24.581.09-Sep-2020 5408.01  696.40 75.20 16.00 262.36 2589.60
   14:22:24.781.09-Sep-2020 5408.01  696.99 75.20 16.00 262.56 2589.60
   14:22:24.981.09-Sep-2020 5408.01  697.15 75.20 16.00 262.76 2589.60
   14:22:25.181.09-Sep-2020 5408.01  696.39 75.20 16.00 262.96 2589.60
   14:22:25.381.09-Sep-2020 5408.01  697.71 75.20 16.00 263.16 2589.60
   14:22:25.582.09-Sep-2020 5408.01  697.71 75.20 16.00 263.36 2589.60
   14:22:25.782.09-Sep-2020 5408.01  698.05 75.20 16.00 263.56 2589.60
   14:22:25.982.09-Sep-2020 5408.01  697.31 75.20 16.00 263.76 2589.60
   14:22:26.182.09-Sep-2020 5408.01  698.49 75.20 16.00 263.96 2589.60
   14:22:26.382.09-Sep-2020 5408.01  698.76 75.20 16.00 264.16 2589.60
   14:22:26.582.09-Sep-2020 5408.01  698.76 75.20 16.00 264.36 2589.60
   14:22:26.782.09-Sep-2020 5408.01  698.87 75.20 16.00 264.56 2589.60
   14:22:26.982.09-Sep-2020 5408.01  699.42 75.20 16.00 264.76 2589.60
   14:22:27.183.09-Sep-2020 5408.01  698.98 75.20 16.00 264.96 2589.60
   14:22:27.383.09-Sep-2020 5408.01  699.59 75.20 16.00 265.16 2589.60
   14:22:27.583.09-Sep-2020 5408.01  699.59 75.20 16.00 265.36 2589.60
   14:22:27.783.09-Sep-2020 5408.01  700.12 75.20 16.00 265.56 2589.60
   14:22:27.983.09-Sep-2020 5408.01  700.57 75.20 16.00 265.76 2589.60
   14:22:28.183.09-Sep-2020 5408.01  700.55 75.20 16.00 265.96 2589.60
   14:22:28.383.09-Sep-2020 5408.01  700.69 75.20 16.00 266.16 2589.60
   14:22:28.583.09-Sep-2020 5408.01  700.69 75.20 16.00 266.36 2589.60
   14:22:28.783.09-Sep-2020 5408.01  701.18 75.20 16.00 266.56 2589.60
   14:22:28.984.09-Sep-2020 5408.01  701.30 75.20 16.00 266.76 2589.60
   14:22:29.184.09-Sep-2020 5408.01  701.50 75.20 16.00 266.96 2589.60
   14:22:29.384.09-Sep-2020 5408.01  701.64 75.20 16.00 267.16 2589.60
   14:22:29.584.09-Sep-2020 5408.01  701.64 75.20 16.00 267.36 2589.60
   14:22:29.784.09-Sep-2020 5408.01  701.98 75.20 16.00 267.56 2589.60
   14:22:29.984.09-Sep-2020 5408.01  702.21 75.20 16.00 267.76 2589.60
   14:22:30.184.09-Sep-2020 5408.01  702.44 75.20 16.00 267.96 2589.60
   14:22:30.384.09-Sep-2020 5408.01  702.66 75.20 16.00 268.16 2589.60
   14:22:30.585.09-Sep-2020 5408.01  702.84 75.20 16.00 268.36 2589.60
   14:22:30.785.09-Sep-2020 5408.01  702.09 75.20 16.00 268.56 2589.60
   14:22:30.985.09-Sep-2020 5408.01  703.35 75.20 16.00 268.76 2589.60
   14:22:31.185.09-Sep-2020 5408.01  703.43 75.20 16.00 268.96 2589.60
   14:22:31.385.09-Sep-2020 5408.01  703.74 75.20 16.00 269.16 2589.60
   14:22:31.585.09-Sep-2020 5408.01  703.74 75.20 16.00 269.36 2589.60
   14:22:31.785.09-Sep-2020 5408.01  704.09 75.20 16.00 269.56 2589.60
   14:22:31.985.09-Sep-2020 5408.01  704.18 75.20 16.00 269.76 2589.60
   14:22:32.186.09-Sep-2020 5408.01  704.41 75.20 16.00 269.96 2589.60
   14:22:32.386.09-Sep-2020 5408.01  704.52 75.20 16.00 270.17 2589.60
   14:22:32.586.09-Sep-2020 5408.01  704.52 75.20 16.00 270.37 2589.60
   14:22:32.786.09-Sep-2020 5408.01  704.83 75.20 16.00 270.57 2589.60
   14:22:32.986.09-Sep-2020 5408.01  705.06 75.20 16.00 270.77 2589.60
   14:22:33.186.09-Sep-2020 5408.01  705.24 75.20 16.00 270.97 2589.60
   14:22:33.386.09-Sep-2020 5408.01  705.42 75.20 16.00 271.17 2589.60
