~Version Information
 VERS.                  2.0:   CWLS log ASCII Standard -VERSION 2.0
 WRAP.                   NO:   One line per depth step
~Well Information Block
#MNEM.UNIT     VALUE/NAME     DESCRIPTION
#---------     -----------    ---------------------------
 STRT.S             12:11:10 09-Sep-20: START TIME 12:11:10 09-Sep-20
 STOP.S             12:17:44 09-Sep-20: STOP TIME  12:17:44 09-Sep-20
 STEP.S                   0.00: STEP TIME
 NULL.                 -999.25: NULL VALUE
 MDS .        Operator Entered:  MAG DATA SOURCE
 PDAT.          Mean Sea Level:  PERMANENT DATUM
 DCON.         Sperry Drilling:  DIRECTNL CONTR
 RIG .              West Azeri:  RIG NAME
 WELL.           C40 (Slot 20):  WELL NAME
 SRVC.     Turan Drilling Engineering:  CONTRACTOR
 FLD .                     ACG:  FIELD NAME
 CTRY.              Azerbaijan:  COUNTRY NAME
 PROV.                    Baku:  PROVINCE
 STAT.                    Baku:  STATE NAME
 REGN.                   EESSA:  REGION
 BASE.              Azerbaijan:  LOGGING EQUIPMENT BASE LOCATION
 COMP.     BP Exploration (Caspian Sea) Ltd:  COMPANY
 WTYP.                Deviated:  WELL TYPE
 SON .        AZ-XX-0906344804:  JOB NUMBER
 FTOP.          Formation Tops:  FORM TOPS DESC
 ILTD.               Lithology:  INTERP LTH DESC
 SVYD.                  Survey:  SURVEY DESC
 DMOD.             Drill Model:  DRILL MOD DESC
 HPTY.       Minimum Curvature:  HOLE POS TYPE
 NREF.                    Grid:  NORTH REFERENCE
 SPUD.               01-Jan-20:  SPUD DATE
 DATE.      00.59.44 15-Sep-20:  END TIME
 STIM.      12.00.00 12-Jun-20:  START TIME
 DMF .             Drill Floor:  DRILL MEAS FROM
 DFST.                        :  DIST FSL TEXT
 DFWT.                        :  DIST FWL TEXT
 API .                        :  API NUMBER
 CNTY.                        :  COUNTY
 UWI .                        :  UNIQUE WELL IDENTIFIER
 LOC .                        :  LOCATION
 LMF .             Drill Floor:  LOG MEASURED FROM
 VSNS.m                   2.88:  VERT SEC N/S
 VSEW.m                  -3.84:  VERT SEC E/W
 AGAP.m                  43.42:  AIR GAP
 APD .m                  43.42:  DEPTH ABOVE PD
 WDMS.m                 118.27:  WD ELEV
 EGL .m                   0.00:  GROUND ELEVATION
 EPD .m                   0.00:  ELEVATION
 AZTC.deg                 6.23:  AZM TOTAL CORR
 GRDC.deg                 0.20:  GRID CORRECTION
 MDEC.deg                 6.43:  MAGNETIC DECL
 MDIP.deg                59.49:  MAGNETIC DIP
 MFLD.nT              50277.00:  MAGNETIC FIELD
 GVFD.g                   1.00:  GRAVITY FIELD
 VSDR.deg               173.20:  VERT SEC DIRECT
 TDD .m                5790.01:  TOTAL DEPTH (DRILLER)
 SDEP.m                5231.01:  START DEPTH
 DFSL.m                   0.00:  DISTANCE FSL
 DFWL.m                   0.00:  DISTANCE FWL
 UTMY.m             4435808.83:  UTM Y
 UTMX.m              526266.40:  UTM X
 WHEW.m                  -3.84:  WELL HEAD E/W
 WHNS.m                   2.88:  WELL HEAD N/S
 LONG.deg                51.31:  LONGITUDE
 LATI.deg                40.06:  LATITUDE
 TVDS.m                  43.42:  TVDSS CORRECTN
 DEP .m                 430.08:  DEPTH
 EKB .m                  43.42:  KB ELEVATION
 EDF .m                  43.42:  DF ELEVATION
 TDL .m                 559.00:  TOTAL DEPTH (LOGGER)
 MAGU.                 1849381:  MAGUTM CHECKSUM
 VSC .                       0:  VS TO CLOSURE
~Parameter Information Block
#MNEM.UNIT       Value        Description
#---------     -----------    ---------------------------
 AV  .mps                 4.87:  Ann Velocity 
 AVMX.mps                 7.08:  Max Ann Veloc 
 AZIF.deg               108.87:  Azm, Final 
 BHAT.                  Rotary:  BHA Type 
 BROT.°/30m               0.35:  Build Rotating 
 BS  .in                  8.50:  Bit Size 
 BSZ .in                  8.50:  Bit Size 
 BTPL.psig              360.00:  Bit Press Loss 
 CABU.                     Yes:  Customer Abuse 
 COMM.                     œ-L:  Run Comments 1 
 TCS .hr                106.24:  Time Ciculation Ended 
 CV  .mps                 1.77:  Crit Velocity 
 CVMX.mps                 2.03:  Max Crit Veloc 
 DD1 .         Aykhan Agagulov:  Direct Drillr 1 
 DD2 .            Nonso Okofor:  Direct Drillr 2 
 DDSV.               Geo-Pilot:  DD Service 
 DEFF.%                  98.00:  % Det Eff 
 DLRX.°/30m               0.50:  Dogleg Rot Max 
 DLSO.°/30m               0.40:  Dogleg Oriented 
 DLSX.°/30m               0.94:  Dogleg Str Max 
 DRET.      20.30.00 08-Sep-20:  Drill End Time 
 DRST.      22.15.00 06-Sep-20:  Drill Start Tim 
 DTIM.hr                 31.31:  Time Drilling 
 EDEP.m                5790.01:  End Depth 
 ENG1.           Amrah Tahirov:  Engineer 1 
 ENG2.         Dair Mahammadov:  Engineer 2 
 ENG3.           Emil Huseynov:  Engineer 3 
 ETIM.      04.01.04 12-Sep-20:  End Time 
 FLOI.gpm               450.00:  Flow In 
 FLON.gpm               450.00:  Flow In Min 
 FLOS.cptm                2.00:  Fluid Loss 
 FLOX.gpm               450.00:  Flow In Max 
 FTRO.       Formation Presure:  FTWD Run Obj 
 HFLO.                      No:  High Flow 
 HPRE.                      No:  High Pressure 
 HTEM.                      No:  High Temp 
 HYDO.m                   1.80:  Hydro Offset 
 IFIN.deg                72.03:  Inc, Final 
 IMAX.deg                73.72:  Inc Max 
 IMIN.deg                70.94:  Inc Min 
 IMND.m                5508.52:  Inc Min Depth 
 IMXD.m                5253.60:  Inc Max Depth 
 JARR.                      No:  Jarring 
 LETM.      20.30.00 08-Sep-20:  Log End Time 
 LOST.hr                     0:  Lost Rig Time 
 LSTM.      22.15.00 06-Sep-20:  Log Start Time 
 MDCL.ppm             36000.00:  Mud Chlorides 
 MDES.     Inversion Oil/Synthetic:  Mud Desc 
 DFD .sg                  1.44:  Mud Density 
 MDMN.sg                  1.44:  Dens Mud Min 
 MDMX.sg                  1.57:  Dens Mud Max 
 MOIL.                      70:  Run Mud Oil % 
 MOWR.                   70:30:  Run Mud OWR 
 MSND.                       0:  Run Mud Sand % 
 MSOL.                      21:  Run Mud Solids% 
 DFV .spqt               68.00:  Mud Viscosity 
 MWOD.in                  6.75:  MWD Tool OD 
 MWSI.                     Yes:  Serv Intrp, MWD 
 OTIM.hr                174.84:  Time Operating 
 PCON.           Look Like New:  Pad Condition 
 PMAX.psia            10616.93:  Press Op, Max 
 PV  .cP                 50.00:  Mud PV 
 RUN .                     700:  Run Number 
 ROPA.m/hr               14.24:  ROP Avg 
 ROPN.m/hr               10.00:  ROP Min 
 ROPX.m/hr               32.00:  ROP Max 
 RPMA.rpm               120.90:  RPM Surface Avg 
 RPMN.rpm               120.00:  RPM Surface Min 
 RPMX.rpm               140.00:  RPM Surface Max 
 RRUN.                    0700:  Rig Run Number 
 RTIM.hr                  3.20:  Time Reaming 
 SAZI.deg               109.99:  Azm, Start 
 SDEP.m                5231.01:  Start Depth 
 SIDD.                      No:  Serv Intrp, DD 
 SINC.deg                73.72:  Inc, Start 
 SPPA.psig             3051.00:  SPP Avg 
 SPPN.psig             2950.00:  SPP Min 
 SPPX.psig             3250.00:  SPP Max 
 STIM.      08.00.00 05-Sep-20:  Start Time 
 SVCS.                 DD, MWD:  Services 
 SVER.                    9.20:  Sperry Version 
 TDAT.m                 559.00:  Tot Depth Attmp 
 TDDF.                      No:  Trip for DD 
 TDLG.m                 559.00:  Tot Depth Loggd 
 TFF .                      No:  Trip for Fail 
 TQAA.f-kp               26.49:  Torque Abs Avg 
 TQAN.f-kp               25.00:  Torque Abs Min 
 TQAX.f-kp               27.00:  Torque Abs Max 
 TRRT.°/30m               1.50:  Turn Rotating 
 MRT .                    HCIM:  Maximum Recorded Temperature 
 TTMX.degC               90.20:  Max Tool Temp 
 VS01.                90542671:  Virtual Str1 SN 
 VS02.                90545185:  Virtual Str2 SN 
 VS03.                90602015:  Virtual Str3 SN 
 VS04.                90515230:  Virtual Str4 SN 
 WBMN.klb                 5.00:  WOB Min 
 WOBA.klb                14.79:  WOB Avg 
 WOBX.klb                20.00:  WOB Max 
 YP  .lhf2               29.00:  Yield Point 
~Curve Information Block
#MNEM.UNIT                 API CODE     Curve Description
#---------               -----------    ---------------------------
 TIME.HHMMSS            00 000 000 000:  GT Time & Date
 GTDEPTH.m              00 000 000 000:  GT Depth
 GTPQH.psia             00 000 000 000:  GT HR Quartz Pressure
 GTTQ.degC              00 000 000 000:  GT Quartz Temperature
 GTTN.NONE              00 000 000 000:  GT Test Number
 GTET.sec               00 000 000 000:  GT Elapsed Test Time
 GTTVD.m                00 000 000 000:  GT True Vertical Depth
#Other Information
#
#WARRANTY: Halliburton will use its best efforts to furnish customers with 
#accurate information and interpretations that are part of, and incident to, the services 
#provided.  However, Halliburton cannot and does not warrant the accuracy 
#or correctness of such information and interpretations.  Under no circumstances should any 
#such information or interpretation be relied upon as the sole basis for any drilling, 
#completion, production, or financial decision or any procedure involving any risk to the 
#safety of any drilling venture, drilling rig or its crew or any other third party.  The 
#Customer has full responsibility for all drilling, completion and production operation.  
#Halliburton makes no representations or warranties, either expressed or 
#implied, including, but not limited to, the implied warranties of merchantability or fitness 
#for a particular purpose, with respect to the services rendered.  In no event will 
#Halliburton be liable for failure to obtain any particular results or for 
#any damages, including, but not limited to, indirect, special or consequential damages, 
#resulting from the use of any information or interpretation provided by Halliburton.
#
~A           TIME           GTDEPTH  GTPQH  GTTQ  GTTN   GTET   GTTVD  
# ...
   12:16:03.800.09-Sep-2020 5424.01  647.67 75.70 13.00 293.80 2594.63
   12:16:04.000.09-Sep-2020 5424.01  648.30 75.70 13.00 294.00 2594.63
   12:16:04.200.09-Sep-2020 5424.01  648.13 75.70 13.00 294.20 2594.63
   12:16:04.400.09-Sep-2020 5424.01  649.45 75.70 13.00 294.40 2594.63
   12:16:04.600.09-Sep-2020 5424.01  650.12 75.70 13.00 294.60 2594.63
   12:16:04.800.09-Sep-2020 5424.01  650.72 75.70 13.00 294.80 2594.63
   12:16:05.000.09-Sep-2020 5424.01  651.52 75.70 13.00 295.00 2594.63
   12:16:05.200.09-Sep-2020 5424.01  651.52 75.70 13.00 295.20 2594.63
   12:16:05.400.09-Sep-2020 5424.01  652.64 75.70 13.00 295.40 2594.63
   12:16:05.600.09-Sep-2020 5424.01  652.24 75.70 13.00 295.60 2594.63
   12:16:05.800.09-Sep-2020 5424.01  654.17 75.70 13.00 295.80 2594.63
   12:16:06.000.09-Sep-2020 5424.01  654.49 75.70 13.00 296.00 2594.63
   12:16:06.200.09-Sep-2020 5424.01  654.49 75.70 13.00 296.20 2594.63
   12:16:06.400.09-Sep-2020 5424.01  655.68 75.70 13.00 296.40 2594.63
   12:16:06.600.09-Sep-2020 5424.01  656.49 75.70 13.00 296.60 2594.63
   12:16:06.800.09-Sep-2020 5424.01  657.00 75.70 13.00 296.80 2594.63
   12:16:07.000.09-Sep-2020 5424.01  657.63 75.70 13.00 297.00 2594.63
   12:16:07.200.09-Sep-2020 5424.01  657.63 75.70 13.00 297.20 2594.63
   12:16:07.400.09-Sep-2020 5424.01  658.86 75.70 13.00 297.40 2594.63
   12:16:07.600.09-Sep-2020 5424.01  659.49 75.70 13.00 297.60 2594.63
   12:16:07.800.09-Sep-2020 5424.01  660.12 75.70 13.00 297.80 2594.63
   12:16:08.000.09-Sep-2020 5424.01  660.79 75.70 13.00 298.00 2594.63
   12:16:08.200.09-Sep-2020 5424.01  661.43 75.70 13.00 298.20 2594.63
   12:16:08.400.09-Sep-2020 5424.01  662.05 75.70 13.00 298.40 2594.63
   12:16:08.600.09-Sep-2020 5424.01  662.68 75.70 13.00 298.60 2594.63
   12:16:08.800.09-Sep-2020 5424.01  663.31 75.70 13.00 298.80 2594.63
   12:16:09.000.09-Sep-2020 5424.01  663.92 75.70 13.00 299.00 2594.63
   12:16:09.200.09-Sep-2020 5424.01  663.92 75.70 13.00 299.20 2594.63
   12:16:09.400.09-Sep-2020 5424.01  664.74 75.70 13.00 299.40 2594.63
   12:16:09.600.09-Sep-2020 5424.01  665.75 75.70 13.00 299.60 2594.63
   12:16:09.800.09-Sep-2020 5424.01  666.32 75.70 13.00 299.80 2594.63
   12:16:10.000.09-Sep-2020 5424.01  666.93 75.70 13.00 300.00 2594.63
   12:16:10.200.09-Sep-2020 5424.01  666.93 75.70 13.00 300.20 2594.63
   12:16:10.400.09-Sep-2020 5424.01  668.17 75.70 13.00 300.40 2594.63
   12:16:10.600.09-Sep-2020 5424.01  668.80 75.70 13.00 300.60 2594.63
   12:16:10.800.09-Sep-2020 5424.01  669.40 75.70 13.00 300.80 2594.63
   12:16:11.000.09-Sep-2020 5424.01  670.01 75.70 13.00 301.00 2594.63
   12:16:11.200.09-Sep-2020 5424.01  670.01 75.70 13.00 301.20 2594.63
   12:16:11.400.09-Sep-2020 5424.01  671.33 75.70 13.00 301.40 2594.63
   12:16:11.600.09-Sep-2020 5424.01  671.98 75.70 13.00 301.60 2594.63
   12:16:11.800.09-Sep-2020 5424.01  672.53 75.70 13.00 301.80 2594.63
   12:16:12.000.09-Sep-2020 5424.01  673.15 75.70 13.00 302.00 2594.63
   12:16:12.200.09-Sep-2020 5424.01  673.78 75.70 13.00 302.20 2594.63
   12:16:12.400.09-Sep-2020 5424.01  673.94 75.70 13.00 302.40 2594.63
   12:16:12.600.09-Sep-2020 5424.01  674.65 75.70 13.00 302.60 2594.63
   12:16:12.800.09-Sep-2020 5424.01  675.63 75.70 13.00 302.80 2594.63
   12:16:13.000.09-Sep-2020 5424.01  676.19 75.70 13.00 303.00 2594.63
   12:16:13.200.09-Sep-2020 5424.01  676.19 75.70 13.00 303.20 2594.63
   12:16:13.400.09-Sep-2020 5424.01  677.53 75.70 13.00 303.40 2594.63
   12:16:13.600.09-Sep-2020 5424.01  676.95 75.70 13.00 303.60 2594.63
   12:16:13.800.09-Sep-2020 5424.01  678.87 75.70 13.00 303.80 2594.63
   12:16:14.000.09-Sep-2020 5424.01  679.23 75.70 13.00 304.00 2594.63
   12:16:14.200.09-Sep-2020 5424.01  679.23 75.70 13.00 304.20 2594.63
   12:16:14.400.09-Sep-2020 5424.01  680.30 75.70 13.00 304.40 2594.63
   12:16:14.600.09-Sep-2020 5424.01  681.12 75.70 13.00 304.60 2594.63
   12:16:14.800.09-Sep-2020 5424.01  680.61 75.70 13.00 304.80 2594.63
   12:16:15.000.09-Sep-2020 5424.01  682.48 75.70 13.00 305.00 2594.63
   12:16:15.200.09-Sep-2020 5424.01  682.48 75.70 13.00 305.20 2594.63
   12:16:15.400.09-Sep-2020 5424.01  683.43 75.70 13.00 305.40 2594.63
   12:16:15.600.09-Sep-2020 5424.01  682.97 75.70 13.00 305.60 2594.63
   12:16:15.800.09-Sep-2020 5424.01  684.94 75.70 13.00 305.80 2594.63
   12:16:16.000.09-Sep-2020 5424.01  685.18 75.70 13.00 306.00 2594.63
   12:16:16.200.09-Sep-2020 5424.01  685.78 75.70 13.00 306.20 2594.63
   12:16:16.400.09-Sep-2020 5424.01  686.35 75.70 13.00 306.40 2594.63
   12:16:16.600.09-Sep-2020 5424.01  687.15 75.70 13.00 306.60 2594.63
   12:16:16.800.09-Sep-2020 5424.01  687.23 75.70 13.00 306.80 2594.63
   12:16:17.000.09-Sep-2020 5424.01  687.88 75.70 13.00 307.00 2594.63
   12:16:17.200.09-Sep-2020 5424.01  687.88 75.70 13.00 307.20 2594.63
   12:16:17.400.09-Sep-2020 5424.01  689.42 75.70 13.00 307.40 2594.63
   12:16:17.600.09-Sep-2020 5424.01  690.06 75.70 13.00 307.60 2594.63
   12:16:17.800.09-Sep-2020 5424.01  690.76 75.70 13.00 307.80 2594.63
   12:16:18.000.09-Sep-2020 5424.01  691.25 75.70 13.00 308.00 2594.63
   12:16:18.200.09-Sep-2020 5424.01  691.25 75.70 13.00 308.20 2594.63
   12:16:18.400.09-Sep-2020 5424.01  692.51 75.70 13.00 308.40 2594.63
   12:16:18.600.09-Sep-2020 5424.01  693.10 75.70 13.00 308.60 2594.63
   12:16:18.800.09-Sep-2020 5424.01  693.73 75.70 13.00 308.80 2594.63
   12:16:19.000.09-Sep-2020 5424.01  694.36 75.70 13.00 309.00 2594.63
   12:16:19.200.09-Sep-2020 5424.01  694.36 75.70 13.00 309.20 2594.63
   12:16:19.400.09-Sep-2020 5424.01  695.54 75.70 13.00 309.40 2594.63
   12:16:19.600.09-Sep-2020 5424.01  696.17 75.70 13.00 309.60 2594.63
   12:16:19.800.09-Sep-2020 5424.01  696.78 75.70 13.00 309.80 2594.63
   12:16:20.000.09-Sep-2020 5424.01  697.42 75.70 13.00 310.00 2594.63
   12:16:20.200.09-Sep-2020 5424.01  697.42 75.70 13.00 310.20 2594.63
   12:16:20.400.09-Sep-2020 5424.01  698.66 75.70 13.00 310.40 2594.63
   12:16:20.600.09-Sep-2020 5424.01  698.48 75.70 13.00 310.60 2594.63
   12:16:20.800.09-Sep-2020 5424.01  699.76 75.70 13.00 310.80 2594.63
   12:16:21.000.09-Sep-2020 5424.01  700.41 75.70 13.00 311.00 2594.63
   12:16:21.200.09-Sep-2020 5424.01  700.41 75.70 13.00 311.20 2594.63
   12:16:21.400.09-Sep-2020 5424.01  701.73 75.70 13.00 311.40 2594.63
   12:16:21.600.09-Sep-2020 5424.01  702.19 75.70 13.00 311.60 2594.63
   12:16:21.800.09-Sep-2020 5424.01  702.83 75.70 13.00 311.80 2594.63
   12:16:22.000.09-Sep-2020 5424.01  703.42 75.70 13.00 312.00 2594.63
   12:16:22.200.09-Sep-2020 5424.01  704.07 75.70 13.00 312.20 2594.63
   12:16:22.400.09-Sep-2020 5424.01  704.65 75.70 13.00 312.40 2594.63
   12:16:22.600.09-Sep-2020 5424.01  705.22 75.70 13.00 312.60 2594.63
   12:16:22.800.09-Sep-2020 5424.01  705.85 75.70 13.00 312.80 2594.63
   12:16:23.000.09-Sep-2020 5424.01  706.43 75.70 13.00 313.00 2594.63
   12:16:23.200.09-Sep-2020 5424.01  706.43 75.70 13.00 313.20 2594.63
   12:16:23.400.09-Sep-2020 5424.01  707.71 75.70 13.00 313.40 2594.63
   12:16:23.600.09-Sep-2020 5424.01  708.34 75.70 13.00 313.60 2594.63
   12:16:23.800.09-Sep-2020 5424.01  708.10 75.70 13.00 313.80 2594.63
   12:16:24.000.09-Sep-2020 5424.01  709.37 75.70 13.00 314.00 2594.63
   12:16:24.200.09-Sep-2020 5424.01  710.01 75.70 13.00 314.20 2594.63
   12:16:24.400.09-Sep-2020 5424.01  710.60 75.70 13.00 314.40 2594.63
   12:16:24.600.09-Sep-2020 5424.01  711.41 75.70 13.00 314.60 2594.63
   12:16:24.800.09-Sep-2020 5424.01  711.38 75.70 13.00 314.80 2594.63
   12:16:25.000.09-Sep-2020 5424.01  711.99 75.70 13.00 315.00 2594.63
   12:16:25.200.09-Sep-2020 5424.01  711.99 75.70 13.00 315.20 2594.63
   12:16:25.400.09-Sep-2020 5424.01  713.61 75.70 13.00 315.40 2594.63
   12:16:25.600.09-Sep-2020 5424.01  714.17 75.70 13.00 315.60 2594.63
   12:16:25.800.09-Sep-2020 5424.01  714.88 75.70 13.00 315.80 2594.63
   12:16:26.000.09-Sep-2020 5424.01  715.35 75.70 13.00 316.00 2594.63
   12:16:26.200.09-Sep-2020 5424.01  715.35 75.70 13.00 316.20 2594.63
