~Version Information
 VERS.                  2.0:   CWLS log ASCII Standard -VERSION 2.0
 WRAP.                   NO:   One line per depth step
~Well Information Block
#MNEM.UNIT     VALUE/NAME     DESCRIPTION
#---------     -----------    ---------------------------
 STRT.S             19:35:07 09-Sep-20: START TIME 19:35:07 09-Sep-20
 STOP.S             19:43:27 09-Sep-20: STOP TIME  19:43:27 09-Sep-20
 STEP.S                   0.00: STEP TIME
 NULL.                 -999.25: NULL VALUE
 MDS .        Operator Entered:  MAG DATA SOURCE
 PDAT.          Mean Sea Level:  PERMANENT DATUM
 DCON.         Sperry Drilling:  DIRECTNL CONTR
 RIG .              West Azeri:  RIG NAME
 WELL.           C40 (Slot 20):  WELL NAME
 SRVC.     Turan Drilling Engineering:  CONTRACTOR
 FLD .                     ACG:  FIELD NAME
 CTRY.              Azerbaijan:  COUNTRY NAME
 PROV.                    Baku:  PROVINCE
 STAT.                    Baku:  STATE NAME
 REGN.                   EESSA:  REGION
 BASE.              Azerbaijan:  LOGGING EQUIPMENT BASE LOCATION
 COMP.     BP Exploration (Caspian Sea) Ltd:  COMPANY
 WTYP.                Deviated:  WELL TYPE
 SON .        AZ-XX-0906344804:  JOB NUMBER
 FTOP.          Formation Tops:  FORM TOPS DESC
 ILTD.               Lithology:  INTERP LTH DESC
 SVYD.                  Survey:  SURVEY DESC
 DMOD.             Drill Model:  DRILL MOD DESC
 HPTY.       Minimum Curvature:  HOLE POS TYPE
 NREF.                    Grid:  NORTH REFERENCE
 SPUD.               01-Jan-20:  SPUD DATE
 DATE.      00.59.44 15-Sep-20:  END TIME
 STIM.      12.00.00 12-Jun-20:  START TIME
 DMF .             Drill Floor:  DRILL MEAS FROM
 DFST.                        :  DIST FSL TEXT
 DFWT.                        :  DIST FWL TEXT
 API .                        :  API NUMBER
 CNTY.                        :  COUNTY
 UWI .                        :  UNIQUE WELL IDENTIFIER
 LOC .                        :  LOCATION
 LMF .             Drill Floor:  LOG MEASURED FROM
 VSNS.m                   2.88:  VERT SEC N/S
 VSEW.m                  -3.84:  VERT SEC E/W
 AGAP.m                  43.42:  AIR GAP
 APD .m                  43.42:  DEPTH ABOVE PD
 WDMS.m                 118.27:  WD ELEV
 EGL .m                   0.00:  GROUND ELEVATION
 EPD .m                   0.00:  ELEVATION
 AZTC.deg                 6.23:  AZM TOTAL CORR
 GRDC.deg                 0.20:  GRID CORRECTION
 MDEC.deg                 6.43:  MAGNETIC DECL
 MDIP.deg                59.49:  MAGNETIC DIP
 MFLD.nT              50277.00:  MAGNETIC FIELD
 GVFD.g                   1.00:  GRAVITY FIELD
 VSDR.deg               173.20:  VERT SEC DIRECT
 TDD .m                5790.01:  TOTAL DEPTH (DRILLER)
 SDEP.m                5231.01:  START DEPTH
 DFSL.m                   0.00:  DISTANCE FSL
 DFWL.m                   0.00:  DISTANCE FWL
 UTMY.m             4435808.83:  UTM Y
 UTMX.m              526266.40:  UTM X
 WHEW.m                  -3.84:  WELL HEAD E/W
 WHNS.m                   2.88:  WELL HEAD N/S
 LONG.deg                51.31:  LONGITUDE
 LATI.deg                40.06:  LATITUDE
 TVDS.m                  43.42:  TVDSS CORRECTN
 DEP .m                 430.08:  DEPTH
 EKB .m                  43.42:  KB ELEVATION
 EDF .m                  43.42:  DF ELEVATION
 TDL .m                 559.00:  TOTAL DEPTH (LOGGER)
 MAGU.                 1849381:  MAGUTM CHECKSUM
 VSC .                       0:  VS TO CLOSURE
~Parameter Information Block
#MNEM.UNIT       Value        Description
#---------     -----------    ---------------------------
 AV  .mps                 4.87:  Ann Velocity 
 AVMX.mps                 7.08:  Max Ann Veloc 
 AZIF.deg               108.87:  Azm, Final 
 BHAT.                  Rotary:  BHA Type 
 BROT.°/30m               0.35:  Build Rotating 
 BS  .in                  8.50:  Bit Size 
 BSZ .in                  8.50:  Bit Size 
 BTPL.psig              360.00:  Bit Press Loss 
 CABU.                     Yes:  Customer Abuse 
 COMM.                     ¼«|:  Run Comments 1 
 TCS .hr                106.24:  Time Ciculation Ended 
 CV  .mps                 1.77:  Crit Velocity 
 CVMX.mps                 2.03:  Max Crit Veloc 
 DD1 .         Aykhan Agagulov:  Direct Drillr 1 
 DD2 .            Nonso Okofor:  Direct Drillr 2 
 DDSV.               Geo-Pilot:  DD Service 
 DEFF.%                  98.00:  % Det Eff 
 DLRX.°/30m               0.50:  Dogleg Rot Max 
 DLSO.°/30m               0.40:  Dogleg Oriented 
 DLSX.°/30m               0.94:  Dogleg Str Max 
 DRET.      20.30.00 08-Sep-20:  Drill End Time 
 DRST.      22.15.00 06-Sep-20:  Drill Start Tim 
 DTIM.hr                 31.31:  Time Drilling 
 EDEP.m                5790.01:  End Depth 
 ENG1.           Amrah Tahirov:  Engineer 1 
 ENG2.         Dair Mahammadov:  Engineer 2 
 ENG3.           Emil Huseynov:  Engineer 3 
 ETIM.      04.01.04 12-Sep-20:  End Time 
 FLOI.gpm               450.00:  Flow In 
 FLON.gpm               450.00:  Flow In Min 
 FLOS.cptm                2.00:  Fluid Loss 
 FLOX.gpm               450.00:  Flow In Max 
 FTRO.       Formation Presure:  FTWD Run Obj 
 HFLO.                      No:  High Flow 
 HPRE.                      No:  High Pressure 
 HTEM.                      No:  High Temp 
 HYDO.m                   1.80:  Hydro Offset 
 IFIN.deg                72.03:  Inc, Final 
 IMAX.deg                73.72:  Inc Max 
 IMIN.deg                70.94:  Inc Min 
 IMND.m                5508.52:  Inc Min Depth 
 IMXD.m                5253.60:  Inc Max Depth 
 JARR.                      No:  Jarring 
 LETM.      20.30.00 08-Sep-20:  Log End Time 
 LOST.hr                     0:  Lost Rig Time 
 LSTM.      22.15.00 06-Sep-20:  Log Start Time 
 MDCL.ppm             36000.00:  Mud Chlorides 
 MDES.     Inversion Oil/Synthetic:  Mud Desc 
 DFD .sg                  1.44:  Mud Density 
 MDMN.sg                  1.44:  Dens Mud Min 
 MDMX.sg                  1.57:  Dens Mud Max 
 MOIL.                      70:  Run Mud Oil % 
 MOWR.                   70:30:  Run Mud OWR 
 MSND.                       0:  Run Mud Sand % 
 MSOL.                      21:  Run Mud Solids% 
 DFV .spqt               68.00:  Mud Viscosity 
 MWOD.in                  6.75:  MWD Tool OD 
 MWSI.                     Yes:  Serv Intrp, MWD 
 OTIM.hr                174.84:  Time Operating 
 PCON.           Look Like New:  Pad Condition 
 PMAX.psia            10616.93:  Press Op, Max 
 PV  .cP                 50.00:  Mud PV 
 RUN .                     700:  Run Number 
 ROPA.m/hr               14.24:  ROP Avg 
 ROPN.m/hr               10.00:  ROP Min 
 ROPX.m/hr               32.00:  ROP Max 
 RPMA.rpm               120.90:  RPM Surface Avg 
 RPMN.rpm               120.00:  RPM Surface Min 
 RPMX.rpm               140.00:  RPM Surface Max 
 RRUN.                    0700:  Rig Run Number 
 RTIM.hr                  3.20:  Time Reaming 
 SAZI.deg               109.99:  Azm, Start 
 SDEP.m                5231.01:  Start Depth 
 SIDD.                      No:  Serv Intrp, DD 
 SINC.deg                73.72:  Inc, Start 
 SPPA.psig             3051.00:  SPP Avg 
 SPPN.psig             2950.00:  SPP Min 
 SPPX.psig             3250.00:  SPP Max 
 STIM.      08.00.00 05-Sep-20:  Start Time 
 SVCS.                 DD, MWD:  Services 
 SVER.                    9.20:  Sperry Version 
 TDAT.m                 559.00:  Tot Depth Attmp 
 TDDF.                      No:  Trip for DD 
 TDLG.m                 559.00:  Tot Depth Loggd 
 TFF .                      No:  Trip for Fail 
 TQAA.f-kp               26.49:  Torque Abs Avg 
 TQAN.f-kp               25.00:  Torque Abs Min 
 TQAX.f-kp               27.00:  Torque Abs Max 
 TRRT.°/30m               1.50:  Turn Rotating 
 MRT .                    HCIM:  Maximum Recorded Temperature 
 TTMX.degC               90.20:  Max Tool Temp 
 VS01.                90542671:  Virtual Str1 SN 
 VS02.                90545185:  Virtual Str2 SN 
 VS03.                90602015:  Virtual Str3 SN 
 VS04.                90515230:  Virtual Str4 SN 
 WBMN.klb                 5.00:  WOB Min 
 WOBA.klb                14.79:  WOB Avg 
 WOBX.klb                20.00:  WOB Max 
 YP  .lhf2               29.00:  Yield Point 
~Curve Information Block
#MNEM.UNIT                 API CODE     Curve Description
#---------               -----------    ---------------------------
 TIME.HHMMSS            00 000 000 000:  GT Time & Date
 GTDEPTH.m              00 000 000 000:  GT Depth
 GTPQH.psia             00 000 000 000:  GT HR Quartz Pressure
 GTTQ.degC              00 000 000 000:  GT Quartz Temperature
 GTTN.NONE              00 000 000 000:  GT Test Number
 GTET.sec               00 000 000 000:  GT Elapsed Test Time
 GTTVD.m                00 000 000 000:  GT True Vertical Depth
#Other Information
#
#WARRANTY: Halliburton will use its best efforts to furnish customers with 
#accurate information and interpretations that are part of, and incident to, the services 
#provided.  However, Halliburton cannot and does not warrant the accuracy 
#or correctness of such information and interpretations.  Under no circumstances should any 
#such information or interpretation be relied upon as the sole basis for any drilling, 
#completion, production, or financial decision or any procedure involving any risk to the 
#safety of any drilling venture, drilling rig or its crew or any other third party.  The 
#Customer has full responsibility for all drilling, completion and production operation.  
#Halliburton makes no representations or warranties, either expressed or 
#implied, including, but not limited to, the implied warranties of merchantability or fitness 
#for a particular purpose, with respect to the services rendered.  In no event will 
#Halliburton be liable for failure to obtain any particular results or for 
#any damages, including, but not limited to, indirect, special or consequential damages, 
#resulting from the use of any information or interpretation provided by Halliburton.
#
~A           TIME           GTDEPTH  GTPQH  GTTQ  GTTN   GTET   GTTVD  
# ...
   19:41:54.354.09-Sep-2020 5260.01 6288.36 74.29 23.00 406.99 2544.55
   19:41:54.554.09-Sep-2020 5260.01 6288.04 74.29 23.00 407.19 2544.55
   19:41:54.754.09-Sep-2020 5260.01 6288.04 74.29 23.00 407.39 2544.55
   19:41:54.954.09-Sep-2020 5260.01 6287.62 74.29 23.00 407.59 2544.55
   19:41:55.154.09-Sep-2020 5260.01 6287.66 74.29 23.00 407.79 2544.55
   19:41:55.355.09-Sep-2020 5260.01 6286.68 74.29 23.00 407.99 2544.55
   19:41:55.555.09-Sep-2020 5260.01 6287.35 74.29 23.00 408.19 2544.55
   19:41:55.755.09-Sep-2020 5260.01 6287.35 74.29 23.00 408.39 2544.55
   19:41:55.955.09-Sep-2020 5260.01 6286.85 74.29 23.00 408.59 2544.55
   19:41:56.155.09-Sep-2020 5260.01 6286.86 74.29 23.00 408.79 2544.55
   19:41:56.355.09-Sep-2020 5260.01 6286.93 74.29 23.00 408.99 2544.55
   19:41:56.555.09-Sep-2020 5260.01 6286.72 74.29 23.00 409.19 2544.55
   19:41:56.755.09-Sep-2020 5260.01 6286.72 74.29 23.00 409.39 2544.55
   19:41:56.955.09-Sep-2020 5260.01 6286.82 74.29 23.00 409.59 2544.55
   19:41:57.155.09-Sep-2020 5260.01 6297.77 74.29 23.00 409.79 2544.55
   19:41:57.356.09-Sep-2020 5260.01 6281.89 74.29 23.00 409.99 2544.55
   19:41:57.556.09-Sep-2020 5260.01 6287.53 74.29 23.00 410.19 2544.55
   19:41:57.756.09-Sep-2020 5260.01 6287.53 74.29 23.00 410.39 2544.55
   19:41:57.956.09-Sep-2020 5260.01 6286.97 74.29 23.00 410.59 2544.55
   19:41:58.156.09-Sep-2020 5260.01 6287.55 74.29 23.00 410.79 2544.55
   19:41:58.356.09-Sep-2020 5260.01 6290.01 74.29 23.00 410.99 2544.55
   19:41:58.556.09-Sep-2020 5260.01 6287.00 74.29 23.00 411.19 2544.55
   19:41:58.756.09-Sep-2020 5260.01 6287.00 74.29 23.00 411.39 2544.55
   19:41:58.956.09-Sep-2020 5260.01 6286.34 74.29 23.00 411.59 2544.55
   19:41:59.156.09-Sep-2020 5260.01 6286.65 74.29 23.00 411.79 2544.55
   19:41:59.356.09-Sep-2020 5260.01 6286.94 74.29 23.00 411.99 2544.55
   19:41:59.557.09-Sep-2020 5260.01 6286.82 74.29 23.00 412.19 2544.55
   19:41:59.757.09-Sep-2020 5260.01 6286.82 74.29 23.00 412.39 2544.55
   19:41:59.957.09-Sep-2020 5260.01 6286.06 74.29 23.00 412.59 2544.55
   19:42:00.157.09-Sep-2020 5260.01 6286.02 74.29 23.00 412.79 2544.55
   19:42:00.357.09-Sep-2020 5260.01 6285.93 74.29 23.00 412.99 2544.55
   19:42:00.557.09-Sep-2020 5260.01 6296.76 74.29 23.00 413.19 2544.55
   19:42:00.757.09-Sep-2020 5260.01 6296.76 74.29 23.00 413.39 2544.55
   19:42:00.957.09-Sep-2020 5260.01 6287.05 74.29 23.00 413.59 2544.55
   19:42:01.157.09-Sep-2020 5260.01 6285.81 74.29 23.00 413.79 2544.55
   19:42:01.357.09-Sep-2020 5260.01 6285.88 74.29 23.00 413.99 2544.55
   19:42:01.557.09-Sep-2020 5260.01 6286.55 74.29 23.00 414.19 2544.55
   19:42:01.758.09-Sep-2020 5260.01 6298.25 74.29 23.00 414.39 2544.55
   19:42:01.958.09-Sep-2020 5260.01 6283.57 74.29 23.00 414.59 2544.55
   19:42:02.158.09-Sep-2020 5260.01 6287.37 74.29 23.00 414.79 2544.55
   19:42:02.358.09-Sep-2020 5260.01 6285.11 74.29 23.00 414.99 2544.55
   19:42:02.558.09-Sep-2020 5260.01 6286.71 74.29 23.00 415.19 2544.55
   19:42:02.758.09-Sep-2020 5260.01 6286.71 74.29 23.00 415.39 2544.55
   19:42:02.958.09-Sep-2020 5260.01 6292.93 74.29 23.00 415.59 2544.55
   19:42:03.158.09-Sep-2020 5260.01 6291.61 74.29 23.00 415.79 2544.55
   19:42:03.358.09-Sep-2020 5260.01 6284.87 74.29 23.00 415.99 2544.55
   19:42:03.558.09-Sep-2020 5260.01 6286.69 74.29 23.00 416.19 2544.55
   19:42:03.758.09-Sep-2020 5260.01 6286.69 74.29 23.00 416.39 2544.55
   19:42:03.959.09-Sep-2020 5260.01 6296.36 74.29 23.00 416.59 2544.55
   19:42:04.159.09-Sep-2020 5260.01 6284.98 74.29 23.00 416.79 2544.55
   19:42:04.359.09-Sep-2020 5260.01 6289.55 74.29 23.00 416.99 2544.55
   19:42:04.559.09-Sep-2020 5260.01 6287.03 74.29 23.00 417.19 2544.55
   19:42:04.759.09-Sep-2020 5260.01 6287.03 74.29 23.00 417.39 2544.55
   19:42:04.959.09-Sep-2020 5260.01 6292.71 74.29 23.00 417.59 2544.55
   19:42:05.159.09-Sep-2020 5260.01 6289.04 74.29 23.00 417.79 2544.55
   19:42:05.359.09-Sep-2020 5260.01 6289.86 74.29 23.00 417.99 2544.55
   19:42:05.559.09-Sep-2020 5260.01 6287.81 74.29 23.00 418.19 2544.55
   19:42:05.759.09-Sep-2020 5260.01 6288.35 74.29 23.00 418.39 2544.55
   19:42:05.959.09-Sep-2020 5260.01 6288.51 74.29 23.00 418.59 2544.55
   19:42:06.160.09-Sep-2020 5260.01 6291.27 74.29 23.00 418.79 2544.55
   19:42:06.360.09-Sep-2020 5260.01 6288.67 74.29 23.00 418.99 2544.55
   19:42:06.560.09-Sep-2020 5260.01 6289.05 74.29 23.00 419.19 2544.55
   19:42:06.760.09-Sep-2020 5260.01 6289.05 74.29 23.00 419.39 2544.55
   19:42:06.960.09-Sep-2020 5260.01 6288.82 74.29 23.00 419.59 2544.55
   19:42:07.160.09-Sep-2020 5260.01 6288.21 74.29 23.00 419.79 2544.55
   19:42:07.360.09-Sep-2020 5260.01 6288.39 74.29 23.00 419.99 2544.55
   19:42:07.560.09-Sep-2020 5260.01 6288.34 74.29 23.00 420.19 2544.55
   19:42:07.760.09-Sep-2020 5260.01 6288.34 74.29 23.00 420.39 2544.55
   19:42:07.960.09-Sep-2020 5260.01 6288.51 74.29 23.00 420.59 2544.55
   19:42:08.160.09-Sep-2020 5260.01 6288.35 74.29 23.00 420.79 2544.55
   19:42:08.361.09-Sep-2020 5260.01 6288.27 74.29 23.00 420.99 2544.55
   19:42:08.561.09-Sep-2020 5260.01 6299.48 74.29 23.00 421.19 2544.55
   19:42:08.761.09-Sep-2020 5260.01 6299.48 74.29 23.00 421.39 2544.55
   19:42:08.961.09-Sep-2020 5260.01 6289.13 74.29 23.00 421.59 2544.55
   19:42:09.161.09-Sep-2020 5260.01 6288.18 74.29 23.00 421.79 2544.55
   19:42:09.361.09-Sep-2020 5260.01 6288.26 74.29 23.00 421.99 2544.55
   19:42:09.561.09-Sep-2020 5260.01 6288.75 74.29 23.00 422.19 2544.55
   19:42:09.761.09-Sep-2020 5260.01 6291.36 74.29 23.00 422.39 2544.55
   19:42:09.961.09-Sep-2020 5260.01 6288.76 74.29 23.00 422.59 2544.55
   19:42:10.161.09-Sep-2020 5260.01 6288.52 74.29 23.00 422.79 2544.55
   19:42:10.362.09-Sep-2020 5260.01 6288.03 74.29 23.00 422.99 2544.55
   19:42:10.562.09-Sep-2020 5260.01 6287.79 74.29 23.00 423.20 2544.55
   19:42:10.762.09-Sep-2020 5260.01 6287.79 74.29 23.00 423.40 2544.55
   19:42:10.962.09-Sep-2020 5260.01 6287.54 74.29 23.00 423.60 2544.55
   19:42:11.162.09-Sep-2020 5260.01 6287.65 74.29 23.00 423.80 2544.55
   19:42:11.362.09-Sep-2020 5260.01 6287.52 74.29 23.00 424.00 2544.55
   19:42:11.562.09-Sep-2020 5260.01 6287.12 74.29 23.00 424.20 2544.55
   19:42:11.762.09-Sep-2020 5260.01 6287.12 74.29 23.00 424.40 2544.55
   19:42:11.962.09-Sep-2020 5260.01 6297.35 74.29 23.00 424.60 2544.55
   19:42:12.162.09-Sep-2020 5260.01 6281.52 74.29 23.00 424.80 2544.55
   19:42:12.362.09-Sep-2020 5260.01 6287.53 74.29 23.00 425.00 2544.55
   19:42:12.563.09-Sep-2020 5260.01 6287.26 74.29 23.00 425.20 2544.55
   19:42:12.763.09-Sep-2020 5260.01 6287.26 74.29 23.00 425.40 2544.55
   19:42:12.963.09-Sep-2020 5260.01 6286.99 74.29 23.00 425.60 2544.55
   19:42:13.163.09-Sep-2020 5260.01 6298.18 74.29 23.00 425.80 2544.55
   19:42:13.363.09-Sep-2020 5260.01 6283.36 74.29 23.00 426.00 2544.55
   19:42:13.563.09-Sep-2020 5260.01 6288.41 74.29 23.00 426.20 2544.55
   19:42:13.763.09-Sep-2020 5260.01 6288.41 74.29 23.00 426.40 2544.55
   19:42:13.963.09-Sep-2020 5260.01 6287.36 74.29 23.00 426.60 2544.55
   19:42:14.163.09-Sep-2020 5260.01 6286.79 74.29 23.00 426.80 2544.55
   19:42:14.363.09-Sep-2020 5260.01 6298.65 74.29 23.00 427.00 2544.55
   19:42:14.563.09-Sep-2020 5260.01 6284.44 74.29 23.00 427.20 2544.55
   19:42:14.764.09-Sep-2020 5260.01 6287.70 74.29 23.00 427.40 2544.55
   19:42:14.964.09-Sep-2020 5260.01 6287.24 74.29 23.00 427.60 2544.55
   19:42:15.164.09-Sep-2020 5260.01 6287.23 74.29 23.00 427.80 2544.55
   19:42:15.364.09-Sep-2020 5260.01 6296.35 74.29 23.00 428.00 2544.55
   19:42:15.564.09-Sep-2020 5260.01 6287.83 74.29 23.00 428.20 2544.55
   19:42:15.764.09-Sep-2020 5260.01 6287.83 74.29 23.00 428.40 2544.55
   19:42:15.964.09-Sep-2020 5260.01 6288.49 74.29 23.00 428.60 2544.55
   19:42:16.164.09-Sep-2020 5260.01 6287.75 74.29 23.00 428.80 2544.55
   19:42:16.364.09-Sep-2020 5260.01 6288.86 74.29 23.00 429.00 2544.55
   19:42:16.564.09-Sep-2020 5260.01 6290.63 74.29 23.00 429.20 2544.55
   19:42:16.764.09-Sep-2020 5260.01 6290.63 74.29 23.00 429.40 2544.55
