~Version Information
 VERS.                  2.0:   CWLS log ASCII Standard -VERSION 2.0
 WRAP.                   NO:   One line per depth step
~Well Information Block
#MNEM.UNIT     VALUE/NAME     DESCRIPTION
#---------     -----------    ---------------------------
 STRT.S             18:19:19 09-Sep-20: START TIME 18:19:19 09-Sep-20
 STOP.S             18:27:34 09-Sep-20: STOP TIME  18:27:34 09-Sep-20
 STEP.S                   0.00: STEP TIME
 NULL.                 -999.25: NULL VALUE
 MDS .        Operator Entered:  MAG DATA SOURCE
 PDAT.          Mean Sea Level:  PERMANENT DATUM
 DCON.         Sperry Drilling:  DIRECTNL CONTR
 RIG .              West Azeri:  RIG NAME
 WELL.           C40 (Slot 20):  WELL NAME
 SRVC.     Turan Drilling Engineering:  CONTRACTOR
 FLD .                     ACG:  FIELD NAME
 CTRY.              Azerbaijan:  COUNTRY NAME
 PROV.                    Baku:  PROVINCE
 STAT.                    Baku:  STATE NAME
 REGN.                   EESSA:  REGION
 BASE.              Azerbaijan:  LOGGING EQUIPMENT BASE LOCATION
 COMP.     BP Exploration (Caspian Sea) Ltd:  COMPANY
 WTYP.                Deviated:  WELL TYPE
 SON .        AZ-XX-0906344804:  JOB NUMBER
 FTOP.          Formation Tops:  FORM TOPS DESC
 ILTD.               Lithology:  INTERP LTH DESC
 SVYD.                  Survey:  SURVEY DESC
 DMOD.             Drill Model:  DRILL MOD DESC
 HPTY.       Minimum Curvature:  HOLE POS TYPE
 NREF.                    Grid:  NORTH REFERENCE
 SPUD.               01-Jan-20:  SPUD DATE
 DATE.      00.59.44 15-Sep-20:  END TIME
 STIM.      12.00.00 12-Jun-20:  START TIME
 DMF .             Drill Floor:  DRILL MEAS FROM
 DFST.                        :  DIST FSL TEXT
 DFWT.                        :  DIST FWL TEXT
 API .                        :  API NUMBER
 CNTY.                        :  COUNTY
 UWI .                        :  UNIQUE WELL IDENTIFIER
 LOC .                        :  LOCATION
 LMF .             Drill Floor:  LOG MEASURED FROM
 VSNS.m                   2.88:  VERT SEC N/S
 VSEW.m                  -3.84:  VERT SEC E/W
 AGAP.m                  43.42:  AIR GAP
 APD .m                  43.42:  DEPTH ABOVE PD
 WDMS.m                 118.27:  WD ELEV
 EGL .m                   0.00:  GROUND ELEVATION
 EPD .m                   0.00:  ELEVATION
 AZTC.deg                 6.23:  AZM TOTAL CORR
 GRDC.deg                 0.20:  GRID CORRECTION
 MDEC.deg                 6.43:  MAGNETIC DECL
 MDIP.deg                59.49:  MAGNETIC DIP
 MFLD.nT              50277.00:  MAGNETIC FIELD
 GVFD.g                   1.00:  GRAVITY FIELD
 VSDR.deg               173.20:  VERT SEC DIRECT
 TDD .m                5790.01:  TOTAL DEPTH (DRILLER)
 SDEP.m                5231.01:  START DEPTH
 DFSL.m                   0.00:  DISTANCE FSL
 DFWL.m                   0.00:  DISTANCE FWL
 UTMY.m             4435808.83:  UTM Y
 UTMX.m              526266.40:  UTM X
 WHEW.m                  -3.84:  WELL HEAD E/W
 WHNS.m                   2.88:  WELL HEAD N/S
 LONG.deg                51.31:  LONGITUDE
 LATI.deg                40.06:  LATITUDE
 TVDS.m                  43.42:  TVDSS CORRECTN
 DEP .m                 430.08:  DEPTH
 EKB .m                  43.42:  KB ELEVATION
 EDF .m                  43.42:  DF ELEVATION
 TDL .m                 559.00:  TOTAL DEPTH (LOGGER)
 MAGU.                 1849381:  MAGUTM CHECKSUM
 VSC .                       0:  VS TO CLOSURE
~Parameter Information Block
#MNEM.UNIT       Value        Description
#---------     -----------    ---------------------------
 AV  .mps                 4.87:  Ann Velocity 
 AVMX.mps                 7.08:  Max Ann Veloc 
 AZIF.deg               108.87:  Azm, Final 
 BHAT.                  Rotary:  BHA Type 
 BROT.°/30m               0.35:  Build Rotating 
 BS  .in                  8.50:  Bit Size 
 BSZ .in                  8.50:  Bit Size 
 BTPL.psig              360.00:  Bit Press Loss 
 CABU.                     Yes:  Customer Abuse 
 TCS .hr                106.24:  Time Ciculation Ended 
 CV  .mps                 1.77:  Crit Velocity 
 CVMX.mps                 2.03:  Max Crit Veloc 
 DD1 .         Aykhan Agagulov:  Direct Drillr 1 
 DD2 .            Nonso Okofor:  Direct Drillr 2 
 DDSV.               Geo-Pilot:  DD Service 
 DEFF.%                  98.00:  % Det Eff 
 DLRX.°/30m               0.50:  Dogleg Rot Max 
 DLSO.°/30m               0.40:  Dogleg Oriented 
 DLSX.°/30m               0.94:  Dogleg Str Max 
 DRET.      20.30.00 08-Sep-20:  Drill End Time 
 DRST.      22.15.00 06-Sep-20:  Drill Start Tim 
 DTIM.hr                 31.31:  Time Drilling 
 EDEP.m                5790.01:  End Depth 
 ENG1.           Amrah Tahirov:  Engineer 1 
 ENG2.         Dair Mahammadov:  Engineer 2 
 ENG3.           Emil Huseynov:  Engineer 3 
 ETIM.      04.01.04 12-Sep-20:  End Time 
 FLOI.gpm               450.00:  Flow In 
 FLON.gpm               450.00:  Flow In Min 
 FLOS.cptm                2.00:  Fluid Loss 
 FLOX.gpm               450.00:  Flow In Max 
 FTRO.       Formation Presure:  FTWD Run Obj 
 HFLO.                      No:  High Flow 
 HPRE.                      No:  High Pressure 
 HTEM.                      No:  High Temp 
 HYDO.m                   1.80:  Hydro Offset 
 IFIN.deg                72.03:  Inc, Final 
 IMAX.deg                73.72:  Inc Max 
 IMIN.deg                70.94:  Inc Min 
 IMND.m                5508.52:  Inc Min Depth 
 IMXD.m                5253.60:  Inc Max Depth 
 JARR.                      No:  Jarring 
 LETM.      20.30.00 08-Sep-20:  Log End Time 
 LOST.hr                     0:  Lost Rig Time 
 LSTM.      22.15.00 06-Sep-20:  Log Start Time 
 MDCL.ppm             36000.00:  Mud Chlorides 
 MDES.     Inversion Oil/Synthetic:  Mud Desc 
 DFD .sg                  1.44:  Mud Density 
 MDMN.sg                  1.44:  Dens Mud Min 
 MDMX.sg                  1.57:  Dens Mud Max 
 MOIL.                      70:  Run Mud Oil % 
 MOWR.                   70:30:  Run Mud OWR 
 MSND.                       0:  Run Mud Sand % 
 MSOL.                      21:  Run Mud Solids% 
 DFV .spqt               68.00:  Mud Viscosity 
 MWOD.in                  6.75:  MWD Tool OD 
 MWSI.                     Yes:  Serv Intrp, MWD 
 OTIM.hr                174.84:  Time Operating 
 PCON.           Look Like New:  Pad Condition 
 PMAX.psia            10616.93:  Press Op, Max 
 PV  .cP                 50.00:  Mud PV 
 RUN .                     700:  Run Number 
 ROPA.m/hr               14.24:  ROP Avg 
 ROPN.m/hr               10.00:  ROP Min 
 ROPX.m/hr               32.00:  ROP Max 
 RPMA.rpm               120.90:  RPM Surface Avg 
 RPMN.rpm               120.00:  RPM Surface Min 
 RPMX.rpm               140.00:  RPM Surface Max 
 RRUN.                    0700:  Rig Run Number 
 RTIM.hr                  3.20:  Time Reaming 
 SAZI.deg               109.99:  Azm, Start 
 SDEP.m                5231.01:  Start Depth 
 SIDD.                      No:  Serv Intrp, DD 
 SINC.deg                73.72:  Inc, Start 
 SPPA.psig             3051.00:  SPP Avg 
 SPPN.psig             2950.00:  SPP Min 
 SPPX.psig             3250.00:  SPP Max 
 STIM.      08.00.00 05-Sep-20:  Start Time 
 SVCS.                 DD, MWD:  Services 
 SVER.                    9.20:  Sperry Version 
 TDAT.m                 559.00:  Tot Depth Attmp 
 TDDF.                      No:  Trip for DD 
 TDLG.m                 559.00:  Tot Depth Loggd 
 TFF .                      No:  Trip for Fail 
 TQAA.f-kp               26.49:  Torque Abs Avg 
 TQAN.f-kp               25.00:  Torque Abs Min 
 TQAX.f-kp               27.00:  Torque Abs Max 
 TRRT.°/30m               1.50:  Turn Rotating 
 MRT .                    HCIM:  Maximum Recorded Temperature 
 TTMX.degC               90.20:  Max Tool Temp 
 VS01.                90542671:  Virtual Str1 SN 
 VS02.                90545185:  Virtual Str2 SN 
 VS03.                90602015:  Virtual Str3 SN 
 VS04.                90515230:  Virtual Str4 SN 
 WBMN.klb                 5.00:  WOB Min 
 WOBA.klb                14.79:  WOB Avg 
 WOBX.klb                20.00:  WOB Max 
 YP  .lhf2               29.00:  Yield Point 
~Curve Information Block
#MNEM.UNIT                 API CODE     Curve Description
#---------               -----------    ---------------------------
 TIME.HHMMSS            00 000 000 000:  GT Time & Date
 GTDEPTH.m              00 000 000 000:  GT Depth
 GTPQH.psia             00 000 000 000:  GT HR Quartz Pressure
 GTTQ.degC              00 000 000 000:  GT Quartz Temperature
 GTTN.NONE              00 000 000 000:  GT Test Number
 GTET.sec               00 000 000 000:  GT Elapsed Test Time
 GTTVD.m                00 000 000 000:  GT True Vertical Depth
#Other Information
#
#WARRANTY: Halliburton will use its best efforts to furnish customers with 
#accurate information and interpretations that are part of, and incident to, the services 
#provided.  However, Halliburton cannot and does not warrant the accuracy 
#or correctness of such information and interpretations.  Under no circumstances should any 
#such information or interpretation be relied upon as the sole basis for any drilling, 
#completion, production, or financial decision or any procedure involving any risk to the 
#safety of any drilling venture, drilling rig or its crew or any other third party.  The 
#Customer has full responsibility for all drilling, completion and production operation.  
#Halliburton makes no representations or warranties, either expressed or 
#implied, including, but not limited to, the implied warranties of merchantability or fitness 
#for a particular purpose, with respect to the services rendered.  In no event will 
#Halliburton be liable for failure to obtain any particular results or for 
#any damages, including, but not limited to, indirect, special or consequential damages, 
#resulting from the use of any information or interpretation provided by Halliburton.
#
~A           TIME           GTDEPTH  GTPQH  GTTQ  GTTN   GTET   GTTVD  
# ...
   18:26:51.588.09-Sep-2020 5281.01 6287.00 74.54 21.00 451.65 2550.59
   18:26:51.788.09-Sep-2020 5281.01 6287.00 74.54 21.00 451.85 2550.59
   18:26:51.987.09-Sep-2020 5281.01 6289.99 74.54 21.00 452.05 2550.59
   18:26:52.187.09-Sep-2020 5281.01 6287.66 74.54 21.00 452.25 2550.59
   18:26:52.387.09-Sep-2020 5281.01 6288.79 74.54 21.00 452.45 2550.59
   18:26:52.587.09-Sep-2020 5281.01 6289.44 74.54 21.00 452.64 2550.59
   18:26:52.787.09-Sep-2020 5281.01 6289.44 74.54 21.00 452.84 2550.59
   18:26:52.987.09-Sep-2020 5281.01 6289.52 74.54 21.00 453.04 2550.59
   18:26:53.187.09-Sep-2020 5281.01 6289.71 74.55 21.00 453.24 2550.59
   18:26:53.386.09-Sep-2020 5281.01 6290.04 74.55 21.00 453.44 2550.59
   18:26:53.586.09-Sep-2020 5281.01 6290.20 74.55 21.00 453.64 2550.59
   18:26:53.786.09-Sep-2020 5281.01 6290.20 74.55 21.00 453.84 2550.59
   18:26:53.986.09-Sep-2020 5281.01 6290.59 74.55 21.00 454.04 2550.59
   18:26:54.186.09-Sep-2020 5281.01 6298.47 74.56 21.00 454.24 2550.59
   18:26:54.386.09-Sep-2020 5281.01 6288.48 74.56 21.00 454.44 2550.59
   18:26:54.585.09-Sep-2020 5281.01 6291.88 74.56 21.00 454.64 2550.59
   18:26:54.785.09-Sep-2020 5281.01 6291.88 74.56 21.00 454.84 2550.59
   18:26:54.985.09-Sep-2020 5281.01 6292.26 74.56 21.00 455.04 2550.59
   18:26:55.185.09-Sep-2020 5281.01 6296.01 74.57 21.00 455.24 2550.59
   18:26:55.385.09-Sep-2020 5281.01 6297.94 74.57 21.00 455.44 2550.59
   18:26:55.585.09-Sep-2020 5281.01 6289.29 74.57 21.00 455.64 2550.59
   18:26:55.784.09-Sep-2020 5281.01 6292.35 74.57 21.00 455.84 2550.59
   18:26:55.984.09-Sep-2020 5281.01 6291.11 74.57 21.00 456.04 2550.59
   18:26:56.184.09-Sep-2020 5281.01 6293.83 74.57 21.00 456.24 2550.59
   18:26:56.384.09-Sep-2020 5281.01 6294.22 74.58 21.00 456.44 2550.59
   18:26:56.584.09-Sep-2020 5281.01 6296.89 74.58 21.00 456.64 2550.59
   18:26:56.784.09-Sep-2020 5281.01 6296.89 74.58 21.00 456.84 2550.59
   18:26:56.984.09-Sep-2020 5281.01 6290.55 74.58 21.00 457.04 2550.59
   18:26:57.183.09-Sep-2020 5281.01 6293.24 74.58 21.00 457.24 2550.59
   18:26:57.383.09-Sep-2020 5281.01 6292.83 74.58 21.00 457.44 2550.59
   18:26:57.583.09-Sep-2020 5281.01 6294.11 74.58 21.00 457.64 2550.59
   18:26:57.783.09-Sep-2020 5281.01 6294.11 74.58 21.00 457.84 2550.59
   18:26:57.983.09-Sep-2020 5281.01 6298.82 74.59 21.00 458.04 2550.59
   18:26:58.183.09-Sep-2020 5281.01 6291.33 74.59 21.00 458.24 2550.59
   18:26:58.382.09-Sep-2020 5281.01 6294.11 74.59 21.00 458.44 2550.59
   18:26:58.582.09-Sep-2020 5281.01 6292.76 74.59 21.00 458.64 2550.59
   18:26:58.782.09-Sep-2020 5281.01 6292.76 74.59 21.00 458.84 2550.59
   18:26:58.982.09-Sep-2020 5281.01 6295.27 74.59 21.00 459.04 2550.59
   18:26:59.182.09-Sep-2020 5281.01 6294.68 74.59 21.00 459.24 2550.59
   18:26:59.382.09-Sep-2020 5281.01 6302.86 74.59 21.00 459.44 2550.59
   18:26:59.582.09-Sep-2020 5281.01 6289.53 74.59 21.00 459.64 2550.59
   18:26:59.781.09-Sep-2020 5281.01 6289.53 74.59 21.00 459.84 2550.59
   18:26:59.981.09-Sep-2020 5281.01 6294.18 74.59 21.00 460.04 2550.59
   18:27:00.181.09-Sep-2020 5281.01 6293.69 74.59 21.00 460.24 2550.59
   18:27:00.381.09-Sep-2020 5281.01 6294.59 74.60 21.00 460.44 2550.59
   18:27:00.581.09-Sep-2020 5281.01 6296.73 74.60 21.00 460.64 2550.59
   18:27:00.781.09-Sep-2020 5281.01 6296.73 74.60 21.00 460.84 2550.59
   18:27:00.980.09-Sep-2020 5281.01 6293.53 74.60 21.00 461.04 2550.59
   18:27:01.180.09-Sep-2020 5281.01 6293.06 74.60 21.00 461.24 2550.59
   18:27:01.380.09-Sep-2020 5281.01 6293.78 74.60 21.00 461.44 2550.59
   18:27:01.580.09-Sep-2020 5281.01 6293.56 74.60 21.00 461.64 2550.59
   18:27:01.780.09-Sep-2020 5281.01 6293.56 74.60 21.00 461.84 2550.59
   18:27:01.980.09-Sep-2020 5281.01 6293.05 74.60 21.00 462.04 2550.59
   18:27:02.179.09-Sep-2020 5281.01 6292.85 74.60 21.00 462.24 2550.59
   18:27:02.379.09-Sep-2020 5281.01 6292.94 74.60 21.00 462.44 2550.59
   18:27:02.579.09-Sep-2020 5281.01 6292.73 74.60 21.00 462.64 2550.59
   18:27:02.779.09-Sep-2020 5281.01 6292.73 74.60 21.00 462.84 2550.59
   18:27:02.979.09-Sep-2020 5281.01 6295.66 74.60 21.00 463.04 2550.59
   18:27:03.179.09-Sep-2020 5281.01 6297.46 74.60 21.00 463.24 2550.59
   18:27:03.379.09-Sep-2020 5281.01 6291.23 74.60 21.00 463.44 2550.59
   18:27:03.578.09-Sep-2020 5281.01 6293.60 74.60 21.00 463.64 2550.59
   18:27:03.778.09-Sep-2020 5281.01 6292.49 74.60 21.00 463.84 2550.59
   18:27:03.978.09-Sep-2020 5281.01 6293.62 74.60 21.00 464.04 2550.59
   18:27:04.178.09-Sep-2020 5281.01 6293.68 74.60 21.00 464.24 2550.59
   18:27:04.378.09-Sep-2020 5281.01 6292.95 74.60 21.00 464.44 2550.59
   18:27:04.578.09-Sep-2020 5281.01 6291.94 74.60 21.00 464.64 2550.59
   18:27:04.777.09-Sep-2020 5281.01 6291.94 74.60 21.00 464.84 2550.59
   18:27:04.977.09-Sep-2020 5281.01 6292.29 74.60 21.00 465.04 2550.59
   18:27:05.177.09-Sep-2020 5281.01 6291.84 74.60 21.00 465.24 2550.59
   18:27:05.377.09-Sep-2020 5281.01 6291.23 74.60 21.00 465.43 2550.59
   18:27:05.577.09-Sep-2020 5281.01 6291.17 74.60 21.00 465.63 2550.59
   18:27:05.777.09-Sep-2020 5281.01 6291.17 74.60 21.00 465.83 2550.59
   18:27:05.976.09-Sep-2020 5281.01 6291.24 74.60 21.00 466.03 2550.59
   18:27:06.176.09-Sep-2020 5281.01 6291.51 74.60 21.00 466.23 2550.59
   18:27:06.376.09-Sep-2020 5281.01 6294.44 74.60 21.00 466.43 2550.59
   18:27:06.576.09-Sep-2020 5281.01 6295.73 74.60 21.00 466.63 2550.59
   18:27:06.776.09-Sep-2020 5281.01 6295.73 74.60 21.00 466.83 2550.59
   18:27:06.976.09-Sep-2020 5281.01 6291.96 74.60 21.00 467.03 2550.59
   18:27:07.176.09-Sep-2020 5281.01 6291.06 74.60 21.00 467.23 2550.59
   18:27:07.375.09-Sep-2020 5281.01 6292.94 74.60 21.00 467.43 2550.59
   18:27:07.575.09-Sep-2020 5281.01 6301.62 74.60 21.00 467.63 2550.59
   18:27:07.775.09-Sep-2020 5281.01 6301.62 74.60 21.00 467.83 2550.59
   18:27:07.975.09-Sep-2020 5281.01 6290.74 74.60 21.00 468.03 2550.59
   18:27:08.175.09-Sep-2020 5281.01 6292.12 74.60 21.00 468.23 2550.59
   18:27:08.375.09-Sep-2020 5281.01 6291.59 74.60 21.00 468.43 2550.59
   18:27:08.574.09-Sep-2020 5281.01 6293.59 74.60 21.00 468.63 2550.59
   18:27:08.774.09-Sep-2020 5281.01 6293.59 74.60 21.00 468.83 2550.59
   18:27:08.974.09-Sep-2020 5281.01 6291.05 74.60 21.00 469.03 2550.59
   18:27:09.174.09-Sep-2020 5281.01 6291.68 74.60 21.00 469.23 2550.59
   18:27:09.374.09-Sep-2020 5281.01 6292.10 74.60 21.00 469.43 2550.59
   18:27:09.574.09-Sep-2020 5281.01 6292.12 74.60 21.00 469.63 2550.59
   18:27:09.774.09-Sep-2020 5281.01 6292.12 74.60 21.00 469.83 2550.59
   18:27:09.973.09-Sep-2020 5281.01 6299.69 74.60 21.00 470.03 2550.59
   18:27:10.173.09-Sep-2020 5281.01 6292.13 74.60 21.00 470.23 2550.59
   18:27:10.373.09-Sep-2020 5281.01 6293.32 74.59 21.00 470.43 2550.59
   18:27:10.573.09-Sep-2020 5281.01 6291.84 74.60 21.00 470.63 2550.59
   18:27:10.773.09-Sep-2020 5281.01 6291.84 74.60 21.00 470.83 2550.59
   18:27:10.973.09-Sep-2020 5281.01 6293.24 74.59 21.00 471.03 2550.59
   18:27:11.172.09-Sep-2020 5281.01 6295.47 74.59 21.00 471.23 2550.59
   18:27:11.372.09-Sep-2020 5281.01 6292.88 74.59 21.00 471.43 2550.59
   18:27:11.572.09-Sep-2020 5281.01 6293.75 74.59 21.00 471.63 2550.59
   18:27:11.772.09-Sep-2020 5281.01 6293.75 74.59 21.00 471.83 2550.59
   18:27:11.972.09-Sep-2020 5281.01 6296.45 74.59 21.00 472.03 2550.59
   18:27:12.172.09-Sep-2020 5281.01 6292.97 74.59 21.00 472.23 2550.59
   18:27:12.371.09-Sep-2020 5281.01 6293.43 74.59 21.00 472.43 2550.59
   18:27:12.571.09-Sep-2020 5281.01 6292.92 74.59 21.00 472.63 2550.59
   18:27:12.771.09-Sep-2020 5281.01 6292.92 74.59 21.00 472.83 2550.59
   18:27:12.971.09-Sep-2020 5281.01 6292.89 74.59 21.00 473.03 2550.59
   18:27:13.171.09-Sep-2020 5281.01 6292.44 74.59 21.00 473.23 2550.59
   18:27:13.371.09-Sep-2020 5281.01 6292.28 74.59 21.00 473.43 2550.59
   18:27:13.571.09-Sep-2020 5281.01 6292.24 74.59 21.00 473.63 2550.59
   18:27:13.770.09-Sep-2020 5281.01 6292.24 74.59 21.00 473.83 2550.59
   18:27:13.970.09-Sep-2020 5281.01 6292.23 74.59 21.00 474.03 2550.59
