~Version Information
 VERS.                  2.0:   CWLS log ASCII Standard -VERSION 2.0
 WRAP.                   NO:   One line per depth step
~Well Information Block
#MNEM.UNIT     VALUE/NAME     DESCRIPTION
#---------     -----------    ---------------------------
 STRT.S             20:00:32 09-Sep-20: START TIME 20:00:32 09-Sep-20
 STOP.S             20:08:52 09-Sep-20: STOP TIME  20:08:52 09-Sep-20
 STEP.S                   0.00: STEP TIME
 NULL.                 -999.25: NULL VALUE
 MDS .        Operator Entered:  MAG DATA SOURCE
 PDAT.          Mean Sea Level:  PERMANENT DATUM
 DCON.         Sperry Drilling:  DIRECTNL CONTR
 RIG .              West Azeri:  RIG NAME
 WELL.           C40 (Slot 20):  WELL NAME
 SRVC.     Turan Drilling Engineering:  CONTRACTOR
 FLD .                     ACG:  FIELD NAME
 CTRY.              Azerbaijan:  COUNTRY NAME
 PROV.                    Baku:  PROVINCE
 STAT.                    Baku:  STATE NAME
 REGN.                   EESSA:  REGION
 BASE.              Azerbaijan:  LOGGING EQUIPMENT BASE LOCATION
 COMP.     BP Exploration (Caspian Sea) Ltd:  COMPANY
 WTYP.                Deviated:  WELL TYPE
 SON .        AZ-XX-0906344804:  JOB NUMBER
 FTOP.          Formation Tops:  FORM TOPS DESC
 ILTD.               Lithology:  INTERP LTH DESC
 SVYD.                  Survey:  SURVEY DESC
 DMOD.             Drill Model:  DRILL MOD DESC
 HPTY.       Minimum Curvature:  HOLE POS TYPE
 NREF.                    Grid:  NORTH REFERENCE
 SPUD.               01-Jan-20:  SPUD DATE
 DATE.      00.59.44 15-Sep-20:  END TIME
 STIM.      12.00.00 12-Jun-20:  START TIME
 DMF .             Drill Floor:  DRILL MEAS FROM
 DFST.                        :  DIST FSL TEXT
 DFWT.                        :  DIST FWL TEXT
 API .                        :  API NUMBER
 CNTY.                        :  COUNTY
 UWI .                        :  UNIQUE WELL IDENTIFIER
 LOC .                        :  LOCATION
 LMF .             Drill Floor:  LOG MEASURED FROM
 VSNS.m                   2.88:  VERT SEC N/S
 VSEW.m                  -3.84:  VERT SEC E/W
 AGAP.m                  43.42:  AIR GAP
 APD .m                  43.42:  DEPTH ABOVE PD
 WDMS.m                 118.27:  WD ELEV
 EGL .m                   0.00:  GROUND ELEVATION
 EPD .m                   0.00:  ELEVATION
 AZTC.deg                 6.23:  AZM TOTAL CORR
 GRDC.deg                 0.20:  GRID CORRECTION
 MDEC.deg                 6.43:  MAGNETIC DECL
 MDIP.deg                59.49:  MAGNETIC DIP
 MFLD.nT              50277.00:  MAGNETIC FIELD
 GVFD.g                   1.00:  GRAVITY FIELD
 VSDR.deg               173.20:  VERT SEC DIRECT
 TDD .m                5790.01:  TOTAL DEPTH (DRILLER)
 SDEP.m                5231.01:  START DEPTH
 DFSL.m                   0.00:  DISTANCE FSL
 DFWL.m                   0.00:  DISTANCE FWL
 UTMY.m             4435808.83:  UTM Y
 UTMX.m              526266.40:  UTM X
 WHEW.m                  -3.84:  WELL HEAD E/W
 WHNS.m                   2.88:  WELL HEAD N/S
 LONG.deg                51.31:  LONGITUDE
 LATI.deg                40.06:  LATITUDE
 TVDS.m                  43.42:  TVDSS CORRECTN
 DEP .m                 430.08:  DEPTH
 EKB .m                  43.42:  KB ELEVATION
 EDF .m                  43.42:  DF ELEVATION
 TDL .m                 559.00:  TOTAL DEPTH (LOGGER)
 MAGU.                 1849381:  MAGUTM CHECKSUM
 VSC .                       0:  VS TO CLOSURE
~Parameter Information Block
#MNEM.UNIT       Value        Description
#---------     -----------    ---------------------------
 AV  .mps                 4.87:  Ann Velocity 
 AVMX.mps                 7.08:  Max Ann Veloc 
 AZIF.deg               108.87:  Azm, Final 
 BHAT.                  Rotary:  BHA Type 
 BROT.°/30m               0.35:  Build Rotating 
 BS  .in                  8.50:  Bit Size 
 BSZ .in                  8.50:  Bit Size 
 BTPL.psig              360.00:  Bit Press Loss 
 CABU.                     Yes:  Customer Abuse 
 TCS .hr                106.24:  Time Ciculation Ended 
 CV  .mps                 1.77:  Crit Velocity 
 CVMX.mps                 2.03:  Max Crit Veloc 
 DD1 .         Aykhan Agagulov:  Direct Drillr 1 
 DD2 .            Nonso Okofor:  Direct Drillr 2 
 DDSV.               Geo-Pilot:  DD Service 
 DEFF.%                  98.00:  % Det Eff 
 DLRX.°/30m               0.50:  Dogleg Rot Max 
 DLSO.°/30m               0.40:  Dogleg Oriented 
 DLSX.°/30m               0.94:  Dogleg Str Max 
 DRET.      20.30.00 08-Sep-20:  Drill End Time 
 DRST.      22.15.00 06-Sep-20:  Drill Start Tim 
 DTIM.hr                 31.31:  Time Drilling 
 EDEP.m                5790.01:  End Depth 
 ENG1.           Amrah Tahirov:  Engineer 1 
 ENG2.         Dair Mahammadov:  Engineer 2 
 ENG3.           Emil Huseynov:  Engineer 3 
 ETIM.      04.01.04 12-Sep-20:  End Time 
 FLOI.gpm               450.00:  Flow In 
 FLON.gpm               450.00:  Flow In Min 
 FLOS.cptm                2.00:  Fluid Loss 
 FLOX.gpm               450.00:  Flow In Max 
 FTRO.       Formation Presure:  FTWD Run Obj 
 HFLO.                      No:  High Flow 
 HPRE.                      No:  High Pressure 
 HTEM.                      No:  High Temp 
 HYDO.m                   1.80:  Hydro Offset 
 IFIN.deg                72.03:  Inc, Final 
 IMAX.deg                73.72:  Inc Max 
 IMIN.deg                70.94:  Inc Min 
 IMND.m                5508.52:  Inc Min Depth 
 IMXD.m                5253.60:  Inc Max Depth 
 JARR.                      No:  Jarring 
 LETM.      20.30.00 08-Sep-20:  Log End Time 
 LOST.hr                     0:  Lost Rig Time 
 LSTM.      22.15.00 06-Sep-20:  Log Start Time 
 MDCL.ppm             36000.00:  Mud Chlorides 
 MDES.     Inversion Oil/Synthetic:  Mud Desc 
 DFD .sg                  1.44:  Mud Density 
 MDMN.sg                  1.44:  Dens Mud Min 
 MDMX.sg                  1.57:  Dens Mud Max 
 MOIL.                      70:  Run Mud Oil % 
 MOWR.                   70:30:  Run Mud OWR 
 MSND.                       0:  Run Mud Sand % 
 MSOL.                      21:  Run Mud Solids% 
 DFV .spqt               68.00:  Mud Viscosity 
 MWOD.in                  6.75:  MWD Tool OD 
 MWSI.                     Yes:  Serv Intrp, MWD 
 OTIM.hr                174.84:  Time Operating 
 PCON.           Look Like New:  Pad Condition 
 PMAX.psia            10616.93:  Press Op, Max 
 PV  .cP                 50.00:  Mud PV 
 RUN .                     700:  Run Number 
 ROPA.m/hr               14.24:  ROP Avg 
 ROPN.m/hr               10.00:  ROP Min 
 ROPX.m/hr               32.00:  ROP Max 
 RPMA.rpm               120.90:  RPM Surface Avg 
 RPMN.rpm               120.00:  RPM Surface Min 
 RPMX.rpm               140.00:  RPM Surface Max 
 RRUN.                    0700:  Rig Run Number 
 RTIM.hr                  3.20:  Time Reaming 
 SAZI.deg               109.99:  Azm, Start 
 SDEP.m                5231.01:  Start Depth 
 SIDD.                      No:  Serv Intrp, DD 
 SINC.deg                73.72:  Inc, Start 
 SPPA.psig             3051.00:  SPP Avg 
 SPPN.psig             2950.00:  SPP Min 
 SPPX.psig             3250.00:  SPP Max 
 STIM.      08.00.00 05-Sep-20:  Start Time 
 SVCS.                 DD, MWD:  Services 
 SVER.                    9.20:  Sperry Version 
 TDAT.m                 559.00:  Tot Depth Attmp 
 TDDF.                      No:  Trip for DD 
 TDLG.m                 559.00:  Tot Depth Loggd 
 TFF .                      No:  Trip for Fail 
 TQAA.f-kp               26.49:  Torque Abs Avg 
 TQAN.f-kp               25.00:  Torque Abs Min 
 TQAX.f-kp               27.00:  Torque Abs Max 
 TRRT.°/30m               1.50:  Turn Rotating 
 MRT .                    HCIM:  Maximum Recorded Temperature 
 TTMX.degC               90.20:  Max Tool Temp 
 VS01.                90542671:  Virtual Str1 SN 
 VS02.                90545185:  Virtual Str2 SN 
 VS03.                90602015:  Virtual Str3 SN 
 VS04.                90515230:  Virtual Str4 SN 
 WBMN.klb                 5.00:  WOB Min 
 WOBA.klb                14.79:  WOB Avg 
 WOBX.klb                20.00:  WOB Max 
 YP  .lhf2               29.00:  Yield Point 
~Curve Information Block
#MNEM.UNIT                 API CODE     Curve Description
#---------               -----------    ---------------------------
 TIME.HHMMSS            00 000 000 000:  GT Time & Date
 GTDEPTH.m              00 000 000 000:  GT Depth
 GTPQH.psia             00 000 000 000:  GT HR Quartz Pressure
 GTTQ.degC              00 000 000 000:  GT Quartz Temperature
 GTTN.NONE              00 000 000 000:  GT Test Number
 GTET.sec               00 000 000 000:  GT Elapsed Test Time
 GTTVD.m                00 000 000 000:  GT True Vertical Depth
#Other Information
#
#WARRANTY: Halliburton will use its best efforts to furnish customers with 
#accurate information and interpretations that are part of, and incident to, the services 
#provided.  However, Halliburton cannot and does not warrant the accuracy 
#or correctness of such information and interpretations.  Under no circumstances should any 
#such information or interpretation be relied upon as the sole basis for any drilling, 
#completion, production, or financial decision or any procedure involving any risk to the 
#safety of any drilling venture, drilling rig or its crew or any other third party.  The 
#Customer has full responsibility for all drilling, completion and production operation.  
#Halliburton makes no representations or warranties, either expressed or 
#implied, including, but not limited to, the implied warranties of merchantability or fitness 
#for a particular purpose, with respect to the services rendered.  In no event will 
#Halliburton be liable for failure to obtain any particular results or for 
#any damages, including, but not limited to, indirect, special or consequential damages, 
#resulting from the use of any information or interpretation provided by Halliburton.
#
~A           TIME           GTDEPTH  GTPQH  GTTQ  GTTN   GTET   GTTVD  
# ...
   20:06:56.446.09-Sep-2020 5259.51 4139.56 74.10 24.00 384.38 2544.41
   20:06:56.647.09-Sep-2020 5259.51 4140.05 74.10 24.00 384.58 2544.41
   20:06:56.847.09-Sep-2020 5259.51 4140.00 74.10 24.00 384.78 2544.41
   20:06:57.047.09-Sep-2020 5259.51 4139.83 74.10 24.00 384.98 2544.41
   20:06:57.247.09-Sep-2020 5259.51 4139.50 74.10 24.00 385.18 2544.41
   20:06:57.447.09-Sep-2020 5259.51 4139.50 74.10 24.00 385.38 2544.41
   20:06:57.647.09-Sep-2020 5259.51 4140.01 74.10 24.00 385.58 2544.41
   20:06:57.847.09-Sep-2020 5259.51 4139.78 74.10 24.00 385.78 2544.41
   20:06:58.047.09-Sep-2020 5259.51 4139.98 74.10 24.00 385.98 2544.41
   20:06:58.247.09-Sep-2020 5259.51 4139.82 74.10 24.00 386.18 2544.41
   20:06:58.447.09-Sep-2020 5259.51 4139.82 74.10 24.00 386.38 2544.41
   20:06:58.647.09-Sep-2020 5259.51 4139.85 74.10 24.00 386.58 2544.41
   20:06:58.848.09-Sep-2020 5259.51 4139.89 74.10 24.00 386.78 2544.41
   20:06:59.048.09-Sep-2020 5259.51 4139.84 74.10 24.00 386.98 2544.41
   20:06:59.248.09-Sep-2020 5259.51 4139.91 74.10 24.00 387.18 2544.41
   20:06:59.448.09-Sep-2020 5259.51 4139.91 74.10 24.00 387.38 2544.41
   20:06:59.648.09-Sep-2020 5259.51 4139.84 74.10 24.00 387.58 2544.41
   20:06:59.848.09-Sep-2020 5259.51 4139.84 74.10 24.00 387.78 2544.41
   20:07:00.048.09-Sep-2020 5259.51 4139.88 74.10 24.00 387.98 2544.41
   20:07:00.248.09-Sep-2020 5259.51 4139.91 74.10 24.00 388.18 2544.41
   20:07:00.448.09-Sep-2020 5259.51 4139.93 74.10 24.00 388.38 2544.41
   20:07:00.648.09-Sep-2020 5259.51 4139.90 74.10 24.00 388.58 2544.41
   20:07:00.848.09-Sep-2020 5259.51 4139.47 74.10 24.00 388.78 2544.41
   20:07:01.049.09-Sep-2020 5259.51 4140.18 74.10 24.00 388.98 2544.41
   20:07:01.249.09-Sep-2020 5259.51 4140.25 74.10 24.00 389.18 2544.41
   20:07:01.449.09-Sep-2020 5259.51 4140.25 74.10 24.00 389.38 2544.41
   20:07:01.649.09-Sep-2020 5259.51 4140.21 74.10 24.00 389.58 2544.41
   20:07:01.849.09-Sep-2020 5259.51 4140.02 74.10 24.00 389.78 2544.41
   20:07:02.049.09-Sep-2020 5259.51 4140.02 74.10 24.00 389.98 2544.41
   20:07:02.249.09-Sep-2020 5259.51 4139.93 74.10 24.00 390.18 2544.41
   20:07:02.449.09-Sep-2020 5259.51 4139.93 74.10 24.00 390.38 2544.41
   20:07:02.649.09-Sep-2020 5259.51 4139.93 74.10 24.00 390.58 2544.41
   20:07:02.849.09-Sep-2020 5259.51 4139.93 74.10 24.00 390.78 2544.41
   20:07:03.049.09-Sep-2020 5259.51 4139.85 74.10 24.00 390.98 2544.41
   20:07:03.250.09-Sep-2020 5259.51 4139.84 74.10 24.00 391.18 2544.41
   20:07:03.450.09-Sep-2020 5259.51 4139.84 74.10 24.00 391.38 2544.41
   20:07:03.650.09-Sep-2020 5259.51 4139.90 74.10 24.00 391.58 2544.41
   20:07:03.850.09-Sep-2020 5259.51 4139.97 74.10 24.00 391.78 2544.41
   20:07:04.050.09-Sep-2020 5259.51 4139.93 74.10 24.00 391.98 2544.41
   20:07:04.250.09-Sep-2020 5259.51 4139.41 74.10 24.00 392.18 2544.41
   20:07:04.450.09-Sep-2020 5259.51 4139.41 74.10 24.00 392.38 2544.41
   20:07:04.650.09-Sep-2020 5259.51 4140.11 74.10 24.00 392.58 2544.41
   20:07:04.850.09-Sep-2020 5259.51 4140.02 74.10 24.00 392.78 2544.41
   20:07:05.050.09-Sep-2020 5259.51 4140.14 74.10 24.00 392.98 2544.41
   20:07:05.250.09-Sep-2020 5259.51 4139.82 74.10 24.00 393.18 2544.41
   20:07:05.451.09-Sep-2020 5259.51 4139.82 74.10 24.00 393.38 2544.41
   20:07:05.651.09-Sep-2020 5259.51 4139.94 74.10 24.00 393.58 2544.41
   20:07:05.851.09-Sep-2020 5259.51 4139.92 74.10 24.00 393.78 2544.41
   20:07:06.051.09-Sep-2020 5259.51 4139.85 74.10 24.00 393.98 2544.41
   20:07:06.251.09-Sep-2020 5259.51 4140.02 74.10 24.00 394.18 2544.41
   20:07:06.451.09-Sep-2020 5259.51 4140.02 74.10 24.00 394.38 2544.41
   20:07:06.651.09-Sep-2020 5259.51 4140.38 74.10 24.00 394.58 2544.41
   20:07:06.851.09-Sep-2020 5259.51 4140.10 74.10 24.00 394.78 2544.41
   20:07:07.051.09-Sep-2020 5259.51 4139.94 74.10 24.00 394.98 2544.41
   20:07:07.251.09-Sep-2020 5259.51 4138.98 74.10 24.00 395.18 2544.41
   20:07:07.452.09-Sep-2020 5259.51 4140.44 74.10 24.00 395.38 2544.41
   20:07:07.652.09-Sep-2020 5259.51 4140.02 74.10 24.00 395.58 2544.41
   20:07:07.852.09-Sep-2020 5259.51 4139.87 74.10 24.00 395.78 2544.41
   20:07:08.052.09-Sep-2020 5259.51 4138.99 74.10 24.00 395.98 2544.41
   20:07:08.252.09-Sep-2020 5259.51 4140.45 74.10 24.00 396.18 2544.41
   20:07:08.452.09-Sep-2020 5259.51 4140.45 74.10 24.00 396.38 2544.41
   20:07:08.652.09-Sep-2020 5259.51 4139.94 74.10 24.00 396.58 2544.41
   20:07:08.852.09-Sep-2020 5259.51 4139.84 74.10 24.00 396.78 2544.41
   20:07:09.052.09-Sep-2020 5259.51 4140.04 74.10 24.00 396.98 2544.41
   20:07:09.252.09-Sep-2020 5259.51 4139.95 74.10 24.00 397.18 2544.41
   20:07:09.452.09-Sep-2020 5259.51 4139.95 74.10 24.00 397.38 2544.41
   20:07:09.653.09-Sep-2020 5259.51 4139.92 74.10 24.00 397.58 2544.41
   20:07:09.853.09-Sep-2020 5259.51 4139.90 74.10 24.00 397.78 2544.41
   20:07:10.053.09-Sep-2020 5259.51 4139.95 74.10 24.00 397.98 2544.41
   20:07:10.253.09-Sep-2020 5259.51 4139.97 74.10 24.00 398.18 2544.41
   20:07:10.453.09-Sep-2020 5259.51 4139.97 74.10 24.00 398.38 2544.41
   20:07:10.653.09-Sep-2020 5259.51 4139.88 74.10 24.00 398.58 2544.41
   20:07:10.853.09-Sep-2020 5259.51 4139.88 74.10 24.00 398.78 2544.41
   20:07:11.053.09-Sep-2020 5259.51 4139.92 74.10 24.00 398.98 2544.41
   20:07:11.253.09-Sep-2020 5259.51 4139.95 74.10 24.00 399.18 2544.41
   20:07:11.453.09-Sep-2020 5259.51 4139.95 74.10 24.00 399.38 2544.41
   20:07:11.653.09-Sep-2020 5259.51 4139.13 74.10 24.00 399.58 2544.41
   20:07:11.854.09-Sep-2020 5259.51 4140.51 74.10 24.00 399.78 2544.41
   20:07:12.054.09-Sep-2020 5259.51 4140.33 74.10 24.00 399.98 2544.41
   20:07:12.254.09-Sep-2020 5259.51 4140.20 74.10 24.00 400.18 2544.41
   20:07:12.454.09-Sep-2020 5259.51 4140.20 74.10 24.00 400.38 2544.41
   20:07:12.654.09-Sep-2020 5259.51 4140.21 74.10 24.00 400.58 2544.41
   20:07:12.854.09-Sep-2020 5259.51 4140.04 74.10 24.00 400.78 2544.41
   20:07:13.054.09-Sep-2020 5259.51 4140.02 74.10 24.00 400.98 2544.41
   20:07:13.254.09-Sep-2020 5259.51 4139.99 74.10 24.00 401.18 2544.41
   20:07:13.454.09-Sep-2020 5259.51 4139.99 74.10 24.00 401.38 2544.41
   20:07:13.654.09-Sep-2020 5259.51 4139.96 74.10 24.00 401.59 2544.41
   20:07:13.854.09-Sep-2020 5259.51 4139.96 74.10 24.00 401.79 2544.41
   20:07:14.055.09-Sep-2020 5259.51 4139.89 74.10 24.00 401.99 2544.41
   20:07:14.255.09-Sep-2020 5259.51 4139.88 74.10 24.00 402.19 2544.41
   20:07:14.455.09-Sep-2020 5259.51 4139.88 74.10 24.00 402.39 2544.41
   20:07:14.655.09-Sep-2020 5259.51 4139.96 74.10 24.00 402.59 2544.41
   20:07:14.855.09-Sep-2020 5259.51 4139.98 74.10 24.00 402.79 2544.41
   20:07:15.055.09-Sep-2020 5259.51 4139.11 74.10 24.00 402.99 2544.41
   20:07:15.255.09-Sep-2020 5259.51 4140.35 74.10 24.00 403.19 2544.41
   20:07:15.455.09-Sep-2020 5259.51 4140.16 74.10 24.00 403.39 2544.41
   20:07:15.655.09-Sep-2020 5259.51 4140.06 74.10 24.00 403.59 2544.41
   20:07:15.855.09-Sep-2020 5259.51 4140.01 74.10 24.00 403.79 2544.41
   20:07:16.055.09-Sep-2020 5259.51 4140.17 74.10 24.00 403.99 2544.41
   20:07:16.256.09-Sep-2020 5259.51 4138.90 74.10 24.00 404.19 2544.41
   20:07:16.456.09-Sep-2020 5259.51 4140.39 74.10 24.00 404.39 2544.41
   20:07:16.656.09-Sep-2020 5259.51 4139.95 74.10 24.00 404.59 2544.41
   20:07:16.856.09-Sep-2020 5259.51 4139.88 74.10 24.00 404.79 2544.41
   20:07:17.056.09-Sep-2020 5259.51 4139.79 74.10 24.00 404.99 2544.41
   20:07:17.256.09-Sep-2020 5259.51 4139.98 74.10 24.00 405.19 2544.41
   20:07:17.456.09-Sep-2020 5259.51 4139.98 74.10 24.00 405.39 2544.41
   20:07:17.656.09-Sep-2020 5259.51 4140.17 74.10 24.00 405.59 2544.41
   20:07:17.856.09-Sep-2020 5259.51 4140.04 74.10 24.00 405.79 2544.41
   20:07:18.056.09-Sep-2020 5259.51 4139.93 74.10 24.00 405.99 2544.41
   20:07:18.256.09-Sep-2020 5259.51 4139.08 74.10 24.00 406.19 2544.41
   20:07:18.457.09-Sep-2020 5259.51 4139.08 74.10 24.00 406.39 2544.41
   20:07:18.657.09-Sep-2020 5259.51 4140.13 74.10 24.00 406.59 2544.41
   20:07:18.857.09-Sep-2020 5259.51 4139.96 74.10 24.00 406.79 2544.41
