~Version Information
 VERS.                  2.0:   CWLS log ASCII Standard -VERSION 2.0
 WRAP.                   NO:   One line per depth step
~Well Information Block
#MNEM.UNIT     VALUE/NAME     DESCRIPTION
#---------     -----------    ---------------------------
 STRT.S             16:52:14 09-Sep-20: START TIME 16:52:14 09-Sep-20
 STOP.S             17:00:39 09-Sep-20: STOP TIME  17:00:39 09-Sep-20
 STEP.S                   0.00: STEP TIME
 NULL.                 -999.25: NULL VALUE
 MDS .        Operator Entered:  MAG DATA SOURCE
 PDAT.          Mean Sea Level:  PERMANENT DATUM
 DCON.         Sperry Drilling:  DIRECTNL CONTR
 RIG .              West Azeri:  RIG NAME
 WELL.           C40 (Slot 20):  WELL NAME
 SRVC.     Turan Drilling Engineering:  CONTRACTOR
 FLD .                     ACG:  FIELD NAME
 CTRY.              Azerbaijan:  COUNTRY NAME
 PROV.                    Baku:  PROVINCE
 STAT.                    Baku:  STATE NAME
 REGN.                   EESSA:  REGION
 BASE.              Azerbaijan:  LOGGING EQUIPMENT BASE LOCATION
 COMP.     BP Exploration (Caspian Sea) Ltd:  COMPANY
 WTYP.                Deviated:  WELL TYPE
 SON .        AZ-XX-0906344804:  JOB NUMBER
 FTOP.          Formation Tops:  FORM TOPS DESC
 ILTD.               Lithology:  INTERP LTH DESC
 SVYD.                  Survey:  SURVEY DESC
 DMOD.             Drill Model:  DRILL MOD DESC
 HPTY.       Minimum Curvature:  HOLE POS TYPE
 NREF.                    Grid:  NORTH REFERENCE
 SPUD.               01-Jan-20:  SPUD DATE
 DATE.      00.59.44 15-Sep-20:  END TIME
 STIM.      12.00.00 12-Jun-20:  START TIME
 DMF .             Drill Floor:  DRILL MEAS FROM
 DFST.                        :  DIST FSL TEXT
 DFWT.                        :  DIST FWL TEXT
 API .                        :  API NUMBER
 CNTY.                        :  COUNTY
 UWI .                        :  UNIQUE WELL IDENTIFIER
 LOC .                        :  LOCATION
 LMF .             Drill Floor:  LOG MEASURED FROM
 VSNS.m                   2.88:  VERT SEC N/S
 VSEW.m                  -3.84:  VERT SEC E/W
 AGAP.m                  43.42:  AIR GAP
 APD .m                  43.42:  DEPTH ABOVE PD
 WDMS.m                 118.27:  WD ELEV
 EGL .m                   0.00:  GROUND ELEVATION
 EPD .m                   0.00:  ELEVATION
 AZTC.deg                 6.23:  AZM TOTAL CORR
 GRDC.deg                 0.20:  GRID CORRECTION
 MDEC.deg                 6.43:  MAGNETIC DECL
 MDIP.deg                59.49:  MAGNETIC DIP
 MFLD.nT              50277.00:  MAGNETIC FIELD
 GVFD.g                   1.00:  GRAVITY FIELD
 VSDR.deg               173.20:  VERT SEC DIRECT
 TDD .m                5790.01:  TOTAL DEPTH (DRILLER)
 SDEP.m                5231.01:  START DEPTH
 DFSL.m                   0.00:  DISTANCE FSL
 DFWL.m                   0.00:  DISTANCE FWL
 UTMY.m             4435808.83:  UTM Y
 UTMX.m              526266.40:  UTM X
 WHEW.m                  -3.84:  WELL HEAD E/W
 WHNS.m                   2.88:  WELL HEAD N/S
 LONG.deg                51.31:  LONGITUDE
 LATI.deg                40.06:  LATITUDE
 TVDS.m                  43.42:  TVDSS CORRECTN
 DEP .m                 430.08:  DEPTH
 EKB .m                  43.42:  KB ELEVATION
 EDF .m                  43.42:  DF ELEVATION
 TDL .m                 559.00:  TOTAL DEPTH (LOGGER)
 MAGU.                 1849381:  MAGUTM CHECKSUM
 VSC .                       0:  VS TO CLOSURE
~Parameter Information Block
#MNEM.UNIT       Value        Description
#---------     -----------    ---------------------------
 AV  .mps                 4.87:  Ann Velocity 
 AVMX.mps                 7.08:  Max Ann Veloc 
 AZIF.deg               108.87:  Azm, Final 
 BHAT.                  Rotary:  BHA Type 
 BROT.°/30m               0.35:  Build Rotating 
 BS  .in                  8.50:  Bit Size 
 BSZ .in                  8.50:  Bit Size 
 BTPL.psig              360.00:  Bit Press Loss 
 CABU.                     Yes:  Customer Abuse 
 TCS .hr                106.24:  Time Ciculation Ended 
 CV  .mps                 1.77:  Crit Velocity 
 CVMX.mps                 2.03:  Max Crit Veloc 
 DD1 .         Aykhan Agagulov:  Direct Drillr 1 
 DD2 .            Nonso Okofor:  Direct Drillr 2 
 DDSV.               Geo-Pilot:  DD Service 
 DEFF.%                  98.00:  % Det Eff 
 DLRX.°/30m               0.50:  Dogleg Rot Max 
 DLSO.°/30m               0.40:  Dogleg Oriented 
 DLSX.°/30m               0.94:  Dogleg Str Max 
 DRET.      20.30.00 08-Sep-20:  Drill End Time 
 DRST.      22.15.00 06-Sep-20:  Drill Start Tim 
 DTIM.hr                 31.31:  Time Drilling 
 EDEP.m                5790.01:  End Depth 
 ENG1.           Amrah Tahirov:  Engineer 1 
 ENG2.         Dair Mahammadov:  Engineer 2 
 ENG3.           Emil Huseynov:  Engineer 3 
 ETIM.      04.01.04 12-Sep-20:  End Time 
 FLOI.gpm               450.00:  Flow In 
 FLON.gpm               450.00:  Flow In Min 
 FLOS.cptm                2.00:  Fluid Loss 
 FLOX.gpm               450.00:  Flow In Max 
 FTRO.       Formation Presure:  FTWD Run Obj 
 HFLO.                      No:  High Flow 
 HPRE.                      No:  High Pressure 
 HTEM.                      No:  High Temp 
 HYDO.m                   1.80:  Hydro Offset 
 IFIN.deg                72.03:  Inc, Final 
 IMAX.deg                73.72:  Inc Max 
 IMIN.deg                70.94:  Inc Min 
 IMND.m                5508.52:  Inc Min Depth 
 IMXD.m                5253.60:  Inc Max Depth 
 JARR.                      No:  Jarring 
 LETM.      20.30.00 08-Sep-20:  Log End Time 
 LOST.hr                     0:  Lost Rig Time 
 LSTM.      22.15.00 06-Sep-20:  Log Start Time 
 MDCL.ppm             36000.00:  Mud Chlorides 
 MDES.     Inversion Oil/Synthetic:  Mud Desc 
 DFD .sg                  1.44:  Mud Density 
 MDMN.sg                  1.44:  Dens Mud Min 
 MDMX.sg                  1.57:  Dens Mud Max 
 MOIL.                      70:  Run Mud Oil % 
 MOWR.                   70:30:  Run Mud OWR 
 MSND.                       0:  Run Mud Sand % 
 MSOL.                      21:  Run Mud Solids% 
 DFV .spqt               68.00:  Mud Viscosity 
 MWOD.in                  6.75:  MWD Tool OD 
 MWSI.                     Yes:  Serv Intrp, MWD 
 OTIM.hr                174.84:  Time Operating 
 PCON.           Look Like New:  Pad Condition 
 PMAX.psia            10616.93:  Press Op, Max 
 PV  .cP                 50.00:  Mud PV 
 RUN .                     700:  Run Number 
 ROPA.m/hr               14.24:  ROP Avg 
 ROPN.m/hr               10.00:  ROP Min 
 ROPX.m/hr               32.00:  ROP Max 
 RPMA.rpm               120.90:  RPM Surface Avg 
 RPMN.rpm               120.00:  RPM Surface Min 
 RPMX.rpm               140.00:  RPM Surface Max 
 RRUN.                    0700:  Rig Run Number 
 RTIM.hr                  3.20:  Time Reaming 
 SAZI.deg               109.99:  Azm, Start 
 SDEP.m                5231.01:  Start Depth 
 SIDD.                      No:  Serv Intrp, DD 
 SINC.deg                73.72:  Inc, Start 
 SPPA.psig             3051.00:  SPP Avg 
 SPPN.psig             2950.00:  SPP Min 
 SPPX.psig             3250.00:  SPP Max 
 STIM.      08.00.00 05-Sep-20:  Start Time 
 SVCS.                 DD, MWD:  Services 
 SVER.                    9.20:  Sperry Version 
 TDAT.m                 559.00:  Tot Depth Attmp 
 TDDF.                      No:  Trip for DD 
 TDLG.m                 559.00:  Tot Depth Loggd 
 TFF .                      No:  Trip for Fail 
 TQAA.f-kp               26.49:  Torque Abs Avg 
 TQAN.f-kp               25.00:  Torque Abs Min 
 TQAX.f-kp               27.00:  Torque Abs Max 
 TRRT.°/30m               1.50:  Turn Rotating 
 MRT .                    HCIM:  Maximum Recorded Temperature 
 TTMX.degC               90.20:  Max Tool Temp 
 VS01.                90542671:  Virtual Str1 SN 
 VS02.                90545185:  Virtual Str2 SN 
 VS03.                90602015:  Virtual Str3 SN 
 VS04.                90515230:  Virtual Str4 SN 
 WBMN.klb                 5.00:  WOB Min 
 WOBA.klb                14.79:  WOB Avg 
 WOBX.klb                20.00:  WOB Max 
 YP  .lhf2               29.00:  Yield Point 
~Curve Information Block
#MNEM.UNIT                 API CODE     Curve Description
#---------               -----------    ---------------------------
 TIME.HHMMSS            00 000 000 000:  GT Time & Date
 GTDEPTH.m              00 000 000 000:  GT Depth
 GTPQH.psia             00 000 000 000:  GT HR Quartz Pressure
 GTTQ.degC              00 000 000 000:  GT Quartz Temperature
 GTTN.NONE              00 000 000 000:  GT Test Number
 GTET.sec               00 000 000 000:  GT Elapsed Test Time
 GTTVD.m                00 000 000 000:  GT True Vertical Depth
#Other Information
#
#WARRANTY: Halliburton will use its best efforts to furnish customers with 
#accurate information and interpretations that are part of, and incident to, the services 
#provided.  However, Halliburton cannot and does not warrant the accuracy 
#or correctness of such information and interpretations.  Under no circumstances should any 
#such information or interpretation be relied upon as the sole basis for any drilling, 
#completion, production, or financial decision or any procedure involving any risk to the 
#safety of any drilling venture, drilling rig or its crew or any other third party.  The 
#Customer has full responsibility for all drilling, completion and production operation.  
#Halliburton makes no representations or warranties, either expressed or 
#implied, including, but not limited to, the implied warranties of merchantability or fitness 
#for a particular purpose, with respect to the services rendered.  In no event will 
#Halliburton be liable for failure to obtain any particular results or for 
#any damages, including, but not limited to, indirect, special or consequential damages, 
#resulting from the use of any information or interpretation provided by Halliburton.
#
~A           TIME           GTDEPTH  GTPQH  GTTQ  GTTN   GTET   GTTVD  
   16:52:14.141.09-Sep-2020 5303.01 6182.73 74.77 19.00   0.00 2557.08
   16:52:14.341.09-Sep-2020 5303.01 6182.73 74.77 19.00   0.20 2557.08
   16:52:14.541.09-Sep-2020 5303.01 6183.69 74.77 19.00   0.40 2557.08
   16:52:14.741.09-Sep-2020 5303.01 6183.79 74.77 19.00   0.60 2557.08
   16:52:14.941.09-Sep-2020 5303.01 6184.15 74.77 19.00   0.80 2557.08
   16:52:15.142.09-Sep-2020 5303.01 6184.87 74.77 19.00   1.00 2557.08
   16:52:15.342.09-Sep-2020 5303.01 6184.87 74.77 19.00   1.20 2557.08
   16:52:15.542.09-Sep-2020 5303.01 6186.22 74.77 19.00   1.40 2557.08
   16:52:15.742.09-Sep-2020 5303.01 6186.41 74.77 19.00   1.60 2557.08
   16:52:15.942.09-Sep-2020 5303.01 6186.93 74.77 19.00   1.80 2557.08
   16:52:16.142.09-Sep-2020 5303.01 6187.45 74.77 19.00   2.00 2557.08
   16:52:16.342.09-Sep-2020 5303.01 6187.45 74.77 19.00   2.20 2557.08
   16:52:16.542.09-Sep-2020 5303.01 6187.24 74.77 19.00   2.40 2557.08
   16:52:16.742.09-Sep-2020 5303.01 6186.68 74.77 19.00   2.60 2557.08
   16:52:16.942.09-Sep-2020 5303.01 6186.97 74.77 19.00   2.80 2557.08
   16:52:17.143.09-Sep-2020 5303.01 6193.76 74.77 19.00   3.00 2557.08
   16:52:17.343.09-Sep-2020 5303.01 6193.76 74.77 19.00   3.20 2557.08
   16:52:17.543.09-Sep-2020 5303.01 6186.66 74.77 19.00   3.40 2557.08
   16:52:17.743.09-Sep-2020 5303.01 6185.85 74.77 19.00   3.60 2557.08
   16:52:17.943.09-Sep-2020 5303.01 6192.37 74.77 19.00   3.80 2557.08
   16:52:18.143.09-Sep-2020 5303.01 6186.13 74.77 19.00   4.00 2557.08
   16:52:18.343.09-Sep-2020 5303.01 6185.94 74.77 19.00   4.20 2557.08
   16:52:18.543.09-Sep-2020 5303.01 6185.28 74.77 19.00   4.40 2557.08
   16:52:18.743.09-Sep-2020 5303.01 6184.54 74.77 19.00   4.60 2557.08
   16:52:18.943.09-Sep-2020 5303.01 6185.93 74.77 19.00   4.80 2557.08
   16:52:19.143.09-Sep-2020 5303.01 6186.76 74.77 19.00   5.00 2557.08
   16:52:19.344.09-Sep-2020 5303.01 6186.76 74.77 19.00   5.20 2557.08
   16:52:19.544.09-Sep-2020 5303.01 6191.82 74.77 19.00   5.40 2557.08
   16:52:19.744.09-Sep-2020 5303.01 6187.20 74.77 19.00   5.60 2557.08
   16:52:19.944.09-Sep-2020 5303.01 6188.75 74.77 19.00   5.80 2557.08
   16:52:20.144.09-Sep-2020 5303.01 6189.63 74.77 19.00   6.00 2557.08
   16:52:20.344.09-Sep-2020 5303.01 6189.63 74.77 19.00   6.20 2557.08
   16:52:20.544.09-Sep-2020 5303.01 6192.11 74.77 19.00   6.40 2557.08
   16:52:20.744.09-Sep-2020 5303.01 6199.50 74.77 19.00   6.60 2557.08
   16:52:20.944.09-Sep-2020 5303.01 6193.15 74.77 19.00   6.80 2557.08
   16:52:21.144.09-Sep-2020 5303.01 6192.86 74.77 19.00   7.00 2557.08
   16:52:21.345.09-Sep-2020 5303.01 6192.86 74.77 19.00   7.20 2557.08
   16:52:21.545.09-Sep-2020 5303.01 6202.01 74.77 19.00   7.40 2557.08
   16:52:21.745.09-Sep-2020 5303.01 6196.97 74.77 19.00   7.60 2557.08
   16:52:21.945.09-Sep-2020 5303.01 6196.01 74.77 19.00   7.80 2557.08
   16:52:22.145.09-Sep-2020 5303.01 6197.67 74.77 19.00   8.00 2557.08
   16:52:22.345.09-Sep-2020 5303.01 6203.47 74.77 19.00   8.20 2557.08
   16:52:22.545.09-Sep-2020 5303.01 6198.09 74.77 19.00   8.40 2557.08
   16:52:22.745.09-Sep-2020 5303.01 6197.25 74.76 19.00   8.60 2557.08
   16:52:22.945.09-Sep-2020 5303.01 6199.49 74.76 19.00   8.80 2557.08
   16:52:23.145.09-Sep-2020 5303.01 6198.90 74.76 19.00   9.00 2557.08
   16:52:23.346.09-Sep-2020 5303.01 6198.90 74.76 19.00   9.20 2557.08
   16:52:23.546.09-Sep-2020 5303.01 6200.02 74.76 19.00   9.40 2557.08
   16:52:23.746.09-Sep-2020 5303.01 6200.39 74.76 19.00   9.60 2557.08
   16:52:23.946.09-Sep-2020 5303.01 6200.15 74.76 19.00   9.80 2557.08
   16:52:24.146.09-Sep-2020 5303.01 6200.76 74.76 19.00  10.00 2557.08
   16:52:24.346.09-Sep-2020 5303.01 6200.76 74.76 19.00  10.20 2557.08
   16:52:24.546.09-Sep-2020 5303.01 6201.54 74.76 19.00  10.40 2557.08
   16:52:24.746.09-Sep-2020 5303.01 6201.80 74.76 19.00  10.61 2557.08
   16:52:24.946.09-Sep-2020 5303.01 6202.14 74.76 19.00  10.81 2557.08
   16:52:25.146.09-Sep-2020 5303.01 6202.48 74.76 19.00  11.01 2557.08
   16:52:25.346.09-Sep-2020 5303.01 6202.48 74.76 19.00  11.21 2557.08
   16:52:25.547.09-Sep-2020 5303.01 6203.46 74.76 19.00  11.41 2557.08
   16:52:25.747.09-Sep-2020 5303.01 6203.92 74.76 19.00  11.61 2557.08
   16:52:25.947.09-Sep-2020 5303.01 6204.53 74.76 19.00  11.81 2557.08
   16:52:26.147.09-Sep-2020 5303.01 6212.31 74.76 19.00  12.01 2557.08
   16:52:26.347.09-Sep-2020 5303.01 6204.78 74.76 19.00  12.21 2557.08
   16:52:26.547.09-Sep-2020 5303.01 6204.06 74.76 19.00  12.41 2557.08
   16:52:26.747.09-Sep-2020 5303.01 6205.20 74.76 19.00  12.61 2557.08
   16:52:26.947.09-Sep-2020 5303.01 6205.29 74.76 19.00  12.81 2557.08
   16:52:27.147.09-Sep-2020 5303.01 6206.34 74.76 19.00  13.01 2557.08
   16:52:27.347.09-Sep-2020 5303.01 6206.34 74.76 19.00  13.21 2557.08
   16:52:27.548.09-Sep-2020 5303.01 6206.75 74.76 19.00  13.41 2557.08
   16:52:27.748.09-Sep-2020 5303.01 6207.23 74.76 19.00  13.61 2557.08
   16:52:27.948.09-Sep-2020 5303.01 6207.35 74.76 19.00  13.81 2557.08
   16:52:28.148.09-Sep-2020 5303.01 6207.36 74.76 19.00  14.01 2557.08
   16:52:28.348.09-Sep-2020 5303.01 6207.36 74.76 19.00  14.21 2557.08
   16:52:28.548.09-Sep-2020 5303.01 6207.36 74.76 19.00  14.41 2557.08
   16:52:28.748.09-Sep-2020 5303.01 6208.28 74.76 19.00  14.61 2557.08
   16:52:28.948.09-Sep-2020 5303.01 6208.71 74.76 19.00  14.81 2557.08
   16:52:29.148.09-Sep-2020 5303.01 6209.21 74.76 19.00  15.01 2557.08
   16:52:29.348.09-Sep-2020 5303.01 6209.21 74.76 19.00  15.21 2557.08
   16:52:29.548.09-Sep-2020 5303.01 6209.27 74.76 19.00  15.41 2557.08
   16:52:29.749.09-Sep-2020 5303.01 6216.70 74.76 19.00  15.61 2557.08
   16:52:29.949.09-Sep-2020 5303.01 6209.32 74.76 19.00  15.81 2557.08
   16:52:30.149.09-Sep-2020 5303.01 6209.23 74.76 19.00  16.01 2557.08
   16:52:30.349.09-Sep-2020 5303.01 6210.49 74.76 19.00  16.21 2557.08
   16:52:30.549.09-Sep-2020 5303.01 6210.86 74.76 19.00  16.41 2557.08
   16:52:30.749.09-Sep-2020 5303.01 6211.92 74.76 19.00  16.61 2557.08
   16:52:30.949.09-Sep-2020 5303.01 6222.35 74.76 19.00  16.81 2557.08
   16:52:31.149.09-Sep-2020 5303.01 6208.97 74.76 19.00  17.01 2557.08
   16:52:31.349.09-Sep-2020 5303.01 6208.97 74.76 19.00  17.21 2557.08
   16:52:31.549.09-Sep-2020 5303.01 6213.05 74.76 19.00  17.41 2557.08
   16:52:31.750.09-Sep-2020 5303.01 6212.40 74.76 19.00  17.61 2557.08
   16:52:31.950.09-Sep-2020 5303.01 6213.73 74.76 19.00  17.81 2557.08
   16:52:32.150.09-Sep-2020 5303.01 6220.48 74.76 19.00  18.01 2557.08
   16:52:32.350.09-Sep-2020 5303.01 6220.48 74.76 19.00  18.21 2557.08
   16:52:32.550.09-Sep-2020 5303.01 6212.87 74.76 19.00  18.41 2557.08
   16:52:32.750.09-Sep-2020 5303.01 6215.01 74.76 19.00  18.61 2557.08
   16:52:32.950.09-Sep-2020 5303.01 6214.69 74.76 19.00  18.81 2557.08
   16:52:33.150.09-Sep-2020 5303.01 6215.67 74.76 19.00  19.01 2557.08
   16:52:33.350.09-Sep-2020 5303.01 6215.67 74.76 19.00  19.21 2557.08
   16:52:33.550.09-Sep-2020 5303.01 6217.09 74.76 19.00  19.41 2557.08
   16:52:33.750.09-Sep-2020 5303.01 6215.86 74.76 19.00  19.61 2557.08
   16:52:33.951.09-Sep-2020 5303.01 6217.98 74.76 19.00  19.81 2557.08
   16:52:34.151.09-Sep-2020 5303.01 6218.20 74.76 19.00  20.01 2557.08
   16:52:34.351.09-Sep-2020 5303.01 6218.20 74.76 19.00  20.21 2557.08
   16:52:34.551.09-Sep-2020 5303.01 6218.64 74.76 19.00  20.41 2557.08
   16:52:34.751.09-Sep-2020 5303.01 6219.47 74.76 19.00  20.61 2557.08
   16:52:34.951.09-Sep-2020 5303.01 6219.14 74.76 19.00  20.81 2557.08
   16:52:35.151.09-Sep-2020 5303.01 6220.01 74.76 19.00  21.01 2557.08
   16:52:35.351.09-Sep-2020 5303.01 6220.01 74.76 19.00  21.21 2557.08
   16:52:35.551.09-Sep-2020 5303.01 6226.67 74.76 19.00  21.41 2557.08
   16:52:35.751.09-Sep-2020 5303.01 6221.33 74.76 19.00  21.61 2557.08
   16:52:35.952.09-Sep-2020 5303.01 6222.50 74.76 19.00  21.81 2557.08
   16:52:36.152.09-Sep-2020 5303.01 6222.16 74.76 19.00  22.01 2557.08
   16:52:36.352.09-Sep-2020 5303.01 6222.16 74.76 19.00  22.21 2557.08
   16:52:36.552.09-Sep-2020 5303.01 6222.41 74.76 19.00  22.41 2557.08
