~Version Information
 VERS.                  2.0:   CWLS log ASCII Standard -VERSION 2.0
 WRAP.                   NO:   One line per depth step
~Well Information Block
#MNEM.UNIT     VALUE/NAME     DESCRIPTION
#---------     -----------    ---------------------------
 STRT.S             19:35:07 09-Sep-20: START TIME 19:35:07 09-Sep-20
 STOP.S             19:43:27 09-Sep-20: STOP TIME  19:43:27 09-Sep-20
 STEP.S                   0.00: STEP TIME
 NULL.                 -999.25: NULL VALUE
 MDS .        Operator Entered:  MAG DATA SOURCE
 PDAT.          Mean Sea Level:  PERMANENT DATUM
 DCON.         Sperry Drilling:  DIRECTNL CONTR
 RIG .              West Azeri:  RIG NAME
 WELL.           C40 (Slot 20):  WELL NAME
 SRVC.     Turan Drilling Engineering:  CONTRACTOR
 FLD .                     ACG:  FIELD NAME
 CTRY.              Azerbaijan:  COUNTRY NAME
 PROV.                    Baku:  PROVINCE
 STAT.                    Baku:  STATE NAME
 REGN.                   EESSA:  REGION
 BASE.              Azerbaijan:  LOGGING EQUIPMENT BASE LOCATION
 COMP.     BP Exploration (Caspian Sea) Ltd:  COMPANY
 WTYP.                Deviated:  WELL TYPE
 SON .        AZ-XX-0906344804:  JOB NUMBER
 FTOP.          Formation Tops:  FORM TOPS DESC
 ILTD.               Lithology:  INTERP LTH DESC
 SVYD.                  Survey:  SURVEY DESC
 DMOD.             Drill Model:  DRILL MOD DESC
 HPTY.       Minimum Curvature:  HOLE POS TYPE
 NREF.                    Grid:  NORTH REFERENCE
 SPUD.               01-Jan-20:  SPUD DATE
 DATE.      00.59.44 15-Sep-20:  END TIME
 STIM.      12.00.00 12-Jun-20:  START TIME
 DMF .             Drill Floor:  DRILL MEAS FROM
 DFST.                        :  DIST FSL TEXT
 DFWT.                        :  DIST FWL TEXT
 API .                        :  API NUMBER
 CNTY.                        :  COUNTY
 UWI .                        :  UNIQUE WELL IDENTIFIER
 LOC .                        :  LOCATION
 LMF .             Drill Floor:  LOG MEASURED FROM
 VSNS.m                   2.88:  VERT SEC N/S
 VSEW.m                  -3.84:  VERT SEC E/W
 AGAP.m                  43.42:  AIR GAP
 APD .m                  43.42:  DEPTH ABOVE PD
 WDMS.m                 118.27:  WD ELEV
 EGL .m                   0.00:  GROUND ELEVATION
 EPD .m                   0.00:  ELEVATION
 AZTC.deg                 6.23:  AZM TOTAL CORR
 GRDC.deg                 0.20:  GRID CORRECTION
 MDEC.deg                 6.43:  MAGNETIC DECL
 MDIP.deg                59.49:  MAGNETIC DIP
 MFLD.nT              50277.00:  MAGNETIC FIELD
 GVFD.g                   1.00:  GRAVITY FIELD
 VSDR.deg               173.20:  VERT SEC DIRECT
 TDD .m                5790.01:  TOTAL DEPTH (DRILLER)
 SDEP.m                5231.01:  START DEPTH
 DFSL.m                   0.00:  DISTANCE FSL
 DFWL.m                   0.00:  DISTANCE FWL
 UTMY.m             4435808.83:  UTM Y
 UTMX.m              526266.40:  UTM X
 WHEW.m                  -3.84:  WELL HEAD E/W
 WHNS.m                   2.88:  WELL HEAD N/S
 LONG.deg                51.31:  LONGITUDE
 LATI.deg                40.06:  LATITUDE
 TVDS.m                  43.42:  TVDSS CORRECTN
 DEP .m                 430.08:  DEPTH
 EKB .m                  43.42:  KB ELEVATION
 EDF .m                  43.42:  DF ELEVATION
 TDL .m                 559.00:  TOTAL DEPTH (LOGGER)
 MAGU.                 1849381:  MAGUTM CHECKSUM
 VSC .                       0:  VS TO CLOSURE
~Parameter Information Block
#MNEM.UNIT       Value        Description
#---------     -----------    ---------------------------
 AV  .mps                 4.87:  Ann Velocity 
 AVMX.mps                 7.08:  Max Ann Veloc 
 AZIF.deg               108.87:  Azm, Final 
 BHAT.                  Rotary:  BHA Type 
 BROT.°/30m               0.35:  Build Rotating 
 BS  .in                  8.50:  Bit Size 
 BSZ .in                  8.50:  Bit Size 
 BTPL.psig              360.00:  Bit Press Loss 
 CABU.                     Yes:  Customer Abuse 
 COMM.                     ¼«|:  Run Comments 1 
 TCS .hr                106.24:  Time Ciculation Ended 
 CV  .mps                 1.77:  Crit Velocity 
 CVMX.mps                 2.03:  Max Crit Veloc 
 DD1 .         Aykhan Agagulov:  Direct Drillr 1 
 DD2 .            Nonso Okofor:  Direct Drillr 2 
 DDSV.               Geo-Pilot:  DD Service 
 DEFF.%                  98.00:  % Det Eff 
 DLRX.°/30m               0.50:  Dogleg Rot Max 
 DLSO.°/30m               0.40:  Dogleg Oriented 
 DLSX.°/30m               0.94:  Dogleg Str Max 
 DRET.      20.30.00 08-Sep-20:  Drill End Time 
 DRST.      22.15.00 06-Sep-20:  Drill Start Tim 
 DTIM.hr                 31.31:  Time Drilling 
 EDEP.m                5790.01:  End Depth 
 ENG1.           Amrah Tahirov:  Engineer 1 
 ENG2.         Dair Mahammadov:  Engineer 2 
 ENG3.           Emil Huseynov:  Engineer 3 
 ETIM.      04.01.04 12-Sep-20:  End Time 
 FLOI.gpm               450.00:  Flow In 
 FLON.gpm               450.00:  Flow In Min 
 FLOS.cptm                2.00:  Fluid Loss 
 FLOX.gpm               450.00:  Flow In Max 
 FTRO.       Formation Presure:  FTWD Run Obj 
 HFLO.                      No:  High Flow 
 HPRE.                      No:  High Pressure 
 HTEM.                      No:  High Temp 
 HYDO.m                   1.80:  Hydro Offset 
 IFIN.deg                72.03:  Inc, Final 
 IMAX.deg                73.72:  Inc Max 
 IMIN.deg                70.94:  Inc Min 
 IMND.m                5508.52:  Inc Min Depth 
 IMXD.m                5253.60:  Inc Max Depth 
 JARR.                      No:  Jarring 
 LETM.      20.30.00 08-Sep-20:  Log End Time 
 LOST.hr                     0:  Lost Rig Time 
 LSTM.      22.15.00 06-Sep-20:  Log Start Time 
 MDCL.ppm             36000.00:  Mud Chlorides 
 MDES.     Inversion Oil/Synthetic:  Mud Desc 
 DFD .sg                  1.44:  Mud Density 
 MDMN.sg                  1.44:  Dens Mud Min 
 MDMX.sg                  1.57:  Dens Mud Max 
 MOIL.                      70:  Run Mud Oil % 
 MOWR.                   70:30:  Run Mud OWR 
 MSND.                       0:  Run Mud Sand % 
 MSOL.                      21:  Run Mud Solids% 
 DFV .spqt               68.00:  Mud Viscosity 
 MWOD.in                  6.75:  MWD Tool OD 
 MWSI.                     Yes:  Serv Intrp, MWD 
 OTIM.hr                174.84:  Time Operating 
 PCON.           Look Like New:  Pad Condition 
 PMAX.psia            10616.93:  Press Op, Max 
 PV  .cP                 50.00:  Mud PV 
 RUN .                     700:  Run Number 
 ROPA.m/hr               14.24:  ROP Avg 
 ROPN.m/hr               10.00:  ROP Min 
 ROPX.m/hr               32.00:  ROP Max 
 RPMA.rpm               120.90:  RPM Surface Avg 
 RPMN.rpm               120.00:  RPM Surface Min 
 RPMX.rpm               140.00:  RPM Surface Max 
 RRUN.                    0700:  Rig Run Number 
 RTIM.hr                  3.20:  Time Reaming 
 SAZI.deg               109.99:  Azm, Start 
 SDEP.m                5231.01:  Start Depth 
 SIDD.                      No:  Serv Intrp, DD 
 SINC.deg                73.72:  Inc, Start 
 SPPA.psig             3051.00:  SPP Avg 
 SPPN.psig             2950.00:  SPP Min 
 SPPX.psig             3250.00:  SPP Max 
 STIM.      08.00.00 05-Sep-20:  Start Time 
 SVCS.                 DD, MWD:  Services 
 SVER.                    9.20:  Sperry Version 
 TDAT.m                 559.00:  Tot Depth Attmp 
 TDDF.                      No:  Trip for DD 
 TDLG.m                 559.00:  Tot Depth Loggd 
 TFF .                      No:  Trip for Fail 
 TQAA.f-kp               26.49:  Torque Abs Avg 
 TQAN.f-kp               25.00:  Torque Abs Min 
 TQAX.f-kp               27.00:  Torque Abs Max 
 TRRT.°/30m               1.50:  Turn Rotating 
 MRT .                    HCIM:  Maximum Recorded Temperature 
 TTMX.degC               90.20:  Max Tool Temp 
 VS01.                90542671:  Virtual Str1 SN 
 VS02.                90545185:  Virtual Str2 SN 
 VS03.                90602015:  Virtual Str3 SN 
 VS04.                90515230:  Virtual Str4 SN 
 WBMN.klb                 5.00:  WOB Min 
 WOBA.klb                14.79:  WOB Avg 
 WOBX.klb                20.00:  WOB Max 
 YP  .lhf2               29.00:  Yield Point 
~Curve Information Block
#MNEM.UNIT                 API CODE     Curve Description
#---------               -----------    ---------------------------
 TIME.HHMMSS            00 000 000 000:  GT Time & Date
 GTDEPTH.m              00 000 000 000:  GT Depth
 GTPQH.psia             00 000 000 000:  GT HR Quartz Pressure
 GTTQ.degC              00 000 000 000:  GT Quartz Temperature
 GTTN.NONE              00 000 000 000:  GT Test Number
 GTET.sec               00 000 000 000:  GT Elapsed Test Time
 GTTVD.m                00 000 000 000:  GT True Vertical Depth
#Other Information
#
#WARRANTY: Halliburton will use its best efforts to furnish customers with 
#accurate information and interpretations that are part of, and incident to, the services 
#provided.  However, Halliburton cannot and does not warrant the accuracy 
#or correctness of such information and interpretations.  Under no circumstances should any 
#such information or interpretation be relied upon as the sole basis for any drilling, 
#completion, production, or financial decision or any procedure involving any risk to the 
#safety of any drilling venture, drilling rig or its crew or any other third party.  The 
#Customer has full responsibility for all drilling, completion and production operation.  
#Halliburton makes no representations or warranties, either expressed or 
#implied, including, but not limited to, the implied warranties of merchantability or fitness 
#for a particular purpose, with respect to the services rendered.  In no event will 
#Halliburton be liable for failure to obtain any particular results or for 
#any damages, including, but not limited to, indirect, special or consequential damages, 
#resulting from the use of any information or interpretation provided by Halliburton.
#
~A           TIME           GTDEPTH  GTPQH  GTTQ  GTTN   GTET   GTTVD  
# ...
   19:38:53.471.09-Sep-2020 5260.01 6287.79 74.28 23.00 226.10 2544.55
   19:38:53.671.09-Sep-2020 5260.01 6287.79 74.28 23.00 226.30 2544.55
   19:38:53.871.09-Sep-2020 5260.01 6285.11 74.28 23.00 226.50 2544.55
   19:38:54.071.09-Sep-2020 5260.01 6284.32 74.28 23.00 226.70 2544.55
   19:38:54.271.09-Sep-2020 5260.01 6284.58 74.28 23.00 226.90 2544.55
   19:38:54.471.09-Sep-2020 5260.01 6284.50 74.28 23.00 227.10 2544.55
   19:38:54.671.09-Sep-2020 5260.01 6284.50 74.28 23.00 227.30 2544.55
   19:38:54.871.09-Sep-2020 5260.01 6284.82 74.28 23.00 227.50 2544.55
   19:38:55.071.09-Sep-2020 5260.01 6284.15 74.28 23.00 227.70 2544.55
   19:38:55.272.09-Sep-2020 5260.01 6283.85 74.28 23.00 227.91 2544.55
   19:38:55.472.09-Sep-2020 5260.01 6283.75 74.28 23.00 228.11 2544.55
   19:38:55.672.09-Sep-2020 5260.01 6283.75 74.28 23.00 228.31 2544.55
   19:38:55.872.09-Sep-2020 5260.01 6279.82 74.28 23.00 228.51 2544.55
   19:38:56.072.09-Sep-2020 5260.01 6285.36 74.28 23.00 228.71 2544.55
   19:38:56.272.09-Sep-2020 5260.01 6283.91 74.28 23.00 228.91 2544.55
   19:38:56.472.09-Sep-2020 5260.01 6284.22 74.28 23.00 229.11 2544.55
   19:38:56.672.09-Sep-2020 5260.01 6284.22 74.28 23.00 229.31 2544.55
   19:38:56.872.09-Sep-2020 5260.01 6293.98 74.28 23.00 229.51 2544.55
   19:38:57.072.09-Sep-2020 5260.01 6282.65 74.28 23.00 229.71 2544.55
   19:38:57.273.09-Sep-2020 5260.01 6285.75 74.28 23.00 229.91 2544.55
   19:38:57.473.09-Sep-2020 5260.01 6283.55 74.28 23.00 230.11 2544.55
   19:38:57.673.09-Sep-2020 5260.01 6285.21 74.28 23.00 230.31 2544.55
   19:38:57.873.09-Sep-2020 5260.01 6284.76 74.28 23.00 230.51 2544.55
   19:38:58.073.09-Sep-2020 5260.01 6299.47 74.28 23.00 230.71 2544.55
   19:38:58.273.09-Sep-2020 5260.01 6279.05 74.28 23.00 230.91 2544.55
   19:38:58.473.09-Sep-2020 5260.01 6285.19 74.28 23.00 231.11 2544.55
   19:38:58.673.09-Sep-2020 5260.01 6285.19 74.28 23.00 231.31 2544.55
   19:38:58.873.09-Sep-2020 5260.01 6285.35 74.28 23.00 231.51 2544.55
   19:38:59.073.09-Sep-2020 5260.01 6293.25 74.28 23.00 231.71 2544.55
   19:38:59.273.09-Sep-2020 5260.01 6285.94 74.28 23.00 231.91 2544.55
   19:38:59.474.09-Sep-2020 5260.01 6286.77 74.28 23.00 232.11 2544.55
   19:38:59.674.09-Sep-2020 5260.01 6286.77 74.28 23.00 232.31 2544.55
   19:38:59.874.09-Sep-2020 5260.01 6285.69 74.28 23.00 232.51 2544.55
   19:39:00.074.09-Sep-2020 5260.01 6291.70 74.28 23.00 232.71 2544.55
   19:39:00.274.09-Sep-2020 5260.01 6289.10 74.28 23.00 232.91 2544.55
   19:39:00.474.09-Sep-2020 5260.01 6285.52 74.28 23.00 233.11 2544.55
   19:39:00.674.09-Sep-2020 5260.01 6285.52 74.28 23.00 233.31 2544.55
   19:39:00.874.09-Sep-2020 5260.01 6285.35 74.28 23.00 233.51 2544.55
   19:39:01.074.09-Sep-2020 5260.01 6287.03 74.28 23.00 233.71 2544.55
   19:39:01.274.09-Sep-2020 5260.01 6287.19 74.28 23.00 233.91 2544.55
   19:39:01.474.09-Sep-2020 5260.01 6287.57 74.28 23.00 234.11 2544.55
   19:39:01.675.09-Sep-2020 5260.01 6286.38 74.28 23.00 234.31 2544.55
   19:39:01.875.09-Sep-2020 5260.01 6286.53 74.28 23.00 234.51 2544.55
   19:39:02.075.09-Sep-2020 5260.01 6285.96 74.28 23.00 234.71 2544.55
   19:39:02.275.09-Sep-2020 5260.01 6286.04 74.28 23.00 234.91 2544.55
   19:39:02.475.09-Sep-2020 5260.01 6285.62 74.28 23.00 235.11 2544.55
   19:39:02.675.09-Sep-2020 5260.01 6285.62 74.28 23.00 235.31 2544.55
   19:39:02.875.09-Sep-2020 5260.01 6285.55 74.28 23.00 235.51 2544.55
   19:39:03.075.09-Sep-2020 5260.01 6285.42 74.28 23.00 235.71 2544.55
   19:39:03.275.09-Sep-2020 5260.01 6285.41 74.28 23.00 235.91 2544.55
   19:39:03.475.09-Sep-2020 5260.01 6285.32 74.28 23.00 236.11 2544.55
   19:39:03.675.09-Sep-2020 5260.01 6285.32 74.28 23.00 236.31 2544.55
   19:39:03.876.09-Sep-2020 5260.01 6295.61 74.28 23.00 236.51 2544.55
   19:39:04.076.09-Sep-2020 5260.01 6281.10 74.28 23.00 236.71 2544.55
   19:39:04.276.09-Sep-2020 5260.01 6286.57 74.28 23.00 236.91 2544.55
   19:39:04.476.09-Sep-2020 5260.01 6285.62 74.28 23.00 237.11 2544.55
   19:39:04.676.09-Sep-2020 5260.01 6285.62 74.28 23.00 237.31 2544.55
   19:39:04.876.09-Sep-2020 5260.01 6286.24 74.28 23.00 237.51 2544.55
   19:39:05.076.09-Sep-2020 5260.01 6288.67 74.28 23.00 237.71 2544.55
   19:39:05.276.09-Sep-2020 5260.01 6285.94 74.28 23.00 237.91 2544.55
   19:39:05.476.09-Sep-2020 5260.01 6285.98 74.28 23.00 238.11 2544.55
   19:39:05.676.09-Sep-2020 5260.01 6285.05 74.28 23.00 238.31 2544.55
   19:39:05.876.09-Sep-2020 5260.01 6285.67 74.28 23.00 238.51 2544.55
   19:39:06.077.09-Sep-2020 5260.01 6285.35 74.28 23.00 238.71 2544.55
   19:39:06.277.09-Sep-2020 5260.01 6285.53 74.28 23.00 238.91 2544.55
   19:39:06.477.09-Sep-2020 5260.01 6285.45 74.28 23.00 239.11 2544.55
   19:39:06.677.09-Sep-2020 5260.01 6285.45 74.28 23.00 239.31 2544.55
   19:39:06.877.09-Sep-2020 5260.01 6284.35 74.28 23.00 239.51 2544.55
   19:39:07.077.09-Sep-2020 5260.01 6284.46 74.28 23.00 239.71 2544.55
   19:39:07.277.09-Sep-2020 5260.01 6294.54 74.28 23.00 239.91 2544.55
   19:39:07.477.09-Sep-2020 5260.01 6280.39 74.28 23.00 240.11 2544.55
   19:39:07.677.09-Sep-2020 5260.01 6280.39 74.28 23.00 240.31 2544.55
   19:39:07.877.09-Sep-2020 5260.01 6284.59 74.28 23.00 240.51 2544.55
   19:39:08.077.09-Sep-2020 5260.01 6285.09 74.28 23.00 240.71 2544.55
   19:39:08.278.09-Sep-2020 5260.01 6285.29 74.28 23.00 240.91 2544.55
   19:39:08.478.09-Sep-2020 5260.01 6295.41 74.28 23.00 241.11 2544.55
   19:39:08.678.09-Sep-2020 5260.01 6295.41 74.28 23.00 241.31 2544.55
   19:39:08.878.09-Sep-2020 5260.01 6287.06 74.28 23.00 241.51 2544.55
   19:39:09.078.09-Sep-2020 5260.01 6284.50 74.28 23.00 241.71 2544.55
   19:39:09.278.09-Sep-2020 5260.01 6286.55 74.28 23.00 241.91 2544.55
   19:39:09.478.09-Sep-2020 5260.01 6285.88 74.28 23.00 242.11 2544.55
   19:39:09.678.09-Sep-2020 5260.01 6300.80 74.28 23.00 242.31 2544.55
   19:39:09.878.09-Sep-2020 5260.01 6280.39 74.28 23.00 242.51 2544.55
   19:39:10.078.09-Sep-2020 5260.01 6286.40 74.28 23.00 242.71 2544.55
   19:39:10.279.09-Sep-2020 5260.01 6285.55 74.28 23.00 242.91 2544.55
   19:39:10.479.09-Sep-2020 5260.01 6286.17 74.28 23.00 243.11 2544.55
   19:39:10.679.09-Sep-2020 5260.01 6286.17 74.28 23.00 243.31 2544.55
   19:39:10.879.09-Sep-2020 5260.01 6286.87 74.28 23.00 243.51 2544.55
   19:39:11.079.09-Sep-2020 5260.01 6288.03 74.28 23.00 243.71 2544.55
   19:39:11.279.09-Sep-2020 5260.01 6285.55 74.28 23.00 243.91 2544.55
   19:39:11.479.09-Sep-2020 5260.01 6286.74 74.28 23.00 244.11 2544.55
   19:39:11.679.09-Sep-2020 5260.01 6286.74 74.28 23.00 244.31 2544.55
   19:39:11.879.09-Sep-2020 5260.01 6290.36 74.28 23.00 244.51 2544.55
   19:39:12.079.09-Sep-2020 5260.01 6286.30 74.28 23.00 244.71 2544.55
   19:39:12.279.09-Sep-2020 5260.01 6288.00 74.28 23.00 244.91 2544.55
   19:39:12.480.09-Sep-2020 5260.01 6286.21 74.28 23.00 245.11 2544.55
   19:39:12.680.09-Sep-2020 5260.01 6286.21 74.28 23.00 245.31 2544.55
   19:39:12.880.09-Sep-2020 5260.01 6288.05 74.28 23.00 245.51 2544.55
   19:39:13.080.09-Sep-2020 5260.01 6288.32 74.28 23.00 245.71 2544.55
   19:39:13.280.09-Sep-2020 5260.01 6287.40 74.28 23.00 245.91 2544.55
   19:39:13.480.09-Sep-2020 5260.01 6287.41 74.28 23.00 246.11 2544.55
   19:39:13.680.09-Sep-2020 5260.01 6287.41 74.28 23.00 246.31 2544.55
   19:39:13.880.09-Sep-2020 5260.01 6286.87 74.28 23.00 246.51 2544.55
   19:39:14.080.09-Sep-2020 5260.01 6286.67 74.28 23.00 246.71 2544.55
   19:39:14.280.09-Sep-2020 5260.01 6286.58 74.28 23.00 246.91 2544.55
   19:39:14.480.09-Sep-2020 5260.01 6286.65 74.28 23.00 247.11 2544.55
   19:39:14.681.09-Sep-2020 5260.01 6286.65 74.28 23.00 247.31 2544.55
   19:39:14.881.09-Sep-2020 5260.01 6286.50 74.28 23.00 247.51 2544.55
   19:39:15.081.09-Sep-2020 5260.01 6286.39 74.28 23.00 247.71 2544.55
   19:39:15.281.09-Sep-2020 5260.01 6286.25 74.28 23.00 247.91 2544.55
   19:39:15.481.09-Sep-2020 5260.01 6296.73 74.28 23.00 248.11 2544.55
   19:39:15.681.09-Sep-2020 5260.01 6296.73 74.28 23.00 248.31 2544.55
   19:39:15.881.09-Sep-2020 5260.01 6287.38 74.28 23.00 248.51 2544.55
