~Version Information
 VERS.                  2.0:   CWLS log ASCII Standard -VERSION 2.0
 WRAP.                   NO:   One line per depth step
~Well Information Block
#MNEM.UNIT     VALUE/NAME     DESCRIPTION
#---------     -----------    ---------------------------
 STRT.S             10:55:02 09-Sep-20: START TIME 10:55:02 09-Sep-20
 STOP.S             11:02:04 09-Sep-20: STOP TIME  11:02:04 09-Sep-20
 STEP.S                   0.00: STEP TIME
 NULL.                 -999.25: NULL VALUE
 MDS .        Operator Entered:  MAG DATA SOURCE
 PDAT.          Mean Sea Level:  PERMANENT DATUM
 DCON.         Sperry Drilling:  DIRECTNL CONTR
 RIG .              West Azeri:  RIG NAME
 WELL.           C40 (Slot 20):  WELL NAME
 SRVC.     Turan Drilling Engineering:  CONTRACTOR
 FLD .                     ACG:  FIELD NAME
 CTRY.              Azerbaijan:  COUNTRY NAME
 PROV.                    Baku:  PROVINCE
 STAT.                    Baku:  STATE NAME
 REGN.                   EESSA:  REGION
 BASE.              Azerbaijan:  LOGGING EQUIPMENT BASE LOCATION
 COMP.     BP Exploration (Caspian Sea) Ltd:  COMPANY
 WTYP.                Deviated:  WELL TYPE
 SON .        AZ-XX-0906344804:  JOB NUMBER
 FTOP.          Formation Tops:  FORM TOPS DESC
 ILTD.               Lithology:  INTERP LTH DESC
 SVYD.                  Survey:  SURVEY DESC
 DMOD.             Drill Model:  DRILL MOD DESC
 HPTY.       Minimum Curvature:  HOLE POS TYPE
 NREF.                    Grid:  NORTH REFERENCE
 SPUD.               01-Jan-20:  SPUD DATE
 DATE.      00.59.44 15-Sep-20:  END TIME
 STIM.      12.00.00 12-Jun-20:  START TIME
 DMF .             Drill Floor:  DRILL MEAS FROM
 DFST.                        :  DIST FSL TEXT
 DFWT.                        :  DIST FWL TEXT
 API .                        :  API NUMBER
 CNTY.                        :  COUNTY
 UWI .                        :  UNIQUE WELL IDENTIFIER
 LOC .                        :  LOCATION
 LMF .             Drill Floor:  LOG MEASURED FROM
 VSNS.m                   2.88:  VERT SEC N/S
 VSEW.m                  -3.84:  VERT SEC E/W
 AGAP.m                  43.42:  AIR GAP
 APD .m                  43.42:  DEPTH ABOVE PD
 WDMS.m                 118.27:  WD ELEV
 EGL .m                   0.00:  GROUND ELEVATION
 EPD .m                   0.00:  ELEVATION
 AZTC.deg                 6.23:  AZM TOTAL CORR
 GRDC.deg                 0.20:  GRID CORRECTION
 MDEC.deg                 6.43:  MAGNETIC DECL
 MDIP.deg                59.49:  MAGNETIC DIP
 MFLD.nT              50277.00:  MAGNETIC FIELD
 GVFD.g                   1.00:  GRAVITY FIELD
 VSDR.deg               173.20:  VERT SEC DIRECT
 TDD .m                5790.01:  TOTAL DEPTH (DRILLER)
 SDEP.m                5231.01:  START DEPTH
 DFSL.m                   0.00:  DISTANCE FSL
 DFWL.m                   0.00:  DISTANCE FWL
 UTMY.m             4435808.83:  UTM Y
 UTMX.m              526266.40:  UTM X
 WHEW.m                  -3.84:  WELL HEAD E/W
 WHNS.m                   2.88:  WELL HEAD N/S
 LONG.deg                51.31:  LONGITUDE
 LATI.deg                40.06:  LATITUDE
 TVDS.m                  43.42:  TVDSS CORRECTN
 DEP .m                 430.08:  DEPTH
 EKB .m                  43.42:  KB ELEVATION
 EDF .m                  43.42:  DF ELEVATION
 TDL .m                 559.00:  TOTAL DEPTH (LOGGER)
 MAGU.                 1849381:  MAGUTM CHECKSUM
 VSC .                       0:  VS TO CLOSURE
~Parameter Information Block
#MNEM.UNIT       Value        Description
#---------     -----------    ---------------------------
 AV  .mps                 4.87:  Ann Velocity 
 AVMX.mps                 7.08:  Max Ann Veloc 
 AZIF.deg               108.87:  Azm, Final 
 BHAT.                  Rotary:  BHA Type 
 BROT.°/30m               0.35:  Build Rotating 
 BS  .in                  8.50:  Bit Size 
 BSZ .in                  8.50:  Bit Size 
 BTPL.psig              360.00:  Bit Press Loss 
 CABU.                     Yes:  Customer Abuse 
 COMM.                     ¬Î:  Run Comments 1 
 TCS .hr                106.24:  Time Ciculation Ended 
 CV  .mps                 1.77:  Crit Velocity 
 CVMX.mps                 2.03:  Max Crit Veloc 
 DD1 .         Aykhan Agagulov:  Direct Drillr 1 
 DD2 .            Nonso Okofor:  Direct Drillr 2 
 DDSV.               Geo-Pilot:  DD Service 
 DEFF.%                  98.00:  % Det Eff 
 DLRX.°/30m               0.50:  Dogleg Rot Max 
 DLSO.°/30m               0.40:  Dogleg Oriented 
 DLSX.°/30m               0.94:  Dogleg Str Max 
 DRET.      20.30.00 08-Sep-20:  Drill End Time 
 DRST.      22.15.00 06-Sep-20:  Drill Start Tim 
 DTIM.hr                 31.31:  Time Drilling 
 EDEP.m                5790.01:  End Depth 
 ENG1.           Amrah Tahirov:  Engineer 1 
 ENG2.         Dair Mahammadov:  Engineer 2 
 ENG3.           Emil Huseynov:  Engineer 3 
 ETIM.      04.01.04 12-Sep-20:  End Time 
 FLOI.gpm               450.00:  Flow In 
 FLON.gpm               450.00:  Flow In Min 
 FLOS.cptm                2.00:  Fluid Loss 
 FLOX.gpm               450.00:  Flow In Max 
 FTRO.       Formation Presure:  FTWD Run Obj 
 HFLO.                      No:  High Flow 
 HPRE.                      No:  High Pressure 
 HTEM.                      No:  High Temp 
 HYDO.m                   1.80:  Hydro Offset 
 IFIN.deg                72.03:  Inc, Final 
 IMAX.deg                73.72:  Inc Max 
 IMIN.deg                70.94:  Inc Min 
 IMND.m                5508.52:  Inc Min Depth 
 IMXD.m                5253.60:  Inc Max Depth 
 JARR.                      No:  Jarring 
 LETM.      20.30.00 08-Sep-20:  Log End Time 
 LOST.hr                     0:  Lost Rig Time 
 LSTM.      22.15.00 06-Sep-20:  Log Start Time 
 MDCL.ppm             36000.00:  Mud Chlorides 
 MDES.     Inversion Oil/Synthetic:  Mud Desc 
 DFD .sg                  1.44:  Mud Density 
 MDMN.sg                  1.44:  Dens Mud Min 
 MDMX.sg                  1.57:  Dens Mud Max 
 MOIL.                      70:  Run Mud Oil % 
 MOWR.                   70:30:  Run Mud OWR 
 MSND.                       0:  Run Mud Sand % 
 MSOL.                      21:  Run Mud Solids% 
 DFV .spqt               68.00:  Mud Viscosity 
 MWOD.in                  6.75:  MWD Tool OD 
 MWSI.                     Yes:  Serv Intrp, MWD 
 OTIM.hr                174.84:  Time Operating 
 PCON.           Look Like New:  Pad Condition 
 PMAX.psia            10616.93:  Press Op, Max 
 PV  .cP                 50.00:  Mud PV 
 RUN .                     700:  Run Number 
 ROPA.m/hr               14.24:  ROP Avg 
 ROPN.m/hr               10.00:  ROP Min 
 ROPX.m/hr               32.00:  ROP Max 
 RPMA.rpm               120.90:  RPM Surface Avg 
 RPMN.rpm               120.00:  RPM Surface Min 
 RPMX.rpm               140.00:  RPM Surface Max 
 RRUN.                    0700:  Rig Run Number 
 RTIM.hr                  3.20:  Time Reaming 
 SAZI.deg               109.99:  Azm, Start 
 SDEP.m                5231.01:  Start Depth 
 SIDD.                      No:  Serv Intrp, DD 
 SINC.deg                73.72:  Inc, Start 
 SPPA.psig             3051.00:  SPP Avg 
 SPPN.psig             2950.00:  SPP Min 
 SPPX.psig             3250.00:  SPP Max 
 STIM.      08.00.00 05-Sep-20:  Start Time 
 SVCS.                 DD, MWD:  Services 
 SVER.                    9.20:  Sperry Version 
 TDAT.m                 559.00:  Tot Depth Attmp 
 TDDF.                      No:  Trip for DD 
 TDLG.m                 559.00:  Tot Depth Loggd 
 TFF .                      No:  Trip for Fail 
 TQAA.f-kp               26.49:  Torque Abs Avg 
 TQAN.f-kp               25.00:  Torque Abs Min 
 TQAX.f-kp               27.00:  Torque Abs Max 
 TRRT.°/30m               1.50:  Turn Rotating 
 MRT .                    HCIM:  Maximum Recorded Temperature 
 TTMX.degC               90.20:  Max Tool Temp 
 VS01.                90542671:  Virtual Str1 SN 
 VS02.                90545185:  Virtual Str2 SN 
 VS03.                90602015:  Virtual Str3 SN 
 VS04.                90515230:  Virtual Str4 SN 
 WBMN.klb                 5.00:  WOB Min 
 WOBA.klb                14.79:  WOB Avg 
 WOBX.klb                20.00:  WOB Max 
 YP  .lhf2               29.00:  Yield Point 
~Curve Information Block
#MNEM.UNIT                 API CODE     Curve Description
#---------               -----------    ---------------------------
 TIME.HHMMSS            00 000 000 000:  GT Time & Date
 GTDEPTH.m              00 000 000 000:  GT Depth
 GTPQH.psia             00 000 000 000:  GT HR Quartz Pressure
 GTTQ.degC              00 000 000 000:  GT Quartz Temperature
 GTTN.NONE              00 000 000 000:  GT Test Number
 GTET.sec               00 000 000 000:  GT Elapsed Test Time
 GTTVD.m                00 000 000 000:  GT True Vertical Depth
#Other Information
#
#WARRANTY: Halliburton will use its best efforts to furnish customers with 
#accurate information and interpretations that are part of, and incident to, the services 
#provided.  However, Halliburton cannot and does not warrant the accuracy 
#or correctness of such information and interpretations.  Under no circumstances should any 
#such information or interpretation be relied upon as the sole basis for any drilling, 
#completion, production, or financial decision or any procedure involving any risk to the 
#safety of any drilling venture, drilling rig or its crew or any other third party.  The 
#Customer has full responsibility for all drilling, completion and production operation.  
#Halliburton makes no representations or warranties, either expressed or 
#implied, including, but not limited to, the implied warranties of merchantability or fitness 
#for a particular purpose, with respect to the services rendered.  In no event will 
#Halliburton be liable for failure to obtain any particular results or for 
#any damages, including, but not limited to, indirect, special or consequential damages, 
#resulting from the use of any information or interpretation provided by Halliburton.
#
~A           TIME           GTDEPTH  GTPQH  GTTQ  GTTN   GTET   GTTVD  
# ...
   10:57:17.829.09-Sep-2020 5456.01 3588.97 76.37 10.00 135.64 2604.72
   10:57:18.029.09-Sep-2020 5456.01 3589.01 76.37 10.00 135.84 2604.72
   10:57:18.229.09-Sep-2020 5456.01 3589.03 76.37 10.00 136.04 2604.72
   10:57:18.429.09-Sep-2020 5456.01 3589.03 76.37 10.00 136.24 2604.72
   10:57:18.629.09-Sep-2020 5456.01 3589.01 76.37 10.00 136.44 2604.72
   10:57:18.829.09-Sep-2020 5456.01 3589.11 76.37 10.00 136.64 2604.72
   10:57:19.029.09-Sep-2020 5456.01 3588.90 76.37 10.00 136.84 2604.72
   10:57:19.229.09-Sep-2020 5456.01 3589.00 76.37 10.00 137.04 2604.72
   10:57:19.429.09-Sep-2020 5456.01 3589.00 76.37 10.00 137.24 2604.72
   10:57:19.629.09-Sep-2020 5456.01 3589.01 76.37 10.00 137.44 2604.72
   10:57:19.829.09-Sep-2020 5456.01 3589.00 76.37 10.00 137.64 2604.72
   10:57:20.029.09-Sep-2020 5456.01 3589.00 76.37 10.00 137.84 2604.72
   10:57:20.229.09-Sep-2020 5456.01 3589.02 76.37 10.00 138.04 2604.72
   10:57:20.429.09-Sep-2020 5456.01 3589.02 76.37 10.00 138.24 2604.72
   10:57:20.629.09-Sep-2020 5456.01 3589.00 76.37 10.00 138.44 2604.72
   10:57:20.829.09-Sep-2020 5456.01 3588.98 76.37 10.00 138.64 2604.72
   10:57:21.029.09-Sep-2020 5456.01 3589.01 76.37 10.00 138.84 2604.72
   10:57:21.230.09-Sep-2020 5456.01 3589.02 76.37 10.00 139.04 2604.72
   10:57:21.430.09-Sep-2020 5456.01 3589.02 76.37 10.00 139.24 2604.72
   10:57:21.630.09-Sep-2020 5456.01 3588.62 76.37 10.00 139.44 2604.72
   10:57:21.830.09-Sep-2020 5456.01 3589.37 76.37 10.00 139.64 2604.72
   10:57:22.030.09-Sep-2020 5456.01 3589.05 76.37 10.00 139.84 2604.72
   10:57:22.230.09-Sep-2020 5456.01 3588.98 76.37 10.00 140.04 2604.72
   10:57:22.430.09-Sep-2020 5456.01 3588.98 76.37 10.00 140.24 2604.72
   10:57:22.630.09-Sep-2020 5456.01 3589.01 76.37 10.00 140.44 2604.72
   10:57:22.830.09-Sep-2020 5456.01 3588.98 76.37 10.00 140.64 2604.72
   10:57:23.030.09-Sep-2020 5456.01 3588.99 76.37 10.00 140.84 2604.72
   10:57:23.230.09-Sep-2020 5456.01 3589.01 76.37 10.00 141.04 2604.72
   10:57:23.430.09-Sep-2020 5456.01 3589.01 76.37 10.00 141.24 2604.72
   10:57:23.630.09-Sep-2020 5456.01 3589.02 76.37 10.00 141.44 2604.72
   10:57:23.830.09-Sep-2020 5456.01 3589.00 76.37 10.00 141.64 2604.72
   10:57:24.030.09-Sep-2020 5456.01 3588.99 76.37 10.00 141.84 2604.72
   10:57:24.230.09-Sep-2020 5456.01 3589.00 76.37 10.00 142.04 2604.72
   10:57:24.430.09-Sep-2020 5456.01 3589.00 76.37 10.00 142.24 2604.72
   10:57:24.630.09-Sep-2020 5456.01 3589.02 76.37 10.00 142.44 2604.72
   10:57:24.831.09-Sep-2020 5456.01 3589.01 76.37 10.00 142.64 2604.72
   10:57:25.031.09-Sep-2020 5456.01 3588.95 76.37 10.00 142.84 2604.72
   10:57:25.231.09-Sep-2020 5456.01 3589.03 76.37 10.00 143.04 2604.72
   10:57:25.431.09-Sep-2020 5456.01 3589.03 76.37 10.00 143.24 2604.72
   10:57:25.631.09-Sep-2020 5456.01 3588.98 76.37 10.00 143.44 2604.72
   10:57:25.831.09-Sep-2020 5456.01 3589.06 76.37 10.00 143.64 2604.72
   10:57:26.031.09-Sep-2020 5456.01 3588.97 76.37 10.00 143.84 2604.72
   10:57:26.231.09-Sep-2020 5456.01 3589.01 76.37 10.00 144.04 2604.72
   10:57:26.431.09-Sep-2020 5456.01 3589.01 76.37 10.00 144.24 2604.72
   10:57:26.631.09-Sep-2020 5456.01 3589.01 76.37 10.00 144.44 2604.72
   10:57:26.831.09-Sep-2020 5456.01 3588.99 76.37 10.00 144.64 2604.72
   10:57:27.031.09-Sep-2020 5456.01 3589.11 76.37 10.00 144.84 2604.72
   10:57:27.231.09-Sep-2020 5456.01 3588.92 76.37 10.00 145.04 2604.72
   10:57:27.431.09-Sep-2020 5456.01 3588.92 76.37 10.00 145.24 2604.72
   10:57:27.631.09-Sep-2020 5456.01 3589.02 76.37 10.00 145.44 2604.72
   10:57:27.831.09-Sep-2020 5456.01 3588.74 76.37 10.00 145.64 2604.72
   10:57:28.031.09-Sep-2020 5456.01 3589.27 76.37 10.00 145.84 2604.72
   10:57:28.231.09-Sep-2020 5456.01 3589.03 76.37 10.00 146.04 2604.72
   10:57:28.432.09-Sep-2020 5456.01 3589.03 76.37 10.00 146.24 2604.72
   10:57:28.632.09-Sep-2020 5456.01 3589.05 76.37 10.00 146.44 2604.72
   10:57:28.832.09-Sep-2020 5456.01 3589.03 76.37 10.00 146.64 2604.72
   10:57:29.032.09-Sep-2020 5456.01 3588.96 76.37 10.00 146.84 2604.72
   10:57:29.232.09-Sep-2020 5456.01 3588.53 76.37 10.00 147.04 2604.72
   10:57:29.432.09-Sep-2020 5456.01 3588.53 76.37 10.00 147.24 2604.72
   10:57:29.632.09-Sep-2020 5456.01 3588.97 76.37 10.00 147.44 2604.72
   10:57:29.832.09-Sep-2020 5456.01 3589.03 76.37 10.00 147.64 2604.72
   10:57:30.032.09-Sep-2020 5456.01 3588.96 76.37 10.00 147.84 2604.72
   10:57:30.232.09-Sep-2020 5456.01 3589.05 76.37 10.00 148.04 2604.72
   10:57:30.432.09-Sep-2020 5456.01 3589.05 76.37 10.00 148.24 2604.72
   10:57:30.632.09-Sep-2020 5456.01 3589.01 76.37 10.00 148.44 2604.72
   10:57:30.832.09-Sep-2020 5456.01 3589.00 76.37 10.00 148.64 2604.72
   10:57:31.032.09-Sep-2020 5456.01 3589.00 76.37 10.00 148.84 2604.72
   10:57:31.232.09-Sep-2020 5456.01 3589.02 76.37 10.00 149.04 2604.72
   10:57:31.432.09-Sep-2020 5456.01 3589.02 76.37 10.00 149.24 2604.72
   10:57:31.632.09-Sep-2020 5456.01 3589.00 76.37 10.00 149.44 2604.72
   10:57:31.832.09-Sep-2020 5456.01 3589.00 76.37 10.00 149.64 2604.72
   10:57:32.033.09-Sep-2020 5456.01 3589.00 76.37 10.00 149.84 2604.72
   10:57:32.233.09-Sep-2020 5456.01 3589.01 76.37 10.00 150.04 2604.72
   10:57:32.433.09-Sep-2020 5456.01 3589.03 76.37 10.00 150.24 2604.72
   10:57:32.633.09-Sep-2020 5456.01 3589.00 76.37 10.00 150.44 2604.72
   10:57:32.833.09-Sep-2020 5456.01 3499.76 76.37 10.00 150.64 2604.72
   10:57:33.033.09-Sep-2020 5456.01 3344.78 76.37 10.00 150.84 2604.72
   10:57:33.233.09-Sep-2020 5456.01 3303.34 76.37 10.00 151.04 2604.72
   10:57:33.433.09-Sep-2020 5456.01 3303.34 76.37 10.00 151.24 2604.72
   10:57:33.633.09-Sep-2020 5456.01 3300.50 76.37 10.00 151.44 2604.72
   10:57:33.833.09-Sep-2020 5456.01 3300.53 76.37 10.00 151.64 2604.72
   10:57:34.033.09-Sep-2020 5456.01 3306.78 76.37 10.00 151.84 2604.72
   10:57:34.233.09-Sep-2020 5456.01 3308.48 76.37 10.00 152.04 2604.72
   10:57:34.433.09-Sep-2020 5456.01 3308.48 76.37 10.00 152.24 2604.72
   10:57:34.633.09-Sep-2020 5456.01 3303.37 76.37 10.00 152.44 2604.72
   10:57:34.833.09-Sep-2020 5456.01 3310.45 76.37 10.00 152.64 2604.72
   10:57:35.033.09-Sep-2020 5456.01 3305.53 76.37 10.00 152.84 2604.72
   10:57:35.233.09-Sep-2020 5456.01 3308.06 76.37 10.00 153.04 2604.72
   10:57:35.433.09-Sep-2020 5456.01 3308.06 76.37 10.00 153.24 2604.72
   10:57:35.634.09-Sep-2020 5456.01 3298.80 76.37 10.00 153.44 2604.72
   10:57:35.834.09-Sep-2020 5456.01 3300.43 76.37 10.00 153.64 2604.72
   10:57:36.034.09-Sep-2020 5456.01 3299.88 76.37 10.00 153.84 2604.72
   10:57:36.234.09-Sep-2020 5456.01 3311.75 76.37 10.00 154.04 2604.72
   10:57:36.434.09-Sep-2020 5456.01 3311.75 76.37 10.00 154.24 2604.72
   10:57:36.634.09-Sep-2020 5456.01 3313.13 76.37 10.00 154.44 2604.72
   10:57:36.834.09-Sep-2020 5456.01 3311.83 76.37 10.00 154.64 2604.72
   10:57:37.034.09-Sep-2020 5456.01 3307.35 76.37 10.00 154.84 2604.72
   10:57:37.234.09-Sep-2020 5456.01 3302.33 76.37 10.00 155.04 2604.72
   10:57:37.434.09-Sep-2020 5456.01 3302.33 76.37 10.00 155.24 2604.72
   10:57:37.634.09-Sep-2020 5456.01 3304.16 76.37 10.00 155.44 2604.72
   10:57:37.834.09-Sep-2020 5456.01 3307.00 76.37 10.00 155.64 2604.72
   10:57:38.034.09-Sep-2020 5456.01 3307.69 76.37 10.00 155.84 2604.72
   10:57:38.234.09-Sep-2020 5456.01 3311.35 76.37 10.00 156.04 2604.72
   10:57:38.434.09-Sep-2020 5456.01 3311.35 76.37 10.00 156.24 2604.72
   10:57:38.634.09-Sep-2020 5456.01 3300.71 76.37 10.00 156.44 2604.72
   10:57:38.834.09-Sep-2020 5456.01 3303.46 76.37 10.00 156.64 2604.72
   10:57:39.034.09-Sep-2020 5456.01 3299.69 76.37 10.00 156.84 2604.72
   10:57:39.235.09-Sep-2020 5456.01 3313.74 76.37 10.00 157.04 2604.72
   10:57:39.435.09-Sep-2020 5456.01 3313.74 76.37 10.00 157.24 2604.72
   10:57:39.635.09-Sep-2020 5456.01 3299.50 76.37 10.00 157.44 2604.72
   10:57:39.835.09-Sep-2020 5456.01 3292.59 76.37 10.00 157.64 2604.72
   10:57:40.035.09-Sep-2020 5456.01 3301.14 76.37 10.00 157.84 2604.72
   10:57:40.235.09-Sep-2020 5456.01 3298.05 76.37 10.00 158.04 2604.72
