~Version Information
 VERS.                  2.0:   CWLS log ASCII Standard -VERSION 2.0
 WRAP.                   NO:   One line per depth step
~Well Information Block
#MNEM.UNIT     VALUE/NAME     DESCRIPTION
#---------     -----------    ---------------------------
 STRT.S             14:18:02 09-Sep-20: START TIME 14:18:02 09-Sep-20
 STOP.S             14:26:13 09-Sep-20: STOP TIME  14:26:13 09-Sep-20
 STEP.S                   0.00: STEP TIME
 NULL.                 -999.25: NULL VALUE
 MDS .        Operator Entered:  MAG DATA SOURCE
 PDAT.          Mean Sea Level:  PERMANENT DATUM
 DCON.         Sperry Drilling:  DIRECTNL CONTR
 RIG .              West Azeri:  RIG NAME
 WELL.           C40 (Slot 20):  WELL NAME
 SRVC.     Turan Drilling Engineering:  CONTRACTOR
 FLD .                     ACG:  FIELD NAME
 CTRY.              Azerbaijan:  COUNTRY NAME
 PROV.                    Baku:  PROVINCE
 STAT.                    Baku:  STATE NAME
 REGN.                   EESSA:  REGION
 BASE.              Azerbaijan:  LOGGING EQUIPMENT BASE LOCATION
 COMP.     BP Exploration (Caspian Sea) Ltd:  COMPANY
 WTYP.                Deviated:  WELL TYPE
 SON .        AZ-XX-0906344804:  JOB NUMBER
 FTOP.          Formation Tops:  FORM TOPS DESC
 ILTD.               Lithology:  INTERP LTH DESC
 SVYD.                  Survey:  SURVEY DESC
 DMOD.             Drill Model:  DRILL MOD DESC
 HPTY.       Minimum Curvature:  HOLE POS TYPE
 NREF.                    Grid:  NORTH REFERENCE
 SPUD.               01-Jan-20:  SPUD DATE
 DATE.      00.59.44 15-Sep-20:  END TIME
 STIM.      12.00.00 12-Jun-20:  START TIME
 DMF .             Drill Floor:  DRILL MEAS FROM
 DFST.                        :  DIST FSL TEXT
 DFWT.                        :  DIST FWL TEXT
 API .                        :  API NUMBER
 CNTY.                        :  COUNTY
 UWI .                        :  UNIQUE WELL IDENTIFIER
 LOC .                        :  LOCATION
 LMF .             Drill Floor:  LOG MEASURED FROM
 VSNS.m                   2.88:  VERT SEC N/S
 VSEW.m                  -3.84:  VERT SEC E/W
 AGAP.m                  43.42:  AIR GAP
 APD .m                  43.42:  DEPTH ABOVE PD
 WDMS.m                 118.27:  WD ELEV
 EGL .m                   0.00:  GROUND ELEVATION
 EPD .m                   0.00:  ELEVATION
 AZTC.deg                 6.23:  AZM TOTAL CORR
 GRDC.deg                 0.20:  GRID CORRECTION
 MDEC.deg                 6.43:  MAGNETIC DECL
 MDIP.deg                59.49:  MAGNETIC DIP
 MFLD.nT              50277.00:  MAGNETIC FIELD
 GVFD.g                   1.00:  GRAVITY FIELD
 VSDR.deg               173.20:  VERT SEC DIRECT
 TDD .m                5790.01:  TOTAL DEPTH (DRILLER)
 SDEP.m                5231.01:  START DEPTH
 DFSL.m                   0.00:  DISTANCE FSL
 DFWL.m                   0.00:  DISTANCE FWL
 UTMY.m             4435808.83:  UTM Y
 UTMX.m              526266.40:  UTM X
 WHEW.m                  -3.84:  WELL HEAD E/W
 WHNS.m                   2.88:  WELL HEAD N/S
 LONG.deg                51.31:  LONGITUDE
 LATI.deg                40.06:  LATITUDE
 TVDS.m                  43.42:  TVDSS CORRECTN
 DEP .m                 430.08:  DEPTH
 EKB .m                  43.42:  KB ELEVATION
 EDF .m                  43.42:  DF ELEVATION
 TDL .m                 559.00:  TOTAL DEPTH (LOGGER)
 MAGU.                 1849381:  MAGUTM CHECKSUM
 VSC .                       0:  VS TO CLOSURE
~Parameter Information Block
#MNEM.UNIT       Value        Description
#---------     -----------    ---------------------------
 AV  .mps                 4.87:  Ann Velocity 
 AVMX.mps                 7.08:  Max Ann Veloc 
 AZIF.deg               108.87:  Azm, Final 
 BHAT.                  Rotary:  BHA Type 
 BROT.°/30m               0.35:  Build Rotating 
 BS  .in                  8.50:  Bit Size 
 BSZ .in                  8.50:  Bit Size 
 BTPL.psig              360.00:  Bit Press Loss 
 CABU.                     Yes:  Customer Abuse 
 TCS .hr                106.24:  Time Ciculation Ended 
 CV  .mps                 1.77:  Crit Velocity 
 CVMX.mps                 2.03:  Max Crit Veloc 
 DD1 .         Aykhan Agagulov:  Direct Drillr 1 
 DD2 .            Nonso Okofor:  Direct Drillr 2 
 DDSV.               Geo-Pilot:  DD Service 
 DEFF.%                  98.00:  % Det Eff 
 DLRX.°/30m               0.50:  Dogleg Rot Max 
 DLSO.°/30m               0.40:  Dogleg Oriented 
 DLSX.°/30m               0.94:  Dogleg Str Max 
 DRET.      20.30.00 08-Sep-20:  Drill End Time 
 DRST.      22.15.00 06-Sep-20:  Drill Start Tim 
 DTIM.hr                 31.31:  Time Drilling 
 EDEP.m                5790.01:  End Depth 
 ENG1.           Amrah Tahirov:  Engineer 1 
 ENG2.         Dair Mahammadov:  Engineer 2 
 ENG3.           Emil Huseynov:  Engineer 3 
 ETIM.      04.01.04 12-Sep-20:  End Time 
 FLOI.gpm               450.00:  Flow In 
 FLON.gpm               450.00:  Flow In Min 
 FLOS.cptm                2.00:  Fluid Loss 
 FLOX.gpm               450.00:  Flow In Max 
 FTRO.       Formation Presure:  FTWD Run Obj 
 HFLO.                      No:  High Flow 
 HPRE.                      No:  High Pressure 
 HTEM.                      No:  High Temp 
 HYDO.m                   1.80:  Hydro Offset 
 IFIN.deg                72.03:  Inc, Final 
 IMAX.deg                73.72:  Inc Max 
 IMIN.deg                70.94:  Inc Min 
 IMND.m                5508.52:  Inc Min Depth 
 IMXD.m                5253.60:  Inc Max Depth 
 JARR.                      No:  Jarring 
 LETM.      20.30.00 08-Sep-20:  Log End Time 
 LOST.hr                     0:  Lost Rig Time 
 LSTM.      22.15.00 06-Sep-20:  Log Start Time 
 MDCL.ppm             36000.00:  Mud Chlorides 
 MDES.     Inversion Oil/Synthetic:  Mud Desc 
 DFD .sg                  1.44:  Mud Density 
 MDMN.sg                  1.44:  Dens Mud Min 
 MDMX.sg                  1.57:  Dens Mud Max 
 MOIL.                      70:  Run Mud Oil % 
 MOWR.                   70:30:  Run Mud OWR 
 MSND.                       0:  Run Mud Sand % 
 MSOL.                      21:  Run Mud Solids% 
 DFV .spqt               68.00:  Mud Viscosity 
 MWOD.in                  6.75:  MWD Tool OD 
 MWSI.                     Yes:  Serv Intrp, MWD 
 OTIM.hr                174.84:  Time Operating 
 PCON.           Look Like New:  Pad Condition 
 PMAX.psia            10616.93:  Press Op, Max 
 PV  .cP                 50.00:  Mud PV 
 RUN .                     700:  Run Number 
 ROPA.m/hr               14.24:  ROP Avg 
 ROPN.m/hr               10.00:  ROP Min 
 ROPX.m/hr               32.00:  ROP Max 
 RPMA.rpm               120.90:  RPM Surface Avg 
 RPMN.rpm               120.00:  RPM Surface Min 
 RPMX.rpm               140.00:  RPM Surface Max 
 RRUN.                    0700:  Rig Run Number 
 RTIM.hr                  3.20:  Time Reaming 
 SAZI.deg               109.99:  Azm, Start 
 SDEP.m                5231.01:  Start Depth 
 SIDD.                      No:  Serv Intrp, DD 
 SINC.deg                73.72:  Inc, Start 
 SPPA.psig             3051.00:  SPP Avg 
 SPPN.psig             2950.00:  SPP Min 
 SPPX.psig             3250.00:  SPP Max 
 STIM.      08.00.00 05-Sep-20:  Start Time 
 SVCS.                 DD, MWD:  Services 
 SVER.                    9.20:  Sperry Version 
 TDAT.m                 559.00:  Tot Depth Attmp 
 TDDF.                      No:  Trip for DD 
 TDLG.m                 559.00:  Tot Depth Loggd 
 TFF .                      No:  Trip for Fail 
 TQAA.f-kp               26.49:  Torque Abs Avg 
 TQAN.f-kp               25.00:  Torque Abs Min 
 TQAX.f-kp               27.00:  Torque Abs Max 
 TRRT.°/30m               1.50:  Turn Rotating 
 MRT .                    HCIM:  Maximum Recorded Temperature 
 TTMX.degC               90.20:  Max Tool Temp 
 VS01.                90542671:  Virtual Str1 SN 
 VS02.                90545185:  Virtual Str2 SN 
 VS03.                90602015:  Virtual Str3 SN 
 VS04.                90515230:  Virtual Str4 SN 
 WBMN.klb                 5.00:  WOB Min 
 WOBA.klb                14.79:  WOB Avg 
 WOBX.klb                20.00:  WOB Max 
 YP  .lhf2               29.00:  Yield Point 
~Curve Information Block
#MNEM.UNIT                 API CODE     Curve Description
#---------               -----------    ---------------------------
 TIME.HHMMSS            00 000 000 000:  GT Time & Date
 GTDEPTH.m              00 000 000 000:  GT Depth
 GTPQH.psia             00 000 000 000:  GT HR Quartz Pressure
 GTTQ.degC              00 000 000 000:  GT Quartz Temperature
 GTTN.NONE              00 000 000 000:  GT Test Number
 GTET.sec               00 000 000 000:  GT Elapsed Test Time
 GTTVD.m                00 000 000 000:  GT True Vertical Depth
#Other Information
#
#WARRANTY: Halliburton will use its best efforts to furnish customers with 
#accurate information and interpretations that are part of, and incident to, the services 
#provided.  However, Halliburton cannot and does not warrant the accuracy 
#or correctness of such information and interpretations.  Under no circumstances should any 
#such information or interpretation be relied upon as the sole basis for any drilling, 
#completion, production, or financial decision or any procedure involving any risk to the 
#safety of any drilling venture, drilling rig or its crew or any other third party.  The 
#Customer has full responsibility for all drilling, completion and production operation.  
#Halliburton makes no representations or warranties, either expressed or 
#implied, including, but not limited to, the implied warranties of merchantability or fitness 
#for a particular purpose, with respect to the services rendered.  In no event will 
#Halliburton be liable for failure to obtain any particular results or for 
#any damages, including, but not limited to, indirect, special or consequential damages, 
#resulting from the use of any information or interpretation provided by Halliburton.
#
~A           TIME           GTDEPTH  GTPQH  GTTQ  GTTN   GTET   GTTVD  
# ...
   14:19:32.676.09-Sep-2020 5408.01  992.41 75.18 16.00  90.46 2589.60
   14:19:32.876.09-Sep-2020 5408.01  993.02 75.18 16.00  90.66 2589.60
   14:19:33.076.09-Sep-2020 5408.01  995.17 75.18 16.00  90.86 2589.60
   14:19:33.276.09-Sep-2020 5408.01  996.56 75.18 16.00  91.06 2589.60
   14:19:33.476.09-Sep-2020 5408.01  996.56 75.18 16.00  91.26 2589.60
   14:19:33.676.09-Sep-2020 5408.01  999.08 75.18 16.00  91.46 2589.60
   14:19:33.877.09-Sep-2020 5408.01 1000.39 75.18 16.00  91.66 2589.60
   14:19:34.077.09-Sep-2020 5408.01 1000.95 75.18 16.00  91.86 2589.60
   14:19:34.277.09-Sep-2020 5408.01 1003.10 75.18 16.00  92.06 2589.60
   14:19:34.477.09-Sep-2020 5408.01 1004.43 75.18 16.00  92.26 2589.60
   14:19:34.677.09-Sep-2020 5408.01 1005.61 75.18 16.00  92.46 2589.60
   14:19:34.877.09-Sep-2020 5408.01 1006.86 75.18 16.00  92.66 2589.60
   14:19:35.077.09-Sep-2020 5408.01 1008.17 75.18 16.00  92.86 2589.60
   14:19:35.277.09-Sep-2020 5408.01 1009.24 75.18 16.00  93.06 2589.60
   14:19:35.478.09-Sep-2020 5408.01 1009.24 75.18 16.00  93.26 2589.60
   14:19:35.678.09-Sep-2020 5408.01 1011.60 75.18 16.00  93.46 2589.60
   14:19:35.878.09-Sep-2020 5408.01 1012.73 75.18 16.00  93.66 2589.60
   14:19:36.078.09-Sep-2020 5408.01 1013.85 75.18 16.00  93.86 2589.60
   14:19:36.278.09-Sep-2020 5408.01 1015.02 75.18 16.00  94.06 2589.60
   14:19:36.478.09-Sep-2020 5408.01 1015.02 75.18 16.00  94.26 2589.60
   14:19:36.678.09-Sep-2020 5408.01 1017.45 75.18 16.00  94.46 2589.60
   14:19:36.878.09-Sep-2020 5408.01 1018.65 75.18 16.00  94.66 2589.60
   14:19:37.079.09-Sep-2020 5408.01 1019.86 75.18 16.00  94.86 2589.60
   14:19:37.279.09-Sep-2020 5408.01 1021.01 75.18 16.00  95.06 2589.60
   14:19:37.479.09-Sep-2020 5408.01 1021.01 75.18 16.00  95.26 2589.60
   14:19:37.679.09-Sep-2020 5408.01 1022.35 75.18 16.00  95.46 2589.60
   14:19:37.879.09-Sep-2020 5408.01 1024.86 75.18 16.00  95.66 2589.60
   14:19:38.079.09-Sep-2020 5408.01 1026.39 75.18 16.00  95.86 2589.60
   14:19:38.279.09-Sep-2020 5408.01 1027.74 75.18 16.00  96.06 2589.60
   14:19:38.479.09-Sep-2020 5408.01 1028.89 75.18 16.00  96.26 2589.60
   14:19:38.680.09-Sep-2020 5408.01 1030.39 75.18 16.00  96.46 2589.60
   14:19:38.880.09-Sep-2020 5408.01 1031.44 75.18 16.00  96.66 2589.60
   14:19:39.080.09-Sep-2020 5408.01 1032.59 75.18 16.00  96.86 2589.60
   14:19:39.280.09-Sep-2020 5408.01 1033.74 75.19 16.00  97.06 2589.60
   14:19:39.480.09-Sep-2020 5408.01 1033.74 75.19 16.00  97.26 2589.60
   14:19:39.680.09-Sep-2020 5408.01 1036.12 75.19 16.00  97.46 2589.60
   14:19:39.880.09-Sep-2020 5408.01 1037.31 75.19 16.00  97.66 2589.60
   14:19:40.080.09-Sep-2020 5408.01 1038.42 75.19 16.00  97.86 2589.60
   14:19:40.280.09-Sep-2020 5408.01 1039.51 75.19 16.00  98.06 2589.60
   14:19:40.481.09-Sep-2020 5408.01 1039.51 75.19 16.00  98.26 2589.60
   14:19:40.681.09-Sep-2020 5408.01 1041.63 75.19 16.00  98.46 2589.60
   14:19:40.881.09-Sep-2020 5408.01 1042.30 75.19 16.00  98.66 2589.60
   14:19:41.081.09-Sep-2020 5408.01 1043.63 75.19 16.00  98.86 2589.60
   14:19:41.281.09-Sep-2020 5408.01 1045.21 75.19 16.00  99.06 2589.60
   14:19:41.481.09-Sep-2020 5408.01 1045.21 75.19 16.00  99.26 2589.60
   14:19:41.681.09-Sep-2020 5408.01 1047.37 75.19 16.00  99.46 2589.60
   14:19:41.881.09-Sep-2020 5408.01 1048.70 75.19 16.00  99.66 2589.60
   14:19:42.082.09-Sep-2020 5408.01 1048.79 75.19 16.00  99.86 2589.60
   14:19:42.282.09-Sep-2020 5408.01 1051.09 75.19 16.00 100.06 2589.60
   14:19:42.482.09-Sep-2020 5408.01 1051.09 75.19 16.00 100.26 2589.60
   14:19:42.682.09-Sep-2020 5408.01 1053.53 75.19 16.00 100.46 2589.60
   14:19:42.882.09-Sep-2020 5408.01 1054.45 75.19 16.00 100.66 2589.60
   14:19:43.082.09-Sep-2020 5408.01 1055.74 75.19 16.00 100.86 2589.60
   14:19:43.282.09-Sep-2020 5408.01 1056.34 75.19 16.00 101.06 2589.60
   14:19:43.482.09-Sep-2020 5408.01 1056.34 75.19 16.00 101.26 2589.60
   14:19:43.683.09-Sep-2020 5408.01 1059.32 75.19 16.00 101.46 2589.60
   14:19:43.883.09-Sep-2020 5408.01 1060.40 75.19 16.00 101.66 2589.60
   14:19:44.083.09-Sep-2020 5408.01 1061.42 75.19 16.00 101.86 2589.60
   14:19:44.283.09-Sep-2020 5408.01 1062.65 75.19 16.00 102.06 2589.60
   14:19:44.483.09-Sep-2020 5408.01 1062.65 75.19 16.00 102.26 2589.60
   14:19:44.683.09-Sep-2020 5408.01 1064.27 75.19 16.00 102.46 2589.60
   14:19:44.883.09-Sep-2020 5408.01 1065.58 75.19 16.00 102.66 2589.60
   14:19:45.083.09-Sep-2020 5408.01 1067.22 75.19 16.00 102.86 2589.60
   14:19:45.284.09-Sep-2020 5408.01 1068.28 75.19 16.00 103.06 2589.60
   14:19:45.484.09-Sep-2020 5408.01 1068.28 75.19 16.00 103.26 2589.60
   14:19:45.684.09-Sep-2020 5408.01 1070.48 75.19 16.00 103.46 2589.60
   14:19:45.884.09-Sep-2020 5408.01 1071.01 75.19 16.00 103.66 2589.60
   14:19:46.084.09-Sep-2020 5408.01 1072.62 75.19 16.00 103.86 2589.60
   14:19:46.284.09-Sep-2020 5408.01 1073.92 75.19 16.00 104.06 2589.60
   14:19:46.484.09-Sep-2020 5408.01 1073.92 75.19 16.00 104.26 2589.60
   14:19:46.684.09-Sep-2020 5408.01 1076.24 75.19 16.00 104.46 2589.60
   14:19:46.885.09-Sep-2020 5408.01 1077.25 75.19 16.00 104.66 2589.60
   14:19:47.085.09-Sep-2020 5408.01 1078.36 75.19 16.00 104.86 2589.60
   14:19:47.285.09-Sep-2020 5408.01 1079.44 75.19 16.00 105.06 2589.60
   14:19:47.485.09-Sep-2020 5408.01 1079.44 75.19 16.00 105.26 2589.60
   14:19:47.685.09-Sep-2020 5408.01 1081.48 75.19 16.00 105.46 2589.60
   14:19:47.885.09-Sep-2020 5408.01 1082.41 75.19 16.00 105.66 2589.60
   14:19:48.085.09-Sep-2020 5408.01 1083.36 75.19 16.00 105.86 2589.60
   14:19:48.285.09-Sep-2020 5408.01 1084.33 75.19 16.00 106.06 2589.60
   14:19:48.486.09-Sep-2020 5408.01 1084.33 75.19 16.00 106.26 2589.60
   14:19:48.686.09-Sep-2020 5408.01 1086.30 75.19 16.00 106.47 2589.60
   14:19:48.886.09-Sep-2020 5408.01 1087.26 75.19 16.00 106.67 2589.60
   14:19:49.086.09-Sep-2020 5408.01 1088.22 75.19 16.00 106.87 2589.60
   14:19:49.286.09-Sep-2020 5408.01 1089.16 75.19 16.00 107.07 2589.60
   14:19:49.486.09-Sep-2020 5408.01 1089.16 75.19 16.00 107.27 2589.60
   14:19:49.686.09-Sep-2020 5408.01 1091.10 75.19 16.00 107.47 2589.60
   14:19:49.886.09-Sep-2020 5408.01 1092.40 75.19 16.00 107.67 2589.60
   14:19:50.086.09-Sep-2020 5408.01 1093.57 75.19 16.00 107.87 2589.60
   14:19:50.287.09-Sep-2020 5408.01 1094.82 75.19 16.00 108.07 2589.60
   14:19:50.487.09-Sep-2020 5408.01 1095.64 75.19 16.00 108.27 2589.60
   14:19:50.687.09-Sep-2020 5408.01 1096.63 75.19 16.00 108.47 2589.60
   14:19:50.887.09-Sep-2020 5408.01 1097.58 75.19 16.00 108.67 2589.60
   14:19:51.087.09-Sep-2020 5408.01 1098.48 75.19 16.00 108.87 2589.60
   14:19:51.287.09-Sep-2020 5408.01 1099.38 75.19 16.00 109.07 2589.60
   14:19:51.487.09-Sep-2020 5408.01 1099.38 75.19 16.00 109.27 2589.60
   14:19:51.687.09-Sep-2020 5408.01 1101.28 75.19 16.00 109.47 2589.60
   14:19:51.888.09-Sep-2020 5408.01 1102.18 75.19 16.00 109.67 2589.60
   14:19:52.088.09-Sep-2020 5408.01 1103.06 75.19 16.00 109.87 2589.60
   14:19:52.288.09-Sep-2020 5408.01 1103.91 75.19 16.00 110.07 2589.60
   14:19:52.488.09-Sep-2020 5408.01 1103.91 75.19 16.00 110.27 2589.60
   14:19:52.688.09-Sep-2020 5408.01 1104.84 75.19 16.00 110.47 2589.60
   14:19:52.888.09-Sep-2020 5408.01 1106.95 75.19 16.00 110.67 2589.60
   14:19:53.088.09-Sep-2020 5408.01 1107.93 75.19 16.00 110.87 2589.60
   14:19:53.288.09-Sep-2020 5408.01 1108.89 75.19 16.00 111.07 2589.60
   14:19:53.489.09-Sep-2020 5408.01 1108.89 75.20 16.00 111.27 2589.60
   14:19:53.689.09-Sep-2020 5408.01 1109.47 75.20 16.00 111.47 2589.60
   14:19:53.889.09-Sep-2020 5408.01 1108.72 75.20 16.00 111.67 2589.60
   14:19:54.089.09-Sep-2020 5408.01 1110.57 75.20 16.00 111.87 2589.60
   14:19:54.289.09-Sep-2020 5408.01 1111.65 75.20 16.00 112.07 2589.60
   14:19:54.489.09-Sep-2020 5408.01 1112.58 75.20 16.00 112.27 2589.60
   14:19:54.689.09-Sep-2020 5408.01 1113.09 75.20 16.00 112.47 2589.60
   14:19:54.889.09-Sep-2020 5408.01 1114.19 75.20 16.00 112.67 2589.60
   14:19:55.090.09-Sep-2020 5408.01 1115.50 75.20 16.00 112.87 2589.60
