~Version Information
 VERS.                  2.0:   CWLS log ASCII Standard -VERSION 2.0
 WRAP.                   NO:   One line per depth step
~Well Information Block
#MNEM.UNIT     VALUE/NAME     DESCRIPTION
#---------     -----------    ---------------------------
 STRT.S             05:36:14 09-Sep-20: START TIME 05:36:14 09-Sep-20
 STOP.S             05:43:10 09-Sep-20: STOP TIME  05:43:10 09-Sep-20
 STEP.S                   0.00: STEP TIME
 NULL.                 -999.25: NULL VALUE
 MDS .        Operator Entered:  MAG DATA SOURCE
 PDAT.          Mean Sea Level:  PERMANENT DATUM
 DCON.         Sperry Drilling:  DIRECTNL CONTR
 RIG .              West Azeri:  RIG NAME
 WELL.           C40 (Slot 20):  WELL NAME
 SRVC.     Turan Drilling Engineering:  CONTRACTOR
 FLD .                     ACG:  FIELD NAME
 CTRY.              Azerbaijan:  COUNTRY NAME
 PROV.                    Baku:  PROVINCE
 STAT.                    Baku:  STATE NAME
 REGN.                   EESSA:  REGION
 BASE.              Azerbaijan:  LOGGING EQUIPMENT BASE LOCATION
 COMP.     BP Exploration (Caspian Sea) Ltd:  COMPANY
 WTYP.                Deviated:  WELL TYPE
 SON .        AZ-XX-0906344804:  JOB NUMBER
 FTOP.          Formation Tops:  FORM TOPS DESC
 ILTD.               Lithology:  INTERP LTH DESC
 SVYD.                  Survey:  SURVEY DESC
 DMOD.             Drill Model:  DRILL MOD DESC
 HPTY.       Minimum Curvature:  HOLE POS TYPE
 NREF.                    Grid:  NORTH REFERENCE
 SPUD.               01-Jan-20:  SPUD DATE
 DATE.      00.59.44 15-Sep-20:  END TIME
 STIM.      12.00.00 12-Jun-20:  START TIME
 DMF .             Drill Floor:  DRILL MEAS FROM
 DFST.                        :  DIST FSL TEXT
 DFWT.                        :  DIST FWL TEXT
 API .                        :  API NUMBER
 CNTY.                        :  COUNTY
 UWI .                        :  UNIQUE WELL IDENTIFIER
 LOC .                        :  LOCATION
 LMF .             Drill Floor:  LOG MEASURED FROM
 VSNS.m                   2.88:  VERT SEC N/S
 VSEW.m                  -3.84:  VERT SEC E/W
 AGAP.m                  43.42:  AIR GAP
 APD .m                  43.42:  DEPTH ABOVE PD
 WDMS.m                 118.27:  WD ELEV
 EGL .m                   0.00:  GROUND ELEVATION
 EPD .m                   0.00:  ELEVATION
 AZTC.deg                 6.23:  AZM TOTAL CORR
 GRDC.deg                 0.20:  GRID CORRECTION
 MDEC.deg                 6.43:  MAGNETIC DECL
 MDIP.deg                59.49:  MAGNETIC DIP
 MFLD.nT              50277.00:  MAGNETIC FIELD
 GVFD.g                   1.00:  GRAVITY FIELD
 VSDR.deg               173.20:  VERT SEC DIRECT
 TDD .m                5790.01:  TOTAL DEPTH (DRILLER)
 SDEP.m                5231.01:  START DEPTH
 DFSL.m                   0.00:  DISTANCE FSL
 DFWL.m                   0.00:  DISTANCE FWL
 UTMY.m             4435808.83:  UTM Y
 UTMX.m              526266.40:  UTM X
 WHEW.m                  -3.84:  WELL HEAD E/W
 WHNS.m                   2.88:  WELL HEAD N/S
 LONG.deg                51.31:  LONGITUDE
 LATI.deg                40.06:  LATITUDE
 TVDS.m                  43.42:  TVDSS CORRECTN
 DEP .m                 430.08:  DEPTH
 EKB .m                  43.42:  KB ELEVATION
 EDF .m                  43.42:  DF ELEVATION
 TDL .m                 559.00:  TOTAL DEPTH (LOGGER)
 MAGU.                 1849381:  MAGUTM CHECKSUM
 VSC .                       0:  VS TO CLOSURE
~Parameter Information Block
#MNEM.UNIT       Value        Description
#---------     -----------    ---------------------------
 AV  .mps                 4.87:  Ann Velocity 
 AVMX.mps                 7.08:  Max Ann Veloc 
 AZIF.deg               108.87:  Azm, Final 
 BHAT.                  Rotary:  BHA Type 
 BROT.°/30m               0.35:  Build Rotating 
 BS  .in                  8.50:  Bit Size 
 BSZ .in                  8.50:  Bit Size 
 BTPL.psig              360.00:  Bit Press Loss 
 CABU.                     Yes:  Customer Abuse 
 COMM.                     ”£|:  Run Comments 1 
 TCS .hr                106.24:  Time Ciculation Ended 
 CV  .mps                 1.77:  Crit Velocity 
 CVMX.mps                 2.03:  Max Crit Veloc 
 DD1 .         Aykhan Agagulov:  Direct Drillr 1 
 DD2 .            Nonso Okofor:  Direct Drillr 2 
 DDSV.               Geo-Pilot:  DD Service 
 DEFF.%                  98.00:  % Det Eff 
 DLRX.°/30m               0.50:  Dogleg Rot Max 
 DLSO.°/30m               0.40:  Dogleg Oriented 
 DLSX.°/30m               0.94:  Dogleg Str Max 
 DRET.      20.30.00 08-Sep-20:  Drill End Time 
 DRST.      22.15.00 06-Sep-20:  Drill Start Tim 
 DTIM.hr                 31.31:  Time Drilling 
 EDEP.m                5790.01:  End Depth 
 ENG1.           Amrah Tahirov:  Engineer 1 
 ENG2.         Dair Mahammadov:  Engineer 2 
 ENG3.           Emil Huseynov:  Engineer 3 
 ETIM.      04.01.04 12-Sep-20:  End Time 
 FLOI.gpm               450.00:  Flow In 
 FLON.gpm               450.00:  Flow In Min 
 FLOS.cptm                2.00:  Fluid Loss 
 FLOX.gpm               450.00:  Flow In Max 
 FTRO.       Formation Presure:  FTWD Run Obj 
 HFLO.                      No:  High Flow 
 HPRE.                      No:  High Pressure 
 HTEM.                      No:  High Temp 
 HYDO.m                   1.80:  Hydro Offset 
 IFIN.deg                72.03:  Inc, Final 
 IMAX.deg                73.72:  Inc Max 
 IMIN.deg                70.94:  Inc Min 
 IMND.m                5508.52:  Inc Min Depth 
 IMXD.m                5253.60:  Inc Max Depth 
 JARR.                      No:  Jarring 
 LETM.      20.30.00 08-Sep-20:  Log End Time 
 LOST.hr                     0:  Lost Rig Time 
 LSTM.      22.15.00 06-Sep-20:  Log Start Time 
 MDCL.ppm             36000.00:  Mud Chlorides 
 MDES.     Inversion Oil/Synthetic:  Mud Desc 
 DFD .sg                  1.44:  Mud Density 
 MDMN.sg                  1.44:  Dens Mud Min 
 MDMX.sg                  1.57:  Dens Mud Max 
 MOIL.                      70:  Run Mud Oil % 
 MOWR.                   70:30:  Run Mud OWR 
 MSND.                       0:  Run Mud Sand % 
 MSOL.                      21:  Run Mud Solids% 
 DFV .spqt               68.00:  Mud Viscosity 
 MWOD.in                  6.75:  MWD Tool OD 
 MWSI.                     Yes:  Serv Intrp, MWD 
 OTIM.hr                174.84:  Time Operating 
 PCON.           Look Like New:  Pad Condition 
 PMAX.psia            10616.93:  Press Op, Max 
 PV  .cP                 50.00:  Mud PV 
 RUN .                     700:  Run Number 
 ROPA.m/hr               14.24:  ROP Avg 
 ROPN.m/hr               10.00:  ROP Min 
 ROPX.m/hr               32.00:  ROP Max 
 RPMA.rpm               120.90:  RPM Surface Avg 
 RPMN.rpm               120.00:  RPM Surface Min 
 RPMX.rpm               140.00:  RPM Surface Max 
 RRUN.                    0700:  Rig Run Number 
 RTIM.hr                  3.20:  Time Reaming 
 SAZI.deg               109.99:  Azm, Start 
 SDEP.m                5231.01:  Start Depth 
 SIDD.                      No:  Serv Intrp, DD 
 SINC.deg                73.72:  Inc, Start 
 SPPA.psig             3051.00:  SPP Avg 
 SPPN.psig             2950.00:  SPP Min 
 SPPX.psig             3250.00:  SPP Max 
 STIM.      08.00.00 05-Sep-20:  Start Time 
 SVCS.                 DD, MWD:  Services 
 SVER.                    9.20:  Sperry Version 
 TDAT.m                 559.00:  Tot Depth Attmp 
 TDDF.                      No:  Trip for DD 
 TDLG.m                 559.00:  Tot Depth Loggd 
 TFF .                      No:  Trip for Fail 
 TQAA.f-kp               26.49:  Torque Abs Avg 
 TQAN.f-kp               25.00:  Torque Abs Min 
 TQAX.f-kp               27.00:  Torque Abs Max 
 TRRT.°/30m               1.50:  Turn Rotating 
 MRT .                    HCIM:  Maximum Recorded Temperature 
 TTMX.degC               90.20:  Max Tool Temp 
 VS01.                90542671:  Virtual Str1 SN 
 VS02.                90545185:  Virtual Str2 SN 
 VS03.                90602015:  Virtual Str3 SN 
 VS04.                90515230:  Virtual Str4 SN 
 WBMN.klb                 5.00:  WOB Min 
 WOBA.klb                14.79:  WOB Avg 
 WOBX.klb                20.00:  WOB Max 
 YP  .lhf2               29.00:  Yield Point 
~Curve Information Block
#MNEM.UNIT                 API CODE     Curve Description
#---------               -----------    ---------------------------
 TIME.HHMMSS            00 000 000 000:  GT Time & Date
 GTDEPTH.m              00 000 000 000:  GT Depth
 GTPQH.psia             00 000 000 000:  GT HR Quartz Pressure
 GTTQ.degC              00 000 000 000:  GT Quartz Temperature
 GTTN.NONE              00 000 000 000:  GT Test Number
 GTET.sec               00 000 000 000:  GT Elapsed Test Time
 GTTVD.m                00 000 000 000:  GT True Vertical Depth
#Other Information
#
#WARRANTY: Halliburton will use its best efforts to furnish customers with 
#accurate information and interpretations that are part of, and incident to, the services 
#provided.  However, Halliburton cannot and does not warrant the accuracy 
#or correctness of such information and interpretations.  Under no circumstances should any 
#such information or interpretation be relied upon as the sole basis for any drilling, 
#completion, production, or financial decision or any procedure involving any risk to the 
#safety of any drilling venture, drilling rig or its crew or any other third party.  The 
#Customer has full responsibility for all drilling, completion and production operation.  
#Halliburton makes no representations or warranties, either expressed or 
#implied, including, but not limited to, the implied warranties of merchantability or fitness 
#for a particular purpose, with respect to the services rendered.  In no event will 
#Halliburton be liable for failure to obtain any particular results or for 
#any damages, including, but not limited to, indirect, special or consequential damages, 
#resulting from the use of any information or interpretation provided by Halliburton.
#
~A           TIME           GTDEPTH  GTPQH  GTTQ  GTTN  GTET   GTTVD  
# ...
   05:42:22.067.09-Sep-2020 5634.01 6544.08 79.96 1.00 367.98 2660.75
   05:42:22.267.09-Sep-2020 5634.01 6544.08 79.96 1.00 368.18 2660.75
   05:42:22.467.09-Sep-2020 5634.01 6543.15 79.96 1.00 368.38 2660.75
   05:42:22.667.09-Sep-2020 5634.01 6542.63 79.96 1.00 368.58 2660.75
   05:42:22.867.09-Sep-2020 5634.01 6551.68 79.97 1.00 368.78 2660.75
   05:42:23.067.09-Sep-2020 5634.01 6540.76 79.97 1.00 368.98 2660.75
   05:42:23.267.09-Sep-2020 5634.01 6540.76 79.97 1.00 369.18 2660.75
   05:42:23.467.09-Sep-2020 5634.01 6542.34 79.97 1.00 369.38 2660.75
   05:42:23.667.09-Sep-2020 5634.01 6542.55 79.97 1.00 369.58 2660.75
   05:42:23.867.09-Sep-2020 5634.01 6544.25 79.97 1.00 369.78 2660.75
   05:42:24.067.09-Sep-2020 5634.01 6549.16 79.97 1.00 369.98 2660.75
   05:42:24.267.09-Sep-2020 5634.01 6549.16 79.97 1.00 370.18 2660.75
   05:42:24.467.09-Sep-2020 5634.01 6545.50 79.97 1.00 370.38 2660.75
   05:42:24.667.09-Sep-2020 5634.01 6544.06 79.97 1.00 370.58 2660.75
   05:42:24.867.09-Sep-2020 5634.01 6542.16 79.98 1.00 370.78 2660.75
   05:42:25.067.09-Sep-2020 5634.01 6544.92 79.98 1.00 370.98 2660.75
   05:42:25.267.09-Sep-2020 5634.01 6544.92 79.98 1.00 371.18 2660.75
   05:42:25.467.09-Sep-2020 5634.01 6540.70 79.98 1.00 371.38 2660.75
   05:42:25.667.09-Sep-2020 5634.01 6546.72 79.98 1.00 371.58 2660.75
   05:42:25.867.09-Sep-2020 5634.01 6544.07 79.98 1.00 371.78 2660.75
   05:42:26.067.09-Sep-2020 5634.01 6542.99 79.98 1.00 371.98 2660.75
   05:42:26.267.09-Sep-2020 5634.01 6542.99 79.98 1.00 372.18 2660.75
   05:42:26.467.09-Sep-2020 5634.01 6550.21 79.98 1.00 372.38 2660.75
   05:42:26.667.09-Sep-2020 5634.01 6544.83 79.98 1.00 372.58 2660.75
   05:42:26.867.09-Sep-2020 5634.01 6547.15 79.98 1.00 372.78 2660.75
   05:42:27.067.09-Sep-2020 5634.01 6545.88 79.98 1.00 372.98 2660.75
   05:42:27.267.09-Sep-2020 5634.01 6545.88 79.98 1.00 373.18 2660.75
   05:42:27.467.09-Sep-2020 5634.01 6545.40 79.98 1.00 373.38 2660.75
   05:42:27.667.09-Sep-2020 5634.01 6544.76 79.98 1.00 373.58 2660.75
   05:42:27.867.09-Sep-2020 5634.01 6545.45 79.98 1.00 373.78 2660.75
   05:42:28.067.09-Sep-2020 5634.01 6545.02 79.98 1.00 373.98 2660.75
   05:42:28.267.09-Sep-2020 5634.01 6545.02 79.98 1.00 374.18 2660.75
   05:42:28.467.09-Sep-2020 5634.01 6545.10 79.98 1.00 374.38 2660.75
   05:42:28.667.09-Sep-2020 5634.01 6545.29 79.98 1.00 374.58 2660.75
   05:42:28.867.09-Sep-2020 5634.01 6545.62 79.98 1.00 374.78 2660.75
   05:42:29.067.09-Sep-2020 5634.01 6545.47 79.98 1.00 374.98 2660.75
   05:42:29.267.09-Sep-2020 5634.01 6545.47 79.98 1.00 375.18 2660.75
   05:42:29.467.09-Sep-2020 5634.01 6545.03 79.98 1.00 375.38 2660.75
   05:42:29.667.09-Sep-2020 5634.01 6545.20 79.98 1.00 375.58 2660.75
   05:42:29.867.09-Sep-2020 5634.01 6545.58 79.98 1.00 375.78 2660.75
   05:42:30.067.09-Sep-2020 5634.01 6554.23 79.98 1.00 375.98 2660.75
   05:42:30.267.09-Sep-2020 5634.01 6554.23 79.98 1.00 376.18 2660.75
   05:42:30.467.09-Sep-2020 5634.01 6548.78 79.98 1.00 376.38 2660.75
   05:42:30.667.09-Sep-2020 5634.01 6545.43 79.98 1.00 376.58 2660.75
   05:42:30.867.09-Sep-2020 5634.01 6545.08 79.98 1.00 376.78 2660.75
   05:42:31.067.09-Sep-2020 5634.01 6546.01 79.98 1.00 376.98 2660.75
   05:42:31.267.09-Sep-2020 5634.01 6546.01 79.98 1.00 377.18 2660.75
   05:42:31.467.09-Sep-2020 5634.01 6546.36 79.98 1.00 377.38 2660.75
   05:42:31.667.09-Sep-2020 5634.01 6545.35 79.98 1.00 377.58 2660.75
   05:42:31.867.09-Sep-2020 5634.01 6545.38 79.98 1.00 377.78 2660.75
   05:42:32.067.09-Sep-2020 5634.01 6545.07 79.98 1.00 377.98 2660.75
   05:42:32.267.09-Sep-2020 5634.01 6545.07 79.98 1.00 378.18 2660.75
   05:42:32.467.09-Sep-2020 5634.01 6544.28 79.98 1.00 378.38 2660.75
   05:42:32.667.09-Sep-2020 5634.01 6543.57 79.98 1.00 378.58 2660.75
   05:42:32.867.09-Sep-2020 5634.01 6543.24 79.98 1.00 378.78 2660.75
   05:42:33.067.09-Sep-2020 5634.01 6543.57 79.98 1.00 378.98 2660.75
   05:42:33.267.09-Sep-2020 5634.01 6543.57 79.98 1.00 379.18 2660.75
   05:42:33.467.09-Sep-2020 5634.01 6546.85 79.98 1.00 379.38 2660.75
   05:42:33.667.09-Sep-2020 5634.01 6547.33 79.98 1.00 379.58 2660.75
   05:42:33.867.09-Sep-2020 5634.01 6544.81 79.98 1.00 379.78 2660.75
   05:42:34.067.09-Sep-2020 5634.01 6543.81 79.98 1.00 379.98 2660.75
   05:42:34.267.09-Sep-2020 5634.01 6543.81 79.98 1.00 380.18 2660.75
   05:42:34.467.09-Sep-2020 5634.01 6543.33 79.97 1.00 380.38 2660.75
   05:42:34.667.09-Sep-2020 5634.01 6551.86 79.97 1.00 380.58 2660.75
   05:42:34.867.09-Sep-2020 5634.01 6541.47 79.97 1.00 380.78 2660.75
   05:42:35.067.09-Sep-2020 5634.01 6546.53 79.97 1.00 380.98 2660.75
   05:42:35.267.09-Sep-2020 5634.01 6546.53 79.97 1.00 381.18 2660.75
   05:42:35.467.09-Sep-2020 5634.01 6543.24 79.97 1.00 381.38 2660.75
   05:42:35.667.09-Sep-2020 5634.01 6544.48 79.97 1.00 381.58 2660.75
   05:42:35.867.09-Sep-2020 5634.01 6545.39 79.97 1.00 381.78 2660.75
   05:42:36.067.09-Sep-2020 5634.01 6547.27 79.97 1.00 381.98 2660.75
   05:42:36.267.09-Sep-2020 5634.01 6547.27 79.97 1.00 382.18 2660.75
   05:42:36.467.09-Sep-2020 5634.01 6543.57 79.97 1.00 382.38 2660.75
   05:42:36.667.09-Sep-2020 5634.01 6544.57 79.97 1.00 382.58 2660.75
   05:42:36.867.09-Sep-2020 5634.01 6546.13 79.97 1.00 382.78 2660.75
   05:42:37.067.09-Sep-2020 5634.01 6546.92 79.97 1.00 382.98 2660.75
   05:42:37.267.09-Sep-2020 5634.01 6546.92 79.97 1.00 383.18 2660.75
   05:42:37.467.09-Sep-2020 5634.01 6544.20 79.97 1.00 383.38 2660.75
   05:42:37.667.09-Sep-2020 5634.01 6544.11 79.97 1.00 383.58 2660.75
   05:42:37.867.09-Sep-2020 5634.01 6543.28 79.97 1.00 383.78 2660.75
   05:42:38.067.09-Sep-2020 5634.01 6552.90 79.97 1.00 383.98 2660.75
   05:42:38.267.09-Sep-2020 5634.01 6552.90 79.97 1.00 384.18 2660.75
   05:42:38.467.09-Sep-2020 5634.01 6547.91 79.97 1.00 384.38 2660.75
   05:42:38.667.09-Sep-2020 5634.01 6545.30 79.97 1.00 384.58 2660.75
   05:42:38.867.09-Sep-2020 5634.01 6543.94 79.97 1.00 384.78 2660.75
   05:42:39.067.09-Sep-2020 5634.01 6545.95 79.97 1.00 384.98 2660.75
   05:42:39.267.09-Sep-2020 5634.01 6545.95 79.97 1.00 385.18 2660.75
   05:42:39.467.09-Sep-2020 5634.01 6545.72 79.97 1.00 385.38 2660.75
   05:42:39.667.09-Sep-2020 5634.01 6545.27 79.97 1.00 385.58 2660.75
   05:42:39.867.09-Sep-2020 5634.01 6545.26 79.97 1.00 385.78 2660.75
   05:42:40.067.09-Sep-2020 5634.01 6545.49 79.97 1.00 385.98 2660.75
   05:42:40.267.09-Sep-2020 5634.01 6545.49 79.97 1.00 386.18 2660.75
   05:42:40.467.09-Sep-2020 5634.01 6545.35 79.97 1.00 386.38 2660.75
   05:42:40.667.09-Sep-2020 5634.01 6545.04 79.97 1.00 386.58 2660.75
   05:42:40.867.09-Sep-2020 5634.01 6544.57 79.97 1.00 386.78 2660.75
   05:42:41.067.09-Sep-2020 5634.01 6544.31 79.96 1.00 386.98 2660.75
   05:42:41.267.09-Sep-2020 5634.01 6544.31 79.96 1.00 387.18 2660.75
   05:42:41.467.09-Sep-2020 5634.01 6544.51 79.96 1.00 387.38 2660.75
   05:42:41.667.09-Sep-2020 5634.01 6547.04 79.96 1.00 387.58 2660.75
   05:42:41.867.09-Sep-2020 5634.01 6548.81 79.96 1.00 387.78 2660.75
   05:42:42.067.09-Sep-2020 5634.01 6546.36 79.96 1.00 387.98 2660.75
   05:42:42.267.09-Sep-2020 5634.01 6545.73 79.96 1.00 388.18 2660.75
   05:42:42.467.09-Sep-2020 5634.01 6545.42 79.96 1.00 388.38 2660.75
   05:42:42.667.09-Sep-2020 5634.01 6543.86 79.96 1.00 388.58 2660.75
   05:42:42.867.09-Sep-2020 5634.01 6544.14 79.96 1.00 388.78 2660.75
   05:42:43.066.09-Sep-2020 5634.01 6545.07 79.96 1.00 388.98 2660.75
   05:42:43.266.09-Sep-2020 5634.01 6545.07 79.96 1.00 389.18 2660.75
   05:42:43.466.09-Sep-2020 5634.01 6543.86 79.96 1.00 389.38 2660.75
   05:42:43.666.09-Sep-2020 5634.01 6543.60 79.96 1.00 389.58 2660.75
   05:42:43.866.09-Sep-2020 5634.01 6543.60 79.96 1.00 389.78 2660.75
   05:42:44.066.09-Sep-2020 5634.01 6543.65 79.96 1.00 389.98 2660.75
   05:42:44.266.09-Sep-2020 5634.01 6543.65 79.96 1.00 390.18 2660.75
   05:42:44.466.09-Sep-2020 5634.01 6542.50 79.96 1.00 390.38 2660.75
   05:42:44.666.09-Sep-2020 5634.01 6542.20 79.96 1.00 390.58 2660.75
   05:42:44.866.09-Sep-2020 5634.01 6542.61 79.96 1.00 390.78 2660.75
