~Version Information
 VERS.                  2.0:   CWLS log ASCII Standard -VERSION 2.0
 WRAP.                   NO:   One line per depth step
~Well Information Block
#MNEM.UNIT     VALUE/NAME     DESCRIPTION
#---------     -----------    ---------------------------
 STRT.S             08:34:18 09-Sep-20: START TIME 08:34:18 09-Sep-20
 STOP.S             08:41:20 09-Sep-20: STOP TIME  08:41:20 09-Sep-20
 STEP.S                   0.00: STEP TIME
 NULL.                 -999.25: NULL VALUE
 MDS .        Operator Entered:  MAG DATA SOURCE
 PDAT.          Mean Sea Level:  PERMANENT DATUM
 DCON.         Sperry Drilling:  DIRECTNL CONTR
 RIG .              West Azeri:  RIG NAME
 WELL.           C40 (Slot 20):  WELL NAME
 SRVC.     Turan Drilling Engineering:  CONTRACTOR
 FLD .                     ACG:  FIELD NAME
 CTRY.              Azerbaijan:  COUNTRY NAME
 PROV.                    Baku:  PROVINCE
 STAT.                    Baku:  STATE NAME
 REGN.                   EESSA:  REGION
 BASE.              Azerbaijan:  LOGGING EQUIPMENT BASE LOCATION
 COMP.     BP Exploration (Caspian Sea) Ltd:  COMPANY
 WTYP.                Deviated:  WELL TYPE
 SON .        AZ-XX-0906344804:  JOB NUMBER
 FTOP.          Formation Tops:  FORM TOPS DESC
 ILTD.               Lithology:  INTERP LTH DESC
 SVYD.                  Survey:  SURVEY DESC
 DMOD.             Drill Model:  DRILL MOD DESC
 HPTY.       Minimum Curvature:  HOLE POS TYPE
 NREF.                    Grid:  NORTH REFERENCE
 SPUD.               01-Jan-20:  SPUD DATE
 DATE.      00.59.44 15-Sep-20:  END TIME
 STIM.      12.00.00 12-Jun-20:  START TIME
 DMF .             Drill Floor:  DRILL MEAS FROM
 DFST.                        :  DIST FSL TEXT
 DFWT.                        :  DIST FWL TEXT
 API .                        :  API NUMBER
 CNTY.                        :  COUNTY
 UWI .                        :  UNIQUE WELL IDENTIFIER
 LOC .                        :  LOCATION
 LMF .             Drill Floor:  LOG MEASURED FROM
 VSNS.m                   2.88:  VERT SEC N/S
 VSEW.m                  -3.84:  VERT SEC E/W
 AGAP.m                  43.42:  AIR GAP
 APD .m                  43.42:  DEPTH ABOVE PD
 WDMS.m                 118.27:  WD ELEV
 EGL .m                   0.00:  GROUND ELEVATION
 EPD .m                   0.00:  ELEVATION
 AZTC.deg                 6.23:  AZM TOTAL CORR
 GRDC.deg                 0.20:  GRID CORRECTION
 MDEC.deg                 6.43:  MAGNETIC DECL
 MDIP.deg                59.49:  MAGNETIC DIP
 MFLD.nT              50277.00:  MAGNETIC FIELD
 GVFD.g                   1.00:  GRAVITY FIELD
 VSDR.deg               173.20:  VERT SEC DIRECT
 TDD .m                5790.01:  TOTAL DEPTH (DRILLER)
 SDEP.m                5231.01:  START DEPTH
 DFSL.m                   0.00:  DISTANCE FSL
 DFWL.m                   0.00:  DISTANCE FWL
 UTMY.m             4435808.83:  UTM Y
 UTMX.m              526266.40:  UTM X
 WHEW.m                  -3.84:  WELL HEAD E/W
 WHNS.m                   2.88:  WELL HEAD N/S
 LONG.deg                51.31:  LONGITUDE
 LATI.deg                40.06:  LATITUDE
 TVDS.m                  43.42:  TVDSS CORRECTN
 DEP .m                 430.08:  DEPTH
 EKB .m                  43.42:  KB ELEVATION
 EDF .m                  43.42:  DF ELEVATION
 TDL .m                 559.00:  TOTAL DEPTH (LOGGER)
 MAGU.                 1849381:  MAGUTM CHECKSUM
 VSC .                       0:  VS TO CLOSURE
~Parameter Information Block
#MNEM.UNIT       Value        Description
#---------     -----------    ---------------------------
 AV  .mps                 4.87:  Ann Velocity 
 AVMX.mps                 7.08:  Max Ann Veloc 
 AZIF.deg               108.87:  Azm, Final 
 BHAT.                  Rotary:  BHA Type 
 BROT.°/30m               0.35:  Build Rotating 
 BS  .in                  8.50:  Bit Size 
 BSZ .in                  8.50:  Bit Size 
 BTPL.psig              360.00:  Bit Press Loss 
 CABU.                     Yes:  Customer Abuse 
 COMM.                     \¸P:  Run Comments 1 
 TCS .hr                106.24:  Time Ciculation Ended 
 CV  .mps                 1.77:  Crit Velocity 
 CVMX.mps                 2.03:  Max Crit Veloc 
 DD1 .         Aykhan Agagulov:  Direct Drillr 1 
 DD2 .            Nonso Okofor:  Direct Drillr 2 
 DDSV.               Geo-Pilot:  DD Service 
 DEFF.%                  98.00:  % Det Eff 
 DLRX.°/30m               0.50:  Dogleg Rot Max 
 DLSO.°/30m               0.40:  Dogleg Oriented 
 DLSX.°/30m               0.94:  Dogleg Str Max 
 DRET.      20.30.00 08-Sep-20:  Drill End Time 
 DRST.      22.15.00 06-Sep-20:  Drill Start Tim 
 DTIM.hr                 31.31:  Time Drilling 
 EDEP.m                5790.01:  End Depth 
 ENG1.           Amrah Tahirov:  Engineer 1 
 ENG2.         Dair Mahammadov:  Engineer 2 
 ENG3.           Emil Huseynov:  Engineer 3 
 ETIM.      04.01.04 12-Sep-20:  End Time 
 FLOI.gpm               450.00:  Flow In 
 FLON.gpm               450.00:  Flow In Min 
 FLOS.cptm                2.00:  Fluid Loss 
 FLOX.gpm               450.00:  Flow In Max 
 FTRO.       Formation Presure:  FTWD Run Obj 
 HFLO.                      No:  High Flow 
 HPRE.                      No:  High Pressure 
 HTEM.                      No:  High Temp 
 HYDO.m                   1.80:  Hydro Offset 
 IFIN.deg                72.03:  Inc, Final 
 IMAX.deg                73.72:  Inc Max 
 IMIN.deg                70.94:  Inc Min 
 IMND.m                5508.52:  Inc Min Depth 
 IMXD.m                5253.60:  Inc Max Depth 
 JARR.                      No:  Jarring 
 LETM.      20.30.00 08-Sep-20:  Log End Time 
 LOST.hr                     0:  Lost Rig Time 
 LSTM.      22.15.00 06-Sep-20:  Log Start Time 
 MDCL.ppm             36000.00:  Mud Chlorides 
 MDES.     Inversion Oil/Synthetic:  Mud Desc 
 DFD .sg                  1.44:  Mud Density 
 MDMN.sg                  1.44:  Dens Mud Min 
 MDMX.sg                  1.57:  Dens Mud Max 
 MOIL.                      70:  Run Mud Oil % 
 MOWR.                   70:30:  Run Mud OWR 
 MSND.                       0:  Run Mud Sand % 
 MSOL.                      21:  Run Mud Solids% 
 DFV .spqt               68.00:  Mud Viscosity 
 MWOD.in                  6.75:  MWD Tool OD 
 MWSI.                     Yes:  Serv Intrp, MWD 
 OTIM.hr                174.84:  Time Operating 
 PCON.           Look Like New:  Pad Condition 
 PMAX.psia            10616.93:  Press Op, Max 
 PV  .cP                 50.00:  Mud PV 
 RUN .                     700:  Run Number 
 ROPA.m/hr               14.24:  ROP Avg 
 ROPN.m/hr               10.00:  ROP Min 
 ROPX.m/hr               32.00:  ROP Max 
 RPMA.rpm               120.90:  RPM Surface Avg 
 RPMN.rpm               120.00:  RPM Surface Min 
 RPMX.rpm               140.00:  RPM Surface Max 
 RRUN.                    0700:  Rig Run Number 
 RTIM.hr                  3.20:  Time Reaming 
 SAZI.deg               109.99:  Azm, Start 
 SDEP.m                5231.01:  Start Depth 
 SIDD.                      No:  Serv Intrp, DD 
 SINC.deg                73.72:  Inc, Start 
 SPPA.psig             3051.00:  SPP Avg 
 SPPN.psig             2950.00:  SPP Min 
 SPPX.psig             3250.00:  SPP Max 
 STIM.      08.00.00 05-Sep-20:  Start Time 
 SVCS.                 DD, MWD:  Services 
 SVER.                    9.20:  Sperry Version 
 TDAT.m                 559.00:  Tot Depth Attmp 
 TDDF.                      No:  Trip for DD 
 TDLG.m                 559.00:  Tot Depth Loggd 
 TFF .                      No:  Trip for Fail 
 TQAA.f-kp               26.49:  Torque Abs Avg 
 TQAN.f-kp               25.00:  Torque Abs Min 
 TQAX.f-kp               27.00:  Torque Abs Max 
 TRRT.°/30m               1.50:  Turn Rotating 
 MRT .                    HCIM:  Maximum Recorded Temperature 
 TTMX.degC               90.20:  Max Tool Temp 
 VS01.                90542671:  Virtual Str1 SN 
 VS02.                90545185:  Virtual Str2 SN 
 VS03.                90602015:  Virtual Str3 SN 
 VS04.                90515230:  Virtual Str4 SN 
 WBMN.klb                 5.00:  WOB Min 
 WOBA.klb                14.79:  WOB Avg 
 WOBX.klb                20.00:  WOB Max 
 YP  .lhf2               29.00:  Yield Point 
~Curve Information Block
#MNEM.UNIT                 API CODE     Curve Description
#---------               -----------    ---------------------------
 TIME.HHMMSS            00 000 000 000:  GT Time & Date
 GTDEPTH.m              00 000 000 000:  GT Depth
 GTPQH.psia             00 000 000 000:  GT HR Quartz Pressure
 GTTQ.degC              00 000 000 000:  GT Quartz Temperature
 GTTN.NONE              00 000 000 000:  GT Test Number
 GTET.sec               00 000 000 000:  GT Elapsed Test Time
 GTTVD.m                00 000 000 000:  GT True Vertical Depth
#Other Information
#
#WARRANTY: Halliburton will use its best efforts to furnish customers with 
#accurate information and interpretations that are part of, and incident to, the services 
#provided.  However, Halliburton cannot and does not warrant the accuracy 
#or correctness of such information and interpretations.  Under no circumstances should any 
#such information or interpretation be relied upon as the sole basis for any drilling, 
#completion, production, or financial decision or any procedure involving any risk to the 
#safety of any drilling venture, drilling rig or its crew or any other third party.  The 
#Customer has full responsibility for all drilling, completion and production operation.  
#Halliburton makes no representations or warranties, either expressed or 
#implied, including, but not limited to, the implied warranties of merchantability or fitness 
#for a particular purpose, with respect to the services rendered.  In no event will 
#Halliburton be liable for failure to obtain any particular results or for 
#any damages, including, but not limited to, indirect, special or consequential damages, 
#resulting from the use of any information or interpretation provided by Halliburton.
#
~A           TIME           GTDEPTH  GTPQH  GTTQ  GTTN  GTET   GTTVD  
# ...
   08:40:03.933.09-Sep-2020 5524.01 3700.68 77.54 6.00 345.14 2626.56
   08:40:04.133.09-Sep-2020 5524.01 3700.68 77.54 6.00 345.34 2626.56
   08:40:04.333.09-Sep-2020 5524.01 3700.65 77.54 6.00 345.54 2626.56
   08:40:04.533.09-Sep-2020 5524.01 3700.65 77.54 6.00 345.74 2626.56
   08:40:04.733.09-Sep-2020 5524.01 3700.65 77.54 6.00 345.94 2626.56
   08:40:04.933.09-Sep-2020 5524.01 3700.67 77.54 6.00 346.14 2626.56
   08:40:05.133.09-Sep-2020 5524.01 3700.67 77.54 6.00 346.34 2626.56
   08:40:05.333.09-Sep-2020 5524.01 3700.66 77.54 6.00 346.54 2626.56
   08:40:05.534.09-Sep-2020 5524.01 3700.67 77.54 6.00 346.74 2626.56
   08:40:05.734.09-Sep-2020 5524.01 3700.60 77.54 6.00 346.94 2626.56
   08:40:05.934.09-Sep-2020 5524.01 3700.72 77.54 6.00 347.14 2626.56
   08:40:06.134.09-Sep-2020 5524.01 3700.68 77.54 6.00 347.34 2626.56
   08:40:06.334.09-Sep-2020 5524.01 3700.67 77.54 6.00 347.54 2626.56
   08:40:06.534.09-Sep-2020 5524.01 3700.62 77.54 6.00 347.74 2626.56
   08:40:06.734.09-Sep-2020 5524.01 3700.68 77.54 6.00 347.94 2626.56
   08:40:06.934.09-Sep-2020 5524.01 3700.64 77.54 6.00 348.14 2626.56
   08:40:07.134.09-Sep-2020 5524.01 3700.66 77.54 6.00 348.34 2626.56
   08:40:07.334.09-Sep-2020 5524.01 3700.66 77.54 6.00 348.54 2626.56
   08:40:07.534.09-Sep-2020 5524.01 3700.65 77.54 6.00 348.74 2626.56
   08:40:07.734.09-Sep-2020 5524.01 3700.66 77.54 6.00 348.94 2626.56
   08:40:07.935.09-Sep-2020 5524.01 3700.64 77.54 6.00 349.14 2626.56
   08:40:08.135.09-Sep-2020 5524.01 3700.64 77.54 6.00 349.34 2626.56
   08:40:08.335.09-Sep-2020 5524.01 3700.67 77.54 6.00 349.54 2626.56
   08:40:08.535.09-Sep-2020 5524.01 3700.66 77.54 6.00 349.74 2626.56
   08:40:08.735.09-Sep-2020 5524.01 3700.66 77.54 6.00 349.94 2626.56
   08:40:08.935.09-Sep-2020 5524.01 3700.49 77.54 6.00 350.14 2626.56
   08:40:09.135.09-Sep-2020 5524.01 3700.49 77.54 6.00 350.34 2626.56
   08:40:09.335.09-Sep-2020 5524.01 3700.67 77.54 6.00 350.54 2626.56
   08:40:09.535.09-Sep-2020 5524.01 3700.70 77.54 6.00 350.74 2626.56
   08:40:09.735.09-Sep-2020 5524.01 3700.67 77.54 6.00 350.94 2626.56
   08:40:09.935.09-Sep-2020 5524.01 3700.70 77.54 6.00 351.14 2626.56
   08:40:10.135.09-Sep-2020 5524.01 3700.18 77.54 6.00 351.34 2626.56
   08:40:10.335.09-Sep-2020 5524.01 3701.06 77.54 6.00 351.54 2626.56
   08:40:10.536.09-Sep-2020 5524.01 3700.67 77.54 6.00 351.74 2626.56
   08:40:10.736.09-Sep-2020 5524.01 3700.69 77.54 6.00 351.94 2626.56
   08:40:10.936.09-Sep-2020 5524.01 3700.62 77.54 6.00 352.14 2626.56
   08:40:11.136.09-Sep-2020 5524.01 3700.33 77.54 6.00 352.34 2626.56
   08:40:11.336.09-Sep-2020 5524.01 3701.01 77.54 6.00 352.54 2626.56
   08:40:11.536.09-Sep-2020 5524.01 3700.65 77.54 6.00 352.74 2626.56
   08:40:11.736.09-Sep-2020 5524.01 3700.70 77.54 6.00 352.94 2626.56
   08:40:11.936.09-Sep-2020 5524.01 3700.60 77.54 6.00 353.14 2626.56
   08:40:12.136.09-Sep-2020 5524.01 3700.60 77.54 6.00 353.34 2626.56
   08:40:12.336.09-Sep-2020 5524.01 3700.63 77.54 6.00 353.54 2626.56
   08:40:12.536.09-Sep-2020 5524.01 3700.65 77.54 6.00 353.74 2626.56
   08:40:12.736.09-Sep-2020 5524.01 3700.81 77.54 6.00 353.94 2626.56
   08:40:12.936.09-Sep-2020 5524.01 3700.47 77.54 6.00 354.14 2626.56
   08:40:13.137.09-Sep-2020 5524.01 3700.47 77.54 6.00 354.34 2626.56
   08:40:13.337.09-Sep-2020 5524.01 3700.66 77.54 6.00 354.54 2626.56
   08:40:13.537.09-Sep-2020 5524.01 3700.66 77.54 6.00 354.74 2626.56
   08:40:13.737.09-Sep-2020 5524.01 3700.67 77.54 6.00 354.94 2626.56
   08:40:13.937.09-Sep-2020 5524.01 3700.67 77.54 6.00 355.14 2626.56
   08:40:14.137.09-Sep-2020 5524.01 3700.69 77.54 6.00 355.34 2626.56
   08:40:14.337.09-Sep-2020 5524.01 3700.60 77.54 6.00 355.54 2626.56
   08:40:14.537.09-Sep-2020 5524.01 3700.68 77.54 6.00 355.74 2626.56
   08:40:14.737.09-Sep-2020 5524.01 3700.64 77.54 6.00 355.94 2626.56
   08:40:14.937.09-Sep-2020 5524.01 3700.67 77.54 6.00 356.14 2626.56
   08:40:15.137.09-Sep-2020 5524.01 3700.64 77.54 6.00 356.34 2626.56
   08:40:15.337.09-Sep-2020 5524.01 3700.65 77.54 6.00 356.54 2626.56
   08:40:15.538.09-Sep-2020 5524.01 3700.67 77.54 6.00 356.74 2626.56
   08:40:15.738.09-Sep-2020 5524.01 3700.66 77.54 6.00 356.94 2626.56
   08:40:15.938.09-Sep-2020 5524.01 3700.65 77.54 6.00 357.14 2626.56
   08:40:16.138.09-Sep-2020 5524.01 3700.65 77.54 6.00 357.34 2626.56
   08:40:16.338.09-Sep-2020 5524.01 3700.65 77.54 6.00 357.54 2626.56
   08:40:16.538.09-Sep-2020 5524.01 3700.66 77.54 6.00 357.74 2626.56
   08:40:16.738.09-Sep-2020 5524.01 3700.66 77.54 6.00 357.94 2626.56
   08:40:16.938.09-Sep-2020 5524.01 3700.66 77.54 6.00 358.14 2626.56
   08:40:17.138.09-Sep-2020 5524.01 3700.66 77.54 6.00 358.34 2626.56
   08:40:17.338.09-Sep-2020 5524.01 3700.82 77.54 6.00 358.54 2626.56
   08:40:17.538.09-Sep-2020 5524.01 3700.49 77.54 6.00 358.74 2626.56
   08:40:17.738.09-Sep-2020 5524.01 3700.67 77.54 6.00 358.94 2626.56
   08:40:17.938.09-Sep-2020 5524.01 3700.64 77.54 6.00 359.14 2626.56
   08:40:18.139.09-Sep-2020 5524.01 3700.64 77.54 6.00 359.34 2626.56
   08:40:18.339.09-Sep-2020 5524.01 3700.58 77.54 6.00 359.54 2626.56
   08:40:18.539.09-Sep-2020 5524.01 3700.63 77.54 6.00 359.74 2626.56
   08:40:18.739.09-Sep-2020 5524.01 3700.65 77.54 6.00 359.94 2626.56
   08:40:18.939.09-Sep-2020 5524.01 3700.67 77.54 6.00 360.14 2626.56
   08:40:19.139.09-Sep-2020 5524.01 3700.64 77.54 6.00 360.34 2626.56
   08:40:19.339.09-Sep-2020 5524.01 3700.63 77.54 6.00 360.54 2626.56
   08:40:19.539.09-Sep-2020 5524.01 3700.63 77.54 6.00 360.74 2626.56
   08:40:19.739.09-Sep-2020 5524.01 3700.65 77.54 6.00 360.94 2626.56
   08:40:19.939.09-Sep-2020 5524.01 3700.67 77.54 6.00 361.14 2626.56
   08:40:20.139.09-Sep-2020 5524.01 3700.67 77.54 6.00 361.34 2626.56
   08:40:20.339.09-Sep-2020 5524.01 3700.66 77.54 6.00 361.54 2626.56
   08:40:20.539.09-Sep-2020 5524.01 3700.24 77.54 6.00 361.74 2626.56
   08:40:20.740.09-Sep-2020 5524.01 3701.03 77.54 6.00 361.94 2626.56
   08:40:20.940.09-Sep-2020 5524.01 3700.64 77.54 6.00 362.14 2626.56
   08:40:21.140.09-Sep-2020 5524.01 3700.64 77.54 6.00 362.34 2626.56
   08:40:21.340.09-Sep-2020 5524.01 3700.61 77.54 6.00 362.54 2626.56
   08:40:21.540.09-Sep-2020 5524.01 3700.67 77.54 6.00 362.74 2626.56
   08:40:21.740.09-Sep-2020 5524.01 3700.55 77.54 6.00 362.94 2626.56
   08:40:21.940.09-Sep-2020 5524.01 3700.73 77.54 6.00 363.14 2626.56
   08:40:22.140.09-Sep-2020 5524.01 3700.73 77.54 6.00 363.34 2626.56
   08:40:22.340.09-Sep-2020 5524.01 3700.66 77.54 6.00 363.54 2626.56
   08:40:22.540.09-Sep-2020 5524.01 3700.63 77.54 6.00 363.74 2626.56
   08:40:22.740.09-Sep-2020 5524.01 3700.62 77.54 6.00 363.94 2626.56
   08:40:22.940.09-Sep-2020 5524.01 3700.68 77.54 6.00 364.14 2626.56
   08:40:23.141.09-Sep-2020 5524.01 3700.67 77.54 6.00 364.34 2626.56
   08:40:23.341.09-Sep-2020 5524.01 3700.68 77.54 6.00 364.54 2626.56
   08:40:23.541.09-Sep-2020 5524.01 3700.28 77.54 6.00 364.74 2626.56
   08:40:23.741.09-Sep-2020 5524.01 3701.42 77.54 6.00 364.94 2626.56
   08:40:23.941.09-Sep-2020 5524.01 3752.81 77.54 6.00 365.14 2626.56
   08:40:24.141.09-Sep-2020 5524.01 3752.81 77.54 6.00 365.34 2626.56
   08:40:24.341.09-Sep-2020 5524.01 6467.87 77.54 6.00 365.54 2626.56
   08:40:24.541.09-Sep-2020 5524.01 6460.09 77.54 6.00 365.74 2626.56
   08:40:24.741.09-Sep-2020 5524.01 6462.93 77.54 6.00 365.94 2626.56
   08:40:24.941.09-Sep-2020 5524.01 6465.96 77.54 6.00 366.14 2626.56
   08:40:25.141.09-Sep-2020 5524.01 6465.96 77.54 6.00 366.34 2626.56
   08:40:25.341.09-Sep-2020 5524.01 6461.83 77.55 6.00 366.54 2626.56
   08:40:25.541.09-Sep-2020 5524.01 6466.02 77.55 6.00 366.74 2626.56
   08:40:25.742.09-Sep-2020 5524.01 6470.02 77.55 6.00 366.94 2626.56
   08:40:25.942.09-Sep-2020 5524.01 6466.36 77.55 6.00 367.14 2626.56
   08:40:26.142.09-Sep-2020 5524.01 6466.36 77.55 6.00 367.35 2626.56
   08:40:26.342.09-Sep-2020 5524.01 6467.65 77.55 6.00 367.55 2626.56
   08:40:26.542.09-Sep-2020 5524.01 6469.45 77.56 6.00 367.75 2626.56
   08:40:26.742.09-Sep-2020 5524.01 6468.37 77.56 6.00 367.95 2626.56
