~Version Information
 VERS.                  2.0:   CWLS log ASCII Standard -VERSION 2.0
 WRAP.                   NO:   One line per depth step
~Well Information Block
#MNEM.UNIT     VALUE/NAME     DESCRIPTION
#---------     -----------    ---------------------------
 STRT.S             16:28:49 09-Sep-20: START TIME 16:28:49 09-Sep-20
 STOP.S             16:37:06 09-Sep-20: STOP TIME  16:37:06 09-Sep-20
 STEP.S                   0.00: STEP TIME
 NULL.                 -999.25: NULL VALUE
 MDS .        Operator Entered:  MAG DATA SOURCE
 PDAT.          Mean Sea Level:  PERMANENT DATUM
 DCON.         Sperry Drilling:  DIRECTNL CONTR
 RIG .              West Azeri:  RIG NAME
 WELL.           C40 (Slot 20):  WELL NAME
 SRVC.     Turan Drilling Engineering:  CONTRACTOR
 FLD .                     ACG:  FIELD NAME
 CTRY.              Azerbaijan:  COUNTRY NAME
 PROV.                    Baku:  PROVINCE
 STAT.                    Baku:  STATE NAME
 REGN.                   EESSA:  REGION
 BASE.              Azerbaijan:  LOGGING EQUIPMENT BASE LOCATION
 COMP.     BP Exploration (Caspian Sea) Ltd:  COMPANY
 WTYP.                Deviated:  WELL TYPE
 SON .        AZ-XX-0906344804:  JOB NUMBER
 FTOP.          Formation Tops:  FORM TOPS DESC
 ILTD.               Lithology:  INTERP LTH DESC
 SVYD.                  Survey:  SURVEY DESC
 DMOD.             Drill Model:  DRILL MOD DESC
 HPTY.       Minimum Curvature:  HOLE POS TYPE
 NREF.                    Grid:  NORTH REFERENCE
 SPUD.               01-Jan-20:  SPUD DATE
 DATE.      00.59.44 15-Sep-20:  END TIME
 STIM.      12.00.00 12-Jun-20:  START TIME
 DMF .             Drill Floor:  DRILL MEAS FROM
 DFST.                        :  DIST FSL TEXT
 DFWT.                        :  DIST FWL TEXT
 API .                        :  API NUMBER
 CNTY.                        :  COUNTY
 UWI .                        :  UNIQUE WELL IDENTIFIER
 LOC .                        :  LOCATION
 LMF .             Drill Floor:  LOG MEASURED FROM
 VSNS.m                   2.88:  VERT SEC N/S
 VSEW.m                  -3.84:  VERT SEC E/W
 AGAP.m                  43.42:  AIR GAP
 APD .m                  43.42:  DEPTH ABOVE PD
 WDMS.m                 118.27:  WD ELEV
 EGL .m                   0.00:  GROUND ELEVATION
 EPD .m                   0.00:  ELEVATION
 AZTC.deg                 6.23:  AZM TOTAL CORR
 GRDC.deg                 0.20:  GRID CORRECTION
 MDEC.deg                 6.43:  MAGNETIC DECL
 MDIP.deg                59.49:  MAGNETIC DIP
 MFLD.nT              50277.00:  MAGNETIC FIELD
 GVFD.g                   1.00:  GRAVITY FIELD
 VSDR.deg               173.20:  VERT SEC DIRECT
 TDD .m                5790.01:  TOTAL DEPTH (DRILLER)
 SDEP.m                5231.01:  START DEPTH
 DFSL.m                   0.00:  DISTANCE FSL
 DFWL.m                   0.00:  DISTANCE FWL
 UTMY.m             4435808.83:  UTM Y
 UTMX.m              526266.40:  UTM X
 WHEW.m                  -3.84:  WELL HEAD E/W
 WHNS.m                   2.88:  WELL HEAD N/S
 LONG.deg                51.31:  LONGITUDE
 LATI.deg                40.06:  LATITUDE
 TVDS.m                  43.42:  TVDSS CORRECTN
 DEP .m                 430.08:  DEPTH
 EKB .m                  43.42:  KB ELEVATION
 EDF .m                  43.42:  DF ELEVATION
 TDL .m                 559.00:  TOTAL DEPTH (LOGGER)
 MAGU.                 1849381:  MAGUTM CHECKSUM
 VSC .                       0:  VS TO CLOSURE
~Parameter Information Block
#MNEM.UNIT       Value        Description
#---------     -----------    ---------------------------
 AV  .mps                 4.87:  Ann Velocity 
 AVMX.mps                 7.08:  Max Ann Veloc 
 AZIF.deg               108.87:  Azm, Final 
 BHAT.                  Rotary:  BHA Type 
 BROT.°/30m               0.35:  Build Rotating 
 BS  .in                  8.50:  Bit Size 
 BSZ .in                  8.50:  Bit Size 
 BTPL.psig              360.00:  Bit Press Loss 
 CABU.                     Yes:  Customer Abuse 
 TCS .hr                106.24:  Time Ciculation Ended 
 CV  .mps                 1.77:  Crit Velocity 
 CVMX.mps                 2.03:  Max Crit Veloc 
 DD1 .         Aykhan Agagulov:  Direct Drillr 1 
 DD2 .            Nonso Okofor:  Direct Drillr 2 
 DDSV.               Geo-Pilot:  DD Service 
 DEFF.%                  98.00:  % Det Eff 
 DLRX.°/30m               0.50:  Dogleg Rot Max 
 DLSO.°/30m               0.40:  Dogleg Oriented 
 DLSX.°/30m               0.94:  Dogleg Str Max 
 DRET.      20.30.00 08-Sep-20:  Drill End Time 
 DRST.      22.15.00 06-Sep-20:  Drill Start Tim 
 DTIM.hr                 31.31:  Time Drilling 
 EDEP.m                5790.01:  End Depth 
 ENG1.           Amrah Tahirov:  Engineer 1 
 ENG2.         Dair Mahammadov:  Engineer 2 
 ENG3.           Emil Huseynov:  Engineer 3 
 ETIM.      04.01.04 12-Sep-20:  End Time 
 FLOI.gpm               450.00:  Flow In 
 FLON.gpm               450.00:  Flow In Min 
 FLOS.cptm                2.00:  Fluid Loss 
 FLOX.gpm               450.00:  Flow In Max 
 FTRO.       Formation Presure:  FTWD Run Obj 
 HFLO.                      No:  High Flow 
 HPRE.                      No:  High Pressure 
 HTEM.                      No:  High Temp 
 HYDO.m                   1.80:  Hydro Offset 
 IFIN.deg                72.03:  Inc, Final 
 IMAX.deg                73.72:  Inc Max 
 IMIN.deg                70.94:  Inc Min 
 IMND.m                5508.52:  Inc Min Depth 
 IMXD.m                5253.60:  Inc Max Depth 
 JARR.                      No:  Jarring 
 LETM.      20.30.00 08-Sep-20:  Log End Time 
 LOST.hr                     0:  Lost Rig Time 
 LSTM.      22.15.00 06-Sep-20:  Log Start Time 
 MDCL.ppm             36000.00:  Mud Chlorides 
 MDES.     Inversion Oil/Synthetic:  Mud Desc 
 DFD .sg                  1.44:  Mud Density 
 MDMN.sg                  1.44:  Dens Mud Min 
 MDMX.sg                  1.57:  Dens Mud Max 
 MOIL.                      70:  Run Mud Oil % 
 MOWR.                   70:30:  Run Mud OWR 
 MSND.                       0:  Run Mud Sand % 
 MSOL.                      21:  Run Mud Solids% 
 DFV .spqt               68.00:  Mud Viscosity 
 MWOD.in                  6.75:  MWD Tool OD 
 MWSI.                     Yes:  Serv Intrp, MWD 
 OTIM.hr                174.84:  Time Operating 
 PCON.           Look Like New:  Pad Condition 
 PMAX.psia            10616.93:  Press Op, Max 
 PV  .cP                 50.00:  Mud PV 
 RUN .                     700:  Run Number 
 ROPA.m/hr               14.24:  ROP Avg 
 ROPN.m/hr               10.00:  ROP Min 
 ROPX.m/hr               32.00:  ROP Max 
 RPMA.rpm               120.90:  RPM Surface Avg 
 RPMN.rpm               120.00:  RPM Surface Min 
 RPMX.rpm               140.00:  RPM Surface Max 
 RRUN.                    0700:  Rig Run Number 
 RTIM.hr                  3.20:  Time Reaming 
 SAZI.deg               109.99:  Azm, Start 
 SDEP.m                5231.01:  Start Depth 
 SIDD.                      No:  Serv Intrp, DD 
 SINC.deg                73.72:  Inc, Start 
 SPPA.psig             3051.00:  SPP Avg 
 SPPN.psig             2950.00:  SPP Min 
 SPPX.psig             3250.00:  SPP Max 
 STIM.      08.00.00 05-Sep-20:  Start Time 
 SVCS.                 DD, MWD:  Services 
 SVER.                    9.20:  Sperry Version 
 TDAT.m                 559.00:  Tot Depth Attmp 
 TDDF.                      No:  Trip for DD 
 TDLG.m                 559.00:  Tot Depth Loggd 
 TFF .                      No:  Trip for Fail 
 TQAA.f-kp               26.49:  Torque Abs Avg 
 TQAN.f-kp               25.00:  Torque Abs Min 
 TQAX.f-kp               27.00:  Torque Abs Max 
 TRRT.°/30m               1.50:  Turn Rotating 
 MRT .                    HCIM:  Maximum Recorded Temperature 
 TTMX.degC               90.20:  Max Tool Temp 
 VS01.                90542671:  Virtual Str1 SN 
 VS02.                90545185:  Virtual Str2 SN 
 VS03.                90602015:  Virtual Str3 SN 
 VS04.                90515230:  Virtual Str4 SN 
 WBMN.klb                 5.00:  WOB Min 
 WOBA.klb                14.79:  WOB Avg 
 WOBX.klb                20.00:  WOB Max 
 YP  .lhf2               29.00:  Yield Point 
~Curve Information Block
#MNEM.UNIT                 API CODE     Curve Description
#---------               -----------    ---------------------------
 TIME.HHMMSS            00 000 000 000:  GT Time & Date
 GTDEPTH.m              00 000 000 000:  GT Depth
 GTPQH.psia             00 000 000 000:  GT HR Quartz Pressure
 GTTQ.degC              00 000 000 000:  GT Quartz Temperature
 GTTN.NONE              00 000 000 000:  GT Test Number
 GTET.sec               00 000 000 000:  GT Elapsed Test Time
 GTTVD.m                00 000 000 000:  GT True Vertical Depth
#Other Information
#
#WARRANTY: Halliburton will use its best efforts to furnish customers with 
#accurate information and interpretations that are part of, and incident to, the services 
#provided.  However, Halliburton cannot and does not warrant the accuracy 
#or correctness of such information and interpretations.  Under no circumstances should any 
#such information or interpretation be relied upon as the sole basis for any drilling, 
#completion, production, or financial decision or any procedure involving any risk to the 
#safety of any drilling venture, drilling rig or its crew or any other third party.  The 
#Customer has full responsibility for all drilling, completion and production operation.  
#Halliburton makes no representations or warranties, either expressed or 
#implied, including, but not limited to, the implied warranties of merchantability or fitness 
#for a particular purpose, with respect to the services rendered.  In no event will 
#Halliburton be liable for failure to obtain any particular results or for 
#any damages, including, but not limited to, indirect, special or consequential damages, 
#resulting from the use of any information or interpretation provided by Halliburton.
#
~A           TIME           GTDEPTH  GTPQH  GTTQ  GTTN   GTET   GTTVD  
# ...
   16:34:06.020.09-Sep-2020 5323.01 3903.97 74.90 18.00 316.55 2563.11
   16:34:06.220.09-Sep-2020 5323.01 3903.86 74.90 18.00 316.75 2563.11
   16:34:06.420.09-Sep-2020 5323.01 3903.03 74.90 18.00 316.95 2563.11
   16:34:06.620.09-Sep-2020 5323.01 3903.01 74.90 18.00 317.15 2563.11
   16:34:06.820.09-Sep-2020 5323.01 3903.01 74.90 18.00 317.35 2563.11
   16:34:07.020.09-Sep-2020 5323.01 3903.64 74.90 18.00 317.55 2563.11
   16:34:07.220.09-Sep-2020 5323.01 3903.37 74.90 18.00 317.75 2563.11
   16:34:07.420.09-Sep-2020 5323.01 3902.64 74.90 18.00 317.95 2563.11
   16:34:07.620.09-Sep-2020 5323.01 3902.54 74.90 18.00 318.15 2563.11
   16:34:07.821.09-Sep-2020 5323.01 3902.54 74.90 18.00 318.35 2563.11
   16:34:08.021.09-Sep-2020 5323.01 3902.46 74.90 18.00 318.55 2563.11
   16:34:08.221.09-Sep-2020 5323.01 3902.46 74.90 18.00 318.75 2563.11
   16:34:08.421.09-Sep-2020 5323.01 3902.62 74.90 18.00 318.95 2563.11
   16:34:08.621.09-Sep-2020 5323.01 3902.08 74.90 18.00 319.15 2563.11
   16:34:08.821.09-Sep-2020 5323.01 3902.08 74.90 18.00 319.35 2563.11
   16:34:09.021.09-Sep-2020 5323.01 3901.84 74.90 18.00 319.55 2563.11
   16:34:09.221.09-Sep-2020 5323.01 3902.40 74.90 18.00 319.75 2563.11
   16:34:09.421.09-Sep-2020 5323.01 3901.53 74.90 18.00 319.95 2563.11
   16:34:09.621.09-Sep-2020 5323.01 3902.13 74.90 18.00 320.15 2563.11
   16:34:09.821.09-Sep-2020 5323.01 3902.13 74.90 18.00 320.35 2563.11
   16:34:10.022.09-Sep-2020 5323.01 3901.56 74.90 18.00 320.55 2563.11
   16:34:10.222.09-Sep-2020 5323.01 3902.29 74.90 18.00 320.75 2563.11
   16:34:10.422.09-Sep-2020 5323.01 3902.09 74.90 18.00 320.95 2563.11
   16:34:10.622.09-Sep-2020 5323.01 3901.85 74.90 18.00 321.15 2563.11
   16:34:10.822.09-Sep-2020 5323.01 3901.85 74.90 18.00 321.35 2563.11
   16:34:11.022.09-Sep-2020 5323.01 3901.30 74.90 18.00 321.55 2563.11
   16:34:11.222.09-Sep-2020 5323.01 3901.24 74.90 18.00 321.75 2563.11
   16:34:11.422.09-Sep-2020 5323.01 3901.35 74.90 18.00 321.95 2563.11
   16:34:11.622.09-Sep-2020 5323.01 3900.94 74.90 18.00 322.15 2563.11
   16:34:11.822.09-Sep-2020 5323.01 3900.94 74.90 18.00 322.35 2563.11
   16:34:12.023.09-Sep-2020 5323.01 3900.78 74.90 18.00 322.55 2563.11
   16:34:12.223.09-Sep-2020 5323.01 3900.16 74.90 18.00 322.75 2563.11
   16:34:12.423.09-Sep-2020 5323.01 3899.42 74.90 18.00 322.95 2563.11
   16:34:12.623.09-Sep-2020 5323.01 3900.11 74.90 18.00 323.15 2563.11
   16:34:12.823.09-Sep-2020 5323.01 3900.11 74.90 18.00 323.35 2563.11
   16:34:13.023.09-Sep-2020 5323.01 3899.38 74.90 18.00 323.56 2563.11
   16:34:13.223.09-Sep-2020 5323.01 3899.47 74.90 18.00 323.76 2563.11
   16:34:13.423.09-Sep-2020 5323.01 3902.17 74.90 18.00 323.96 2563.11
   16:34:13.623.09-Sep-2020 5323.01 3919.25 74.90 18.00 324.16 2563.11
   16:34:13.823.09-Sep-2020 5323.01 3919.25 74.90 18.00 324.36 2563.11
   16:34:14.023.09-Sep-2020 5323.01 3919.50 74.90 18.00 324.56 2563.11
   16:34:14.224.09-Sep-2020 5323.01 3919.49 74.90 18.00 324.76 2563.11
   16:34:14.424.09-Sep-2020 5323.01 3919.49 74.90 18.00 324.96 2563.11
   16:34:14.624.09-Sep-2020 5323.01 3919.48 74.90 18.00 325.16 2563.11
   16:34:14.824.09-Sep-2020 5323.01 3919.48 74.90 18.00 325.36 2563.11
   16:34:15.024.09-Sep-2020 5323.01 3919.55 74.90 18.00 325.56 2563.11
   16:34:15.224.09-Sep-2020 5323.01 3919.51 74.90 18.00 325.76 2563.11
   16:34:15.424.09-Sep-2020 5323.01 3919.52 74.90 18.00 325.96 2563.11
   16:34:15.624.09-Sep-2020 5323.01 3919.53 74.90 18.00 326.16 2563.11
   16:34:15.824.09-Sep-2020 5323.01 3919.53 74.90 18.00 326.36 2563.11
   16:34:16.024.09-Sep-2020 5323.01 3919.54 74.90 18.00 326.56 2563.11
   16:34:16.225.09-Sep-2020 5323.01 3919.53 74.90 18.00 326.76 2563.11
   16:34:16.425.09-Sep-2020 5323.01 3919.55 74.90 18.00 326.96 2563.11
   16:34:16.625.09-Sep-2020 5323.01 3919.55 74.90 18.00 327.16 2563.11
   16:34:16.825.09-Sep-2020 5323.01 3919.55 74.90 18.00 327.36 2563.11
   16:34:17.025.09-Sep-2020 5323.01 3919.56 74.90 18.00 327.56 2563.11
   16:34:17.225.09-Sep-2020 5323.01 3919.55 74.90 18.00 327.76 2563.11
   16:34:17.425.09-Sep-2020 5323.01 3919.57 74.90 18.00 327.96 2563.11
   16:34:17.625.09-Sep-2020 5323.01 3919.56 74.90 18.00 328.16 2563.11
   16:34:17.825.09-Sep-2020 5323.01 3919.56 74.90 18.00 328.36 2563.11
   16:34:18.025.09-Sep-2020 5323.01 3919.57 74.90 18.00 328.56 2563.11
   16:34:18.225.09-Sep-2020 5323.01 3919.56 74.90 18.00 328.76 2563.11
   16:34:18.426.09-Sep-2020 5323.01 3919.57 74.90 18.00 328.96 2563.11
   16:34:18.626.09-Sep-2020 5323.01 3919.64 74.90 18.00 329.16 2563.11
   16:34:18.826.09-Sep-2020 5323.01 3919.64 74.90 18.00 329.36 2563.11
   16:34:19.026.09-Sep-2020 5323.01 3919.56 74.90 18.00 329.56 2563.11
   16:34:19.226.09-Sep-2020 5323.01 3919.56 74.90 18.00 329.76 2563.11
   16:34:19.426.09-Sep-2020 5323.01 3919.60 74.90 18.00 329.96 2563.11
   16:34:19.626.09-Sep-2020 5323.01 3919.56 74.90 18.00 330.16 2563.11
   16:34:19.826.09-Sep-2020 5323.01 3919.56 74.90 18.00 330.36 2563.11
   16:34:20.026.09-Sep-2020 5323.01 3919.57 74.90 18.00 330.56 2563.11
   16:34:20.226.09-Sep-2020 5323.01 3919.57 74.90 18.00 330.76 2563.11
   16:34:20.427.09-Sep-2020 5323.01 3919.58 74.90 18.00 330.96 2563.11
   16:34:20.627.09-Sep-2020 5323.01 3919.58 74.90 18.00 331.16 2563.11
   16:34:20.827.09-Sep-2020 5323.01 3919.57 74.90 18.00 331.36 2563.11
   16:34:21.027.09-Sep-2020 5323.01 3919.59 74.90 18.00 331.56 2563.11
   16:34:21.227.09-Sep-2020 5323.01 3919.57 74.90 18.00 331.76 2563.11
   16:34:21.427.09-Sep-2020 5323.01 3919.57 74.90 18.00 331.96 2563.11
   16:34:21.627.09-Sep-2020 5323.01 3919.58 74.90 18.00 332.16 2563.11
   16:34:21.827.09-Sep-2020 5323.01 3919.57 74.90 18.00 332.36 2563.11
   16:34:22.027.09-Sep-2020 5323.01 3919.58 74.90 18.00 332.56 2563.11
   16:34:22.227.09-Sep-2020 5323.01 3919.58 74.90 18.00 332.76 2563.11
   16:34:22.428.09-Sep-2020 5323.01 3919.57 74.90 18.00 332.96 2563.11
   16:34:22.628.09-Sep-2020 5323.01 3919.58 74.90 18.00 333.16 2563.11
   16:34:22.828.09-Sep-2020 5323.01 3919.58 74.90 18.00 333.36 2563.11
   16:34:23.028.09-Sep-2020 5323.01 3919.50 74.90 18.00 333.56 2563.11
   16:34:23.228.09-Sep-2020 5323.01 3919.66 74.90 18.00 333.76 2563.11
   16:34:23.428.09-Sep-2020 5323.01 3919.57 74.90 18.00 333.96 2563.11
   16:34:23.628.09-Sep-2020 5323.01 3919.58 74.90 18.00 334.16 2563.11
   16:34:23.828.09-Sep-2020 5323.01 3919.58 74.90 18.00 334.36 2563.11
   16:34:24.028.09-Sep-2020 5323.01 3919.57 74.90 18.00 334.56 2563.11
   16:34:24.228.09-Sep-2020 5323.01 3919.66 74.90 18.00 334.76 2563.11
   16:34:24.428.09-Sep-2020 5323.01 3919.52 74.90 18.00 334.96 2563.11
   16:34:24.629.09-Sep-2020 5323.01 3919.57 74.90 18.00 335.16 2563.11
   16:34:24.829.09-Sep-2020 5323.01 3919.57 74.90 18.00 335.36 2563.11
   16:34:25.029.09-Sep-2020 5323.01 3919.62 74.90 18.00 335.56 2563.11
   16:34:25.229.09-Sep-2020 5323.01 3919.57 74.90 18.00 335.76 2563.11
   16:34:25.429.09-Sep-2020 5323.01 3919.60 74.90 18.00 335.96 2563.11
   16:34:25.629.09-Sep-2020 5323.01 3919.58 74.90 18.00 336.16 2563.11
   16:34:25.829.09-Sep-2020 5323.01 3919.58 74.90 18.00 336.36 2563.11
   16:34:26.029.09-Sep-2020 5323.01 3919.58 74.90 18.00 336.56 2563.11
   16:34:26.229.09-Sep-2020 5323.01 3919.60 74.90 18.00 336.76 2563.11
   16:34:26.429.09-Sep-2020 5323.01 3919.57 74.90 18.00 336.96 2563.11
   16:34:26.630.09-Sep-2020 5323.01 3919.51 74.90 18.00 337.16 2563.11
   16:34:26.830.09-Sep-2020 5323.01 3919.51 74.90 18.00 337.36 2563.11
   16:34:27.030.09-Sep-2020 5323.01 3919.57 74.90 18.00 337.56 2563.11
   16:34:27.230.09-Sep-2020 5323.01 3919.58 74.90 18.00 337.76 2563.11
   16:34:27.430.09-Sep-2020 5323.01 3919.60 74.90 18.00 337.96 2563.11
   16:34:27.630.09-Sep-2020 5323.01 3919.57 74.90 18.00 338.16 2563.11
   16:34:27.830.09-Sep-2020 5323.01 3919.57 74.90 18.00 338.36 2563.11
   16:34:28.030.09-Sep-2020 5323.01 3919.59 74.90 18.00 338.56 2563.11
   16:34:28.230.09-Sep-2020 5323.01 3919.59 74.90 18.00 338.76 2563.11
   16:34:28.430.09-Sep-2020 5323.01 3919.58 74.90 18.00 338.96 2563.11
