~Version Information
 VERS.                  2.0:   CWLS log ASCII Standard -VERSION 2.0
 WRAP.                   NO:   One line per depth step
~Well Information Block
#MNEM.UNIT     VALUE/NAME     DESCRIPTION
#---------     -----------    ---------------------------
 STRT.S             10:55:02 09-Sep-20: START TIME 10:55:02 09-Sep-20
 STOP.S             11:02:04 09-Sep-20: STOP TIME  11:02:04 09-Sep-20
 STEP.S                   0.00: STEP TIME
 NULL.                 -999.25: NULL VALUE
 MDS .        Operator Entered:  MAG DATA SOURCE
 PDAT.          Mean Sea Level:  PERMANENT DATUM
 DCON.         Sperry Drilling:  DIRECTNL CONTR
 RIG .              West Azeri:  RIG NAME
 WELL.           C40 (Slot 20):  WELL NAME
 SRVC.     Turan Drilling Engineering:  CONTRACTOR
 FLD .                     ACG:  FIELD NAME
 CTRY.              Azerbaijan:  COUNTRY NAME
 PROV.                    Baku:  PROVINCE
 STAT.                    Baku:  STATE NAME
 REGN.                   EESSA:  REGION
 BASE.              Azerbaijan:  LOGGING EQUIPMENT BASE LOCATION
 COMP.     BP Exploration (Caspian Sea) Ltd:  COMPANY
 WTYP.                Deviated:  WELL TYPE
 SON .        AZ-XX-0906344804:  JOB NUMBER
 FTOP.          Formation Tops:  FORM TOPS DESC
 ILTD.               Lithology:  INTERP LTH DESC
 SVYD.                  Survey:  SURVEY DESC
 DMOD.             Drill Model:  DRILL MOD DESC
 HPTY.       Minimum Curvature:  HOLE POS TYPE
 NREF.                    Grid:  NORTH REFERENCE
 SPUD.               01-Jan-20:  SPUD DATE
 DATE.      00.59.44 15-Sep-20:  END TIME
 STIM.      12.00.00 12-Jun-20:  START TIME
 DMF .             Drill Floor:  DRILL MEAS FROM
 DFST.                        :  DIST FSL TEXT
 DFWT.                        :  DIST FWL TEXT
 API .                        :  API NUMBER
 CNTY.                        :  COUNTY
 UWI .                        :  UNIQUE WELL IDENTIFIER
 LOC .                        :  LOCATION
 LMF .             Drill Floor:  LOG MEASURED FROM
 VSNS.m                   2.88:  VERT SEC N/S
 VSEW.m                  -3.84:  VERT SEC E/W
 AGAP.m                  43.42:  AIR GAP
 APD .m                  43.42:  DEPTH ABOVE PD
 WDMS.m                 118.27:  WD ELEV
 EGL .m                   0.00:  GROUND ELEVATION
 EPD .m                   0.00:  ELEVATION
 AZTC.deg                 6.23:  AZM TOTAL CORR
 GRDC.deg                 0.20:  GRID CORRECTION
 MDEC.deg                 6.43:  MAGNETIC DECL
 MDIP.deg                59.49:  MAGNETIC DIP
 MFLD.nT              50277.00:  MAGNETIC FIELD
 GVFD.g                   1.00:  GRAVITY FIELD
 VSDR.deg               173.20:  VERT SEC DIRECT
 TDD .m                5790.01:  TOTAL DEPTH (DRILLER)
 SDEP.m                5231.01:  START DEPTH
 DFSL.m                   0.00:  DISTANCE FSL
 DFWL.m                   0.00:  DISTANCE FWL
 UTMY.m             4435808.83:  UTM Y
 UTMX.m              526266.40:  UTM X
 WHEW.m                  -3.84:  WELL HEAD E/W
 WHNS.m                   2.88:  WELL HEAD N/S
 LONG.deg                51.31:  LONGITUDE
 LATI.deg                40.06:  LATITUDE
 TVDS.m                  43.42:  TVDSS CORRECTN
 DEP .m                 430.08:  DEPTH
 EKB .m                  43.42:  KB ELEVATION
 EDF .m                  43.42:  DF ELEVATION
 TDL .m                 559.00:  TOTAL DEPTH (LOGGER)
 MAGU.                 1849381:  MAGUTM CHECKSUM
 VSC .                       0:  VS TO CLOSURE
~Parameter Information Block
#MNEM.UNIT       Value        Description
#---------     -----------    ---------------------------
 AV  .mps                 4.87:  Ann Velocity 
 AVMX.mps                 7.08:  Max Ann Veloc 
 AZIF.deg               108.87:  Azm, Final 
 BHAT.                  Rotary:  BHA Type 
 BROT.°/30m               0.35:  Build Rotating 
 BS  .in                  8.50:  Bit Size 
 BSZ .in                  8.50:  Bit Size 
 BTPL.psig              360.00:  Bit Press Loss 
 CABU.                     Yes:  Customer Abuse 
 COMM.                     ¬Î:  Run Comments 1 
 TCS .hr                106.24:  Time Ciculation Ended 
 CV  .mps                 1.77:  Crit Velocity 
 CVMX.mps                 2.03:  Max Crit Veloc 
 DD1 .         Aykhan Agagulov:  Direct Drillr 1 
 DD2 .            Nonso Okofor:  Direct Drillr 2 
 DDSV.               Geo-Pilot:  DD Service 
 DEFF.%                  98.00:  % Det Eff 
 DLRX.°/30m               0.50:  Dogleg Rot Max 
 DLSO.°/30m               0.40:  Dogleg Oriented 
 DLSX.°/30m               0.94:  Dogleg Str Max 
 DRET.      20.30.00 08-Sep-20:  Drill End Time 
 DRST.      22.15.00 06-Sep-20:  Drill Start Tim 
 DTIM.hr                 31.31:  Time Drilling 
 EDEP.m                5790.01:  End Depth 
 ENG1.           Amrah Tahirov:  Engineer 1 
 ENG2.         Dair Mahammadov:  Engineer 2 
 ENG3.           Emil Huseynov:  Engineer 3 
 ETIM.      04.01.04 12-Sep-20:  End Time 
 FLOI.gpm               450.00:  Flow In 
 FLON.gpm               450.00:  Flow In Min 
 FLOS.cptm                2.00:  Fluid Loss 
 FLOX.gpm               450.00:  Flow In Max 
 FTRO.       Formation Presure:  FTWD Run Obj 
 HFLO.                      No:  High Flow 
 HPRE.                      No:  High Pressure 
 HTEM.                      No:  High Temp 
 HYDO.m                   1.80:  Hydro Offset 
 IFIN.deg                72.03:  Inc, Final 
 IMAX.deg                73.72:  Inc Max 
 IMIN.deg                70.94:  Inc Min 
 IMND.m                5508.52:  Inc Min Depth 
 IMXD.m                5253.60:  Inc Max Depth 
 JARR.                      No:  Jarring 
 LETM.      20.30.00 08-Sep-20:  Log End Time 
 LOST.hr                     0:  Lost Rig Time 
 LSTM.      22.15.00 06-Sep-20:  Log Start Time 
 MDCL.ppm             36000.00:  Mud Chlorides 
 MDES.     Inversion Oil/Synthetic:  Mud Desc 
 DFD .sg                  1.44:  Mud Density 
 MDMN.sg                  1.44:  Dens Mud Min 
 MDMX.sg                  1.57:  Dens Mud Max 
 MOIL.                      70:  Run Mud Oil % 
 MOWR.                   70:30:  Run Mud OWR 
 MSND.                       0:  Run Mud Sand % 
 MSOL.                      21:  Run Mud Solids% 
 DFV .spqt               68.00:  Mud Viscosity 
 MWOD.in                  6.75:  MWD Tool OD 
 MWSI.                     Yes:  Serv Intrp, MWD 
 OTIM.hr                174.84:  Time Operating 
 PCON.           Look Like New:  Pad Condition 
 PMAX.psia            10616.93:  Press Op, Max 
 PV  .cP                 50.00:  Mud PV 
 RUN .                     700:  Run Number 
 ROPA.m/hr               14.24:  ROP Avg 
 ROPN.m/hr               10.00:  ROP Min 
 ROPX.m/hr               32.00:  ROP Max 
 RPMA.rpm               120.90:  RPM Surface Avg 
 RPMN.rpm               120.00:  RPM Surface Min 
 RPMX.rpm               140.00:  RPM Surface Max 
 RRUN.                    0700:  Rig Run Number 
 RTIM.hr                  3.20:  Time Reaming 
 SAZI.deg               109.99:  Azm, Start 
 SDEP.m                5231.01:  Start Depth 
 SIDD.                      No:  Serv Intrp, DD 
 SINC.deg                73.72:  Inc, Start 
 SPPA.psig             3051.00:  SPP Avg 
 SPPN.psig             2950.00:  SPP Min 
 SPPX.psig             3250.00:  SPP Max 
 STIM.      08.00.00 05-Sep-20:  Start Time 
 SVCS.                 DD, MWD:  Services 
 SVER.                    9.20:  Sperry Version 
 TDAT.m                 559.00:  Tot Depth Attmp 
 TDDF.                      No:  Trip for DD 
 TDLG.m                 559.00:  Tot Depth Loggd 
 TFF .                      No:  Trip for Fail 
 TQAA.f-kp               26.49:  Torque Abs Avg 
 TQAN.f-kp               25.00:  Torque Abs Min 
 TQAX.f-kp               27.00:  Torque Abs Max 
 TRRT.°/30m               1.50:  Turn Rotating 
 MRT .                    HCIM:  Maximum Recorded Temperature 
 TTMX.degC               90.20:  Max Tool Temp 
 VS01.                90542671:  Virtual Str1 SN 
 VS02.                90545185:  Virtual Str2 SN 
 VS03.                90602015:  Virtual Str3 SN 
 VS04.                90515230:  Virtual Str4 SN 
 WBMN.klb                 5.00:  WOB Min 
 WOBA.klb                14.79:  WOB Avg 
 WOBX.klb                20.00:  WOB Max 
 YP  .lhf2               29.00:  Yield Point 
~Curve Information Block
#MNEM.UNIT                 API CODE     Curve Description
#---------               -----------    ---------------------------
 TIME.HHMMSS            00 000 000 000:  GT Time & Date
 GTDEPTH.m              00 000 000 000:  GT Depth
 GTPQH.psia             00 000 000 000:  GT HR Quartz Pressure
 GTTQ.degC              00 000 000 000:  GT Quartz Temperature
 GTTN.NONE              00 000 000 000:  GT Test Number
 GTET.sec               00 000 000 000:  GT Elapsed Test Time
 GTTVD.m                00 000 000 000:  GT True Vertical Depth
#Other Information
#
#WARRANTY: Halliburton will use its best efforts to furnish customers with 
#accurate information and interpretations that are part of, and incident to, the services 
#provided.  However, Halliburton cannot and does not warrant the accuracy 
#or correctness of such information and interpretations.  Under no circumstances should any 
#such information or interpretation be relied upon as the sole basis for any drilling, 
#completion, production, or financial decision or any procedure involving any risk to the 
#safety of any drilling venture, drilling rig or its crew or any other third party.  The 
#Customer has full responsibility for all drilling, completion and production operation.  
#Halliburton makes no representations or warranties, either expressed or 
#implied, including, but not limited to, the implied warranties of merchantability or fitness 
#for a particular purpose, with respect to the services rendered.  In no event will 
#Halliburton be liable for failure to obtain any particular results or for 
#any damages, including, but not limited to, indirect, special or consequential damages, 
#resulting from the use of any information or interpretation provided by Halliburton.
#
~A           TIME           GTDEPTH  GTPQH  GTTQ  GTTN   GTET   GTTVD  
# ...
   10:59:33.466.09-Sep-2020 5456.01 3588.46 76.38 10.00 271.27 2604.72
   10:59:33.666.09-Sep-2020 5456.01 3588.39 76.38 10.00 271.47 2604.72
   10:59:33.866.09-Sep-2020 5456.01 3588.46 76.38 10.00 271.68 2604.72
   10:59:34.066.09-Sep-2020 5456.01 3588.54 76.38 10.00 271.88 2604.72
   10:59:34.266.09-Sep-2020 5456.01 3588.41 76.38 10.00 272.08 2604.72
   10:59:34.466.09-Sep-2020 5456.01 3588.41 76.38 10.00 272.28 2604.72
   10:59:34.666.09-Sep-2020 5456.01 3588.54 76.38 10.00 272.48 2604.72
   10:59:34.866.09-Sep-2020 5456.01 3588.54 76.38 10.00 272.68 2604.72
   10:59:35.066.09-Sep-2020 5456.01 3588.57 76.38 10.00 272.88 2604.72
   10:59:35.267.09-Sep-2020 5456.01 3588.59 76.38 10.00 273.08 2604.72
   10:59:35.467.09-Sep-2020 5456.01 3588.59 76.38 10.00 273.28 2604.72
   10:59:35.667.09-Sep-2020 5456.01 3588.60 76.38 10.00 273.48 2604.72
   10:59:35.867.09-Sep-2020 5456.01 3588.60 76.38 10.00 273.68 2604.72
   10:59:36.067.09-Sep-2020 5456.01 3588.63 76.38 10.00 273.88 2604.72
   10:59:36.267.09-Sep-2020 5456.01 3588.66 76.38 10.00 274.08 2604.72
   10:59:36.467.09-Sep-2020 5456.01 3588.66 76.38 10.00 274.28 2604.72
   10:59:36.667.09-Sep-2020 5456.01 3588.67 76.38 10.00 274.48 2604.72
   10:59:36.867.09-Sep-2020 5456.01 3588.56 76.38 10.00 274.68 2604.72
   10:59:37.067.09-Sep-2020 5456.01 3588.82 76.38 10.00 274.88 2604.72
   10:59:37.267.09-Sep-2020 5456.01 3588.69 76.38 10.00 275.08 2604.72
   10:59:37.467.09-Sep-2020 5456.01 3588.69 76.38 10.00 275.28 2604.72
   10:59:37.667.09-Sep-2020 5456.01 3588.68 76.38 10.00 275.48 2604.72
   10:59:37.867.09-Sep-2020 5456.01 3588.75 76.38 10.00 275.68 2604.72
   10:59:38.067.09-Sep-2020 5456.01 3588.71 76.38 10.00 275.88 2604.72
   10:59:38.267.09-Sep-2020 5456.01 3588.72 76.38 10.00 276.08 2604.72
   10:59:38.467.09-Sep-2020 5456.01 3588.72 76.38 10.00 276.28 2604.72
   10:59:38.667.09-Sep-2020 5456.01 3588.72 76.38 10.00 276.48 2604.72
   10:59:38.868.09-Sep-2020 5456.01 3588.75 76.38 10.00 276.68 2604.72
   10:59:39.068.09-Sep-2020 5456.01 3588.73 76.38 10.00 276.88 2604.72
   10:59:39.268.09-Sep-2020 5456.01 3588.73 76.38 10.00 277.08 2604.72
   10:59:39.468.09-Sep-2020 5456.01 3588.73 76.38 10.00 277.28 2604.72
   10:59:39.668.09-Sep-2020 5456.01 3588.78 76.38 10.00 277.48 2604.72
   10:59:39.868.09-Sep-2020 5456.01 3588.78 76.38 10.00 277.68 2604.72
   10:59:40.068.09-Sep-2020 5456.01 3588.60 76.38 10.00 277.88 2604.72
   10:59:40.268.09-Sep-2020 5456.01 3588.89 76.38 10.00 278.08 2604.72
   10:59:40.468.09-Sep-2020 5456.01 3588.89 76.38 10.00 278.28 2604.72
   10:59:40.668.09-Sep-2020 5456.01 3588.78 76.39 10.00 278.48 2604.72
   10:59:40.868.09-Sep-2020 5456.01 3588.81 76.39 10.00 278.68 2604.72
   10:59:41.068.09-Sep-2020 5456.01 3588.85 76.39 10.00 278.88 2604.72
   10:59:41.268.09-Sep-2020 5456.01 3588.27 76.39 10.00 279.08 2604.72
   10:59:41.468.09-Sep-2020 5456.01 3588.27 76.39 10.00 279.28 2604.72
   10:59:41.668.09-Sep-2020 5456.01 3588.82 76.39 10.00 279.48 2604.72
   10:59:41.868.09-Sep-2020 5456.01 3588.81 76.39 10.00 279.68 2604.72
   10:59:42.068.09-Sep-2020 5456.01 3588.75 76.39 10.00 279.88 2604.72
   10:59:42.268.09-Sep-2020 5456.01 3588.87 76.39 10.00 280.08 2604.72
   10:59:42.469.09-Sep-2020 5456.01 3588.87 76.39 10.00 280.28 2604.72
   10:59:42.669.09-Sep-2020 5456.01 3588.94 76.39 10.00 280.48 2604.72
   10:59:42.869.09-Sep-2020 5456.01 3588.75 76.39 10.00 280.68 2604.72
   10:59:43.069.09-Sep-2020 5456.01 3588.78 76.39 10.00 280.88 2604.72
   10:59:43.269.09-Sep-2020 5456.01 3588.82 76.39 10.00 281.08 2604.72
   10:59:43.469.09-Sep-2020 5456.01 3588.82 76.39 10.00 281.28 2604.72
   10:59:43.669.09-Sep-2020 5456.01 3588.74 76.39 10.00 281.48 2604.72
   10:59:43.869.09-Sep-2020 5456.01 3588.67 76.39 10.00 281.68 2604.72
   10:59:44.069.09-Sep-2020 5456.01 3588.95 76.39 10.00 281.88 2604.72
   10:59:44.269.09-Sep-2020 5456.01 3588.92 76.39 10.00 282.08 2604.72
   10:59:44.469.09-Sep-2020 5456.01 3588.92 76.39 10.00 282.28 2604.72
   10:59:44.669.09-Sep-2020 5456.01 3588.85 76.39 10.00 282.48 2604.72
   10:59:44.869.09-Sep-2020 5456.01 3588.78 76.39 10.00 282.68 2604.72
   10:59:45.069.09-Sep-2020 5456.01 3588.91 76.39 10.00 282.88 2604.72
   10:59:45.269.09-Sep-2020 5456.01 3588.84 76.39 10.00 283.08 2604.72
   10:59:45.469.09-Sep-2020 5456.01 3588.84 76.39 10.00 283.28 2604.72
   10:59:45.669.09-Sep-2020 5456.01 3588.80 76.39 10.00 283.48 2604.72
   10:59:45.869.09-Sep-2020 5456.01 3588.89 76.39 10.00 283.68 2604.72
   10:59:46.070.09-Sep-2020 5456.01 3588.84 76.39 10.00 283.88 2604.72
   10:59:46.270.09-Sep-2020 5456.01 3588.85 76.39 10.00 284.08 2604.72
   10:59:46.470.09-Sep-2020 5456.01 3588.85 76.39 10.00 284.28 2604.72
   10:59:46.670.09-Sep-2020 5456.01 3588.84 76.39 10.00 284.48 2604.72
   10:59:46.870.09-Sep-2020 5456.01 3588.86 76.39 10.00 284.68 2604.72
   10:59:47.070.09-Sep-2020 5456.01 3588.83 76.39 10.00 284.88 2604.72
   10:59:47.270.09-Sep-2020 5456.01 3588.85 76.39 10.00 285.08 2604.72
   10:59:47.470.09-Sep-2020 5456.01 3588.85 76.39 10.00 285.28 2604.72
   10:59:47.670.09-Sep-2020 5456.01 3588.86 76.39 10.00 285.48 2604.72
   10:59:47.870.09-Sep-2020 5456.01 3588.87 76.39 10.00 285.68 2604.72
   10:59:48.070.09-Sep-2020 5456.01 3588.85 76.39 10.00 285.88 2604.72
   10:59:48.270.09-Sep-2020 5456.01 3588.85 76.39 10.00 286.08 2604.72
   10:59:48.470.09-Sep-2020 5456.01 3588.85 76.39 10.00 286.28 2604.72
   10:59:48.670.09-Sep-2020 5456.01 3588.98 76.39 10.00 286.48 2604.72
   10:59:48.870.09-Sep-2020 5456.01 3588.77 76.39 10.00 286.68 2604.72
   10:59:49.070.09-Sep-2020 5456.01 3588.84 76.39 10.00 286.88 2604.72
   10:59:49.270.09-Sep-2020 5456.01 3588.86 76.39 10.00 287.08 2604.72
   10:59:49.470.09-Sep-2020 5456.01 3588.86 76.39 10.00 287.28 2604.72
   10:59:49.671.09-Sep-2020 5456.01 3588.76 76.39 10.00 287.48 2604.72
   10:59:49.871.09-Sep-2020 5456.01 3588.88 76.39 10.00 287.68 2604.72
   10:59:50.071.09-Sep-2020 5456.01 3588.85 76.39 10.00 287.88 2604.72
   10:59:50.271.09-Sep-2020 5456.01 3588.87 76.39 10.00 288.08 2604.72
   10:59:50.471.09-Sep-2020 5456.01 3588.87 76.39 10.00 288.28 2604.72
   10:59:50.671.09-Sep-2020 5456.01 3588.87 76.39 10.00 288.48 2604.72
   10:59:50.871.09-Sep-2020 5456.01 3588.88 76.39 10.00 288.68 2604.72
   10:59:51.071.09-Sep-2020 5456.01 3588.88 76.39 10.00 288.88 2604.72
   10:59:51.271.09-Sep-2020 5456.01 3588.89 76.39 10.00 289.08 2604.72
   10:59:51.471.09-Sep-2020 5456.01 3588.89 76.39 10.00 289.28 2604.72
   10:59:51.671.09-Sep-2020 5456.01 3588.86 76.39 10.00 289.48 2604.72
   10:59:51.871.09-Sep-2020 5456.01 3588.45 76.39 10.00 289.68 2604.72
   10:59:52.071.09-Sep-2020 5456.01 3589.31 76.39 10.00 289.88 2604.72
   10:59:52.271.09-Sep-2020 5456.01 3588.89 76.39 10.00 290.08 2604.72
   10:59:52.471.09-Sep-2020 5456.01 3588.89 76.39 10.00 290.28 2604.72
   10:59:52.671.09-Sep-2020 5456.01 3588.82 76.39 10.00 290.48 2604.72
   10:59:52.871.09-Sep-2020 5456.01 3588.91 76.39 10.00 290.68 2604.72
   10:59:53.071.09-Sep-2020 5456.01 3588.73 76.39 10.00 290.88 2604.72
   10:59:53.272.09-Sep-2020 5456.01 3589.02 76.39 10.00 291.08 2604.72
   10:59:53.472.09-Sep-2020 5456.01 3589.02 76.39 10.00 291.28 2604.72
   10:59:53.672.09-Sep-2020 5456.01 3588.87 76.39 10.00 291.48 2604.72
   10:59:53.872.09-Sep-2020 5456.01 3588.74 76.39 10.00 291.68 2604.72
   10:59:54.072.09-Sep-2020 5456.01 3589.02 76.39 10.00 291.88 2604.72
   10:59:54.272.09-Sep-2020 5456.01 3588.87 76.39 10.00 292.08 2604.72
   10:59:54.472.09-Sep-2020 5456.01 3588.87 76.39 10.00 292.28 2604.72
   10:59:54.672.09-Sep-2020 5456.01 3588.71 76.39 10.00 292.48 2604.72
   10:59:54.872.09-Sep-2020 5456.01 3589.03 76.39 10.00 292.68 2604.72
   10:59:55.072.09-Sep-2020 5456.01 3588.94 76.39 10.00 292.88 2604.72
   10:59:55.272.09-Sep-2020 5456.01 3588.87 76.39 10.00 293.08 2604.72
   10:59:55.472.09-Sep-2020 5456.01 3588.87 76.39 10.00 293.28 2604.72
   10:59:55.672.09-Sep-2020 5456.01 3588.95 76.39 10.00 293.48 2604.72
   10:59:55.872.09-Sep-2020 5456.01 3588.81 76.39 10.00 293.68 2604.72
