~Version Information
 VERS.                  2.0:   CWLS log ASCII Standard -VERSION 2.0
 WRAP.                   NO:   One line per depth step
~Well Information Block
#MNEM.UNIT     VALUE/NAME     DESCRIPTION
#---------     -----------    ---------------------------
 STRT.S             08:34:18 09-Sep-20: START TIME 08:34:18 09-Sep-20
 STOP.S             08:41:20 09-Sep-20: STOP TIME  08:41:20 09-Sep-20
 STEP.S                   0.00: STEP TIME
 NULL.                 -999.25: NULL VALUE
 MDS .        Operator Entered:  MAG DATA SOURCE
 PDAT.          Mean Sea Level:  PERMANENT DATUM
 DCON.         Sperry Drilling:  DIRECTNL CONTR
 RIG .              West Azeri:  RIG NAME
 WELL.           C40 (Slot 20):  WELL NAME
 SRVC.     Turan Drilling Engineering:  CONTRACTOR
 FLD .                     ACG:  FIELD NAME
 CTRY.              Azerbaijan:  COUNTRY NAME
 PROV.                    Baku:  PROVINCE
 STAT.                    Baku:  STATE NAME
 REGN.                   EESSA:  REGION
 BASE.              Azerbaijan:  LOGGING EQUIPMENT BASE LOCATION
 COMP.     BP Exploration (Caspian Sea) Ltd:  COMPANY
 WTYP.                Deviated:  WELL TYPE
 SON .        AZ-XX-0906344804:  JOB NUMBER
 FTOP.          Formation Tops:  FORM TOPS DESC
 ILTD.               Lithology:  INTERP LTH DESC
 SVYD.                  Survey:  SURVEY DESC
 DMOD.             Drill Model:  DRILL MOD DESC
 HPTY.       Minimum Curvature:  HOLE POS TYPE
 NREF.                    Grid:  NORTH REFERENCE
 SPUD.               01-Jan-20:  SPUD DATE
 DATE.      00.59.44 15-Sep-20:  END TIME
 STIM.      12.00.00 12-Jun-20:  START TIME
 DMF .             Drill Floor:  DRILL MEAS FROM
 DFST.                        :  DIST FSL TEXT
 DFWT.                        :  DIST FWL TEXT
 API .                        :  API NUMBER
 CNTY.                        :  COUNTY
 UWI .                        :  UNIQUE WELL IDENTIFIER
 LOC .                        :  LOCATION
 LMF .             Drill Floor:  LOG MEASURED FROM
 VSNS.m                   2.88:  VERT SEC N/S
 VSEW.m                  -3.84:  VERT SEC E/W
 AGAP.m                  43.42:  AIR GAP
 APD .m                  43.42:  DEPTH ABOVE PD
 WDMS.m                 118.27:  WD ELEV
 EGL .m                   0.00:  GROUND ELEVATION
 EPD .m                   0.00:  ELEVATION
 AZTC.deg                 6.23:  AZM TOTAL CORR
 GRDC.deg                 0.20:  GRID CORRECTION
 MDEC.deg                 6.43:  MAGNETIC DECL
 MDIP.deg                59.49:  MAGNETIC DIP
 MFLD.nT              50277.00:  MAGNETIC FIELD
 GVFD.g                   1.00:  GRAVITY FIELD
 VSDR.deg               173.20:  VERT SEC DIRECT
 TDD .m                5790.01:  TOTAL DEPTH (DRILLER)
 SDEP.m                5231.01:  START DEPTH
 DFSL.m                   0.00:  DISTANCE FSL
 DFWL.m                   0.00:  DISTANCE FWL
 UTMY.m             4435808.83:  UTM Y
 UTMX.m              526266.40:  UTM X
 WHEW.m                  -3.84:  WELL HEAD E/W
 WHNS.m                   2.88:  WELL HEAD N/S
 LONG.deg                51.31:  LONGITUDE
 LATI.deg                40.06:  LATITUDE
 TVDS.m                  43.42:  TVDSS CORRECTN
 DEP .m                 430.08:  DEPTH
 EKB .m                  43.42:  KB ELEVATION
 EDF .m                  43.42:  DF ELEVATION
 TDL .m                 559.00:  TOTAL DEPTH (LOGGER)
 MAGU.                 1849381:  MAGUTM CHECKSUM
 VSC .                       0:  VS TO CLOSURE
~Parameter Information Block
#MNEM.UNIT       Value        Description
#---------     -----------    ---------------------------
 AV  .mps                 4.87:  Ann Velocity 
 AVMX.mps                 7.08:  Max Ann Veloc 
 AZIF.deg               108.87:  Azm, Final 
 BHAT.                  Rotary:  BHA Type 
 BROT.°/30m               0.35:  Build Rotating 
 BS  .in                  8.50:  Bit Size 
 BSZ .in                  8.50:  Bit Size 
 BTPL.psig              360.00:  Bit Press Loss 
 CABU.                     Yes:  Customer Abuse 
 COMM.                     \¸P:  Run Comments 1 
 TCS .hr                106.24:  Time Ciculation Ended 
 CV  .mps                 1.77:  Crit Velocity 
 CVMX.mps                 2.03:  Max Crit Veloc 
 DD1 .         Aykhan Agagulov:  Direct Drillr 1 
 DD2 .            Nonso Okofor:  Direct Drillr 2 
 DDSV.               Geo-Pilot:  DD Service 
 DEFF.%                  98.00:  % Det Eff 
 DLRX.°/30m               0.50:  Dogleg Rot Max 
 DLSO.°/30m               0.40:  Dogleg Oriented 
 DLSX.°/30m               0.94:  Dogleg Str Max 
 DRET.      20.30.00 08-Sep-20:  Drill End Time 
 DRST.      22.15.00 06-Sep-20:  Drill Start Tim 
 DTIM.hr                 31.31:  Time Drilling 
 EDEP.m                5790.01:  End Depth 
 ENG1.           Amrah Tahirov:  Engineer 1 
 ENG2.         Dair Mahammadov:  Engineer 2 
 ENG3.           Emil Huseynov:  Engineer 3 
 ETIM.      04.01.04 12-Sep-20:  End Time 
 FLOI.gpm               450.00:  Flow In 
 FLON.gpm               450.00:  Flow In Min 
 FLOS.cptm                2.00:  Fluid Loss 
 FLOX.gpm               450.00:  Flow In Max 
 FTRO.       Formation Presure:  FTWD Run Obj 
 HFLO.                      No:  High Flow 
 HPRE.                      No:  High Pressure 
 HTEM.                      No:  High Temp 
 HYDO.m                   1.80:  Hydro Offset 
 IFIN.deg                72.03:  Inc, Final 
 IMAX.deg                73.72:  Inc Max 
 IMIN.deg                70.94:  Inc Min 
 IMND.m                5508.52:  Inc Min Depth 
 IMXD.m                5253.60:  Inc Max Depth 
 JARR.                      No:  Jarring 
 LETM.      20.30.00 08-Sep-20:  Log End Time 
 LOST.hr                     0:  Lost Rig Time 
 LSTM.      22.15.00 06-Sep-20:  Log Start Time 
 MDCL.ppm             36000.00:  Mud Chlorides 
 MDES.     Inversion Oil/Synthetic:  Mud Desc 
 DFD .sg                  1.44:  Mud Density 
 MDMN.sg                  1.44:  Dens Mud Min 
 MDMX.sg                  1.57:  Dens Mud Max 
 MOIL.                      70:  Run Mud Oil % 
 MOWR.                   70:30:  Run Mud OWR 
 MSND.                       0:  Run Mud Sand % 
 MSOL.                      21:  Run Mud Solids% 
 DFV .spqt               68.00:  Mud Viscosity 
 MWOD.in                  6.75:  MWD Tool OD 
 MWSI.                     Yes:  Serv Intrp, MWD 
 OTIM.hr                174.84:  Time Operating 
 PCON.           Look Like New:  Pad Condition 
 PMAX.psia            10616.93:  Press Op, Max 
 PV  .cP                 50.00:  Mud PV 
 RUN .                     700:  Run Number 
 ROPA.m/hr               14.24:  ROP Avg 
 ROPN.m/hr               10.00:  ROP Min 
 ROPX.m/hr               32.00:  ROP Max 
 RPMA.rpm               120.90:  RPM Surface Avg 
 RPMN.rpm               120.00:  RPM Surface Min 
 RPMX.rpm               140.00:  RPM Surface Max 
 RRUN.                    0700:  Rig Run Number 
 RTIM.hr                  3.20:  Time Reaming 
 SAZI.deg               109.99:  Azm, Start 
 SDEP.m                5231.01:  Start Depth 
 SIDD.                      No:  Serv Intrp, DD 
 SINC.deg                73.72:  Inc, Start 
 SPPA.psig             3051.00:  SPP Avg 
 SPPN.psig             2950.00:  SPP Min 
 SPPX.psig             3250.00:  SPP Max 
 STIM.      08.00.00 05-Sep-20:  Start Time 
 SVCS.                 DD, MWD:  Services 
 SVER.                    9.20:  Sperry Version 
 TDAT.m                 559.00:  Tot Depth Attmp 
 TDDF.                      No:  Trip for DD 
 TDLG.m                 559.00:  Tot Depth Loggd 
 TFF .                      No:  Trip for Fail 
 TQAA.f-kp               26.49:  Torque Abs Avg 
 TQAN.f-kp               25.00:  Torque Abs Min 
 TQAX.f-kp               27.00:  Torque Abs Max 
 TRRT.°/30m               1.50:  Turn Rotating 
 MRT .                    HCIM:  Maximum Recorded Temperature 
 TTMX.degC               90.20:  Max Tool Temp 
 VS01.                90542671:  Virtual Str1 SN 
 VS02.                90545185:  Virtual Str2 SN 
 VS03.                90602015:  Virtual Str3 SN 
 VS04.                90515230:  Virtual Str4 SN 
 WBMN.klb                 5.00:  WOB Min 
 WOBA.klb                14.79:  WOB Avg 
 WOBX.klb                20.00:  WOB Max 
 YP  .lhf2               29.00:  Yield Point 
~Curve Information Block
#MNEM.UNIT                 API CODE     Curve Description
#---------               -----------    ---------------------------
 TIME.HHMMSS            00 000 000 000:  GT Time & Date
 GTDEPTH.m              00 000 000 000:  GT Depth
 GTPQH.psia             00 000 000 000:  GT HR Quartz Pressure
 GTTQ.degC              00 000 000 000:  GT Quartz Temperature
 GTTN.NONE              00 000 000 000:  GT Test Number
 GTET.sec               00 000 000 000:  GT Elapsed Test Time
 GTTVD.m                00 000 000 000:  GT True Vertical Depth
#Other Information
#
#WARRANTY: Halliburton will use its best efforts to furnish customers with 
#accurate information and interpretations that are part of, and incident to, the services 
#provided.  However, Halliburton cannot and does not warrant the accuracy 
#or correctness of such information and interpretations.  Under no circumstances should any 
#such information or interpretation be relied upon as the sole basis for any drilling, 
#completion, production, or financial decision or any procedure involving any risk to the 
#safety of any drilling venture, drilling rig or its crew or any other third party.  The 
#Customer has full responsibility for all drilling, completion and production operation.  
#Halliburton makes no representations or warranties, either expressed or 
#implied, including, but not limited to, the implied warranties of merchantability or fitness 
#for a particular purpose, with respect to the services rendered.  In no event will 
#Halliburton be liable for failure to obtain any particular results or for 
#any damages, including, but not limited to, indirect, special or consequential damages, 
#resulting from the use of any information or interpretation provided by Halliburton.
#
~A           TIME           GTDEPTH  GTPQH  GTTQ  GTTN  GTET   GTTVD  
# ...
   08:36:13.842.09-Sep-2020 5524.01 3700.77 77.58 6.00 115.05 2626.56
   08:36:14.042.09-Sep-2020 5524.01 3700.32 77.58 6.00 115.25 2626.56
   08:36:14.242.09-Sep-2020 5524.01 3701.27 77.58 6.00 115.45 2626.56
   08:36:14.442.09-Sep-2020 5524.01 3700.76 77.58 6.00 115.65 2626.56
   08:36:14.642.09-Sep-2020 5524.01 3700.78 77.58 6.00 115.85 2626.56
   08:36:14.842.09-Sep-2020 5524.01 3700.76 77.58 6.00 116.05 2626.56
   08:36:15.043.09-Sep-2020 5524.01 3700.78 77.58 6.00 116.25 2626.56
   08:36:15.243.09-Sep-2020 5524.01 3700.75 77.58 6.00 116.45 2626.56
   08:36:15.443.09-Sep-2020 5524.01 3700.77 77.58 6.00 116.65 2626.56
   08:36:15.643.09-Sep-2020 5524.01 3700.79 77.58 6.00 116.85 2626.56
   08:36:15.843.09-Sep-2020 5524.01 3700.75 77.58 6.00 117.05 2626.56
   08:36:16.043.09-Sep-2020 5524.01 3700.75 77.58 6.00 117.25 2626.56
   08:36:16.243.09-Sep-2020 5524.01 3700.75 77.58 6.00 117.45 2626.56
   08:36:16.443.09-Sep-2020 5524.01 3700.77 77.58 6.00 117.65 2626.56
   08:36:16.643.09-Sep-2020 5524.01 3700.77 77.58 6.00 117.85 2626.56
   08:36:16.843.09-Sep-2020 5524.01 3700.78 77.58 6.00 118.05 2626.56
   08:36:17.043.09-Sep-2020 5524.01 3700.78 77.58 6.00 118.25 2626.56
   08:36:17.243.09-Sep-2020 5524.01 3700.76 77.58 6.00 118.45 2626.56
   08:36:17.444.09-Sep-2020 5524.01 3700.91 77.58 6.00 118.65 2626.56
   08:36:17.644.09-Sep-2020 5524.01 3700.62 77.58 6.00 118.85 2626.56
   08:36:17.844.09-Sep-2020 5524.01 3700.78 77.58 6.00 119.05 2626.56
   08:36:18.044.09-Sep-2020 5524.01 3700.76 77.58 6.00 119.25 2626.56
   08:36:18.244.09-Sep-2020 5524.01 3700.86 77.58 6.00 119.45 2626.56
   08:36:18.444.09-Sep-2020 5524.01 3700.69 77.58 6.00 119.65 2626.56
   08:36:18.644.09-Sep-2020 5524.01 3700.77 77.58 6.00 119.85 2626.56
   08:36:18.844.09-Sep-2020 5524.01 3700.76 77.58 6.00 120.05 2626.56
   08:36:19.044.09-Sep-2020 5524.01 3700.80 77.58 6.00 120.25 2626.56
   08:36:19.244.09-Sep-2020 5524.01 3700.78 77.58 6.00 120.45 2626.56
   08:36:19.444.09-Sep-2020 5524.01 3700.86 77.58 6.00 120.65 2626.56
   08:36:19.644.09-Sep-2020 5524.01 3700.71 77.58 6.00 120.85 2626.56
   08:36:19.844.09-Sep-2020 5524.01 3700.76 77.58 6.00 121.05 2626.56
   08:36:20.045.09-Sep-2020 5524.01 3700.76 77.58 6.00 121.25 2626.56
   08:36:20.245.09-Sep-2020 5524.01 3700.77 77.58 6.00 121.45 2626.56
   08:36:20.445.09-Sep-2020 5524.01 3700.86 77.58 6.00 121.65 2626.56
   08:36:20.645.09-Sep-2020 5524.01 3700.69 77.58 6.00 121.85 2626.56
   08:36:20.845.09-Sep-2020 5524.01 3700.76 77.58 6.00 122.05 2626.56
   08:36:21.045.09-Sep-2020 5524.01 3700.76 77.58 6.00 122.25 2626.56
   08:36:21.245.09-Sep-2020 5524.01 3701.13 77.58 6.00 122.45 2626.56
   08:36:21.445.09-Sep-2020 5524.01 3700.76 77.58 6.00 122.65 2626.56
   08:36:21.645.09-Sep-2020 5524.01 3700.81 77.58 6.00 122.85 2626.56
   08:36:21.845.09-Sep-2020 5524.01 3700.26 77.58 6.00 123.05 2626.56
   08:36:22.045.09-Sep-2020 5524.01 3700.26 77.58 6.00 123.25 2626.56
   08:36:22.245.09-Sep-2020 5524.01 3700.77 77.58 6.00 123.45 2626.56
   08:36:22.445.09-Sep-2020 5524.01 3700.80 77.58 6.00 123.65 2626.56
   08:36:22.646.09-Sep-2020 5524.01 3700.77 77.58 6.00 123.85 2626.56
   08:36:22.846.09-Sep-2020 5524.01 3700.77 77.58 6.00 124.05 2626.56
   08:36:23.046.09-Sep-2020 5524.01 3700.77 77.58 6.00 124.25 2626.56
   08:36:23.246.09-Sep-2020 5524.01 3700.78 77.58 6.00 124.45 2626.56
   08:36:23.446.09-Sep-2020 5524.01 3700.79 77.58 6.00 124.65 2626.56
   08:36:23.646.09-Sep-2020 5524.01 3700.76 77.58 6.00 124.85 2626.56
   08:36:23.846.09-Sep-2020 5524.01 3700.79 77.58 6.00 125.05 2626.56
   08:36:24.046.09-Sep-2020 5524.01 3700.79 77.58 6.00 125.25 2626.56
   08:36:24.246.09-Sep-2020 5524.01 3700.78 77.58 6.00 125.45 2626.56
   08:36:24.446.09-Sep-2020 5524.01 3700.75 77.58 6.00 125.65 2626.56
   08:36:24.646.09-Sep-2020 5524.01 3700.77 77.58 6.00 125.85 2626.56
   08:36:24.846.09-Sep-2020 5524.01 3700.78 77.58 6.00 126.05 2626.56
   08:36:25.047.09-Sep-2020 5524.01 3700.78 77.58 6.00 126.25 2626.56
   08:36:25.247.09-Sep-2020 5524.01 3700.78 77.58 6.00 126.45 2626.56
   08:36:25.447.09-Sep-2020 5524.01 3700.78 77.58 6.00 126.65 2626.56
   08:36:25.647.09-Sep-2020 5524.01 3700.44 77.58 6.00 126.85 2626.56
   08:36:25.847.09-Sep-2020 5524.01 3701.13 77.58 6.00 127.05 2626.56
   08:36:26.047.09-Sep-2020 5524.01 3701.13 77.58 6.00 127.25 2626.56
   08:36:26.247.09-Sep-2020 5524.01 3700.80 77.58 6.00 127.45 2626.56
   08:36:26.447.09-Sep-2020 5524.01 3700.72 77.58 6.00 127.65 2626.56
   08:36:26.647.09-Sep-2020 5524.01 3700.81 77.58 6.00 127.85 2626.56
   08:36:26.847.09-Sep-2020 5524.01 3700.78 77.58 6.00 128.05 2626.56
   08:36:27.047.09-Sep-2020 5524.01 3700.78 77.58 6.00 128.25 2626.56
   08:36:27.247.09-Sep-2020 5524.01 3700.78 77.58 6.00 128.45 2626.56
   08:36:27.447.09-Sep-2020 5524.01 3700.77 77.58 6.00 128.65 2626.56
   08:36:27.648.09-Sep-2020 5524.01 3700.78 77.58 6.00 128.85 2626.56
   08:36:27.848.09-Sep-2020 5524.01 3700.77 77.58 6.00 129.05 2626.56
   08:36:28.048.09-Sep-2020 5524.01 3700.77 77.58 6.00 129.25 2626.56
   08:36:28.248.09-Sep-2020 5524.01 3700.78 77.58 6.00 129.45 2626.56
   08:36:28.448.09-Sep-2020 5524.01 3700.79 77.58 6.00 129.65 2626.56
   08:36:28.648.09-Sep-2020 5524.01 3700.79 77.58 6.00 129.85 2626.56
   08:36:28.848.09-Sep-2020 5524.01 3700.77 77.58 6.00 130.05 2626.56
   08:36:29.048.09-Sep-2020 5524.01 3700.77 77.58 6.00 130.25 2626.56
   08:36:29.248.09-Sep-2020 5524.01 3700.77 77.58 6.00 130.45 2626.56
   08:36:29.448.09-Sep-2020 5524.01 3700.81 77.58 6.00 130.65 2626.56
   08:36:29.648.09-Sep-2020 5524.01 3700.79 77.58 6.00 130.85 2626.56
   08:36:29.848.09-Sep-2020 5524.01 3700.85 77.58 6.00 131.05 2626.56
   08:36:30.048.09-Sep-2020 5524.01 3700.22 77.58 6.00 131.25 2626.56
   08:36:30.249.09-Sep-2020 5524.01 3701.26 77.58 6.00 131.45 2626.56
   08:36:30.449.09-Sep-2020 5524.01 3700.77 77.58 6.00 131.65 2626.56
   08:36:30.649.09-Sep-2020 5524.01 3700.80 77.58 6.00 131.85 2626.56
   08:36:30.849.09-Sep-2020 5524.01 3700.78 77.58 6.00 132.05 2626.56
   08:36:31.049.09-Sep-2020 5524.01 3700.78 77.58 6.00 132.25 2626.56
   08:36:31.249.09-Sep-2020 5524.01 3701.25 77.58 6.00 132.45 2626.56
   08:36:31.449.09-Sep-2020 5524.01 3700.76 77.58 6.00 132.65 2626.56
   08:36:31.649.09-Sep-2020 5524.01 3700.81 77.58 6.00 132.85 2626.56
   08:36:31.849.09-Sep-2020 5524.01 3700.77 77.58 6.00 133.05 2626.56
   08:36:32.049.09-Sep-2020 5524.01 3700.77 77.58 6.00 133.25 2626.56
   08:36:32.249.09-Sep-2020 5524.01 3700.76 77.58 6.00 133.45 2626.56
   08:36:32.449.09-Sep-2020 5524.01 3700.78 77.58 6.00 133.65 2626.56
   08:36:32.650.09-Sep-2020 5524.01 3700.94 77.58 6.00 133.85 2626.56
   08:36:32.850.09-Sep-2020 5524.01 3700.62 77.58 6.00 134.05 2626.56
   08:36:33.050.09-Sep-2020 5524.01 3700.62 77.58 6.00 134.25 2626.56
   08:36:33.250.09-Sep-2020 5524.01 3700.77 77.58 6.00 134.45 2626.56
   08:36:33.450.09-Sep-2020 5524.01 3700.50 77.58 6.00 134.65 2626.56
   08:36:33.650.09-Sep-2020 5524.01 3701.13 77.58 6.00 134.85 2626.56
   08:36:33.850.09-Sep-2020 5524.01 3700.77 77.58 6.00 135.05 2626.56
   08:36:34.050.09-Sep-2020 5524.01 3700.82 77.58 6.00 135.25 2626.56
   08:36:34.250.09-Sep-2020 5524.01 3700.73 77.58 6.00 135.45 2626.56
   08:36:34.450.09-Sep-2020 5524.01 3700.80 77.58 6.00 135.65 2626.56
   08:36:34.650.09-Sep-2020 5524.01 3700.79 77.58 6.00 135.85 2626.56
   08:36:34.850.09-Sep-2020 5524.01 3700.78 77.58 6.00 136.05 2626.56
   08:36:35.050.09-Sep-2020 5524.01 3700.78 77.58 6.00 136.25 2626.56
   08:36:35.251.09-Sep-2020 5524.01 3700.77 77.58 6.00 136.45 2626.56
   08:36:35.451.09-Sep-2020 5524.01 3700.80 77.58 6.00 136.65 2626.56
   08:36:35.651.09-Sep-2020 5524.01 3700.78 77.58 6.00 136.85 2626.56
   08:36:35.851.09-Sep-2020 5524.01 3700.78 77.58 6.00 137.05 2626.56
   08:36:36.051.09-Sep-2020 5524.01 3700.78 77.58 6.00 137.25 2626.56
   08:36:36.251.09-Sep-2020 5524.01 3700.78 77.58 6.00 137.45 2626.56
   08:36:36.451.09-Sep-2020 5524.01 3700.79 77.58 6.00 137.65 2626.56
   08:36:36.651.09-Sep-2020 5524.01 3700.79 77.58 6.00 137.85 2626.56
