~Version Information
 VERS.                  2.0:   CWLS log ASCII Standard -VERSION 2.0
 WRAP.                   NO:   One line per depth step
~Well Information Block
#MNEM.UNIT     VALUE/NAME     DESCRIPTION
#---------     -----------    ---------------------------
 STRT.S             07:31:38 09-Sep-20: START TIME 07:31:38 09-Sep-20
 STOP.S             07:38:38 09-Sep-20: STOP TIME  07:38:38 09-Sep-20
 STEP.S                   0.00: STEP TIME
 NULL.                 -999.25: NULL VALUE
 MDS .        Operator Entered:  MAG DATA SOURCE
 PDAT.          Mean Sea Level:  PERMANENT DATUM
 DCON.         Sperry Drilling:  DIRECTNL CONTR
 RIG .              West Azeri:  RIG NAME
 WELL.           C40 (Slot 20):  WELL NAME
 SRVC.     Turan Drilling Engineering:  CONTRACTOR
 FLD .                     ACG:  FIELD NAME
 CTRY.              Azerbaijan:  COUNTRY NAME
 PROV.                    Baku:  PROVINCE
 STAT.                    Baku:  STATE NAME
 REGN.                   EESSA:  REGION
 BASE.              Azerbaijan:  LOGGING EQUIPMENT BASE LOCATION
 COMP.     BP Exploration (Caspian Sea) Ltd:  COMPANY
 WTYP.                Deviated:  WELL TYPE
 SON .        AZ-XX-0906344804:  JOB NUMBER
 FTOP.          Formation Tops:  FORM TOPS DESC
 ILTD.               Lithology:  INTERP LTH DESC
 SVYD.                  Survey:  SURVEY DESC
 DMOD.             Drill Model:  DRILL MOD DESC
 HPTY.       Minimum Curvature:  HOLE POS TYPE
 NREF.                    Grid:  NORTH REFERENCE
 SPUD.               01-Jan-20:  SPUD DATE
 DATE.      00.59.44 15-Sep-20:  END TIME
 STIM.      12.00.00 12-Jun-20:  START TIME
 DMF .             Drill Floor:  DRILL MEAS FROM
 DFST.                        :  DIST FSL TEXT
 DFWT.                        :  DIST FWL TEXT
 API .                        :  API NUMBER
 CNTY.                        :  COUNTY
 UWI .                        :  UNIQUE WELL IDENTIFIER
 LOC .                        :  LOCATION
 LMF .             Drill Floor:  LOG MEASURED FROM
 VSNS.m                   2.88:  VERT SEC N/S
 VSEW.m                  -3.84:  VERT SEC E/W
 AGAP.m                  43.42:  AIR GAP
 APD .m                  43.42:  DEPTH ABOVE PD
 WDMS.m                 118.27:  WD ELEV
 EGL .m                   0.00:  GROUND ELEVATION
 EPD .m                   0.00:  ELEVATION
 AZTC.deg                 6.23:  AZM TOTAL CORR
 GRDC.deg                 0.20:  GRID CORRECTION
 MDEC.deg                 6.43:  MAGNETIC DECL
 MDIP.deg                59.49:  MAGNETIC DIP
 MFLD.nT              50277.00:  MAGNETIC FIELD
 GVFD.g                   1.00:  GRAVITY FIELD
 VSDR.deg               173.20:  VERT SEC DIRECT
 TDD .m                5790.01:  TOTAL DEPTH (DRILLER)
 SDEP.m                5231.01:  START DEPTH
 DFSL.m                   0.00:  DISTANCE FSL
 DFWL.m                   0.00:  DISTANCE FWL
 UTMY.m             4435808.83:  UTM Y
 UTMX.m              526266.40:  UTM X
 WHEW.m                  -3.84:  WELL HEAD E/W
 WHNS.m                   2.88:  WELL HEAD N/S
 LONG.deg                51.31:  LONGITUDE
 LATI.deg                40.06:  LATITUDE
 TVDS.m                  43.42:  TVDSS CORRECTN
 DEP .m                 430.08:  DEPTH
 EKB .m                  43.42:  KB ELEVATION
 EDF .m                  43.42:  DF ELEVATION
 TDL .m                 559.00:  TOTAL DEPTH (LOGGER)
 MAGU.                 1849381:  MAGUTM CHECKSUM
 VSC .                       0:  VS TO CLOSURE
~Parameter Information Block
#MNEM.UNIT       Value        Description
#---------     -----------    ---------------------------
 AV  .mps                 4.87:  Ann Velocity 
 AVMX.mps                 7.08:  Max Ann Veloc 
 AZIF.deg               108.87:  Azm, Final 
 BHAT.                  Rotary:  BHA Type 
 BROT.°/30m               0.35:  Build Rotating 
 BS  .in                  8.50:  Bit Size 
 BSZ .in                  8.50:  Bit Size 
 BTPL.psig              360.00:  Bit Press Loss 
 CABU.                     Yes:  Customer Abuse 
 COMM.                     |L:  Run Comments 1 
 TCS .hr                106.24:  Time Ciculation Ended 
 CV  .mps                 1.77:  Crit Velocity 
 CVMX.mps                 2.03:  Max Crit Veloc 
 DD1 .         Aykhan Agagulov:  Direct Drillr 1 
 DD2 .            Nonso Okofor:  Direct Drillr 2 
 DDSV.               Geo-Pilot:  DD Service 
 DEFF.%                  98.00:  % Det Eff 
 DLRX.°/30m               0.50:  Dogleg Rot Max 
 DLSO.°/30m               0.40:  Dogleg Oriented 
 DLSX.°/30m               0.94:  Dogleg Str Max 
 DRET.      20.30.00 08-Sep-20:  Drill End Time 
 DRST.      22.15.00 06-Sep-20:  Drill Start Tim 
 DTIM.hr                 31.31:  Time Drilling 
 EDEP.m                5790.01:  End Depth 
 ENG1.           Amrah Tahirov:  Engineer 1 
 ENG2.         Dair Mahammadov:  Engineer 2 
 ENG3.           Emil Huseynov:  Engineer 3 
 ETIM.      04.01.04 12-Sep-20:  End Time 
 FLOI.gpm               450.00:  Flow In 
 FLON.gpm               450.00:  Flow In Min 
 FLOS.cptm                2.00:  Fluid Loss 
 FLOX.gpm               450.00:  Flow In Max 
 FTRO.       Formation Presure:  FTWD Run Obj 
 HFLO.                      No:  High Flow 
 HPRE.                      No:  High Pressure 
 HTEM.                      No:  High Temp 
 HYDO.m                   1.80:  Hydro Offset 
 IFIN.deg                72.03:  Inc, Final 
 IMAX.deg                73.72:  Inc Max 
 IMIN.deg                70.94:  Inc Min 
 IMND.m                5508.52:  Inc Min Depth 
 IMXD.m                5253.60:  Inc Max Depth 
 JARR.                      No:  Jarring 
 LETM.      20.30.00 08-Sep-20:  Log End Time 
 LOST.hr                     0:  Lost Rig Time 
 LSTM.      22.15.00 06-Sep-20:  Log Start Time 
 MDCL.ppm             36000.00:  Mud Chlorides 
 MDES.     Inversion Oil/Synthetic:  Mud Desc 
 DFD .sg                  1.44:  Mud Density 
 MDMN.sg                  1.44:  Dens Mud Min 
 MDMX.sg                  1.57:  Dens Mud Max 
 MOIL.                      70:  Run Mud Oil % 
 MOWR.                   70:30:  Run Mud OWR 
 MSND.                       0:  Run Mud Sand % 
 MSOL.                      21:  Run Mud Solids% 
 DFV .spqt               68.00:  Mud Viscosity 
 MWOD.in                  6.75:  MWD Tool OD 
 MWSI.                     Yes:  Serv Intrp, MWD 
 OTIM.hr                174.84:  Time Operating 
 PCON.           Look Like New:  Pad Condition 
 PMAX.psia            10616.93:  Press Op, Max 
 PV  .cP                 50.00:  Mud PV 
 RUN .                     700:  Run Number 
 ROPA.m/hr               14.24:  ROP Avg 
 ROPN.m/hr               10.00:  ROP Min 
 ROPX.m/hr               32.00:  ROP Max 
 RPMA.rpm               120.90:  RPM Surface Avg 
 RPMN.rpm               120.00:  RPM Surface Min 
 RPMX.rpm               140.00:  RPM Surface Max 
 RRUN.                    0700:  Rig Run Number 
 RTIM.hr                  3.20:  Time Reaming 
 SAZI.deg               109.99:  Azm, Start 
 SDEP.m                5231.01:  Start Depth 
 SIDD.                      No:  Serv Intrp, DD 
 SINC.deg                73.72:  Inc, Start 
 SPPA.psig             3051.00:  SPP Avg 
 SPPN.psig             2950.00:  SPP Min 
 SPPX.psig             3250.00:  SPP Max 
 STIM.      08.00.00 05-Sep-20:  Start Time 
 SVCS.                 DD, MWD:  Services 
 SVER.                    9.20:  Sperry Version 
 TDAT.m                 559.00:  Tot Depth Attmp 
 TDDF.                      No:  Trip for DD 
 TDLG.m                 559.00:  Tot Depth Loggd 
 TFF .                      No:  Trip for Fail 
 TQAA.f-kp               26.49:  Torque Abs Avg 
 TQAN.f-kp               25.00:  Torque Abs Min 
 TQAX.f-kp               27.00:  Torque Abs Max 
 TRRT.°/30m               1.50:  Turn Rotating 
 MRT .                    HCIM:  Maximum Recorded Temperature 
 TTMX.degC               90.20:  Max Tool Temp 
 VS01.                90542671:  Virtual Str1 SN 
 VS02.                90545185:  Virtual Str2 SN 
 VS03.                90602015:  Virtual Str3 SN 
 VS04.                90515230:  Virtual Str4 SN 
 WBMN.klb                 5.00:  WOB Min 
 WOBA.klb                14.79:  WOB Avg 
 WOBX.klb                20.00:  WOB Max 
 YP  .lhf2               29.00:  Yield Point 
~Curve Information Block
#MNEM.UNIT                 API CODE     Curve Description
#---------               -----------    ---------------------------
 TIME.HHMMSS            00 000 000 000:  GT Time & Date
 GTDEPTH.m              00 000 000 000:  GT Depth
 GTPQH.psia             00 000 000 000:  GT HR Quartz Pressure
 GTTQ.degC              00 000 000 000:  GT Quartz Temperature
 GTTN.NONE              00 000 000 000:  GT Test Number
 GTET.sec               00 000 000 000:  GT Elapsed Test Time
 GTTVD.m                00 000 000 000:  GT True Vertical Depth
#Other Information
#
#WARRANTY: Halliburton will use its best efforts to furnish customers with 
#accurate information and interpretations that are part of, and incident to, the services 
#provided.  However, Halliburton cannot and does not warrant the accuracy 
#or correctness of such information and interpretations.  Under no circumstances should any 
#such information or interpretation be relied upon as the sole basis for any drilling, 
#completion, production, or financial decision or any procedure involving any risk to the 
#safety of any drilling venture, drilling rig or its crew or any other third party.  The 
#Customer has full responsibility for all drilling, completion and production operation.  
#Halliburton makes no representations or warranties, either expressed or 
#implied, including, but not limited to, the implied warranties of merchantability or fitness 
#for a particular purpose, with respect to the services rendered.  In no event will 
#Halliburton be liable for failure to obtain any particular results or for 
#any damages, including, but not limited to, indirect, special or consequential damages, 
#resulting from the use of any information or interpretation provided by Halliburton.
#
~A           TIME           GTDEPTH  GTPQH  GTTQ  GTTN  GTET   GTTVD  
# ...
   07:35:51.391.09-Sep-2020 5569.01 3533.40 78.51 4.00 253.10 2640.81
   07:35:51.591.09-Sep-2020 5569.01 3533.40 78.51 4.00 253.30 2640.81
   07:35:51.791.09-Sep-2020 5569.01 3533.42 78.51 4.00 253.50 2640.81
   07:35:51.991.09-Sep-2020 5569.01 3533.45 78.51 4.00 253.70 2640.81
   07:35:52.191.09-Sep-2020 5569.01 3533.39 78.51 4.00 253.90 2640.81
   07:35:52.391.09-Sep-2020 5569.01 3533.46 78.51 4.00 254.10 2640.81
   07:35:52.591.09-Sep-2020 5569.01 3533.46 78.51 4.00 254.30 2640.81
   07:35:52.791.09-Sep-2020 5569.01 3533.43 78.51 4.00 254.50 2640.81
   07:35:52.992.09-Sep-2020 5569.01 3533.43 78.51 4.00 254.70 2640.81
   07:35:53.192.09-Sep-2020 5569.01 3533.43 78.51 4.00 254.90 2640.81
   07:35:53.392.09-Sep-2020 5569.01 3533.44 78.51 4.00 255.10 2640.81
   07:35:53.592.09-Sep-2020 5569.01 3533.44 78.51 4.00 255.30 2640.81
   07:35:53.792.09-Sep-2020 5569.01 3533.43 78.51 4.00 255.50 2640.81
   07:35:53.992.09-Sep-2020 5569.01 3533.44 78.51 4.00 255.70 2640.81
   07:35:54.192.09-Sep-2020 5569.01 3533.43 78.51 4.00 255.90 2640.81
   07:35:54.392.09-Sep-2020 5569.01 3533.43 78.51 4.00 256.10 2640.81
   07:35:54.592.09-Sep-2020 5569.01 3533.43 78.51 4.00 256.30 2640.81
   07:35:54.792.09-Sep-2020 5569.01 3526.90 78.51 4.00 256.50 2640.81
   07:35:54.992.09-Sep-2020 5569.01 3518.93 78.51 4.00 256.70 2640.81
   07:35:55.192.09-Sep-2020 5569.01 3518.09 78.51 4.00 256.91 2640.81
   07:35:55.393.09-Sep-2020 5569.01 3518.04 78.51 4.00 257.11 2640.81
   07:35:55.593.09-Sep-2020 5569.01 3518.04 78.51 4.00 257.31 2640.81
   07:35:55.793.09-Sep-2020 5569.01 3518.93 78.51 4.00 257.51 2640.81
   07:35:55.993.09-Sep-2020 5569.01 3517.88 78.51 4.00 257.71 2640.81
   07:35:56.193.09-Sep-2020 5569.01 3518.49 78.51 4.00 257.91 2640.81
   07:35:56.393.09-Sep-2020 5569.01 3518.08 78.51 4.00 258.11 2640.81
   07:35:56.593.09-Sep-2020 5569.01 3518.08 78.51 4.00 258.31 2640.81
   07:35:56.793.09-Sep-2020 5569.01 3518.17 78.51 4.00 258.51 2640.81
   07:35:56.993.09-Sep-2020 5569.01 3517.50 78.51 4.00 258.71 2640.81
   07:35:57.193.09-Sep-2020 5569.01 3518.01 78.51 4.00 258.91 2640.81
   07:35:57.393.09-Sep-2020 5569.01 3518.01 78.51 4.00 259.11 2640.81
   07:35:57.593.09-Sep-2020 5569.01 3518.01 78.51 4.00 259.31 2640.81
   07:35:57.794.09-Sep-2020 5569.01 3517.81 78.51 4.00 259.51 2640.81
   07:35:57.994.09-Sep-2020 5569.01 3517.81 78.51 4.00 259.71 2640.81
   07:35:58.194.09-Sep-2020 5569.01 3517.93 78.51 4.00 259.91 2640.81
   07:35:58.394.09-Sep-2020 5569.01 3517.84 78.51 4.00 260.11 2640.81
   07:35:58.594.09-Sep-2020 5569.01 3517.84 78.51 4.00 260.31 2640.81
   07:35:58.794.09-Sep-2020 5569.01 3517.77 78.51 4.00 260.51 2640.81
   07:35:58.994.09-Sep-2020 5569.01 3517.82 78.51 4.00 260.71 2640.81
   07:35:59.194.09-Sep-2020 5569.01 3518.06 78.51 4.00 260.91 2640.81
   07:35:59.394.09-Sep-2020 5569.01 3518.29 78.51 4.00 261.11 2640.81
   07:35:59.594.09-Sep-2020 5569.01 3518.29 78.51 4.00 261.31 2640.81
   07:35:59.794.09-Sep-2020 5569.01 3518.08 78.51 4.00 261.51 2640.81
   07:35:59.994.09-Sep-2020 5569.01 3518.13 78.51 4.00 261.71 2640.81
   07:36:00.195.09-Sep-2020 5569.01 3517.85 78.51 4.00 261.91 2640.81
   07:36:00.395.09-Sep-2020 5569.01 3517.75 78.51 4.00 262.11 2640.81
   07:36:00.595.09-Sep-2020 5569.01 3517.75 78.51 4.00 262.31 2640.81
   07:36:00.795.09-Sep-2020 5569.01 3518.22 78.51 4.00 262.51 2640.81
   07:36:00.995.09-Sep-2020 5569.01 3518.05 78.51 4.00 262.71 2640.81
   07:36:01.195.09-Sep-2020 5569.01 3518.25 78.51 4.00 262.91 2640.81
   07:36:01.395.09-Sep-2020 5569.01 3518.01 78.51 4.00 263.11 2640.81
   07:36:01.595.09-Sep-2020 5569.01 3518.01 78.51 4.00 263.31 2640.81
   07:36:01.795.09-Sep-2020 5569.01 3517.52 78.51 4.00 263.51 2640.81
   07:36:01.995.09-Sep-2020 5569.01 3517.92 78.51 4.00 263.71 2640.81
   07:36:02.195.09-Sep-2020 5569.01 3518.06 78.51 4.00 263.91 2640.81
   07:36:02.395.09-Sep-2020 5569.01 3517.75 78.51 4.00 264.11 2640.81
   07:36:02.595.09-Sep-2020 5569.01 3517.75 78.51 4.00 264.31 2640.81
   07:36:02.796.09-Sep-2020 5569.01 3517.70 78.51 4.00 264.51 2640.81
   07:36:02.996.09-Sep-2020 5569.01 3517.96 78.51 4.00 264.71 2640.81
   07:36:03.196.09-Sep-2020 5569.01 3517.66 78.51 4.00 264.91 2640.81
   07:36:03.396.09-Sep-2020 5569.01 3517.96 78.51 4.00 265.11 2640.81
   07:36:03.596.09-Sep-2020 5569.01 3517.96 78.51 4.00 265.31 2640.81
   07:36:03.796.09-Sep-2020 5569.01 3517.91 78.51 4.00 265.51 2640.81
   07:36:03.996.09-Sep-2020 5569.01 3517.05 78.51 4.00 265.71 2640.81
   07:36:04.196.09-Sep-2020 5569.01 3517.74 78.51 4.00 265.91 2640.81
   07:36:04.396.09-Sep-2020 5569.01 3518.18 78.51 4.00 266.11 2640.81
   07:36:04.596.09-Sep-2020 5569.01 3518.18 78.51 4.00 266.31 2640.81
   07:36:04.796.09-Sep-2020 5569.01 3517.82 78.51 4.00 266.51 2640.81
   07:36:04.996.09-Sep-2020 5569.01 3532.10 78.51 4.00 266.71 2640.81
   07:36:05.197.09-Sep-2020 5569.01 3533.34 78.51 4.00 266.91 2640.81
   07:36:05.397.09-Sep-2020 5569.01 3533.35 78.51 4.00 267.11 2640.81
   07:36:05.597.09-Sep-2020 5569.01 3533.35 78.51 4.00 267.31 2640.81
   07:36:05.797.09-Sep-2020 5569.01 3533.34 78.51 4.00 267.51 2640.81
   07:36:05.997.09-Sep-2020 5569.01 3533.35 78.51 4.00 267.71 2640.81
   07:36:06.197.09-Sep-2020 5569.01 3533.35 78.51 4.00 267.91 2640.81
   07:36:06.397.09-Sep-2020 5569.01 3533.36 78.51 4.00 268.11 2640.81
   07:36:06.597.09-Sep-2020 5569.01 3533.36 78.51 4.00 268.31 2640.81
   07:36:06.797.09-Sep-2020 5569.01 3533.37 78.51 4.00 268.51 2640.81
   07:36:06.997.09-Sep-2020 5569.01 3533.38 78.51 4.00 268.71 2640.81
   07:36:07.197.09-Sep-2020 5569.01 3533.38 78.51 4.00 268.91 2640.81
   07:36:07.397.09-Sep-2020 5569.01 3533.38 78.51 4.00 269.11 2640.81
   07:36:07.598.09-Sep-2020 5569.01 3533.38 78.51 4.00 269.31 2640.81
   07:36:07.798.09-Sep-2020 5569.01 3533.34 78.51 4.00 269.51 2640.81
   07:36:07.998.09-Sep-2020 5569.01 3533.40 78.51 4.00 269.71 2640.81
   07:36:08.198.09-Sep-2020 5569.01 3533.39 78.51 4.00 269.91 2640.81
   07:36:08.398.09-Sep-2020 5569.01 3533.40 78.51 4.00 270.11 2640.81
   07:36:08.598.09-Sep-2020 5569.01 3533.40 78.51 4.00 270.31 2640.81
   07:36:08.798.09-Sep-2020 5569.01 3533.40 78.51 4.00 270.51 2640.81
   07:36:08.998.09-Sep-2020 5569.01 3533.39 78.51 4.00 270.71 2640.81
   07:36:09.198.09-Sep-2020 5569.01 3533.40 78.51 4.00 270.91 2640.81
   07:36:09.398.09-Sep-2020 5569.01 3533.40 78.51 4.00 271.11 2640.81
   07:36:09.598.09-Sep-2020 5569.01 3533.40 78.51 4.00 271.31 2640.81
   07:36:09.798.09-Sep-2020 5569.01 3533.40 78.51 4.00 271.51 2640.81
   07:36:09.999.09-Sep-2020 5569.01 3533.41 78.51 4.00 271.71 2640.81
   07:36:10.199.09-Sep-2020 5569.01 3533.40 78.51 4.00 271.91 2640.81
   07:36:10.399.09-Sep-2020 5569.01 3533.40 78.51 4.00 272.11 2640.81
   07:36:10.599.09-Sep-2020 5569.01 3533.40 78.51 4.00 272.31 2640.81
   07:36:10.799.09-Sep-2020 5569.01 3533.41 78.51 4.00 272.51 2640.81
   07:36:10.999.09-Sep-2020 5569.01 3533.43 78.51 4.00 272.71 2640.81
   07:36:11.199.09-Sep-2020 5569.01 3533.38 78.51 4.00 272.91 2640.81
   07:36:11.399.09-Sep-2020 5569.01 3533.41 78.51 4.00 273.11 2640.81
   07:36:11.599.09-Sep-2020 5569.01 3533.41 78.51 4.00 273.31 2640.81
   07:36:11.799.09-Sep-2020 5569.01 3533.41 78.51 4.00 273.51 2640.81
   07:36:11.999.09-Sep-2020 5569.01 3533.39 78.51 4.00 273.71 2640.81
   07:36:12.199.09-Sep-2020 5569.01 3533.36 78.51 4.00 273.91 2640.81
   07:36:12.400.09-Sep-2020 5569.01 3533.44 78.51 4.00 274.11 2640.81
   07:36:12.600.09-Sep-2020 5569.01 3533.44 78.51 4.00 274.31 2640.81
   07:36:12.800.09-Sep-2020 5569.01 3533.39 78.51 4.00 274.51 2640.81
   07:36:13.000.09-Sep-2020 5569.01 3533.41 78.51 4.00 274.71 2640.81
   07:36:13.200.09-Sep-2020 5569.01 3533.40 78.51 4.00 274.91 2640.81
   07:36:13.400.09-Sep-2020 5569.01 3533.41 78.51 4.00 275.11 2640.81
   07:36:13.600.09-Sep-2020 5569.01 3533.41 78.51 4.00 275.31 2640.81
   07:36:13.800.09-Sep-2020 5569.01 3533.42 78.51 4.00 275.51 2640.81
   07:36:14.000.09-Sep-2020 5569.01 3533.40 78.51 4.00 275.71 2640.81
   07:36:14.200.09-Sep-2020 5569.01 3533.41 78.51 4.00 275.91 2640.81
