~Version Information
 VERS.                  2.0:   CWLS log ASCII Standard -VERSION 2.0
 WRAP.                   NO:   One line per depth step
~Well Information Block
#MNEM.UNIT     VALUE/NAME     DESCRIPTION
#---------     -----------    ---------------------------
 STRT.S             16:52:14 09-Sep-20: START TIME 16:52:14 09-Sep-20
 STOP.S             17:00:39 09-Sep-20: STOP TIME  17:00:39 09-Sep-20
 STEP.S                   0.00: STEP TIME
 NULL.                 -999.25: NULL VALUE
 MDS .        Operator Entered:  MAG DATA SOURCE
 PDAT.          Mean Sea Level:  PERMANENT DATUM
 DCON.         Sperry Drilling:  DIRECTNL CONTR
 RIG .              West Azeri:  RIG NAME
 WELL.           C40 (Slot 20):  WELL NAME
 SRVC.     Turan Drilling Engineering:  CONTRACTOR
 FLD .                     ACG:  FIELD NAME
 CTRY.              Azerbaijan:  COUNTRY NAME
 PROV.                    Baku:  PROVINCE
 STAT.                    Baku:  STATE NAME
 REGN.                   EESSA:  REGION
 BASE.              Azerbaijan:  LOGGING EQUIPMENT BASE LOCATION
 COMP.     BP Exploration (Caspian Sea) Ltd:  COMPANY
 WTYP.                Deviated:  WELL TYPE
 SON .        AZ-XX-0906344804:  JOB NUMBER
 FTOP.          Formation Tops:  FORM TOPS DESC
 ILTD.               Lithology:  INTERP LTH DESC
 SVYD.                  Survey:  SURVEY DESC
 DMOD.             Drill Model:  DRILL MOD DESC
 HPTY.       Minimum Curvature:  HOLE POS TYPE
 NREF.                    Grid:  NORTH REFERENCE
 SPUD.               01-Jan-20:  SPUD DATE
 DATE.      00.59.44 15-Sep-20:  END TIME
 STIM.      12.00.00 12-Jun-20:  START TIME
 DMF .             Drill Floor:  DRILL MEAS FROM
 DFST.                        :  DIST FSL TEXT
 DFWT.                        :  DIST FWL TEXT
 API .                        :  API NUMBER
 CNTY.                        :  COUNTY
 UWI .                        :  UNIQUE WELL IDENTIFIER
 LOC .                        :  LOCATION
 LMF .             Drill Floor:  LOG MEASURED FROM
 VSNS.m                   2.88:  VERT SEC N/S
 VSEW.m                  -3.84:  VERT SEC E/W
 AGAP.m                  43.42:  AIR GAP
 APD .m                  43.42:  DEPTH ABOVE PD
 WDMS.m                 118.27:  WD ELEV
 EGL .m                   0.00:  GROUND ELEVATION
 EPD .m                   0.00:  ELEVATION
 AZTC.deg                 6.23:  AZM TOTAL CORR
 GRDC.deg                 0.20:  GRID CORRECTION
 MDEC.deg                 6.43:  MAGNETIC DECL
 MDIP.deg                59.49:  MAGNETIC DIP
 MFLD.nT              50277.00:  MAGNETIC FIELD
 GVFD.g                   1.00:  GRAVITY FIELD
 VSDR.deg               173.20:  VERT SEC DIRECT
 TDD .m                5790.01:  TOTAL DEPTH (DRILLER)
 SDEP.m                5231.01:  START DEPTH
 DFSL.m                   0.00:  DISTANCE FSL
 DFWL.m                   0.00:  DISTANCE FWL
 UTMY.m             4435808.83:  UTM Y
 UTMX.m              526266.40:  UTM X
 WHEW.m                  -3.84:  WELL HEAD E/W
 WHNS.m                   2.88:  WELL HEAD N/S
 LONG.deg                51.31:  LONGITUDE
 LATI.deg                40.06:  LATITUDE
 TVDS.m                  43.42:  TVDSS CORRECTN
 DEP .m                 430.08:  DEPTH
 EKB .m                  43.42:  KB ELEVATION
 EDF .m                  43.42:  DF ELEVATION
 TDL .m                 559.00:  TOTAL DEPTH (LOGGER)
 MAGU.                 1849381:  MAGUTM CHECKSUM
 VSC .                       0:  VS TO CLOSURE
~Parameter Information Block
#MNEM.UNIT       Value        Description
#---------     -----------    ---------------------------
 AV  .mps                 4.87:  Ann Velocity 
 AVMX.mps                 7.08:  Max Ann Veloc 
 AZIF.deg               108.87:  Azm, Final 
 BHAT.                  Rotary:  BHA Type 
 BROT.°/30m               0.35:  Build Rotating 
 BS  .in                  8.50:  Bit Size 
 BSZ .in                  8.50:  Bit Size 
 BTPL.psig              360.00:  Bit Press Loss 
 CABU.                     Yes:  Customer Abuse 
 TCS .hr                106.24:  Time Ciculation Ended 
 CV  .mps                 1.77:  Crit Velocity 
 CVMX.mps                 2.03:  Max Crit Veloc 
 DD1 .         Aykhan Agagulov:  Direct Drillr 1 
 DD2 .            Nonso Okofor:  Direct Drillr 2 
 DDSV.               Geo-Pilot:  DD Service 
 DEFF.%                  98.00:  % Det Eff 
 DLRX.°/30m               0.50:  Dogleg Rot Max 
 DLSO.°/30m               0.40:  Dogleg Oriented 
 DLSX.°/30m               0.94:  Dogleg Str Max 
 DRET.      20.30.00 08-Sep-20:  Drill End Time 
 DRST.      22.15.00 06-Sep-20:  Drill Start Tim 
 DTIM.hr                 31.31:  Time Drilling 
 EDEP.m                5790.01:  End Depth 
 ENG1.           Amrah Tahirov:  Engineer 1 
 ENG2.         Dair Mahammadov:  Engineer 2 
 ENG3.           Emil Huseynov:  Engineer 3 
 ETIM.      04.01.04 12-Sep-20:  End Time 
 FLOI.gpm               450.00:  Flow In 
 FLON.gpm               450.00:  Flow In Min 
 FLOS.cptm                2.00:  Fluid Loss 
 FLOX.gpm               450.00:  Flow In Max 
 FTRO.       Formation Presure:  FTWD Run Obj 
 HFLO.                      No:  High Flow 
 HPRE.                      No:  High Pressure 
 HTEM.                      No:  High Temp 
 HYDO.m                   1.80:  Hydro Offset 
 IFIN.deg                72.03:  Inc, Final 
 IMAX.deg                73.72:  Inc Max 
 IMIN.deg                70.94:  Inc Min 
 IMND.m                5508.52:  Inc Min Depth 
 IMXD.m                5253.60:  Inc Max Depth 
 JARR.                      No:  Jarring 
 LETM.      20.30.00 08-Sep-20:  Log End Time 
 LOST.hr                     0:  Lost Rig Time 
 LSTM.      22.15.00 06-Sep-20:  Log Start Time 
 MDCL.ppm             36000.00:  Mud Chlorides 
 MDES.     Inversion Oil/Synthetic:  Mud Desc 
 DFD .sg                  1.44:  Mud Density 
 MDMN.sg                  1.44:  Dens Mud Min 
 MDMX.sg                  1.57:  Dens Mud Max 
 MOIL.                      70:  Run Mud Oil % 
 MOWR.                   70:30:  Run Mud OWR 
 MSND.                       0:  Run Mud Sand % 
 MSOL.                      21:  Run Mud Solids% 
 DFV .spqt               68.00:  Mud Viscosity 
 MWOD.in                  6.75:  MWD Tool OD 
 MWSI.                     Yes:  Serv Intrp, MWD 
 OTIM.hr                174.84:  Time Operating 
 PCON.           Look Like New:  Pad Condition 
 PMAX.psia            10616.93:  Press Op, Max 
 PV  .cP                 50.00:  Mud PV 
 RUN .                     700:  Run Number 
 ROPA.m/hr               14.24:  ROP Avg 
 ROPN.m/hr               10.00:  ROP Min 
 ROPX.m/hr               32.00:  ROP Max 
 RPMA.rpm               120.90:  RPM Surface Avg 
 RPMN.rpm               120.00:  RPM Surface Min 
 RPMX.rpm               140.00:  RPM Surface Max 
 RRUN.                    0700:  Rig Run Number 
 RTIM.hr                  3.20:  Time Reaming 
 SAZI.deg               109.99:  Azm, Start 
 SDEP.m                5231.01:  Start Depth 
 SIDD.                      No:  Serv Intrp, DD 
 SINC.deg                73.72:  Inc, Start 
 SPPA.psig             3051.00:  SPP Avg 
 SPPN.psig             2950.00:  SPP Min 
 SPPX.psig             3250.00:  SPP Max 
 STIM.      08.00.00 05-Sep-20:  Start Time 
 SVCS.                 DD, MWD:  Services 
 SVER.                    9.20:  Sperry Version 
 TDAT.m                 559.00:  Tot Depth Attmp 
 TDDF.                      No:  Trip for DD 
 TDLG.m                 559.00:  Tot Depth Loggd 
 TFF .                      No:  Trip for Fail 
 TQAA.f-kp               26.49:  Torque Abs Avg 
 TQAN.f-kp               25.00:  Torque Abs Min 
 TQAX.f-kp               27.00:  Torque Abs Max 
 TRRT.°/30m               1.50:  Turn Rotating 
 MRT .                    HCIM:  Maximum Recorded Temperature 
 TTMX.degC               90.20:  Max Tool Temp 
 VS01.                90542671:  Virtual Str1 SN 
 VS02.                90545185:  Virtual Str2 SN 
 VS03.                90602015:  Virtual Str3 SN 
 VS04.                90515230:  Virtual Str4 SN 
 WBMN.klb                 5.00:  WOB Min 
 WOBA.klb                14.79:  WOB Avg 
 WOBX.klb                20.00:  WOB Max 
 YP  .lhf2               29.00:  Yield Point 
~Curve Information Block
#MNEM.UNIT                 API CODE     Curve Description
#---------               -----------    ---------------------------
 TIME.HHMMSS            00 000 000 000:  GT Time & Date
 GTDEPTH.m              00 000 000 000:  GT Depth
 GTPQH.psia             00 000 000 000:  GT HR Quartz Pressure
 GTTQ.degC              00 000 000 000:  GT Quartz Temperature
 GTTN.NONE              00 000 000 000:  GT Test Number
 GTET.sec               00 000 000 000:  GT Elapsed Test Time
 GTTVD.m                00 000 000 000:  GT True Vertical Depth
#Other Information
#
#WARRANTY: Halliburton will use its best efforts to furnish customers with 
#accurate information and interpretations that are part of, and incident to, the services 
#provided.  However, Halliburton cannot and does not warrant the accuracy 
#or correctness of such information and interpretations.  Under no circumstances should any 
#such information or interpretation be relied upon as the sole basis for any drilling, 
#completion, production, or financial decision or any procedure involving any risk to the 
#safety of any drilling venture, drilling rig or its crew or any other third party.  The 
#Customer has full responsibility for all drilling, completion and production operation.  
#Halliburton makes no representations or warranties, either expressed or 
#implied, including, but not limited to, the implied warranties of merchantability or fitness 
#for a particular purpose, with respect to the services rendered.  In no event will 
#Halliburton be liable for failure to obtain any particular results or for 
#any damages, including, but not limited to, indirect, special or consequential damages, 
#resulting from the use of any information or interpretation provided by Halliburton.
#
~A           TIME           GTDEPTH  GTPQH  GTTQ  GTTN   GTET   GTTVD  
# ...
   17:00:08.969.09-Sep-2020 5303.01 6325.90 74.65 19.00 474.83 2557.08
   17:00:09.169.09-Sep-2020 5303.01 6326.15 74.65 19.00 475.03 2557.08
   17:00:09.369.09-Sep-2020 5303.01 6325.99 74.65 19.00 475.23 2557.08
   17:00:09.569.09-Sep-2020 5303.01 6325.99 74.65 19.00 475.43 2557.08
   17:00:09.769.09-Sep-2020 5303.01 6325.98 74.65 19.00 475.63 2557.08
   17:00:09.969.09-Sep-2020 5303.01 6330.31 74.65 19.00 475.83 2557.08
   17:00:10.169.09-Sep-2020 5303.01 6328.41 74.65 19.00 476.03 2557.08
   17:00:10.369.09-Sep-2020 5303.01 6325.51 74.65 19.00 476.23 2557.08
   17:00:10.569.09-Sep-2020 5303.01 6325.51 74.65 19.00 476.43 2557.08
   17:00:10.770.09-Sep-2020 5303.01 6326.09 74.65 19.00 476.63 2557.08
   17:00:10.970.09-Sep-2020 5303.01 6326.99 74.65 19.00 476.83 2557.08
   17:00:11.170.09-Sep-2020 5303.01 6328.01 74.65 19.00 477.03 2557.08
   17:00:11.370.09-Sep-2020 5303.01 6327.73 74.65 19.00 477.23 2557.08
   17:00:11.570.09-Sep-2020 5303.01 6327.73 74.65 19.00 477.43 2557.08
   17:00:11.770.09-Sep-2020 5303.01 6325.88 74.65 19.00 477.63 2557.08
   17:00:11.970.09-Sep-2020 5303.01 6326.23 74.65 19.00 477.83 2557.08
   17:00:12.170.09-Sep-2020 5303.01 6326.16 74.65 19.00 478.03 2557.08
   17:00:12.370.09-Sep-2020 5303.01 6326.46 74.65 19.00 478.23 2557.08
   17:00:12.570.09-Sep-2020 5303.01 6326.46 74.65 19.00 478.43 2557.08
   17:00:12.770.09-Sep-2020 5303.01 6325.46 74.65 19.00 478.63 2557.08
   17:00:12.971.09-Sep-2020 5303.01 6325.32 74.65 19.00 478.83 2557.08
   17:00:13.171.09-Sep-2020 5303.01 6325.26 74.65 19.00 479.03 2557.08
   17:00:13.371.09-Sep-2020 5303.01 6329.33 74.65 19.00 479.23 2557.08
   17:00:13.571.09-Sep-2020 5303.01 6329.33 74.65 19.00 479.43 2557.08
   17:00:13.771.09-Sep-2020 5303.01 6324.80 74.65 19.00 479.63 2557.08
   17:00:13.971.09-Sep-2020 5303.01 6325.53 74.65 19.00 479.83 2557.08
   17:00:14.171.09-Sep-2020 5303.01 6324.90 74.65 19.00 480.03 2557.08
   17:00:14.371.09-Sep-2020 5303.01 6325.68 74.65 19.00 480.23 2557.08
   17:00:14.571.09-Sep-2020 5303.01 6325.68 74.65 19.00 480.43 2557.08
   17:00:14.771.09-Sep-2020 5303.01 6324.27 74.65 19.00 480.63 2557.08
   17:00:14.972.09-Sep-2020 5303.01 6323.79 74.65 19.00 480.83 2557.08
   17:00:15.172.09-Sep-2020 5303.01 6325.48 74.65 19.00 481.03 2557.08
   17:00:15.372.09-Sep-2020 5303.01 6325.44 74.65 19.00 481.23 2557.08
   17:00:15.572.09-Sep-2020 5303.01 6325.44 74.65 19.00 481.43 2557.08
   17:00:15.772.09-Sep-2020 5303.01 6327.59 74.65 19.00 481.63 2557.08
   17:00:15.972.09-Sep-2020 5303.01 6336.93 74.65 19.00 481.83 2557.08
   17:00:16.172.09-Sep-2020 5303.01 6323.65 74.65 19.00 482.03 2557.08
   17:00:16.372.09-Sep-2020 5303.01 6323.23 74.65 19.00 482.23 2557.08
   17:00:16.572.09-Sep-2020 5303.01 6323.23 74.65 19.00 482.43 2557.08
   17:00:16.772.09-Sep-2020 5303.01 6325.21 74.65 19.00 482.63 2557.08
   17:00:16.972.09-Sep-2020 5303.01 6326.50 74.65 19.00 482.83 2557.08
   17:00:17.173.09-Sep-2020 5303.01 6336.86 74.65 19.00 483.03 2557.08
   17:00:17.373.09-Sep-2020 5303.01 6324.37 74.65 19.00 483.23 2557.08
   17:00:17.573.09-Sep-2020 5303.01 6324.37 74.65 19.00 483.43 2557.08
   17:00:17.773.09-Sep-2020 5303.01 6325.31 74.65 19.00 483.63 2557.08
   17:00:17.973.09-Sep-2020 5303.01 6325.91 74.65 19.00 483.83 2557.08
   17:00:18.173.09-Sep-2020 5303.01 6336.90 74.65 19.00 484.03 2557.08
   17:00:18.373.09-Sep-2020 5303.01 6326.53 74.65 19.00 484.23 2557.08
   17:00:18.573.09-Sep-2020 5303.01 6326.53 74.65 19.00 484.43 2557.08
   17:00:18.773.09-Sep-2020 5303.01 6325.61 74.65 19.00 484.63 2557.08
   17:00:18.973.09-Sep-2020 5303.01 6325.44 74.65 19.00 484.83 2557.08
   17:00:19.174.09-Sep-2020 5303.01 6328.06 74.65 19.00 485.03 2557.08
   17:00:19.374.09-Sep-2020 5303.01 6328.14 74.65 19.00 485.23 2557.08
   17:00:19.574.09-Sep-2020 5303.01 6328.14 74.65 19.00 485.43 2557.08
   17:00:19.774.09-Sep-2020 5303.01 6326.21 74.65 19.00 485.63 2557.08
   17:00:19.974.09-Sep-2020 5303.01 6325.73 74.65 19.00 485.83 2557.08
   17:00:20.174.09-Sep-2020 5303.01 6326.12 74.65 19.00 486.03 2557.08
   17:00:20.374.09-Sep-2020 5303.01 6325.62 74.65 19.00 486.23 2557.08
   17:00:20.574.09-Sep-2020 5303.01 6325.62 74.65 19.00 486.43 2557.08
   17:00:20.774.09-Sep-2020 5303.01 6325.41 74.65 19.00 486.63 2557.08
   17:00:20.974.09-Sep-2020 5303.01 6325.37 74.65 19.00 486.83 2557.08
   17:00:21.175.09-Sep-2020 5303.01 6325.36 74.65 19.00 487.03 2557.08
   17:00:21.375.09-Sep-2020 5303.01 6325.21 74.65 19.00 487.23 2557.08
   17:00:21.575.09-Sep-2020 5303.01 6325.21 74.65 19.00 487.43 2557.08
   17:00:21.775.09-Sep-2020 5303.01 6329.22 74.65 19.00 487.63 2557.08
   17:00:21.975.09-Sep-2020 5303.01 6327.67 74.65 19.00 487.83 2557.08
   17:00:22.175.09-Sep-2020 5303.01 6324.69 74.65 19.00 488.03 2557.08
   17:00:22.375.09-Sep-2020 5303.01 6325.51 74.65 19.00 488.23 2557.08
   17:00:22.575.09-Sep-2020 5303.01 6325.51 74.65 19.00 488.43 2557.08
   17:00:22.775.09-Sep-2020 5303.01 6326.05 74.65 19.00 488.63 2557.08
   17:00:22.975.09-Sep-2020 5303.01 6326.77 74.65 19.00 488.83 2557.08
   17:00:23.175.09-Sep-2020 5303.01 6326.50 74.65 19.00 489.03 2557.08
   17:00:23.376.09-Sep-2020 5303.01 6324.56 74.65 19.00 489.23 2557.08
   17:00:23.576.09-Sep-2020 5303.01 6324.56 74.65 19.00 489.43 2557.08
   17:00:23.776.09-Sep-2020 5303.01 6324.57 74.65 19.00 489.63 2557.08
   17:00:23.976.09-Sep-2020 5303.01 6324.45 74.65 19.00 489.83 2557.08
   17:00:24.176.09-Sep-2020 5303.01 6325.90 74.65 19.00 490.03 2557.08
   17:00:24.376.09-Sep-2020 5303.01 6325.37 74.65 19.00 490.23 2557.08
   17:00:24.576.09-Sep-2020 5303.01 6325.37 74.65 19.00 490.44 2557.08
   17:00:24.776.09-Sep-2020 5303.01 6324.38 74.65 19.00 490.64 2557.08
   17:00:24.976.09-Sep-2020 5303.01 6324.24 74.65 19.00 490.84 2557.08
   17:00:25.176.09-Sep-2020 5303.01 6328.26 74.65 19.00 491.04 2557.08
   17:00:25.377.09-Sep-2020 5303.01 6327.08 74.65 19.00 491.24 2557.08
   17:00:25.577.09-Sep-2020 5303.01 6327.08 74.65 19.00 491.44 2557.08
   17:00:25.777.09-Sep-2020 5303.01 6325.50 74.65 19.00 491.64 2557.08
   17:00:25.977.09-Sep-2020 5303.01 6324.57 74.65 19.00 491.84 2557.08
   17:00:26.177.09-Sep-2020 5303.01 6325.51 74.65 19.00 492.04 2557.08
   17:00:26.377.09-Sep-2020 5303.01 6336.23 74.65 19.00 492.24 2557.08
   17:00:26.577.09-Sep-2020 5303.01 6336.23 74.65 19.00 492.44 2557.08
   17:00:26.777.09-Sep-2020 5303.01 6323.71 74.65 19.00 492.64 2557.08
   17:00:26.977.09-Sep-2020 5303.01 6325.86 74.65 19.00 492.84 2557.08
   17:00:27.177.09-Sep-2020 5303.01 6325.09 74.65 19.00 493.04 2557.08
   17:00:27.377.09-Sep-2020 5303.01 6326.03 74.65 19.00 493.24 2557.08
   17:00:27.578.09-Sep-2020 5303.01 6326.03 74.65 19.00 493.44 2557.08
   17:00:27.778.09-Sep-2020 5303.01 6330.01 74.65 19.00 493.64 2557.08
   17:00:27.978.09-Sep-2020 5303.01 6327.99 74.65 19.00 493.84 2557.08
   17:00:28.178.09-Sep-2020 5303.01 6324.29 74.65 19.00 494.04 2557.08
   17:00:28.378.09-Sep-2020 5303.01 6325.48 74.65 19.00 494.24 2557.08
   17:00:28.578.09-Sep-2020 5303.01 6325.48 74.65 19.00 494.44 2557.08
   17:00:28.778.09-Sep-2020 5303.01 6325.89 74.65 19.00 494.64 2557.08
   17:00:28.978.09-Sep-2020 5303.01 6333.27 74.65 19.00 494.84 2557.08
   17:00:29.178.09-Sep-2020 5303.01 6326.79 74.65 19.00 495.04 2557.08
   17:00:29.378.09-Sep-2020 5303.01 6324.87 74.65 19.00 495.24 2557.08
   17:00:29.579.09-Sep-2020 5303.01 6324.87 74.65 19.00 495.44 2557.08
   17:00:29.779.09-Sep-2020 5303.01 6326.21 74.65 19.00 495.64 2557.08
   17:00:29.979.09-Sep-2020 5303.01 6334.11 74.65 19.00 495.84 2557.08
   17:00:30.179.09-Sep-2020 5303.01 6328.26 74.65 19.00 496.04 2557.08
   17:00:30.379.09-Sep-2020 5303.01 6325.72 74.65 19.00 496.24 2557.08
   17:00:30.579.09-Sep-2020 5303.01 6325.72 74.65 19.00 496.44 2557.08
   17:00:30.779.09-Sep-2020 5303.01 6326.52 74.65 19.00 496.64 2557.08
   17:00:30.979.09-Sep-2020 5303.01 6328.71 74.65 19.00 496.84 2557.08
   17:00:31.179.09-Sep-2020 5303.01 6328.15 74.65 19.00 497.04 2557.08
   17:00:31.379.09-Sep-2020 5303.01 6326.50 74.65 19.00 497.24 2557.08
