~Version Information
 VERS.                  2.0:   CWLS log ASCII Standard -VERSION 2.0
 WRAP.                   NO:   One line per depth step
~Well Information Block
#MNEM.UNIT     VALUE/NAME     DESCRIPTION
#---------     -----------    ---------------------------
 STRT.S             20:20:33 09-Sep-20: START TIME 20:20:33 09-Sep-20
 STOP.S             20:28:41 09-Sep-20: STOP TIME  20:28:41 09-Sep-20
 STEP.S                   0.00: STEP TIME
 NULL.                 -999.25: NULL VALUE
 MDS .        Operator Entered:  MAG DATA SOURCE
 PDAT.          Mean Sea Level:  PERMANENT DATUM
 DCON.         Sperry Drilling:  DIRECTNL CONTR
 RIG .              West Azeri:  RIG NAME
 WELL.           C40 (Slot 20):  WELL NAME
 SRVC.     Turan Drilling Engineering:  CONTRACTOR
 FLD .                     ACG:  FIELD NAME
 CTRY.              Azerbaijan:  COUNTRY NAME
 PROV.                    Baku:  PROVINCE
 STAT.                    Baku:  STATE NAME
 REGN.                   EESSA:  REGION
 BASE.              Azerbaijan:  LOGGING EQUIPMENT BASE LOCATION
 COMP.     BP Exploration (Caspian Sea) Ltd:  COMPANY
 WTYP.                Deviated:  WELL TYPE
 SON .        AZ-XX-0906344804:  JOB NUMBER
 FTOP.          Formation Tops:  FORM TOPS DESC
 ILTD.               Lithology:  INTERP LTH DESC
 SVYD.                  Survey:  SURVEY DESC
 DMOD.             Drill Model:  DRILL MOD DESC
 HPTY.       Minimum Curvature:  HOLE POS TYPE
 NREF.                    Grid:  NORTH REFERENCE
 SPUD.               01-Jan-20:  SPUD DATE
 DATE.      00.59.44 15-Sep-20:  END TIME
 STIM.      12.00.00 12-Jun-20:  START TIME
 DMF .             Drill Floor:  DRILL MEAS FROM
 DFST.                        :  DIST FSL TEXT
 DFWT.                        :  DIST FWL TEXT
 API .                        :  API NUMBER
 CNTY.                        :  COUNTY
 UWI .                        :  UNIQUE WELL IDENTIFIER
 LOC .                        :  LOCATION
 LMF .             Drill Floor:  LOG MEASURED FROM
 VSNS.m                   2.88:  VERT SEC N/S
 VSEW.m                  -3.84:  VERT SEC E/W
 AGAP.m                  43.42:  AIR GAP
 APD .m                  43.42:  DEPTH ABOVE PD
 WDMS.m                 118.27:  WD ELEV
 EGL .m                   0.00:  GROUND ELEVATION
 EPD .m                   0.00:  ELEVATION
 AZTC.deg                 6.23:  AZM TOTAL CORR
 GRDC.deg                 0.20:  GRID CORRECTION
 MDEC.deg                 6.43:  MAGNETIC DECL
 MDIP.deg                59.49:  MAGNETIC DIP
 MFLD.nT              50277.00:  MAGNETIC FIELD
 GVFD.g                   1.00:  GRAVITY FIELD
 VSDR.deg               173.20:  VERT SEC DIRECT
 TDD .m                5790.01:  TOTAL DEPTH (DRILLER)
 SDEP.m                5231.01:  START DEPTH
 DFSL.m                   0.00:  DISTANCE FSL
 DFWL.m                   0.00:  DISTANCE FWL
 UTMY.m             4435808.83:  UTM Y
 UTMX.m              526266.40:  UTM X
 WHEW.m                  -3.84:  WELL HEAD E/W
 WHNS.m                   2.88:  WELL HEAD N/S
 LONG.deg                51.31:  LONGITUDE
 LATI.deg                40.06:  LATITUDE
 TVDS.m                  43.42:  TVDSS CORRECTN
 DEP .m                 430.08:  DEPTH
 EKB .m                  43.42:  KB ELEVATION
 EDF .m                  43.42:  DF ELEVATION
 TDL .m                 559.00:  TOTAL DEPTH (LOGGER)
 MAGU.                 1849381:  MAGUTM CHECKSUM
 VSC .                       0:  VS TO CLOSURE
~Parameter Information Block
#MNEM.UNIT       Value        Description
#---------     -----------    ---------------------------
 AV  .mps                 4.87:  Ann Velocity 
 AVMX.mps                 7.08:  Max Ann Veloc 
 AZIF.deg               108.87:  Azm, Final 
 BHAT.                  Rotary:  BHA Type 
 BROT.°/30m               0.35:  Build Rotating 
 BS  .in                  8.50:  Bit Size 
 BSZ .in                  8.50:  Bit Size 
 BTPL.psig              360.00:  Bit Press Loss 
 CABU.                     Yes:  Customer Abuse 
 COMM.                     ÄìU:  Run Comments 1 
 TCS .hr                106.24:  Time Ciculation Ended 
 CV  .mps                 1.77:  Crit Velocity 
 CVMX.mps                 2.03:  Max Crit Veloc 
 DD1 .         Aykhan Agagulov:  Direct Drillr 1 
 DD2 .            Nonso Okofor:  Direct Drillr 2 
 DDSV.               Geo-Pilot:  DD Service 
 DEFF.%                  98.00:  % Det Eff 
 DLRX.°/30m               0.50:  Dogleg Rot Max 
 DLSO.°/30m               0.40:  Dogleg Oriented 
 DLSX.°/30m               0.94:  Dogleg Str Max 
 DRET.      20.30.00 08-Sep-20:  Drill End Time 
 DRST.      22.15.00 06-Sep-20:  Drill Start Tim 
 DTIM.hr                 31.31:  Time Drilling 
 EDEP.m                5790.01:  End Depth 
 ENG1.           Amrah Tahirov:  Engineer 1 
 ENG2.         Dair Mahammadov:  Engineer 2 
 ENG3.           Emil Huseynov:  Engineer 3 
 ETIM.      04.01.04 12-Sep-20:  End Time 
 FLOI.gpm               450.00:  Flow In 
 FLON.gpm               450.00:  Flow In Min 
 FLOS.cptm                2.00:  Fluid Loss 
 FLOX.gpm               450.00:  Flow In Max 
 FTRO.       Formation Presure:  FTWD Run Obj 
 HFLO.                      No:  High Flow 
 HPRE.                      No:  High Pressure 
 HTEM.                      No:  High Temp 
 HYDO.m                   1.80:  Hydro Offset 
 IFIN.deg                72.03:  Inc, Final 
 IMAX.deg                73.72:  Inc Max 
 IMIN.deg                70.94:  Inc Min 
 IMND.m                5508.52:  Inc Min Depth 
 IMXD.m                5253.60:  Inc Max Depth 
 JARR.                      No:  Jarring 
 LETM.      20.30.00 08-Sep-20:  Log End Time 
 LOST.hr                     0:  Lost Rig Time 
 LSTM.      22.15.00 06-Sep-20:  Log Start Time 
 MDCL.ppm             36000.00:  Mud Chlorides 
 MDES.     Inversion Oil/Synthetic:  Mud Desc 
 DFD .sg                  1.44:  Mud Density 
 MDMN.sg                  1.44:  Dens Mud Min 
 MDMX.sg                  1.57:  Dens Mud Max 
 MOIL.                      70:  Run Mud Oil % 
 MOWR.                   70:30:  Run Mud OWR 
 MSND.                       0:  Run Mud Sand % 
 MSOL.                      21:  Run Mud Solids% 
 DFV .spqt               68.00:  Mud Viscosity 
 MWOD.in                  6.75:  MWD Tool OD 
 MWSI.                     Yes:  Serv Intrp, MWD 
 OTIM.hr                174.84:  Time Operating 
 PCON.           Look Like New:  Pad Condition 
 PMAX.psia            10616.93:  Press Op, Max 
 PV  .cP                 50.00:  Mud PV 
 RUN .                     700:  Run Number 
 ROPA.m/hr               14.24:  ROP Avg 
 ROPN.m/hr               10.00:  ROP Min 
 ROPX.m/hr               32.00:  ROP Max 
 RPMA.rpm               120.90:  RPM Surface Avg 
 RPMN.rpm               120.00:  RPM Surface Min 
 RPMX.rpm               140.00:  RPM Surface Max 
 RRUN.                    0700:  Rig Run Number 
 RTIM.hr                  3.20:  Time Reaming 
 SAZI.deg               109.99:  Azm, Start 
 SDEP.m                5231.01:  Start Depth 
 SIDD.                      No:  Serv Intrp, DD 
 SINC.deg                73.72:  Inc, Start 
 SPPA.psig             3051.00:  SPP Avg 
 SPPN.psig             2950.00:  SPP Min 
 SPPX.psig             3250.00:  SPP Max 
 STIM.      08.00.00 05-Sep-20:  Start Time 
 SVCS.                 DD, MWD:  Services 
 SVER.                    9.20:  Sperry Version 
 TDAT.m                 559.00:  Tot Depth Attmp 
 TDDF.                      No:  Trip for DD 
 TDLG.m                 559.00:  Tot Depth Loggd 
 TFF .                      No:  Trip for Fail 
 TQAA.f-kp               26.49:  Torque Abs Avg 
 TQAN.f-kp               25.00:  Torque Abs Min 
 TQAX.f-kp               27.00:  Torque Abs Max 
 TRRT.°/30m               1.50:  Turn Rotating 
 MRT .                    HCIM:  Maximum Recorded Temperature 
 TTMX.degC               90.20:  Max Tool Temp 
 VS01.                90542671:  Virtual Str1 SN 
 VS02.                90545185:  Virtual Str2 SN 
 VS03.                90602015:  Virtual Str3 SN 
 VS04.                90515230:  Virtual Str4 SN 
 WBMN.klb                 5.00:  WOB Min 
 WOBA.klb                14.79:  WOB Avg 
 WOBX.klb                20.00:  WOB Max 
 YP  .lhf2               29.00:  Yield Point 
~Curve Information Block
#MNEM.UNIT                 API CODE     Curve Description
#---------               -----------    ---------------------------
 TIME.HHMMSS            00 000 000 000:  GT Time & Date
 GTDEPTH.m              00 000 000 000:  GT Depth
 GTPQH.psia             00 000 000 000:  GT HR Quartz Pressure
 GTTQ.degC              00 000 000 000:  GT Quartz Temperature
 GTTN.NONE              00 000 000 000:  GT Test Number
 GTET.sec               00 000 000 000:  GT Elapsed Test Time
 GTTVD.m                00 000 000 000:  GT True Vertical Depth
#Other Information
#
#WARRANTY: Halliburton will use its best efforts to furnish customers with 
#accurate information and interpretations that are part of, and incident to, the services 
#provided.  However, Halliburton cannot and does not warrant the accuracy 
#or correctness of such information and interpretations.  Under no circumstances should any 
#such information or interpretation be relied upon as the sole basis for any drilling, 
#completion, production, or financial decision or any procedure involving any risk to the 
#safety of any drilling venture, drilling rig or its crew or any other third party.  The 
#Customer has full responsibility for all drilling, completion and production operation.  
#Halliburton makes no representations or warranties, either expressed or 
#implied, including, but not limited to, the implied warranties of merchantability or fitness 
#for a particular purpose, with respect to the services rendered.  In no event will 
#Halliburton be liable for failure to obtain any particular results or for 
#any damages, including, but not limited to, indirect, special or consequential damages, 
#resulting from the use of any information or interpretation provided by Halliburton.
#
~A           TIME           GTDEPTH  GTPQH  GTTQ  GTTN   GTET   GTTVD  
# ...
   20:21:41.454.09-Sep-2020 5252.51  524.89 73.88 25.00  67.83 2542.44
   20:21:41.654.09-Sep-2020 5252.51  525.71 73.88 25.00  68.03 2542.44
   20:21:41.855.09-Sep-2020 5252.51  525.71 73.88 25.00  68.23 2542.44
   20:21:42.055.09-Sep-2020 5252.51  527.34 73.88 25.00  68.43 2542.44
   20:21:42.255.09-Sep-2020 5252.51  528.10 73.88 25.00  68.63 2542.44
   20:21:42.455.09-Sep-2020 5252.51  528.86 73.88 25.00  68.83 2542.44
   20:21:42.655.09-Sep-2020 5252.51  529.62 73.88 25.00  69.03 2542.44
   20:21:42.855.09-Sep-2020 5252.51  529.62 73.88 25.00  69.23 2542.44
   20:21:43.055.09-Sep-2020 5252.51  531.11 73.88 25.00  69.43 2542.44
   20:21:43.255.09-Sep-2020 5252.51  531.83 73.88 25.00  69.63 2542.44
   20:21:43.455.09-Sep-2020 5252.51  531.77 73.88 25.00  69.83 2542.44
   20:21:43.655.09-Sep-2020 5252.51  533.49 73.89 25.00  70.03 2542.44
   20:21:43.855.09-Sep-2020 5252.51  533.49 73.89 25.00  70.23 2542.44
   20:21:44.056.09-Sep-2020 5252.51  534.97 73.89 25.00  70.43 2542.44
   20:21:44.256.09-Sep-2020 5252.51  535.72 73.89 25.00  70.63 2542.44
   20:21:44.456.09-Sep-2020 5252.51  536.54 73.89 25.00  70.83 2542.44
   20:21:44.656.09-Sep-2020 5252.51  537.17 73.89 25.00  71.03 2542.44
   20:21:44.856.09-Sep-2020 5252.51  537.82 73.89 25.00  71.23 2542.44
   20:21:45.056.09-Sep-2020 5252.51  538.53 73.89 25.00  71.43 2542.44
   20:21:45.256.09-Sep-2020 5252.51  539.19 73.89 25.00  71.63 2542.44
   20:21:45.456.09-Sep-2020 5252.51  539.85 73.89 25.00  71.83 2542.44
   20:21:45.656.09-Sep-2020 5252.51  540.48 73.89 25.00  72.03 2542.44
   20:21:45.856.09-Sep-2020 5252.51  540.48 73.89 25.00  72.23 2542.44
   20:21:46.056.09-Sep-2020 5252.51  541.89 73.89 25.00  72.43 2542.44
   20:21:46.257.09-Sep-2020 5252.51  542.56 73.89 25.00  72.63 2542.44
   20:21:46.457.09-Sep-2020 5252.51  543.02 73.89 25.00  72.83 2542.44
   20:21:46.657.09-Sep-2020 5252.51  542.72 73.89 25.00  73.03 2542.44
   20:21:46.857.09-Sep-2020 5252.51  542.72 73.89 25.00  73.23 2542.44
   20:21:47.057.09-Sep-2020 5252.51  544.63 73.89 25.00  73.43 2542.44
   20:21:47.257.09-Sep-2020 5252.51  545.22 73.89 25.00  73.63 2542.44
   20:21:47.457.09-Sep-2020 5252.51  545.71 73.89 25.00  73.83 2542.44
   20:21:47.657.09-Sep-2020 5252.51  546.41 73.89 25.00  74.03 2542.44
   20:21:47.857.09-Sep-2020 5252.51  546.41 73.89 25.00  74.23 2542.44
   20:21:48.057.09-Sep-2020 5252.51  547.41 73.90 25.00  74.43 2542.44
   20:21:48.257.09-Sep-2020 5252.51  547.87 73.90 25.00  74.63 2542.44
   20:21:48.458.09-Sep-2020 5252.51  548.39 73.90 25.00  74.83 2542.44
   20:21:48.658.09-Sep-2020 5252.51  548.96 73.90 25.00  75.03 2542.44
   20:21:48.858.09-Sep-2020 5252.51  548.96 73.90 25.00  75.23 2542.44
   20:21:49.058.09-Sep-2020 5252.51  550.00 73.90 25.00  75.43 2542.44
   20:21:49.258.09-Sep-2020 5252.51  549.76 73.90 25.00  75.63 2542.44
   20:21:49.458.09-Sep-2020 5252.51  551.23 73.90 25.00  75.83 2542.44
   20:21:49.658.09-Sep-2020 5252.51  551.59 73.90 25.00  76.04 2542.44
   20:21:49.858.09-Sep-2020 5252.51  551.59 73.90 25.00  76.24 2542.44
   20:21:50.058.09-Sep-2020 5252.51  552.59 73.90 25.00  76.44 2542.44
   20:21:50.258.09-Sep-2020 5252.51  553.22 73.90 25.00  76.64 2542.44
   20:21:50.458.09-Sep-2020 5252.51  553.34 73.90 25.00  76.84 2542.44
   20:21:50.659.09-Sep-2020 5252.51  553.81 73.90 25.00  77.04 2542.44
   20:21:50.859.09-Sep-2020 5252.51  553.81 73.90 25.00  77.24 2542.44
   20:21:51.059.09-Sep-2020 5252.51  555.15 73.90 25.00  77.44 2542.44
   20:21:51.259.09-Sep-2020 5252.51  555.62 73.90 25.00  77.64 2542.44
   20:21:51.459.09-Sep-2020 5252.51  556.21 73.90 25.00  77.84 2542.44
   20:21:51.659.09-Sep-2020 5252.51  556.55 73.90 25.00  78.04 2542.44
   20:21:51.859.09-Sep-2020 5252.51  556.55 73.90 25.00  78.24 2542.44
   20:21:52.059.09-Sep-2020 5252.51  556.80 73.90 25.00  78.44 2542.44
   20:21:52.259.09-Sep-2020 5252.51  558.24 73.90 25.00  78.64 2542.44
   20:21:52.459.09-Sep-2020 5252.51  558.55 73.90 25.00  78.84 2542.44
   20:21:52.660.09-Sep-2020 5252.51  558.99 73.90 25.00  79.04 2542.44
   20:21:52.860.09-Sep-2020 5252.51  559.46 73.90 25.00  79.24 2542.44
   20:21:53.060.09-Sep-2020 5252.51  560.02 73.90 25.00  79.44 2542.44
   20:21:53.260.09-Sep-2020 5252.51  560.36 73.91 25.00  79.64 2542.44
   20:21:53.460.09-Sep-2020 5252.51  560.76 73.91 25.00  79.84 2542.44
   20:21:53.660.09-Sep-2020 5252.51  561.23 73.91 25.00  80.04 2542.44
   20:21:53.860.09-Sep-2020 5252.51  561.23 73.91 25.00  80.24 2542.44
   20:21:54.060.09-Sep-2020 5252.51  562.14 73.91 25.00  80.44 2542.44
   20:21:54.260.09-Sep-2020 5252.51  562.56 73.91 25.00  80.64 2542.44
   20:21:54.460.09-Sep-2020 5252.51  562.98 73.91 25.00  80.84 2542.44
   20:21:54.660.09-Sep-2020 5252.51  564.61 73.91 25.00  81.04 2542.44
   20:21:54.861.09-Sep-2020 5252.51  564.61 73.91 25.00  81.24 2542.44
   20:21:55.061.09-Sep-2020 5252.51  566.44 73.91 25.00  81.44 2542.44
   20:21:55.261.09-Sep-2020 5252.51  566.84 73.91 25.00  81.64 2542.44
   20:21:55.461.09-Sep-2020 5252.51  567.16 73.91 25.00  81.84 2542.44
   20:21:55.661.09-Sep-2020 5252.51  567.71 73.91 25.00  82.04 2542.44
   20:21:55.861.09-Sep-2020 5252.51  568.02 73.91 25.00  82.24 2542.44
   20:21:56.061.09-Sep-2020 5252.51  568.44 73.91 25.00  82.44 2542.44
   20:21:56.261.09-Sep-2020 5252.51  568.86 73.91 25.00  82.64 2542.44
   20:21:56.461.09-Sep-2020 5252.51  569.24 73.91 25.00  82.84 2542.44
   20:21:56.661.09-Sep-2020 5252.51  569.59 73.91 25.00  83.04 2542.44
   20:21:56.861.09-Sep-2020 5252.51  569.59 73.91 25.00  83.24 2542.44
   20:21:57.062.09-Sep-2020 5252.51  570.32 73.91 25.00  83.44 2542.44
   20:21:57.262.09-Sep-2020 5252.51  570.68 73.91 25.00  83.64 2542.44
   20:21:57.462.09-Sep-2020 5252.51  571.05 73.91 25.00  83.84 2542.44
   20:21:57.662.09-Sep-2020 5252.51  571.45 73.91 25.00  84.04 2542.44
   20:21:57.862.09-Sep-2020 5252.51  571.45 73.91 25.00  84.24 2542.44
   20:21:58.062.09-Sep-2020 5252.51  572.55 73.91 25.00  84.44 2542.44
   20:21:58.262.09-Sep-2020 5252.51  572.87 73.91 25.00  84.64 2542.44
   20:21:58.462.09-Sep-2020 5252.51  573.22 73.91 25.00  84.84 2542.44
   20:21:58.662.09-Sep-2020 5252.51  573.52 73.92 25.00  85.04 2542.44
   20:21:58.862.09-Sep-2020 5252.51  573.52 73.92 25.00  85.24 2542.44
   20:21:59.062.09-Sep-2020 5252.51  573.56 73.92 25.00  85.44 2542.44
   20:21:59.263.09-Sep-2020 5252.51  574.83 73.92 25.00  85.64 2542.44
   20:21:59.463.09-Sep-2020 5252.51  574.99 73.92 25.00  85.84 2542.44
   20:21:59.663.09-Sep-2020 5252.51  575.28 73.92 25.00  86.04 2542.44
   20:21:59.863.09-Sep-2020 5252.51  575.63 73.92 25.00  86.24 2542.44
   20:22:00.063.09-Sep-2020 5252.51  575.38 73.92 25.00  86.44 2542.44
   20:22:00.263.09-Sep-2020 5252.51  576.64 73.92 25.00  86.64 2542.44
   20:22:00.463.09-Sep-2020 5252.51  576.83 73.92 25.00  86.84 2542.44
   20:22:00.663.09-Sep-2020 5252.51  577.15 73.92 25.00  87.04 2542.44
   20:22:00.863.09-Sep-2020 5252.51  577.15 73.92 25.00  87.24 2542.44
   20:22:01.063.09-Sep-2020 5252.51  577.63 73.92 25.00  87.44 2542.44
   20:22:01.263.09-Sep-2020 5252.51  578.34 73.92 25.00  87.64 2542.44
   20:22:01.464.09-Sep-2020 5252.51  578.67 73.92 25.00  87.84 2542.44
   20:22:01.664.09-Sep-2020 5252.51  579.00 73.92 25.00  88.04 2542.44
   20:22:01.864.09-Sep-2020 5252.51  579.00 73.92 25.00  88.24 2542.44
   20:22:02.064.09-Sep-2020 5252.51  579.69 73.92 25.00  88.44 2542.44
   20:22:02.264.09-Sep-2020 5252.51  580.08 73.92 25.00  88.64 2542.44
   20:22:02.464.09-Sep-2020 5252.51  579.72 73.92 25.00  88.84 2542.44
   20:22:02.664.09-Sep-2020 5252.51  581.18 73.92 25.00  89.04 2542.44
   20:22:02.864.09-Sep-2020 5252.51  581.18 73.92 25.00  89.24 2542.44
   20:22:03.064.09-Sep-2020 5252.51  581.73 73.92 25.00  89.44 2542.44
   20:22:03.264.09-Sep-2020 5252.51  582.06 73.92 25.00  89.64 2542.44
   20:22:03.464.09-Sep-2020 5252.51  582.52 73.92 25.00  89.84 2542.44
   20:22:03.665.09-Sep-2020 5252.51  582.77 73.92 25.00  90.04 2542.44
   20:22:03.865.09-Sep-2020 5252.51  583.06 73.92 25.00  90.24 2542.44
