~Version Information
 VERS.                  2.0:   CWLS log ASCII Standard -VERSION 2.0
 WRAP.                   NO:   One line per depth step
~Well Information Block
#MNEM.UNIT     VALUE/NAME     DESCRIPTION
#---------     -----------    ---------------------------
 STRT.S             20:20:33 09-Sep-20: START TIME 20:20:33 09-Sep-20
 STOP.S             20:28:41 09-Sep-20: STOP TIME  20:28:41 09-Sep-20
 STEP.S                   0.00: STEP TIME
 NULL.                 -999.25: NULL VALUE
 MDS .        Operator Entered:  MAG DATA SOURCE
 PDAT.          Mean Sea Level:  PERMANENT DATUM
 DCON.         Sperry Drilling:  DIRECTNL CONTR
 RIG .              West Azeri:  RIG NAME
 WELL.           C40 (Slot 20):  WELL NAME
 SRVC.     Turan Drilling Engineering:  CONTRACTOR
 FLD .                     ACG:  FIELD NAME
 CTRY.              Azerbaijan:  COUNTRY NAME
 PROV.                    Baku:  PROVINCE
 STAT.                    Baku:  STATE NAME
 REGN.                   EESSA:  REGION
 BASE.              Azerbaijan:  LOGGING EQUIPMENT BASE LOCATION
 COMP.     BP Exploration (Caspian Sea) Ltd:  COMPANY
 WTYP.                Deviated:  WELL TYPE
 SON .        AZ-XX-0906344804:  JOB NUMBER
 FTOP.          Formation Tops:  FORM TOPS DESC
 ILTD.               Lithology:  INTERP LTH DESC
 SVYD.                  Survey:  SURVEY DESC
 DMOD.             Drill Model:  DRILL MOD DESC
 HPTY.       Minimum Curvature:  HOLE POS TYPE
 NREF.                    Grid:  NORTH REFERENCE
 SPUD.               01-Jan-20:  SPUD DATE
 DATE.      00.59.44 15-Sep-20:  END TIME
 STIM.      12.00.00 12-Jun-20:  START TIME
 DMF .             Drill Floor:  DRILL MEAS FROM
 DFST.                        :  DIST FSL TEXT
 DFWT.                        :  DIST FWL TEXT
 API .                        :  API NUMBER
 CNTY.                        :  COUNTY
 UWI .                        :  UNIQUE WELL IDENTIFIER
 LOC .                        :  LOCATION
 LMF .             Drill Floor:  LOG MEASURED FROM
 VSNS.m                   2.88:  VERT SEC N/S
 VSEW.m                  -3.84:  VERT SEC E/W
 AGAP.m                  43.42:  AIR GAP
 APD .m                  43.42:  DEPTH ABOVE PD
 WDMS.m                 118.27:  WD ELEV
 EGL .m                   0.00:  GROUND ELEVATION
 EPD .m                   0.00:  ELEVATION
 AZTC.deg                 6.23:  AZM TOTAL CORR
 GRDC.deg                 0.20:  GRID CORRECTION
 MDEC.deg                 6.43:  MAGNETIC DECL
 MDIP.deg                59.49:  MAGNETIC DIP
 MFLD.nT              50277.00:  MAGNETIC FIELD
 GVFD.g                   1.00:  GRAVITY FIELD
 VSDR.deg               173.20:  VERT SEC DIRECT
 TDD .m                5790.01:  TOTAL DEPTH (DRILLER)
 SDEP.m                5231.01:  START DEPTH
 DFSL.m                   0.00:  DISTANCE FSL
 DFWL.m                   0.00:  DISTANCE FWL
 UTMY.m             4435808.83:  UTM Y
 UTMX.m              526266.40:  UTM X
 WHEW.m                  -3.84:  WELL HEAD E/W
 WHNS.m                   2.88:  WELL HEAD N/S
 LONG.deg                51.31:  LONGITUDE
 LATI.deg                40.06:  LATITUDE
 TVDS.m                  43.42:  TVDSS CORRECTN
 DEP .m                 430.08:  DEPTH
 EKB .m                  43.42:  KB ELEVATION
 EDF .m                  43.42:  DF ELEVATION
 TDL .m                 559.00:  TOTAL DEPTH (LOGGER)
 MAGU.                 1849381:  MAGUTM CHECKSUM
 VSC .                       0:  VS TO CLOSURE
~Parameter Information Block
#MNEM.UNIT       Value        Description
#---------     -----------    ---------------------------
 AV  .mps                 4.87:  Ann Velocity 
 AVMX.mps                 7.08:  Max Ann Veloc 
 AZIF.deg               108.87:  Azm, Final 
 BHAT.                  Rotary:  BHA Type 
 BROT.°/30m               0.35:  Build Rotating 
 BS  .in                  8.50:  Bit Size 
 BSZ .in                  8.50:  Bit Size 
 BTPL.psig              360.00:  Bit Press Loss 
 CABU.                     Yes:  Customer Abuse 
 COMM.                     ÄìU:  Run Comments 1 
 TCS .hr                106.24:  Time Ciculation Ended 
 CV  .mps                 1.77:  Crit Velocity 
 CVMX.mps                 2.03:  Max Crit Veloc 
 DD1 .         Aykhan Agagulov:  Direct Drillr 1 
 DD2 .            Nonso Okofor:  Direct Drillr 2 
 DDSV.               Geo-Pilot:  DD Service 
 DEFF.%                  98.00:  % Det Eff 
 DLRX.°/30m               0.50:  Dogleg Rot Max 
 DLSO.°/30m               0.40:  Dogleg Oriented 
 DLSX.°/30m               0.94:  Dogleg Str Max 
 DRET.      20.30.00 08-Sep-20:  Drill End Time 
 DRST.      22.15.00 06-Sep-20:  Drill Start Tim 
 DTIM.hr                 31.31:  Time Drilling 
 EDEP.m                5790.01:  End Depth 
 ENG1.           Amrah Tahirov:  Engineer 1 
 ENG2.         Dair Mahammadov:  Engineer 2 
 ENG3.           Emil Huseynov:  Engineer 3 
 ETIM.      04.01.04 12-Sep-20:  End Time 
 FLOI.gpm               450.00:  Flow In 
 FLON.gpm               450.00:  Flow In Min 
 FLOS.cptm                2.00:  Fluid Loss 
 FLOX.gpm               450.00:  Flow In Max 
 FTRO.       Formation Presure:  FTWD Run Obj 
 HFLO.                      No:  High Flow 
 HPRE.                      No:  High Pressure 
 HTEM.                      No:  High Temp 
 HYDO.m                   1.80:  Hydro Offset 
 IFIN.deg                72.03:  Inc, Final 
 IMAX.deg                73.72:  Inc Max 
 IMIN.deg                70.94:  Inc Min 
 IMND.m                5508.52:  Inc Min Depth 
 IMXD.m                5253.60:  Inc Max Depth 
 JARR.                      No:  Jarring 
 LETM.      20.30.00 08-Sep-20:  Log End Time 
 LOST.hr                     0:  Lost Rig Time 
 LSTM.      22.15.00 06-Sep-20:  Log Start Time 
 MDCL.ppm             36000.00:  Mud Chlorides 
 MDES.     Inversion Oil/Synthetic:  Mud Desc 
 DFD .sg                  1.44:  Mud Density 
 MDMN.sg                  1.44:  Dens Mud Min 
 MDMX.sg                  1.57:  Dens Mud Max 
 MOIL.                      70:  Run Mud Oil % 
 MOWR.                   70:30:  Run Mud OWR 
 MSND.                       0:  Run Mud Sand % 
 MSOL.                      21:  Run Mud Solids% 
 DFV .spqt               68.00:  Mud Viscosity 
 MWOD.in                  6.75:  MWD Tool OD 
 MWSI.                     Yes:  Serv Intrp, MWD 
 OTIM.hr                174.84:  Time Operating 
 PCON.           Look Like New:  Pad Condition 
 PMAX.psia            10616.93:  Press Op, Max 
 PV  .cP                 50.00:  Mud PV 
 RUN .                     700:  Run Number 
 ROPA.m/hr               14.24:  ROP Avg 
 ROPN.m/hr               10.00:  ROP Min 
 ROPX.m/hr               32.00:  ROP Max 
 RPMA.rpm               120.90:  RPM Surface Avg 
 RPMN.rpm               120.00:  RPM Surface Min 
 RPMX.rpm               140.00:  RPM Surface Max 
 RRUN.                    0700:  Rig Run Number 
 RTIM.hr                  3.20:  Time Reaming 
 SAZI.deg               109.99:  Azm, Start 
 SDEP.m                5231.01:  Start Depth 
 SIDD.                      No:  Serv Intrp, DD 
 SINC.deg                73.72:  Inc, Start 
 SPPA.psig             3051.00:  SPP Avg 
 SPPN.psig             2950.00:  SPP Min 
 SPPX.psig             3250.00:  SPP Max 
 STIM.      08.00.00 05-Sep-20:  Start Time 
 SVCS.                 DD, MWD:  Services 
 SVER.                    9.20:  Sperry Version 
 TDAT.m                 559.00:  Tot Depth Attmp 
 TDDF.                      No:  Trip for DD 
 TDLG.m                 559.00:  Tot Depth Loggd 
 TFF .                      No:  Trip for Fail 
 TQAA.f-kp               26.49:  Torque Abs Avg 
 TQAN.f-kp               25.00:  Torque Abs Min 
 TQAX.f-kp               27.00:  Torque Abs Max 
 TRRT.°/30m               1.50:  Turn Rotating 
 MRT .                    HCIM:  Maximum Recorded Temperature 
 TTMX.degC               90.20:  Max Tool Temp 
 VS01.                90542671:  Virtual Str1 SN 
 VS02.                90545185:  Virtual Str2 SN 
 VS03.                90602015:  Virtual Str3 SN 
 VS04.                90515230:  Virtual Str4 SN 
 WBMN.klb                 5.00:  WOB Min 
 WOBA.klb                14.79:  WOB Avg 
 WOBX.klb                20.00:  WOB Max 
 YP  .lhf2               29.00:  Yield Point 
~Curve Information Block
#MNEM.UNIT                 API CODE     Curve Description
#---------               -----------    ---------------------------
 TIME.HHMMSS            00 000 000 000:  GT Time & Date
 GTDEPTH.m              00 000 000 000:  GT Depth
 GTPQH.psia             00 000 000 000:  GT HR Quartz Pressure
 GTTQ.degC              00 000 000 000:  GT Quartz Temperature
 GTTN.NONE              00 000 000 000:  GT Test Number
 GTET.sec               00 000 000 000:  GT Elapsed Test Time
 GTTVD.m                00 000 000 000:  GT True Vertical Depth
#Other Information
#
#WARRANTY: Halliburton will use its best efforts to furnish customers with 
#accurate information and interpretations that are part of, and incident to, the services 
#provided.  However, Halliburton cannot and does not warrant the accuracy 
#or correctness of such information and interpretations.  Under no circumstances should any 
#such information or interpretation be relied upon as the sole basis for any drilling, 
#completion, production, or financial decision or any procedure involving any risk to the 
#safety of any drilling venture, drilling rig or its crew or any other third party.  The 
#Customer has full responsibility for all drilling, completion and production operation.  
#Halliburton makes no representations or warranties, either expressed or 
#implied, including, but not limited to, the implied warranties of merchantability or fitness 
#for a particular purpose, with respect to the services rendered.  In no event will 
#Halliburton be liable for failure to obtain any particular results or for 
#any damages, including, but not limited to, indirect, special or consequential damages, 
#resulting from the use of any information or interpretation provided by Halliburton.
#
~A           TIME           GTDEPTH  GTPQH  GTTQ  GTTN   GTET   GTTVD  
# ...
   20:28:05.832.09-Sep-2020 5252.51  501.19 74.02 25.00 452.21 2542.44
   20:28:06.032.09-Sep-2020 5252.51  501.19 74.02 25.00 452.41 2542.44
   20:28:06.232.09-Sep-2020 5252.51  501.45 74.02 25.00 452.61 2542.44
   20:28:06.432.09-Sep-2020 5252.51  501.18 74.02 25.00 452.81 2542.44
   20:28:06.632.09-Sep-2020 5252.51  501.25 74.02 25.00 453.01 2542.44
   20:28:06.832.09-Sep-2020 5252.51  517.42 74.02 25.00 453.21 2542.44
   20:28:07.032.09-Sep-2020 5252.51  517.42 74.02 25.00 453.41 2542.44
   20:28:07.232.09-Sep-2020 5252.51 1158.29 74.02 25.00 453.61 2542.44
   20:28:07.432.09-Sep-2020 5252.51 6341.11 74.02 25.00 453.81 2542.44
   20:28:07.632.09-Sep-2020 5252.51 6333.07 74.02 25.00 454.01 2542.44
   20:28:07.832.09-Sep-2020 5252.51 6330.40 74.02 25.00 454.21 2542.44
   20:28:08.033.09-Sep-2020 5252.51 6330.40 74.02 25.00 454.41 2542.44
   20:28:08.233.09-Sep-2020 5252.51 6332.12 74.02 25.00 454.61 2542.44
   20:28:08.433.09-Sep-2020 5252.51 6333.51 74.03 25.00 454.81 2542.44
   20:28:08.633.09-Sep-2020 5252.51 6334.66 74.03 25.00 455.01 2542.44
   20:28:08.833.09-Sep-2020 5252.51 6335.89 74.03 25.00 455.21 2542.44
   20:28:09.033.09-Sep-2020 5252.51 6335.89 74.03 25.00 455.41 2542.44
   20:28:09.233.09-Sep-2020 5252.51 6338.93 74.04 25.00 455.61 2542.44
   20:28:09.433.09-Sep-2020 5252.51 6341.05 74.04 25.00 455.81 2542.44
   20:28:09.633.09-Sep-2020 5252.51 6349.67 74.05 25.00 456.01 2542.44
   20:28:09.833.09-Sep-2020 5252.51 6342.28 74.05 25.00 456.21 2542.44
   20:28:10.033.09-Sep-2020 5252.51 6342.28 74.05 25.00 456.41 2542.44
   20:28:10.234.09-Sep-2020 5252.51 6345.07 74.06 25.00 456.61 2542.44
   20:28:10.434.09-Sep-2020 5252.51 6346.04 74.07 25.00 456.81 2542.44
   20:28:10.634.09-Sep-2020 5252.51 6347.23 74.07 25.00 457.01 2542.44
   20:28:10.834.09-Sep-2020 5252.51 6348.37 74.08 25.00 457.21 2542.44
   20:28:11.034.09-Sep-2020 5252.51 6348.37 74.08 25.00 457.41 2542.44
   20:28:11.234.09-Sep-2020 5252.51 6347.59 74.09 25.00 457.61 2542.44
   20:28:11.434.09-Sep-2020 5252.51 6347.73 74.09 25.00 457.81 2542.44
   20:28:11.634.09-Sep-2020 5252.51 6348.26 74.10 25.00 458.01 2542.44
   20:28:11.834.09-Sep-2020 5252.51 6349.26 74.10 25.00 458.21 2542.44
   20:28:12.034.09-Sep-2020 5252.51 6349.26 74.10 25.00 458.41 2542.44
   20:28:12.234.09-Sep-2020 5252.51 6348.32 74.11 25.00 458.61 2542.44
   20:28:12.435.09-Sep-2020 5252.51 6348.46 74.12 25.00 458.81 2542.44
   20:28:12.635.09-Sep-2020 5252.51 6348.59 74.12 25.00 459.01 2542.44
   20:28:12.835.09-Sep-2020 5252.51 6350.09 74.13 25.00 459.21 2542.44
   20:28:13.035.09-Sep-2020 5252.51 6350.09 74.13 25.00 459.41 2542.44
   20:28:13.235.09-Sep-2020 5252.51 6347.64 74.14 25.00 459.61 2542.44
   20:28:13.435.09-Sep-2020 5252.51 6350.25 74.14 25.00 459.81 2542.44
   20:28:13.635.09-Sep-2020 5252.51 6348.82 74.15 25.00 460.01 2542.44
   20:28:13.835.09-Sep-2020 5252.51 6350.15 74.15 25.00 460.21 2542.44
   20:28:14.035.09-Sep-2020 5252.51 6356.99 74.15 25.00 460.41 2542.44
   20:28:14.235.09-Sep-2020 5252.51 6352.13 74.16 25.00 460.61 2542.44
   20:28:14.435.09-Sep-2020 5252.51 6350.90 74.16 25.00 460.81 2542.44
   20:28:14.636.09-Sep-2020 5252.51 6350.36 74.16 25.00 461.01 2542.44
   20:28:14.836.09-Sep-2020 5252.51 6349.55 74.17 25.00 461.21 2542.44
   20:28:15.036.09-Sep-2020 5252.51 6349.55 74.17 25.00 461.41 2542.44
   20:28:15.236.09-Sep-2020 5252.51 6351.58 74.17 25.00 461.61 2542.44
   20:28:15.436.09-Sep-2020 5252.51 6359.75 74.18 25.00 461.81 2542.44
   20:28:15.636.09-Sep-2020 5252.51 6350.73 74.18 25.00 462.01 2542.44
   20:28:15.836.09-Sep-2020 5252.51 6350.91 74.18 25.00 462.21 2542.44
   20:28:16.036.09-Sep-2020 5252.51 6350.91 74.18 25.00 462.41 2542.44
   20:28:16.236.09-Sep-2020 5252.51 6350.78 74.19 25.00 462.61 2542.44
   20:28:16.436.09-Sep-2020 5252.51 6351.01 74.19 25.00 462.81 2542.44
   20:28:16.636.09-Sep-2020 5252.51 6352.62 74.19 25.00 463.01 2542.44
   20:28:16.837.09-Sep-2020 5252.51 6352.58 74.19 25.00 463.21 2542.44
   20:28:17.037.09-Sep-2020 5252.51 6352.58 74.19 25.00 463.41 2542.44
   20:28:17.237.09-Sep-2020 5252.51 6345.84 74.19 25.00 463.61 2542.44
   20:28:17.437.09-Sep-2020 5252.51 6352.69 74.20 25.00 463.81 2542.44
   20:28:17.637.09-Sep-2020 5252.51 6350.66 74.20 25.00 464.01 2542.44
   20:28:17.837.09-Sep-2020 5252.51 6351.78 74.20 25.00 464.21 2542.44
   20:28:18.037.09-Sep-2020 5252.51 6351.78 74.20 25.00 464.41 2542.44
   20:28:18.237.09-Sep-2020 5252.51 6354.63 74.20 25.00 464.61 2542.44
   20:28:18.437.09-Sep-2020 5252.51 6350.99 74.20 25.00 464.81 2542.44
   20:28:18.637.09-Sep-2020 5252.51 6352.06 74.20 25.00 465.01 2542.44
   20:28:18.837.09-Sep-2020 5252.51 6350.72 74.20 25.00 465.21 2542.44
   20:28:19.038.09-Sep-2020 5252.51 6350.72 74.20 25.00 465.41 2542.44
   20:28:19.238.09-Sep-2020 5252.51 6353.31 74.20 25.00 465.61 2542.44
   20:28:19.438.09-Sep-2020 5252.51 6353.29 74.20 25.00 465.81 2542.44
   20:28:19.638.09-Sep-2020 5252.51 6351.26 74.21 25.00 466.01 2542.44
   20:28:19.838.09-Sep-2020 5252.51 6350.75 74.21 25.00 466.21 2542.44
   20:28:20.038.09-Sep-2020 5252.51 6350.75 74.21 25.00 466.41 2542.44
   20:28:20.238.09-Sep-2020 5252.51 6351.49 74.21 25.00 466.62 2542.44
   20:28:20.438.09-Sep-2020 5252.51 6351.35 74.21 25.00 466.82 2542.44
   20:28:20.638.09-Sep-2020 5252.51 6351.28 74.21 25.00 467.02 2542.44
   20:28:20.838.09-Sep-2020 5252.51 6350.75 74.21 25.00 467.22 2542.44
   20:28:21.039.09-Sep-2020 5252.51 6350.75 74.21 25.00 467.42 2542.44
   20:28:21.239.09-Sep-2020 5252.51 6350.78 74.21 25.00 467.62 2542.44
   20:28:21.439.09-Sep-2020 5252.51 6350.91 74.21 25.00 467.82 2542.44
   20:28:21.639.09-Sep-2020 5252.51 6351.11 74.21 25.00 468.02 2542.44
   20:28:21.839.09-Sep-2020 5252.51 6362.46 74.21 25.00 468.22 2542.44
   20:28:22.039.09-Sep-2020 5252.51 6362.46 74.21 25.00 468.42 2542.44
   20:28:22.239.09-Sep-2020 5252.51 6353.30 74.21 25.00 468.62 2542.44
   20:28:22.439.09-Sep-2020 5252.51 6350.94 74.21 25.00 468.82 2542.44
   20:28:22.639.09-Sep-2020 5252.51 6352.19 74.21 25.00 469.02 2542.44
   20:28:22.839.09-Sep-2020 5252.51 6350.62 74.21 25.00 469.22 2542.44
   20:28:23.039.09-Sep-2020 5252.51 6350.62 74.21 25.00 469.42 2542.44
   20:28:23.240.09-Sep-2020 5252.51 6350.87 74.21 25.00 469.62 2542.44
   20:28:23.440.09-Sep-2020 5252.51 6352.36 74.21 25.00 469.82 2542.44
   20:28:23.640.09-Sep-2020 5252.51 6351.49 74.21 25.00 470.02 2542.44
   20:28:23.840.09-Sep-2020 5252.51 6351.99 74.21 25.00 470.22 2542.44
   20:28:24.040.09-Sep-2020 5252.51 6351.99 74.21 25.00 470.42 2542.44
   20:28:24.240.09-Sep-2020 5252.51 6350.87 74.20 25.00 470.62 2542.44
   20:28:24.440.09-Sep-2020 5252.51 6351.04 74.20 25.00 470.82 2542.44
   20:28:24.640.09-Sep-2020 5252.51 6350.87 74.20 25.00 471.02 2542.44
   20:28:24.840.09-Sep-2020 5252.51 6351.35 74.20 25.00 471.22 2542.44
   20:28:25.040.09-Sep-2020 5252.51 6351.35 74.20 25.00 471.42 2542.44
   20:28:25.240.09-Sep-2020 5252.51 6362.46 74.20 25.00 471.62 2542.44
   20:28:25.441.09-Sep-2020 5252.51 6345.76 74.20 25.00 471.82 2542.44
   20:28:25.641.09-Sep-2020 5252.51 6352.95 74.20 25.00 472.02 2542.44
   20:28:25.841.09-Sep-2020 5252.51 6350.79 74.20 25.00 472.22 2542.44
   20:28:26.041.09-Sep-2020 5252.51 6350.79 74.20 25.00 472.42 2542.44
   20:28:26.241.09-Sep-2020 5252.51 6352.54 74.20 25.00 472.62 2542.44
   20:28:26.441.09-Sep-2020 5252.51 6362.93 74.20 25.00 472.82 2542.44
   20:28:26.641.09-Sep-2020 5252.51 6349.60 74.20 25.00 473.02 2542.44
   20:28:26.841.09-Sep-2020 5252.51 6353.28 74.20 25.00 473.22 2542.44
   20:28:27.041.09-Sep-2020 5252.51 6353.28 74.20 25.00 473.42 2542.44
   20:28:27.241.09-Sep-2020 5252.51 6353.42 74.20 25.00 473.62 2542.44
   20:28:27.441.09-Sep-2020 5252.51 6352.37 74.20 25.00 473.82 2542.44
   20:28:27.642.09-Sep-2020 5252.51 6363.92 74.20 25.00 474.02 2542.44
   20:28:27.842.09-Sep-2020 5252.51 6352.96 74.20 25.00 474.22 2542.44
   20:28:28.042.09-Sep-2020 5252.51 6352.96 74.20 25.00 474.42 2542.44
   20:28:28.242.09-Sep-2020 5252.51 6353.17 74.20 25.00 474.62 2542.44
