~Version Information
 VERS.                  2.0:   CWLS log ASCII Standard -VERSION 2.0
 WRAP.                   NO:   One line per depth step
~Well Information Block
#MNEM.UNIT     VALUE/NAME     DESCRIPTION
#---------     -----------    ---------------------------
 STRT.S             10:16:33 09-Sep-20: START TIME 10:16:33 09-Sep-20
 STOP.S             10:23:34 09-Sep-20: STOP TIME  10:23:34 09-Sep-20
 STEP.S                   0.00: STEP TIME
 NULL.                 -999.25: NULL VALUE
 MDS .        Operator Entered:  MAG DATA SOURCE
 PDAT.          Mean Sea Level:  PERMANENT DATUM
 DCON.         Sperry Drilling:  DIRECTNL CONTR
 RIG .              West Azeri:  RIG NAME
 WELL.           C40 (Slot 20):  WELL NAME
 SRVC.     Turan Drilling Engineering:  CONTRACTOR
 FLD .                     ACG:  FIELD NAME
 CTRY.              Azerbaijan:  COUNTRY NAME
 PROV.                    Baku:  PROVINCE
 STAT.                    Baku:  STATE NAME
 REGN.                   EESSA:  REGION
 BASE.              Azerbaijan:  LOGGING EQUIPMENT BASE LOCATION
 COMP.     BP Exploration (Caspian Sea) Ltd:  COMPANY
 WTYP.                Deviated:  WELL TYPE
 SON .        AZ-XX-0906344804:  JOB NUMBER
 FTOP.          Formation Tops:  FORM TOPS DESC
 ILTD.               Lithology:  INTERP LTH DESC
 SVYD.                  Survey:  SURVEY DESC
 DMOD.             Drill Model:  DRILL MOD DESC
 HPTY.       Minimum Curvature:  HOLE POS TYPE
 NREF.                    Grid:  NORTH REFERENCE
 SPUD.               01-Jan-20:  SPUD DATE
 DATE.      00.59.44 15-Sep-20:  END TIME
 STIM.      12.00.00 12-Jun-20:  START TIME
 DMF .             Drill Floor:  DRILL MEAS FROM
 DFST.                        :  DIST FSL TEXT
 DFWT.                        :  DIST FWL TEXT
 API .                        :  API NUMBER
 CNTY.                        :  COUNTY
 UWI .                        :  UNIQUE WELL IDENTIFIER
 LOC .                        :  LOCATION
 LMF .             Drill Floor:  LOG MEASURED FROM
 VSNS.m                   2.88:  VERT SEC N/S
 VSEW.m                  -3.84:  VERT SEC E/W
 AGAP.m                  43.42:  AIR GAP
 APD .m                  43.42:  DEPTH ABOVE PD
 WDMS.m                 118.27:  WD ELEV
 EGL .m                   0.00:  GROUND ELEVATION
 EPD .m                   0.00:  ELEVATION
 AZTC.deg                 6.23:  AZM TOTAL CORR
 GRDC.deg                 0.20:  GRID CORRECTION
 MDEC.deg                 6.43:  MAGNETIC DECL
 MDIP.deg                59.49:  MAGNETIC DIP
 MFLD.nT              50277.00:  MAGNETIC FIELD
 GVFD.g                   1.00:  GRAVITY FIELD
 VSDR.deg               173.20:  VERT SEC DIRECT
 TDD .m                5790.01:  TOTAL DEPTH (DRILLER)
 SDEP.m                5231.01:  START DEPTH
 DFSL.m                   0.00:  DISTANCE FSL
 DFWL.m                   0.00:  DISTANCE FWL
 UTMY.m             4435808.83:  UTM Y
 UTMX.m              526266.40:  UTM X
 WHEW.m                  -3.84:  WELL HEAD E/W
 WHNS.m                   2.88:  WELL HEAD N/S
 LONG.deg                51.31:  LONGITUDE
 LATI.deg                40.06:  LATITUDE
 TVDS.m                  43.42:  TVDSS CORRECTN
 DEP .m                 430.08:  DEPTH
 EKB .m                  43.42:  KB ELEVATION
 EDF .m                  43.42:  DF ELEVATION
 TDL .m                 559.00:  TOTAL DEPTH (LOGGER)
 MAGU.                 1849381:  MAGUTM CHECKSUM
 VSC .                       0:  VS TO CLOSURE
~Parameter Information Block
#MNEM.UNIT       Value        Description
#---------     -----------    ---------------------------
 AV  .mps                 4.87:  Ann Velocity 
 AVMX.mps                 7.08:  Max Ann Veloc 
 AZIF.deg               108.87:  Azm, Final 
 BHAT.                  Rotary:  BHA Type 
 BROT.°/30m               0.35:  Build Rotating 
 BS  .in                  8.50:  Bit Size 
 BSZ .in                  8.50:  Bit Size 
 BTPL.psig              360.00:  Bit Press Loss 
 CABU.                     Yes:  Customer Abuse 
 COMM.                     \Gp:  Run Comments 1 
 TCS .hr                106.24:  Time Ciculation Ended 
 CV  .mps                 1.77:  Crit Velocity 
 CVMX.mps                 2.03:  Max Crit Veloc 
 DD1 .         Aykhan Agagulov:  Direct Drillr 1 
 DD2 .            Nonso Okofor:  Direct Drillr 2 
 DDSV.               Geo-Pilot:  DD Service 
 DEFF.%                  98.00:  % Det Eff 
 DLRX.°/30m               0.50:  Dogleg Rot Max 
 DLSO.°/30m               0.40:  Dogleg Oriented 
 DLSX.°/30m               0.94:  Dogleg Str Max 
 DRET.      20.30.00 08-Sep-20:  Drill End Time 
 DRST.      22.15.00 06-Sep-20:  Drill Start Tim 
 DTIM.hr                 31.31:  Time Drilling 
 EDEP.m                5790.01:  End Depth 
 ENG1.           Amrah Tahirov:  Engineer 1 
 ENG2.         Dair Mahammadov:  Engineer 2 
 ENG3.           Emil Huseynov:  Engineer 3 
 ETIM.      04.01.04 12-Sep-20:  End Time 
 FLOI.gpm               450.00:  Flow In 
 FLON.gpm               450.00:  Flow In Min 
 FLOS.cptm                2.00:  Fluid Loss 
 FLOX.gpm               450.00:  Flow In Max 
 FTRO.       Formation Presure:  FTWD Run Obj 
 HFLO.                      No:  High Flow 
 HPRE.                      No:  High Pressure 
 HTEM.                      No:  High Temp 
 HYDO.m                   1.80:  Hydro Offset 
 IFIN.deg                72.03:  Inc, Final 
 IMAX.deg                73.72:  Inc Max 
 IMIN.deg                70.94:  Inc Min 
 IMND.m                5508.52:  Inc Min Depth 
 IMXD.m                5253.60:  Inc Max Depth 
 JARR.                      No:  Jarring 
 LETM.      20.30.00 08-Sep-20:  Log End Time 
 LOST.hr                     0:  Lost Rig Time 
 LSTM.      22.15.00 06-Sep-20:  Log Start Time 
 MDCL.ppm             36000.00:  Mud Chlorides 
 MDES.     Inversion Oil/Synthetic:  Mud Desc 
 DFD .sg                  1.44:  Mud Density 
 MDMN.sg                  1.44:  Dens Mud Min 
 MDMX.sg                  1.57:  Dens Mud Max 
 MOIL.                      70:  Run Mud Oil % 
 MOWR.                   70:30:  Run Mud OWR 
 MSND.                       0:  Run Mud Sand % 
 MSOL.                      21:  Run Mud Solids% 
 DFV .spqt               68.00:  Mud Viscosity 
 MWOD.in                  6.75:  MWD Tool OD 
 MWSI.                     Yes:  Serv Intrp, MWD 
 OTIM.hr                174.84:  Time Operating 
 PCON.           Look Like New:  Pad Condition 
 PMAX.psia            10616.93:  Press Op, Max 
 PV  .cP                 50.00:  Mud PV 
 RUN .                     700:  Run Number 
 ROPA.m/hr               14.24:  ROP Avg 
 ROPN.m/hr               10.00:  ROP Min 
 ROPX.m/hr               32.00:  ROP Max 
 RPMA.rpm               120.90:  RPM Surface Avg 
 RPMN.rpm               120.00:  RPM Surface Min 
 RPMX.rpm               140.00:  RPM Surface Max 
 RRUN.                    0700:  Rig Run Number 
 RTIM.hr                  3.20:  Time Reaming 
 SAZI.deg               109.99:  Azm, Start 
 SDEP.m                5231.01:  Start Depth 
 SIDD.                      No:  Serv Intrp, DD 
 SINC.deg                73.72:  Inc, Start 
 SPPA.psig             3051.00:  SPP Avg 
 SPPN.psig             2950.00:  SPP Min 
 SPPX.psig             3250.00:  SPP Max 
 STIM.      08.00.00 05-Sep-20:  Start Time 
 SVCS.                 DD, MWD:  Services 
 SVER.                    9.20:  Sperry Version 
 TDAT.m                 559.00:  Tot Depth Attmp 
 TDDF.                      No:  Trip for DD 
 TDLG.m                 559.00:  Tot Depth Loggd 
 TFF .                      No:  Trip for Fail 
 TQAA.f-kp               26.49:  Torque Abs Avg 
 TQAN.f-kp               25.00:  Torque Abs Min 
 TQAX.f-kp               27.00:  Torque Abs Max 
 TRRT.°/30m               1.50:  Turn Rotating 
 MRT .                    HCIM:  Maximum Recorded Temperature 
 TTMX.degC               90.20:  Max Tool Temp 
 VS01.                90542671:  Virtual Str1 SN 
 VS02.                90545185:  Virtual Str2 SN 
 VS03.                90602015:  Virtual Str3 SN 
 VS04.                90515230:  Virtual Str4 SN 
 WBMN.klb                 5.00:  WOB Min 
 WOBA.klb                14.79:  WOB Avg 
 WOBX.klb                20.00:  WOB Max 
 YP  .lhf2               29.00:  Yield Point 
~Curve Information Block
#MNEM.UNIT                 API CODE     Curve Description
#---------               -----------    ---------------------------
 TIME.HHMMSS            00 000 000 000:  GT Time & Date
 GTDEPTH.m              00 000 000 000:  GT Depth
 GTPQH.psia             00 000 000 000:  GT HR Quartz Pressure
 GTTQ.degC              00 000 000 000:  GT Quartz Temperature
 GTTN.NONE              00 000 000 000:  GT Test Number
 GTET.sec               00 000 000 000:  GT Elapsed Test Time
 GTTVD.m                00 000 000 000:  GT True Vertical Depth
#Other Information
#
#WARRANTY: Halliburton will use its best efforts to furnish customers with 
#accurate information and interpretations that are part of, and incident to, the services 
#provided.  However, Halliburton cannot and does not warrant the accuracy 
#or correctness of such information and interpretations.  Under no circumstances should any 
#such information or interpretation be relied upon as the sole basis for any drilling, 
#completion, production, or financial decision or any procedure involving any risk to the 
#safety of any drilling venture, drilling rig or its crew or any other third party.  The 
#Customer has full responsibility for all drilling, completion and production operation.  
#Halliburton makes no representations or warranties, either expressed or 
#implied, including, but not limited to, the implied warranties of merchantability or fitness 
#for a particular purpose, with respect to the services rendered.  In no event will 
#Halliburton be liable for failure to obtain any particular results or for 
#any damages, including, but not limited to, indirect, special or consequential damages, 
#resulting from the use of any information or interpretation provided by Halliburton.
#
~A           TIME           GTDEPTH  GTPQH  GTTQ  GTTN  GTET   GTTVD  
   10:16:33.000.09-Sep-2020 5468.01 6298.14 76.69 9.00   0.00 2608.52
   10:16:33.200.09-Sep-2020 5468.01 6298.14 76.69 9.00   0.20 2608.52
   10:16:33.400.09-Sep-2020 5468.01 6297.89 76.68 9.00   0.40 2608.52
   10:16:33.600.09-Sep-2020 5468.01 6296.98 76.69 9.00   0.60 2608.52
   10:16:33.800.09-Sep-2020 5468.01 6297.93 76.68 9.00   0.80 2608.52
   10:16:34.000.09-Sep-2020 5468.01 6298.48 76.68 9.00   1.00 2608.52
   10:16:34.200.09-Sep-2020 5468.01 6297.63 76.68 9.00   1.20 2608.52
   10:16:34.400.09-Sep-2020 5468.01 6298.15 76.68 9.00   1.40 2608.52
   10:16:34.600.09-Sep-2020 5468.01 6298.79 76.68 9.00   1.60 2608.52
   10:16:34.800.09-Sep-2020 5468.01 6299.48 76.68 9.00   1.80 2608.52
   10:16:35.000.09-Sep-2020 5468.01 6299.84 76.68 9.00   2.00 2608.52
   10:16:35.200.09-Sep-2020 5468.01 6299.84 76.68 9.00   2.20 2608.52
   10:16:35.400.09-Sep-2020 5468.01 6300.05 76.68 9.00   2.40 2608.52
   10:16:35.600.09-Sep-2020 5468.01 6300.39 76.68 9.00   2.60 2608.52
   10:16:35.800.09-Sep-2020 5468.01 6300.55 76.68 9.00   2.80 2608.52
   10:16:36.000.09-Sep-2020 5468.01 6301.03 76.68 9.00   3.00 2608.52
   10:16:36.200.09-Sep-2020 5468.01 6301.03 76.68 9.00   3.20 2608.52
   10:16:36.400.09-Sep-2020 5468.01 6300.40 76.68 9.00   3.40 2608.52
   10:16:36.600.09-Sep-2020 5468.01 6299.70 76.68 9.00   3.60 2608.52
   10:16:36.800.09-Sep-2020 5468.01 6306.18 76.68 9.00   3.80 2608.52
   10:16:37.000.09-Sep-2020 5468.01 6298.98 76.68 9.00   4.00 2608.52
   10:16:37.200.09-Sep-2020 5468.01 6298.72 76.68 9.00   4.20 2608.52
   10:16:37.400.09-Sep-2020 5468.01 6301.33 76.68 9.00   4.40 2608.52
   10:16:37.600.09-Sep-2020 5468.01 6298.16 76.68 9.00   4.60 2608.52
   10:16:37.800.09-Sep-2020 5468.01 6309.68 76.68 9.00   4.80 2608.52
   10:16:38.000.09-Sep-2020 5468.01 6293.66 76.68 9.00   5.00 2608.52
   10:16:38.200.09-Sep-2020 5468.01 6293.66 76.68 9.00   5.20 2608.52
   10:16:38.400.09-Sep-2020 5468.01 6302.08 76.68 9.00   5.40 2608.52
   10:16:38.600.09-Sep-2020 5468.01 6299.36 76.68 9.00   5.60 2608.52
   10:16:38.800.09-Sep-2020 5468.01 6307.66 76.68 9.00   5.80 2608.52
   10:16:39.000.09-Sep-2020 5468.01 6300.47 76.68 9.00   6.00 2608.52
   10:16:39.200.09-Sep-2020 5468.01 6300.47 76.68 9.00   6.20 2608.52
   10:16:39.400.09-Sep-2020 5468.01 6306.47 76.68 9.00   6.40 2608.52
   10:16:39.600.09-Sep-2020 5468.01 6303.11 76.68 9.00   6.60 2608.52
   10:16:39.800.09-Sep-2020 5468.01 6305.17 76.68 9.00   6.80 2608.52
   10:16:40.000.09-Sep-2020 5468.01 6308.49 76.68 9.00   7.00 2608.52
   10:16:40.200.09-Sep-2020 5468.01 6308.49 76.68 9.00   7.20 2608.52
   10:16:40.400.09-Sep-2020 5468.01 6308.37 76.68 9.00   7.40 2608.52
   10:16:40.600.09-Sep-2020 5468.01 6307.11 76.68 9.00   7.60 2608.52
   10:16:40.800.09-Sep-2020 5468.01 6310.62 76.68 9.00   7.80 2608.52
   10:16:41.000.09-Sep-2020 5468.01 6308.65 76.68 9.00   8.00 2608.52
   10:16:41.200.09-Sep-2020 5468.01 6309.40 76.68 9.00   8.20 2608.52
   10:16:41.400.09-Sep-2020 5468.01 6316.57 76.68 9.00   8.40 2608.52
   10:16:41.600.09-Sep-2020 5468.01 6308.81 76.68 9.00   8.60 2608.52
   10:16:41.800.09-Sep-2020 5468.01 6309.37 76.68 9.00   8.80 2608.52
   10:16:42.000.09-Sep-2020 5468.01 6312.93 76.68 9.00   9.00 2608.52
   10:16:42.200.09-Sep-2020 5468.01 6312.22 76.68 9.00   9.20 2608.52
   10:16:42.400.09-Sep-2020 5468.01 6314.58 76.68 9.00   9.40 2608.52
   10:16:42.600.09-Sep-2020 5468.01 6312.87 76.68 9.00   9.60 2608.52
   10:16:42.800.09-Sep-2020 5468.01 6310.98 76.68 9.00   9.80 2608.52
   10:16:43.000.09-Sep-2020 5468.01 6314.92 76.68 9.00  10.00 2608.52
   10:16:43.200.09-Sep-2020 5468.01 6314.92 76.68 9.00  10.20 2608.52
   10:16:43.400.09-Sep-2020 5468.01 6312.37 76.68 9.00  10.40 2608.52
   10:16:43.600.09-Sep-2020 5468.01 6320.26 76.68 9.00  10.60 2608.52
   10:16:43.800.09-Sep-2020 5468.01 6312.61 76.68 9.00  10.80 2608.52
   10:16:44.000.09-Sep-2020 5468.01 6313.69 76.68 9.00  11.00 2608.52
   10:16:44.200.09-Sep-2020 5468.01 6313.69 76.68 9.00  11.20 2608.52
   10:16:44.400.09-Sep-2020 5468.01 6313.69 76.68 9.00  11.40 2608.52
   10:16:44.600.09-Sep-2020 5468.01 6316.16 76.68 9.00  11.60 2608.52
   10:16:44.800.09-Sep-2020 5468.01 6316.21 76.68 9.00  11.80 2608.52
   10:16:45.000.09-Sep-2020 5468.01 6316.03 76.68 9.00  12.00 2608.52
   10:16:45.200.09-Sep-2020 5468.01 6317.00 76.68 9.00  12.20 2608.52
   10:16:45.400.09-Sep-2020 5468.01 6317.00 76.68 9.00  12.40 2608.52
   10:16:45.600.09-Sep-2020 5468.01 6317.55 76.68 9.00  12.60 2608.52
   10:16:45.800.09-Sep-2020 5468.01 6318.14 76.68 9.00  12.80 2608.52
   10:16:46.000.09-Sep-2020 5468.01 6318.43 76.68 9.00  13.00 2608.52
   10:16:46.200.09-Sep-2020 5468.01 6318.79 76.68 9.00  13.20 2608.52
   10:16:46.400.09-Sep-2020 5468.01 6319.04 76.68 9.00  13.40 2608.52
   10:16:46.600.09-Sep-2020 5468.01 6319.41 76.68 9.00  13.60 2608.52
   10:16:46.800.09-Sep-2020 5468.01 6320.04 76.68 9.00  13.80 2608.52
   10:16:47.000.09-Sep-2020 5468.01 6320.31 76.68 9.00  14.00 2608.52
   10:16:47.200.09-Sep-2020 5468.01 6320.31 76.68 9.00  14.20 2608.52
   10:16:47.400.09-Sep-2020 5468.01 6315.98 76.68 9.00  14.40 2608.52
   10:16:47.600.09-Sep-2020 5468.01 6320.41 76.67 9.00  14.60 2608.52
   10:16:47.800.09-Sep-2020 5468.01 6321.59 76.67 9.00  14.80 2608.52
   10:16:48.000.09-Sep-2020 5468.01 6322.39 76.67 9.00  15.00 2608.52
   10:16:48.200.09-Sep-2020 5468.01 6322.39 76.67 9.00  15.20 2608.52
   10:16:48.400.09-Sep-2020 5468.01 6320.91 76.67 9.00  15.40 2608.52
   10:16:48.600.09-Sep-2020 5468.01 6322.29 76.67 9.00  15.60 2608.52
   10:16:48.800.09-Sep-2020 5468.01 6322.45 76.67 9.00  15.80 2608.52
   10:16:49.000.09-Sep-2020 5468.01 6322.61 76.67 9.00  16.00 2608.52
   10:16:49.200.09-Sep-2020 5468.01 6322.68 76.67 9.00  16.20 2608.52
   10:16:49.400.09-Sep-2020 5468.01 6322.94 76.67 9.00  16.40 2608.52
   10:16:49.600.09-Sep-2020 5468.01 6323.22 76.67 9.00  16.60 2608.52
   10:16:49.800.09-Sep-2020 5468.01 6323.45 76.67 9.00  16.80 2608.52
   10:16:50.000.09-Sep-2020 5468.01 6324.24 76.67 9.00  17.00 2608.52
   10:16:50.200.09-Sep-2020 5468.01 6324.70 76.67 9.00  17.20 2608.52
   10:16:50.400.09-Sep-2020 5468.01 6324.86 76.67 9.00  17.40 2608.52
   10:16:50.600.09-Sep-2020 5468.01 6324.87 76.67 9.00  17.60 2608.52
   10:16:50.800.09-Sep-2020 5468.01 6334.04 76.67 9.00  17.80 2608.52
   10:16:51.000.09-Sep-2020 5468.01 6321.37 76.67 9.00  18.00 2608.52
   10:16:51.200.09-Sep-2020 5468.01 6321.37 76.67 9.00  18.20 2608.52
   10:16:51.400.09-Sep-2020 5468.01 6327.24 76.67 9.00  18.40 2608.52
   10:16:51.600.09-Sep-2020 5468.01 6327.65 76.67 9.00  18.60 2608.52
   10:16:51.800.09-Sep-2020 5468.01 6327.60 76.67 9.00  18.80 2608.52
   10:16:52.000.09-Sep-2020 5468.01 6328.50 76.67 9.00  19.00 2608.52
   10:16:52.200.09-Sep-2020 5468.01 6328.50 76.67 9.00  19.20 2608.52
   10:16:52.400.09-Sep-2020 5468.01 6328.72 76.67 9.00  19.40 2608.52
   10:16:52.600.09-Sep-2020 5468.01 6327.90 76.67 9.00  19.60 2608.52
   10:16:52.800.09-Sep-2020 5468.01 6330.63 76.67 9.00  19.80 2608.52
   10:16:53.000.09-Sep-2020 5468.01 6328.32 76.67 9.00  20.00 2608.52
   10:16:53.200.09-Sep-2020 5468.01 6328.32 76.67 9.00  20.20 2608.52
   10:16:53.400.09-Sep-2020 5468.01 6336.46 76.67 9.00  20.40 2608.52
   10:16:53.600.09-Sep-2020 5468.01 6328.90 76.67 9.00  20.60 2608.52
   10:16:53.800.09-Sep-2020 5468.01 6329.80 76.67 9.00  20.80 2608.52
   10:16:54.000.09-Sep-2020 5468.01 6332.64 76.67 9.00  21.00 2608.52
   10:16:54.200.09-Sep-2020 5468.01 6329.84 76.67 9.00  21.20 2608.52
   10:16:54.400.09-Sep-2020 5468.01 6331.34 76.67 9.00  21.40 2608.52
   10:16:54.600.09-Sep-2020 5468.01 6338.00 76.67 9.00  21.60 2608.52
   10:16:54.800.09-Sep-2020 5468.01 6330.44 76.67 9.00  21.80 2608.52
   10:16:55.000.09-Sep-2020 5468.01 6331.89 76.67 9.00  22.00 2608.52
   10:16:55.200.09-Sep-2020 5468.01 6331.89 76.67 9.00  22.20 2608.52
   10:16:55.400.09-Sep-2020 5468.01 6343.93 76.67 9.00  22.40 2608.52
   10:16:55.600.09-Sep-2020 5468.01 6327.73 76.67 9.00  22.60 2608.52
   10:16:55.800.09-Sep-2020 5468.01 6334.20 76.67 9.00  22.80 2608.52
