~Version Information
 VERS.                  2.0:   CWLS log ASCII Standard -VERSION 2.0
 WRAP.                   NO:   One line per depth step
~Well Information Block
#MNEM.UNIT     VALUE/NAME     DESCRIPTION
#---------     -----------    ---------------------------
 STRT.S             10:55:02 09-Sep-20: START TIME 10:55:02 09-Sep-20
 STOP.S             11:02:04 09-Sep-20: STOP TIME  11:02:04 09-Sep-20
 STEP.S                   0.00: STEP TIME
 NULL.                 -999.25: NULL VALUE
 MDS .        Operator Entered:  MAG DATA SOURCE
 PDAT.          Mean Sea Level:  PERMANENT DATUM
 DCON.         Sperry Drilling:  DIRECTNL CONTR
 RIG .              West Azeri:  RIG NAME
 WELL.           C40 (Slot 20):  WELL NAME
 SRVC.     Turan Drilling Engineering:  CONTRACTOR
 FLD .                     ACG:  FIELD NAME
 CTRY.              Azerbaijan:  COUNTRY NAME
 PROV.                    Baku:  PROVINCE
 STAT.                    Baku:  STATE NAME
 REGN.                   EESSA:  REGION
 BASE.              Azerbaijan:  LOGGING EQUIPMENT BASE LOCATION
 COMP.     BP Exploration (Caspian Sea) Ltd:  COMPANY
 WTYP.                Deviated:  WELL TYPE
 SON .        AZ-XX-0906344804:  JOB NUMBER
 FTOP.          Formation Tops:  FORM TOPS DESC
 ILTD.               Lithology:  INTERP LTH DESC
 SVYD.                  Survey:  SURVEY DESC
 DMOD.             Drill Model:  DRILL MOD DESC
 HPTY.       Minimum Curvature:  HOLE POS TYPE
 NREF.                    Grid:  NORTH REFERENCE
 SPUD.               01-Jan-20:  SPUD DATE
 DATE.      00.59.44 15-Sep-20:  END TIME
 STIM.      12.00.00 12-Jun-20:  START TIME
 DMF .             Drill Floor:  DRILL MEAS FROM
 DFST.                        :  DIST FSL TEXT
 DFWT.                        :  DIST FWL TEXT
 API .                        :  API NUMBER
 CNTY.                        :  COUNTY
 UWI .                        :  UNIQUE WELL IDENTIFIER
 LOC .                        :  LOCATION
 LMF .             Drill Floor:  LOG MEASURED FROM
 VSNS.m                   2.88:  VERT SEC N/S
 VSEW.m                  -3.84:  VERT SEC E/W
 AGAP.m                  43.42:  AIR GAP
 APD .m                  43.42:  DEPTH ABOVE PD
 WDMS.m                 118.27:  WD ELEV
 EGL .m                   0.00:  GROUND ELEVATION
 EPD .m                   0.00:  ELEVATION
 AZTC.deg                 6.23:  AZM TOTAL CORR
 GRDC.deg                 0.20:  GRID CORRECTION
 MDEC.deg                 6.43:  MAGNETIC DECL
 MDIP.deg                59.49:  MAGNETIC DIP
 MFLD.nT              50277.00:  MAGNETIC FIELD
 GVFD.g                   1.00:  GRAVITY FIELD
 VSDR.deg               173.20:  VERT SEC DIRECT
 TDD .m                5790.01:  TOTAL DEPTH (DRILLER)
 SDEP.m                5231.01:  START DEPTH
 DFSL.m                   0.00:  DISTANCE FSL
 DFWL.m                   0.00:  DISTANCE FWL
 UTMY.m             4435808.83:  UTM Y
 UTMX.m              526266.40:  UTM X
 WHEW.m                  -3.84:  WELL HEAD E/W
 WHNS.m                   2.88:  WELL HEAD N/S
 LONG.deg                51.31:  LONGITUDE
 LATI.deg                40.06:  LATITUDE
 TVDS.m                  43.42:  TVDSS CORRECTN
 DEP .m                 430.08:  DEPTH
 EKB .m                  43.42:  KB ELEVATION
 EDF .m                  43.42:  DF ELEVATION
 TDL .m                 559.00:  TOTAL DEPTH (LOGGER)
 MAGU.                 1849381:  MAGUTM CHECKSUM
 VSC .                       0:  VS TO CLOSURE
~Parameter Information Block
#MNEM.UNIT       Value        Description
#---------     -----------    ---------------------------
 AV  .mps                 4.87:  Ann Velocity 
 AVMX.mps                 7.08:  Max Ann Veloc 
 AZIF.deg               108.87:  Azm, Final 
 BHAT.                  Rotary:  BHA Type 
 BROT.°/30m               0.35:  Build Rotating 
 BS  .in                  8.50:  Bit Size 
 BSZ .in                  8.50:  Bit Size 
 BTPL.psig              360.00:  Bit Press Loss 
 CABU.                     Yes:  Customer Abuse 
 COMM.                     ¬Î:  Run Comments 1 
 TCS .hr                106.24:  Time Ciculation Ended 
 CV  .mps                 1.77:  Crit Velocity 
 CVMX.mps                 2.03:  Max Crit Veloc 
 DD1 .         Aykhan Agagulov:  Direct Drillr 1 
 DD2 .            Nonso Okofor:  Direct Drillr 2 
 DDSV.               Geo-Pilot:  DD Service 
 DEFF.%                  98.00:  % Det Eff 
 DLRX.°/30m               0.50:  Dogleg Rot Max 
 DLSO.°/30m               0.40:  Dogleg Oriented 
 DLSX.°/30m               0.94:  Dogleg Str Max 
 DRET.      20.30.00 08-Sep-20:  Drill End Time 
 DRST.      22.15.00 06-Sep-20:  Drill Start Tim 
 DTIM.hr                 31.31:  Time Drilling 
 EDEP.m                5790.01:  End Depth 
 ENG1.           Amrah Tahirov:  Engineer 1 
 ENG2.         Dair Mahammadov:  Engineer 2 
 ENG3.           Emil Huseynov:  Engineer 3 
 ETIM.      04.01.04 12-Sep-20:  End Time 
 FLOI.gpm               450.00:  Flow In 
 FLON.gpm               450.00:  Flow In Min 
 FLOS.cptm                2.00:  Fluid Loss 
 FLOX.gpm               450.00:  Flow In Max 
 FTRO.       Formation Presure:  FTWD Run Obj 
 HFLO.                      No:  High Flow 
 HPRE.                      No:  High Pressure 
 HTEM.                      No:  High Temp 
 HYDO.m                   1.80:  Hydro Offset 
 IFIN.deg                72.03:  Inc, Final 
 IMAX.deg                73.72:  Inc Max 
 IMIN.deg                70.94:  Inc Min 
 IMND.m                5508.52:  Inc Min Depth 
 IMXD.m                5253.60:  Inc Max Depth 
 JARR.                      No:  Jarring 
 LETM.      20.30.00 08-Sep-20:  Log End Time 
 LOST.hr                     0:  Lost Rig Time 
 LSTM.      22.15.00 06-Sep-20:  Log Start Time 
 MDCL.ppm             36000.00:  Mud Chlorides 
 MDES.     Inversion Oil/Synthetic:  Mud Desc 
 DFD .sg                  1.44:  Mud Density 
 MDMN.sg                  1.44:  Dens Mud Min 
 MDMX.sg                  1.57:  Dens Mud Max 
 MOIL.                      70:  Run Mud Oil % 
 MOWR.                   70:30:  Run Mud OWR 
 MSND.                       0:  Run Mud Sand % 
 MSOL.                      21:  Run Mud Solids% 
 DFV .spqt               68.00:  Mud Viscosity 
 MWOD.in                  6.75:  MWD Tool OD 
 MWSI.                     Yes:  Serv Intrp, MWD 
 OTIM.hr                174.84:  Time Operating 
 PCON.           Look Like New:  Pad Condition 
 PMAX.psia            10616.93:  Press Op, Max 
 PV  .cP                 50.00:  Mud PV 
 RUN .                     700:  Run Number 
 ROPA.m/hr               14.24:  ROP Avg 
 ROPN.m/hr               10.00:  ROP Min 
 ROPX.m/hr               32.00:  ROP Max 
 RPMA.rpm               120.90:  RPM Surface Avg 
 RPMN.rpm               120.00:  RPM Surface Min 
 RPMX.rpm               140.00:  RPM Surface Max 
 RRUN.                    0700:  Rig Run Number 
 RTIM.hr                  3.20:  Time Reaming 
 SAZI.deg               109.99:  Azm, Start 
 SDEP.m                5231.01:  Start Depth 
 SIDD.                      No:  Serv Intrp, DD 
 SINC.deg                73.72:  Inc, Start 
 SPPA.psig             3051.00:  SPP Avg 
 SPPN.psig             2950.00:  SPP Min 
 SPPX.psig             3250.00:  SPP Max 
 STIM.      08.00.00 05-Sep-20:  Start Time 
 SVCS.                 DD, MWD:  Services 
 SVER.                    9.20:  Sperry Version 
 TDAT.m                 559.00:  Tot Depth Attmp 
 TDDF.                      No:  Trip for DD 
 TDLG.m                 559.00:  Tot Depth Loggd 
 TFF .                      No:  Trip for Fail 
 TQAA.f-kp               26.49:  Torque Abs Avg 
 TQAN.f-kp               25.00:  Torque Abs Min 
 TQAX.f-kp               27.00:  Torque Abs Max 
 TRRT.°/30m               1.50:  Turn Rotating 
 MRT .                    HCIM:  Maximum Recorded Temperature 
 TTMX.degC               90.20:  Max Tool Temp 
 VS01.                90542671:  Virtual Str1 SN 
 VS02.                90545185:  Virtual Str2 SN 
 VS03.                90602015:  Virtual Str3 SN 
 VS04.                90515230:  Virtual Str4 SN 
 WBMN.klb                 5.00:  WOB Min 
 WOBA.klb                14.79:  WOB Avg 
 WOBX.klb                20.00:  WOB Max 
 YP  .lhf2               29.00:  Yield Point 
~Curve Information Block
#MNEM.UNIT                 API CODE     Curve Description
#---------               -----------    ---------------------------
 TIME.HHMMSS            00 000 000 000:  GT Time & Date
 GTDEPTH.m              00 000 000 000:  GT Depth
 GTPQH.psia             00 000 000 000:  GT HR Quartz Pressure
 GTTQ.degC              00 000 000 000:  GT Quartz Temperature
 GTTN.NONE              00 000 000 000:  GT Test Number
 GTET.sec               00 000 000 000:  GT Elapsed Test Time
 GTTVD.m                00 000 000 000:  GT True Vertical Depth
#Other Information
#
#WARRANTY: Halliburton will use its best efforts to furnish customers with 
#accurate information and interpretations that are part of, and incident to, the services 
#provided.  However, Halliburton cannot and does not warrant the accuracy 
#or correctness of such information and interpretations.  Under no circumstances should any 
#such information or interpretation be relied upon as the sole basis for any drilling, 
#completion, production, or financial decision or any procedure involving any risk to the 
#safety of any drilling venture, drilling rig or its crew or any other third party.  The 
#Customer has full responsibility for all drilling, completion and production operation.  
#Halliburton makes no representations or warranties, either expressed or 
#implied, including, but not limited to, the implied warranties of merchantability or fitness 
#for a particular purpose, with respect to the services rendered.  In no event will 
#Halliburton be liable for failure to obtain any particular results or for 
#any damages, including, but not limited to, indirect, special or consequential damages, 
#resulting from the use of any information or interpretation provided by Halliburton.
#
~A           TIME           GTDEPTH  GTPQH  GTTQ  GTTN   GTET   GTTVD  
# ...
   10:59:10.860.09-Sep-2020 5456.01 3589.05 76.38 10.00 248.67 2604.72
   10:59:11.060.09-Sep-2020 5456.01 3588.94 76.38 10.00 248.87 2604.72
   10:59:11.260.09-Sep-2020 5456.01 3589.01 76.38 10.00 249.07 2604.72
   10:59:11.460.09-Sep-2020 5456.01 3589.01 76.38 10.00 249.27 2604.72
   10:59:11.660.09-Sep-2020 5456.01 3588.89 76.38 10.00 249.47 2604.72
   10:59:11.860.09-Sep-2020 5456.01 3588.98 76.38 10.00 249.67 2604.72
   10:59:12.060.09-Sep-2020 5456.01 3588.98 76.38 10.00 249.87 2604.72
   10:59:12.260.09-Sep-2020 5456.01 3588.96 76.38 10.00 250.07 2604.72
   10:59:12.460.09-Sep-2020 5456.01 3588.96 76.38 10.00 250.27 2604.72
   10:59:12.660.09-Sep-2020 5456.01 3588.96 76.38 10.00 250.47 2604.72
   10:59:12.860.09-Sep-2020 5456.01 3588.99 76.38 10.00 250.67 2604.72
   10:59:13.060.09-Sep-2020 5456.01 3588.97 76.38 10.00 250.87 2604.72
   10:59:13.260.09-Sep-2020 5456.01 3588.96 76.38 10.00 251.07 2604.72
   10:59:13.461.09-Sep-2020 5456.01 3588.96 76.38 10.00 251.27 2604.72
   10:59:13.661.09-Sep-2020 5456.01 3588.97 76.38 10.00 251.47 2604.72
   10:59:13.861.09-Sep-2020 5456.01 3588.99 76.38 10.00 251.67 2604.72
   10:59:14.061.09-Sep-2020 5456.01 3588.98 76.38 10.00 251.87 2604.72
   10:59:14.261.09-Sep-2020 5456.01 3588.48 76.38 10.00 252.07 2604.72
   10:59:14.461.09-Sep-2020 5456.01 3588.48 76.38 10.00 252.27 2604.72
   10:59:14.661.09-Sep-2020 5456.01 3588.98 76.38 10.00 252.47 2604.72
   10:59:14.861.09-Sep-2020 5456.01 3588.98 76.38 10.00 252.67 2604.72
   10:59:15.061.09-Sep-2020 5456.01 3588.93 76.38 10.00 252.87 2604.72
   10:59:15.261.09-Sep-2020 5456.01 3589.02 76.38 10.00 253.07 2604.72
   10:59:15.461.09-Sep-2020 5456.01 3589.02 76.38 10.00 253.27 2604.72
   10:59:15.661.09-Sep-2020 5456.01 3588.96 76.38 10.00 253.47 2604.72
   10:59:15.861.09-Sep-2020 5456.01 3588.97 76.38 10.00 253.67 2604.72
   10:59:16.061.09-Sep-2020 5456.01 3588.96 76.38 10.00 253.87 2604.72
   10:59:16.261.09-Sep-2020 5456.01 3588.99 76.38 10.00 254.07 2604.72
   10:59:16.461.09-Sep-2020 5456.01 3588.99 76.38 10.00 254.27 2604.72
   10:59:16.661.09-Sep-2020 5456.01 3588.96 76.38 10.00 254.47 2604.72
   10:59:16.861.09-Sep-2020 5456.01 3588.97 76.38 10.00 254.67 2604.72
   10:59:17.062.09-Sep-2020 5456.01 3588.98 76.38 10.00 254.87 2604.72
   10:59:17.262.09-Sep-2020 5456.01 3589.00 76.38 10.00 255.07 2604.72
   10:59:17.462.09-Sep-2020 5456.01 3589.00 76.38 10.00 255.27 2604.72
   10:59:17.662.09-Sep-2020 5456.01 3589.05 76.38 10.00 255.47 2604.72
   10:59:17.862.09-Sep-2020 5456.01 3588.88 76.38 10.00 255.67 2604.72
   10:59:18.062.09-Sep-2020 5456.01 3588.96 76.38 10.00 255.87 2604.72
   10:59:18.262.09-Sep-2020 5456.01 3588.97 76.38 10.00 256.07 2604.72
   10:59:18.462.09-Sep-2020 5456.01 3588.97 76.38 10.00 256.27 2604.72
   10:59:18.662.09-Sep-2020 5456.01 3588.64 76.38 10.00 256.47 2604.72
   10:59:18.862.09-Sep-2020 5456.01 3589.14 76.38 10.00 256.67 2604.72
   10:59:19.062.09-Sep-2020 5456.01 3589.05 76.38 10.00 256.87 2604.72
   10:59:19.262.09-Sep-2020 5456.01 3588.98 76.38 10.00 257.07 2604.72
   10:59:19.462.09-Sep-2020 5456.01 3588.98 76.38 10.00 257.27 2604.72
   10:59:19.662.09-Sep-2020 5456.01 3589.18 76.38 10.00 257.47 2604.72
   10:59:19.862.09-Sep-2020 5456.01 3518.65 76.38 10.00 257.67 2604.72
   10:59:20.062.09-Sep-2020 5456.01 3351.26 76.38 10.00 257.87 2604.72
   10:59:20.262.09-Sep-2020 5456.01 3304.07 76.38 10.00 258.07 2604.72
   10:59:20.462.09-Sep-2020 5456.01 3304.07 76.38 10.00 258.27 2604.72
   10:59:20.663.09-Sep-2020 5456.01 3288.60 76.38 10.00 258.47 2604.72
   10:59:20.863.09-Sep-2020 5456.01 3285.73 76.38 10.00 258.67 2604.72
   10:59:21.063.09-Sep-2020 5456.01 3276.75 76.38 10.00 258.87 2604.72
   10:59:21.263.09-Sep-2020 5456.01 3269.51 76.38 10.00 259.07 2604.72
   10:59:21.463.09-Sep-2020 5456.01 3269.51 76.38 10.00 259.27 2604.72
   10:59:21.663.09-Sep-2020 5456.01 3260.62 76.38 10.00 259.47 2604.72
   10:59:21.863.09-Sep-2020 5456.01 3263.10 76.38 10.00 259.67 2604.72
   10:59:22.063.09-Sep-2020 5456.01 3254.52 76.38 10.00 259.87 2604.72
   10:59:22.263.09-Sep-2020 5456.01 3257.09 76.38 10.00 260.07 2604.72
   10:59:22.463.09-Sep-2020 5456.01 3257.09 76.38 10.00 260.27 2604.72
   10:59:22.663.09-Sep-2020 5456.01 3262.32 76.38 10.00 260.47 2604.72
   10:59:22.863.09-Sep-2020 5456.01 3251.59 76.38 10.00 260.67 2604.72
   10:59:23.063.09-Sep-2020 5456.01 3266.50 76.38 10.00 260.87 2604.72
   10:59:23.263.09-Sep-2020 5456.01 3268.24 76.38 10.00 261.07 2604.72
   10:59:23.463.09-Sep-2020 5456.01 3268.24 76.38 10.00 261.27 2604.72
   10:59:23.663.09-Sep-2020 5456.01 3259.11 76.38 10.00 261.47 2604.72
   10:59:23.863.09-Sep-2020 5456.01 3253.63 76.38 10.00 261.67 2604.72
   10:59:24.063.09-Sep-2020 5456.01 3253.38 76.38 10.00 261.87 2604.72
   10:59:24.264.09-Sep-2020 5456.01 3251.66 76.38 10.00 262.07 2604.72
   10:59:24.464.09-Sep-2020 5456.01 3251.66 76.38 10.00 262.27 2604.72
   10:59:24.664.09-Sep-2020 5456.01 3244.60 76.38 10.00 262.47 2604.72
   10:59:24.864.09-Sep-2020 5456.01 3247.96 76.38 10.00 262.67 2604.72
   10:59:25.064.09-Sep-2020 5456.01 3244.56 76.38 10.00 262.87 2604.72
   10:59:25.264.09-Sep-2020 5456.01 3246.96 76.38 10.00 263.07 2604.72
   10:59:25.464.09-Sep-2020 5456.01 3244.74 76.38 10.00 263.27 2604.72
   10:59:25.664.09-Sep-2020 5456.01 3249.60 76.38 10.00 263.47 2604.72
   10:59:25.864.09-Sep-2020 5456.01 3253.50 76.38 10.00 263.67 2604.72
   10:59:26.064.09-Sep-2020 5456.01 3252.78 76.38 10.00 263.87 2604.72
   10:59:26.264.09-Sep-2020 5456.01 3252.87 76.38 10.00 264.07 2604.72
   10:59:26.464.09-Sep-2020 5456.01 3252.87 76.38 10.00 264.27 2604.72
   10:59:26.664.09-Sep-2020 5456.01 3250.39 76.38 10.00 264.47 2604.72
   10:59:26.864.09-Sep-2020 5456.01 3244.61 76.38 10.00 264.67 2604.72
   10:59:27.064.09-Sep-2020 5456.01 3243.03 76.38 10.00 264.87 2604.72
   10:59:27.264.09-Sep-2020 5456.01 3238.29 76.38 10.00 265.07 2604.72
   10:59:27.464.09-Sep-2020 5456.01 3238.29 76.38 10.00 265.27 2604.72
   10:59:27.664.09-Sep-2020 5456.01 3293.39 76.38 10.00 265.47 2604.72
   10:59:27.865.09-Sep-2020 5456.01 3295.99 76.38 10.00 265.67 2604.72
   10:59:28.065.09-Sep-2020 5456.01 3284.93 76.38 10.00 265.87 2604.72
   10:59:28.265.09-Sep-2020 5456.01 3273.73 76.38 10.00 266.07 2604.72
   10:59:28.465.09-Sep-2020 5456.01 3273.73 76.38 10.00 266.27 2604.72
   10:59:28.665.09-Sep-2020 5456.01 3281.03 76.38 10.00 266.47 2604.72
   10:59:28.865.09-Sep-2020 5456.01 3284.08 76.38 10.00 266.67 2604.72
   10:59:29.065.09-Sep-2020 5456.01 3285.33 76.38 10.00 266.87 2604.72
   10:59:29.265.09-Sep-2020 5456.01 3297.09 76.38 10.00 267.07 2604.72
   10:59:29.465.09-Sep-2020 5456.01 3297.09 76.38 10.00 267.27 2604.72
   10:59:29.665.09-Sep-2020 5456.01 3277.90 76.38 10.00 267.47 2604.72
   10:59:29.865.09-Sep-2020 5456.01 3263.00 76.37 10.00 267.67 2604.72
   10:59:30.065.09-Sep-2020 5456.01 3414.41 76.38 10.00 267.87 2604.72
   10:59:30.265.09-Sep-2020 5456.01 3541.01 76.37 10.00 268.07 2604.72
   10:59:30.465.09-Sep-2020 5456.01 3541.01 76.37 10.00 268.27 2604.72
   10:59:30.665.09-Sep-2020 5456.01 3585.96 76.37 10.00 268.47 2604.72
   10:59:30.865.09-Sep-2020 5456.01 3587.42 76.38 10.00 268.67 2604.72
   10:59:31.065.09-Sep-2020 5456.01 3587.64 76.37 10.00 268.87 2604.72
   10:59:31.265.09-Sep-2020 5456.01 3587.43 76.38 10.00 269.07 2604.72
   10:59:31.466.09-Sep-2020 5456.01 3587.43 76.38 10.00 269.27 2604.72
   10:59:31.666.09-Sep-2020 5456.01 3587.67 76.38 10.00 269.47 2604.72
   10:59:31.866.09-Sep-2020 5456.01 3587.98 76.38 10.00 269.67 2604.72
   10:59:32.066.09-Sep-2020 5456.01 3587.85 76.38 10.00 269.87 2604.72
   10:59:32.266.09-Sep-2020 5456.01 3587.98 76.38 10.00 270.07 2604.72
   10:59:32.466.09-Sep-2020 5456.01 3587.98 76.38 10.00 270.27 2604.72
   10:59:32.666.09-Sep-2020 5456.01 3588.28 76.38 10.00 270.47 2604.72
   10:59:32.866.09-Sep-2020 5456.01 3588.15 76.38 10.00 270.67 2604.72
   10:59:33.066.09-Sep-2020 5456.01 3588.10 76.38 10.00 270.87 2604.72
   10:59:33.266.09-Sep-2020 5456.01 3588.46 76.38 10.00 271.07 2604.72
