~Version Information
 VERS.                  2.0:   CWLS log ASCII Standard -VERSION 2.0
 WRAP.                   NO:   One line per depth step
~Well Information Block
#MNEM.UNIT     VALUE/NAME     DESCRIPTION
#---------     -----------    ---------------------------
 STRT.S             05:14:37 05-Jan-21: START TIME 05:14:37 05-Jan-21
 STOP.S             05:24:42 05-Jan-21: STOP TIME  05:24:42 05-Jan-21
 STEP.S                   0.00: STEP TIME
 NULL.                 -999.25: NULL VALUE
 DFWT.                        :  DIST FWL TEXT
 DFST.                        :  DIST FSL TEXT
 DMF .             Drill Floor:  DRILL MEAS FROM
 STIM.      06.00.00 31-Dec-20:  START TIME
 DATE.      05.58.24 07-Jan-21:  END TIME
 SPUD.               24-Dec-20:  SPUD DATE
 NREF.                    Grid:  NORTH REFERENCE
 HPTY.       Minimum Curvature:  HOLE POS TYPE
 DMOD.             Drill Model:  DRILL MOD DESC
 SVYD.                  Survey:  SURVEY DESC
 ILTD.               Lithology:  INTERP LTH DESC
 FTOP.          Formation Tops:  FORM TOPS DESC
 SON .        AZ-XX-0906699554:  JOB NUMBER
 WELL.                    B09z:  WELL NAME
 PDAT.          Mean Sea Level:  PERMANENT DATUM
 FLD .                     ACG:  FIELD NAME
 CTRY.              Azerbaijan:  COUNTRY NAME
 COMP.     BP Exploration (Caspian Sea) Ltd.:  COMPANY
 UWI .                     N/A:  UNIQUE WELL IDENTIFIER
 API .                     N/A:  API NUMBER
 WTYP.                Deviated:  WELL TYPE
 MDS .        Operator Entered:  MAG DATA SOURCE
 BASE.              Azerbaijan:  LOGGING EQUIPMENT BASE LOCATION
 REGN.                   EESSA:  REGION
 PROV.                    Baku:  PROVINCE
 STAT.                    Baku:  STATE NAME
 SRVC.          Turan Drilling:  CONTRACTOR
 MWDS.                    Baku:  MWD SHOP
 JOBN.        AZ-XX-0906699554:  JOB TICKET NUMB
 RIG .           Central Azeri:  RIG NAME
 DOE .                     N/A:  DOE NUMBER
 DCON.         Sperry Drilling:  DIRECTNL CONTR
 UNIT.                     N/A:  LOGGING EQUIPMENT ID
 CNTY.                        :  COUNTY
 LOC .                        :  LOCATION
 LMF .             Drill Floor:  LOG MEASURED FROM
 TVDS.m                  43.29:  TVDSS CORRECTN
 LATI.deg                40.03:  LATITUDE
 LONG.deg                51.35:  LONGITUDE
 WHNS.m                  -2.76:  WELL HEAD N/S
 WHEW.m                  -7.70:  WELL HEAD E/W
 UTMX.m              530128.28:  UTM X
 UTMY.m             4433192.49:  UTM Y
 DFWL.m                   0.00:  DISTANCE FWL
 DFSL.m                   0.00:  DISTANCE FSL
 SDEP.m                3435.01:  START DEPTH
 TDD .m                3814.01:  TOTAL DEPTH (DRILLER)
 VSDR.deg               352.80:  VERT SEC DIRECT
 GVFD.g                   1.00:  GRAVITY FIELD
 MFLD.nT              50303.00:  MAGNETIC FIELD
 MDIP.deg                59.52:  MAGNETIC DIP
 MDEC.deg                 6.47:  MAGNETIC DECL
 GRDC.deg                 0.23:  GRID CORRECTION
 AZTC.deg                 6.24:  AZM TOTAL CORR
 EPD .m                   0.00:  ELEVATION
 EGL .m                   0.00:  GROUND ELEVATION
 WDMS.m                 128.20:  WD ELEV
 APD .m                  43.29:  DEPTH ABOVE PD
 DEP .m                3421.30:  DEPTH
 AGAP.m                  43.60:  AIR GAP
 VSEW.m                  -7.70:  VERT SEC E/W
 VSNS.m                  -2.76:  VERT SEC N/S
 EKB .m                   0.00:  KB ELEVATION
 EDF .m                  43.29:  DF ELEVATION
 TDL .m                 369.00:  TOTAL DEPTH (LOGGER)
 VSC .                       0:  VS TO CLOSURE
 MAGU.                 1850390:  MAGUTM CHECKSUM
~Parameter Information Block
#MNEM.UNIT       Value        Description
#---------     -----------    ---------------------------
 AV  .mps                 2.80:  Ann Velocity 
 AVMX.mps                 4.67:  Max Ann Veloc 
 AZIF.deg               303.89:  Azm, Final 
 BHAT.        Rotary Steerable:  BHA Type 
 BREV.rev            128542.00:  Rev Bit Total 
 BROT.°/30m               1.50:  Build Rotating 
 BS  .in                  8.50:  Bit Size 
 BSZ .in                  8.50:  Bit Size 
 BTPL.psig              715.00:  Bit Press Loss 
 CABU.                      No:  Customer Abuse 
 COMM.                     ¼Ûƒ:  Run Comments 1 
 TCS .hr                 53.00:  Time Ciculation Ended 
 CV  .mps                 3.85:  Crit Velocity 
 CVMX.mps                 4.75:  Max Crit Veloc 
 DD1 .         Intigam Rahimov:  Direct Drillr 1 
 DDSV.                 iCruise:  DD Service 
 DEFF.%                  98.60:  % Det Eff 
 DLRX.°/30m               2.34:  Dogleg Rot Max 
 DLSO.°/30m               0.00:  Dogleg Oriented 
 DLSX.°/30m               0.00:  Dogleg Str Max 
 DRET.      00.15.00 05-Jan-21:  Drill End Time 
 DRST.      22.00.00 03-Jan-21:  Drill Start Tim 
 DTIM.hr                 17.72:  Time Drilling 
 EDEP.m                3814.01:  End Depth 
 ENG1.         Yevgeniy Ulikov:  Engineer 1 
 ENG2.        Farkhad Khalidov:  Engineer 2 
 ENG3.           Samir Gafarov:  Engineer 3 
 ETIM.      21.00.00 07-Jan-21:  End Time 
 FLOI.gpm               590.00:  Flow In 
 FLON.gpm               580.00:  Flow In Min 
 FLOS.cptm                1.00:  Fluid Loss 
 FLOX.gpm               595.00:  Flow In Max 
 FTRO.     Connectivity, Formation Presure:  FTWD Run Obj 
 HFLO.                      No:  High Flow 
 HPRE.                     Yes:  High Pressure 
 HTEM.                      No:  High Temp 
 HYDO.m                   1.80:  Hydro Offset 
 IFIN.deg                63.76:  Inc, Final 
 IMAX.deg                64.09:  Inc Max 
 IMIN.deg                55.81:  Inc Min 
 IMND.m                3455.62:  Inc Min Depth 
 IMXD.m                3796.03:  Inc Max Depth 
 JARR.                      No:  Jarring 
 LETM.      00.15.00 05-Jan-21:  Log End Time 
 LOST.hr                     0:  Lost Rig Time 
 LSTM.      22.00.00 03-Jan-21:  Log Start Time 
 MDCL.ppm             36000.00:  Mud Chlorides 
 MDES.     Inversion Oil/Synthetic:  Mud Desc 
 DFD .sg                  1.51:  Mud Density 
 MDMN.sg                  1.51:  Dens Mud Min 
 MDMX.sg                  1.51:  Dens Mud Max 
 MOIL.                    55.5:  Run Mud Oil % 
 MOWR.                   70:30:  Run Mud OWR 
 MSND.                     0.1:  Run Mud Sand % 
 MSOL.                   20.77:  Run Mud Solids% 
 DFV .spqt               67.00:  Mud Viscosity 
 MWOD.in                  6.75:  MWD Tool OD 
 MWSI.                      No:  Serv Intrp, MWD 
 OTIM.hr                113.53:  Time Operating 
 PCON.           Look Like New:  Pad Condition 
 PMAX.psia             4830.00:  Press Op, Max 
 PV  .cP                 29.00:  Mud PV 
 RUN .                     300:  Run Number 
 ROPA.m/hr               22.00:  ROP Avg 
 ROPN.m/hr               18.00:  ROP Min 
 ROPX.m/hr               25.00:  ROP Max 
 RPMA.rpm               130.00:  RPM Surface Avg 
 RPMN.rpm                80.00:  RPM Surface Min 
 RPMX.rpm               140.00:  RPM Surface Max 
 RRUN.                    L101:  Rig Run Number 
 RTIM.hr                  9.28:  Time Reaming 
 SAZI.deg               316.55:  Azm, Start 
 SDEP.m                3445.01:  Start Depth 
 SIDD.                      No:  Serv Intrp, DD 
 SINC.deg                55.81:  Inc, Start 
 SPPA.psig             4500.00:  SPP Avg 
 SPPN.psig             4350.00:  SPP Min 
 SPPX.psig             4830.00:  SPP Max 
 STIM.      00.00.00 03-Jan-21:  Start Time 
 SVCS.                 DD, MWD:  Services 
 SVER.                    9.20:  Sperry Version 
 TDAT.m                 369.00:  Tot Depth Attmp 
 TDDF.                      No:  Trip for DD 
 TDLG.m                 369.00:  Tot Depth Loggd 
 TFF .                      No:  Trip for Fail 
 TQAA.f-kp               15.00:  Torque Abs Avg 
 TQAN.f-kp               12.00:  Torque Abs Min 
 TQAX.f-kp               16.00:  Torque Abs Max 
 TRRT.°/30m              -2.10:  Turn Rotating 
 MRT .                    HCIM:  Maximum Recorded Temperature 
 TTMX.degC               92.16:  Max Tool Temp 
 VS01.                90627822:  Virtual Str1 SN 
 VS02.                90550008:  Virtual Str2 SN 
 VS03.                90627816:  Virtual Str3 SN 
 VS04.                90633205:  Virtual Str4 SN 
 VS05.                13033835:  Virtual Str5 SN 
 VS06.                11125125:  Virtual Str6 SN 
 WBMN.klb                 8.00:  WOB Min 
 WITN.            Bruce Cheyne:  Customer Rep 
 WITN.           Faig Mammadov:  Customer Rep 2 
 WOBA.klb                 9.00:  WOB Avg 
 WOBX.klb                12.00:  WOB Max 
 YP  .lhf2               30.00:  Yield Point 
~Curve Information Block
#MNEM.UNIT                 API CODE     Curve Description
#---------               -----------    ---------------------------
 TIME.HHMMSS            00 000 000 000:  GT Time & Date
 GTET.sec               00 000 000 000:  GT Elapsed Test Time
 GTPQH.psia             00 000 000 000:  GT HR Quartz Pressure
 GTDEPTH.m              00 000 000 000:  GT Depth
 GTTVD.m                00 000 000 000:  GT True Vertical Depth
 GTTQ.degC              00 000 000 000:  GT Quartz Temperature
 GTTN.NONE              00 000 000 000:  GT Test Number
#Other Information
#
#WARRANTY: Halliburton will use its best efforts to furnish customers with 
#accurate information and interpretations that are part of, and incident to, the services 
#provided.  However, Halliburton cannot and does not warrant the accuracy 
#or correctness of such information and interpretations.  Under no circumstances should any 
#such information or interpretation be relied upon as the sole basis for any drilling, 
#completion, production, or financial decision or any procedure involving any risk to the 
#safety of any drilling venture, drilling rig or its crew or any other third party.  The 
#Customer has full responsibility for all drilling, completion and production operation.  
#Halliburton makes no representations or warranties, either expressed or 
#implied, including, but not limited to, the implied warranties of merchantability or fitness 
#for a particular purpose, with respect to the services rendered.  In no event will 
#Halliburton be liable for failure to obtain any particular results or for 
#any damages, including, but not limited to, indirect, special or consequential damages, 
#resulting from the use of any information or interpretation provided by Halliburton.
#
~A           TIME            GTET   GTPQH  GTDEPTH  GTTVD  GTTQ  GTTN 
# ...
   05:15:46.000.05-Jan-2021  69.00 7547.47 3765.01 3128.52 84.85 1.00
   05:15:46.200.05-Jan-2021  69.20 7547.47 3765.01 3128.52 84.85 1.00
   05:15:46.400.05-Jan-2021  69.40 7528.46 3765.01 3128.52 84.85 1.00
   05:15:46.600.05-Jan-2021  69.60 7526.37 3765.01 3128.52 84.85 1.00
   05:15:46.800.05-Jan-2021  69.80 7533.75 3765.01 3128.52 84.85 1.00
   05:15:47.000.05-Jan-2021  70.00 7529.53 3765.01 3128.52 84.85 1.00
   05:15:47.200.05-Jan-2021  70.20 7529.53 3765.01 3128.52 84.85 1.00
   05:15:47.400.05-Jan-2021  70.40 7528.44 3765.01 3128.52 84.85 1.00
   05:15:47.600.05-Jan-2021  70.60 7529.94 3765.01 3128.52 84.85 1.00
   05:15:47.800.05-Jan-2021  70.80 7529.02 3765.01 3128.52 84.85 1.00
   05:15:48.000.05-Jan-2021  71.00 7528.13 3765.01 3128.52 84.85 1.00
   05:15:48.200.05-Jan-2021  71.20 7528.13 3765.01 3128.52 84.85 1.00
   05:15:48.400.05-Jan-2021  71.40 7529.38 3765.01 3128.52 84.85 1.00
   05:15:48.600.05-Jan-2021  71.60 7530.09 3765.01 3128.52 84.85 1.00
   05:15:48.800.05-Jan-2021  71.80 7538.75 3765.01 3128.52 84.85 1.00
   05:15:49.000.05-Jan-2021  72.00 7530.79 3765.01 3128.52 84.85 1.00
   05:15:49.200.05-Jan-2021  72.20 7530.79 3765.01 3128.52 84.85 1.00
   05:15:49.400.05-Jan-2021  72.40 7529.01 3765.01 3128.52 84.85 1.00
   05:15:49.600.05-Jan-2021  72.60 7530.88 3765.01 3128.52 84.85 1.00
   05:15:49.800.05-Jan-2021  72.80 7529.79 3765.01 3128.52 84.85 1.00
   05:15:50.000.05-Jan-2021  73.00 7527.86 3765.01 3128.52 84.85 1.00
   05:15:50.200.05-Jan-2021  73.20 7527.86 3765.01 3128.52 84.85 1.00
   05:15:50.400.05-Jan-2021  73.40 7526.88 3765.01 3128.52 84.85 1.00
   05:15:50.600.05-Jan-2021  73.60 7528.96 3765.01 3128.52 84.85 1.00
   05:15:50.800.05-Jan-2021  73.80 7527.42 3765.01 3128.52 84.85 1.00
   05:15:51.000.05-Jan-2021  74.00 7528.62 3765.01 3128.52 84.85 1.00
   05:15:51.200.05-Jan-2021  74.20 7528.62 3765.01 3128.52 84.85 1.00
   05:15:51.400.05-Jan-2021  74.40 7528.70 3765.01 3128.52 84.85 1.00
   05:15:51.600.05-Jan-2021  74.60 7535.71 3765.01 3128.52 84.85 1.00
   05:15:51.800.05-Jan-2021  74.80 7530.96 3765.01 3128.52 84.85 1.00
   05:15:52.000.05-Jan-2021  75.00 7524.93 3765.01 3128.52 84.85 1.00
   05:15:52.200.05-Jan-2021  75.20 7524.93 3765.01 3128.52 84.85 1.00
   05:15:52.400.05-Jan-2021  75.40 7535.28 3765.01 3128.52 84.85 1.00
   05:15:52.600.05-Jan-2021  75.60 7527.16 3765.01 3128.52 84.85 1.00
   05:15:52.800.05-Jan-2021  75.80 7539.15 3765.01 3128.52 84.85 1.00
   05:15:53.000.05-Jan-2021  76.00 7529.29 3765.01 3128.52 84.85 1.00
   05:15:53.200.05-Jan-2021  76.20 7529.29 3765.01 3128.52 84.85 1.00
   05:15:53.400.05-Jan-2021  76.40 7527.02 3765.01 3128.52 84.85 1.00
   05:15:53.600.05-Jan-2021  76.60 7531.97 3765.01 3128.52 84.84 1.00
   05:15:53.800.05-Jan-2021  76.80 7543.36 3765.01 3128.52 84.84 1.00
   05:15:54.000.05-Jan-2021  77.00 7524.23 3765.01 3128.52 84.84 1.00
   05:15:54.200.05-Jan-2021  77.20 7524.23 3765.01 3128.52 84.84 1.00
   05:15:54.400.05-Jan-2021  77.40 7528.56 3765.01 3128.52 84.84 1.00
   05:15:54.600.05-Jan-2021  77.60 7532.74 3765.01 3128.52 84.84 1.00
   05:15:54.800.05-Jan-2021  77.80 7539.08 3765.01 3128.52 84.84 1.00
   05:15:55.000.05-Jan-2021  78.00 7531.58 3765.01 3128.52 84.84 1.00
   05:15:55.200.05-Jan-2021  78.20 7531.58 3765.01 3128.52 84.84 1.00
   05:15:55.400.05-Jan-2021  78.40 7529.04 3765.01 3128.52 84.84 1.00
   05:15:55.600.05-Jan-2021  78.60 7534.01 3765.01 3128.52 84.84 1.00
   05:15:55.800.05-Jan-2021  78.80 7529.90 3765.01 3128.52 84.84 1.00
   05:15:56.000.05-Jan-2021  79.00 7528.65 3765.01 3128.52 84.84 1.00
   05:15:56.200.05-Jan-2021  79.20 7530.13 3765.01 3128.52 84.84 1.00
   05:15:56.400.05-Jan-2021  79.40 7529.64 3765.01 3128.52 84.84 1.00
   05:15:56.600.05-Jan-2021  79.60 7529.13 3765.01 3128.52 84.84 1.00
   05:15:56.800.05-Jan-2021  79.80 7526.67 3765.01 3128.52 84.84 1.00
   05:15:57.000.05-Jan-2021  80.00 7528.83 3765.01 3128.52 84.84 1.00
   05:15:57.200.05-Jan-2021  80.20 7528.24 3765.01 3128.52 84.84 1.00
   05:15:57.400.05-Jan-2021  80.40 7529.42 3765.01 3128.52 84.84 1.00
   05:15:57.600.05-Jan-2021  80.60 7542.66 3765.01 3128.52 84.84 1.00
   05:15:57.800.05-Jan-2021  80.80 7524.66 3765.01 3128.52 84.84 1.00
   05:15:58.000.05-Jan-2021  81.00 7527.48 3765.01 3128.52 84.84 1.00
   05:15:58.200.05-Jan-2021  81.20 7527.48 3765.01 3128.52 84.84 1.00
   05:15:58.400.05-Jan-2021  81.40 7531.56 3765.01 3128.52 84.84 1.00
   05:15:58.600.05-Jan-2021  81.60 7529.32 3765.01 3128.52 84.84 1.00
   05:15:58.800.05-Jan-2021  81.80 7529.28 3765.01 3128.52 84.84 1.00
   05:15:59.000.05-Jan-2021  82.00 7529.08 3765.01 3128.52 84.84 1.00
   05:15:59.200.05-Jan-2021  82.20 7527.39 3765.01 3128.52 84.84 1.00
   05:15:59.400.05-Jan-2021  82.40 7528.64 3765.01 3128.52 84.84 1.00
   05:15:59.600.05-Jan-2021  82.60 7527.92 3765.01 3128.52 84.84 1.00
   05:15:59.800.05-Jan-2021  82.80 7527.24 3765.01 3128.52 84.84 1.00
   05:16:00.000.05-Jan-2021  83.00 7527.37 3765.01 3128.52 84.84 1.00
   05:16:00.200.05-Jan-2021  83.20 7527.37 3765.01 3128.52 84.84 1.00
   05:16:00.400.05-Jan-2021  83.40 7535.95 3765.01 3128.52 84.84 1.00
   05:16:00.600.05-Jan-2021  83.60 7531.16 3765.01 3128.52 84.84 1.00
   05:16:00.800.05-Jan-2021  83.80 7525.86 3765.01 3128.52 84.84 1.00
   05:16:01.000.05-Jan-2021  84.00 7538.04 3765.01 3128.52 84.84 1.00
   05:16:01.200.05-Jan-2021  84.20 7538.04 3765.01 3128.52 84.84 1.00
   05:16:01.400.05-Jan-2021  84.40 7527.19 3765.01 3128.52 84.84 1.00
   05:16:01.600.05-Jan-2021  84.60 7531.83 3765.01 3128.52 84.84 1.00
   05:16:01.800.05-Jan-2021  84.80 7537.88 3765.01 3128.52 84.84 1.00
   05:16:02.000.05-Jan-2021  85.00 7529.35 3765.01 3128.52 84.84 1.00
   05:16:02.200.05-Jan-2021  85.20 7529.35 3765.01 3128.52 84.84 1.00
   05:16:02.400.05-Jan-2021  85.40 7531.04 3765.01 3128.52 84.84 1.00
   05:16:02.600.05-Jan-2021  85.60 7539.69 3765.01 3128.52 84.84 1.00
   05:16:02.800.05-Jan-2021  85.80 7530.12 3765.01 3128.52 84.84 1.00
   05:16:03.000.05-Jan-2021  86.00 7528.51 3765.01 3128.52 84.84 1.00
   05:16:03.200.05-Jan-2021  86.20 7528.51 3765.01 3128.52 84.84 1.00
   05:16:03.400.05-Jan-2021  86.40 7543.35 3765.01 3128.52 84.84 1.00
   05:16:03.600.05-Jan-2021  86.60 7529.40 3765.01 3128.52 84.84 1.00
   05:16:03.800.05-Jan-2021  86.80 7528.39 3765.01 3128.52 84.84 1.00
   05:16:04.000.05-Jan-2021  87.00 7530.46 3765.01 3128.52 84.84 1.00
   05:16:04.200.05-Jan-2021  87.20 7530.46 3765.01 3128.52 84.84 1.00
   05:16:04.400.05-Jan-2021  87.40 7530.01 3765.01 3128.52 84.84 1.00
   05:16:04.600.05-Jan-2021  87.60 7529.40 3765.01 3128.52 84.84 1.00
   05:16:04.800.05-Jan-2021  87.80 7528.81 3765.01 3128.52 84.84 1.00
   05:16:05.000.05-Jan-2021  88.00 7531.75 3765.01 3128.52 84.84 1.00
   05:16:05.200.05-Jan-2021  88.20 7531.75 3765.01 3128.52 84.84 1.00
   05:16:05.400.05-Jan-2021  88.40 7529.00 3765.01 3128.52 84.84 1.00
   05:16:05.600.05-Jan-2021  88.60 7527.36 3765.01 3128.52 84.84 1.00
   05:16:05.800.05-Jan-2021  88.80 7529.83 3765.01 3128.52 84.84 1.00
   05:16:06.000.05-Jan-2021  89.00 7529.00 3765.01 3128.52 84.84 1.00
   05:16:06.200.05-Jan-2021  89.20 7529.00 3765.01 3128.52 84.84 1.00
   05:16:06.400.05-Jan-2021  89.40 7531.99 3765.01 3128.52 84.84 1.00
   05:16:06.600.05-Jan-2021  89.60 7526.94 3765.01 3128.52 84.84 1.00
   05:16:06.800.05-Jan-2021  89.80 7528.85 3765.01 3128.52 84.84 1.00
   05:16:07.000.05-Jan-2021  90.00 7531.98 3765.01 3128.52 84.84 1.00
   05:16:07.200.05-Jan-2021  90.20 7531.98 3765.01 3128.52 84.84 1.00
   05:16:07.400.05-Jan-2021  90.40 7527.48 3765.01 3128.52 84.84 1.00
   05:16:07.600.05-Jan-2021  90.60 7529.95 3765.01 3128.52 84.84 1.00
   05:16:07.800.05-Jan-2021  90.80 7528.35 3765.01 3128.52 84.84 1.00
   05:16:08.000.05-Jan-2021  91.00 7528.28 3765.01 3128.52 84.84 1.00
   05:16:08.200.05-Jan-2021  91.20 7528.28 3765.01 3128.52 84.84 1.00
   05:16:08.400.05-Jan-2021  91.40 7528.32 3765.01 3128.52 84.84 1.00
   05:16:08.600.05-Jan-2021  91.60 7526.91 3765.01 3128.52 84.84 1.00
   05:16:08.800.05-Jan-2021  91.80 7536.18 3765.01 3128.52 84.84 1.00
