~Version Information
 VERS.                  2.0:   CWLS log ASCII Standard -VERSION 2.0
 WRAP.                   NO:   One line per depth step
~Well Information Block
#MNEM.UNIT     VALUE/NAME     DESCRIPTION
#---------     -----------    ---------------------------
 STRT.S             13:40:14 05-Jan-21: START TIME 13:40:14 05-Jan-21
 STOP.S             13:48:27 05-Jan-21: STOP TIME  13:48:27 05-Jan-21
 STEP.S                   0.00: STEP TIME
 NULL.                 -999.25: NULL VALUE
 DFWT.                        :  DIST FWL TEXT
 DFST.                        :  DIST FSL TEXT
 DMF .             Drill Floor:  DRILL MEAS FROM
 STIM.      06.00.00 31-Dec-20:  START TIME
 DATE.      05.58.24 07-Jan-21:  END TIME
 SPUD.               24-Dec-20:  SPUD DATE
 NREF.                    Grid:  NORTH REFERENCE
 HPTY.       Minimum Curvature:  HOLE POS TYPE
 DMOD.             Drill Model:  DRILL MOD DESC
 SVYD.                  Survey:  SURVEY DESC
 ILTD.               Lithology:  INTERP LTH DESC
 FTOP.          Formation Tops:  FORM TOPS DESC
 SON .        AZ-XX-0906699554:  JOB NUMBER
 WELL.                    B09z:  WELL NAME
 PDAT.          Mean Sea Level:  PERMANENT DATUM
 FLD .                     ACG:  FIELD NAME
 CTRY.              Azerbaijan:  COUNTRY NAME
 COMP.     BP Exploration (Caspian Sea) Ltd.:  COMPANY
 UWI .                     N/A:  UNIQUE WELL IDENTIFIER
 API .                     N/A:  API NUMBER
 WTYP.                Deviated:  WELL TYPE
 MDS .        Operator Entered:  MAG DATA SOURCE
 BASE.              Azerbaijan:  LOGGING EQUIPMENT BASE LOCATION
 REGN.                   EESSA:  REGION
 PROV.                    Baku:  PROVINCE
 STAT.                    Baku:  STATE NAME
 SRVC.          Turan Drilling:  CONTRACTOR
 MWDS.                    Baku:  MWD SHOP
 JOBN.        AZ-XX-0906699554:  JOB TICKET NUMB
 RIG .           Central Azeri:  RIG NAME
 DOE .                     N/A:  DOE NUMBER
 DCON.         Sperry Drilling:  DIRECTNL CONTR
 UNIT.                     N/A:  LOGGING EQUIPMENT ID
 CNTY.                        :  COUNTY
 LOC .                        :  LOCATION
 LMF .             Drill Floor:  LOG MEASURED FROM
 TVDS.m                  43.29:  TVDSS CORRECTN
 LATI.deg                40.03:  LATITUDE
 LONG.deg                51.35:  LONGITUDE
 WHNS.m                  -2.76:  WELL HEAD N/S
 WHEW.m                  -7.70:  WELL HEAD E/W
 UTMX.m              530128.28:  UTM X
 UTMY.m             4433192.49:  UTM Y
 DFWL.m                   0.00:  DISTANCE FWL
 DFSL.m                   0.00:  DISTANCE FSL
 SDEP.m                3435.01:  START DEPTH
 TDD .m                3814.01:  TOTAL DEPTH (DRILLER)
 VSDR.deg               352.80:  VERT SEC DIRECT
 GVFD.g                   1.00:  GRAVITY FIELD
 MFLD.nT              50303.00:  MAGNETIC FIELD
 MDIP.deg                59.52:  MAGNETIC DIP
 MDEC.deg                 6.47:  MAGNETIC DECL
 GRDC.deg                 0.23:  GRID CORRECTION
 AZTC.deg                 6.24:  AZM TOTAL CORR
 EPD .m                   0.00:  ELEVATION
 EGL .m                   0.00:  GROUND ELEVATION
 WDMS.m                 128.20:  WD ELEV
 APD .m                  43.29:  DEPTH ABOVE PD
 DEP .m                3421.30:  DEPTH
 AGAP.m                  43.60:  AIR GAP
 VSEW.m                  -7.70:  VERT SEC E/W
 VSNS.m                  -2.76:  VERT SEC N/S
 EKB .m                   0.00:  KB ELEVATION
 EDF .m                  43.29:  DF ELEVATION
 TDL .m                 369.00:  TOTAL DEPTH (LOGGER)
 VSC .                       0:  VS TO CLOSURE
 MAGU.                 1850390:  MAGUTM CHECKSUM
~Parameter Information Block
#MNEM.UNIT       Value        Description
#---------     -----------    ---------------------------
 AV  .mps                 2.80:  Ann Velocity 
 AVMX.mps                 4.67:  Max Ann Veloc 
 AZIF.deg               303.89:  Azm, Final 
 BHAT.        Rotary Steerable:  BHA Type 
 BREV.rev            128542.00:  Rev Bit Total 
 BROT.°/30m               1.50:  Build Rotating 
 BS  .in                  8.50:  Bit Size 
 BSZ .in                  8.50:  Bit Size 
 BTPL.psig              715.00:  Bit Press Loss 
 CABU.                      No:  Customer Abuse 
 COMM.                     t6w:  Run Comments 1 
 TCS .hr                 53.00:  Time Ciculation Ended 
 CV  .mps                 3.85:  Crit Velocity 
 CVMX.mps                 4.75:  Max Crit Veloc 
 DD1 .         Intigam Rahimov:  Direct Drillr 1 
 DDSV.                 iCruise:  DD Service 
 DEFF.%                  98.60:  % Det Eff 
 DLRX.°/30m               2.34:  Dogleg Rot Max 
 DLSO.°/30m               0.00:  Dogleg Oriented 
 DLSX.°/30m               0.00:  Dogleg Str Max 
 DRET.      00.15.00 05-Jan-21:  Drill End Time 
 DRST.      22.00.00 03-Jan-21:  Drill Start Tim 
 DTIM.hr                 17.72:  Time Drilling 
 EDEP.m                3814.01:  End Depth 
 ENG1.         Yevgeniy Ulikov:  Engineer 1 
 ENG2.        Farkhad Khalidov:  Engineer 2 
 ENG3.           Samir Gafarov:  Engineer 3 
 ETIM.      21.00.00 07-Jan-21:  End Time 
 FLOI.gpm               590.00:  Flow In 
 FLON.gpm               580.00:  Flow In Min 
 FLOS.cptm                1.00:  Fluid Loss 
 FLOX.gpm               595.00:  Flow In Max 
 FTRO.     Connectivity, Formation Presure:  FTWD Run Obj 
 HFLO.                      No:  High Flow 
 HPRE.                     Yes:  High Pressure 
 HTEM.                      No:  High Temp 
 HYDO.m                   1.80:  Hydro Offset 
 IFIN.deg                63.76:  Inc, Final 
 IMAX.deg                64.09:  Inc Max 
 IMIN.deg                55.81:  Inc Min 
 IMND.m                3455.62:  Inc Min Depth 
 IMXD.m                3796.03:  Inc Max Depth 
 JARR.                      No:  Jarring 
 LETM.      00.15.00 05-Jan-21:  Log End Time 
 LOST.hr                     0:  Lost Rig Time 
 LSTM.      22.00.00 03-Jan-21:  Log Start Time 
 MDCL.ppm             36000.00:  Mud Chlorides 
 MDES.     Inversion Oil/Synthetic:  Mud Desc 
 DFD .sg                  1.51:  Mud Density 
 MDMN.sg                  1.51:  Dens Mud Min 
 MDMX.sg                  1.51:  Dens Mud Max 
 MOIL.                    55.5:  Run Mud Oil % 
 MOWR.                   70:30:  Run Mud OWR 
 MSND.                     0.1:  Run Mud Sand % 
 MSOL.                   20.77:  Run Mud Solids% 
 DFV .spqt               67.00:  Mud Viscosity 
 MWOD.in                  6.75:  MWD Tool OD 
 MWSI.                      No:  Serv Intrp, MWD 
 OTIM.hr                113.53:  Time Operating 
 PCON.           Look Like New:  Pad Condition 
 PMAX.psia             4830.00:  Press Op, Max 
 PV  .cP                 29.00:  Mud PV 
 RUN .                     300:  Run Number 
 ROPA.m/hr               22.00:  ROP Avg 
 ROPN.m/hr               18.00:  ROP Min 
 ROPX.m/hr               25.00:  ROP Max 
 RPMA.rpm               130.00:  RPM Surface Avg 
 RPMN.rpm                80.00:  RPM Surface Min 
 RPMX.rpm               140.00:  RPM Surface Max 
 RRUN.                    L101:  Rig Run Number 
 RTIM.hr                  9.28:  Time Reaming 
 SAZI.deg               316.55:  Azm, Start 
 SDEP.m                3445.01:  Start Depth 
 SIDD.                      No:  Serv Intrp, DD 
 SINC.deg                55.81:  Inc, Start 
 SPPA.psig             4500.00:  SPP Avg 
 SPPN.psig             4350.00:  SPP Min 
 SPPX.psig             4830.00:  SPP Max 
 STIM.      00.00.00 03-Jan-21:  Start Time 
 SVCS.                 DD, MWD:  Services 
 SVER.                    9.20:  Sperry Version 
 TDAT.m                 369.00:  Tot Depth Attmp 
 TDDF.                      No:  Trip for DD 
 TDLG.m                 369.00:  Tot Depth Loggd 
 TFF .                      No:  Trip for Fail 
 TQAA.f-kp               15.00:  Torque Abs Avg 
 TQAN.f-kp               12.00:  Torque Abs Min 
 TQAX.f-kp               16.00:  Torque Abs Max 
 TRRT.°/30m              -2.10:  Turn Rotating 
 MRT .                    HCIM:  Maximum Recorded Temperature 
 TTMX.degC               92.16:  Max Tool Temp 
 VS01.                90627822:  Virtual Str1 SN 
 VS02.                90550008:  Virtual Str2 SN 
 VS03.                90627816:  Virtual Str3 SN 
 VS04.                90633205:  Virtual Str4 SN 
 VS05.                13033835:  Virtual Str5 SN 
 VS06.                11125125:  Virtual Str6 SN 
 WBMN.klb                 8.00:  WOB Min 
 WITN.            Bruce Cheyne:  Customer Rep 
 WITN.           Faig Mammadov:  Customer Rep 2 
 WOBA.klb                 9.00:  WOB Avg 
 WOBX.klb                12.00:  WOB Max 
 YP  .lhf2               30.00:  Yield Point 
~Curve Information Block
#MNEM.UNIT                 API CODE     Curve Description
#---------               -----------    ---------------------------
 TIME.HHMMSS            00 000 000 000:  GT Time & Date
 GTET.sec               00 000 000 000:  GT Elapsed Test Time
 GTPQH.psia             00 000 000 000:  GT HR Quartz Pressure
 GTDEPTH.m              00 000 000 000:  GT Depth
 GTTVD.m                00 000 000 000:  GT True Vertical Depth
 GTTQ.degC              00 000 000 000:  GT Quartz Temperature
 GTTN.NONE              00 000 000 000:  GT Test Number
#Other Information
#
#WARRANTY: Halliburton will use its best efforts to furnish customers with 
#accurate information and interpretations that are part of, and incident to, the services 
#provided.  However, Halliburton cannot and does not warrant the accuracy 
#or correctness of such information and interpretations.  Under no circumstances should any 
#such information or interpretation be relied upon as the sole basis for any drilling, 
#completion, production, or financial decision or any procedure involving any risk to the 
#safety of any drilling venture, drilling rig or its crew or any other third party.  The 
#Customer has full responsibility for all drilling, completion and production operation.  
#Halliburton makes no representations or warranties, either expressed or 
#implied, including, but not limited to, the implied warranties of merchantability or fitness 
#for a particular purpose, with respect to the services rendered.  In no event will 
#Halliburton be liable for failure to obtain any particular results or for 
#any damages, including, but not limited to, indirect, special or consequential damages, 
#resulting from the use of any information or interpretation provided by Halliburton.
#
~A           TIME            GTET   GTPQH  GTDEPTH  GTTVD  GTTQ  GTTN 
# ...
   13:44:51.084.05-Jan-2021 276.15 4884.37 3494.01 2996.09 78.01 7.00
   13:44:51.284.05-Jan-2021 276.35 4884.21 3494.01 2996.09 78.01 7.00
   13:44:51.484.05-Jan-2021 276.55 4884.08 3494.01 2996.09 78.01 7.00
   13:44:51.685.05-Jan-2021 276.75 4884.18 3494.01 2996.09 78.01 7.00
   13:44:51.885.05-Jan-2021 276.95 4884.28 3494.01 2996.09 78.01 7.00
   13:44:52.085.05-Jan-2021 277.15 4884.25 3494.01 2996.09 78.01 7.00
   13:44:52.285.05-Jan-2021 277.35 4884.25 3494.01 2996.09 78.01 7.00
   13:44:52.485.05-Jan-2021 277.55 4884.28 3494.01 2996.09 78.01 7.00
   13:44:52.685.05-Jan-2021 277.75 4884.30 3494.01 2996.09 78.01 7.00
   13:44:52.885.05-Jan-2021 277.95 4884.34 3494.01 2996.09 78.01 7.00
   13:44:53.085.05-Jan-2021 278.15 4884.14 3494.01 2996.09 78.01 7.00
   13:44:53.285.05-Jan-2021 278.35 4884.14 3494.01 2996.09 78.01 7.00
   13:44:53.486.05-Jan-2021 278.55 4884.29 3494.01 2996.09 78.01 7.00
   13:44:53.686.05-Jan-2021 278.75 4884.26 3494.01 2996.09 78.01 7.00
   13:44:53.886.05-Jan-2021 278.95 4884.15 3494.01 2996.09 78.01 7.00
   13:44:54.086.05-Jan-2021 279.15 4884.21 3494.01 2996.09 78.01 7.00
   13:44:54.286.05-Jan-2021 279.36 4884.21 3494.01 2996.09 78.01 7.00
   13:44:54.486.05-Jan-2021 279.56 4884.23 3494.01 2996.09 78.01 7.00
   13:44:54.686.05-Jan-2021 279.76 4884.22 3494.01 2996.09 78.01 7.00
   13:44:54.886.05-Jan-2021 279.96 4884.39 3494.01 2996.09 78.01 7.00
   13:44:55.086.05-Jan-2021 280.16 4884.14 3494.01 2996.09 78.01 7.00
   13:44:55.287.05-Jan-2021 280.36 4884.22 3494.01 2996.09 78.01 7.00
   13:44:55.487.05-Jan-2021 280.56 4884.43 3494.01 2996.09 78.01 7.00
   13:44:55.687.05-Jan-2021 280.76 4884.13 3494.01 2996.09 78.01 7.00
   13:44:55.887.05-Jan-2021 280.96 4883.83 3494.01 2996.09 78.01 7.00
   13:44:56.087.05-Jan-2021 281.16 4884.72 3494.01 2996.09 78.01 7.00
   13:44:56.287.05-Jan-2021 281.36 4884.25 3494.01 2996.09 78.01 7.00
   13:44:56.487.05-Jan-2021 281.56 4884.25 3494.01 2996.09 78.01 7.00
   13:44:56.687.05-Jan-2021 281.76 4883.68 3494.01 2996.09 78.01 7.00
   13:44:56.887.05-Jan-2021 281.96 4884.27 3494.01 2996.09 78.01 7.00
   13:44:57.088.05-Jan-2021 282.16 4884.34 3494.01 2996.09 78.01 7.00
   13:44:57.288.05-Jan-2021 282.36 4884.34 3494.01 2996.09 78.01 7.00
   13:44:57.488.05-Jan-2021 282.56 4884.39 3494.01 2996.09 78.01 7.00
   13:44:57.688.05-Jan-2021 282.76 4884.50 3494.01 2996.09 78.01 7.00
   13:44:57.888.05-Jan-2021 282.96 4884.34 3494.01 2996.09 78.01 7.00
   13:44:58.088.05-Jan-2021 283.16 4884.22 3494.01 2996.09 78.01 7.00
   13:44:58.288.05-Jan-2021 283.36 4884.21 3494.01 2996.09 78.01 7.00
   13:44:58.488.05-Jan-2021 283.56 4884.22 3494.01 2996.09 78.02 7.00
   13:44:58.688.05-Jan-2021 283.76 4884.06 3494.01 2996.09 78.02 7.00
   13:44:58.889.05-Jan-2021 283.96 4884.54 3494.01 2996.09 78.02 7.00
   13:44:59.089.05-Jan-2021 284.16 4884.21 3494.01 2996.09 78.02 7.00
   13:44:59.289.05-Jan-2021 284.36 4884.01 3494.01 2996.09 78.02 7.00
   13:44:59.489.05-Jan-2021 284.56 4884.25 3494.01 2996.09 78.02 7.00
   13:44:59.689.05-Jan-2021 284.76 4884.18 3494.01 2996.09 78.02 7.00
   13:44:59.889.05-Jan-2021 284.96 4884.34 3494.01 2996.09 78.02 7.00
   13:45:00.089.05-Jan-2021 285.16 4884.04 3494.01 2996.09 78.02 7.00
   13:45:00.289.05-Jan-2021 285.36 4884.07 3494.01 2996.09 78.02 7.00
   13:45:00.489.05-Jan-2021 285.56 4884.35 3494.01 2996.09 78.02 7.00
   13:45:00.690.05-Jan-2021 285.76 4884.18 3494.01 2996.09 78.02 7.00
   13:45:00.890.05-Jan-2021 285.96 4884.14 3494.01 2996.09 78.02 7.00
   13:45:01.090.05-Jan-2021 286.16 4884.21 3494.01 2996.09 78.02 7.00
   13:45:01.290.05-Jan-2021 286.36 4884.20 3494.01 2996.09 78.02 7.00
   13:45:01.490.05-Jan-2021 286.56 4884.20 3494.01 2996.09 78.02 7.00
   13:45:01.690.05-Jan-2021 286.76 4884.34 3494.01 2996.09 78.02 7.00
   13:45:01.890.05-Jan-2021 286.96 4884.07 3494.01 2996.09 78.02 7.00
   13:45:02.090.05-Jan-2021 287.16 4884.26 3494.01 2996.09 78.02 7.00
   13:45:02.290.05-Jan-2021 287.36 4884.26 3494.01 2996.09 78.02 7.00
   13:45:02.491.05-Jan-2021 287.56 4884.28 3494.01 2996.09 78.02 7.00
   13:45:02.691.05-Jan-2021 287.76 4883.78 3494.01 2996.09 78.02 7.00
   13:45:02.891.05-Jan-2021 287.96 4884.79 3494.01 2996.09 78.02 7.00
   13:45:03.091.05-Jan-2021 288.16 4884.18 3494.01 2996.09 78.02 7.00
   13:45:03.291.05-Jan-2021 288.36 4884.18 3494.01 2996.09 78.02 7.00
   13:45:03.491.05-Jan-2021 288.56 4884.11 3494.01 2996.09 78.02 7.00
   13:45:03.691.05-Jan-2021 288.76 4884.15 3494.01 2996.09 78.02 7.00
   13:45:03.891.05-Jan-2021 288.96 4884.39 3494.01 2996.09 78.02 7.00
   13:45:04.091.05-Jan-2021 289.16 4884.26 3494.01 2996.09 78.02 7.00
   13:45:04.292.05-Jan-2021 289.36 4884.26 3494.01 2996.09 78.02 7.00
   13:45:04.492.05-Jan-2021 289.56 4883.72 3494.01 2996.09 78.02 7.00
   13:45:04.692.05-Jan-2021 289.76 4884.82 3494.01 2996.09 78.02 7.00
   13:45:04.892.05-Jan-2021 289.96 4884.24 3494.01 2996.09 78.02 7.00
   13:45:05.092.05-Jan-2021 290.16 4883.93 3494.01 2996.09 78.02 7.00
   13:45:05.292.05-Jan-2021 290.36 4884.41 3494.01 2996.09 78.02 7.00
   13:45:05.492.05-Jan-2021 290.56 4884.14 3494.01 2996.09 78.02 7.00
   13:45:05.692.05-Jan-2021 290.76 4884.37 3494.01 2996.09 78.02 7.00
   13:45:05.892.05-Jan-2021 290.96 4884.36 3494.01 2996.09 78.02 7.00
   13:45:06.093.05-Jan-2021 291.16 4884.15 3494.01 2996.09 78.02 7.00
   13:45:06.293.05-Jan-2021 291.36 4884.15 3494.01 2996.09 78.02 7.00
   13:45:06.493.05-Jan-2021 291.56 4883.99 3494.01 2996.09 78.02 7.00
   13:45:06.693.05-Jan-2021 291.76 4884.35 3494.01 2996.09 78.02 7.00
   13:45:06.893.05-Jan-2021 291.96 4884.28 3494.01 2996.09 78.02 7.00
   13:45:07.093.05-Jan-2021 292.16 4884.21 3494.01 2996.09 78.02 7.00
   13:45:07.293.05-Jan-2021 292.36 4884.21 3494.01 2996.09 78.02 7.00
   13:45:07.493.05-Jan-2021 292.56 4884.32 3494.01 2996.09 78.02 7.00
   13:45:07.693.05-Jan-2021 292.76 4884.28 3494.01 2996.09 78.02 7.00
   13:45:07.894.05-Jan-2021 292.96 4883.99 3494.01 2996.09 78.02 7.00
   13:45:08.094.05-Jan-2021 293.16 4884.80 3494.01 2996.09 78.02 7.00
   13:45:08.294.05-Jan-2021 293.36 4884.80 3494.01 2996.09 78.02 7.00
   13:45:08.494.05-Jan-2021 293.56 4883.94 3494.01 2996.09 78.02 7.00
   13:45:08.694.05-Jan-2021 293.76 4884.29 3494.01 2996.09 78.02 7.00
   13:45:08.894.05-Jan-2021 293.96 4884.27 3494.01 2996.09 78.02 7.00
   13:45:09.094.05-Jan-2021 294.16 4884.19 3494.01 2996.09 78.02 7.00
   13:45:09.294.05-Jan-2021 294.36 4884.19 3494.01 2996.09 78.02 7.00
   13:45:09.494.05-Jan-2021 294.56 4884.10 3494.01 2996.09 78.02 7.00
   13:45:09.695.05-Jan-2021 294.76 4883.90 3494.01 2996.09 78.02 7.00
   13:45:09.895.05-Jan-2021 294.96 4884.31 3494.01 2996.09 78.02 7.00
   13:45:10.095.05-Jan-2021 295.16 4884.27 3494.01 2996.09 78.02 7.00
   13:45:10.295.05-Jan-2021 295.36 4884.27 3494.01 2996.09 78.02 7.00
   13:45:10.495.05-Jan-2021 295.56 4883.77 3494.01 2996.09 78.02 7.00
   13:45:10.695.05-Jan-2021 295.76 4884.73 3494.01 2996.09 78.03 7.00
   13:45:10.895.05-Jan-2021 295.96 4884.31 3494.01 2996.09 78.03 7.00
   13:45:11.095.05-Jan-2021 296.16 4883.96 3494.01 2996.09 78.03 7.00
   13:45:11.295.05-Jan-2021 296.36 4883.96 3494.01 2996.09 78.03 7.00
   13:45:11.496.05-Jan-2021 296.56 4884.24 3494.01 2996.09 78.03 7.00
   13:45:11.696.05-Jan-2021 296.76 4884.18 3494.01 2996.09 78.03 7.00
   13:45:11.896.05-Jan-2021 296.96 4884.24 3494.01 2996.09 78.03 7.00
   13:45:12.096.05-Jan-2021 297.16 4884.04 3494.01 2996.09 78.03 7.00
   13:45:12.296.05-Jan-2021 297.37 4884.04 3494.01 2996.09 78.03 7.00
   13:45:12.496.05-Jan-2021 297.57 4884.43 3494.01 2996.09 78.03 7.00
   13:45:12.696.05-Jan-2021 297.77 4884.07 3494.01 2996.09 78.03 7.00
   13:45:12.896.05-Jan-2021 297.97 4883.87 3494.01 2996.09 78.03 7.00
   13:45:13.096.05-Jan-2021 298.17 4884.62 3494.01 2996.09 78.03 7.00
   13:45:13.297.05-Jan-2021 298.37 4884.62 3494.01 2996.09 78.03 7.00
   13:45:13.497.05-Jan-2021 298.57 4884.00 3494.01 2996.09 78.03 7.00
   13:45:13.697.05-Jan-2021 298.77 4884.47 3494.01 2996.09 78.03 7.00
   13:45:13.897.05-Jan-2021 298.97 4884.56 3494.01 2996.09 78.03 7.00
