~Version Information
 VERS.                  2.0:   CWLS log ASCII Standard -VERSION 2.0
 WRAP.                   NO:   One line per depth step
~Well Information Block
#MNEM.UNIT     VALUE/NAME     DESCRIPTION
#---------     -----------    ---------------------------
 STRT.S             06:03:00 05-Jan-21: START TIME 06:03:00 05-Jan-21
 STOP.S             06:11:11 05-Jan-21: STOP TIME  06:11:11 05-Jan-21
 STEP.S                   0.00: STEP TIME
 NULL.                 -999.25: NULL VALUE
 DFWT.                        :  DIST FWL TEXT
 DFST.                        :  DIST FSL TEXT
 DMF .             Drill Floor:  DRILL MEAS FROM
 STIM.      06.00.00 31-Dec-20:  START TIME
 DATE.      05.58.24 07-Jan-21:  END TIME
 SPUD.               24-Dec-20:  SPUD DATE
 NREF.                    Grid:  NORTH REFERENCE
 HPTY.       Minimum Curvature:  HOLE POS TYPE
 DMOD.             Drill Model:  DRILL MOD DESC
 SVYD.                  Survey:  SURVEY DESC
 ILTD.               Lithology:  INTERP LTH DESC
 FTOP.          Formation Tops:  FORM TOPS DESC
 SON .        AZ-XX-0906699554:  JOB NUMBER
 WELL.                    B09z:  WELL NAME
 PDAT.          Mean Sea Level:  PERMANENT DATUM
 FLD .                     ACG:  FIELD NAME
 CTRY.              Azerbaijan:  COUNTRY NAME
 COMP.     BP Exploration (Caspian Sea) Ltd.:  COMPANY
 UWI .                     N/A:  UNIQUE WELL IDENTIFIER
 API .                     N/A:  API NUMBER
 WTYP.                Deviated:  WELL TYPE
 MDS .        Operator Entered:  MAG DATA SOURCE
 BASE.              Azerbaijan:  LOGGING EQUIPMENT BASE LOCATION
 REGN.                   EESSA:  REGION
 PROV.                    Baku:  PROVINCE
 STAT.                    Baku:  STATE NAME
 SRVC.          Turan Drilling:  CONTRACTOR
 MWDS.                    Baku:  MWD SHOP
 JOBN.        AZ-XX-0906699554:  JOB TICKET NUMB
 RIG .           Central Azeri:  RIG NAME
 DOE .                     N/A:  DOE NUMBER
 DCON.         Sperry Drilling:  DIRECTNL CONTR
 UNIT.                     N/A:  LOGGING EQUIPMENT ID
 CNTY.                        :  COUNTY
 LOC .                        :  LOCATION
 LMF .             Drill Floor:  LOG MEASURED FROM
 TVDS.m                  43.29:  TVDSS CORRECTN
 LATI.deg                40.03:  LATITUDE
 LONG.deg                51.35:  LONGITUDE
 WHNS.m                  -2.76:  WELL HEAD N/S
 WHEW.m                  -7.70:  WELL HEAD E/W
 UTMX.m              530128.28:  UTM X
 UTMY.m             4433192.49:  UTM Y
 DFWL.m                   0.00:  DISTANCE FWL
 DFSL.m                   0.00:  DISTANCE FSL
 SDEP.m                3435.01:  START DEPTH
 TDD .m                3814.01:  TOTAL DEPTH (DRILLER)
 VSDR.deg               352.80:  VERT SEC DIRECT
 GVFD.g                   1.00:  GRAVITY FIELD
 MFLD.nT              50303.00:  MAGNETIC FIELD
 MDIP.deg                59.52:  MAGNETIC DIP
 MDEC.deg                 6.47:  MAGNETIC DECL
 GRDC.deg                 0.23:  GRID CORRECTION
 AZTC.deg                 6.24:  AZM TOTAL CORR
 EPD .m                   0.00:  ELEVATION
 EGL .m                   0.00:  GROUND ELEVATION
 WDMS.m                 128.20:  WD ELEV
 APD .m                  43.29:  DEPTH ABOVE PD
 DEP .m                3421.30:  DEPTH
 AGAP.m                  43.60:  AIR GAP
 VSEW.m                  -7.70:  VERT SEC E/W
 VSNS.m                  -2.76:  VERT SEC N/S
 EKB .m                   0.00:  KB ELEVATION
 EDF .m                  43.29:  DF ELEVATION
 TDL .m                 369.00:  TOTAL DEPTH (LOGGER)
 VSC .                       0:  VS TO CLOSURE
 MAGU.                 1850390:  MAGUTM CHECKSUM
~Parameter Information Block
#MNEM.UNIT       Value        Description
#---------     -----------    ---------------------------
 AV  .mps                 2.80:  Ann Velocity 
 AVMX.mps                 4.67:  Max Ann Veloc 
 AZIF.deg               303.89:  Azm, Final 
 BHAT.        Rotary Steerable:  BHA Type 
 BREV.rev            128542.00:  Rev Bit Total 
 BROT.°/30m               1.50:  Build Rotating 
 BS  .in                  8.50:  Bit Size 
 BSZ .in                  8.50:  Bit Size 
 BTPL.psig              715.00:  Bit Press Loss 
 CABU.                      No:  Customer Abuse 
 COMM.                     t‘v:  Run Comments 1 
 TCS .hr                 53.00:  Time Ciculation Ended 
 CV  .mps                 3.85:  Crit Velocity 
 CVMX.mps                 4.75:  Max Crit Veloc 
 DD1 .         Intigam Rahimov:  Direct Drillr 1 
 DDSV.                 iCruise:  DD Service 
 DEFF.%                  98.60:  % Det Eff 
 DLRX.°/30m               2.34:  Dogleg Rot Max 
 DLSO.°/30m               0.00:  Dogleg Oriented 
 DLSX.°/30m               0.00:  Dogleg Str Max 
 DRET.      00.15.00 05-Jan-21:  Drill End Time 
 DRST.      22.00.00 03-Jan-21:  Drill Start Tim 
 DTIM.hr                 17.72:  Time Drilling 
 EDEP.m                3814.01:  End Depth 
 ENG1.         Yevgeniy Ulikov:  Engineer 1 
 ENG2.        Farkhad Khalidov:  Engineer 2 
 ENG3.           Samir Gafarov:  Engineer 3 
 ETIM.      21.00.00 07-Jan-21:  End Time 
 FLOI.gpm               590.00:  Flow In 
 FLON.gpm               580.00:  Flow In Min 
 FLOS.cptm                1.00:  Fluid Loss 
 FLOX.gpm               595.00:  Flow In Max 
 FTRO.     Connectivity, Formation Presure:  FTWD Run Obj 
 HFLO.                      No:  High Flow 
 HPRE.                     Yes:  High Pressure 
 HTEM.                      No:  High Temp 
 HYDO.m                   1.80:  Hydro Offset 
 IFIN.deg                63.76:  Inc, Final 
 IMAX.deg                64.09:  Inc Max 
 IMIN.deg                55.81:  Inc Min 
 IMND.m                3455.62:  Inc Min Depth 
 IMXD.m                3796.03:  Inc Max Depth 
 JARR.                      No:  Jarring 
 LETM.      00.15.00 05-Jan-21:  Log End Time 
 LOST.hr                     0:  Lost Rig Time 
 LSTM.      22.00.00 03-Jan-21:  Log Start Time 
 MDCL.ppm             36000.00:  Mud Chlorides 
 MDES.     Inversion Oil/Synthetic:  Mud Desc 
 DFD .sg                  1.51:  Mud Density 
 MDMN.sg                  1.51:  Dens Mud Min 
 MDMX.sg                  1.51:  Dens Mud Max 
 MOIL.                    55.5:  Run Mud Oil % 
 MOWR.                   70:30:  Run Mud OWR 
 MSND.                     0.1:  Run Mud Sand % 
 MSOL.                   20.77:  Run Mud Solids% 
 DFV .spqt               67.00:  Mud Viscosity 
 MWOD.in                  6.75:  MWD Tool OD 
 MWSI.                      No:  Serv Intrp, MWD 
 OTIM.hr                113.53:  Time Operating 
 PCON.           Look Like New:  Pad Condition 
 PMAX.psia             4830.00:  Press Op, Max 
 PV  .cP                 29.00:  Mud PV 
 RUN .                     300:  Run Number 
 ROPA.m/hr               22.00:  ROP Avg 
 ROPN.m/hr               18.00:  ROP Min 
 ROPX.m/hr               25.00:  ROP Max 
 RPMA.rpm               130.00:  RPM Surface Avg 
 RPMN.rpm                80.00:  RPM Surface Min 
 RPMX.rpm               140.00:  RPM Surface Max 
 RRUN.                    L101:  Rig Run Number 
 RTIM.hr                  9.28:  Time Reaming 
 SAZI.deg               316.55:  Azm, Start 
 SDEP.m                3445.01:  Start Depth 
 SIDD.                      No:  Serv Intrp, DD 
 SINC.deg                55.81:  Inc, Start 
 SPPA.psig             4500.00:  SPP Avg 
 SPPN.psig             4350.00:  SPP Min 
 SPPX.psig             4830.00:  SPP Max 
 STIM.      00.00.00 03-Jan-21:  Start Time 
 SVCS.                 DD, MWD:  Services 
 SVER.                    9.20:  Sperry Version 
 TDAT.m                 369.00:  Tot Depth Attmp 
 TDDF.                      No:  Trip for DD 
 TDLG.m                 369.00:  Tot Depth Loggd 
 TFF .                      No:  Trip for Fail 
 TQAA.f-kp               15.00:  Torque Abs Avg 
 TQAN.f-kp               12.00:  Torque Abs Min 
 TQAX.f-kp               16.00:  Torque Abs Max 
 TRRT.°/30m              -2.10:  Turn Rotating 
 MRT .                    HCIM:  Maximum Recorded Temperature 
 TTMX.degC               92.16:  Max Tool Temp 
 VS01.                90627822:  Virtual Str1 SN 
 VS02.                90550008:  Virtual Str2 SN 
 VS03.                90627816:  Virtual Str3 SN 
 VS04.                90633205:  Virtual Str4 SN 
 VS05.                13033835:  Virtual Str5 SN 
 VS06.                11125125:  Virtual Str6 SN 
 WBMN.klb                 8.00:  WOB Min 
 WITN.            Bruce Cheyne:  Customer Rep 
 WITN.           Faig Mammadov:  Customer Rep 2 
 WOBA.klb                 9.00:  WOB Avg 
 WOBX.klb                12.00:  WOB Max 
 YP  .lhf2               30.00:  Yield Point 
~Curve Information Block
#MNEM.UNIT                 API CODE     Curve Description
#---------               -----------    ---------------------------
 TIME.HHMMSS            00 000 000 000:  GT Time & Date
 GTET.sec               00 000 000 000:  GT Elapsed Test Time
 GTPQH.psia             00 000 000 000:  GT HR Quartz Pressure
 GTDEPTH.m              00 000 000 000:  GT Depth
 GTTVD.m                00 000 000 000:  GT True Vertical Depth
 GTTQ.degC              00 000 000 000:  GT Quartz Temperature
 GTTN.NONE              00 000 000 000:  GT Test Number
#Other Information
#
#WARRANTY: Halliburton will use its best efforts to furnish customers with 
#accurate information and interpretations that are part of, and incident to, the services 
#provided.  However, Halliburton cannot and does not warrant the accuracy 
#or correctness of such information and interpretations.  Under no circumstances should any 
#such information or interpretation be relied upon as the sole basis for any drilling, 
#completion, production, or financial decision or any procedure involving any risk to the 
#safety of any drilling venture, drilling rig or its crew or any other third party.  The 
#Customer has full responsibility for all drilling, completion and production operation.  
#Halliburton makes no representations or warranties, either expressed or 
#implied, including, but not limited to, the implied warranties of merchantability or fitness 
#for a particular purpose, with respect to the services rendered.  In no event will 
#Halliburton be liable for failure to obtain any particular results or for 
#any damages, including, but not limited to, indirect, special or consequential damages, 
#resulting from the use of any information or interpretation provided by Halliburton.
#
~A           TIME            GTET   GTPQH  GTDEPTH  GTTVD  GTTQ  GTTN 
# ...
   06:10:17.000.05-Jan-2021 437.00 4756.00 3750.01 3121.90 84.34 3.00
   06:10:17.200.05-Jan-2021 437.20 4756.00 3750.01 3121.90 84.34 3.00
   06:10:17.400.05-Jan-2021 437.40 4756.21 3750.01 3121.90 84.34 3.00
   06:10:17.600.05-Jan-2021 437.60 4756.26 3750.01 3121.90 84.34 3.00
   06:10:17.800.05-Jan-2021 437.80 4756.23 3750.01 3121.90 84.34 3.00
   06:10:18.000.05-Jan-2021 438.00 4756.23 3750.01 3121.90 84.34 3.00
   06:10:18.200.05-Jan-2021 438.20 4756.23 3750.01 3121.90 84.34 3.00
   06:10:18.400.05-Jan-2021 438.40 4756.32 3750.01 3121.90 84.34 3.00
   06:10:18.600.05-Jan-2021 438.60 4756.07 3750.01 3121.90 84.34 3.00
   06:10:18.800.05-Jan-2021 438.80 4756.24 3750.01 3121.90 84.34 3.00
   06:10:19.000.05-Jan-2021 439.00 4756.39 3750.01 3121.90 84.34 3.00
   06:10:19.200.05-Jan-2021 439.20 4756.39 3750.01 3121.90 84.34 3.00
   06:10:19.400.05-Jan-2021 439.40 4756.17 3750.01 3121.90 84.34 3.00
   06:10:19.600.05-Jan-2021 439.60 4756.25 3750.01 3121.90 84.34 3.00
   06:10:19.800.05-Jan-2021 439.80 4756.23 3750.01 3121.90 84.34 3.00
   06:10:20.000.05-Jan-2021 440.00 4756.27 3750.01 3121.90 84.34 3.00
   06:10:20.200.05-Jan-2021 440.20 4756.27 3750.01 3121.90 84.34 3.00
   06:10:20.400.05-Jan-2021 440.40 4756.23 3750.01 3121.90 84.34 3.00
   06:10:20.600.05-Jan-2021 440.60 4756.27 3750.01 3121.90 84.34 3.00
   06:10:20.800.05-Jan-2021 440.80 4756.18 3750.01 3121.90 84.34 3.00
   06:10:21.000.05-Jan-2021 441.00 4756.21 3750.01 3121.90 84.34 3.00
   06:10:21.200.05-Jan-2021 441.20 4756.21 3750.01 3121.90 84.34 3.00
   06:10:21.400.05-Jan-2021 441.40 4756.19 3750.01 3121.90 84.34 3.00
   06:10:21.600.05-Jan-2021 441.60 4756.18 3750.01 3121.90 84.34 3.00
   06:10:21.800.05-Jan-2021 441.80 4756.42 3750.01 3121.90 84.34 3.00
   06:10:22.000.05-Jan-2021 442.00 4756.12 3750.01 3121.90 84.34 3.00
   06:10:22.200.05-Jan-2021 442.20 4756.12 3750.01 3121.90 84.34 3.00
   06:10:22.400.05-Jan-2021 442.40 4756.25 3750.01 3121.90 84.34 3.00
   06:10:22.600.05-Jan-2021 442.60 4756.20 3750.01 3121.90 84.34 3.00
   06:10:22.800.05-Jan-2021 442.80 4756.22 3750.01 3121.90 84.34 3.00
   06:10:23.000.05-Jan-2021 443.00 4756.21 3750.01 3121.90 84.34 3.00
   06:10:23.200.05-Jan-2021 443.20 4756.21 3750.01 3121.90 84.34 3.00
   06:10:23.400.05-Jan-2021 443.40 4756.23 3750.01 3121.90 84.34 3.00
   06:10:23.600.05-Jan-2021 443.60 4756.17 3750.01 3121.90 84.34 3.00
   06:10:23.800.05-Jan-2021 443.80 4756.26 3750.01 3121.90 84.34 3.00
   06:10:24.000.05-Jan-2021 444.00 4756.23 3750.01 3121.90 84.34 3.00
   06:10:24.200.05-Jan-2021 444.20 4756.23 3750.01 3121.90 84.34 3.00
   06:10:24.400.05-Jan-2021 444.40 4756.37 3750.01 3121.90 84.34 3.00
   06:10:24.600.05-Jan-2021 444.60 4756.18 3750.01 3121.90 84.34 3.00
   06:10:24.800.05-Jan-2021 444.80 4756.35 3750.01 3121.90 84.34 3.00
   06:10:25.000.05-Jan-2021 445.00 4756.14 3750.01 3121.90 84.34 3.00
   06:10:25.200.05-Jan-2021 445.20 4756.14 3750.01 3121.90 84.34 3.00
   06:10:25.400.05-Jan-2021 445.40 4756.19 3750.01 3121.90 84.34 3.00
   06:10:25.600.05-Jan-2021 445.60 4756.30 3750.01 3121.90 84.34 3.00
   06:10:25.800.05-Jan-2021 445.80 4756.29 3750.01 3121.90 84.34 3.00
   06:10:26.000.05-Jan-2021 446.00 4756.06 3750.01 3121.90 84.34 3.00
   06:10:26.200.05-Jan-2021 446.20 4756.06 3750.01 3121.90 84.34 3.00
   06:10:26.400.05-Jan-2021 446.40 4756.30 3750.01 3121.90 84.34 3.00
   06:10:26.600.05-Jan-2021 446.60 4755.95 3750.01 3121.90 84.34 3.00
   06:10:26.800.05-Jan-2021 446.80 4756.24 3750.01 3121.90 84.34 3.00
   06:10:27.000.05-Jan-2021 447.00 4756.83 3750.01 3121.90 84.34 3.00
   06:10:27.200.05-Jan-2021 447.20 4756.83 3750.01 3121.90 84.34 3.00
   06:10:27.400.05-Jan-2021 447.40 4773.76 3750.01 3121.90 84.34 3.00
   06:10:27.600.05-Jan-2021 447.60 6491.47 3750.01 3121.90 84.34 3.00
   06:10:27.800.05-Jan-2021 447.80 7508.61 3750.01 3121.90 84.34 3.00
   06:10:28.000.05-Jan-2021 448.00 7505.97 3750.01 3121.90 84.34 3.00
   06:10:28.200.05-Jan-2021 448.20 7505.97 3750.01 3121.90 84.34 3.00
   06:10:28.400.05-Jan-2021 448.40 7504.53 3750.01 3121.90 84.34 3.00
   06:10:28.600.05-Jan-2021 448.60 7503.90 3750.01 3121.90 84.34 3.00
   06:10:28.800.05-Jan-2021 448.80 7504.16 3750.01 3121.90 84.34 3.00
   06:10:29.000.05-Jan-2021 449.00 7504.92 3750.01 3121.90 84.34 3.00
   06:10:29.200.05-Jan-2021 449.20 7504.92 3750.01 3121.90 84.34 3.00
   06:10:29.400.05-Jan-2021 449.40 7503.99 3750.01 3121.90 84.35 3.00
   06:10:29.600.05-Jan-2021 449.60 7503.90 3750.01 3121.90 84.35 3.00
   06:10:29.800.05-Jan-2021 449.80 7520.81 3750.01 3121.90 84.35 3.00
   06:10:30.000.05-Jan-2021 450.00 7501.10 3750.01 3121.90 84.35 3.00
   06:10:30.200.05-Jan-2021 450.20 7501.10 3750.01 3121.90 84.35 3.00
   06:10:30.400.05-Jan-2021 450.40 7505.45 3750.01 3121.90 84.36 3.00
   06:10:30.600.05-Jan-2021 450.60 7509.92 3750.01 3121.90 84.36 3.00
   06:10:30.800.05-Jan-2021 450.80 7508.41 3750.01 3121.90 84.36 3.00
   06:10:31.000.05-Jan-2021 451.00 7508.59 3750.01 3121.90 84.36 3.00
   06:10:31.200.05-Jan-2021 451.20 7508.59 3750.01 3121.90 84.36 3.00
   06:10:31.400.05-Jan-2021 451.40 7507.65 3750.01 3121.90 84.37 3.00
   06:10:31.600.05-Jan-2021 451.60 7509.13 3750.01 3121.90 84.37 3.00
   06:10:31.800.05-Jan-2021 451.80 7507.94 3750.01 3121.90 84.37 3.00
   06:10:32.000.05-Jan-2021 452.00 7506.78 3750.01 3121.90 84.37 3.00
   06:10:32.200.05-Jan-2021 452.20 7506.78 3750.01 3121.90 84.37 3.00
   06:10:32.400.05-Jan-2021 452.40 7523.30 3750.01 3121.90 84.38 3.00
   06:10:32.600.05-Jan-2021 452.60 7501.67 3750.01 3121.90 84.38 3.00
   06:10:32.800.05-Jan-2021 452.80 7505.70 3750.01 3121.90 84.38 3.00
   06:10:33.000.05-Jan-2021 453.00 7518.55 3750.01 3121.90 84.39 3.00
   06:10:33.200.05-Jan-2021 453.20 7518.55 3750.01 3121.90 84.39 3.00
   06:10:33.400.05-Jan-2021 453.40 7507.89 3750.01 3121.90 84.39 3.00
   06:10:33.600.05-Jan-2021 453.60 7507.31 3750.01 3121.90 84.39 3.00
   06:10:33.800.05-Jan-2021 453.80 7527.71 3750.01 3121.90 84.39 3.00
   06:10:34.000.05-Jan-2021 454.00 7505.40 3750.01 3121.90 84.40 3.00
   06:10:34.200.05-Jan-2021 454.20 7505.40 3750.01 3121.90 84.40 3.00
   06:10:34.400.05-Jan-2021 454.40 7508.42 3750.01 3121.90 84.40 3.00
   06:10:34.600.05-Jan-2021 454.60 7523.13 3750.01 3121.90 84.40 3.00
   06:10:34.800.05-Jan-2021 454.80 7509.67 3750.01 3121.90 84.40 3.00
   06:10:35.000.05-Jan-2021 455.00 7509.51 3750.01 3121.90 84.40 3.00
   06:10:35.200.05-Jan-2021 455.20 7509.51 3750.01 3121.90 84.40 3.00
   06:10:35.400.05-Jan-2021 455.40 7513.06 3750.01 3121.90 84.41 3.00
   06:10:35.600.05-Jan-2021 455.60 7512.75 3750.01 3121.90 84.41 3.00
   06:10:35.800.05-Jan-2021 455.80 7510.67 3750.01 3121.90 84.41 3.00
   06:10:36.000.05-Jan-2021 456.00 7514.90 3750.01 3121.90 84.41 3.00
   06:10:36.200.05-Jan-2021 456.20 7514.90 3750.01 3121.90 84.41 3.00
   06:10:36.400.05-Jan-2021 456.40 7513.09 3750.01 3121.90 84.41 3.00
   06:10:36.600.05-Jan-2021 456.60 7512.48 3750.01 3121.90 84.41 3.00
   06:10:36.800.05-Jan-2021 456.80 7511.70 3750.01 3121.90 84.41 3.00
   06:10:37.000.05-Jan-2021 457.00 7512.15 3750.01 3121.90 84.41 3.00
   06:10:37.200.05-Jan-2021 457.20 7512.15 3750.01 3121.90 84.41 3.00
   06:10:37.400.05-Jan-2021 457.40 7511.85 3750.01 3121.90 84.41 3.00
   06:10:37.600.05-Jan-2021 457.60 7510.26 3750.01 3121.90 84.41 3.00
   06:10:37.800.05-Jan-2021 457.80 7510.23 3750.01 3121.90 84.42 3.00
   06:10:38.000.05-Jan-2021 458.00 7525.33 3750.01 3121.90 84.42 3.00
   06:10:38.200.05-Jan-2021 458.20 7525.33 3750.01 3121.90 84.42 3.00
   06:10:38.400.05-Jan-2021 458.40 7509.15 3750.01 3121.90 84.42 3.00
   06:10:38.600.05-Jan-2021 458.60 7509.38 3750.01 3121.90 84.42 3.00
   06:10:38.800.05-Jan-2021 458.80 7512.45 3750.01 3121.90 84.42 3.00
   06:10:39.000.05-Jan-2021 459.00 7511.55 3750.01 3121.90 84.42 3.00
   06:10:39.200.05-Jan-2021 459.20 7511.55 3750.01 3121.90 84.42 3.00
   06:10:39.400.05-Jan-2021 459.40 7509.43 3750.01 3121.90 84.42 3.00
   06:10:39.600.05-Jan-2021 459.60 7509.96 3750.01 3121.90 84.42 3.00
   06:10:39.800.05-Jan-2021 459.80 7511.95 3750.01 3121.90 84.42 3.00
