~Version Information
 VERS.                  2.0:   CWLS log ASCII Standard -VERSION 2.0
 WRAP.                   NO:   One line per depth step
~Well Information Block
#MNEM.UNIT     VALUE/NAME     DESCRIPTION
#---------     -----------    ---------------------------
 STRT.S             08:46:17 05-Jan-21: START TIME 08:46:17 05-Jan-21
 STOP.S             08:54:30 05-Jan-21: STOP TIME  08:54:30 05-Jan-21
 STEP.S                   0.00: STEP TIME
 NULL.                 -999.25: NULL VALUE
 DFWT.                        :  DIST FWL TEXT
 DFST.                        :  DIST FSL TEXT
 DMF .             Drill Floor:  DRILL MEAS FROM
 STIM.      06.00.00 31-Dec-20:  START TIME
 DATE.      05.58.24 07-Jan-21:  END TIME
 SPUD.               24-Dec-20:  SPUD DATE
 NREF.                    Grid:  NORTH REFERENCE
 HPTY.       Minimum Curvature:  HOLE POS TYPE
 DMOD.             Drill Model:  DRILL MOD DESC
 SVYD.                  Survey:  SURVEY DESC
 ILTD.               Lithology:  INTERP LTH DESC
 FTOP.          Formation Tops:  FORM TOPS DESC
 SON .        AZ-XX-0906699554:  JOB NUMBER
 WELL.                    B09z:  WELL NAME
 PDAT.          Mean Sea Level:  PERMANENT DATUM
 FLD .                     ACG:  FIELD NAME
 CTRY.              Azerbaijan:  COUNTRY NAME
 COMP.     BP Exploration (Caspian Sea) Ltd.:  COMPANY
 UWI .                     N/A:  UNIQUE WELL IDENTIFIER
 API .                     N/A:  API NUMBER
 WTYP.                Deviated:  WELL TYPE
 MDS .        Operator Entered:  MAG DATA SOURCE
 BASE.              Azerbaijan:  LOGGING EQUIPMENT BASE LOCATION
 REGN.                   EESSA:  REGION
 PROV.                    Baku:  PROVINCE
 STAT.                    Baku:  STATE NAME
 SRVC.          Turan Drilling:  CONTRACTOR
 MWDS.                    Baku:  MWD SHOP
 JOBN.        AZ-XX-0906699554:  JOB TICKET NUMB
 RIG .           Central Azeri:  RIG NAME
 DOE .                     N/A:  DOE NUMBER
 DCON.         Sperry Drilling:  DIRECTNL CONTR
 UNIT.                     N/A:  LOGGING EQUIPMENT ID
 CNTY.                        :  COUNTY
 LOC .                        :  LOCATION
 LMF .             Drill Floor:  LOG MEASURED FROM
 TVDS.m                  43.29:  TVDSS CORRECTN
 LATI.deg                40.03:  LATITUDE
 LONG.deg                51.35:  LONGITUDE
 WHNS.m                  -2.76:  WELL HEAD N/S
 WHEW.m                  -7.70:  WELL HEAD E/W
 UTMX.m              530128.28:  UTM X
 UTMY.m             4433192.49:  UTM Y
 DFWL.m                   0.00:  DISTANCE FWL
 DFSL.m                   0.00:  DISTANCE FSL
 SDEP.m                3435.01:  START DEPTH
 TDD .m                3814.01:  TOTAL DEPTH (DRILLER)
 VSDR.deg               352.80:  VERT SEC DIRECT
 GVFD.g                   1.00:  GRAVITY FIELD
 MFLD.nT              50303.00:  MAGNETIC FIELD
 MDIP.deg                59.52:  MAGNETIC DIP
 MDEC.deg                 6.47:  MAGNETIC DECL
 GRDC.deg                 0.23:  GRID CORRECTION
 AZTC.deg                 6.24:  AZM TOTAL CORR
 EPD .m                   0.00:  ELEVATION
 EGL .m                   0.00:  GROUND ELEVATION
 WDMS.m                 128.20:  WD ELEV
 APD .m                  43.29:  DEPTH ABOVE PD
 DEP .m                3421.30:  DEPTH
 AGAP.m                  43.60:  AIR GAP
 VSEW.m                  -7.70:  VERT SEC E/W
 VSNS.m                  -2.76:  VERT SEC N/S
 EKB .m                   0.00:  KB ELEVATION
 EDF .m                  43.29:  DF ELEVATION
 TDL .m                 369.00:  TOTAL DEPTH (LOGGER)
 VSC .                       0:  VS TO CLOSURE
 MAGU.                 1850390:  MAGUTM CHECKSUM
~Parameter Information Block
#MNEM.UNIT       Value        Description
#---------     -----------    ---------------------------
 AV  .mps                 2.80:  Ann Velocity 
 AVMX.mps                 4.67:  Max Ann Veloc 
 AZIF.deg               303.89:  Azm, Final 
 BHAT.        Rotary Steerable:  BHA Type 
 BREV.rev            128542.00:  Rev Bit Total 
 BROT.°/30m               1.50:  Build Rotating 
 BS  .in                  8.50:  Bit Size 
 BSZ .in                  8.50:  Bit Size 
 BTPL.psig              715.00:  Bit Press Loss 
 CABU.                      No:  Customer Abuse 
 COMM.                     Œã}:  Run Comments 1 
 TCS .hr                 53.00:  Time Ciculation Ended 
 CV  .mps                 3.85:  Crit Velocity 
 CVMX.mps                 4.75:  Max Crit Veloc 
 DD1 .         Intigam Rahimov:  Direct Drillr 1 
 DDSV.                 iCruise:  DD Service 
 DEFF.%                  98.60:  % Det Eff 
 DLRX.°/30m               2.34:  Dogleg Rot Max 
 DLSO.°/30m               0.00:  Dogleg Oriented 
 DLSX.°/30m               0.00:  Dogleg Str Max 
 DRET.      00.15.00 05-Jan-21:  Drill End Time 
 DRST.      22.00.00 03-Jan-21:  Drill Start Tim 
 DTIM.hr                 17.72:  Time Drilling 
 EDEP.m                3814.01:  End Depth 
 ENG1.         Yevgeniy Ulikov:  Engineer 1 
 ENG2.        Farkhad Khalidov:  Engineer 2 
 ENG3.           Samir Gafarov:  Engineer 3 
 ETIM.      21.00.00 07-Jan-21:  End Time 
 FLOI.gpm               590.00:  Flow In 
 FLON.gpm               580.00:  Flow In Min 
 FLOS.cptm                1.00:  Fluid Loss 
 FLOX.gpm               595.00:  Flow In Max 
 FTRO.     Connectivity, Formation Presure:  FTWD Run Obj 
 HFLO.                      No:  High Flow 
 HPRE.                     Yes:  High Pressure 
 HTEM.                      No:  High Temp 
 HYDO.m                   1.80:  Hydro Offset 
 IFIN.deg                63.76:  Inc, Final 
 IMAX.deg                64.09:  Inc Max 
 IMIN.deg                55.81:  Inc Min 
 IMND.m                3455.62:  Inc Min Depth 
 IMXD.m                3796.03:  Inc Max Depth 
 JARR.                      No:  Jarring 
 LETM.      00.15.00 05-Jan-21:  Log End Time 
 LOST.hr                     0:  Lost Rig Time 
 LSTM.      22.00.00 03-Jan-21:  Log Start Time 
 MDCL.ppm             36000.00:  Mud Chlorides 
 MDES.     Inversion Oil/Synthetic:  Mud Desc 
 DFD .sg                  1.51:  Mud Density 
 MDMN.sg                  1.51:  Dens Mud Min 
 MDMX.sg                  1.51:  Dens Mud Max 
 MOIL.                    55.5:  Run Mud Oil % 
 MOWR.                   70:30:  Run Mud OWR 
 MSND.                     0.1:  Run Mud Sand % 
 MSOL.                   20.77:  Run Mud Solids% 
 DFV .spqt               67.00:  Mud Viscosity 
 MWOD.in                  6.75:  MWD Tool OD 
 MWSI.                      No:  Serv Intrp, MWD 
 OTIM.hr                113.53:  Time Operating 
 PCON.           Look Like New:  Pad Condition 
 PMAX.psia             4830.00:  Press Op, Max 
 PV  .cP                 29.00:  Mud PV 
 RUN .                     300:  Run Number 
 ROPA.m/hr               22.00:  ROP Avg 
 ROPN.m/hr               18.00:  ROP Min 
 ROPX.m/hr               25.00:  ROP Max 
 RPMA.rpm               130.00:  RPM Surface Avg 
 RPMN.rpm                80.00:  RPM Surface Min 
 RPMX.rpm               140.00:  RPM Surface Max 
 RRUN.                    L101:  Rig Run Number 
 RTIM.hr                  9.28:  Time Reaming 
 SAZI.deg               316.55:  Azm, Start 
 SDEP.m                3445.01:  Start Depth 
 SIDD.                      No:  Serv Intrp, DD 
 SINC.deg                55.81:  Inc, Start 
 SPPA.psig             4500.00:  SPP Avg 
 SPPN.psig             4350.00:  SPP Min 
 SPPX.psig             4830.00:  SPP Max 
 STIM.      00.00.00 03-Jan-21:  Start Time 
 SVCS.                 DD, MWD:  Services 
 SVER.                    9.20:  Sperry Version 
 TDAT.m                 369.00:  Tot Depth Attmp 
 TDDF.                      No:  Trip for DD 
 TDLG.m                 369.00:  Tot Depth Loggd 
 TFF .                      No:  Trip for Fail 
 TQAA.f-kp               15.00:  Torque Abs Avg 
 TQAN.f-kp               12.00:  Torque Abs Min 
 TQAX.f-kp               16.00:  Torque Abs Max 
 TRRT.°/30m              -2.10:  Turn Rotating 
 MRT .                    HCIM:  Maximum Recorded Temperature 
 TTMX.degC               92.16:  Max Tool Temp 
 VS01.                90627822:  Virtual Str1 SN 
 VS02.                90550008:  Virtual Str2 SN 
 VS03.                90627816:  Virtual Str3 SN 
 VS04.                90633205:  Virtual Str4 SN 
 VS05.                13033835:  Virtual Str5 SN 
 VS06.                11125125:  Virtual Str6 SN 
 WBMN.klb                 8.00:  WOB Min 
 WITN.            Bruce Cheyne:  Customer Rep 
 WITN.           Faig Mammadov:  Customer Rep 2 
 WOBA.klb                 9.00:  WOB Avg 
 WOBX.klb                12.00:  WOB Max 
 YP  .lhf2               30.00:  Yield Point 
~Curve Information Block
#MNEM.UNIT                 API CODE     Curve Description
#---------               -----------    ---------------------------
 TIME.HHMMSS            00 000 000 000:  GT Time & Date
 GTET.sec               00 000 000 000:  GT Elapsed Test Time
 GTPQH.psia             00 000 000 000:  GT HR Quartz Pressure
 GTDEPTH.m              00 000 000 000:  GT Depth
 GTTVD.m                00 000 000 000:  GT True Vertical Depth
 GTTQ.degC              00 000 000 000:  GT Quartz Temperature
 GTTN.NONE              00 000 000 000:  GT Test Number
#Other Information
#
#WARRANTY: Halliburton will use its best efforts to furnish customers with 
#accurate information and interpretations that are part of, and incident to, the services 
#provided.  However, Halliburton cannot and does not warrant the accuracy 
#or correctness of such information and interpretations.  Under no circumstances should any 
#such information or interpretation be relied upon as the sole basis for any drilling, 
#completion, production, or financial decision or any procedure involving any risk to the 
#safety of any drilling venture, drilling rig or its crew or any other third party.  The 
#Customer has full responsibility for all drilling, completion and production operation.  
#Halliburton makes no representations or warranties, either expressed or 
#implied, including, but not limited to, the implied warranties of merchantability or fitness 
#for a particular purpose, with respect to the services rendered.  In no event will 
#Halliburton be liable for failure to obtain any particular results or for 
#any damages, including, but not limited to, indirect, special or consequential damages, 
#resulting from the use of any information or interpretation provided by Halliburton.
#
~A           TIME            GTET   GTPQH  GTDEPTH  GTTVD  GTTQ  GTTN 
# ...
   08:52:03.126.05-Jan-2021 345.13 4604.81 3625.51 3064.84 79.99 6.00
   08:52:03.326.05-Jan-2021 345.33 4604.81 3625.51 3064.84 79.99 6.00
   08:52:03.526.05-Jan-2021 345.53 4604.69 3625.51 3064.84 79.99 6.00
   08:52:03.726.05-Jan-2021 345.73 4604.09 3625.51 3064.84 79.99 6.00
   08:52:03.926.05-Jan-2021 345.93 4604.74 3625.51 3064.84 79.99 6.00
   08:52:04.126.05-Jan-2021 346.13 4604.78 3625.51 3064.84 79.99 6.00
   08:52:04.326.05-Jan-2021 346.33 4604.78 3625.51 3064.84 79.99 6.00
   08:52:04.526.05-Jan-2021 346.53 4604.79 3625.51 3064.84 79.99 6.00
   08:52:04.726.05-Jan-2021 346.73 4604.24 3625.51 3064.84 79.99 6.00
   08:52:04.927.05-Jan-2021 346.93 4604.77 3625.51 3064.84 79.99 6.00
   08:52:05.127.05-Jan-2021 347.13 4604.86 3625.51 3064.84 79.99 6.00
   08:52:05.327.05-Jan-2021 347.33 4605.03 3625.51 3064.84 79.99 6.00
   08:52:05.527.05-Jan-2021 347.53 4604.80 3625.51 3064.84 79.99 6.00
   08:52:05.727.05-Jan-2021 347.73 4604.31 3625.51 3064.84 79.99 6.00
   08:52:05.927.05-Jan-2021 347.93 4604.82 3625.51 3064.84 79.99 6.00
   08:52:06.127.05-Jan-2021 348.13 4604.97 3625.51 3064.84 79.99 6.00
   08:52:06.327.05-Jan-2021 348.33 4604.97 3625.51 3064.84 79.99 6.00
   08:52:06.527.05-Jan-2021 348.53 4604.92 3625.51 3064.84 79.99 6.00
   08:52:06.727.05-Jan-2021 348.73 4604.93 3625.51 3064.84 79.99 6.00
   08:52:06.927.05-Jan-2021 348.93 4604.83 3625.51 3064.84 79.99 6.00
   08:52:07.127.05-Jan-2021 349.13 4604.84 3625.51 3064.84 79.99 6.00
   08:52:07.327.05-Jan-2021 349.33 4604.84 3625.51 3064.84 79.99 6.00
   08:52:07.527.05-Jan-2021 349.53 4604.82 3625.51 3064.84 79.99 6.00
   08:52:07.728.05-Jan-2021 349.73 4604.84 3625.51 3064.84 79.99 6.00
   08:52:07.928.05-Jan-2021 349.93 4604.83 3625.51 3064.84 79.99 6.00
   08:52:08.128.05-Jan-2021 350.13 4604.79 3625.51 3064.84 79.99 6.00
   08:52:08.328.05-Jan-2021 350.33 4604.79 3625.51 3064.84 79.99 6.00
   08:52:08.528.05-Jan-2021 350.53 4604.61 3625.51 3064.84 79.99 6.00
   08:52:08.728.05-Jan-2021 350.73 4604.82 3625.51 3064.84 79.99 6.00
   08:52:08.928.05-Jan-2021 350.93 4604.94 3625.51 3064.84 79.99 6.00
   08:52:09.128.05-Jan-2021 351.13 4604.95 3625.51 3064.84 79.98 6.00
   08:52:09.328.05-Jan-2021 351.33 4604.85 3625.51 3064.84 79.98 6.00
   08:52:09.528.05-Jan-2021 351.53 4604.87 3625.51 3064.84 79.98 6.00
   08:52:09.728.05-Jan-2021 351.73 4604.83 3625.51 3064.84 79.98 6.00
   08:52:09.928.05-Jan-2021 351.93 4604.86 3625.51 3064.84 79.98 6.00
   08:52:10.128.05-Jan-2021 352.13 4604.85 3625.51 3064.84 79.98 6.00
   08:52:10.329.05-Jan-2021 352.33 4604.85 3625.51 3064.84 79.98 6.00
   08:52:10.529.05-Jan-2021 352.53 4604.87 3625.51 3064.84 79.98 6.00
   08:52:10.729.05-Jan-2021 352.73 4604.84 3625.51 3064.84 79.98 6.00
   08:52:10.929.05-Jan-2021 352.93 4604.84 3625.51 3064.84 79.98 6.00
   08:52:11.129.05-Jan-2021 353.13 4604.25 3625.51 3064.84 79.98 6.00
   08:52:11.329.05-Jan-2021 353.33 4604.25 3625.51 3064.84 79.98 6.00
   08:52:11.529.05-Jan-2021 353.53 4604.55 3625.51 3064.84 79.98 6.00
   08:52:11.729.05-Jan-2021 353.73 4604.86 3625.51 3064.84 79.98 6.00
   08:52:11.929.05-Jan-2021 353.93 4604.96 3625.51 3064.84 79.98 6.00
   08:52:12.129.05-Jan-2021 354.13 4605.02 3625.51 3064.84 79.98 6.00
   08:52:12.329.05-Jan-2021 354.33 4605.02 3625.51 3064.84 79.98 6.00
   08:52:12.529.05-Jan-2021 354.53 4604.93 3625.51 3064.84 79.98 6.00
   08:52:12.729.05-Jan-2021 354.73 4604.43 3625.51 3064.84 79.98 6.00
   08:52:12.930.05-Jan-2021 354.93 4604.96 3625.51 3064.84 79.98 6.00
   08:52:13.130.05-Jan-2021 355.13 4605.01 3625.51 3064.84 79.98 6.00
   08:52:13.330.05-Jan-2021 355.33 4605.16 3625.51 3064.84 79.98 6.00
   08:52:13.530.05-Jan-2021 355.53 4604.93 3625.51 3064.84 79.98 6.00
   08:52:13.730.05-Jan-2021 355.73 4604.24 3625.51 3064.84 79.98 6.00
   08:52:13.930.05-Jan-2021 355.93 4605.10 3625.51 3064.84 79.98 6.00
   08:52:14.130.05-Jan-2021 356.13 4605.09 3625.51 3064.84 79.98 6.00
   08:52:14.330.05-Jan-2021 356.33 4605.09 3625.51 3064.84 79.98 6.00
   08:52:14.530.05-Jan-2021 356.53 4605.13 3625.51 3064.84 79.98 6.00
   08:52:14.730.05-Jan-2021 356.73 4604.46 3625.51 3064.84 79.98 6.00
   08:52:14.930.05-Jan-2021 356.93 4605.08 3625.51 3064.84 79.98 6.00
   08:52:15.130.05-Jan-2021 357.13 4605.05 3625.51 3064.84 79.98 6.00
   08:52:15.330.05-Jan-2021 357.33 4605.05 3625.51 3064.84 79.98 6.00
   08:52:15.530.05-Jan-2021 357.53 4605.06 3625.51 3064.84 79.98 6.00
   08:52:15.731.05-Jan-2021 357.73 4605.04 3625.51 3064.84 79.98 6.00
   08:52:15.931.05-Jan-2021 357.93 4605.02 3625.51 3064.84 79.98 6.00
   08:52:16.131.05-Jan-2021 358.13 4604.99 3625.51 3064.84 79.98 6.00
   08:52:16.331.05-Jan-2021 358.33 4604.99 3625.51 3064.84 79.98 6.00
   08:52:16.531.05-Jan-2021 358.53 4604.97 3625.51 3064.84 79.98 6.00
   08:52:16.731.05-Jan-2021 358.73 4605.00 3625.51 3064.84 79.98 6.00
   08:52:16.931.05-Jan-2021 358.93 4605.01 3625.51 3064.84 79.98 6.00
   08:52:17.131.05-Jan-2021 359.13 4604.95 3625.51 3064.84 79.98 6.00
   08:52:17.331.05-Jan-2021 359.33 4604.54 3625.51 3064.84 79.98 6.00
   08:52:17.531.05-Jan-2021 359.53 4604.80 3625.51 3064.84 79.98 6.00
   08:52:17.731.05-Jan-2021 359.73 4605.04 3625.51 3064.84 79.98 6.00
   08:52:17.931.05-Jan-2021 359.93 4605.16 3625.51 3064.84 79.98 6.00
   08:52:18.131.05-Jan-2021 360.13 4605.14 3625.51 3064.84 79.98 6.00
   08:52:18.332.05-Jan-2021 360.33 4605.14 3625.51 3064.84 79.98 6.00
   08:52:18.532.05-Jan-2021 360.53 4605.01 3625.51 3064.84 79.98 6.00
   08:52:18.732.05-Jan-2021 360.73 4604.99 3625.51 3064.84 79.98 6.00
   08:52:18.932.05-Jan-2021 360.93 4604.99 3625.51 3064.84 79.98 6.00
   08:52:19.132.05-Jan-2021 361.13 4605.00 3625.51 3064.84 79.98 6.00
   08:52:19.332.05-Jan-2021 361.33 4605.00 3625.51 3064.84 79.98 6.00
   08:52:19.532.05-Jan-2021 361.53 4604.99 3625.51 3064.84 79.98 6.00
   08:52:19.732.05-Jan-2021 361.73 4605.00 3625.51 3064.84 79.98 6.00
   08:52:19.932.05-Jan-2021 361.93 4605.00 3625.51 3064.84 79.98 6.00
   08:52:20.132.05-Jan-2021 362.13 4604.39 3625.51 3064.84 79.98 6.00
   08:52:20.332.05-Jan-2021 362.33 4604.39 3625.51 3064.84 79.98 6.00
   08:52:20.532.05-Jan-2021 362.53 4604.62 3625.51 3064.84 79.98 6.00
   08:52:20.732.05-Jan-2021 362.73 4604.98 3625.51 3064.84 79.98 6.00
   08:52:20.932.05-Jan-2021 362.93 4605.01 3625.51 3064.84 79.98 6.00
   08:52:21.133.05-Jan-2021 363.13 4605.09 3625.51 3064.84 79.98 6.00
   08:52:21.333.05-Jan-2021 363.33 4605.09 3625.51 3064.84 79.98 6.00
   08:52:21.533.05-Jan-2021 363.53 4605.04 3625.51 3064.84 79.98 6.00
   08:52:21.733.05-Jan-2021 363.74 4604.52 3625.51 3064.84 79.98 6.00
   08:52:21.933.05-Jan-2021 363.94 4605.04 3625.51 3064.84 79.98 6.00
   08:52:22.133.05-Jan-2021 364.14 4605.15 3625.51 3064.84 79.98 6.00
   08:52:22.333.05-Jan-2021 364.34 4605.15 3625.51 3064.84 79.98 6.00
   08:52:22.533.05-Jan-2021 364.54 4605.00 3625.51 3064.84 79.98 6.00
   08:52:22.733.05-Jan-2021 364.74 4604.41 3625.51 3064.84 79.98 6.00
   08:52:22.933.05-Jan-2021 364.94 4605.24 3625.51 3064.84 79.98 6.00
   08:52:23.133.05-Jan-2021 365.14 4605.11 3625.51 3064.84 79.98 6.00
   08:52:23.333.05-Jan-2021 365.34 4605.11 3625.51 3064.84 79.98 6.00
   08:52:23.533.05-Jan-2021 365.54 4605.23 3625.51 3064.84 79.98 6.00
   08:52:23.734.05-Jan-2021 365.74 4604.51 3625.51 3064.84 79.98 6.00
   08:52:23.934.05-Jan-2021 365.94 4605.12 3625.51 3064.84 79.98 6.00
   08:52:24.134.05-Jan-2021 366.14 4605.11 3625.51 3064.84 79.97 6.00
   08:52:24.334.05-Jan-2021 366.34 4605.11 3625.51 3064.84 79.97 6.00
   08:52:24.534.05-Jan-2021 366.54 4605.17 3625.51 3064.84 79.97 6.00
   08:52:24.734.05-Jan-2021 366.74 4605.18 3625.51 3064.84 79.97 6.00
   08:52:24.934.05-Jan-2021 366.94 4605.09 3625.51 3064.84 79.97 6.00
   08:52:25.134.05-Jan-2021 367.14 4605.03 3625.51 3064.84 79.97 6.00
   08:52:25.334.05-Jan-2021 367.34 4605.06 3625.51 3064.84 79.97 6.00
   08:52:25.534.05-Jan-2021 367.54 4605.09 3625.51 3064.84 79.97 6.00
   08:52:25.734.05-Jan-2021 367.74 4605.06 3625.51 3064.84 79.97 6.00
   08:52:25.934.05-Jan-2021 367.94 4605.07 3625.51 3064.84 79.97 6.00
