~Version Information
 VERS.                  2.0:   CWLS log ASCII Standard -VERSION 2.0
 WRAP.                   NO:   One line per depth step
~Well Information Block
#MNEM.UNIT     VALUE/NAME     DESCRIPTION
#---------     -----------    ---------------------------
 STRT.S             13:40:14 05-Jan-21: START TIME 13:40:14 05-Jan-21
 STOP.S             13:48:27 05-Jan-21: STOP TIME  13:48:27 05-Jan-21
 STEP.S                   0.00: STEP TIME
 NULL.                 -999.25: NULL VALUE
 DFWT.                        :  DIST FWL TEXT
 DFST.                        :  DIST FSL TEXT
 DMF .             Drill Floor:  DRILL MEAS FROM
 STIM.      06.00.00 31-Dec-20:  START TIME
 DATE.      05.58.24 07-Jan-21:  END TIME
 SPUD.               24-Dec-20:  SPUD DATE
 NREF.                    Grid:  NORTH REFERENCE
 HPTY.       Minimum Curvature:  HOLE POS TYPE
 DMOD.             Drill Model:  DRILL MOD DESC
 SVYD.                  Survey:  SURVEY DESC
 ILTD.               Lithology:  INTERP LTH DESC
 FTOP.          Formation Tops:  FORM TOPS DESC
 SON .        AZ-XX-0906699554:  JOB NUMBER
 WELL.                    B09z:  WELL NAME
 PDAT.          Mean Sea Level:  PERMANENT DATUM
 FLD .                     ACG:  FIELD NAME
 CTRY.              Azerbaijan:  COUNTRY NAME
 COMP.     BP Exploration (Caspian Sea) Ltd.:  COMPANY
 UWI .                     N/A:  UNIQUE WELL IDENTIFIER
 API .                     N/A:  API NUMBER
 WTYP.                Deviated:  WELL TYPE
 MDS .        Operator Entered:  MAG DATA SOURCE
 BASE.              Azerbaijan:  LOGGING EQUIPMENT BASE LOCATION
 REGN.                   EESSA:  REGION
 PROV.                    Baku:  PROVINCE
 STAT.                    Baku:  STATE NAME
 SRVC.          Turan Drilling:  CONTRACTOR
 MWDS.                    Baku:  MWD SHOP
 JOBN.        AZ-XX-0906699554:  JOB TICKET NUMB
 RIG .           Central Azeri:  RIG NAME
 DOE .                     N/A:  DOE NUMBER
 DCON.         Sperry Drilling:  DIRECTNL CONTR
 UNIT.                     N/A:  LOGGING EQUIPMENT ID
 CNTY.                        :  COUNTY
 LOC .                        :  LOCATION
 LMF .             Drill Floor:  LOG MEASURED FROM
 TVDS.m                  43.29:  TVDSS CORRECTN
 LATI.deg                40.03:  LATITUDE
 LONG.deg                51.35:  LONGITUDE
 WHNS.m                  -2.76:  WELL HEAD N/S
 WHEW.m                  -7.70:  WELL HEAD E/W
 UTMX.m              530128.28:  UTM X
 UTMY.m             4433192.49:  UTM Y
 DFWL.m                   0.00:  DISTANCE FWL
 DFSL.m                   0.00:  DISTANCE FSL
 SDEP.m                3435.01:  START DEPTH
 TDD .m                3814.01:  TOTAL DEPTH (DRILLER)
 VSDR.deg               352.80:  VERT SEC DIRECT
 GVFD.g                   1.00:  GRAVITY FIELD
 MFLD.nT              50303.00:  MAGNETIC FIELD
 MDIP.deg                59.52:  MAGNETIC DIP
 MDEC.deg                 6.47:  MAGNETIC DECL
 GRDC.deg                 0.23:  GRID CORRECTION
 AZTC.deg                 6.24:  AZM TOTAL CORR
 EPD .m                   0.00:  ELEVATION
 EGL .m                   0.00:  GROUND ELEVATION
 WDMS.m                 128.20:  WD ELEV
 APD .m                  43.29:  DEPTH ABOVE PD
 DEP .m                3421.30:  DEPTH
 AGAP.m                  43.60:  AIR GAP
 VSEW.m                  -7.70:  VERT SEC E/W
 VSNS.m                  -2.76:  VERT SEC N/S
 EKB .m                   0.00:  KB ELEVATION
 EDF .m                  43.29:  DF ELEVATION
 TDL .m                 369.00:  TOTAL DEPTH (LOGGER)
 VSC .                       0:  VS TO CLOSURE
 MAGU.                 1850390:  MAGUTM CHECKSUM
~Parameter Information Block
#MNEM.UNIT       Value        Description
#---------     -----------    ---------------------------
 AV  .mps                 2.80:  Ann Velocity 
 AVMX.mps                 4.67:  Max Ann Veloc 
 AZIF.deg               303.89:  Azm, Final 
 BHAT.        Rotary Steerable:  BHA Type 
 BREV.rev            128542.00:  Rev Bit Total 
 BROT.°/30m               1.50:  Build Rotating 
 BS  .in                  8.50:  Bit Size 
 BSZ .in                  8.50:  Bit Size 
 BTPL.psig              715.00:  Bit Press Loss 
 CABU.                      No:  Customer Abuse 
 COMM.                     t6w:  Run Comments 1 
 TCS .hr                 53.00:  Time Ciculation Ended 
 CV  .mps                 3.85:  Crit Velocity 
 CVMX.mps                 4.75:  Max Crit Veloc 
 DD1 .         Intigam Rahimov:  Direct Drillr 1 
 DDSV.                 iCruise:  DD Service 
 DEFF.%                  98.60:  % Det Eff 
 DLRX.°/30m               2.34:  Dogleg Rot Max 
 DLSO.°/30m               0.00:  Dogleg Oriented 
 DLSX.°/30m               0.00:  Dogleg Str Max 
 DRET.      00.15.00 05-Jan-21:  Drill End Time 
 DRST.      22.00.00 03-Jan-21:  Drill Start Tim 
 DTIM.hr                 17.72:  Time Drilling 
 EDEP.m                3814.01:  End Depth 
 ENG1.         Yevgeniy Ulikov:  Engineer 1 
 ENG2.        Farkhad Khalidov:  Engineer 2 
 ENG3.           Samir Gafarov:  Engineer 3 
 ETIM.      21.00.00 07-Jan-21:  End Time 
 FLOI.gpm               590.00:  Flow In 
 FLON.gpm               580.00:  Flow In Min 
 FLOS.cptm                1.00:  Fluid Loss 
 FLOX.gpm               595.00:  Flow In Max 
 FTRO.     Connectivity, Formation Presure:  FTWD Run Obj 
 HFLO.                      No:  High Flow 
 HPRE.                     Yes:  High Pressure 
 HTEM.                      No:  High Temp 
 HYDO.m                   1.80:  Hydro Offset 
 IFIN.deg                63.76:  Inc, Final 
 IMAX.deg                64.09:  Inc Max 
 IMIN.deg                55.81:  Inc Min 
 IMND.m                3455.62:  Inc Min Depth 
 IMXD.m                3796.03:  Inc Max Depth 
 JARR.                      No:  Jarring 
 LETM.      00.15.00 05-Jan-21:  Log End Time 
 LOST.hr                     0:  Lost Rig Time 
 LSTM.      22.00.00 03-Jan-21:  Log Start Time 
 MDCL.ppm             36000.00:  Mud Chlorides 
 MDES.     Inversion Oil/Synthetic:  Mud Desc 
 DFD .sg                  1.51:  Mud Density 
 MDMN.sg                  1.51:  Dens Mud Min 
 MDMX.sg                  1.51:  Dens Mud Max 
 MOIL.                    55.5:  Run Mud Oil % 
 MOWR.                   70:30:  Run Mud OWR 
 MSND.                     0.1:  Run Mud Sand % 
 MSOL.                   20.77:  Run Mud Solids% 
 DFV .spqt               67.00:  Mud Viscosity 
 MWOD.in                  6.75:  MWD Tool OD 
 MWSI.                      No:  Serv Intrp, MWD 
 OTIM.hr                113.53:  Time Operating 
 PCON.           Look Like New:  Pad Condition 
 PMAX.psia             4830.00:  Press Op, Max 
 PV  .cP                 29.00:  Mud PV 
 RUN .                     300:  Run Number 
 ROPA.m/hr               22.00:  ROP Avg 
 ROPN.m/hr               18.00:  ROP Min 
 ROPX.m/hr               25.00:  ROP Max 
 RPMA.rpm               130.00:  RPM Surface Avg 
 RPMN.rpm                80.00:  RPM Surface Min 
 RPMX.rpm               140.00:  RPM Surface Max 
 RRUN.                    L101:  Rig Run Number 
 RTIM.hr                  9.28:  Time Reaming 
 SAZI.deg               316.55:  Azm, Start 
 SDEP.m                3445.01:  Start Depth 
 SIDD.                      No:  Serv Intrp, DD 
 SINC.deg                55.81:  Inc, Start 
 SPPA.psig             4500.00:  SPP Avg 
 SPPN.psig             4350.00:  SPP Min 
 SPPX.psig             4830.00:  SPP Max 
 STIM.      00.00.00 03-Jan-21:  Start Time 
 SVCS.                 DD, MWD:  Services 
 SVER.                    9.20:  Sperry Version 
 TDAT.m                 369.00:  Tot Depth Attmp 
 TDDF.                      No:  Trip for DD 
 TDLG.m                 369.00:  Tot Depth Loggd 
 TFF .                      No:  Trip for Fail 
 TQAA.f-kp               15.00:  Torque Abs Avg 
 TQAN.f-kp               12.00:  Torque Abs Min 
 TQAX.f-kp               16.00:  Torque Abs Max 
 TRRT.°/30m              -2.10:  Turn Rotating 
 MRT .                    HCIM:  Maximum Recorded Temperature 
 TTMX.degC               92.16:  Max Tool Temp 
 VS01.                90627822:  Virtual Str1 SN 
 VS02.                90550008:  Virtual Str2 SN 
 VS03.                90627816:  Virtual Str3 SN 
 VS04.                90633205:  Virtual Str4 SN 
 VS05.                13033835:  Virtual Str5 SN 
 VS06.                11125125:  Virtual Str6 SN 
 WBMN.klb                 8.00:  WOB Min 
 WITN.            Bruce Cheyne:  Customer Rep 
 WITN.           Faig Mammadov:  Customer Rep 2 
 WOBA.klb                 9.00:  WOB Avg 
 WOBX.klb                12.00:  WOB Max 
 YP  .lhf2               30.00:  Yield Point 
~Curve Information Block
#MNEM.UNIT                 API CODE     Curve Description
#---------               -----------    ---------------------------
 TIME.HHMMSS            00 000 000 000:  GT Time & Date
 GTET.sec               00 000 000 000:  GT Elapsed Test Time
 GTPQH.psia             00 000 000 000:  GT HR Quartz Pressure
 GTDEPTH.m              00 000 000 000:  GT Depth
 GTTVD.m                00 000 000 000:  GT True Vertical Depth
 GTTQ.degC              00 000 000 000:  GT Quartz Temperature
 GTTN.NONE              00 000 000 000:  GT Test Number
#Other Information
#
#WARRANTY: Halliburton will use its best efforts to furnish customers with 
#accurate information and interpretations that are part of, and incident to, the services 
#provided.  However, Halliburton cannot and does not warrant the accuracy 
#or correctness of such information and interpretations.  Under no circumstances should any 
#such information or interpretation be relied upon as the sole basis for any drilling, 
#completion, production, or financial decision or any procedure involving any risk to the 
#safety of any drilling venture, drilling rig or its crew or any other third party.  The 
#Customer has full responsibility for all drilling, completion and production operation.  
#Halliburton makes no representations or warranties, either expressed or 
#implied, including, but not limited to, the implied warranties of merchantability or fitness 
#for a particular purpose, with respect to the services rendered.  In no event will 
#Halliburton be liable for failure to obtain any particular results or for 
#any damages, including, but not limited to, indirect, special or consequential damages, 
#resulting from the use of any information or interpretation provided by Halliburton.
#
~A           TIME            GTET   GTPQH  GTDEPTH  GTTVD  GTTQ  GTTN 
# ...
   13:41:23.969.05-Jan-2021  69.04 4883.96 3494.01 2996.09 77.83 7.00
   13:41:24.169.05-Jan-2021  69.24 4883.96 3494.01 2996.09 77.83 7.00
   13:41:24.369.05-Jan-2021  69.44 4884.05 3494.01 2996.09 77.83 7.00
   13:41:24.570.05-Jan-2021  69.64 4883.04 3494.01 2996.09 77.83 7.00
   13:41:24.770.05-Jan-2021  69.84 4883.96 3494.01 2996.09 77.83 7.00
   13:41:24.970.05-Jan-2021  70.04 4884.28 3494.01 2996.09 77.83 7.00
   13:41:25.170.05-Jan-2021  70.24 4884.28 3494.01 2996.09 77.83 7.00
   13:41:25.370.05-Jan-2021  70.44 4884.42 3494.01 2996.09 77.83 7.00
   13:41:25.570.05-Jan-2021  70.64 4883.30 3494.01 2996.09 77.83 7.00
   13:41:25.770.05-Jan-2021  70.84 4884.16 3494.01 2996.09 77.83 7.00
   13:41:25.970.05-Jan-2021  71.04 4884.10 3494.01 2996.09 77.83 7.00
   13:41:26.170.05-Jan-2021  71.24 4884.10 3494.01 2996.09 77.83 7.00
   13:41:26.371.05-Jan-2021  71.44 4884.16 3494.01 2996.09 77.83 7.00
   13:41:26.571.05-Jan-2021  71.64 4883.59 3494.01 2996.09 77.83 7.00
   13:41:26.771.05-Jan-2021  71.84 4883.83 3494.01 2996.09 77.83 7.00
   13:41:26.971.05-Jan-2021  72.04 4884.43 3494.01 2996.09 77.83 7.00
   13:41:27.171.05-Jan-2021  72.24 4884.43 3494.01 2996.09 77.83 7.00
   13:41:27.371.05-Jan-2021  72.44 4883.73 3494.01 2996.09 77.83 7.00
   13:41:27.571.05-Jan-2021  72.64 4883.71 3494.01 2996.09 77.83 7.00
   13:41:27.771.05-Jan-2021  72.84 4883.75 3494.01 2996.09 77.83 7.00
   13:41:27.971.05-Jan-2021  73.04 4884.20 3494.01 2996.09 77.83 7.00
   13:41:28.172.05-Jan-2021  73.24 4884.05 3494.01 2996.09 77.83 7.00
   13:41:28.372.05-Jan-2021  73.44 4884.29 3494.01 2996.09 77.83 7.00
   13:41:28.572.05-Jan-2021  73.64 4883.97 3494.01 2996.09 77.83 7.00
   13:41:28.772.05-Jan-2021  73.84 4883.21 3494.01 2996.09 77.83 7.00
   13:41:28.972.05-Jan-2021  74.04 4884.08 3494.01 2996.09 77.83 7.00
   13:41:29.172.05-Jan-2021  74.24 4884.08 3494.01 2996.09 77.83 7.00
   13:41:29.372.05-Jan-2021  74.44 4883.87 3494.01 2996.09 77.83 7.00
   13:41:29.572.05-Jan-2021  74.64 4884.00 3494.01 2996.09 77.83 7.00
   13:41:29.772.05-Jan-2021  74.84 4884.02 3494.01 2996.09 77.83 7.00
   13:41:29.973.05-Jan-2021  75.04 4884.24 3494.01 2996.09 77.83 7.00
   13:41:30.173.05-Jan-2021  75.24 4884.24 3494.01 2996.09 77.83 7.00
   13:41:30.373.05-Jan-2021  75.44 4885.13 3494.01 2996.09 77.83 7.00
   13:41:30.573.05-Jan-2021  75.64 4883.84 3494.01 2996.09 77.83 7.00
   13:41:30.773.05-Jan-2021  75.84 4884.56 3494.01 2996.09 77.83 7.00
   13:41:30.973.05-Jan-2021  76.04 4883.46 3494.01 2996.09 77.83 7.00
   13:41:31.173.05-Jan-2021  76.24 4883.46 3494.01 2996.09 77.83 7.00
   13:41:31.373.05-Jan-2021  76.44 4883.43 3494.01 2996.09 77.84 7.00
   13:41:31.573.05-Jan-2021  76.64 4882.76 3494.01 2996.09 77.84 7.00
   13:41:31.774.05-Jan-2021  76.84 4884.96 3494.01 2996.09 77.84 7.00
   13:41:31.974.05-Jan-2021  77.04 4884.48 3494.01 2996.09 77.84 7.00
   13:41:32.174.05-Jan-2021  77.24 4884.48 3494.01 2996.09 77.84 7.00
   13:41:32.374.05-Jan-2021  77.44 4884.24 3494.01 2996.09 77.84 7.00
   13:41:32.574.05-Jan-2021  77.64 4883.39 3494.01 2996.09 77.84 7.00
   13:41:32.774.05-Jan-2021  77.84 4884.78 3494.01 2996.09 77.84 7.00
   13:41:32.974.05-Jan-2021  78.04 4882.81 3494.01 2996.09 77.84 7.00
   13:41:33.174.05-Jan-2021  78.24 4882.81 3494.01 2996.09 77.84 7.00
   13:41:33.374.05-Jan-2021  78.44 4884.34 3494.01 2996.09 77.84 7.00
   13:41:33.575.05-Jan-2021  78.64 4883.39 3494.01 2996.09 77.84 7.00
   13:41:33.775.05-Jan-2021  78.84 4884.10 3494.01 2996.09 77.84 7.00
   13:41:33.975.05-Jan-2021  79.04 4884.33 3494.01 2996.09 77.84 7.00
   13:41:34.175.05-Jan-2021  79.24 4884.33 3494.01 2996.09 77.84 7.00
   13:41:34.375.05-Jan-2021  79.44 4884.21 3494.01 2996.09 77.84 7.00
   13:41:34.575.05-Jan-2021  79.64 4883.46 3494.01 2996.09 77.84 7.00
   13:41:34.775.05-Jan-2021  79.84 4884.31 3494.01 2996.09 77.84 7.00
   13:41:34.975.05-Jan-2021  80.04 4883.72 3494.01 2996.09 77.84 7.00
   13:41:35.175.05-Jan-2021  80.24 4884.98 3494.01 2996.09 77.84 7.00
   13:41:35.376.05-Jan-2021  80.44 4883.76 3494.01 2996.09 77.84 7.00
   13:41:35.576.05-Jan-2021  80.64 4883.90 3494.01 2996.09 77.84 7.00
   13:41:35.776.05-Jan-2021  80.84 4882.87 3494.01 2996.09 77.84 7.00
   13:41:35.976.05-Jan-2021  81.04 4884.87 3494.01 2996.09 77.84 7.00
   13:41:36.176.05-Jan-2021  81.25 4884.13 3494.01 2996.09 77.84 7.00
   13:41:36.376.05-Jan-2021  81.45 4884.05 3494.01 2996.09 77.84 7.00
   13:41:36.576.05-Jan-2021  81.65 4883.98 3494.01 2996.09 77.84 7.00
   13:41:36.776.05-Jan-2021  81.85 4884.49 3494.01 2996.09 77.84 7.00
   13:41:36.976.05-Jan-2021  82.05 4882.93 3494.01 2996.09 77.84 7.00
   13:41:37.177.05-Jan-2021  82.25 4882.93 3494.01 2996.09 77.84 7.00
   13:41:37.377.05-Jan-2021  82.45 4883.75 3494.01 2996.09 77.84 7.00
   13:41:37.577.05-Jan-2021  82.65 4883.88 3494.01 2996.09 77.84 7.00
   13:41:37.777.05-Jan-2021  82.85 4883.85 3494.01 2996.09 77.84 7.00
   13:41:37.977.05-Jan-2021  83.05 4883.95 3494.01 2996.09 77.84 7.00
   13:41:38.177.05-Jan-2021  83.25 4883.95 3494.01 2996.09 77.84 7.00
   13:41:38.377.05-Jan-2021  83.45 4883.67 3494.01 2996.09 77.84 7.00
   13:41:38.577.05-Jan-2021  83.65 4884.40 3494.01 2996.09 77.84 7.00
   13:41:38.777.05-Jan-2021  83.85 4884.23 3494.01 2996.09 77.84 7.00
   13:41:38.978.05-Jan-2021  84.05 4884.31 3494.01 2996.09 77.84 7.00
   13:41:39.178.05-Jan-2021  84.25 4884.31 3494.01 2996.09 77.84 7.00
   13:41:39.378.05-Jan-2021  84.45 4884.37 3494.01 2996.09 77.84 7.00
   13:41:39.578.05-Jan-2021  84.65 4884.39 3494.01 2996.09 77.84 7.00
   13:41:39.778.05-Jan-2021  84.85 4883.52 3494.01 2996.09 77.84 7.00
   13:41:39.978.05-Jan-2021  85.05 4884.22 3494.01 2996.09 77.84 7.00
   13:41:40.178.05-Jan-2021  85.25 4884.00 3494.01 2996.09 77.84 7.00
   13:41:40.378.05-Jan-2021  85.45 4883.61 3494.01 2996.09 77.84 7.00
   13:41:40.578.05-Jan-2021  85.65 4884.84 3494.01 2996.09 77.85 7.00
   13:41:40.779.05-Jan-2021  85.85 4883.04 3494.01 2996.09 77.85 7.00
   13:41:40.979.05-Jan-2021  86.05 4884.70 3494.01 2996.09 77.85 7.00
   13:41:41.179.05-Jan-2021  86.25 4884.70 3494.01 2996.09 77.85 7.00
   13:41:41.379.05-Jan-2021  86.45 4884.42 3494.01 2996.09 77.85 7.00
   13:41:41.579.05-Jan-2021  86.65 4882.92 3494.01 2996.09 77.85 7.00
   13:41:41.779.05-Jan-2021  86.85 4883.88 3494.01 2996.09 77.85 7.00
   13:41:41.979.05-Jan-2021  87.05 4884.36 3494.01 2996.09 77.85 7.00
   13:41:42.179.05-Jan-2021  87.25 4884.36 3494.01 2996.09 77.85 7.00
   13:41:42.379.05-Jan-2021  87.45 4884.30 3494.01 2996.09 77.85 7.00
   13:41:42.580.05-Jan-2021  87.65 4884.08 3494.01 2996.09 77.85 7.00
   13:41:42.780.05-Jan-2021  87.85 4884.35 3494.01 2996.09 77.85 7.00
   13:41:42.980.05-Jan-2021  88.05 4883.95 3494.01 2996.09 77.85 7.00
   13:41:43.180.05-Jan-2021  88.25 4883.92 3494.01 2996.09 77.85 7.00
   13:41:43.380.05-Jan-2021  88.45 4883.85 3494.01 2996.09 77.85 7.00
   13:41:43.580.05-Jan-2021  88.65 4883.98 3494.01 2996.09 77.85 7.00
   13:41:43.780.05-Jan-2021  88.85 4884.39 3494.01 2996.09 77.85 7.00
   13:41:43.980.05-Jan-2021  89.05 4884.23 3494.01 2996.09 77.85 7.00
   13:41:44.180.05-Jan-2021  89.25 4884.23 3494.01 2996.09 77.85 7.00
   13:41:44.381.05-Jan-2021  89.45 4883.93 3494.01 2996.09 77.85 7.00
   13:41:44.581.05-Jan-2021  89.65 4883.66 3494.01 2996.09 77.85 7.00
   13:41:44.781.05-Jan-2021  89.85 4884.41 3494.01 2996.09 77.85 7.00
   13:41:44.981.05-Jan-2021  90.05 4883.87 3494.01 2996.09 77.85 7.00
   13:41:45.181.05-Jan-2021  90.25 4883.93 3494.01 2996.09 77.85 7.00
   13:41:45.381.05-Jan-2021  90.45 4884.21 3494.01 2996.09 77.85 7.00
   13:41:45.581.05-Jan-2021  90.65 4884.10 3494.01 2996.09 77.85 7.00
   13:41:45.781.05-Jan-2021  90.85 4884.26 3494.01 2996.09 77.85 7.00
   13:41:45.981.05-Jan-2021  91.05 4884.08 3494.01 2996.09 77.85 7.00
   13:41:46.182.05-Jan-2021  91.25 4884.08 3494.01 2996.09 77.85 7.00
   13:41:46.382.05-Jan-2021  91.45 4884.57 3494.01 2996.09 77.85 7.00
   13:41:46.582.05-Jan-2021  91.65 4884.02 3494.01 2996.09 77.85 7.00
   13:41:46.782.05-Jan-2021  91.85 4884.19 3494.01 2996.09 77.85 7.00
