~Version Information
 VERS.                  2.0:   CWLS log ASCII Standard -VERSION 2.0
 WRAP.                   NO:   One line per depth step
~Well Information Block
#MNEM.UNIT     VALUE/NAME     DESCRIPTION
#---------     -----------    ---------------------------
 STRT.S             14:32:26 05-Jan-21: START TIME 14:32:26 05-Jan-21
 STOP.S             14:40:38 05-Jan-21: STOP TIME  14:40:38 05-Jan-21
 STEP.S                   0.00: STEP TIME
 NULL.                 -999.25: NULL VALUE
 DFWT.                        :  DIST FWL TEXT
 DFST.                        :  DIST FSL TEXT
 DMF .             Drill Floor:  DRILL MEAS FROM
 STIM.      06.00.00 31-Dec-20:  START TIME
 DATE.      05.58.24 07-Jan-21:  END TIME
 SPUD.               24-Dec-20:  SPUD DATE
 NREF.                    Grid:  NORTH REFERENCE
 HPTY.       Minimum Curvature:  HOLE POS TYPE
 DMOD.             Drill Model:  DRILL MOD DESC
 SVYD.                  Survey:  SURVEY DESC
 ILTD.               Lithology:  INTERP LTH DESC
 FTOP.          Formation Tops:  FORM TOPS DESC
 SON .        AZ-XX-0906699554:  JOB NUMBER
 WELL.                    B09z:  WELL NAME
 PDAT.          Mean Sea Level:  PERMANENT DATUM
 FLD .                     ACG:  FIELD NAME
 CTRY.              Azerbaijan:  COUNTRY NAME
 COMP.     BP Exploration (Caspian Sea) Ltd.:  COMPANY
 UWI .                     N/A:  UNIQUE WELL IDENTIFIER
 API .                     N/A:  API NUMBER
 WTYP.                Deviated:  WELL TYPE
 MDS .        Operator Entered:  MAG DATA SOURCE
 BASE.              Azerbaijan:  LOGGING EQUIPMENT BASE LOCATION
 REGN.                   EESSA:  REGION
 PROV.                    Baku:  PROVINCE
 STAT.                    Baku:  STATE NAME
 SRVC.          Turan Drilling:  CONTRACTOR
 MWDS.                    Baku:  MWD SHOP
 JOBN.        AZ-XX-0906699554:  JOB TICKET NUMB
 RIG .           Central Azeri:  RIG NAME
 DOE .                     N/A:  DOE NUMBER
 DCON.         Sperry Drilling:  DIRECTNL CONTR
 UNIT.                     N/A:  LOGGING EQUIPMENT ID
 CNTY.                        :  COUNTY
 LOC .                        :  LOCATION
 LMF .             Drill Floor:  LOG MEASURED FROM
 TVDS.m                  43.29:  TVDSS CORRECTN
 LATI.deg                40.03:  LATITUDE
 LONG.deg                51.35:  LONGITUDE
 WHNS.m                  -2.76:  WELL HEAD N/S
 WHEW.m                  -7.70:  WELL HEAD E/W
 UTMX.m              530128.28:  UTM X
 UTMY.m             4433192.49:  UTM Y
 DFWL.m                   0.00:  DISTANCE FWL
 DFSL.m                   0.00:  DISTANCE FSL
 SDEP.m                3435.01:  START DEPTH
 TDD .m                3814.01:  TOTAL DEPTH (DRILLER)
 VSDR.deg               352.80:  VERT SEC DIRECT
 GVFD.g                   1.00:  GRAVITY FIELD
 MFLD.nT              50303.00:  MAGNETIC FIELD
 MDIP.deg                59.52:  MAGNETIC DIP
 MDEC.deg                 6.47:  MAGNETIC DECL
 GRDC.deg                 0.23:  GRID CORRECTION
 AZTC.deg                 6.24:  AZM TOTAL CORR
 EPD .m                   0.00:  ELEVATION
 EGL .m                   0.00:  GROUND ELEVATION
 WDMS.m                 128.20:  WD ELEV
 APD .m                  43.29:  DEPTH ABOVE PD
 DEP .m                3421.30:  DEPTH
 AGAP.m                  43.60:  AIR GAP
 VSEW.m                  -7.70:  VERT SEC E/W
 VSNS.m                  -2.76:  VERT SEC N/S
 EKB .m                   0.00:  KB ELEVATION
 EDF .m                  43.29:  DF ELEVATION
 TDL .m                 369.00:  TOTAL DEPTH (LOGGER)
 VSC .                       0:  VS TO CLOSURE
 MAGU.                 1850390:  MAGUTM CHECKSUM
~Parameter Information Block
#MNEM.UNIT       Value        Description
#---------     -----------    ---------------------------
 AV  .mps                 2.80:  Ann Velocity 
 AVMX.mps                 4.67:  Max Ann Veloc 
 AZIF.deg               303.89:  Azm, Final 
 BHAT.        Rotary Steerable:  BHA Type 
 BREV.rev            128542.00:  Rev Bit Total 
 BROT.°/30m               1.50:  Build Rotating 
 BS  .in                  8.50:  Bit Size 
 BSZ .in                  8.50:  Bit Size 
 BTPL.psig              715.00:  Bit Press Loss 
 CABU.                      No:  Customer Abuse 
 COMM.                     œ¬Z:  Run Comments 1 
 TCS .hr                 53.00:  Time Ciculation Ended 
 CV  .mps                 3.85:  Crit Velocity 
 CVMX.mps                 4.75:  Max Crit Veloc 
 DD1 .         Intigam Rahimov:  Direct Drillr 1 
 DDSV.                 iCruise:  DD Service 
 DEFF.%                  98.60:  % Det Eff 
 DLRX.°/30m               2.34:  Dogleg Rot Max 
 DLSO.°/30m               0.00:  Dogleg Oriented 
 DLSX.°/30m               0.00:  Dogleg Str Max 
 DRET.      00.15.00 05-Jan-21:  Drill End Time 
 DRST.      22.00.00 03-Jan-21:  Drill Start Tim 
 DTIM.hr                 17.72:  Time Drilling 
 EDEP.m                3814.01:  End Depth 
 ENG1.         Yevgeniy Ulikov:  Engineer 1 
 ENG2.        Farkhad Khalidov:  Engineer 2 
 ENG3.           Samir Gafarov:  Engineer 3 
 ETIM.      21.00.00 07-Jan-21:  End Time 
 FLOI.gpm               590.00:  Flow In 
 FLON.gpm               580.00:  Flow In Min 
 FLOS.cptm                1.00:  Fluid Loss 
 FLOX.gpm               595.00:  Flow In Max 
 FTRO.     Connectivity, Formation Presure:  FTWD Run Obj 
 HFLO.                      No:  High Flow 
 HPRE.                     Yes:  High Pressure 
 HTEM.                      No:  High Temp 
 HYDO.m                   1.80:  Hydro Offset 
 IFIN.deg                63.76:  Inc, Final 
 IMAX.deg                64.09:  Inc Max 
 IMIN.deg                55.81:  Inc Min 
 IMND.m                3455.62:  Inc Min Depth 
 IMXD.m                3796.03:  Inc Max Depth 
 JARR.                      No:  Jarring 
 LETM.      00.15.00 05-Jan-21:  Log End Time 
 LOST.hr                     0:  Lost Rig Time 
 LSTM.      22.00.00 03-Jan-21:  Log Start Time 
 MDCL.ppm             36000.00:  Mud Chlorides 
 MDES.     Inversion Oil/Synthetic:  Mud Desc 
 DFD .sg                  1.51:  Mud Density 
 MDMN.sg                  1.51:  Dens Mud Min 
 MDMX.sg                  1.51:  Dens Mud Max 
 MOIL.                    55.5:  Run Mud Oil % 
 MOWR.                   70:30:  Run Mud OWR 
 MSND.                     0.1:  Run Mud Sand % 
 MSOL.                   20.77:  Run Mud Solids% 
 DFV .spqt               67.00:  Mud Viscosity 
 MWOD.in                  6.75:  MWD Tool OD 
 MWSI.                      No:  Serv Intrp, MWD 
 OTIM.hr                113.53:  Time Operating 
 PCON.           Look Like New:  Pad Condition 
 PMAX.psia             4830.00:  Press Op, Max 
 PV  .cP                 29.00:  Mud PV 
 RUN .                     300:  Run Number 
 ROPA.m/hr               22.00:  ROP Avg 
 ROPN.m/hr               18.00:  ROP Min 
 ROPX.m/hr               25.00:  ROP Max 
 RPMA.rpm               130.00:  RPM Surface Avg 
 RPMN.rpm                80.00:  RPM Surface Min 
 RPMX.rpm               140.00:  RPM Surface Max 
 RRUN.                    L101:  Rig Run Number 
 RTIM.hr                  9.28:  Time Reaming 
 SAZI.deg               316.55:  Azm, Start 
 SDEP.m                3445.01:  Start Depth 
 SIDD.                      No:  Serv Intrp, DD 
 SINC.deg                55.81:  Inc, Start 
 SPPA.psig             4500.00:  SPP Avg 
 SPPN.psig             4350.00:  SPP Min 
 SPPX.psig             4830.00:  SPP Max 
 STIM.      00.00.00 03-Jan-21:  Start Time 
 SVCS.                 DD, MWD:  Services 
 SVER.                    9.20:  Sperry Version 
 TDAT.m                 369.00:  Tot Depth Attmp 
 TDDF.                      No:  Trip for DD 
 TDLG.m                 369.00:  Tot Depth Loggd 
 TFF .                      No:  Trip for Fail 
 TQAA.f-kp               15.00:  Torque Abs Avg 
 TQAN.f-kp               12.00:  Torque Abs Min 
 TQAX.f-kp               16.00:  Torque Abs Max 
 TRRT.°/30m              -2.10:  Turn Rotating 
 MRT .                    HCIM:  Maximum Recorded Temperature 
 TTMX.degC               92.16:  Max Tool Temp 
 VS01.                90627822:  Virtual Str1 SN 
 VS02.                90550008:  Virtual Str2 SN 
 VS03.                90627816:  Virtual Str3 SN 
 VS04.                90633205:  Virtual Str4 SN 
 VS05.                13033835:  Virtual Str5 SN 
 VS06.                11125125:  Virtual Str6 SN 
 WBMN.klb                 8.00:  WOB Min 
 WITN.            Bruce Cheyne:  Customer Rep 
 WITN.           Faig Mammadov:  Customer Rep 2 
 WOBA.klb                 9.00:  WOB Avg 
 WOBX.klb                12.00:  WOB Max 
 YP  .lhf2               30.00:  Yield Point 
~Curve Information Block
#MNEM.UNIT                 API CODE     Curve Description
#---------               -----------    ---------------------------
 TIME.HHMMSS            00 000 000 000:  GT Time & Date
 GTET.sec               00 000 000 000:  GT Elapsed Test Time
 GTPQH.psia             00 000 000 000:  GT HR Quartz Pressure
 GTDEPTH.m              00 000 000 000:  GT Depth
 GTTVD.m                00 000 000 000:  GT True Vertical Depth
 GTTQ.degC              00 000 000 000:  GT Quartz Temperature
 GTTN.NONE              00 000 000 000:  GT Test Number
#Other Information
#
#WARRANTY: Halliburton will use its best efforts to furnish customers with 
#accurate information and interpretations that are part of, and incident to, the services 
#provided.  However, Halliburton cannot and does not warrant the accuracy 
#or correctness of such information and interpretations.  Under no circumstances should any 
#such information or interpretation be relied upon as the sole basis for any drilling, 
#completion, production, or financial decision or any procedure involving any risk to the 
#safety of any drilling venture, drilling rig or its crew or any other third party.  The 
#Customer has full responsibility for all drilling, completion and production operation.  
#Halliburton makes no representations or warranties, either expressed or 
#implied, including, but not limited to, the implied warranties of merchantability or fitness 
#for a particular purpose, with respect to the services rendered.  In no event will 
#Halliburton be liable for failure to obtain any particular results or for 
#any damages, including, but not limited to, indirect, special or consequential damages, 
#resulting from the use of any information or interpretation provided by Halliburton.
#
~A           TIME            GTET   GTPQH  GTDEPTH  GTTVD  GTTQ  GTTN 
# ...
   14:33:35.000.05-Jan-2021  69.00 4870.96 3453.01 2973.12 77.46 8.00
   14:33:35.200.05-Jan-2021  69.20 4870.96 3453.01 2973.12 77.46 8.00
   14:33:35.400.05-Jan-2021  69.40 4870.95 3453.01 2973.12 77.46 8.00
   14:33:35.600.05-Jan-2021  69.60 4870.97 3453.01 2973.12 77.46 8.00
   14:33:35.800.05-Jan-2021  69.80 4871.03 3453.01 2973.12 77.46 8.00
   14:33:36.000.05-Jan-2021  70.00 4870.99 3453.01 2973.12 77.46 8.00
   14:33:36.200.05-Jan-2021  70.20 4870.99 3453.01 2973.12 77.46 8.00
   14:33:36.400.05-Jan-2021  70.40 4870.98 3453.01 2973.12 77.47 8.00
   14:33:36.600.05-Jan-2021  70.60 4870.86 3453.01 2973.12 77.47 8.00
   14:33:36.800.05-Jan-2021  70.80 4870.98 3453.01 2973.12 77.47 8.00
   14:33:37.000.05-Jan-2021  71.00 4870.96 3453.01 2973.12 77.47 8.00
   14:33:37.200.05-Jan-2021  71.20 4870.96 3453.01 2973.12 77.47 8.00
   14:33:37.400.05-Jan-2021  71.40 4870.95 3453.01 2973.12 77.47 8.00
   14:33:37.600.05-Jan-2021  71.60 4870.99 3453.01 2973.12 77.47 8.00
   14:33:37.800.05-Jan-2021  71.80 4870.95 3453.01 2973.12 77.47 8.00
   14:33:38.000.05-Jan-2021  72.00 4871.02 3453.01 2973.12 77.47 8.00
   14:33:38.200.05-Jan-2021  72.20 4871.02 3453.01 2973.12 77.47 8.00
   14:33:38.400.05-Jan-2021  72.40 4871.01 3453.01 2973.12 77.47 8.00
   14:33:38.600.05-Jan-2021  72.60 4871.05 3453.01 2973.12 77.47 8.00
   14:33:38.800.05-Jan-2021  72.80 4871.01 3453.01 2973.12 77.47 8.00
   14:33:39.000.05-Jan-2021  73.00 4870.96 3453.01 2973.12 77.47 8.00
   14:33:39.200.05-Jan-2021  73.20 4870.96 3453.01 2973.12 77.47 8.00
   14:33:39.400.05-Jan-2021  73.40 4870.99 3453.01 2973.12 77.47 8.00
   14:33:39.600.05-Jan-2021  73.60 4870.98 3453.01 2973.12 77.47 8.00
   14:33:39.800.05-Jan-2021  73.80 4870.89 3453.01 2973.12 77.47 8.00
   14:33:40.000.05-Jan-2021  74.00 4870.91 3453.01 2973.12 77.47 8.00
   14:33:40.200.05-Jan-2021  74.20 4870.91 3453.01 2973.12 77.47 8.00
   14:33:40.400.05-Jan-2021  74.40 4871.39 3453.01 2973.12 77.47 8.00
   14:33:40.600.05-Jan-2021  74.60 4871.00 3453.01 2973.12 77.47 8.00
   14:33:40.800.05-Jan-2021  74.80 4870.55 3453.01 2973.12 77.47 8.00
   14:33:41.000.05-Jan-2021  75.00 4871.46 3453.01 2973.12 77.47 8.00
   14:33:41.200.05-Jan-2021  75.20 4871.46 3453.01 2973.12 77.47 8.00
   14:33:41.400.05-Jan-2021  75.40 4870.97 3453.01 2973.12 77.47 8.00
   14:33:41.600.05-Jan-2021  75.60 4870.98 3453.01 2973.12 77.47 8.00
   14:33:41.800.05-Jan-2021  75.80 4870.95 3453.01 2973.12 77.47 8.00
   14:33:42.000.05-Jan-2021  76.00 4871.06 3453.01 2973.12 77.47 8.00
   14:33:42.200.05-Jan-2021  76.20 4871.06 3453.01 2973.12 77.47 8.00
   14:33:42.400.05-Jan-2021  76.40 4870.99 3453.01 2973.12 77.47 8.00
   14:33:42.600.05-Jan-2021  76.60 4870.95 3453.01 2973.12 77.47 8.00
   14:33:42.800.05-Jan-2021  76.80 4870.99 3453.01 2973.12 77.47 8.00
   14:33:43.000.05-Jan-2021  77.00 4871.02 3453.01 2973.12 77.47 8.00
   14:33:43.200.05-Jan-2021  77.20 4871.00 3453.01 2973.12 77.47 8.00
   14:33:43.400.05-Jan-2021  77.40 4871.00 3453.01 2973.12 77.47 8.00
   14:33:43.600.05-Jan-2021  77.60 4870.98 3453.01 2973.12 77.47 8.00
   14:33:43.800.05-Jan-2021  77.80 4871.04 3453.01 2973.12 77.47 8.00
   14:33:44.000.05-Jan-2021  78.00 4871.04 3453.01 2973.12 77.47 8.00
   14:33:44.200.05-Jan-2021  78.20 4871.04 3453.01 2973.12 77.47 8.00
   14:33:44.400.05-Jan-2021  78.40 4871.02 3453.01 2973.12 77.47 8.00
   14:33:44.600.05-Jan-2021  78.60 4871.04 3453.01 2973.12 77.47 8.00
   14:33:44.800.05-Jan-2021  78.80 4870.96 3453.01 2973.12 77.47 8.00
   14:33:45.000.05-Jan-2021  79.00 4871.05 3453.01 2973.12 77.47 8.00
   14:33:45.200.05-Jan-2021  79.20 4871.05 3453.01 2973.12 77.47 8.00
   14:33:45.400.05-Jan-2021  79.40 4870.98 3453.01 2973.12 77.47 8.00
   14:33:45.600.05-Jan-2021  79.60 4871.02 3453.01 2973.12 77.47 8.00
   14:33:45.800.05-Jan-2021  79.80 4871.03 3453.01 2973.12 77.47 8.00
   14:33:46.000.05-Jan-2021  80.00 4870.97 3453.01 2973.12 77.47 8.00
   14:33:46.200.05-Jan-2021  80.20 4871.02 3453.01 2973.12 77.47 8.00
   14:33:46.400.05-Jan-2021  80.40 4871.03 3453.01 2973.12 77.47 8.00
   14:33:46.600.05-Jan-2021  80.60 4871.05 3453.01 2973.12 77.47 8.00
   14:33:46.800.05-Jan-2021  80.80 4871.07 3453.01 2973.12 77.47 8.00
   14:33:47.000.05-Jan-2021  81.00 4871.04 3453.01 2973.12 77.47 8.00
   14:33:47.200.05-Jan-2021  81.20 4871.03 3453.01 2973.12 77.47 8.00
   14:33:47.400.05-Jan-2021  81.40 4870.95 3453.01 2973.12 77.47 8.00
   14:33:47.600.05-Jan-2021  81.60 4871.03 3453.01 2973.12 77.47 8.00
   14:33:47.800.05-Jan-2021  81.80 4871.02 3453.01 2973.12 77.47 8.00
   14:33:48.000.05-Jan-2021  82.00 4870.95 3453.01 2973.12 77.47 8.00
   14:33:48.200.05-Jan-2021  82.20 4870.95 3453.01 2973.12 77.47 8.00
   14:33:48.400.05-Jan-2021  82.40 4870.56 3453.01 2973.12 77.47 8.00
   14:33:48.600.05-Jan-2021  82.60 4871.47 3453.01 2973.12 77.47 8.00
   14:33:48.800.05-Jan-2021  82.80 4871.04 3453.01 2973.12 77.47 8.00
   14:33:49.000.05-Jan-2021  83.00 4870.99 3453.01 2973.12 77.47 8.00
   14:33:49.200.05-Jan-2021  83.20 4870.99 3453.01 2973.12 77.47 8.00
   14:33:49.400.05-Jan-2021  83.40 4871.06 3453.01 2973.12 77.47 8.00
   14:33:49.600.05-Jan-2021  83.60 4871.00 3453.01 2973.12 77.47 8.00
   14:33:49.800.05-Jan-2021  83.80 4870.99 3453.01 2973.12 77.47 8.00
   14:33:50.000.05-Jan-2021  84.00 4871.03 3453.01 2973.12 77.47 8.00
   14:33:50.200.05-Jan-2021  84.20 4871.03 3453.01 2973.12 77.47 8.00
   14:33:50.400.05-Jan-2021  84.40 4871.47 3453.01 2973.12 77.47 8.00
   14:33:50.600.05-Jan-2021  84.60 4871.02 3453.01 2973.12 77.47 8.00
   14:33:50.800.05-Jan-2021  84.80 4871.02 3453.01 2973.12 77.47 8.00
   14:33:51.000.05-Jan-2021  85.00 4871.04 3453.01 2973.12 77.48 8.00
   14:33:51.200.05-Jan-2021  85.20 4871.02 3453.01 2973.12 77.47 8.00
   14:33:51.400.05-Jan-2021  85.40 4871.01 3453.01 2973.12 77.48 8.00
   14:33:51.600.05-Jan-2021  85.60 4871.01 3453.01 2973.12 77.48 8.00
   14:33:51.800.05-Jan-2021  85.80 4871.01 3453.01 2973.12 77.48 8.00
   14:33:52.000.05-Jan-2021  86.00 4871.10 3453.01 2973.12 77.48 8.00
   14:33:52.200.05-Jan-2021  86.20 4871.10 3453.01 2973.12 77.48 8.00
   14:33:52.400.05-Jan-2021  86.40 4871.03 3453.01 2973.12 77.48 8.00
   14:33:52.600.05-Jan-2021  86.60 4871.04 3453.01 2973.12 77.48 8.00
   14:33:52.800.05-Jan-2021  86.80 4871.08 3453.01 2973.12 77.48 8.00
   14:33:53.000.05-Jan-2021  87.00 4870.58 3453.01 2973.12 77.48 8.00
   14:33:53.200.05-Jan-2021  87.20 4870.58 3453.01 2973.12 77.48 8.00
   14:33:53.400.05-Jan-2021  87.40 4870.98 3453.01 2973.12 77.48 8.00
   14:33:53.600.05-Jan-2021  87.60 4871.06 3453.01 2973.12 77.48 8.00
   14:33:53.800.05-Jan-2021  87.80 4871.07 3453.01 2973.12 77.48 8.00
   14:33:54.000.05-Jan-2021  88.00 4871.00 3453.01 2973.12 77.48 8.00
   14:33:54.200.05-Jan-2021  88.20 4871.00 3453.01 2973.12 77.48 8.00
   14:33:54.400.05-Jan-2021  88.40 4871.07 3453.01 2973.12 77.48 8.00
   14:33:54.600.05-Jan-2021  88.60 4871.04 3453.01 2973.12 77.48 8.00
   14:33:54.800.05-Jan-2021  88.80 4871.06 3453.01 2973.12 77.48 8.00
   14:33:55.000.05-Jan-2021  89.00 4871.08 3453.01 2973.12 77.48 8.00
   14:33:55.200.05-Jan-2021  89.20 4871.08 3453.01 2973.12 77.48 8.00
   14:33:55.400.05-Jan-2021  89.40 4871.06 3453.01 2973.12 77.48 8.00
   14:33:55.600.05-Jan-2021  89.60 4870.60 3453.01 2973.12 77.48 8.00
   14:33:55.800.05-Jan-2021  89.80 4871.48 3453.01 2973.12 77.48 8.00
   14:33:56.000.05-Jan-2021  90.00 4871.02 3453.01 2973.12 77.48 8.00
   14:33:56.200.05-Jan-2021  90.20 4871.02 3453.01 2973.12 77.48 8.00
   14:33:56.400.05-Jan-2021  90.40 4871.56 3453.01 2973.12 77.48 8.00
   14:33:56.600.05-Jan-2021  90.60 4871.02 3453.01 2973.12 77.48 8.00
   14:33:56.800.05-Jan-2021  90.80 4870.94 3453.01 2973.12 77.48 8.00
   14:33:57.000.05-Jan-2021  91.00 4871.07 3453.01 2973.12 77.48 8.00
   14:33:57.200.05-Jan-2021  91.20 4871.07 3453.01 2973.12 77.48 8.00
   14:33:57.400.05-Jan-2021  91.40 4870.61 3453.01 2973.12 77.48 8.00
   14:33:57.600.05-Jan-2021  91.60 4871.47 3453.01 2973.12 77.48 8.00
   14:33:57.800.05-Jan-2021  91.80 4871.01 3453.01 2973.12 77.48 8.00
