~Version Information
 VERS.                  2.0:   CWLS log ASCII Standard -VERSION 2.0
 WRAP.                   NO:   One line per depth step
~Well Information Block
#MNEM.UNIT     VALUE/NAME     DESCRIPTION
#---------     -----------    ---------------------------
 STRT.S             13:40:14 05-Jan-21: START TIME 13:40:14 05-Jan-21
 STOP.S             13:48:27 05-Jan-21: STOP TIME  13:48:27 05-Jan-21
 STEP.S                   0.00: STEP TIME
 NULL.                 -999.25: NULL VALUE
 DFWT.                        :  DIST FWL TEXT
 DFST.                        :  DIST FSL TEXT
 DMF .             Drill Floor:  DRILL MEAS FROM
 STIM.      06.00.00 31-Dec-20:  START TIME
 DATE.      05.58.24 07-Jan-21:  END TIME
 SPUD.               24-Dec-20:  SPUD DATE
 NREF.                    Grid:  NORTH REFERENCE
 HPTY.       Minimum Curvature:  HOLE POS TYPE
 DMOD.             Drill Model:  DRILL MOD DESC
 SVYD.                  Survey:  SURVEY DESC
 ILTD.               Lithology:  INTERP LTH DESC
 FTOP.          Formation Tops:  FORM TOPS DESC
 SON .        AZ-XX-0906699554:  JOB NUMBER
 WELL.                    B09z:  WELL NAME
 PDAT.          Mean Sea Level:  PERMANENT DATUM
 FLD .                     ACG:  FIELD NAME
 CTRY.              Azerbaijan:  COUNTRY NAME
 COMP.     BP Exploration (Caspian Sea) Ltd.:  COMPANY
 UWI .                     N/A:  UNIQUE WELL IDENTIFIER
 API .                     N/A:  API NUMBER
 WTYP.                Deviated:  WELL TYPE
 MDS .        Operator Entered:  MAG DATA SOURCE
 BASE.              Azerbaijan:  LOGGING EQUIPMENT BASE LOCATION
 REGN.                   EESSA:  REGION
 PROV.                    Baku:  PROVINCE
 STAT.                    Baku:  STATE NAME
 SRVC.          Turan Drilling:  CONTRACTOR
 MWDS.                    Baku:  MWD SHOP
 JOBN.        AZ-XX-0906699554:  JOB TICKET NUMB
 RIG .           Central Azeri:  RIG NAME
 DOE .                     N/A:  DOE NUMBER
 DCON.         Sperry Drilling:  DIRECTNL CONTR
 UNIT.                     N/A:  LOGGING EQUIPMENT ID
 CNTY.                        :  COUNTY
 LOC .                        :  LOCATION
 LMF .             Drill Floor:  LOG MEASURED FROM
 TVDS.m                  43.29:  TVDSS CORRECTN
 LATI.deg                40.03:  LATITUDE
 LONG.deg                51.35:  LONGITUDE
 WHNS.m                  -2.76:  WELL HEAD N/S
 WHEW.m                  -7.70:  WELL HEAD E/W
 UTMX.m              530128.28:  UTM X
 UTMY.m             4433192.49:  UTM Y
 DFWL.m                   0.00:  DISTANCE FWL
 DFSL.m                   0.00:  DISTANCE FSL
 SDEP.m                3435.01:  START DEPTH
 TDD .m                3814.01:  TOTAL DEPTH (DRILLER)
 VSDR.deg               352.80:  VERT SEC DIRECT
 GVFD.g                   1.00:  GRAVITY FIELD
 MFLD.nT              50303.00:  MAGNETIC FIELD
 MDIP.deg                59.52:  MAGNETIC DIP
 MDEC.deg                 6.47:  MAGNETIC DECL
 GRDC.deg                 0.23:  GRID CORRECTION
 AZTC.deg                 6.24:  AZM TOTAL CORR
 EPD .m                   0.00:  ELEVATION
 EGL .m                   0.00:  GROUND ELEVATION
 WDMS.m                 128.20:  WD ELEV
 APD .m                  43.29:  DEPTH ABOVE PD
 DEP .m                3421.30:  DEPTH
 AGAP.m                  43.60:  AIR GAP
 VSEW.m                  -7.70:  VERT SEC E/W
 VSNS.m                  -2.76:  VERT SEC N/S
 EKB .m                   0.00:  KB ELEVATION
 EDF .m                  43.29:  DF ELEVATION
 TDL .m                 369.00:  TOTAL DEPTH (LOGGER)
 VSC .                       0:  VS TO CLOSURE
 MAGU.                 1850390:  MAGUTM CHECKSUM
~Parameter Information Block
#MNEM.UNIT       Value        Description
#---------     -----------    ---------------------------
 AV  .mps                 2.80:  Ann Velocity 
 AVMX.mps                 4.67:  Max Ann Veloc 
 AZIF.deg               303.89:  Azm, Final 
 BHAT.        Rotary Steerable:  BHA Type 
 BREV.rev            128542.00:  Rev Bit Total 
 BROT.°/30m               1.50:  Build Rotating 
 BS  .in                  8.50:  Bit Size 
 BSZ .in                  8.50:  Bit Size 
 BTPL.psig              715.00:  Bit Press Loss 
 CABU.                      No:  Customer Abuse 
 COMM.                     t6w:  Run Comments 1 
 TCS .hr                 53.00:  Time Ciculation Ended 
 CV  .mps                 3.85:  Crit Velocity 
 CVMX.mps                 4.75:  Max Crit Veloc 
 DD1 .         Intigam Rahimov:  Direct Drillr 1 
 DDSV.                 iCruise:  DD Service 
 DEFF.%                  98.60:  % Det Eff 
 DLRX.°/30m               2.34:  Dogleg Rot Max 
 DLSO.°/30m               0.00:  Dogleg Oriented 
 DLSX.°/30m               0.00:  Dogleg Str Max 
 DRET.      00.15.00 05-Jan-21:  Drill End Time 
 DRST.      22.00.00 03-Jan-21:  Drill Start Tim 
 DTIM.hr                 17.72:  Time Drilling 
 EDEP.m                3814.01:  End Depth 
 ENG1.         Yevgeniy Ulikov:  Engineer 1 
 ENG2.        Farkhad Khalidov:  Engineer 2 
 ENG3.           Samir Gafarov:  Engineer 3 
 ETIM.      21.00.00 07-Jan-21:  End Time 
 FLOI.gpm               590.00:  Flow In 
 FLON.gpm               580.00:  Flow In Min 
 FLOS.cptm                1.00:  Fluid Loss 
 FLOX.gpm               595.00:  Flow In Max 
 FTRO.     Connectivity, Formation Presure:  FTWD Run Obj 
 HFLO.                      No:  High Flow 
 HPRE.                     Yes:  High Pressure 
 HTEM.                      No:  High Temp 
 HYDO.m                   1.80:  Hydro Offset 
 IFIN.deg                63.76:  Inc, Final 
 IMAX.deg                64.09:  Inc Max 
 IMIN.deg                55.81:  Inc Min 
 IMND.m                3455.62:  Inc Min Depth 
 IMXD.m                3796.03:  Inc Max Depth 
 JARR.                      No:  Jarring 
 LETM.      00.15.00 05-Jan-21:  Log End Time 
 LOST.hr                     0:  Lost Rig Time 
 LSTM.      22.00.00 03-Jan-21:  Log Start Time 
 MDCL.ppm             36000.00:  Mud Chlorides 
 MDES.     Inversion Oil/Synthetic:  Mud Desc 
 DFD .sg                  1.51:  Mud Density 
 MDMN.sg                  1.51:  Dens Mud Min 
 MDMX.sg                  1.51:  Dens Mud Max 
 MOIL.                    55.5:  Run Mud Oil % 
 MOWR.                   70:30:  Run Mud OWR 
 MSND.                     0.1:  Run Mud Sand % 
 MSOL.                   20.77:  Run Mud Solids% 
 DFV .spqt               67.00:  Mud Viscosity 
 MWOD.in                  6.75:  MWD Tool OD 
 MWSI.                      No:  Serv Intrp, MWD 
 OTIM.hr                113.53:  Time Operating 
 PCON.           Look Like New:  Pad Condition 
 PMAX.psia             4830.00:  Press Op, Max 
 PV  .cP                 29.00:  Mud PV 
 RUN .                     300:  Run Number 
 ROPA.m/hr               22.00:  ROP Avg 
 ROPN.m/hr               18.00:  ROP Min 
 ROPX.m/hr               25.00:  ROP Max 
 RPMA.rpm               130.00:  RPM Surface Avg 
 RPMN.rpm                80.00:  RPM Surface Min 
 RPMX.rpm               140.00:  RPM Surface Max 
 RRUN.                    L101:  Rig Run Number 
 RTIM.hr                  9.28:  Time Reaming 
 SAZI.deg               316.55:  Azm, Start 
 SDEP.m                3445.01:  Start Depth 
 SIDD.                      No:  Serv Intrp, DD 
 SINC.deg                55.81:  Inc, Start 
 SPPA.psig             4500.00:  SPP Avg 
 SPPN.psig             4350.00:  SPP Min 
 SPPX.psig             4830.00:  SPP Max 
 STIM.      00.00.00 03-Jan-21:  Start Time 
 SVCS.                 DD, MWD:  Services 
 SVER.                    9.20:  Sperry Version 
 TDAT.m                 369.00:  Tot Depth Attmp 
 TDDF.                      No:  Trip for DD 
 TDLG.m                 369.00:  Tot Depth Loggd 
 TFF .                      No:  Trip for Fail 
 TQAA.f-kp               15.00:  Torque Abs Avg 
 TQAN.f-kp               12.00:  Torque Abs Min 
 TQAX.f-kp               16.00:  Torque Abs Max 
 TRRT.°/30m              -2.10:  Turn Rotating 
 MRT .                    HCIM:  Maximum Recorded Temperature 
 TTMX.degC               92.16:  Max Tool Temp 
 VS01.                90627822:  Virtual Str1 SN 
 VS02.                90550008:  Virtual Str2 SN 
 VS03.                90627816:  Virtual Str3 SN 
 VS04.                90633205:  Virtual Str4 SN 
 VS05.                13033835:  Virtual Str5 SN 
 VS06.                11125125:  Virtual Str6 SN 
 WBMN.klb                 8.00:  WOB Min 
 WITN.            Bruce Cheyne:  Customer Rep 
 WITN.           Faig Mammadov:  Customer Rep 2 
 WOBA.klb                 9.00:  WOB Avg 
 WOBX.klb                12.00:  WOB Max 
 YP  .lhf2               30.00:  Yield Point 
~Curve Information Block
#MNEM.UNIT                 API CODE     Curve Description
#---------               -----------    ---------------------------
 TIME.HHMMSS            00 000 000 000:  GT Time & Date
 GTET.sec               00 000 000 000:  GT Elapsed Test Time
 GTPQH.psia             00 000 000 000:  GT HR Quartz Pressure
 GTDEPTH.m              00 000 000 000:  GT Depth
 GTTVD.m                00 000 000 000:  GT True Vertical Depth
 GTTQ.degC              00 000 000 000:  GT Quartz Temperature
 GTTN.NONE              00 000 000 000:  GT Test Number
#Other Information
#
#WARRANTY: Halliburton will use its best efforts to furnish customers with 
#accurate information and interpretations that are part of, and incident to, the services 
#provided.  However, Halliburton cannot and does not warrant the accuracy 
#or correctness of such information and interpretations.  Under no circumstances should any 
#such information or interpretation be relied upon as the sole basis for any drilling, 
#completion, production, or financial decision or any procedure involving any risk to the 
#safety of any drilling venture, drilling rig or its crew or any other third party.  The 
#Customer has full responsibility for all drilling, completion and production operation.  
#Halliburton makes no representations or warranties, either expressed or 
#implied, including, but not limited to, the implied warranties of merchantability or fitness 
#for a particular purpose, with respect to the services rendered.  In no event will 
#Halliburton be liable for failure to obtain any particular results or for 
#any damages, including, but not limited to, indirect, special or consequential damages, 
#resulting from the use of any information or interpretation provided by Halliburton.
#
~A           TIME            GTET   GTPQH  GTDEPTH  GTTVD  GTTQ  GTTN 
# ...
   13:46:00.123.05-Jan-2021 345.19 4883.98 3494.01 2996.09 78.07 7.00
   13:46:00.323.05-Jan-2021 345.39 4884.36 3494.01 2996.09 78.07 7.00
   13:46:00.523.05-Jan-2021 345.59 4883.86 3494.01 2996.09 78.07 7.00
   13:46:00.723.05-Jan-2021 345.79 4883.86 3494.01 2996.09 78.07 7.00
   13:46:00.923.05-Jan-2021 345.99 4884.44 3494.01 2996.09 78.07 7.00
   13:46:01.123.05-Jan-2021 346.19 4884.53 3494.01 2996.09 78.07 7.00
   13:46:01.323.05-Jan-2021 346.39 4884.53 3494.01 2996.09 78.07 7.00
   13:46:01.523.05-Jan-2021 346.59 4884.50 3494.01 2996.09 78.07 7.00
   13:46:01.723.05-Jan-2021 346.79 4883.51 3494.01 2996.09 78.07 7.00
   13:46:01.924.05-Jan-2021 346.99 4884.49 3494.01 2996.09 78.07 7.00
   13:46:02.124.05-Jan-2021 347.19 4883.98 3494.01 2996.09 78.07 7.00
   13:46:02.324.05-Jan-2021 347.39 4883.98 3494.01 2996.09 78.07 7.00
   13:46:02.524.05-Jan-2021 347.59 4884.73 3494.01 2996.09 78.07 7.00
   13:46:02.724.05-Jan-2021 347.79 4883.96 3494.01 2996.09 78.07 7.00
   13:46:02.924.05-Jan-2021 347.99 4884.12 3494.01 2996.09 78.07 7.00
   13:46:03.124.05-Jan-2021 348.19 4883.96 3494.01 2996.09 78.07 7.00
   13:46:03.324.05-Jan-2021 348.39 4884.47 3494.01 2996.09 78.07 7.00
   13:46:03.524.05-Jan-2021 348.59 4883.87 3494.01 2996.09 78.07 7.00
   13:46:03.725.05-Jan-2021 348.79 4884.17 3494.01 2996.09 78.07 7.00
   13:46:03.925.05-Jan-2021 348.99 4884.16 3494.01 2996.09 78.07 7.00
   13:46:04.125.05-Jan-2021 349.19 4884.33 3494.01 2996.09 78.07 7.00
   13:46:04.325.05-Jan-2021 349.39 4884.33 3494.01 2996.09 78.07 7.00
   13:46:04.525.05-Jan-2021 349.59 4884.11 3494.01 2996.09 78.07 7.00
   13:46:04.725.05-Jan-2021 349.79 4884.26 3494.01 2996.09 78.07 7.00
   13:46:04.925.05-Jan-2021 349.99 4883.99 3494.01 2996.09 78.07 7.00
   13:46:05.125.05-Jan-2021 350.19 4884.18 3494.01 2996.09 78.07 7.00
   13:46:05.325.05-Jan-2021 350.39 4884.18 3494.01 2996.09 78.07 7.00
   13:46:05.526.05-Jan-2021 350.59 4884.36 3494.01 2996.09 78.07 7.00
   13:46:05.726.05-Jan-2021 350.79 4884.29 3494.01 2996.09 78.07 7.00
   13:46:05.926.05-Jan-2021 350.99 4883.66 3494.01 2996.09 78.07 7.00
   13:46:06.126.05-Jan-2021 351.19 4884.68 3494.01 2996.09 78.07 7.00
   13:46:06.326.05-Jan-2021 351.40 4884.68 3494.01 2996.09 78.07 7.00
   13:46:06.526.05-Jan-2021 351.60 4884.63 3494.01 2996.09 78.07 7.00
   13:46:06.726.05-Jan-2021 351.80 4883.79 3494.01 2996.09 78.07 7.00
   13:46:06.926.05-Jan-2021 352.00 4883.82 3494.01 2996.09 78.07 7.00
   13:46:07.126.05-Jan-2021 352.20 4884.39 3494.01 2996.09 78.07 7.00
   13:46:07.327.05-Jan-2021 352.40 4884.39 3494.01 2996.09 78.07 7.00
   13:46:07.527.05-Jan-2021 352.60 4884.38 3494.01 2996.09 78.07 7.00
   13:46:07.727.05-Jan-2021 352.80 4884.18 3494.01 2996.09 78.07 7.00
   13:46:07.927.05-Jan-2021 353.00 4883.84 3494.01 2996.09 78.07 7.00
   13:46:08.127.05-Jan-2021 353.20 4884.59 3494.01 2996.09 78.07 7.00
   13:46:08.327.05-Jan-2021 353.40 4884.59 3494.01 2996.09 78.07 7.00
   13:46:08.527.05-Jan-2021 353.60 4884.34 3494.01 2996.09 78.07 7.00
   13:46:08.727.05-Jan-2021 353.80 4883.38 3494.01 2996.09 78.07 7.00
   13:46:08.927.05-Jan-2021 354.00 4884.27 3494.01 2996.09 78.07 7.00
   13:46:09.128.05-Jan-2021 354.20 4884.62 3494.01 2996.09 78.07 7.00
   13:46:09.328.05-Jan-2021 354.40 4884.62 3494.01 2996.09 78.07 7.00
   13:46:09.528.05-Jan-2021 354.60 4884.76 3494.01 2996.09 78.07 7.00
   13:46:09.728.05-Jan-2021 354.80 4884.14 3494.01 2996.09 78.07 7.00
   13:46:09.928.05-Jan-2021 355.00 4884.30 3494.01 2996.09 78.07 7.00
   13:46:10.128.05-Jan-2021 355.20 4884.22 3494.01 2996.09 78.07 7.00
   13:46:10.328.05-Jan-2021 355.40 4884.22 3494.01 2996.09 78.07 7.00
   13:46:10.528.05-Jan-2021 355.60 4883.61 3494.01 2996.09 78.07 7.00
   13:46:10.728.05-Jan-2021 355.80 4884.77 3494.01 2996.09 78.07 7.00
   13:46:10.929.05-Jan-2021 356.00 4883.52 3494.01 2996.09 78.07 7.00
   13:46:11.129.05-Jan-2021 356.20 4884.61 3494.01 2996.09 78.08 7.00
   13:46:11.329.05-Jan-2021 356.40 4884.61 3494.01 2996.09 78.08 7.00
   13:46:11.529.05-Jan-2021 356.60 4883.33 3494.01 2996.09 78.08 7.00
   13:46:11.729.05-Jan-2021 356.80 4884.63 3494.01 2996.09 78.08 7.00
   13:46:11.929.05-Jan-2021 357.00 4884.65 3494.01 2996.09 78.08 7.00
   13:46:12.129.05-Jan-2021 357.20 4883.49 3494.01 2996.09 78.08 7.00
   13:46:12.329.05-Jan-2021 357.40 4883.49 3494.01 2996.09 78.08 7.00
   13:46:12.529.05-Jan-2021 357.60 4883.39 3494.01 2996.09 78.08 7.00
   13:46:12.730.05-Jan-2021 357.80 4884.75 3494.01 2996.09 78.08 7.00
   13:46:12.930.05-Jan-2021 358.00 4883.70 3494.01 2996.09 78.08 7.00
   13:46:13.130.05-Jan-2021 358.20 4884.32 3494.01 2996.09 78.08 7.00
   13:46:13.330.05-Jan-2021 358.40 4884.32 3494.01 2996.09 78.08 7.00
   13:46:13.530.05-Jan-2021 358.60 4883.72 3494.01 2996.09 78.08 7.00
   13:46:13.730.05-Jan-2021 358.80 4884.21 3494.01 2996.09 78.08 7.00
   13:46:13.930.05-Jan-2021 359.00 4884.30 3494.01 2996.09 78.08 7.00
   13:46:14.130.05-Jan-2021 359.20 4883.86 3494.01 2996.09 78.08 7.00
   13:46:14.330.05-Jan-2021 359.40 4883.86 3494.01 2996.09 78.08 7.00
   13:46:14.531.05-Jan-2021 359.60 4884.27 3494.01 2996.09 78.08 7.00
   13:46:14.731.05-Jan-2021 359.80 4883.43 3494.01 2996.09 78.08 7.00
   13:46:14.931.05-Jan-2021 360.00 4884.87 3494.01 2996.09 78.08 7.00
   13:46:15.131.05-Jan-2021 360.20 4883.91 3494.01 2996.09 78.08 7.00
   13:46:15.331.05-Jan-2021 360.40 4883.91 3494.01 2996.09 78.08 7.00
   13:46:15.531.05-Jan-2021 360.60 4884.30 3494.01 2996.09 78.08 7.00
   13:46:15.731.05-Jan-2021 360.80 4884.37 3494.01 2996.09 78.08 7.00
   13:46:15.931.05-Jan-2021 361.00 4883.91 3494.01 2996.09 78.08 7.00
   13:46:16.131.05-Jan-2021 361.20 4884.30 3494.01 2996.09 78.08 7.00
   13:46:16.332.05-Jan-2021 361.40 4884.30 3494.01 2996.09 78.08 7.00
   13:46:16.532.05-Jan-2021 361.60 4884.09 3494.01 2996.09 78.08 7.00
   13:46:16.732.05-Jan-2021 361.80 4884.43 3494.01 2996.09 78.08 7.00
   13:46:16.932.05-Jan-2021 362.00 4884.22 3494.01 2996.09 78.08 7.00
   13:46:17.132.05-Jan-2021 362.20 4883.80 3494.01 2996.09 78.08 7.00
   13:46:17.332.05-Jan-2021 362.40 4883.80 3494.01 2996.09 78.08 7.00
   13:46:17.532.05-Jan-2021 362.60 4884.06 3494.01 2996.09 78.08 7.00
   13:46:17.732.05-Jan-2021 362.80 4884.26 3494.01 2996.09 78.08 7.00
   13:46:17.932.05-Jan-2021 363.00 4884.00 3494.01 2996.09 78.08 7.00
   13:46:18.133.05-Jan-2021 363.20 4884.17 3494.01 2996.09 78.08 7.00
   13:46:18.333.05-Jan-2021 363.40 4884.17 3494.01 2996.09 78.08 7.00
   13:46:18.533.05-Jan-2021 363.60 4884.00 3494.01 2996.09 78.08 7.00
   13:46:18.733.05-Jan-2021 363.80 4883.96 3494.01 2996.09 78.08 7.00
   13:46:18.933.05-Jan-2021 364.00 4884.46 3494.01 2996.09 78.08 7.00
   13:46:19.133.05-Jan-2021 364.20 4883.57 3494.01 2996.09 78.08 7.00
   13:46:19.333.05-Jan-2021 364.40 4883.57 3494.01 2996.09 78.08 7.00
   13:46:19.533.05-Jan-2021 364.60 4883.94 3494.01 2996.09 78.08 7.00
   13:46:19.733.05-Jan-2021 364.80 4884.23 3494.01 2996.09 78.08 7.00
   13:46:19.934.05-Jan-2021 365.00 4884.19 3494.01 2996.09 78.08 7.00
   13:46:20.134.05-Jan-2021 365.20 4884.15 3494.01 2996.09 78.08 7.00
   13:46:20.334.05-Jan-2021 365.40 4884.33 3494.01 2996.09 78.08 7.00
   13:46:20.534.05-Jan-2021 365.60 4883.99 3494.01 2996.09 78.08 7.00
   13:46:20.734.05-Jan-2021 365.80 4884.35 3494.01 2996.09 78.08 7.00
   13:46:20.934.05-Jan-2021 366.00 4884.19 3494.01 2996.09 78.08 7.00
   13:46:21.134.05-Jan-2021 366.20 4884.00 3494.01 2996.09 78.08 7.00
   13:46:21.334.05-Jan-2021 366.40 4883.49 3494.01 2996.09 78.08 7.00
   13:46:21.534.05-Jan-2021 366.60 4885.26 3494.01 2996.09 78.08 7.00
   13:46:21.735.05-Jan-2021 366.80 4883.71 3494.01 2996.09 78.08 7.00
   13:46:21.935.05-Jan-2021 367.00 4884.57 3494.01 2996.09 78.08 7.00
   13:46:22.135.05-Jan-2021 367.20 4884.06 3494.01 2996.09 78.08 7.00
   13:46:22.335.05-Jan-2021 367.40 4884.06 3494.01 2996.09 78.08 7.00
   13:46:22.535.05-Jan-2021 367.60 4884.15 3494.01 2996.09 78.08 7.00
   13:46:22.735.05-Jan-2021 367.80 4883.78 3494.01 2996.09 78.08 7.00
   13:46:22.935.05-Jan-2021 368.00 4884.65 3494.01 2996.09 78.08 7.00
