~Version Information
 VERS.                  2.0:   CWLS log ASCII Standard -VERSION 2.0
 WRAP.                   NO:   One line per depth step
~Well Information Block
#MNEM.UNIT     VALUE/NAME     DESCRIPTION
#---------     -----------    ---------------------------
 STRT.S             07:28:27 05-Jan-21: START TIME 07:28:27 05-Jan-21
 STOP.S             07:36:40 05-Jan-21: STOP TIME  07:36:40 05-Jan-21
 STEP.S                   0.00: STEP TIME
 NULL.                 -999.25: NULL VALUE
 DFWT.                        :  DIST FWL TEXT
 DFST.                        :  DIST FSL TEXT
 DMF .             Drill Floor:  DRILL MEAS FROM
 STIM.      06.00.00 31-Dec-20:  START TIME
 DATE.      05.58.24 07-Jan-21:  END TIME
 SPUD.               24-Dec-20:  SPUD DATE
 NREF.                    Grid:  NORTH REFERENCE
 HPTY.       Minimum Curvature:  HOLE POS TYPE
 DMOD.             Drill Model:  DRILL MOD DESC
 SVYD.                  Survey:  SURVEY DESC
 ILTD.               Lithology:  INTERP LTH DESC
 FTOP.          Formation Tops:  FORM TOPS DESC
 SON .        AZ-XX-0906699554:  JOB NUMBER
 WELL.                    B09z:  WELL NAME
 PDAT.          Mean Sea Level:  PERMANENT DATUM
 FLD .                     ACG:  FIELD NAME
 CTRY.              Azerbaijan:  COUNTRY NAME
 COMP.     BP Exploration (Caspian Sea) Ltd.:  COMPANY
 UWI .                     N/A:  UNIQUE WELL IDENTIFIER
 API .                     N/A:  API NUMBER
 WTYP.                Deviated:  WELL TYPE
 MDS .        Operator Entered:  MAG DATA SOURCE
 BASE.              Azerbaijan:  LOGGING EQUIPMENT BASE LOCATION
 REGN.                   EESSA:  REGION
 PROV.                    Baku:  PROVINCE
 STAT.                    Baku:  STATE NAME
 SRVC.          Turan Drilling:  CONTRACTOR
 MWDS.                    Baku:  MWD SHOP
 JOBN.        AZ-XX-0906699554:  JOB TICKET NUMB
 RIG .           Central Azeri:  RIG NAME
 DOE .                     N/A:  DOE NUMBER
 DCON.         Sperry Drilling:  DIRECTNL CONTR
 UNIT.                     N/A:  LOGGING EQUIPMENT ID
 CNTY.                        :  COUNTY
 LOC .                        :  LOCATION
 LMF .             Drill Floor:  LOG MEASURED FROM
 TVDS.m                  43.29:  TVDSS CORRECTN
 LATI.deg                40.03:  LATITUDE
 LONG.deg                51.35:  LONGITUDE
 WHNS.m                  -2.76:  WELL HEAD N/S
 WHEW.m                  -7.70:  WELL HEAD E/W
 UTMX.m              530128.28:  UTM X
 UTMY.m             4433192.49:  UTM Y
 DFWL.m                   0.00:  DISTANCE FWL
 DFSL.m                   0.00:  DISTANCE FSL
 SDEP.m                3435.01:  START DEPTH
 TDD .m                3814.01:  TOTAL DEPTH (DRILLER)
 VSDR.deg               352.80:  VERT SEC DIRECT
 GVFD.g                   1.00:  GRAVITY FIELD
 MFLD.nT              50303.00:  MAGNETIC FIELD
 MDIP.deg                59.52:  MAGNETIC DIP
 MDEC.deg                 6.47:  MAGNETIC DECL
 GRDC.deg                 0.23:  GRID CORRECTION
 AZTC.deg                 6.24:  AZM TOTAL CORR
 EPD .m                   0.00:  ELEVATION
 EGL .m                   0.00:  GROUND ELEVATION
 WDMS.m                 128.20:  WD ELEV
 APD .m                  43.29:  DEPTH ABOVE PD
 DEP .m                3421.30:  DEPTH
 AGAP.m                  43.60:  AIR GAP
 VSEW.m                  -7.70:  VERT SEC E/W
 VSNS.m                  -2.76:  VERT SEC N/S
 EKB .m                   0.00:  KB ELEVATION
 EDF .m                  43.29:  DF ELEVATION
 TDL .m                 369.00:  TOTAL DEPTH (LOGGER)
 VSC .                       0:  VS TO CLOSURE
 MAGU.                 1850390:  MAGUTM CHECKSUM
~Parameter Information Block
#MNEM.UNIT       Value        Description
#---------     -----------    ---------------------------
 AV  .mps                 2.80:  Ann Velocity 
 AVMX.mps                 4.67:  Max Ann Veloc 
 AZIF.deg               303.89:  Azm, Final 
 BHAT.        Rotary Steerable:  BHA Type 
 BREV.rev            128542.00:  Rev Bit Total 
 BROT.°/30m               1.50:  Build Rotating 
 BS  .in                  8.50:  Bit Size 
 BSZ .in                  8.50:  Bit Size 
 BTPL.psig              715.00:  Bit Press Loss 
 CABU.                      No:  Customer Abuse 
 COMM.                     ÜNb:  Run Comments 1 
 TCS .hr                 53.00:  Time Ciculation Ended 
 CV  .mps                 3.85:  Crit Velocity 
 CVMX.mps                 4.75:  Max Crit Veloc 
 DD1 .         Intigam Rahimov:  Direct Drillr 1 
 DDSV.                 iCruise:  DD Service 
 DEFF.%                  98.60:  % Det Eff 
 DLRX.°/30m               2.34:  Dogleg Rot Max 
 DLSO.°/30m               0.00:  Dogleg Oriented 
 DLSX.°/30m               0.00:  Dogleg Str Max 
 DRET.      00.15.00 05-Jan-21:  Drill End Time 
 DRST.      22.00.00 03-Jan-21:  Drill Start Tim 
 DTIM.hr                 17.72:  Time Drilling 
 EDEP.m                3814.01:  End Depth 
 ENG1.         Yevgeniy Ulikov:  Engineer 1 
 ENG2.        Farkhad Khalidov:  Engineer 2 
 ENG3.           Samir Gafarov:  Engineer 3 
 ETIM.      21.00.00 07-Jan-21:  End Time 
 FLOI.gpm               590.00:  Flow In 
 FLON.gpm               580.00:  Flow In Min 
 FLOS.cptm                1.00:  Fluid Loss 
 FLOX.gpm               595.00:  Flow In Max 
 FTRO.     Connectivity, Formation Presure:  FTWD Run Obj 
 HFLO.                      No:  High Flow 
 HPRE.                     Yes:  High Pressure 
 HTEM.                      No:  High Temp 
 HYDO.m                   1.80:  Hydro Offset 
 IFIN.deg                63.76:  Inc, Final 
 IMAX.deg                64.09:  Inc Max 
 IMIN.deg                55.81:  Inc Min 
 IMND.m                3455.62:  Inc Min Depth 
 IMXD.m                3796.03:  Inc Max Depth 
 JARR.                      No:  Jarring 
 LETM.      00.15.00 05-Jan-21:  Log End Time 
 LOST.hr                     0:  Lost Rig Time 
 LSTM.      22.00.00 03-Jan-21:  Log Start Time 
 MDCL.ppm             36000.00:  Mud Chlorides 
 MDES.     Inversion Oil/Synthetic:  Mud Desc 
 DFD .sg                  1.51:  Mud Density 
 MDMN.sg                  1.51:  Dens Mud Min 
 MDMX.sg                  1.51:  Dens Mud Max 
 MOIL.                    55.5:  Run Mud Oil % 
 MOWR.                   70:30:  Run Mud OWR 
 MSND.                     0.1:  Run Mud Sand % 
 MSOL.                   20.77:  Run Mud Solids% 
 DFV .spqt               67.00:  Mud Viscosity 
 MWOD.in                  6.75:  MWD Tool OD 
 MWSI.                      No:  Serv Intrp, MWD 
 OTIM.hr                113.53:  Time Operating 
 PCON.           Look Like New:  Pad Condition 
 PMAX.psia             4830.00:  Press Op, Max 
 PV  .cP                 29.00:  Mud PV 
 RUN .                     300:  Run Number 
 ROPA.m/hr               22.00:  ROP Avg 
 ROPN.m/hr               18.00:  ROP Min 
 ROPX.m/hr               25.00:  ROP Max 
 RPMA.rpm               130.00:  RPM Surface Avg 
 RPMN.rpm                80.00:  RPM Surface Min 
 RPMX.rpm               140.00:  RPM Surface Max 
 RRUN.                    L101:  Rig Run Number 
 RTIM.hr                  9.28:  Time Reaming 
 SAZI.deg               316.55:  Azm, Start 
 SDEP.m                3445.01:  Start Depth 
 SIDD.                      No:  Serv Intrp, DD 
 SINC.deg                55.81:  Inc, Start 
 SPPA.psig             4500.00:  SPP Avg 
 SPPN.psig             4350.00:  SPP Min 
 SPPX.psig             4830.00:  SPP Max 
 STIM.      00.00.00 03-Jan-21:  Start Time 
 SVCS.                 DD, MWD:  Services 
 SVER.                    9.20:  Sperry Version 
 TDAT.m                 369.00:  Tot Depth Attmp 
 TDDF.                      No:  Trip for DD 
 TDLG.m                 369.00:  Tot Depth Loggd 
 TFF .                      No:  Trip for Fail 
 TQAA.f-kp               15.00:  Torque Abs Avg 
 TQAN.f-kp               12.00:  Torque Abs Min 
 TQAX.f-kp               16.00:  Torque Abs Max 
 TRRT.°/30m              -2.10:  Turn Rotating 
 MRT .                    HCIM:  Maximum Recorded Temperature 
 TTMX.degC               92.16:  Max Tool Temp 
 VS01.                90627822:  Virtual Str1 SN 
 VS02.                90550008:  Virtual Str2 SN 
 VS03.                90627816:  Virtual Str3 SN 
 VS04.                90633205:  Virtual Str4 SN 
 VS05.                13033835:  Virtual Str5 SN 
 VS06.                11125125:  Virtual Str6 SN 
 WBMN.klb                 8.00:  WOB Min 
 WITN.            Bruce Cheyne:  Customer Rep 
 WITN.           Faig Mammadov:  Customer Rep 2 
 WOBA.klb                 9.00:  WOB Avg 
 WOBX.klb                12.00:  WOB Max 
 YP  .lhf2               30.00:  Yield Point 
~Curve Information Block
#MNEM.UNIT                 API CODE     Curve Description
#---------               -----------    ---------------------------
 TIME.HHMMSS            00 000 000 000:  GT Time & Date
 GTET.sec               00 000 000 000:  GT Elapsed Test Time
 GTPQH.psia             00 000 000 000:  GT HR Quartz Pressure
 GTDEPTH.m              00 000 000 000:  GT Depth
 GTTVD.m                00 000 000 000:  GT True Vertical Depth
 GTTQ.degC              00 000 000 000:  GT Quartz Temperature
 GTTN.NONE              00 000 000 000:  GT Test Number
#Other Information
#
#WARRANTY: Halliburton will use its best efforts to furnish customers with 
#accurate information and interpretations that are part of, and incident to, the services 
#provided.  However, Halliburton cannot and does not warrant the accuracy 
#or correctness of such information and interpretations.  Under no circumstances should any 
#such information or interpretation be relied upon as the sole basis for any drilling, 
#completion, production, or financial decision or any procedure involving any risk to the 
#safety of any drilling venture, drilling rig or its crew or any other third party.  The 
#Customer has full responsibility for all drilling, completion and production operation.  
#Halliburton makes no representations or warranties, either expressed or 
#implied, including, but not limited to, the implied warranties of merchantability or fitness 
#for a particular purpose, with respect to the services rendered.  In no event will 
#Halliburton be liable for failure to obtain any particular results or for 
#any damages, including, but not limited to, indirect, special or consequential damages, 
#resulting from the use of any information or interpretation provided by Halliburton.
#
~A           TIME            GTET   GTPQH  GTDEPTH  GTTVD  GTTQ  GTTN 
# ...
   07:36:07.435.05-Jan-2021 460.17 7255.29 3656.51 3079.56 81.42 4.00
   07:36:07.635.05-Jan-2021 460.37 7255.29 3656.51 3079.56 81.42 4.00
   07:36:07.835.05-Jan-2021 460.57 7254.94 3656.51 3079.56 81.42 4.00
   07:36:08.035.05-Jan-2021 460.77 7254.18 3656.51 3079.56 81.42 4.00
   07:36:08.235.05-Jan-2021 460.97 7254.07 3656.51 3079.56 81.42 4.00
   07:36:08.435.05-Jan-2021 461.17 7253.86 3656.51 3079.56 81.42 4.00
   07:36:08.635.05-Jan-2021 461.37 7253.86 3656.51 3079.56 81.42 4.00
   07:36:08.836.05-Jan-2021 461.57 7253.77 3656.51 3079.56 81.42 4.00
   07:36:09.036.05-Jan-2021 461.77 7253.63 3656.51 3079.56 81.42 4.00
   07:36:09.236.05-Jan-2021 461.97 7253.50 3656.51 3079.56 81.42 4.00
   07:36:09.436.05-Jan-2021 462.17 7253.34 3656.51 3079.56 81.42 4.00
   07:36:09.636.05-Jan-2021 462.37 7253.34 3656.51 3079.56 81.42 4.00
   07:36:09.836.05-Jan-2021 462.57 7253.05 3656.51 3079.56 81.42 4.00
   07:36:10.036.05-Jan-2021 462.77 7253.08 3656.51 3079.56 81.42 4.00
   07:36:10.236.05-Jan-2021 462.97 7252.86 3656.51 3079.56 81.42 4.00
   07:36:10.436.05-Jan-2021 463.17 7252.81 3656.51 3079.56 81.42 4.00
   07:36:10.636.05-Jan-2021 463.37 7252.81 3656.51 3079.56 81.42 4.00
   07:36:10.836.05-Jan-2021 463.57 7252.73 3656.51 3079.56 81.42 4.00
   07:36:11.036.05-Jan-2021 463.77 7252.62 3656.51 3079.56 81.42 4.00
   07:36:11.236.05-Jan-2021 463.97 7252.85 3656.51 3079.56 81.42 4.00
   07:36:11.437.05-Jan-2021 464.17 7252.69 3656.51 3079.56 81.42 4.00
   07:36:11.637.05-Jan-2021 464.37 7252.69 3656.51 3079.56 81.42 4.00
   07:36:11.837.05-Jan-2021 464.57 7252.23 3656.51 3079.56 81.42 4.00
   07:36:12.037.05-Jan-2021 464.77 7252.35 3656.51 3079.56 81.42 4.00
   07:36:12.237.05-Jan-2021 464.97 7251.61 3656.51 3079.56 81.42 4.00
   07:36:12.437.05-Jan-2021 465.17 7251.83 3656.51 3079.56 81.42 4.00
   07:36:12.637.05-Jan-2021 465.37 7251.83 3656.51 3079.56 81.42 4.00
   07:36:12.837.05-Jan-2021 465.57 7251.61 3656.51 3079.56 81.42 4.00
   07:36:13.037.05-Jan-2021 465.77 7250.68 3656.51 3079.56 81.42 4.00
   07:36:13.237.05-Jan-2021 465.97 7251.14 3656.51 3079.56 81.42 4.00
   07:36:13.437.05-Jan-2021 466.17 7250.92 3656.51 3079.56 81.42 4.00
   07:36:13.637.05-Jan-2021 466.37 7250.92 3656.51 3079.56 81.42 4.00
   07:36:13.837.05-Jan-2021 466.57 7250.46 3656.51 3079.56 81.42 4.00
   07:36:14.037.05-Jan-2021 466.77 7250.59 3656.51 3079.56 81.42 4.00
   07:36:14.238.05-Jan-2021 466.97 7250.30 3656.51 3079.56 81.42 4.00
   07:36:14.438.05-Jan-2021 467.17 7250.70 3656.51 3079.56 81.42 4.00
   07:36:14.638.05-Jan-2021 467.37 7250.70 3656.51 3079.56 81.42 4.00
   07:36:14.838.05-Jan-2021 467.57 7250.54 3656.51 3079.56 81.42 4.00
   07:36:15.038.05-Jan-2021 467.77 7250.33 3656.51 3079.56 81.42 4.00
   07:36:15.238.05-Jan-2021 467.97 7250.43 3656.51 3079.56 81.42 4.00
   07:36:15.438.05-Jan-2021 468.17 7250.28 3656.51 3079.56 81.41 4.00
   07:36:15.638.05-Jan-2021 468.37 7250.28 3656.51 3079.56 81.41 4.00
   07:36:15.838.05-Jan-2021 468.57 7250.16 3656.51 3079.56 81.41 4.00
   07:36:16.038.05-Jan-2021 468.77 7250.11 3656.51 3079.56 81.41 4.00
   07:36:16.238.05-Jan-2021 468.97 7250.01 3656.51 3079.56 81.41 4.00
   07:36:16.438.05-Jan-2021 469.17 7249.61 3656.51 3079.56 81.41 4.00
   07:36:16.638.05-Jan-2021 469.37 7249.61 3656.51 3079.56 81.41 4.00
   07:36:16.839.05-Jan-2021 469.57 7249.61 3656.51 3079.56 81.41 4.00
   07:36:17.039.05-Jan-2021 469.77 7249.66 3656.51 3079.56 81.41 4.00
   07:36:17.239.05-Jan-2021 469.97 7249.33 3656.51 3079.56 81.41 4.00
   07:36:17.439.05-Jan-2021 470.17 7249.56 3656.51 3079.56 81.41 4.00
   07:36:17.639.05-Jan-2021 470.37 7249.56 3656.51 3079.56 81.41 4.00
   07:36:17.839.05-Jan-2021 470.57 7250.95 3656.51 3079.56 81.41 4.00
   07:36:18.039.05-Jan-2021 470.77 7251.09 3656.51 3079.56 81.41 4.00
   07:36:18.239.05-Jan-2021 470.97 7251.78 3656.51 3079.56 81.41 4.00
   07:36:18.439.05-Jan-2021 471.17 7251.58 3656.51 3079.56 81.41 4.00
   07:36:18.639.05-Jan-2021 471.37 7251.58 3656.51 3079.56 81.41 4.00
   07:36:18.839.05-Jan-2021 471.58 7251.69 3656.51 3079.56 81.41 4.00
   07:36:19.039.05-Jan-2021 471.78 7252.18 3656.51 3079.56 81.41 4.00
   07:36:19.239.05-Jan-2021 471.98 7251.95 3656.51 3079.56 81.41 4.00
   07:36:19.439.05-Jan-2021 472.18 7252.29 3656.51 3079.56 81.41 4.00
   07:36:19.640.05-Jan-2021 472.38 7252.29 3656.51 3079.56 81.41 4.00
   07:36:19.840.05-Jan-2021 472.58 7252.26 3656.51 3079.56 81.41 4.00
   07:36:20.040.05-Jan-2021 472.78 7251.96 3656.51 3079.56 81.41 4.00
   07:36:20.240.05-Jan-2021 472.98 7252.39 3656.51 3079.56 81.41 4.00
   07:36:20.440.05-Jan-2021 473.18 7252.33 3656.51 3079.56 81.41 4.00
   07:36:20.640.05-Jan-2021 473.38 7252.33 3656.51 3079.56 81.41 4.00
   07:36:20.840.05-Jan-2021 473.58 7252.31 3656.51 3079.56 81.41 4.00
   07:36:21.040.05-Jan-2021 473.78 7252.27 3656.51 3079.56 81.41 4.00
   07:36:21.240.05-Jan-2021 473.98 7252.35 3656.51 3079.56 81.41 4.00
   07:36:21.440.05-Jan-2021 474.18 7252.24 3656.51 3079.56 81.41 4.00
   07:36:21.640.05-Jan-2021 474.38 7252.24 3656.51 3079.56 81.41 4.00
   07:36:21.840.05-Jan-2021 474.58 7252.38 3656.51 3079.56 81.41 4.00
   07:36:22.040.05-Jan-2021 474.78 7252.67 3656.51 3079.56 81.41 4.00
   07:36:22.241.05-Jan-2021 474.98 7252.58 3656.51 3079.56 81.41 4.00
   07:36:22.441.05-Jan-2021 475.18 7252.94 3656.51 3079.56 81.41 4.00
   07:36:22.641.05-Jan-2021 475.38 7252.94 3656.51 3079.56 81.41 4.00
   07:36:22.841.05-Jan-2021 475.58 7252.94 3656.51 3079.56 81.41 4.00
   07:36:23.041.05-Jan-2021 475.78 7252.56 3656.51 3079.56 81.40 4.00
   07:36:23.241.05-Jan-2021 475.98 7252.84 3656.51 3079.56 81.40 4.00
   07:36:23.441.05-Jan-2021 476.18 7252.68 3656.51 3079.56 81.40 4.00
   07:36:23.641.05-Jan-2021 476.38 7252.68 3656.51 3079.56 81.40 4.00
   07:36:23.841.05-Jan-2021 476.58 7252.62 3656.51 3079.56 81.40 4.00
   07:36:24.041.05-Jan-2021 476.78 7252.81 3656.51 3079.56 81.40 4.00
   07:36:24.241.05-Jan-2021 476.98 7252.77 3656.51 3079.56 81.40 4.00
   07:36:24.441.05-Jan-2021 477.18 7252.87 3656.51 3079.56 81.40 4.00
   07:36:24.641.05-Jan-2021 477.38 7252.87 3656.51 3079.56 81.40 4.00
   07:36:24.841.05-Jan-2021 477.58 7252.73 3656.51 3079.56 81.40 4.00
   07:36:25.042.05-Jan-2021 477.78 7253.46 3656.51 3079.56 81.40 4.00
   07:36:25.242.05-Jan-2021 477.98 7253.87 3656.51 3079.56 81.40 4.00
   07:36:25.442.05-Jan-2021 478.18 7254.63 3656.51 3079.56 81.40 4.00
   07:36:25.642.05-Jan-2021 478.38 7254.63 3656.51 3079.56 81.40 4.00
   07:36:25.842.05-Jan-2021 478.58 7255.79 3656.51 3079.56 81.40 4.00
   07:36:26.042.05-Jan-2021 478.78 7255.29 3656.51 3079.56 81.40 4.00
   07:36:26.242.05-Jan-2021 478.98 7255.57 3656.51 3079.56 81.40 4.00
   07:36:26.442.05-Jan-2021 479.18 7255.72 3656.51 3079.56 81.40 4.00
   07:36:26.642.05-Jan-2021 479.38 7255.72 3656.51 3079.56 81.40 4.00
   07:36:26.842.05-Jan-2021 479.58 7257.79 3656.51 3079.56 81.40 4.00
   07:36:27.042.05-Jan-2021 479.78 7257.89 3656.51 3079.56 81.40 4.00
   07:36:27.242.05-Jan-2021 479.98 7258.34 3656.51 3079.56 81.40 4.00
   07:36:27.442.05-Jan-2021 480.18 7258.00 3656.51 3079.56 81.40 4.00
   07:36:27.643.05-Jan-2021 480.38 7258.00 3656.51 3079.56 81.40 4.00
   07:36:27.843.05-Jan-2021 480.58 7258.28 3656.51 3079.56 81.40 4.00
   07:36:28.043.05-Jan-2021 480.78 7259.14 3656.51 3079.56 81.40 4.00
   07:36:28.243.05-Jan-2021 480.98 7259.25 3656.51 3079.56 81.40 4.00
   07:36:28.443.05-Jan-2021 481.18 7259.74 3656.51 3079.56 81.40 4.00
   07:36:28.643.05-Jan-2021 481.38 7259.74 3656.51 3079.56 81.40 4.00
   07:36:28.843.05-Jan-2021 481.58 7259.92 3656.51 3079.56 81.40 4.00
   07:36:29.043.05-Jan-2021 481.78 7260.41 3656.51 3079.56 81.40 4.00
   07:36:29.243.05-Jan-2021 481.98 7260.49 3656.51 3079.56 81.40 4.00
   07:36:29.443.05-Jan-2021 482.18 7261.22 3656.51 3079.56 81.40 4.00
   07:36:29.643.05-Jan-2021 482.38 7260.90 3656.51 3079.56 81.40 4.00
   07:36:29.843.05-Jan-2021 482.58 7261.33 3656.51 3079.56 81.40 4.00
   07:36:30.043.05-Jan-2021 482.78 7261.26 3656.51 3079.56 81.40 4.00
   07:36:30.243.05-Jan-2021 482.98 7262.37 3656.51 3079.56 81.40 4.00
