~Version Information
 VERS.                  2.0:   CWLS log ASCII Standard -VERSION 2.0
 WRAP.                   NO:   One line per depth step
~Well Information Block
#MNEM.UNIT     VALUE/NAME     DESCRIPTION
#---------     -----------    ---------------------------
 STRT.S             08:46:17 05-Jan-21: START TIME 08:46:17 05-Jan-21
 STOP.S             08:54:30 05-Jan-21: STOP TIME  08:54:30 05-Jan-21
 STEP.S                   0.00: STEP TIME
 NULL.                 -999.25: NULL VALUE
 DFWT.                        :  DIST FWL TEXT
 DFST.                        :  DIST FSL TEXT
 DMF .             Drill Floor:  DRILL MEAS FROM
 STIM.      06.00.00 31-Dec-20:  START TIME
 DATE.      05.58.24 07-Jan-21:  END TIME
 SPUD.               24-Dec-20:  SPUD DATE
 NREF.                    Grid:  NORTH REFERENCE
 HPTY.       Minimum Curvature:  HOLE POS TYPE
 DMOD.             Drill Model:  DRILL MOD DESC
 SVYD.                  Survey:  SURVEY DESC
 ILTD.               Lithology:  INTERP LTH DESC
 FTOP.          Formation Tops:  FORM TOPS DESC
 SON .        AZ-XX-0906699554:  JOB NUMBER
 WELL.                    B09z:  WELL NAME
 PDAT.          Mean Sea Level:  PERMANENT DATUM
 FLD .                     ACG:  FIELD NAME
 CTRY.              Azerbaijan:  COUNTRY NAME
 COMP.     BP Exploration (Caspian Sea) Ltd.:  COMPANY
 UWI .                     N/A:  UNIQUE WELL IDENTIFIER
 API .                     N/A:  API NUMBER
 WTYP.                Deviated:  WELL TYPE
 MDS .        Operator Entered:  MAG DATA SOURCE
 BASE.              Azerbaijan:  LOGGING EQUIPMENT BASE LOCATION
 REGN.                   EESSA:  REGION
 PROV.                    Baku:  PROVINCE
 STAT.                    Baku:  STATE NAME
 SRVC.          Turan Drilling:  CONTRACTOR
 MWDS.                    Baku:  MWD SHOP
 JOBN.        AZ-XX-0906699554:  JOB TICKET NUMB
 RIG .           Central Azeri:  RIG NAME
 DOE .                     N/A:  DOE NUMBER
 DCON.         Sperry Drilling:  DIRECTNL CONTR
 UNIT.                     N/A:  LOGGING EQUIPMENT ID
 CNTY.                        :  COUNTY
 LOC .                        :  LOCATION
 LMF .             Drill Floor:  LOG MEASURED FROM
 TVDS.m                  43.29:  TVDSS CORRECTN
 LATI.deg                40.03:  LATITUDE
 LONG.deg                51.35:  LONGITUDE
 WHNS.m                  -2.76:  WELL HEAD N/S
 WHEW.m                  -7.70:  WELL HEAD E/W
 UTMX.m              530128.28:  UTM X
 UTMY.m             4433192.49:  UTM Y
 DFWL.m                   0.00:  DISTANCE FWL
 DFSL.m                   0.00:  DISTANCE FSL
 SDEP.m                3435.01:  START DEPTH
 TDD .m                3814.01:  TOTAL DEPTH (DRILLER)
 VSDR.deg               352.80:  VERT SEC DIRECT
 GVFD.g                   1.00:  GRAVITY FIELD
 MFLD.nT              50303.00:  MAGNETIC FIELD
 MDIP.deg                59.52:  MAGNETIC DIP
 MDEC.deg                 6.47:  MAGNETIC DECL
 GRDC.deg                 0.23:  GRID CORRECTION
 AZTC.deg                 6.24:  AZM TOTAL CORR
 EPD .m                   0.00:  ELEVATION
 EGL .m                   0.00:  GROUND ELEVATION
 WDMS.m                 128.20:  WD ELEV
 APD .m                  43.29:  DEPTH ABOVE PD
 DEP .m                3421.30:  DEPTH
 AGAP.m                  43.60:  AIR GAP
 VSEW.m                  -7.70:  VERT SEC E/W
 VSNS.m                  -2.76:  VERT SEC N/S
 EKB .m                   0.00:  KB ELEVATION
 EDF .m                  43.29:  DF ELEVATION
 TDL .m                 369.00:  TOTAL DEPTH (LOGGER)
 VSC .                       0:  VS TO CLOSURE
 MAGU.                 1850390:  MAGUTM CHECKSUM
~Parameter Information Block
#MNEM.UNIT       Value        Description
#---------     -----------    ---------------------------
 AV  .mps                 2.80:  Ann Velocity 
 AVMX.mps                 4.67:  Max Ann Veloc 
 AZIF.deg               303.89:  Azm, Final 
 BHAT.        Rotary Steerable:  BHA Type 
 BREV.rev            128542.00:  Rev Bit Total 
 BROT.°/30m               1.50:  Build Rotating 
 BS  .in                  8.50:  Bit Size 
 BSZ .in                  8.50:  Bit Size 
 BTPL.psig              715.00:  Bit Press Loss 
 CABU.                      No:  Customer Abuse 
 COMM.                     Œã}:  Run Comments 1 
 TCS .hr                 53.00:  Time Ciculation Ended 
 CV  .mps                 3.85:  Crit Velocity 
 CVMX.mps                 4.75:  Max Crit Veloc 
 DD1 .         Intigam Rahimov:  Direct Drillr 1 
 DDSV.                 iCruise:  DD Service 
 DEFF.%                  98.60:  % Det Eff 
 DLRX.°/30m               2.34:  Dogleg Rot Max 
 DLSO.°/30m               0.00:  Dogleg Oriented 
 DLSX.°/30m               0.00:  Dogleg Str Max 
 DRET.      00.15.00 05-Jan-21:  Drill End Time 
 DRST.      22.00.00 03-Jan-21:  Drill Start Tim 
 DTIM.hr                 17.72:  Time Drilling 
 EDEP.m                3814.01:  End Depth 
 ENG1.         Yevgeniy Ulikov:  Engineer 1 
 ENG2.        Farkhad Khalidov:  Engineer 2 
 ENG3.           Samir Gafarov:  Engineer 3 
 ETIM.      21.00.00 07-Jan-21:  End Time 
 FLOI.gpm               590.00:  Flow In 
 FLON.gpm               580.00:  Flow In Min 
 FLOS.cptm                1.00:  Fluid Loss 
 FLOX.gpm               595.00:  Flow In Max 
 FTRO.     Connectivity, Formation Presure:  FTWD Run Obj 
 HFLO.                      No:  High Flow 
 HPRE.                     Yes:  High Pressure 
 HTEM.                      No:  High Temp 
 HYDO.m                   1.80:  Hydro Offset 
 IFIN.deg                63.76:  Inc, Final 
 IMAX.deg                64.09:  Inc Max 
 IMIN.deg                55.81:  Inc Min 
 IMND.m                3455.62:  Inc Min Depth 
 IMXD.m                3796.03:  Inc Max Depth 
 JARR.                      No:  Jarring 
 LETM.      00.15.00 05-Jan-21:  Log End Time 
 LOST.hr                     0:  Lost Rig Time 
 LSTM.      22.00.00 03-Jan-21:  Log Start Time 
 MDCL.ppm             36000.00:  Mud Chlorides 
 MDES.     Inversion Oil/Synthetic:  Mud Desc 
 DFD .sg                  1.51:  Mud Density 
 MDMN.sg                  1.51:  Dens Mud Min 
 MDMX.sg                  1.51:  Dens Mud Max 
 MOIL.                    55.5:  Run Mud Oil % 
 MOWR.                   70:30:  Run Mud OWR 
 MSND.                     0.1:  Run Mud Sand % 
 MSOL.                   20.77:  Run Mud Solids% 
 DFV .spqt               67.00:  Mud Viscosity 
 MWOD.in                  6.75:  MWD Tool OD 
 MWSI.                      No:  Serv Intrp, MWD 
 OTIM.hr                113.53:  Time Operating 
 PCON.           Look Like New:  Pad Condition 
 PMAX.psia             4830.00:  Press Op, Max 
 PV  .cP                 29.00:  Mud PV 
 RUN .                     300:  Run Number 
 ROPA.m/hr               22.00:  ROP Avg 
 ROPN.m/hr               18.00:  ROP Min 
 ROPX.m/hr               25.00:  ROP Max 
 RPMA.rpm               130.00:  RPM Surface Avg 
 RPMN.rpm                80.00:  RPM Surface Min 
 RPMX.rpm               140.00:  RPM Surface Max 
 RRUN.                    L101:  Rig Run Number 
 RTIM.hr                  9.28:  Time Reaming 
 SAZI.deg               316.55:  Azm, Start 
 SDEP.m                3445.01:  Start Depth 
 SIDD.                      No:  Serv Intrp, DD 
 SINC.deg                55.81:  Inc, Start 
 SPPA.psig             4500.00:  SPP Avg 
 SPPN.psig             4350.00:  SPP Min 
 SPPX.psig             4830.00:  SPP Max 
 STIM.      00.00.00 03-Jan-21:  Start Time 
 SVCS.                 DD, MWD:  Services 
 SVER.                    9.20:  Sperry Version 
 TDAT.m                 369.00:  Tot Depth Attmp 
 TDDF.                      No:  Trip for DD 
 TDLG.m                 369.00:  Tot Depth Loggd 
 TFF .                      No:  Trip for Fail 
 TQAA.f-kp               15.00:  Torque Abs Avg 
 TQAN.f-kp               12.00:  Torque Abs Min 
 TQAX.f-kp               16.00:  Torque Abs Max 
 TRRT.°/30m              -2.10:  Turn Rotating 
 MRT .                    HCIM:  Maximum Recorded Temperature 
 TTMX.degC               92.16:  Max Tool Temp 
 VS01.                90627822:  Virtual Str1 SN 
 VS02.                90550008:  Virtual Str2 SN 
 VS03.                90627816:  Virtual Str3 SN 
 VS04.                90633205:  Virtual Str4 SN 
 VS05.                13033835:  Virtual Str5 SN 
 VS06.                11125125:  Virtual Str6 SN 
 WBMN.klb                 8.00:  WOB Min 
 WITN.            Bruce Cheyne:  Customer Rep 
 WITN.           Faig Mammadov:  Customer Rep 2 
 WOBA.klb                 9.00:  WOB Avg 
 WOBX.klb                12.00:  WOB Max 
 YP  .lhf2               30.00:  Yield Point 
~Curve Information Block
#MNEM.UNIT                 API CODE     Curve Description
#---------               -----------    ---------------------------
 TIME.HHMMSS            00 000 000 000:  GT Time & Date
 GTET.sec               00 000 000 000:  GT Elapsed Test Time
 GTPQH.psia             00 000 000 000:  GT HR Quartz Pressure
 GTDEPTH.m              00 000 000 000:  GT Depth
 GTTVD.m                00 000 000 000:  GT True Vertical Depth
 GTTQ.degC              00 000 000 000:  GT Quartz Temperature
 GTTN.NONE              00 000 000 000:  GT Test Number
#Other Information
#
#WARRANTY: Halliburton will use its best efforts to furnish customers with 
#accurate information and interpretations that are part of, and incident to, the services 
#provided.  However, Halliburton cannot and does not warrant the accuracy 
#or correctness of such information and interpretations.  Under no circumstances should any 
#such information or interpretation be relied upon as the sole basis for any drilling, 
#completion, production, or financial decision or any procedure involving any risk to the 
#safety of any drilling venture, drilling rig or its crew or any other third party.  The 
#Customer has full responsibility for all drilling, completion and production operation.  
#Halliburton makes no representations or warranties, either expressed or 
#implied, including, but not limited to, the implied warranties of merchantability or fitness 
#for a particular purpose, with respect to the services rendered.  In no event will 
#Halliburton be liable for failure to obtain any particular results or for 
#any damages, including, but not limited to, indirect, special or consequential damages, 
#resulting from the use of any information or interpretation provided by Halliburton.
#
~A           TIME            GTET   GTPQH  GTDEPTH  GTTVD  GTTQ  GTTN 
# ...
   08:48:59.058.05-Jan-2021 161.06 4605.46 3625.51 3064.84 80.11 6.00
   08:48:59.258.05-Jan-2021 161.26 4605.46 3625.51 3064.84 80.11 6.00
   08:48:59.458.05-Jan-2021 161.46 4605.51 3625.51 3064.84 80.11 6.00
   08:48:59.658.05-Jan-2021 161.66 4604.86 3625.51 3064.84 80.11 6.00
   08:48:59.858.05-Jan-2021 161.86 4605.62 3625.51 3064.84 80.11 6.00
   08:49:00.058.05-Jan-2021 162.06 4605.73 3625.51 3064.84 80.11 6.00
   08:49:00.258.05-Jan-2021 162.26 4605.73 3625.51 3064.84 80.11 6.00
   08:49:00.458.05-Jan-2021 162.46 4605.49 3625.51 3064.84 80.11 6.00
   08:49:00.658.05-Jan-2021 162.66 4605.53 3625.51 3064.84 80.11 6.00
   08:49:00.858.05-Jan-2021 162.86 4605.45 3625.51 3064.84 80.11 6.00
   08:49:01.058.05-Jan-2021 163.06 4605.51 3625.51 3064.84 80.11 6.00
   08:49:01.258.05-Jan-2021 163.26 4605.51 3625.51 3064.84 80.11 6.00
   08:49:01.458.05-Jan-2021 163.46 4605.44 3625.51 3064.84 80.11 6.00
   08:49:01.659.05-Jan-2021 163.66 4605.48 3625.51 3064.84 80.11 6.00
   08:49:01.859.05-Jan-2021 163.86 4605.52 3625.51 3064.84 80.11 6.00
   08:49:02.059.05-Jan-2021 164.06 4605.55 3625.51 3064.84 80.11 6.00
   08:49:02.259.05-Jan-2021 164.26 4605.55 3625.51 3064.84 80.11 6.00
   08:49:02.459.05-Jan-2021 164.46 4605.57 3625.51 3064.84 80.11 6.00
   08:49:02.659.05-Jan-2021 164.66 4605.56 3625.51 3064.84 80.11 6.00
   08:49:02.859.05-Jan-2021 164.86 4605.20 3625.51 3064.84 80.11 6.00
   08:49:03.059.05-Jan-2021 165.06 4605.65 3625.51 3064.84 80.11 6.00
   08:49:03.259.05-Jan-2021 165.26 4605.65 3625.51 3064.84 80.11 6.00
   08:49:03.459.05-Jan-2021 165.46 4605.63 3625.51 3064.84 80.11 6.00
   08:49:03.659.05-Jan-2021 165.66 4605.47 3625.51 3064.84 80.11 6.00
   08:49:03.859.05-Jan-2021 165.86 4604.75 3625.51 3064.84 80.11 6.00
   08:49:04.059.05-Jan-2021 166.06 4605.83 3625.51 3064.84 80.11 6.00
   08:49:04.259.05-Jan-2021 166.26 4605.83 3625.51 3064.84 80.11 6.00
   08:49:04.460.05-Jan-2021 166.46 4605.69 3625.51 3064.84 80.11 6.00
   08:49:04.660.05-Jan-2021 166.66 4605.60 3625.51 3064.84 80.11 6.00
   08:49:04.860.05-Jan-2021 166.86 4605.54 3625.51 3064.84 80.11 6.00
   08:49:05.060.05-Jan-2021 167.06 4604.97 3625.51 3064.84 80.11 6.00
   08:49:05.260.05-Jan-2021 167.26 4605.63 3625.51 3064.84 80.11 6.00
   08:49:05.460.05-Jan-2021 167.46 4605.69 3625.51 3064.84 80.11 6.00
   08:49:05.660.05-Jan-2021 167.66 4605.77 3625.51 3064.84 80.11 6.00
   08:49:05.860.05-Jan-2021 167.86 4605.14 3625.51 3064.84 80.11 6.00
   08:49:06.060.05-Jan-2021 168.06 4605.36 3625.51 3064.84 80.11 6.00
   08:49:06.260.05-Jan-2021 168.26 4605.36 3625.51 3064.84 80.11 6.00
   08:49:06.460.05-Jan-2021 168.46 4605.75 3625.51 3064.84 80.10 6.00
   08:49:06.660.05-Jan-2021 168.66 4605.76 3625.51 3064.84 80.10 6.00
   08:49:06.860.05-Jan-2021 168.86 4605.59 3625.51 3064.84 80.10 6.00
   08:49:07.061.05-Jan-2021 169.06 4605.47 3625.51 3064.84 80.10 6.00
   08:49:07.261.05-Jan-2021 169.26 4605.47 3625.51 3064.84 80.10 6.00
   08:49:07.461.05-Jan-2021 169.46 4605.53 3625.51 3064.84 80.10 6.00
   08:49:07.661.05-Jan-2021 169.66 4605.45 3625.51 3064.84 80.10 6.00
   08:49:07.861.05-Jan-2021 169.86 4605.51 3625.51 3064.84 80.10 6.00
   08:49:08.061.05-Jan-2021 170.06 4605.50 3625.51 3064.84 80.10 6.00
   08:49:08.261.05-Jan-2021 170.26 4605.50 3625.51 3064.84 80.10 6.00
   08:49:08.461.05-Jan-2021 170.46 4605.49 3625.51 3064.84 80.10 6.00
   08:49:08.661.05-Jan-2021 170.66 4604.65 3625.51 3064.84 80.10 6.00
   08:49:08.861.05-Jan-2021 170.86 4605.69 3625.51 3064.84 80.10 6.00
   08:49:09.061.05-Jan-2021 171.06 4605.65 3625.51 3064.84 80.10 6.00
   08:49:09.261.05-Jan-2021 171.26 4605.68 3625.51 3064.84 80.10 6.00
   08:49:09.461.05-Jan-2021 171.46 4605.60 3625.51 3064.84 80.10 6.00
   08:49:09.661.05-Jan-2021 171.66 4605.51 3625.51 3064.84 80.10 6.00
   08:49:09.862.05-Jan-2021 171.86 4605.49 3625.51 3064.84 80.10 6.00
   08:49:10.062.05-Jan-2021 172.06 4605.47 3625.51 3064.84 80.10 6.00
   08:49:10.262.05-Jan-2021 172.26 4605.47 3625.51 3064.84 80.10 6.00
   08:49:10.462.05-Jan-2021 172.46 4340.44 3625.51 3064.84 80.10 6.00
   08:49:10.662.05-Jan-2021 172.66 3951.23 3625.51 3064.84 80.10 6.00
   08:49:10.862.05-Jan-2021 172.86 3674.37 3625.51 3064.84 80.10 6.00
   08:49:11.062.05-Jan-2021 173.06 3472.78 3625.51 3064.84 80.10 6.00
   08:49:11.262.05-Jan-2021 173.26 3472.78 3625.51 3064.84 80.10 6.00
   08:49:11.462.05-Jan-2021 173.46 3313.92 3625.51 3064.84 80.10 6.00
   08:49:11.662.05-Jan-2021 173.66 3198.09 3625.51 3064.84 80.10 6.00
   08:49:11.862.05-Jan-2021 173.86 3117.52 3625.51 3064.84 80.10 6.00
   08:49:12.062.05-Jan-2021 174.06 3055.87 3625.51 3064.84 80.10 6.00
   08:49:12.262.05-Jan-2021 174.26 3055.87 3625.51 3064.84 80.10 6.00
   08:49:12.463.05-Jan-2021 174.46 3038.14 3625.51 3064.84 80.10 6.00
   08:49:12.663.05-Jan-2021 174.66 3022.82 3625.51 3064.84 80.09 6.00
   08:49:12.863.05-Jan-2021 174.86 2974.53 3625.51 3064.84 80.09 6.00
   08:49:13.063.05-Jan-2021 175.06 3002.37 3625.51 3064.84 80.09 6.00
   08:49:13.263.05-Jan-2021 175.27 2925.07 3625.51 3064.84 80.09 6.00
   08:49:13.463.05-Jan-2021 175.47 2915.16 3625.51 3064.84 80.09 6.00
   08:49:13.663.05-Jan-2021 175.67 2875.14 3625.51 3064.84 80.09 6.00
   08:49:13.863.05-Jan-2021 175.87 2854.70 3625.51 3064.84 80.09 6.00
   08:49:14.063.05-Jan-2021 176.07 2856.60 3625.51 3064.84 80.08 6.00
   08:49:14.263.05-Jan-2021 176.27 2856.60 3625.51 3064.84 80.08 6.00
   08:49:14.463.05-Jan-2021 176.47 2876.08 3625.51 3064.84 80.08 6.00
   08:49:14.663.05-Jan-2021 176.67 2888.30 3625.51 3064.84 80.08 6.00
   08:49:14.863.05-Jan-2021 176.87 2885.89 3625.51 3064.84 80.08 6.00
   08:49:15.063.05-Jan-2021 177.07 2889.18 3625.51 3064.84 80.08 6.00
   08:49:15.264.05-Jan-2021 177.27 2889.18 3625.51 3064.84 80.08 6.00
   08:49:15.464.05-Jan-2021 177.47 2801.94 3625.51 3064.84 80.07 6.00
   08:49:15.664.05-Jan-2021 177.67 2806.78 3625.51 3064.84 80.07 6.00
   08:49:15.864.05-Jan-2021 177.87 2793.74 3625.51 3064.84 80.07 6.00
   08:49:16.064.05-Jan-2021 178.07 2791.17 3625.51 3064.84 80.07 6.00
   08:49:16.264.05-Jan-2021 178.27 2791.17 3625.51 3064.84 80.07 6.00
   08:49:16.464.05-Jan-2021 178.47 2780.83 3625.51 3064.84 80.07 6.00
   08:49:16.664.05-Jan-2021 178.67 2807.03 3625.51 3064.84 80.06 6.00
   08:49:16.864.05-Jan-2021 178.87 2791.35 3625.51 3064.84 80.06 6.00
   08:49:17.064.05-Jan-2021 179.07 2795.75 3625.51 3064.84 80.06 6.00
   08:49:17.264.05-Jan-2021 179.27 2796.04 3625.51 3064.84 80.06 6.00
   08:49:17.464.05-Jan-2021 179.47 2776.52 3625.51 3064.84 80.06 6.00
   08:49:17.664.05-Jan-2021 179.67 2817.18 3625.51 3064.84 80.06 6.00
   08:49:17.865.05-Jan-2021 179.87 2820.23 3625.51 3064.84 80.06 6.00
   08:49:18.065.05-Jan-2021 180.07 2784.74 3625.51 3064.84 80.05 6.00
   08:49:18.265.05-Jan-2021 180.27 2784.74 3625.51 3064.84 80.05 6.00
   08:49:18.465.05-Jan-2021 180.47 2819.03 3625.51 3064.84 80.05 6.00
   08:49:18.665.05-Jan-2021 180.67 2857.88 3625.51 3064.84 80.05 6.00
   08:49:18.865.05-Jan-2021 180.87 2875.44 3625.51 3064.84 80.05 6.00
   08:49:19.065.05-Jan-2021 181.07 2963.39 3625.51 3064.84 80.05 6.00
   08:49:19.265.05-Jan-2021 181.27 2963.39 3625.51 3064.84 80.05 6.00
   08:49:19.465.05-Jan-2021 181.47 2951.37 3625.51 3064.84 80.05 6.00
   08:49:19.665.05-Jan-2021 181.67 2943.21 3625.51 3064.84 80.05 6.00
   08:49:19.865.05-Jan-2021 181.87 2895.58 3625.51 3064.84 80.05 6.00
   08:49:20.065.05-Jan-2021 182.07 2907.91 3625.51 3064.84 80.04 6.00
   08:49:20.265.05-Jan-2021 182.27 2907.91 3625.51 3064.84 80.04 6.00
   08:49:20.465.05-Jan-2021 182.47 2861.18 3625.51 3064.84 80.04 6.00
   08:49:20.666.05-Jan-2021 182.67 2935.99 3625.51 3064.84 80.04 6.00
   08:49:20.866.05-Jan-2021 182.87 3218.85 3625.51 3064.84 80.04 6.00
   08:49:21.066.05-Jan-2021 183.07 3489.38 3625.51 3064.84 80.04 6.00
   08:49:21.266.05-Jan-2021 183.27 3489.38 3625.51 3064.84 80.04 6.00
   08:49:21.466.05-Jan-2021 183.47 3885.67 3625.51 3064.84 80.04 6.00
   08:49:21.666.05-Jan-2021 183.67 4026.59 3625.51 3064.84 80.04 6.00
   08:49:21.866.05-Jan-2021 183.87 4139.05 3625.51 3064.84 80.04 6.00
