~Version Information
 VERS.                  2.0:   CWLS log ASCII Standard -VERSION 2.0
 WRAP.                   NO:   One line per depth step
~Well Information Block
#MNEM.UNIT     VALUE/NAME     DESCRIPTION
#---------     -----------    ---------------------------
 STRT.S             07:28:27 05-Jan-21: START TIME 07:28:27 05-Jan-21
 STOP.S             07:36:40 05-Jan-21: STOP TIME  07:36:40 05-Jan-21
 STEP.S                   0.00: STEP TIME
 NULL.                 -999.25: NULL VALUE
 DFWT.                        :  DIST FWL TEXT
 DFST.                        :  DIST FSL TEXT
 DMF .             Drill Floor:  DRILL MEAS FROM
 STIM.      06.00.00 31-Dec-20:  START TIME
 DATE.      05.58.24 07-Jan-21:  END TIME
 SPUD.               24-Dec-20:  SPUD DATE
 NREF.                    Grid:  NORTH REFERENCE
 HPTY.       Minimum Curvature:  HOLE POS TYPE
 DMOD.             Drill Model:  DRILL MOD DESC
 SVYD.                  Survey:  SURVEY DESC
 ILTD.               Lithology:  INTERP LTH DESC
 FTOP.          Formation Tops:  FORM TOPS DESC
 SON .        AZ-XX-0906699554:  JOB NUMBER
 WELL.                    B09z:  WELL NAME
 PDAT.          Mean Sea Level:  PERMANENT DATUM
 FLD .                     ACG:  FIELD NAME
 CTRY.              Azerbaijan:  COUNTRY NAME
 COMP.     BP Exploration (Caspian Sea) Ltd.:  COMPANY
 UWI .                     N/A:  UNIQUE WELL IDENTIFIER
 API .                     N/A:  API NUMBER
 WTYP.                Deviated:  WELL TYPE
 MDS .        Operator Entered:  MAG DATA SOURCE
 BASE.              Azerbaijan:  LOGGING EQUIPMENT BASE LOCATION
 REGN.                   EESSA:  REGION
 PROV.                    Baku:  PROVINCE
 STAT.                    Baku:  STATE NAME
 SRVC.          Turan Drilling:  CONTRACTOR
 MWDS.                    Baku:  MWD SHOP
 JOBN.        AZ-XX-0906699554:  JOB TICKET NUMB
 RIG .           Central Azeri:  RIG NAME
 DOE .                     N/A:  DOE NUMBER
 DCON.         Sperry Drilling:  DIRECTNL CONTR
 UNIT.                     N/A:  LOGGING EQUIPMENT ID
 CNTY.                        :  COUNTY
 LOC .                        :  LOCATION
 LMF .             Drill Floor:  LOG MEASURED FROM
 TVDS.m                  43.29:  TVDSS CORRECTN
 LATI.deg                40.03:  LATITUDE
 LONG.deg                51.35:  LONGITUDE
 WHNS.m                  -2.76:  WELL HEAD N/S
 WHEW.m                  -7.70:  WELL HEAD E/W
 UTMX.m              530128.28:  UTM X
 UTMY.m             4433192.49:  UTM Y
 DFWL.m                   0.00:  DISTANCE FWL
 DFSL.m                   0.00:  DISTANCE FSL
 SDEP.m                3435.01:  START DEPTH
 TDD .m                3814.01:  TOTAL DEPTH (DRILLER)
 VSDR.deg               352.80:  VERT SEC DIRECT
 GVFD.g                   1.00:  GRAVITY FIELD
 MFLD.nT              50303.00:  MAGNETIC FIELD
 MDIP.deg                59.52:  MAGNETIC DIP
 MDEC.deg                 6.47:  MAGNETIC DECL
 GRDC.deg                 0.23:  GRID CORRECTION
 AZTC.deg                 6.24:  AZM TOTAL CORR
 EPD .m                   0.00:  ELEVATION
 EGL .m                   0.00:  GROUND ELEVATION
 WDMS.m                 128.20:  WD ELEV
 APD .m                  43.29:  DEPTH ABOVE PD
 DEP .m                3421.30:  DEPTH
 AGAP.m                  43.60:  AIR GAP
 VSEW.m                  -7.70:  VERT SEC E/W
 VSNS.m                  -2.76:  VERT SEC N/S
 EKB .m                   0.00:  KB ELEVATION
 EDF .m                  43.29:  DF ELEVATION
 TDL .m                 369.00:  TOTAL DEPTH (LOGGER)
 VSC .                       0:  VS TO CLOSURE
 MAGU.                 1850390:  MAGUTM CHECKSUM
~Parameter Information Block
#MNEM.UNIT       Value        Description
#---------     -----------    ---------------------------
 AV  .mps                 2.80:  Ann Velocity 
 AVMX.mps                 4.67:  Max Ann Veloc 
 AZIF.deg               303.89:  Azm, Final 
 BHAT.        Rotary Steerable:  BHA Type 
 BREV.rev            128542.00:  Rev Bit Total 
 BROT.°/30m               1.50:  Build Rotating 
 BS  .in                  8.50:  Bit Size 
 BSZ .in                  8.50:  Bit Size 
 BTPL.psig              715.00:  Bit Press Loss 
 CABU.                      No:  Customer Abuse 
 COMM.                     ÜNb:  Run Comments 1 
 TCS .hr                 53.00:  Time Ciculation Ended 
 CV  .mps                 3.85:  Crit Velocity 
 CVMX.mps                 4.75:  Max Crit Veloc 
 DD1 .         Intigam Rahimov:  Direct Drillr 1 
 DDSV.                 iCruise:  DD Service 
 DEFF.%                  98.60:  % Det Eff 
 DLRX.°/30m               2.34:  Dogleg Rot Max 
 DLSO.°/30m               0.00:  Dogleg Oriented 
 DLSX.°/30m               0.00:  Dogleg Str Max 
 DRET.      00.15.00 05-Jan-21:  Drill End Time 
 DRST.      22.00.00 03-Jan-21:  Drill Start Tim 
 DTIM.hr                 17.72:  Time Drilling 
 EDEP.m                3814.01:  End Depth 
 ENG1.         Yevgeniy Ulikov:  Engineer 1 
 ENG2.        Farkhad Khalidov:  Engineer 2 
 ENG3.           Samir Gafarov:  Engineer 3 
 ETIM.      21.00.00 07-Jan-21:  End Time 
 FLOI.gpm               590.00:  Flow In 
 FLON.gpm               580.00:  Flow In Min 
 FLOS.cptm                1.00:  Fluid Loss 
 FLOX.gpm               595.00:  Flow In Max 
 FTRO.     Connectivity, Formation Presure:  FTWD Run Obj 
 HFLO.                      No:  High Flow 
 HPRE.                     Yes:  High Pressure 
 HTEM.                      No:  High Temp 
 HYDO.m                   1.80:  Hydro Offset 
 IFIN.deg                63.76:  Inc, Final 
 IMAX.deg                64.09:  Inc Max 
 IMIN.deg                55.81:  Inc Min 
 IMND.m                3455.62:  Inc Min Depth 
 IMXD.m                3796.03:  Inc Max Depth 
 JARR.                      No:  Jarring 
 LETM.      00.15.00 05-Jan-21:  Log End Time 
 LOST.hr                     0:  Lost Rig Time 
 LSTM.      22.00.00 03-Jan-21:  Log Start Time 
 MDCL.ppm             36000.00:  Mud Chlorides 
 MDES.     Inversion Oil/Synthetic:  Mud Desc 
 DFD .sg                  1.51:  Mud Density 
 MDMN.sg                  1.51:  Dens Mud Min 
 MDMX.sg                  1.51:  Dens Mud Max 
 MOIL.                    55.5:  Run Mud Oil % 
 MOWR.                   70:30:  Run Mud OWR 
 MSND.                     0.1:  Run Mud Sand % 
 MSOL.                   20.77:  Run Mud Solids% 
 DFV .spqt               67.00:  Mud Viscosity 
 MWOD.in                  6.75:  MWD Tool OD 
 MWSI.                      No:  Serv Intrp, MWD 
 OTIM.hr                113.53:  Time Operating 
 PCON.           Look Like New:  Pad Condition 
 PMAX.psia             4830.00:  Press Op, Max 
 PV  .cP                 29.00:  Mud PV 
 RUN .                     300:  Run Number 
 ROPA.m/hr               22.00:  ROP Avg 
 ROPN.m/hr               18.00:  ROP Min 
 ROPX.m/hr               25.00:  ROP Max 
 RPMA.rpm               130.00:  RPM Surface Avg 
 RPMN.rpm                80.00:  RPM Surface Min 
 RPMX.rpm               140.00:  RPM Surface Max 
 RRUN.                    L101:  Rig Run Number 
 RTIM.hr                  9.28:  Time Reaming 
 SAZI.deg               316.55:  Azm, Start 
 SDEP.m                3445.01:  Start Depth 
 SIDD.                      No:  Serv Intrp, DD 
 SINC.deg                55.81:  Inc, Start 
 SPPA.psig             4500.00:  SPP Avg 
 SPPN.psig             4350.00:  SPP Min 
 SPPX.psig             4830.00:  SPP Max 
 STIM.      00.00.00 03-Jan-21:  Start Time 
 SVCS.                 DD, MWD:  Services 
 SVER.                    9.20:  Sperry Version 
 TDAT.m                 369.00:  Tot Depth Attmp 
 TDDF.                      No:  Trip for DD 
 TDLG.m                 369.00:  Tot Depth Loggd 
 TFF .                      No:  Trip for Fail 
 TQAA.f-kp               15.00:  Torque Abs Avg 
 TQAN.f-kp               12.00:  Torque Abs Min 
 TQAX.f-kp               16.00:  Torque Abs Max 
 TRRT.°/30m              -2.10:  Turn Rotating 
 MRT .                    HCIM:  Maximum Recorded Temperature 
 TTMX.degC               92.16:  Max Tool Temp 
 VS01.                90627822:  Virtual Str1 SN 
 VS02.                90550008:  Virtual Str2 SN 
 VS03.                90627816:  Virtual Str3 SN 
 VS04.                90633205:  Virtual Str4 SN 
 VS05.                13033835:  Virtual Str5 SN 
 VS06.                11125125:  Virtual Str6 SN 
 WBMN.klb                 8.00:  WOB Min 
 WITN.            Bruce Cheyne:  Customer Rep 
 WITN.           Faig Mammadov:  Customer Rep 2 
 WOBA.klb                 9.00:  WOB Avg 
 WOBX.klb                12.00:  WOB Max 
 YP  .lhf2               30.00:  Yield Point 
~Curve Information Block
#MNEM.UNIT                 API CODE     Curve Description
#---------               -----------    ---------------------------
 TIME.HHMMSS            00 000 000 000:  GT Time & Date
 GTET.sec               00 000 000 000:  GT Elapsed Test Time
 GTPQH.psia             00 000 000 000:  GT HR Quartz Pressure
 GTDEPTH.m              00 000 000 000:  GT Depth
 GTTVD.m                00 000 000 000:  GT True Vertical Depth
 GTTQ.degC              00 000 000 000:  GT Quartz Temperature
 GTTN.NONE              00 000 000 000:  GT Test Number
#Other Information
#
#WARRANTY: Halliburton will use its best efforts to furnish customers with 
#accurate information and interpretations that are part of, and incident to, the services 
#provided.  However, Halliburton cannot and does not warrant the accuracy 
#or correctness of such information and interpretations.  Under no circumstances should any 
#such information or interpretation be relied upon as the sole basis for any drilling, 
#completion, production, or financial decision or any procedure involving any risk to the 
#safety of any drilling venture, drilling rig or its crew or any other third party.  The 
#Customer has full responsibility for all drilling, completion and production operation.  
#Halliburton makes no representations or warranties, either expressed or 
#implied, including, but not limited to, the implied warranties of merchantability or fitness 
#for a particular purpose, with respect to the services rendered.  In no event will 
#Halliburton be liable for failure to obtain any particular results or for 
#any damages, including, but not limited to, indirect, special or consequential damages, 
#resulting from the use of any information or interpretation provided by Halliburton.
#
~A           TIME            GTET   GTPQH  GTDEPTH  GTTVD  GTTQ  GTTN 
# ...
   07:29:59.298.05-Jan-2021  92.03 4413.74 3656.51 3079.56 81.02 4.00
   07:29:59.498.05-Jan-2021  92.23 4413.74 3656.51 3079.56 81.02 4.00
   07:29:59.699.05-Jan-2021  92.43 4413.75 3656.51 3079.56 81.02 4.00
   07:29:59.899.05-Jan-2021  92.63 4413.72 3656.51 3079.56 81.02 4.00
   07:30:00.099.05-Jan-2021  92.83 4413.60 3656.51 3079.56 81.02 4.00
   07:30:00.299.05-Jan-2021  93.03 4413.97 3656.51 3079.56 81.02 4.00
   07:30:00.499.05-Jan-2021  93.23 4413.97 3656.51 3079.56 81.02 4.00
   07:30:00.699.05-Jan-2021  93.43 4413.70 3656.51 3079.56 81.02 4.00
   07:30:00.899.05-Jan-2021  93.63 4413.82 3656.51 3079.56 81.02 4.00
   07:30:01.099.05-Jan-2021  93.83 4413.71 3656.51 3079.56 81.02 4.00
   07:30:01.299.05-Jan-2021  94.03 4413.88 3656.51 3079.56 81.02 4.00
   07:30:01.499.05-Jan-2021  94.23 4413.88 3656.51 3079.56 81.02 4.00
   07:30:01.699.05-Jan-2021  94.44 4414.01 3656.51 3079.56 81.02 4.00
   07:30:01.899.05-Jan-2021  94.64 4413.74 3656.51 3079.56 81.02 4.00
   07:30:02.099.05-Jan-2021  94.84 4413.77 3656.51 3079.56 81.02 4.00
   07:30:02.300.05-Jan-2021  95.04 4413.68 3656.51 3079.56 81.02 4.00
   07:30:02.500.05-Jan-2021  95.24 4413.68 3656.51 3079.56 81.02 4.00
   07:30:02.700.05-Jan-2021  95.44 4413.72 3656.51 3079.56 81.02 4.00
   07:30:02.900.05-Jan-2021  95.64 4413.80 3656.51 3079.56 81.02 4.00
   07:30:03.100.05-Jan-2021  95.84 4413.93 3656.51 3079.56 81.02 4.00
   07:30:03.300.05-Jan-2021  96.04 4413.78 3656.51 3079.56 81.02 4.00
   07:30:03.500.05-Jan-2021  96.24 4413.78 3656.51 3079.56 81.02 4.00
   07:30:03.700.05-Jan-2021  96.44 4413.91 3656.51 3079.56 81.02 4.00
   07:30:03.900.05-Jan-2021  96.64 4413.74 3656.51 3079.56 81.02 4.00
   07:30:04.100.05-Jan-2021  96.84 4413.89 3656.51 3079.56 81.03 4.00
   07:30:04.300.05-Jan-2021  97.04 4413.65 3656.51 3079.56 81.03 4.00
   07:30:04.500.05-Jan-2021  97.24 4413.65 3656.51 3079.56 81.03 4.00
   07:30:04.700.05-Jan-2021  97.44 4413.78 3656.51 3079.56 81.03 4.00
   07:30:04.900.05-Jan-2021  97.64 4413.78 3656.51 3079.56 81.03 4.00
   07:30:05.101.05-Jan-2021  97.84 4413.79 3656.51 3079.56 81.03 4.00
   07:30:05.301.05-Jan-2021  98.04 4413.83 3656.51 3079.56 81.03 4.00
   07:30:05.501.05-Jan-2021  98.24 4413.83 3656.51 3079.56 81.03 4.00
   07:30:05.701.05-Jan-2021  98.44 4413.78 3656.51 3079.56 81.03 4.00
   07:30:05.901.05-Jan-2021  98.64 4413.86 3656.51 3079.56 81.03 4.00
   07:30:06.101.05-Jan-2021  98.84 4413.85 3656.51 3079.56 81.03 4.00
   07:30:06.301.05-Jan-2021  99.04 4413.89 3656.51 3079.56 81.03 4.00
   07:30:06.501.05-Jan-2021  99.24 4413.89 3656.51 3079.56 81.03 4.00
   07:30:06.701.05-Jan-2021  99.44 4413.90 3656.51 3079.56 81.03 4.00
   07:30:06.901.05-Jan-2021  99.64 4413.71 3656.51 3079.56 81.03 4.00
   07:30:07.101.05-Jan-2021  99.84 4413.79 3656.51 3079.56 81.03 4.00
   07:30:07.301.05-Jan-2021 100.04 4413.96 3656.51 3079.56 81.03 4.00
   07:30:07.501.05-Jan-2021 100.24 4413.96 3656.51 3079.56 81.03 4.00
   07:30:07.702.05-Jan-2021 100.44 4413.80 3656.51 3079.56 81.03 4.00
   07:30:07.902.05-Jan-2021 100.64 4413.88 3656.51 3079.56 81.03 4.00
   07:30:08.102.05-Jan-2021 100.84 4413.85 3656.51 3079.56 81.03 4.00
   07:30:08.302.05-Jan-2021 101.04 4413.78 3656.51 3079.56 81.03 4.00
   07:30:08.502.05-Jan-2021 101.24 4413.78 3656.51 3079.56 81.03 4.00
   07:30:08.702.05-Jan-2021 101.44 4413.83 3656.51 3079.56 81.03 4.00
   07:30:08.902.05-Jan-2021 101.64 4413.77 3656.51 3079.56 81.03 4.00
   07:30:09.102.05-Jan-2021 101.84 4413.87 3656.51 3079.56 81.03 4.00
   07:30:09.302.05-Jan-2021 102.04 4413.69 3656.51 3079.56 81.03 4.00
   07:30:09.502.05-Jan-2021 102.24 4413.69 3656.51 3079.56 81.03 4.00
   07:30:09.702.05-Jan-2021 102.44 4413.73 3656.51 3079.56 81.03 4.00
   07:30:09.902.05-Jan-2021 102.64 4413.89 3656.51 3079.56 81.03 4.00
   07:30:10.102.05-Jan-2021 102.84 4413.72 3656.51 3079.56 81.03 4.00
   07:30:10.302.05-Jan-2021 103.04 4413.97 3656.51 3079.56 81.03 4.00
   07:30:10.503.05-Jan-2021 103.24 4413.97 3656.51 3079.56 81.03 4.00
   07:30:10.703.05-Jan-2021 103.44 4413.97 3656.51 3079.56 81.03 4.00
   07:30:10.903.05-Jan-2021 103.64 4413.77 3656.51 3079.56 81.03 4.00
   07:30:11.103.05-Jan-2021 103.84 4413.87 3656.51 3079.56 81.03 4.00
   07:30:11.303.05-Jan-2021 104.04 4413.87 3656.51 3079.56 81.04 4.00
   07:30:11.503.05-Jan-2021 104.24 4413.87 3656.51 3079.56 81.04 4.00
   07:30:11.703.05-Jan-2021 104.44 4413.80 3656.51 3079.56 81.04 4.00
   07:30:11.903.05-Jan-2021 104.64 4413.89 3656.51 3079.56 81.04 4.00
   07:30:12.103.05-Jan-2021 104.84 4413.90 3656.51 3079.56 81.04 4.00
   07:30:12.303.05-Jan-2021 105.04 4413.78 3656.51 3079.56 81.04 4.00
   07:30:12.503.05-Jan-2021 105.24 4413.78 3656.51 3079.56 81.04 4.00
   07:30:12.703.05-Jan-2021 105.44 4413.82 3656.51 3079.56 81.04 4.00
   07:30:12.903.05-Jan-2021 105.64 4413.88 3656.51 3079.56 81.04 4.00
   07:30:13.104.05-Jan-2021 105.84 4413.78 3656.51 3079.56 81.04 4.00
   07:30:13.304.05-Jan-2021 106.04 4413.94 3656.51 3079.56 81.04 4.00
   07:30:13.504.05-Jan-2021 106.24 4413.94 3656.51 3079.56 81.04 4.00
   07:30:13.704.05-Jan-2021 106.44 4414.00 3656.51 3079.56 81.04 4.00
   07:30:13.904.05-Jan-2021 106.64 4413.78 3656.51 3079.56 81.04 4.00
   07:30:14.104.05-Jan-2021 106.84 4413.91 3656.51 3079.56 81.04 4.00
   07:30:14.304.05-Jan-2021 107.04 4413.90 3656.51 3079.56 81.04 4.00
   07:30:14.504.05-Jan-2021 107.24 4413.90 3656.51 3079.56 81.04 4.00
   07:30:14.704.05-Jan-2021 107.44 4413.86 3656.51 3079.56 81.04 4.00
   07:30:14.904.05-Jan-2021 107.64 4413.96 3656.51 3079.56 81.04 4.00
   07:30:15.104.05-Jan-2021 107.84 4413.81 3656.51 3079.56 81.04 4.00
   07:30:15.304.05-Jan-2021 108.04 4413.90 3656.51 3079.56 81.04 4.00
   07:30:15.504.05-Jan-2021 108.24 4413.90 3656.51 3079.56 81.04 4.00
   07:30:15.704.05-Jan-2021 108.44 4414.04 3656.51 3079.56 81.04 4.00
   07:30:15.905.05-Jan-2021 108.64 4413.81 3656.51 3079.56 81.04 4.00
   07:30:16.105.05-Jan-2021 108.84 4413.86 3656.51 3079.56 81.04 4.00
   07:30:16.305.05-Jan-2021 109.04 4413.36 3656.51 3079.56 81.04 4.00
   07:30:16.505.05-Jan-2021 109.24 4413.36 3656.51 3079.56 81.04 4.00
   07:30:16.705.05-Jan-2021 109.44 4413.80 3656.51 3079.56 81.04 4.00
   07:30:16.905.05-Jan-2021 109.64 4413.94 3656.51 3079.56 81.04 4.00
   07:30:17.105.05-Jan-2021 109.84 4413.40 3656.51 3079.56 81.04 4.00
   07:30:17.305.05-Jan-2021 110.04 4414.34 3656.51 3079.56 81.04 4.00
   07:30:17.505.05-Jan-2021 110.24 4414.34 3656.51 3079.56 81.04 4.00
   07:30:17.705.05-Jan-2021 110.44 4413.98 3656.51 3079.56 81.04 4.00
   07:30:17.905.05-Jan-2021 110.64 4413.78 3656.51 3079.56 81.04 4.00
   07:30:18.105.05-Jan-2021 110.84 4414.01 3656.51 3079.56 81.04 4.00
   07:30:18.305.05-Jan-2021 111.04 4413.89 3656.51 3079.56 81.04 4.00
   07:30:18.506.05-Jan-2021 111.24 4413.89 3656.51 3079.56 81.04 4.00
   07:30:18.706.05-Jan-2021 111.44 4413.84 3656.51 3079.56 81.05 4.00
   07:30:18.906.05-Jan-2021 111.64 4413.84 3656.51 3079.56 81.05 4.00
   07:30:19.106.05-Jan-2021 111.84 4413.99 3656.51 3079.56 81.05 4.00
   07:30:19.306.05-Jan-2021 112.04 4413.87 3656.51 3079.56 81.05 4.00
   07:30:19.506.05-Jan-2021 112.24 4413.87 3656.51 3079.56 81.05 4.00
   07:30:19.706.05-Jan-2021 112.44 4413.90 3656.51 3079.56 81.05 4.00
   07:30:19.906.05-Jan-2021 112.64 4413.82 3656.51 3079.56 81.05 4.00
   07:30:20.106.05-Jan-2021 112.84 4413.94 3656.51 3079.56 81.05 4.00
   07:30:20.306.05-Jan-2021 113.04 4413.80 3656.51 3079.56 81.05 4.00
   07:30:20.506.05-Jan-2021 113.24 4413.80 3656.51 3079.56 81.05 4.00
   07:30:20.706.05-Jan-2021 113.44 4413.35 3656.51 3079.56 81.05 4.00
   07:30:20.906.05-Jan-2021 113.64 4414.45 3656.51 3079.56 81.05 4.00
   07:30:21.106.05-Jan-2021 113.84 4413.72 3656.51 3079.56 81.05 4.00
   07:30:21.307.05-Jan-2021 114.04 4414.11 3656.51 3079.56 81.05 4.00
   07:30:21.507.05-Jan-2021 114.24 4414.11 3656.51 3079.56 81.05 4.00
   07:30:21.707.05-Jan-2021 114.44 4413.74 3656.51 3079.56 81.05 4.00
   07:30:21.907.05-Jan-2021 114.64 4413.97 3656.51 3079.56 81.05 4.00
   07:30:22.107.05-Jan-2021 114.84 4413.83 3656.51 3079.56 81.05 4.00
