~Version Information
 VERS.                  2.0:   CWLS log ASCII Standard -VERSION 2.0
 WRAP.                   NO:   One line per depth step
~Well Information Block
#MNEM.UNIT     VALUE/NAME     DESCRIPTION
#---------     -----------    ---------------------------
 STRT.S             08:18:37 05-Jan-21: START TIME 08:18:37 05-Jan-21
 STOP.S             08:26:49 05-Jan-21: STOP TIME  08:26:49 05-Jan-21
 STEP.S                   0.00: STEP TIME
 NULL.                 -999.25: NULL VALUE
 DFWT.                        :  DIST FWL TEXT
 DFST.                        :  DIST FSL TEXT
 DMF .             Drill Floor:  DRILL MEAS FROM
 STIM.      06.00.00 31-Dec-20:  START TIME
 DATE.      05.58.24 07-Jan-21:  END TIME
 SPUD.               24-Dec-20:  SPUD DATE
 NREF.                    Grid:  NORTH REFERENCE
 HPTY.       Minimum Curvature:  HOLE POS TYPE
 DMOD.             Drill Model:  DRILL MOD DESC
 SVYD.                  Survey:  SURVEY DESC
 ILTD.               Lithology:  INTERP LTH DESC
 FTOP.          Formation Tops:  FORM TOPS DESC
 SON .        AZ-XX-0906699554:  JOB NUMBER
 WELL.                    B09z:  WELL NAME
 PDAT.          Mean Sea Level:  PERMANENT DATUM
 FLD .                     ACG:  FIELD NAME
 CTRY.              Azerbaijan:  COUNTRY NAME
 COMP.     BP Exploration (Caspian Sea) Ltd.:  COMPANY
 UWI .                     N/A:  UNIQUE WELL IDENTIFIER
 API .                     N/A:  API NUMBER
 WTYP.                Deviated:  WELL TYPE
 MDS .        Operator Entered:  MAG DATA SOURCE
 BASE.              Azerbaijan:  LOGGING EQUIPMENT BASE LOCATION
 REGN.                   EESSA:  REGION
 PROV.                    Baku:  PROVINCE
 STAT.                    Baku:  STATE NAME
 SRVC.          Turan Drilling:  CONTRACTOR
 MWDS.                    Baku:  MWD SHOP
 JOBN.        AZ-XX-0906699554:  JOB TICKET NUMB
 RIG .           Central Azeri:  RIG NAME
 DOE .                     N/A:  DOE NUMBER
 DCON.         Sperry Drilling:  DIRECTNL CONTR
 UNIT.                     N/A:  LOGGING EQUIPMENT ID
 CNTY.                        :  COUNTY
 LOC .                        :  LOCATION
 LMF .             Drill Floor:  LOG MEASURED FROM
 TVDS.m                  43.29:  TVDSS CORRECTN
 LATI.deg                40.03:  LATITUDE
 LONG.deg                51.35:  LONGITUDE
 WHNS.m                  -2.76:  WELL HEAD N/S
 WHEW.m                  -7.70:  WELL HEAD E/W
 UTMX.m              530128.28:  UTM X
 UTMY.m             4433192.49:  UTM Y
 DFWL.m                   0.00:  DISTANCE FWL
 DFSL.m                   0.00:  DISTANCE FSL
 SDEP.m                3435.01:  START DEPTH
 TDD .m                3814.01:  TOTAL DEPTH (DRILLER)
 VSDR.deg               352.80:  VERT SEC DIRECT
 GVFD.g                   1.00:  GRAVITY FIELD
 MFLD.nT              50303.00:  MAGNETIC FIELD
 MDIP.deg                59.52:  MAGNETIC DIP
 MDEC.deg                 6.47:  MAGNETIC DECL
 GRDC.deg                 0.23:  GRID CORRECTION
 AZTC.deg                 6.24:  AZM TOTAL CORR
 EPD .m                   0.00:  ELEVATION
 EGL .m                   0.00:  GROUND ELEVATION
 WDMS.m                 128.20:  WD ELEV
 APD .m                  43.29:  DEPTH ABOVE PD
 DEP .m                3421.30:  DEPTH
 AGAP.m                  43.60:  AIR GAP
 VSEW.m                  -7.70:  VERT SEC E/W
 VSNS.m                  -2.76:  VERT SEC N/S
 EKB .m                   0.00:  KB ELEVATION
 EDF .m                  43.29:  DF ELEVATION
 TDL .m                 369.00:  TOTAL DEPTH (LOGGER)
 VSC .                       0:  VS TO CLOSURE
 MAGU.                 1850390:  MAGUTM CHECKSUM
~Parameter Information Block
#MNEM.UNIT       Value        Description
#---------     -----------    ---------------------------
 AV  .mps                 2.80:  Ann Velocity 
 AVMX.mps                 4.67:  Max Ann Veloc 
 AZIF.deg               303.89:  Azm, Final 
 BHAT.        Rotary Steerable:  BHA Type 
 BREV.rev            128542.00:  Rev Bit Total 
 BROT.°/30m               1.50:  Build Rotating 
 BS  .in                  8.50:  Bit Size 
 BSZ .in                  8.50:  Bit Size 
 BTPL.psig              715.00:  Bit Press Loss 
 CABU.                      No:  Customer Abuse 
 COMM.                     ¤’i:  Run Comments 1 
 TCS .hr                 53.00:  Time Ciculation Ended 
 CV  .mps                 3.85:  Crit Velocity 
 CVMX.mps                 4.75:  Max Crit Veloc 
 DD1 .         Intigam Rahimov:  Direct Drillr 1 
 DDSV.                 iCruise:  DD Service 
 DEFF.%                  98.60:  % Det Eff 
 DLRX.°/30m               2.34:  Dogleg Rot Max 
 DLSO.°/30m               0.00:  Dogleg Oriented 
 DLSX.°/30m               0.00:  Dogleg Str Max 
 DRET.      00.15.00 05-Jan-21:  Drill End Time 
 DRST.      22.00.00 03-Jan-21:  Drill Start Tim 
 DTIM.hr                 17.72:  Time Drilling 
 EDEP.m                3814.01:  End Depth 
 ENG1.         Yevgeniy Ulikov:  Engineer 1 
 ENG2.        Farkhad Khalidov:  Engineer 2 
 ENG3.           Samir Gafarov:  Engineer 3 
 ETIM.      21.00.00 07-Jan-21:  End Time 
 FLOI.gpm               590.00:  Flow In 
 FLON.gpm               580.00:  Flow In Min 
 FLOS.cptm                1.00:  Fluid Loss 
 FLOX.gpm               595.00:  Flow In Max 
 FTRO.     Connectivity, Formation Presure:  FTWD Run Obj 
 HFLO.                      No:  High Flow 
 HPRE.                     Yes:  High Pressure 
 HTEM.                      No:  High Temp 
 HYDO.m                   1.80:  Hydro Offset 
 IFIN.deg                63.76:  Inc, Final 
 IMAX.deg                64.09:  Inc Max 
 IMIN.deg                55.81:  Inc Min 
 IMND.m                3455.62:  Inc Min Depth 
 IMXD.m                3796.03:  Inc Max Depth 
 JARR.                      No:  Jarring 
 LETM.      00.15.00 05-Jan-21:  Log End Time 
 LOST.hr                     0:  Lost Rig Time 
 LSTM.      22.00.00 03-Jan-21:  Log Start Time 
 MDCL.ppm             36000.00:  Mud Chlorides 
 MDES.     Inversion Oil/Synthetic:  Mud Desc 
 DFD .sg                  1.51:  Mud Density 
 MDMN.sg                  1.51:  Dens Mud Min 
 MDMX.sg                  1.51:  Dens Mud Max 
 MOIL.                    55.5:  Run Mud Oil % 
 MOWR.                   70:30:  Run Mud OWR 
 MSND.                     0.1:  Run Mud Sand % 
 MSOL.                   20.77:  Run Mud Solids% 
 DFV .spqt               67.00:  Mud Viscosity 
 MWOD.in                  6.75:  MWD Tool OD 
 MWSI.                      No:  Serv Intrp, MWD 
 OTIM.hr                113.53:  Time Operating 
 PCON.           Look Like New:  Pad Condition 
 PMAX.psia             4830.00:  Press Op, Max 
 PV  .cP                 29.00:  Mud PV 
 RUN .                     300:  Run Number 
 ROPA.m/hr               22.00:  ROP Avg 
 ROPN.m/hr               18.00:  ROP Min 
 ROPX.m/hr               25.00:  ROP Max 
 RPMA.rpm               130.00:  RPM Surface Avg 
 RPMN.rpm                80.00:  RPM Surface Min 
 RPMX.rpm               140.00:  RPM Surface Max 
 RRUN.                    L101:  Rig Run Number 
 RTIM.hr                  9.28:  Time Reaming 
 SAZI.deg               316.55:  Azm, Start 
 SDEP.m                3445.01:  Start Depth 
 SIDD.                      No:  Serv Intrp, DD 
 SINC.deg                55.81:  Inc, Start 
 SPPA.psig             4500.00:  SPP Avg 
 SPPN.psig             4350.00:  SPP Min 
 SPPX.psig             4830.00:  SPP Max 
 STIM.      00.00.00 03-Jan-21:  Start Time 
 SVCS.                 DD, MWD:  Services 
 SVER.                    9.20:  Sperry Version 
 TDAT.m                 369.00:  Tot Depth Attmp 
 TDDF.                      No:  Trip for DD 
 TDLG.m                 369.00:  Tot Depth Loggd 
 TFF .                      No:  Trip for Fail 
 TQAA.f-kp               15.00:  Torque Abs Avg 
 TQAN.f-kp               12.00:  Torque Abs Min 
 TQAX.f-kp               16.00:  Torque Abs Max 
 TRRT.°/30m              -2.10:  Turn Rotating 
 MRT .                    HCIM:  Maximum Recorded Temperature 
 TTMX.degC               92.16:  Max Tool Temp 
 VS01.                90627822:  Virtual Str1 SN 
 VS02.                90550008:  Virtual Str2 SN 
 VS03.                90627816:  Virtual Str3 SN 
 VS04.                90633205:  Virtual Str4 SN 
 VS05.                13033835:  Virtual Str5 SN 
 VS06.                11125125:  Virtual Str6 SN 
 WBMN.klb                 8.00:  WOB Min 
 WITN.            Bruce Cheyne:  Customer Rep 
 WITN.           Faig Mammadov:  Customer Rep 2 
 WOBA.klb                 9.00:  WOB Avg 
 WOBX.klb                12.00:  WOB Max 
 YP  .lhf2               30.00:  Yield Point 
~Curve Information Block
#MNEM.UNIT                 API CODE     Curve Description
#---------               -----------    ---------------------------
 TIME.HHMMSS            00 000 000 000:  GT Time & Date
 GTET.sec               00 000 000 000:  GT Elapsed Test Time
 GTPQH.psia             00 000 000 000:  GT HR Quartz Pressure
 GTDEPTH.m              00 000 000 000:  GT Depth
 GTTVD.m                00 000 000 000:  GT True Vertical Depth
 GTTQ.degC              00 000 000 000:  GT Quartz Temperature
 GTTN.NONE              00 000 000 000:  GT Test Number
#Other Information
#
#WARRANTY: Halliburton will use its best efforts to furnish customers with 
#accurate information and interpretations that are part of, and incident to, the services 
#provided.  However, Halliburton cannot and does not warrant the accuracy 
#or correctness of such information and interpretations.  Under no circumstances should any 
#such information or interpretation be relied upon as the sole basis for any drilling, 
#completion, production, or financial decision or any procedure involving any risk to the 
#safety of any drilling venture, drilling rig or its crew or any other third party.  The 
#Customer has full responsibility for all drilling, completion and production operation.  
#Halliburton makes no representations or warranties, either expressed or 
#implied, including, but not limited to, the implied warranties of merchantability or fitness 
#for a particular purpose, with respect to the services rendered.  In no event will 
#Halliburton be liable for failure to obtain any particular results or for 
#any damages, including, but not limited to, indirect, special or consequential damages, 
#resulting from the use of any information or interpretation provided by Halliburton.
#
~A           TIME            GTET   GTPQH  GTDEPTH  GTTVD  GTTQ  GTTN 
# ...
   08:23:13.484.05-Jan-2021 276.10 4455.50 3649.01 3076.03 80.47 5.00
   08:23:13.684.05-Jan-2021 276.30 4455.50 3649.01 3076.03 80.47 5.00
   08:23:13.884.05-Jan-2021 276.50 4455.49 3649.01 3076.03 80.47 5.00
   08:23:14.084.05-Jan-2021 276.70 4455.49 3649.01 3076.03 80.47 5.00
   08:23:14.284.05-Jan-2021 276.90 4455.57 3649.01 3076.03 80.47 5.00
   08:23:14.484.05-Jan-2021 277.10 4455.45 3649.01 3076.03 80.47 5.00
   08:23:14.684.05-Jan-2021 277.30 4455.45 3649.01 3076.03 80.47 5.00
   08:23:14.884.05-Jan-2021 277.50 4455.52 3649.01 3076.03 80.47 5.00
   08:23:15.085.05-Jan-2021 277.70 4455.52 3649.01 3076.03 80.47 5.00
   08:23:15.285.05-Jan-2021 277.90 4455.50 3649.01 3076.03 80.47 5.00
   08:23:15.485.05-Jan-2021 278.10 4455.48 3649.01 3076.03 80.47 5.00
   08:23:15.685.05-Jan-2021 278.30 4455.48 3649.01 3076.03 80.47 5.00
   08:23:15.885.05-Jan-2021 278.50 4455.54 3649.01 3076.03 80.47 5.00
   08:23:16.085.05-Jan-2021 278.70 4455.50 3649.01 3076.03 80.47 5.00
   08:23:16.285.05-Jan-2021 278.90 4455.50 3649.01 3076.03 80.47 5.00
   08:23:16.485.05-Jan-2021 279.10 4455.52 3649.01 3076.03 80.47 5.00
   08:23:16.685.05-Jan-2021 279.30 4455.52 3649.01 3076.03 80.47 5.00
   08:23:16.885.05-Jan-2021 279.50 4455.47 3649.01 3076.03 80.47 5.00
   08:23:17.085.05-Jan-2021 279.70 4455.50 3649.01 3076.03 80.47 5.00
   08:23:17.285.05-Jan-2021 279.90 4455.52 3649.01 3076.03 80.47 5.00
   08:23:17.485.05-Jan-2021 280.10 4455.51 3649.01 3076.03 80.47 5.00
   08:23:17.685.05-Jan-2021 280.30 4455.49 3649.01 3076.03 80.47 5.00
   08:23:17.886.05-Jan-2021 280.50 4455.36 3649.01 3076.03 80.47 5.00
   08:23:18.086.05-Jan-2021 280.70 4455.72 3649.01 3076.03 80.47 5.00
   08:23:18.286.05-Jan-2021 280.90 4455.46 3649.01 3076.03 80.47 5.00
   08:23:18.486.05-Jan-2021 281.10 4455.49 3649.01 3076.03 80.47 5.00
   08:23:18.686.05-Jan-2021 281.30 4455.49 3649.01 3076.03 80.47 5.00
   08:23:18.886.05-Jan-2021 281.50 4455.56 3649.01 3076.03 80.47 5.00
   08:23:19.086.05-Jan-2021 281.70 4455.36 3649.01 3076.03 80.47 5.00
   08:23:19.286.05-Jan-2021 281.90 4455.54 3649.01 3076.03 80.47 5.00
   08:23:19.486.05-Jan-2021 282.10 4455.54 3649.01 3076.03 80.47 5.00
   08:23:19.686.05-Jan-2021 282.30 4455.54 3649.01 3076.03 80.47 5.00
   08:23:19.886.05-Jan-2021 282.50 4455.35 3649.01 3076.03 80.47 5.00
   08:23:20.086.05-Jan-2021 282.70 4455.66 3649.01 3076.03 80.47 5.00
   08:23:20.286.05-Jan-2021 282.91 4455.49 3649.01 3076.03 80.47 5.00
   08:23:20.487.05-Jan-2021 283.11 4455.48 3649.01 3076.03 80.47 5.00
   08:23:20.687.05-Jan-2021 283.31 4455.48 3649.01 3076.03 80.47 5.00
   08:23:20.887.05-Jan-2021 283.51 4455.49 3649.01 3076.03 80.47 5.00
   08:23:21.087.05-Jan-2021 283.71 4455.48 3649.01 3076.03 80.47 5.00
   08:23:21.287.05-Jan-2021 283.91 4455.53 3649.01 3076.03 80.47 5.00
   08:23:21.487.05-Jan-2021 284.11 4455.53 3649.01 3076.03 80.47 5.00
   08:23:21.687.05-Jan-2021 284.31 4455.53 3649.01 3076.03 80.47 5.00
   08:23:21.887.05-Jan-2021 284.51 4455.51 3649.01 3076.03 80.47 5.00
   08:23:22.087.05-Jan-2021 284.71 4455.49 3649.01 3076.03 80.47 5.00
   08:23:22.287.05-Jan-2021 284.91 4455.49 3649.01 3076.03 80.47 5.00
   08:23:22.487.05-Jan-2021 285.11 4455.56 3649.01 3076.03 80.47 5.00
   08:23:22.687.05-Jan-2021 285.31 4455.56 3649.01 3076.03 80.47 5.00
   08:23:22.887.05-Jan-2021 285.51 4455.36 3649.01 3076.03 80.47 5.00
   08:23:23.087.05-Jan-2021 285.71 4455.56 3649.01 3076.03 80.47 5.00
   08:23:23.288.05-Jan-2021 285.91 4455.48 3649.01 3076.03 80.47 5.00
   08:23:23.488.05-Jan-2021 286.11 4455.48 3649.01 3076.03 80.47 5.00
   08:23:23.688.05-Jan-2021 286.31 4455.48 3649.01 3076.03 80.47 5.00
   08:23:23.888.05-Jan-2021 286.51 4455.50 3649.01 3076.03 80.48 5.00
   08:23:24.088.05-Jan-2021 286.71 4455.54 3649.01 3076.03 80.48 5.00
   08:23:24.288.05-Jan-2021 286.91 4455.49 3649.01 3076.03 80.48 5.00
   08:23:24.488.05-Jan-2021 287.11 4455.47 3649.01 3076.03 80.48 5.00
   08:23:24.688.05-Jan-2021 287.31 4455.47 3649.01 3076.03 80.48 5.00
   08:23:24.888.05-Jan-2021 287.51 4455.53 3649.01 3076.03 80.48 5.00
   08:23:25.088.05-Jan-2021 287.71 4455.48 3649.01 3076.03 80.48 5.00
   08:23:25.288.05-Jan-2021 287.91 4455.41 3649.01 3076.03 80.48 5.00
   08:23:25.488.05-Jan-2021 288.11 4455.56 3649.01 3076.03 80.48 5.00
   08:23:25.688.05-Jan-2021 288.31 4455.56 3649.01 3076.03 80.48 5.00
   08:23:25.889.05-Jan-2021 288.51 4455.51 3649.01 3076.03 80.48 5.00
   08:23:26.089.05-Jan-2021 288.71 4455.48 3649.01 3076.03 80.48 5.00
   08:23:26.289.05-Jan-2021 288.91 4455.50 3649.01 3076.03 80.48 5.00
   08:23:26.489.05-Jan-2021 289.11 4455.50 3649.01 3076.03 80.48 5.00
   08:23:26.689.05-Jan-2021 289.31 4455.50 3649.01 3076.03 80.48 5.00
   08:23:26.889.05-Jan-2021 289.51 4455.55 3649.01 3076.03 80.48 5.00
   08:23:27.089.05-Jan-2021 289.71 4455.53 3649.01 3076.03 80.48 5.00
   08:23:27.289.05-Jan-2021 289.91 4455.47 3649.01 3076.03 80.48 5.00
   08:23:27.489.05-Jan-2021 290.11 4455.38 3649.01 3076.03 80.48 5.00
   08:23:27.689.05-Jan-2021 290.31 4455.38 3649.01 3076.03 80.48 5.00
   08:23:27.889.05-Jan-2021 290.51 4455.57 3649.01 3076.03 80.48 5.00
   08:23:28.089.05-Jan-2021 290.71 4455.48 3649.01 3076.03 80.48 5.00
   08:23:28.289.05-Jan-2021 290.91 4455.49 3649.01 3076.03 80.48 5.00
   08:23:28.489.05-Jan-2021 291.11 4455.51 3649.01 3076.03 80.48 5.00
   08:23:28.690.05-Jan-2021 291.31 4455.51 3649.01 3076.03 80.48 5.00
   08:23:28.890.05-Jan-2021 291.51 4455.50 3649.01 3076.03 80.48 5.00
   08:23:29.090.05-Jan-2021 291.71 4455.50 3649.01 3076.03 80.48 5.00
   08:23:29.290.05-Jan-2021 291.91 4455.51 3649.01 3076.03 80.48 5.00
   08:23:29.490.05-Jan-2021 292.11 4455.54 3649.01 3076.03 80.48 5.00
   08:23:29.690.05-Jan-2021 292.31 4455.47 3649.01 3076.03 80.48 5.00
   08:23:29.890.05-Jan-2021 292.51 4455.54 3649.01 3076.03 80.48 5.00
   08:23:30.090.05-Jan-2021 292.71 4455.50 3649.01 3076.03 80.48 5.00
   08:23:30.290.05-Jan-2021 292.91 4455.47 3649.01 3076.03 80.48 5.00
   08:23:30.490.05-Jan-2021 293.11 4455.53 3649.01 3076.03 80.48 5.00
   08:23:30.690.05-Jan-2021 293.31 4455.53 3649.01 3076.03 80.48 5.00
   08:23:30.890.05-Jan-2021 293.51 4455.52 3649.01 3076.03 80.48 5.00
   08:23:31.090.05-Jan-2021 293.71 4455.50 3649.01 3076.03 80.48 5.00
   08:23:31.291.05-Jan-2021 293.91 4455.37 3649.01 3076.03 80.48 5.00
   08:23:31.491.05-Jan-2021 294.11 4455.62 3649.01 3076.03 80.48 5.00
   08:23:31.691.05-Jan-2021 294.31 4455.62 3649.01 3076.03 80.48 5.00
   08:23:31.891.05-Jan-2021 294.51 4455.46 3649.01 3076.03 80.48 5.00
   08:23:32.091.05-Jan-2021 294.71 4455.50 3649.01 3076.03 80.48 5.00
   08:23:32.291.05-Jan-2021 294.91 4455.51 3649.01 3076.03 80.48 5.00
   08:23:32.491.05-Jan-2021 295.11 4455.49 3649.01 3076.03 80.48 5.00
   08:23:32.691.05-Jan-2021 295.31 4455.49 3649.01 3076.03 80.48 5.00
   08:23:32.891.05-Jan-2021 295.51 4455.46 3649.01 3076.03 80.48 5.00
   08:23:33.091.05-Jan-2021 295.71 4455.50 3649.01 3076.03 80.48 5.00
   08:23:33.291.05-Jan-2021 295.91 4455.52 3649.01 3076.03 80.48 5.00
   08:23:33.491.05-Jan-2021 296.11 4455.53 3649.01 3076.03 80.48 5.00
   08:23:33.691.05-Jan-2021 296.31 4455.48 3649.01 3076.03 80.48 5.00
   08:23:33.891.05-Jan-2021 296.51 4455.51 3649.01 3076.03 80.48 5.00
   08:23:34.092.05-Jan-2021 296.71 4455.50 3649.01 3076.03 80.48 5.00
   08:23:34.292.05-Jan-2021 296.91 4455.52 3649.01 3076.03 80.48 5.00
   08:23:34.492.05-Jan-2021 297.11 4455.38 3649.01 3076.03 80.48 5.00
   08:23:34.692.05-Jan-2021 297.31 4455.38 3649.01 3076.03 80.48 5.00
   08:23:34.892.05-Jan-2021 297.51 4455.55 3649.01 3076.03 80.48 5.00
   08:23:35.092.05-Jan-2021 297.71 4455.54 3649.01 3076.03 80.48 5.00
   08:23:35.292.05-Jan-2021 297.91 4455.54 3649.01 3076.03 80.48 5.00
   08:23:35.492.05-Jan-2021 298.11 4455.44 3649.01 3076.03 80.48 5.00
   08:23:35.692.05-Jan-2021 298.31 4455.44 3649.01 3076.03 80.48 5.00
   08:23:35.892.05-Jan-2021 298.51 4455.56 3649.01 3076.03 80.48 5.00
   08:23:36.092.05-Jan-2021 298.71 4455.52 3649.01 3076.03 80.48 5.00
   08:23:36.292.05-Jan-2021 298.91 4455.56 3649.01 3076.03 80.48 5.00
