~Version Information
 VERS.                  2.0:   CWLS log ASCII Standard -VERSION 2.0
 WRAP.                   NO:   One line per depth step
~Well Information Block
#MNEM.UNIT     VALUE/NAME     DESCRIPTION
#---------     -----------    ---------------------------
 STRT.S             05:14:37 05-Jan-21: START TIME 05:14:37 05-Jan-21
 STOP.S             05:24:42 05-Jan-21: STOP TIME  05:24:42 05-Jan-21
 STEP.S                   0.00: STEP TIME
 NULL.                 -999.25: NULL VALUE
 DFWT.                        :  DIST FWL TEXT
 DFST.                        :  DIST FSL TEXT
 DMF .             Drill Floor:  DRILL MEAS FROM
 STIM.      06.00.00 31-Dec-20:  START TIME
 DATE.      05.58.24 07-Jan-21:  END TIME
 SPUD.               24-Dec-20:  SPUD DATE
 NREF.                    Grid:  NORTH REFERENCE
 HPTY.       Minimum Curvature:  HOLE POS TYPE
 DMOD.             Drill Model:  DRILL MOD DESC
 SVYD.                  Survey:  SURVEY DESC
 ILTD.               Lithology:  INTERP LTH DESC
 FTOP.          Formation Tops:  FORM TOPS DESC
 SON .        AZ-XX-0906699554:  JOB NUMBER
 WELL.                    B09z:  WELL NAME
 PDAT.          Mean Sea Level:  PERMANENT DATUM
 FLD .                     ACG:  FIELD NAME
 CTRY.              Azerbaijan:  COUNTRY NAME
 COMP.     BP Exploration (Caspian Sea) Ltd.:  COMPANY
 UWI .                     N/A:  UNIQUE WELL IDENTIFIER
 API .                     N/A:  API NUMBER
 WTYP.                Deviated:  WELL TYPE
 MDS .        Operator Entered:  MAG DATA SOURCE
 BASE.              Azerbaijan:  LOGGING EQUIPMENT BASE LOCATION
 REGN.                   EESSA:  REGION
 PROV.                    Baku:  PROVINCE
 STAT.                    Baku:  STATE NAME
 SRVC.          Turan Drilling:  CONTRACTOR
 MWDS.                    Baku:  MWD SHOP
 JOBN.        AZ-XX-0906699554:  JOB TICKET NUMB
 RIG .           Central Azeri:  RIG NAME
 DOE .                     N/A:  DOE NUMBER
 DCON.         Sperry Drilling:  DIRECTNL CONTR
 UNIT.                     N/A:  LOGGING EQUIPMENT ID
 CNTY.                        :  COUNTY
 LOC .                        :  LOCATION
 LMF .             Drill Floor:  LOG MEASURED FROM
 TVDS.m                  43.29:  TVDSS CORRECTN
 LATI.deg                40.03:  LATITUDE
 LONG.deg                51.35:  LONGITUDE
 WHNS.m                  -2.76:  WELL HEAD N/S
 WHEW.m                  -7.70:  WELL HEAD E/W
 UTMX.m              530128.28:  UTM X
 UTMY.m             4433192.49:  UTM Y
 DFWL.m                   0.00:  DISTANCE FWL
 DFSL.m                   0.00:  DISTANCE FSL
 SDEP.m                3435.01:  START DEPTH
 TDD .m                3814.01:  TOTAL DEPTH (DRILLER)
 VSDR.deg               352.80:  VERT SEC DIRECT
 GVFD.g                   1.00:  GRAVITY FIELD
 MFLD.nT              50303.00:  MAGNETIC FIELD
 MDIP.deg                59.52:  MAGNETIC DIP
 MDEC.deg                 6.47:  MAGNETIC DECL
 GRDC.deg                 0.23:  GRID CORRECTION
 AZTC.deg                 6.24:  AZM TOTAL CORR
 EPD .m                   0.00:  ELEVATION
 EGL .m                   0.00:  GROUND ELEVATION
 WDMS.m                 128.20:  WD ELEV
 APD .m                  43.29:  DEPTH ABOVE PD
 DEP .m                3421.30:  DEPTH
 AGAP.m                  43.60:  AIR GAP
 VSEW.m                  -7.70:  VERT SEC E/W
 VSNS.m                  -2.76:  VERT SEC N/S
 EKB .m                   0.00:  KB ELEVATION
 EDF .m                  43.29:  DF ELEVATION
 TDL .m                 369.00:  TOTAL DEPTH (LOGGER)
 VSC .                       0:  VS TO CLOSURE
 MAGU.                 1850390:  MAGUTM CHECKSUM
~Parameter Information Block
#MNEM.UNIT       Value        Description
#---------     -----------    ---------------------------
 AV  .mps                 2.80:  Ann Velocity 
 AVMX.mps                 4.67:  Max Ann Veloc 
 AZIF.deg               303.89:  Azm, Final 
 BHAT.        Rotary Steerable:  BHA Type 
 BREV.rev            128542.00:  Rev Bit Total 
 BROT.°/30m               1.50:  Build Rotating 
 BS  .in                  8.50:  Bit Size 
 BSZ .in                  8.50:  Bit Size 
 BTPL.psig              715.00:  Bit Press Loss 
 CABU.                      No:  Customer Abuse 
 COMM.                     ¼Ûƒ:  Run Comments 1 
 TCS .hr                 53.00:  Time Ciculation Ended 
 CV  .mps                 3.85:  Crit Velocity 
 CVMX.mps                 4.75:  Max Crit Veloc 
 DD1 .         Intigam Rahimov:  Direct Drillr 1 
 DDSV.                 iCruise:  DD Service 
 DEFF.%                  98.60:  % Det Eff 
 DLRX.°/30m               2.34:  Dogleg Rot Max 
 DLSO.°/30m               0.00:  Dogleg Oriented 
 DLSX.°/30m               0.00:  Dogleg Str Max 
 DRET.      00.15.00 05-Jan-21:  Drill End Time 
 DRST.      22.00.00 03-Jan-21:  Drill Start Tim 
 DTIM.hr                 17.72:  Time Drilling 
 EDEP.m                3814.01:  End Depth 
 ENG1.         Yevgeniy Ulikov:  Engineer 1 
 ENG2.        Farkhad Khalidov:  Engineer 2 
 ENG3.           Samir Gafarov:  Engineer 3 
 ETIM.      21.00.00 07-Jan-21:  End Time 
 FLOI.gpm               590.00:  Flow In 
 FLON.gpm               580.00:  Flow In Min 
 FLOS.cptm                1.00:  Fluid Loss 
 FLOX.gpm               595.00:  Flow In Max 
 FTRO.     Connectivity, Formation Presure:  FTWD Run Obj 
 HFLO.                      No:  High Flow 
 HPRE.                     Yes:  High Pressure 
 HTEM.                      No:  High Temp 
 HYDO.m                   1.80:  Hydro Offset 
 IFIN.deg                63.76:  Inc, Final 
 IMAX.deg                64.09:  Inc Max 
 IMIN.deg                55.81:  Inc Min 
 IMND.m                3455.62:  Inc Min Depth 
 IMXD.m                3796.03:  Inc Max Depth 
 JARR.                      No:  Jarring 
 LETM.      00.15.00 05-Jan-21:  Log End Time 
 LOST.hr                     0:  Lost Rig Time 
 LSTM.      22.00.00 03-Jan-21:  Log Start Time 
 MDCL.ppm             36000.00:  Mud Chlorides 
 MDES.     Inversion Oil/Synthetic:  Mud Desc 
 DFD .sg                  1.51:  Mud Density 
 MDMN.sg                  1.51:  Dens Mud Min 
 MDMX.sg                  1.51:  Dens Mud Max 
 MOIL.                    55.5:  Run Mud Oil % 
 MOWR.                   70:30:  Run Mud OWR 
 MSND.                     0.1:  Run Mud Sand % 
 MSOL.                   20.77:  Run Mud Solids% 
 DFV .spqt               67.00:  Mud Viscosity 
 MWOD.in                  6.75:  MWD Tool OD 
 MWSI.                      No:  Serv Intrp, MWD 
 OTIM.hr                113.53:  Time Operating 
 PCON.           Look Like New:  Pad Condition 
 PMAX.psia             4830.00:  Press Op, Max 
 PV  .cP                 29.00:  Mud PV 
 RUN .                     300:  Run Number 
 ROPA.m/hr               22.00:  ROP Avg 
 ROPN.m/hr               18.00:  ROP Min 
 ROPX.m/hr               25.00:  ROP Max 
 RPMA.rpm               130.00:  RPM Surface Avg 
 RPMN.rpm                80.00:  RPM Surface Min 
 RPMX.rpm               140.00:  RPM Surface Max 
 RRUN.                    L101:  Rig Run Number 
 RTIM.hr                  9.28:  Time Reaming 
 SAZI.deg               316.55:  Azm, Start 
 SDEP.m                3445.01:  Start Depth 
 SIDD.                      No:  Serv Intrp, DD 
 SINC.deg                55.81:  Inc, Start 
 SPPA.psig             4500.00:  SPP Avg 
 SPPN.psig             4350.00:  SPP Min 
 SPPX.psig             4830.00:  SPP Max 
 STIM.      00.00.00 03-Jan-21:  Start Time 
 SVCS.                 DD, MWD:  Services 
 SVER.                    9.20:  Sperry Version 
 TDAT.m                 369.00:  Tot Depth Attmp 
 TDDF.                      No:  Trip for DD 
 TDLG.m                 369.00:  Tot Depth Loggd 
 TFF .                      No:  Trip for Fail 
 TQAA.f-kp               15.00:  Torque Abs Avg 
 TQAN.f-kp               12.00:  Torque Abs Min 
 TQAX.f-kp               16.00:  Torque Abs Max 
 TRRT.°/30m              -2.10:  Turn Rotating 
 MRT .                    HCIM:  Maximum Recorded Temperature 
 TTMX.degC               92.16:  Max Tool Temp 
 VS01.                90627822:  Virtual Str1 SN 
 VS02.                90550008:  Virtual Str2 SN 
 VS03.                90627816:  Virtual Str3 SN 
 VS04.                90633205:  Virtual Str4 SN 
 VS05.                13033835:  Virtual Str5 SN 
 VS06.                11125125:  Virtual Str6 SN 
 WBMN.klb                 8.00:  WOB Min 
 WITN.            Bruce Cheyne:  Customer Rep 
 WITN.           Faig Mammadov:  Customer Rep 2 
 WOBA.klb                 9.00:  WOB Avg 
 WOBX.klb                12.00:  WOB Max 
 YP  .lhf2               30.00:  Yield Point 
~Curve Information Block
#MNEM.UNIT                 API CODE     Curve Description
#---------               -----------    ---------------------------
 TIME.HHMMSS            00 000 000 000:  GT Time & Date
 GTET.sec               00 000 000 000:  GT Elapsed Test Time
 GTPQH.psia             00 000 000 000:  GT HR Quartz Pressure
 GTDEPTH.m              00 000 000 000:  GT Depth
 GTTVD.m                00 000 000 000:  GT True Vertical Depth
 GTTQ.degC              00 000 000 000:  GT Quartz Temperature
 GTTN.NONE              00 000 000 000:  GT Test Number
#Other Information
#
#WARRANTY: Halliburton will use its best efforts to furnish customers with 
#accurate information and interpretations that are part of, and incident to, the services 
#provided.  However, Halliburton cannot and does not warrant the accuracy 
#or correctness of such information and interpretations.  Under no circumstances should any 
#such information or interpretation be relied upon as the sole basis for any drilling, 
#completion, production, or financial decision or any procedure involving any risk to the 
#safety of any drilling venture, drilling rig or its crew or any other third party.  The 
#Customer has full responsibility for all drilling, completion and production operation.  
#Halliburton makes no representations or warranties, either expressed or 
#implied, including, but not limited to, the implied warranties of merchantability or fitness 
#for a particular purpose, with respect to the services rendered.  In no event will 
#Halliburton be liable for failure to obtain any particular results or for 
#any damages, including, but not limited to, indirect, special or consequential damages, 
#resulting from the use of any information or interpretation provided by Halliburton.
#
~A           TIME            GTET   GTPQH  GTDEPTH  GTTVD  GTTQ  GTTN 
# ...
   05:19:13.000.05-Jan-2021 276.00 7534.09 3765.01 3128.52 84.75 1.00
   05:19:13.200.05-Jan-2021 276.20 7534.09 3765.01 3128.52 84.75 1.00
   05:19:13.400.05-Jan-2021 276.40 7531.38 3765.01 3128.52 84.75 1.00
   05:19:13.600.05-Jan-2021 276.60 7529.00 3765.01 3128.52 84.75 1.00
   05:19:13.800.05-Jan-2021 276.80 7530.61 3765.01 3128.52 84.75 1.00
   05:19:14.000.05-Jan-2021 277.00 7533.89 3765.01 3128.52 84.75 1.00
   05:19:14.200.05-Jan-2021 277.20 7533.89 3765.01 3128.52 84.75 1.00
   05:19:14.400.05-Jan-2021 277.40 7529.27 3765.01 3128.52 84.75 1.00
   05:19:14.600.05-Jan-2021 277.60 7528.64 3765.01 3128.52 84.75 1.00
   05:19:14.800.05-Jan-2021 277.80 7532.40 3765.01 3128.52 84.75 1.00
   05:19:15.000.05-Jan-2021 278.00 7532.13 3765.01 3128.52 84.75 1.00
   05:19:15.200.05-Jan-2021 278.20 7532.13 3765.01 3128.52 84.75 1.00
   05:19:15.400.05-Jan-2021 278.40 7528.18 3765.01 3128.52 84.75 1.00
   05:19:15.600.05-Jan-2021 278.60 7531.14 3765.01 3128.52 84.75 1.00
   05:19:15.800.05-Jan-2021 278.80 7530.77 3765.01 3128.52 84.75 1.00
   05:19:16.000.05-Jan-2021 279.00 7529.47 3765.01 3128.52 84.75 1.00
   05:19:16.200.05-Jan-2021 279.20 7529.47 3765.01 3128.52 84.75 1.00
   05:19:16.400.05-Jan-2021 279.40 7529.42 3765.01 3128.52 84.75 1.00
   05:19:16.600.05-Jan-2021 279.60 7528.44 3765.01 3128.52 84.75 1.00
   05:19:16.800.05-Jan-2021 279.80 7541.03 3765.01 3128.52 84.75 1.00
   05:19:17.000.05-Jan-2021 280.00 7524.33 3765.01 3128.52 84.75 1.00
   05:19:17.200.05-Jan-2021 280.20 7524.33 3765.01 3128.52 84.75 1.00
   05:19:17.400.05-Jan-2021 280.40 7534.46 3765.01 3128.52 84.75 1.00
   05:19:17.600.05-Jan-2021 280.60 7533.77 3765.01 3128.52 84.75 1.00
   05:19:17.800.05-Jan-2021 280.80 7527.53 3765.01 3128.52 84.75 1.00
   05:19:18.000.05-Jan-2021 281.00 7531.93 3765.01 3128.52 84.75 1.00
   05:19:18.200.05-Jan-2021 281.20 7531.93 3765.01 3128.52 84.75 1.00
   05:19:18.400.05-Jan-2021 281.40 7527.73 3765.01 3128.52 84.75 1.00
   05:19:18.600.05-Jan-2021 281.60 7528.23 3765.01 3128.52 84.75 1.00
   05:19:18.800.05-Jan-2021 281.80 7530.75 3765.01 3128.52 84.75 1.00
   05:19:19.000.05-Jan-2021 282.00 7533.01 3765.01 3128.52 84.75 1.00
   05:19:19.200.05-Jan-2021 282.20 7533.01 3765.01 3128.52 84.75 1.00
   05:19:19.400.05-Jan-2021 282.40 7527.41 3765.01 3128.52 84.75 1.00
   05:19:19.600.05-Jan-2021 282.60 7529.05 3765.01 3128.52 84.75 1.00
   05:19:19.800.05-Jan-2021 282.80 7541.96 3765.01 3128.52 84.75 1.00
   05:19:20.000.05-Jan-2021 283.00 7534.04 3765.01 3128.52 84.75 1.00
   05:19:20.200.05-Jan-2021 283.20 7534.04 3765.01 3128.52 84.75 1.00
   05:19:20.400.05-Jan-2021 283.40 7529.63 3765.01 3128.52 84.75 1.00
   05:19:20.600.05-Jan-2021 283.60 7534.47 3765.01 3128.52 84.75 1.00
   05:19:20.800.05-Jan-2021 283.80 7533.16 3765.01 3128.52 84.75 1.00
   05:19:21.000.05-Jan-2021 284.00 7532.33 3765.01 3128.52 84.75 1.00
   05:19:21.200.05-Jan-2021 284.20 7532.33 3765.01 3128.52 84.75 1.00
   05:19:21.400.05-Jan-2021 284.40 7532.99 3765.01 3128.52 84.75 1.00
   05:19:21.600.05-Jan-2021 284.60 7532.32 3765.01 3128.52 84.75 1.00
   05:19:21.800.05-Jan-2021 284.80 7531.27 3765.01 3128.52 84.75 1.00
   05:19:22.000.05-Jan-2021 285.00 7530.37 3765.01 3128.52 84.75 1.00
   05:19:22.200.05-Jan-2021 285.20 7530.37 3765.01 3128.52 84.75 1.00
   05:19:22.400.05-Jan-2021 285.40 7531.74 3765.01 3128.52 84.75 1.00
   05:19:22.600.05-Jan-2021 285.60 7533.23 3765.01 3128.52 84.75 1.00
   05:19:22.800.05-Jan-2021 285.80 7541.05 3765.01 3128.52 84.75 1.00
   05:19:23.000.05-Jan-2021 286.00 7527.91 3765.01 3128.52 84.75 1.00
   05:19:23.200.05-Jan-2021 286.20 7527.91 3765.01 3128.52 84.75 1.00
   05:19:23.400.05-Jan-2021 286.40 7531.56 3765.01 3128.52 84.75 1.00
   05:19:23.600.05-Jan-2021 286.60 7533.33 3765.01 3128.52 84.75 1.00
   05:19:23.800.05-Jan-2021 286.80 7527.85 3765.01 3128.52 84.75 1.00
   05:19:24.000.05-Jan-2021 287.00 7530.57 3765.01 3128.52 84.75 1.00
   05:19:24.200.05-Jan-2021 287.20 7530.29 3765.01 3128.52 84.75 1.00
   05:19:24.400.05-Jan-2021 287.40 7529.63 3765.01 3128.52 84.75 1.00
   05:19:24.600.05-Jan-2021 287.60 7528.77 3765.01 3128.52 84.75 1.00
   05:19:24.800.05-Jan-2021 287.80 7529.42 3765.01 3128.52 84.75 1.00
   05:19:25.000.05-Jan-2021 288.00 7528.83 3765.01 3128.52 84.75 1.00
   05:19:25.200.05-Jan-2021 288.20 7528.83 3765.01 3128.52 84.75 1.00
   05:19:25.400.05-Jan-2021 288.40 7543.73 3765.01 3128.52 84.75 1.00
   05:19:25.600.05-Jan-2021 288.60 7526.02 3765.01 3128.52 84.75 1.00
   05:19:25.800.05-Jan-2021 288.80 7529.57 3765.01 3128.52 84.75 1.00
   05:19:26.000.05-Jan-2021 289.00 7534.04 3765.01 3128.52 84.75 1.00
   05:19:26.200.05-Jan-2021 289.20 7534.04 3765.01 3128.52 84.75 1.00
   05:19:26.400.05-Jan-2021 289.40 7528.70 3765.01 3128.52 84.75 1.00
   05:19:26.600.05-Jan-2021 289.60 7530.73 3765.01 3128.52 84.75 1.00
   05:19:26.800.05-Jan-2021 289.80 7538.94 3765.01 3128.52 84.75 1.00
   05:19:27.000.05-Jan-2021 290.00 7533.02 3765.01 3128.52 84.75 1.00
   05:19:27.200.05-Jan-2021 290.20 7533.02 3765.01 3128.52 84.75 1.00
   05:19:27.400.05-Jan-2021 290.40 7530.41 3765.01 3128.52 84.75 1.00
   05:19:27.600.05-Jan-2021 290.60 7539.59 3765.01 3128.52 84.75 1.00
   05:19:27.800.05-Jan-2021 290.80 7533.52 3765.01 3128.52 84.75 1.00
   05:19:28.000.05-Jan-2021 291.00 7527.05 3765.01 3128.52 84.75 1.00
   05:19:28.200.05-Jan-2021 291.20 7527.05 3765.01 3128.52 84.75 1.00
   05:19:28.400.05-Jan-2021 291.40 7536.50 3765.01 3128.52 84.75 1.00
   05:19:28.600.05-Jan-2021 291.60 7529.50 3765.01 3128.52 84.75 1.00
   05:19:28.800.05-Jan-2021 291.80 7530.31 3765.01 3128.52 84.75 1.00
   05:19:29.000.05-Jan-2021 292.00 7533.49 3765.01 3128.52 84.75 1.00
   05:19:29.200.05-Jan-2021 292.20 7533.49 3765.01 3128.52 84.75 1.00
   05:19:29.400.05-Jan-2021 292.40 7531.19 3765.01 3128.52 84.75 1.00
   05:19:29.600.05-Jan-2021 292.60 7530.86 3765.01 3128.52 84.75 1.00
   05:19:29.800.05-Jan-2021 292.80 7530.70 3765.01 3128.52 84.75 1.00
   05:19:30.000.05-Jan-2021 293.00 7532.89 3765.01 3128.52 84.75 1.00
   05:19:30.200.05-Jan-2021 293.20 7532.89 3765.01 3128.52 84.75 1.00
   05:19:30.400.05-Jan-2021 293.40 7531.48 3765.01 3128.52 84.75 1.00
   05:19:30.600.05-Jan-2021 293.60 7528.35 3765.01 3128.52 84.75 1.00
   05:19:30.800.05-Jan-2021 293.80 7530.52 3765.01 3128.52 84.75 1.00
   05:19:31.000.05-Jan-2021 294.00 7537.50 3765.01 3128.52 84.75 1.00
   05:19:31.200.05-Jan-2021 294.20 7537.50 3765.01 3128.52 84.75 1.00
   05:19:31.400.05-Jan-2021 294.40 7527.55 3765.01 3128.52 84.75 1.00
   05:19:31.600.05-Jan-2021 294.60 7529.74 3765.01 3128.52 84.75 1.00
   05:19:31.800.05-Jan-2021 294.80 7533.12 3765.01 3128.52 84.75 1.00
   05:19:32.000.05-Jan-2021 295.00 7531.53 3765.01 3128.52 84.75 1.00
   05:19:32.200.05-Jan-2021 295.20 7531.53 3765.01 3128.52 84.75 1.00
   05:19:32.400.05-Jan-2021 295.40 7528.33 3765.01 3128.52 84.75 1.00
   05:19:32.600.05-Jan-2021 295.60 7530.28 3765.01 3128.52 84.75 1.00
   05:19:32.800.05-Jan-2021 295.80 7530.71 3765.01 3128.52 84.75 1.00
   05:19:33.000.05-Jan-2021 296.00 7528.09 3765.01 3128.52 84.75 1.00
   05:19:33.200.05-Jan-2021 296.20 7528.09 3765.01 3128.52 84.75 1.00
   05:19:33.400.05-Jan-2021 296.40 7528.62 3765.01 3128.52 84.75 1.00
   05:19:33.600.05-Jan-2021 296.60 7530.48 3765.01 3128.52 84.75 1.00
   05:19:33.800.05-Jan-2021 296.80 7537.16 3765.01 3128.52 84.75 1.00
   05:19:34.000.05-Jan-2021 297.00 7526.69 3765.01 3128.52 84.75 1.00
   05:19:34.200.05-Jan-2021 297.20 7526.69 3765.01 3128.52 84.75 1.00
   05:19:34.400.05-Jan-2021 297.40 7529.89 3765.01 3128.52 84.75 1.00
   05:19:34.600.05-Jan-2021 297.60 7528.84 3765.01 3128.52 84.75 1.00
   05:19:34.800.05-Jan-2021 297.80 7527.43 3765.01 3128.52 84.75 1.00
   05:19:35.000.05-Jan-2021 298.00 7546.68 3765.01 3128.52 84.75 1.00
   05:19:35.200.05-Jan-2021 298.20 7546.68 3765.01 3128.52 84.75 1.00
   05:19:35.400.05-Jan-2021 298.40 7529.24 3765.01 3128.52 84.75 1.00
   05:19:35.600.05-Jan-2021 298.60 7526.85 3765.01 3128.52 84.75 1.00
   05:19:35.800.05-Jan-2021 298.80 7543.75 3765.01 3128.52 84.75 1.00
