~Version Information
 VERS.                  2.0:   CWLS log ASCII Standard -VERSION 2.0
 WRAP.                   NO:   One line per depth step
~Well Information Block
#MNEM.UNIT     VALUE/NAME     DESCRIPTION
#---------     -----------    ---------------------------
 STRT.S             13:40:14 05-Jan-21: START TIME 13:40:14 05-Jan-21
 STOP.S             13:48:27 05-Jan-21: STOP TIME  13:48:27 05-Jan-21
 STEP.S                   0.00: STEP TIME
 NULL.                 -999.25: NULL VALUE
 DFWT.                        :  DIST FWL TEXT
 DFST.                        :  DIST FSL TEXT
 DMF .             Drill Floor:  DRILL MEAS FROM
 STIM.      06.00.00 31-Dec-20:  START TIME
 DATE.      05.58.24 07-Jan-21:  END TIME
 SPUD.               24-Dec-20:  SPUD DATE
 NREF.                    Grid:  NORTH REFERENCE
 HPTY.       Minimum Curvature:  HOLE POS TYPE
 DMOD.             Drill Model:  DRILL MOD DESC
 SVYD.                  Survey:  SURVEY DESC
 ILTD.               Lithology:  INTERP LTH DESC
 FTOP.          Formation Tops:  FORM TOPS DESC
 SON .        AZ-XX-0906699554:  JOB NUMBER
 WELL.                    B09z:  WELL NAME
 PDAT.          Mean Sea Level:  PERMANENT DATUM
 FLD .                     ACG:  FIELD NAME
 CTRY.              Azerbaijan:  COUNTRY NAME
 COMP.     BP Exploration (Caspian Sea) Ltd.:  COMPANY
 UWI .                     N/A:  UNIQUE WELL IDENTIFIER
 API .                     N/A:  API NUMBER
 WTYP.                Deviated:  WELL TYPE
 MDS .        Operator Entered:  MAG DATA SOURCE
 BASE.              Azerbaijan:  LOGGING EQUIPMENT BASE LOCATION
 REGN.                   EESSA:  REGION
 PROV.                    Baku:  PROVINCE
 STAT.                    Baku:  STATE NAME
 SRVC.          Turan Drilling:  CONTRACTOR
 MWDS.                    Baku:  MWD SHOP
 JOBN.        AZ-XX-0906699554:  JOB TICKET NUMB
 RIG .           Central Azeri:  RIG NAME
 DOE .                     N/A:  DOE NUMBER
 DCON.         Sperry Drilling:  DIRECTNL CONTR
 UNIT.                     N/A:  LOGGING EQUIPMENT ID
 CNTY.                        :  COUNTY
 LOC .                        :  LOCATION
 LMF .             Drill Floor:  LOG MEASURED FROM
 TVDS.m                  43.29:  TVDSS CORRECTN
 LATI.deg                40.03:  LATITUDE
 LONG.deg                51.35:  LONGITUDE
 WHNS.m                  -2.76:  WELL HEAD N/S
 WHEW.m                  -7.70:  WELL HEAD E/W
 UTMX.m              530128.28:  UTM X
 UTMY.m             4433192.49:  UTM Y
 DFWL.m                   0.00:  DISTANCE FWL
 DFSL.m                   0.00:  DISTANCE FSL
 SDEP.m                3435.01:  START DEPTH
 TDD .m                3814.01:  TOTAL DEPTH (DRILLER)
 VSDR.deg               352.80:  VERT SEC DIRECT
 GVFD.g                   1.00:  GRAVITY FIELD
 MFLD.nT              50303.00:  MAGNETIC FIELD
 MDIP.deg                59.52:  MAGNETIC DIP
 MDEC.deg                 6.47:  MAGNETIC DECL
 GRDC.deg                 0.23:  GRID CORRECTION
 AZTC.deg                 6.24:  AZM TOTAL CORR
 EPD .m                   0.00:  ELEVATION
 EGL .m                   0.00:  GROUND ELEVATION
 WDMS.m                 128.20:  WD ELEV
 APD .m                  43.29:  DEPTH ABOVE PD
 DEP .m                3421.30:  DEPTH
 AGAP.m                  43.60:  AIR GAP
 VSEW.m                  -7.70:  VERT SEC E/W
 VSNS.m                  -2.76:  VERT SEC N/S
 EKB .m                   0.00:  KB ELEVATION
 EDF .m                  43.29:  DF ELEVATION
 TDL .m                 369.00:  TOTAL DEPTH (LOGGER)
 VSC .                       0:  VS TO CLOSURE
 MAGU.                 1850390:  MAGUTM CHECKSUM
~Parameter Information Block
#MNEM.UNIT       Value        Description
#---------     -----------    ---------------------------
 AV  .mps                 2.80:  Ann Velocity 
 AVMX.mps                 4.67:  Max Ann Veloc 
 AZIF.deg               303.89:  Azm, Final 
 BHAT.        Rotary Steerable:  BHA Type 
 BREV.rev            128542.00:  Rev Bit Total 
 BROT.°/30m               1.50:  Build Rotating 
 BS  .in                  8.50:  Bit Size 
 BSZ .in                  8.50:  Bit Size 
 BTPL.psig              715.00:  Bit Press Loss 
 CABU.                      No:  Customer Abuse 
 COMM.                     t6w:  Run Comments 1 
 TCS .hr                 53.00:  Time Ciculation Ended 
 CV  .mps                 3.85:  Crit Velocity 
 CVMX.mps                 4.75:  Max Crit Veloc 
 DD1 .         Intigam Rahimov:  Direct Drillr 1 
 DDSV.                 iCruise:  DD Service 
 DEFF.%                  98.60:  % Det Eff 
 DLRX.°/30m               2.34:  Dogleg Rot Max 
 DLSO.°/30m               0.00:  Dogleg Oriented 
 DLSX.°/30m               0.00:  Dogleg Str Max 
 DRET.      00.15.00 05-Jan-21:  Drill End Time 
 DRST.      22.00.00 03-Jan-21:  Drill Start Tim 
 DTIM.hr                 17.72:  Time Drilling 
 EDEP.m                3814.01:  End Depth 
 ENG1.         Yevgeniy Ulikov:  Engineer 1 
 ENG2.        Farkhad Khalidov:  Engineer 2 
 ENG3.           Samir Gafarov:  Engineer 3 
 ETIM.      21.00.00 07-Jan-21:  End Time 
 FLOI.gpm               590.00:  Flow In 
 FLON.gpm               580.00:  Flow In Min 
 FLOS.cptm                1.00:  Fluid Loss 
 FLOX.gpm               595.00:  Flow In Max 
 FTRO.     Connectivity, Formation Presure:  FTWD Run Obj 
 HFLO.                      No:  High Flow 
 HPRE.                     Yes:  High Pressure 
 HTEM.                      No:  High Temp 
 HYDO.m                   1.80:  Hydro Offset 
 IFIN.deg                63.76:  Inc, Final 
 IMAX.deg                64.09:  Inc Max 
 IMIN.deg                55.81:  Inc Min 
 IMND.m                3455.62:  Inc Min Depth 
 IMXD.m                3796.03:  Inc Max Depth 
 JARR.                      No:  Jarring 
 LETM.      00.15.00 05-Jan-21:  Log End Time 
 LOST.hr                     0:  Lost Rig Time 
 LSTM.      22.00.00 03-Jan-21:  Log Start Time 
 MDCL.ppm             36000.00:  Mud Chlorides 
 MDES.     Inversion Oil/Synthetic:  Mud Desc 
 DFD .sg                  1.51:  Mud Density 
 MDMN.sg                  1.51:  Dens Mud Min 
 MDMX.sg                  1.51:  Dens Mud Max 
 MOIL.                    55.5:  Run Mud Oil % 
 MOWR.                   70:30:  Run Mud OWR 
 MSND.                     0.1:  Run Mud Sand % 
 MSOL.                   20.77:  Run Mud Solids% 
 DFV .spqt               67.00:  Mud Viscosity 
 MWOD.in                  6.75:  MWD Tool OD 
 MWSI.                      No:  Serv Intrp, MWD 
 OTIM.hr                113.53:  Time Operating 
 PCON.           Look Like New:  Pad Condition 
 PMAX.psia             4830.00:  Press Op, Max 
 PV  .cP                 29.00:  Mud PV 
 RUN .                     300:  Run Number 
 ROPA.m/hr               22.00:  ROP Avg 
 ROPN.m/hr               18.00:  ROP Min 
 ROPX.m/hr               25.00:  ROP Max 
 RPMA.rpm               130.00:  RPM Surface Avg 
 RPMN.rpm                80.00:  RPM Surface Min 
 RPMX.rpm               140.00:  RPM Surface Max 
 RRUN.                    L101:  Rig Run Number 
 RTIM.hr                  9.28:  Time Reaming 
 SAZI.deg               316.55:  Azm, Start 
 SDEP.m                3445.01:  Start Depth 
 SIDD.                      No:  Serv Intrp, DD 
 SINC.deg                55.81:  Inc, Start 
 SPPA.psig             4500.00:  SPP Avg 
 SPPN.psig             4350.00:  SPP Min 
 SPPX.psig             4830.00:  SPP Max 
 STIM.      00.00.00 03-Jan-21:  Start Time 
 SVCS.                 DD, MWD:  Services 
 SVER.                    9.20:  Sperry Version 
 TDAT.m                 369.00:  Tot Depth Attmp 
 TDDF.                      No:  Trip for DD 
 TDLG.m                 369.00:  Tot Depth Loggd 
 TFF .                      No:  Trip for Fail 
 TQAA.f-kp               15.00:  Torque Abs Avg 
 TQAN.f-kp               12.00:  Torque Abs Min 
 TQAX.f-kp               16.00:  Torque Abs Max 
 TRRT.°/30m              -2.10:  Turn Rotating 
 MRT .                    HCIM:  Maximum Recorded Temperature 
 TTMX.degC               92.16:  Max Tool Temp 
 VS01.                90627822:  Virtual Str1 SN 
 VS02.                90550008:  Virtual Str2 SN 
 VS03.                90627816:  Virtual Str3 SN 
 VS04.                90633205:  Virtual Str4 SN 
 VS05.                13033835:  Virtual Str5 SN 
 VS06.                11125125:  Virtual Str6 SN 
 WBMN.klb                 8.00:  WOB Min 
 WITN.            Bruce Cheyne:  Customer Rep 
 WITN.           Faig Mammadov:  Customer Rep 2 
 WOBA.klb                 9.00:  WOB Avg 
 WOBX.klb                12.00:  WOB Max 
 YP  .lhf2               30.00:  Yield Point 
~Curve Information Block
#MNEM.UNIT                 API CODE     Curve Description
#---------               -----------    ---------------------------
 TIME.HHMMSS            00 000 000 000:  GT Time & Date
 GTET.sec               00 000 000 000:  GT Elapsed Test Time
 GTPQH.psia             00 000 000 000:  GT HR Quartz Pressure
 GTDEPTH.m              00 000 000 000:  GT Depth
 GTTVD.m                00 000 000 000:  GT True Vertical Depth
 GTTQ.degC              00 000 000 000:  GT Quartz Temperature
 GTTN.NONE              00 000 000 000:  GT Test Number
#Other Information
#
#WARRANTY: Halliburton will use its best efforts to furnish customers with 
#accurate information and interpretations that are part of, and incident to, the services 
#provided.  However, Halliburton cannot and does not warrant the accuracy 
#or correctness of such information and interpretations.  Under no circumstances should any 
#such information or interpretation be relied upon as the sole basis for any drilling, 
#completion, production, or financial decision or any procedure involving any risk to the 
#safety of any drilling venture, drilling rig or its crew or any other third party.  The 
#Customer has full responsibility for all drilling, completion and production operation.  
#Halliburton makes no representations or warranties, either expressed or 
#implied, including, but not limited to, the implied warranties of merchantability or fitness 
#for a particular purpose, with respect to the services rendered.  In no event will 
#Halliburton be liable for failure to obtain any particular results or for 
#any damages, including, but not limited to, indirect, special or consequential damages, 
#resulting from the use of any information or interpretation provided by Halliburton.
#
~A           TIME            GTET   GTPQH  GTDEPTH  GTTVD  GTTQ  GTTN 
# ...
   13:44:28.071.05-Jan-2021 253.14 4884.04 3494.01 2996.09 77.99 7.00
   13:44:28.272.05-Jan-2021 253.34 4883.89 3494.01 2996.09 77.99 7.00
   13:44:28.472.05-Jan-2021 253.54 4884.12 3494.01 2996.09 77.99 7.00
   13:44:28.672.05-Jan-2021 253.74 4883.72 3494.01 2996.09 77.99 7.00
   13:44:28.872.05-Jan-2021 253.94 4884.74 3494.01 2996.09 77.99 7.00
   13:44:29.072.05-Jan-2021 254.14 4884.22 3494.01 2996.09 77.99 7.00
   13:44:29.272.05-Jan-2021 254.34 4884.22 3494.01 2996.09 77.99 7.00
   13:44:29.472.05-Jan-2021 254.54 4884.06 3494.01 2996.09 77.99 7.00
   13:44:29.672.05-Jan-2021 254.74 4883.94 3494.01 2996.09 77.99 7.00
   13:44:29.872.05-Jan-2021 254.94 4884.00 3494.01 2996.09 77.99 7.00
   13:44:30.073.05-Jan-2021 255.14 4884.26 3494.01 2996.09 77.99 7.00
   13:44:30.273.05-Jan-2021 255.34 4884.26 3494.01 2996.09 77.99 7.00
   13:44:30.473.05-Jan-2021 255.54 4884.18 3494.01 2996.09 77.99 7.00
   13:44:30.673.05-Jan-2021 255.74 4884.48 3494.01 2996.09 77.99 7.00
   13:44:30.873.05-Jan-2021 255.94 4883.95 3494.01 2996.09 77.99 7.00
   13:44:31.073.05-Jan-2021 256.14 4884.14 3494.01 2996.09 77.99 7.00
   13:44:31.273.05-Jan-2021 256.34 4884.14 3494.01 2996.09 77.99 7.00
   13:44:31.473.05-Jan-2021 256.54 4884.67 3494.01 2996.09 77.99 7.00
   13:44:31.673.05-Jan-2021 256.74 4884.06 3494.01 2996.09 77.99 7.00
   13:44:31.874.05-Jan-2021 256.94 4883.25 3494.01 2996.09 77.99 7.00
   13:44:32.074.05-Jan-2021 257.14 4884.42 3494.01 2996.09 77.99 7.00
   13:44:32.274.05-Jan-2021 257.34 4884.42 3494.01 2996.09 77.99 7.00
   13:44:32.474.05-Jan-2021 257.54 4884.42 3494.01 2996.09 77.99 7.00
   13:44:32.674.05-Jan-2021 257.74 4884.86 3494.01 2996.09 77.99 7.00
   13:44:32.874.05-Jan-2021 257.94 4884.48 3494.01 2996.09 77.99 7.00
   13:44:33.074.05-Jan-2021 258.14 4884.14 3494.01 2996.09 77.99 7.00
   13:44:33.274.05-Jan-2021 258.34 4884.14 3494.01 2996.09 77.99 7.00
   13:44:33.474.05-Jan-2021 258.54 4884.11 3494.01 2996.09 77.99 7.00
   13:44:33.675.05-Jan-2021 258.74 4883.67 3494.01 2996.09 77.99 7.00
   13:44:33.875.05-Jan-2021 258.94 4884.47 3494.01 2996.09 77.99 7.00
   13:44:34.075.05-Jan-2021 259.14 4884.53 3494.01 2996.09 77.99 7.00
   13:44:34.275.05-Jan-2021 259.34 4884.53 3494.01 2996.09 77.99 7.00
   13:44:34.475.05-Jan-2021 259.54 4884.45 3494.01 2996.09 78.00 7.00
   13:44:34.675.05-Jan-2021 259.74 4883.78 3494.01 2996.09 78.00 7.00
   13:44:34.875.05-Jan-2021 259.94 4884.44 3494.01 2996.09 78.00 7.00
   13:44:35.075.05-Jan-2021 260.14 4883.92 3494.01 2996.09 78.00 7.00
   13:44:35.275.05-Jan-2021 260.34 4883.92 3494.01 2996.09 78.00 7.00
   13:44:35.476.05-Jan-2021 260.54 4884.14 3494.01 2996.09 78.00 7.00
   13:44:35.676.05-Jan-2021 260.74 4884.35 3494.01 2996.09 78.00 7.00
   13:44:35.876.05-Jan-2021 260.94 4884.29 3494.01 2996.09 78.00 7.00
   13:44:36.076.05-Jan-2021 261.14 4884.34 3494.01 2996.09 78.00 7.00
   13:44:36.276.05-Jan-2021 261.35 4884.03 3494.01 2996.09 78.00 7.00
   13:44:36.476.05-Jan-2021 261.55 4883.75 3494.01 2996.09 78.00 7.00
   13:44:36.676.05-Jan-2021 261.75 4884.53 3494.01 2996.09 78.00 7.00
   13:44:36.876.05-Jan-2021 261.95 4884.28 3494.01 2996.09 78.00 7.00
   13:44:37.076.05-Jan-2021 262.15 4884.18 3494.01 2996.09 78.00 7.00
   13:44:37.277.05-Jan-2021 262.35 4884.18 3494.01 2996.09 78.00 7.00
   13:44:37.477.05-Jan-2021 262.55 4884.36 3494.01 2996.09 78.00 7.00
   13:44:37.677.05-Jan-2021 262.75 4884.22 3494.01 2996.09 78.00 7.00
   13:44:37.877.05-Jan-2021 262.95 4884.19 3494.01 2996.09 78.00 7.00
   13:44:38.077.05-Jan-2021 263.15 4884.38 3494.01 2996.09 78.00 7.00
   13:44:38.277.05-Jan-2021 263.35 4884.38 3494.01 2996.09 78.00 7.00
   13:44:38.477.05-Jan-2021 263.55 4884.24 3494.01 2996.09 78.00 7.00
   13:44:38.677.05-Jan-2021 263.75 4884.21 3494.01 2996.09 78.00 7.00
   13:44:38.877.05-Jan-2021 263.95 4884.15 3494.01 2996.09 78.00 7.00
   13:44:39.078.05-Jan-2021 264.15 4884.14 3494.01 2996.09 78.00 7.00
   13:44:39.278.05-Jan-2021 264.35 4884.14 3494.01 2996.09 78.00 7.00
   13:44:39.478.05-Jan-2021 264.55 4884.15 3494.01 2996.09 78.00 7.00
   13:44:39.678.05-Jan-2021 264.75 4883.95 3494.01 2996.09 78.00 7.00
   13:44:39.878.05-Jan-2021 264.95 4884.61 3494.01 2996.09 78.00 7.00
   13:44:40.078.05-Jan-2021 265.15 4884.12 3494.01 2996.09 78.00 7.00
   13:44:40.278.05-Jan-2021 265.35 4884.19 3494.01 2996.09 78.00 7.00
   13:44:40.478.05-Jan-2021 265.55 4884.25 3494.01 2996.09 78.00 7.00
   13:44:40.678.05-Jan-2021 265.75 4884.27 3494.01 2996.09 78.00 7.00
   13:44:40.879.05-Jan-2021 265.95 4884.18 3494.01 2996.09 78.00 7.00
   13:44:41.079.05-Jan-2021 266.15 4884.33 3494.01 2996.09 78.00 7.00
   13:44:41.279.05-Jan-2021 266.35 4884.33 3494.01 2996.09 78.00 7.00
   13:44:41.479.05-Jan-2021 266.55 4884.23 3494.01 2996.09 78.00 7.00
   13:44:41.679.05-Jan-2021 266.75 4884.22 3494.01 2996.09 78.00 7.00
   13:44:41.879.05-Jan-2021 266.95 4884.32 3494.01 2996.09 78.00 7.00
   13:44:42.079.05-Jan-2021 267.15 4884.03 3494.01 2996.09 78.00 7.00
   13:44:42.279.05-Jan-2021 267.35 4884.03 3494.01 2996.09 78.00 7.00
   13:44:42.479.05-Jan-2021 267.55 4884.34 3494.01 2996.09 78.00 7.00
   13:44:42.680.05-Jan-2021 267.75 4884.13 3494.01 2996.09 78.00 7.00
   13:44:42.880.05-Jan-2021 267.95 4884.30 3494.01 2996.09 78.00 7.00
   13:44:43.080.05-Jan-2021 268.15 4884.27 3494.01 2996.09 78.00 7.00
   13:44:43.280.05-Jan-2021 268.35 4884.27 3494.01 2996.09 78.00 7.00
   13:44:43.480.05-Jan-2021 268.55 4884.16 3494.01 2996.09 78.00 7.00
   13:44:43.680.05-Jan-2021 268.75 4884.19 3494.01 2996.09 78.00 7.00
   13:44:43.880.05-Jan-2021 268.95 4884.23 3494.01 2996.09 78.00 7.00
   13:44:44.080.05-Jan-2021 269.15 4884.33 3494.01 2996.09 78.00 7.00
   13:44:44.280.05-Jan-2021 269.35 4884.33 3494.01 2996.09 78.00 7.00
   13:44:44.481.05-Jan-2021 269.55 4884.38 3494.01 2996.09 78.00 7.00
   13:44:44.681.05-Jan-2021 269.75 4884.29 3494.01 2996.09 78.00 7.00
   13:44:44.881.05-Jan-2021 269.95 4884.10 3494.01 2996.09 78.00 7.00
   13:44:45.081.05-Jan-2021 270.15 4884.31 3494.01 2996.09 78.00 7.00
   13:44:45.281.05-Jan-2021 270.35 4884.31 3494.01 2996.09 78.00 7.00
   13:44:45.481.05-Jan-2021 270.55 4884.11 3494.01 2996.09 78.00 7.00
   13:44:45.681.05-Jan-2021 270.75 4884.07 3494.01 2996.09 78.00 7.00
   13:44:45.881.05-Jan-2021 270.95 4884.17 3494.01 2996.09 78.00 7.00
   13:44:46.081.05-Jan-2021 271.15 4884.41 3494.01 2996.09 78.00 7.00
   13:44:46.282.05-Jan-2021 271.35 4884.41 3494.01 2996.09 78.00 7.00
   13:44:46.482.05-Jan-2021 271.55 4884.15 3494.01 2996.09 78.01 7.00
   13:44:46.682.05-Jan-2021 271.75 4884.30 3494.01 2996.09 78.01 7.00
   13:44:46.882.05-Jan-2021 271.95 4884.31 3494.01 2996.09 78.01 7.00
   13:44:47.082.05-Jan-2021 272.15 4884.33 3494.01 2996.09 78.01 7.00
   13:44:47.282.05-Jan-2021 272.35 4884.16 3494.01 2996.09 78.01 7.00
   13:44:47.482.05-Jan-2021 272.55 4884.08 3494.01 2996.09 78.01 7.00
   13:44:47.682.05-Jan-2021 272.75 4884.44 3494.01 2996.09 78.01 7.00
   13:44:47.882.05-Jan-2021 272.95 4884.11 3494.01 2996.09 78.01 7.00
   13:44:48.083.05-Jan-2021 273.15 4883.64 3494.01 2996.09 78.01 7.00
   13:44:48.283.05-Jan-2021 273.35 4883.64 3494.01 2996.09 78.01 7.00
   13:44:48.483.05-Jan-2021 273.55 4883.64 3494.01 2996.09 78.01 7.00
   13:44:48.683.05-Jan-2021 273.75 4883.64 3494.01 2996.09 78.01 7.00
   13:44:48.883.05-Jan-2021 273.95 4884.32 3494.01 2996.09 78.01 7.00
   13:44:49.083.05-Jan-2021 274.15 4884.22 3494.01 2996.09 78.01 7.00
   13:44:49.283.05-Jan-2021 274.35 4884.12 3494.01 2996.09 78.01 7.00
   13:44:49.483.05-Jan-2021 274.55 4884.41 3494.01 2996.09 78.01 7.00
   13:44:49.683.05-Jan-2021 274.75 4884.17 3494.01 2996.09 78.01 7.00
   13:44:49.884.05-Jan-2021 274.95 4884.33 3494.01 2996.09 78.01 7.00
   13:44:50.084.05-Jan-2021 275.15 4884.31 3494.01 2996.09 78.01 7.00
   13:44:50.284.05-Jan-2021 275.35 4884.31 3494.01 2996.09 78.01 7.00
   13:44:50.484.05-Jan-2021 275.55 4884.23 3494.01 2996.09 78.01 7.00
   13:44:50.684.05-Jan-2021 275.75 4884.13 3494.01 2996.09 78.01 7.00
   13:44:50.884.05-Jan-2021 275.95 4884.20 3494.01 2996.09 78.01 7.00
