~Version Information
 VERS.                  2.0:   CWLS log ASCII Standard -VERSION 2.0
 WRAP.                   NO:   One line per depth step
~Well Information Block
#MNEM.UNIT     VALUE/NAME     DESCRIPTION
#---------     -----------    ---------------------------
 STRT.S             08:18:37 05-Jan-21: START TIME 08:18:37 05-Jan-21
 STOP.S             08:26:49 05-Jan-21: STOP TIME  08:26:49 05-Jan-21
 STEP.S                   0.00: STEP TIME
 NULL.                 -999.25: NULL VALUE
 DFWT.                        :  DIST FWL TEXT
 DFST.                        :  DIST FSL TEXT
 DMF .             Drill Floor:  DRILL MEAS FROM
 STIM.      06.00.00 31-Dec-20:  START TIME
 DATE.      05.58.24 07-Jan-21:  END TIME
 SPUD.               24-Dec-20:  SPUD DATE
 NREF.                    Grid:  NORTH REFERENCE
 HPTY.       Minimum Curvature:  HOLE POS TYPE
 DMOD.             Drill Model:  DRILL MOD DESC
 SVYD.                  Survey:  SURVEY DESC
 ILTD.               Lithology:  INTERP LTH DESC
 FTOP.          Formation Tops:  FORM TOPS DESC
 SON .        AZ-XX-0906699554:  JOB NUMBER
 WELL.                    B09z:  WELL NAME
 PDAT.          Mean Sea Level:  PERMANENT DATUM
 FLD .                     ACG:  FIELD NAME
 CTRY.              Azerbaijan:  COUNTRY NAME
 COMP.     BP Exploration (Caspian Sea) Ltd.:  COMPANY
 UWI .                     N/A:  UNIQUE WELL IDENTIFIER
 API .                     N/A:  API NUMBER
 WTYP.                Deviated:  WELL TYPE
 MDS .        Operator Entered:  MAG DATA SOURCE
 BASE.              Azerbaijan:  LOGGING EQUIPMENT BASE LOCATION
 REGN.                   EESSA:  REGION
 PROV.                    Baku:  PROVINCE
 STAT.                    Baku:  STATE NAME
 SRVC.          Turan Drilling:  CONTRACTOR
 MWDS.                    Baku:  MWD SHOP
 JOBN.        AZ-XX-0906699554:  JOB TICKET NUMB
 RIG .           Central Azeri:  RIG NAME
 DOE .                     N/A:  DOE NUMBER
 DCON.         Sperry Drilling:  DIRECTNL CONTR
 UNIT.                     N/A:  LOGGING EQUIPMENT ID
 CNTY.                        :  COUNTY
 LOC .                        :  LOCATION
 LMF .             Drill Floor:  LOG MEASURED FROM
 TVDS.m                  43.29:  TVDSS CORRECTN
 LATI.deg                40.03:  LATITUDE
 LONG.deg                51.35:  LONGITUDE
 WHNS.m                  -2.76:  WELL HEAD N/S
 WHEW.m                  -7.70:  WELL HEAD E/W
 UTMX.m              530128.28:  UTM X
 UTMY.m             4433192.49:  UTM Y
 DFWL.m                   0.00:  DISTANCE FWL
 DFSL.m                   0.00:  DISTANCE FSL
 SDEP.m                3435.01:  START DEPTH
 TDD .m                3814.01:  TOTAL DEPTH (DRILLER)
 VSDR.deg               352.80:  VERT SEC DIRECT
 GVFD.g                   1.00:  GRAVITY FIELD
 MFLD.nT              50303.00:  MAGNETIC FIELD
 MDIP.deg                59.52:  MAGNETIC DIP
 MDEC.deg                 6.47:  MAGNETIC DECL
 GRDC.deg                 0.23:  GRID CORRECTION
 AZTC.deg                 6.24:  AZM TOTAL CORR
 EPD .m                   0.00:  ELEVATION
 EGL .m                   0.00:  GROUND ELEVATION
 WDMS.m                 128.20:  WD ELEV
 APD .m                  43.29:  DEPTH ABOVE PD
 DEP .m                3421.30:  DEPTH
 AGAP.m                  43.60:  AIR GAP
 VSEW.m                  -7.70:  VERT SEC E/W
 VSNS.m                  -2.76:  VERT SEC N/S
 EKB .m                   0.00:  KB ELEVATION
 EDF .m                  43.29:  DF ELEVATION
 TDL .m                 369.00:  TOTAL DEPTH (LOGGER)
 VSC .                       0:  VS TO CLOSURE
 MAGU.                 1850390:  MAGUTM CHECKSUM
~Parameter Information Block
#MNEM.UNIT       Value        Description
#---------     -----------    ---------------------------
 AV  .mps                 2.80:  Ann Velocity 
 AVMX.mps                 4.67:  Max Ann Veloc 
 AZIF.deg               303.89:  Azm, Final 
 BHAT.        Rotary Steerable:  BHA Type 
 BREV.rev            128542.00:  Rev Bit Total 
 BROT.°/30m               1.50:  Build Rotating 
 BS  .in                  8.50:  Bit Size 
 BSZ .in                  8.50:  Bit Size 
 BTPL.psig              715.00:  Bit Press Loss 
 CABU.                      No:  Customer Abuse 
 COMM.                     ¤’i:  Run Comments 1 
 TCS .hr                 53.00:  Time Ciculation Ended 
 CV  .mps                 3.85:  Crit Velocity 
 CVMX.mps                 4.75:  Max Crit Veloc 
 DD1 .         Intigam Rahimov:  Direct Drillr 1 
 DDSV.                 iCruise:  DD Service 
 DEFF.%                  98.60:  % Det Eff 
 DLRX.°/30m               2.34:  Dogleg Rot Max 
 DLSO.°/30m               0.00:  Dogleg Oriented 
 DLSX.°/30m               0.00:  Dogleg Str Max 
 DRET.      00.15.00 05-Jan-21:  Drill End Time 
 DRST.      22.00.00 03-Jan-21:  Drill Start Tim 
 DTIM.hr                 17.72:  Time Drilling 
 EDEP.m                3814.01:  End Depth 
 ENG1.         Yevgeniy Ulikov:  Engineer 1 
 ENG2.        Farkhad Khalidov:  Engineer 2 
 ENG3.           Samir Gafarov:  Engineer 3 
 ETIM.      21.00.00 07-Jan-21:  End Time 
 FLOI.gpm               590.00:  Flow In 
 FLON.gpm               580.00:  Flow In Min 
 FLOS.cptm                1.00:  Fluid Loss 
 FLOX.gpm               595.00:  Flow In Max 
 FTRO.     Connectivity, Formation Presure:  FTWD Run Obj 
 HFLO.                      No:  High Flow 
 HPRE.                     Yes:  High Pressure 
 HTEM.                      No:  High Temp 
 HYDO.m                   1.80:  Hydro Offset 
 IFIN.deg                63.76:  Inc, Final 
 IMAX.deg                64.09:  Inc Max 
 IMIN.deg                55.81:  Inc Min 
 IMND.m                3455.62:  Inc Min Depth 
 IMXD.m                3796.03:  Inc Max Depth 
 JARR.                      No:  Jarring 
 LETM.      00.15.00 05-Jan-21:  Log End Time 
 LOST.hr                     0:  Lost Rig Time 
 LSTM.      22.00.00 03-Jan-21:  Log Start Time 
 MDCL.ppm             36000.00:  Mud Chlorides 
 MDES.     Inversion Oil/Synthetic:  Mud Desc 
 DFD .sg                  1.51:  Mud Density 
 MDMN.sg                  1.51:  Dens Mud Min 
 MDMX.sg                  1.51:  Dens Mud Max 
 MOIL.                    55.5:  Run Mud Oil % 
 MOWR.                   70:30:  Run Mud OWR 
 MSND.                     0.1:  Run Mud Sand % 
 MSOL.                   20.77:  Run Mud Solids% 
 DFV .spqt               67.00:  Mud Viscosity 
 MWOD.in                  6.75:  MWD Tool OD 
 MWSI.                      No:  Serv Intrp, MWD 
 OTIM.hr                113.53:  Time Operating 
 PCON.           Look Like New:  Pad Condition 
 PMAX.psia             4830.00:  Press Op, Max 
 PV  .cP                 29.00:  Mud PV 
 RUN .                     300:  Run Number 
 ROPA.m/hr               22.00:  ROP Avg 
 ROPN.m/hr               18.00:  ROP Min 
 ROPX.m/hr               25.00:  ROP Max 
 RPMA.rpm               130.00:  RPM Surface Avg 
 RPMN.rpm                80.00:  RPM Surface Min 
 RPMX.rpm               140.00:  RPM Surface Max 
 RRUN.                    L101:  Rig Run Number 
 RTIM.hr                  9.28:  Time Reaming 
 SAZI.deg               316.55:  Azm, Start 
 SDEP.m                3445.01:  Start Depth 
 SIDD.                      No:  Serv Intrp, DD 
 SINC.deg                55.81:  Inc, Start 
 SPPA.psig             4500.00:  SPP Avg 
 SPPN.psig             4350.00:  SPP Min 
 SPPX.psig             4830.00:  SPP Max 
 STIM.      00.00.00 03-Jan-21:  Start Time 
 SVCS.                 DD, MWD:  Services 
 SVER.                    9.20:  Sperry Version 
 TDAT.m                 369.00:  Tot Depth Attmp 
 TDDF.                      No:  Trip for DD 
 TDLG.m                 369.00:  Tot Depth Loggd 
 TFF .                      No:  Trip for Fail 
 TQAA.f-kp               15.00:  Torque Abs Avg 
 TQAN.f-kp               12.00:  Torque Abs Min 
 TQAX.f-kp               16.00:  Torque Abs Max 
 TRRT.°/30m              -2.10:  Turn Rotating 
 MRT .                    HCIM:  Maximum Recorded Temperature 
 TTMX.degC               92.16:  Max Tool Temp 
 VS01.                90627822:  Virtual Str1 SN 
 VS02.                90550008:  Virtual Str2 SN 
 VS03.                90627816:  Virtual Str3 SN 
 VS04.                90633205:  Virtual Str4 SN 
 VS05.                13033835:  Virtual Str5 SN 
 VS06.                11125125:  Virtual Str6 SN 
 WBMN.klb                 8.00:  WOB Min 
 WITN.            Bruce Cheyne:  Customer Rep 
 WITN.           Faig Mammadov:  Customer Rep 2 
 WOBA.klb                 9.00:  WOB Avg 
 WOBX.klb                12.00:  WOB Max 
 YP  .lhf2               30.00:  Yield Point 
~Curve Information Block
#MNEM.UNIT                 API CODE     Curve Description
#---------               -----------    ---------------------------
 TIME.HHMMSS            00 000 000 000:  GT Time & Date
 GTET.sec               00 000 000 000:  GT Elapsed Test Time
 GTPQH.psia             00 000 000 000:  GT HR Quartz Pressure
 GTDEPTH.m              00 000 000 000:  GT Depth
 GTTVD.m                00 000 000 000:  GT True Vertical Depth
 GTTQ.degC              00 000 000 000:  GT Quartz Temperature
 GTTN.NONE              00 000 000 000:  GT Test Number
#Other Information
#
#WARRANTY: Halliburton will use its best efforts to furnish customers with 
#accurate information and interpretations that are part of, and incident to, the services 
#provided.  However, Halliburton cannot and does not warrant the accuracy 
#or correctness of such information and interpretations.  Under no circumstances should any 
#such information or interpretation be relied upon as the sole basis for any drilling, 
#completion, production, or financial decision or any procedure involving any risk to the 
#safety of any drilling venture, drilling rig or its crew or any other third party.  The 
#Customer has full responsibility for all drilling, completion and production operation.  
#Halliburton makes no representations or warranties, either expressed or 
#implied, including, but not limited to, the implied warranties of merchantability or fitness 
#for a particular purpose, with respect to the services rendered.  In no event will 
#Halliburton be liable for failure to obtain any particular results or for 
#any damages, including, but not limited to, indirect, special or consequential damages, 
#resulting from the use of any information or interpretation provided by Halliburton.
#
~A           TIME            GTET   GTPQH  GTDEPTH  GTTVD  GTTQ  GTTN 
# ...
   08:19:00.390.05-Jan-2021  23.01 7450.07 3649.01 3076.03 80.37 5.00
   08:19:00.590.05-Jan-2021  23.21 7450.07 3649.01 3076.03 80.37 5.00
   08:19:00.790.05-Jan-2021  23.41 7449.06 3649.01 3076.03 80.37 5.00
   08:19:00.990.05-Jan-2021  23.61 7449.39 3649.01 3076.03 80.37 5.00
   08:19:01.190.05-Jan-2021  23.81 7448.87 3649.01 3076.03 80.37 5.00
   08:19:01.390.05-Jan-2021  24.01 7449.86 3649.01 3076.03 80.37 5.00
   08:19:01.590.05-Jan-2021  24.21 7449.86 3649.01 3076.03 80.37 5.00
   08:19:01.790.05-Jan-2021  24.41 7448.91 3649.01 3076.03 80.37 5.00
   08:19:01.991.05-Jan-2021  24.61 7462.05 3649.01 3076.03 80.37 5.00
   08:19:02.191.05-Jan-2021  24.81 7441.46 3649.01 3076.03 80.37 5.00
   08:19:02.391.05-Jan-2021  25.01 7450.21 3649.01 3076.03 80.37 5.00
   08:19:02.591.05-Jan-2021  25.21 7450.21 3649.01 3076.03 80.37 5.00
   08:19:02.791.05-Jan-2021  25.41 7449.32 3649.01 3076.03 80.37 5.00
   08:19:02.991.05-Jan-2021  25.61 7451.30 3649.01 3076.03 80.37 5.00
   08:19:03.191.05-Jan-2021  25.81 7450.23 3649.01 3076.03 80.37 5.00
   08:19:03.391.05-Jan-2021  26.01 7449.91 3649.01 3076.03 80.37 5.00
   08:19:03.591.05-Jan-2021  26.21 7449.91 3649.01 3076.03 80.37 5.00
   08:19:03.791.05-Jan-2021  26.41 7449.97 3649.01 3076.03 80.37 5.00
   08:19:03.991.05-Jan-2021  26.61 7450.00 3649.01 3076.03 80.37 5.00
   08:19:04.191.05-Jan-2021  26.81 7449.36 3649.01 3076.03 80.37 5.00
   08:19:04.391.05-Jan-2021  27.01 7449.31 3649.01 3076.03 80.37 5.00
   08:19:04.592.05-Jan-2021  27.21 7449.31 3649.01 3076.03 80.37 5.00
   08:19:04.792.05-Jan-2021  27.41 7454.61 3649.01 3076.03 80.37 5.00
   08:19:04.992.05-Jan-2021  27.61 7448.85 3649.01 3076.03 80.37 5.00
   08:19:05.192.05-Jan-2021  27.81 7454.33 3649.01 3076.03 80.37 5.00
   08:19:05.392.05-Jan-2021  28.01 7455.10 3649.01 3076.03 80.37 5.00
   08:19:05.592.05-Jan-2021  28.21 7452.57 3649.01 3076.03 80.37 5.00
   08:19:05.792.05-Jan-2021  28.41 7507.52 3649.01 3076.03 80.37 5.00
   08:19:05.992.05-Jan-2021  28.61 7550.53 3649.01 3076.03 80.37 5.00
   08:19:06.192.05-Jan-2021  28.81 7619.55 3649.01 3076.03 80.37 5.00
   08:19:06.392.05-Jan-2021  29.01 7640.43 3649.01 3076.03 80.37 5.00
   08:19:06.592.05-Jan-2021  29.21 7640.43 3649.01 3076.03 80.37 5.00
   08:19:06.792.05-Jan-2021  29.41 7641.44 3649.01 3076.03 80.37 5.00
   08:19:06.992.05-Jan-2021  29.61 7645.78 3649.01 3076.03 80.37 5.00
   08:19:07.192.05-Jan-2021  29.81 7645.05 3649.01 3076.03 80.37 5.00
   08:19:07.393.05-Jan-2021  30.01 7658.48 3649.01 3076.03 80.37 5.00
   08:19:07.593.05-Jan-2021  30.21 7658.48 3649.01 3076.03 80.37 5.00
   08:19:07.793.05-Jan-2021  30.41 7672.60 3649.01 3076.03 80.37 5.00
   08:19:07.993.05-Jan-2021  30.61 7649.71 3649.01 3076.03 80.37 5.00
   08:19:08.193.05-Jan-2021  30.81 7587.67 3649.01 3076.03 80.37 5.00
   08:19:08.393.05-Jan-2021  31.01 7537.61 3649.01 3076.03 80.37 5.00
   08:19:08.593.05-Jan-2021  31.21 7537.61 3649.01 3076.03 80.37 5.00
   08:19:08.793.05-Jan-2021  31.41 7437.98 3649.01 3076.03 80.37 5.00
   08:19:08.993.05-Jan-2021  31.61 7389.93 3649.01 3076.03 80.37 5.00
   08:19:09.193.05-Jan-2021  31.81 7343.02 3649.01 3076.03 80.37 5.00
   08:19:09.393.05-Jan-2021  32.01 7304.55 3649.01 3076.03 80.37 5.00
   08:19:09.593.05-Jan-2021  32.21 7278.86 3649.01 3076.03 80.37 5.00
   08:19:09.793.05-Jan-2021  32.41 7257.84 3649.01 3076.03 80.37 5.00
   08:19:09.994.05-Jan-2021  32.61 7241.16 3649.01 3076.03 80.37 5.00
   08:19:10.194.05-Jan-2021  32.81 7243.67 3649.01 3076.03 80.37 5.00
   08:19:10.394.05-Jan-2021  33.01 7254.66 3649.01 3076.03 80.37 5.00
   08:19:10.594.05-Jan-2021  33.21 7254.66 3649.01 3076.03 80.37 5.00
   08:19:10.794.05-Jan-2021  33.41 7257.03 3649.01 3076.03 80.37 5.00
   08:19:10.994.05-Jan-2021  33.61 7257.17 3649.01 3076.03 80.37 5.00
   08:19:11.194.05-Jan-2021  33.81 7257.51 3649.01 3076.03 80.37 5.00
   08:19:11.394.05-Jan-2021  34.01 7257.13 3649.01 3076.03 80.37 5.00
   08:19:11.594.05-Jan-2021  34.21 7257.13 3649.01 3076.03 80.37 5.00
   08:19:11.794.05-Jan-2021  34.41 7254.32 3649.01 3076.03 80.37 5.00
   08:19:11.994.05-Jan-2021  34.61 7251.78 3649.01 3076.03 80.37 5.00
   08:19:12.194.05-Jan-2021  34.81 7245.86 3649.01 3076.03 80.37 5.00
   08:19:12.394.05-Jan-2021  35.01 6913.92 3649.01 3076.03 80.37 5.00
   08:19:12.595.05-Jan-2021  35.21 6913.92 3649.01 3076.03 80.37 5.00
   08:19:12.795.05-Jan-2021  35.41 5632.88 3649.01 3076.03 80.37 5.00
   08:19:12.995.05-Jan-2021  35.61 4979.93 3649.01 3076.03 80.37 5.00
   08:19:13.195.05-Jan-2021  35.81 4263.29 3649.01 3076.03 80.37 5.00
   08:19:13.395.05-Jan-2021  36.01 3815.37 3649.01 3076.03 80.37 5.00
   08:19:13.595.05-Jan-2021  36.21 4098.45 3649.01 3076.03 80.37 5.00
   08:19:13.795.05-Jan-2021  36.41 4097.70 3649.01 3076.03 80.37 5.00
   08:19:13.995.05-Jan-2021  36.61 4090.53 3649.01 3076.03 80.37 5.00
   08:19:14.195.05-Jan-2021  36.81 4091.40 3649.01 3076.03 80.36 5.00
   08:19:14.395.05-Jan-2021  37.01 4093.74 3649.01 3076.03 80.36 5.00
   08:19:14.595.05-Jan-2021  37.21 4093.74 3649.01 3076.03 80.36 5.00
   08:19:14.795.05-Jan-2021  37.41 4084.25 3649.01 3076.03 80.36 5.00
   08:19:14.995.05-Jan-2021  37.61 4180.71 3649.01 3076.03 80.36 5.00
   08:19:15.195.05-Jan-2021  37.81 4176.37 3649.01 3076.03 80.35 5.00
   08:19:15.396.05-Jan-2021  38.01 4120.77 3649.01 3076.03 80.35 5.00
   08:19:15.596.05-Jan-2021  38.21 4120.77 3649.01 3076.03 80.35 5.00
   08:19:15.796.05-Jan-2021  38.41 4121.79 3649.01 3076.03 80.35 5.00
   08:19:15.996.05-Jan-2021  38.61 4083.19 3649.01 3076.03 80.34 5.00
   08:19:16.196.05-Jan-2021  38.81 4098.94 3649.01 3076.03 80.34 5.00
   08:19:16.396.05-Jan-2021  39.01 4111.87 3649.01 3076.03 80.34 5.00
   08:19:16.596.05-Jan-2021  39.21 4111.87 3649.01 3076.03 80.34 5.00
   08:19:16.796.05-Jan-2021  39.41 4110.77 3649.01 3076.03 80.33 5.00
   08:19:16.996.05-Jan-2021  39.61 4081.54 3649.01 3076.03 80.33 5.00
   08:19:17.196.05-Jan-2021  39.81 4067.33 3649.01 3076.03 80.33 5.00
   08:19:17.396.05-Jan-2021  40.01 4064.84 3649.01 3076.03 80.32 5.00
   08:19:17.596.05-Jan-2021  40.21 4090.55 3649.01 3076.03 80.32 5.00
   08:19:17.796.05-Jan-2021  40.42 4064.32 3649.01 3076.03 80.32 5.00
   08:19:17.997.05-Jan-2021  40.62 4079.65 3649.01 3076.03 80.32 5.00
   08:19:18.197.05-Jan-2021  40.82 4078.73 3649.01 3076.03 80.31 5.00
   08:19:18.397.05-Jan-2021  41.02 4057.73 3649.01 3076.03 80.31 5.00
   08:19:18.597.05-Jan-2021  41.22 4057.73 3649.01 3076.03 80.31 5.00
   08:19:18.797.05-Jan-2021  41.42 4098.78 3649.01 3076.03 80.31 5.00
   08:19:18.997.05-Jan-2021  41.62 4066.29 3649.01 3076.03 80.30 5.00
   08:19:19.197.05-Jan-2021  41.82 4060.64 3649.01 3076.03 80.30 5.00
   08:19:19.397.05-Jan-2021  42.02 4061.39 3649.01 3076.03 80.30 5.00
   08:19:19.597.05-Jan-2021  42.22 4061.39 3649.01 3076.03 80.30 5.00
   08:19:19.797.05-Jan-2021  42.42 4063.24 3649.01 3076.03 80.30 5.00
   08:19:19.997.05-Jan-2021  42.62 4040.18 3649.01 3076.03 80.30 5.00
   08:19:20.197.05-Jan-2021  42.82 4099.19 3649.01 3076.03 80.29 5.00
   08:19:20.397.05-Jan-2021  43.02 4115.91 3649.01 3076.03 80.29 5.00
   08:19:20.597.05-Jan-2021  43.22 4115.91 3649.01 3076.03 80.29 5.00
   08:19:20.798.05-Jan-2021  43.42 4120.91 3649.01 3076.03 80.29 5.00
   08:19:20.998.05-Jan-2021  43.62 4097.29 3649.01 3076.03 80.29 5.00
   08:19:21.198.05-Jan-2021  43.82 4298.37 3649.01 3076.03 80.29 5.00
   08:19:21.398.05-Jan-2021  44.02 4407.31 3649.01 3076.03 80.29 5.00
   08:19:21.598.05-Jan-2021  44.22 4407.31 3649.01 3076.03 80.29 5.00
   08:19:21.798.05-Jan-2021  44.42 4449.65 3649.01 3076.03 80.28 5.00
   08:19:21.998.05-Jan-2021  44.62 4452.23 3649.01 3076.03 80.28 5.00
   08:19:22.198.05-Jan-2021  44.82 4452.97 3649.01 3076.03 80.28 5.00
   08:19:22.398.05-Jan-2021  45.02 4453.84 3649.01 3076.03 80.28 5.00
   08:19:22.598.05-Jan-2021  45.22 4453.84 3649.01 3076.03 80.28 5.00
   08:19:22.798.05-Jan-2021  45.42 4453.90 3649.01 3076.03 80.28 5.00
   08:19:22.998.05-Jan-2021  45.62 4453.92 3649.01 3076.03 80.28 5.00
   08:19:23.198.05-Jan-2021  45.82 4454.15 3649.01 3076.03 80.28 5.00
