~Version Information
 VERS.                  2.0:   CWLS log ASCII Standard -VERSION 2.0
 WRAP.                   NO:   One line per depth step
~Well Information Block
#MNEM.UNIT     VALUE/NAME     DESCRIPTION
#---------     -----------    ---------------------------
 STRT.S             06:03:00 05-Jan-21: START TIME 06:03:00 05-Jan-21
 STOP.S             06:11:11 05-Jan-21: STOP TIME  06:11:11 05-Jan-21
 STEP.S                   0.00: STEP TIME
 NULL.                 -999.25: NULL VALUE
 DFWT.                        :  DIST FWL TEXT
 DFST.                        :  DIST FSL TEXT
 DMF .             Drill Floor:  DRILL MEAS FROM
 STIM.      06.00.00 31-Dec-20:  START TIME
 DATE.      05.58.24 07-Jan-21:  END TIME
 SPUD.               24-Dec-20:  SPUD DATE
 NREF.                    Grid:  NORTH REFERENCE
 HPTY.       Minimum Curvature:  HOLE POS TYPE
 DMOD.             Drill Model:  DRILL MOD DESC
 SVYD.                  Survey:  SURVEY DESC
 ILTD.               Lithology:  INTERP LTH DESC
 FTOP.          Formation Tops:  FORM TOPS DESC
 SON .        AZ-XX-0906699554:  JOB NUMBER
 WELL.                    B09z:  WELL NAME
 PDAT.          Mean Sea Level:  PERMANENT DATUM
 FLD .                     ACG:  FIELD NAME
 CTRY.              Azerbaijan:  COUNTRY NAME
 COMP.     BP Exploration (Caspian Sea) Ltd.:  COMPANY
 UWI .                     N/A:  UNIQUE WELL IDENTIFIER
 API .                     N/A:  API NUMBER
 WTYP.                Deviated:  WELL TYPE
 MDS .        Operator Entered:  MAG DATA SOURCE
 BASE.              Azerbaijan:  LOGGING EQUIPMENT BASE LOCATION
 REGN.                   EESSA:  REGION
 PROV.                    Baku:  PROVINCE
 STAT.                    Baku:  STATE NAME
 SRVC.          Turan Drilling:  CONTRACTOR
 MWDS.                    Baku:  MWD SHOP
 JOBN.        AZ-XX-0906699554:  JOB TICKET NUMB
 RIG .           Central Azeri:  RIG NAME
 DOE .                     N/A:  DOE NUMBER
 DCON.         Sperry Drilling:  DIRECTNL CONTR
 UNIT.                     N/A:  LOGGING EQUIPMENT ID
 CNTY.                        :  COUNTY
 LOC .                        :  LOCATION
 LMF .             Drill Floor:  LOG MEASURED FROM
 TVDS.m                  43.29:  TVDSS CORRECTN
 LATI.deg                40.03:  LATITUDE
 LONG.deg                51.35:  LONGITUDE
 WHNS.m                  -2.76:  WELL HEAD N/S
 WHEW.m                  -7.70:  WELL HEAD E/W
 UTMX.m              530128.28:  UTM X
 UTMY.m             4433192.49:  UTM Y
 DFWL.m                   0.00:  DISTANCE FWL
 DFSL.m                   0.00:  DISTANCE FSL
 SDEP.m                3435.01:  START DEPTH
 TDD .m                3814.01:  TOTAL DEPTH (DRILLER)
 VSDR.deg               352.80:  VERT SEC DIRECT
 GVFD.g                   1.00:  GRAVITY FIELD
 MFLD.nT              50303.00:  MAGNETIC FIELD
 MDIP.deg                59.52:  MAGNETIC DIP
 MDEC.deg                 6.47:  MAGNETIC DECL
 GRDC.deg                 0.23:  GRID CORRECTION
 AZTC.deg                 6.24:  AZM TOTAL CORR
 EPD .m                   0.00:  ELEVATION
 EGL .m                   0.00:  GROUND ELEVATION
 WDMS.m                 128.20:  WD ELEV
 APD .m                  43.29:  DEPTH ABOVE PD
 DEP .m                3421.30:  DEPTH
 AGAP.m                  43.60:  AIR GAP
 VSEW.m                  -7.70:  VERT SEC E/W
 VSNS.m                  -2.76:  VERT SEC N/S
 EKB .m                   0.00:  KB ELEVATION
 EDF .m                  43.29:  DF ELEVATION
 TDL .m                 369.00:  TOTAL DEPTH (LOGGER)
 VSC .                       0:  VS TO CLOSURE
 MAGU.                 1850390:  MAGUTM CHECKSUM
~Parameter Information Block
#MNEM.UNIT       Value        Description
#---------     -----------    ---------------------------
 AV  .mps                 2.80:  Ann Velocity 
 AVMX.mps                 4.67:  Max Ann Veloc 
 AZIF.deg               303.89:  Azm, Final 
 BHAT.        Rotary Steerable:  BHA Type 
 BREV.rev            128542.00:  Rev Bit Total 
 BROT.°/30m               1.50:  Build Rotating 
 BS  .in                  8.50:  Bit Size 
 BSZ .in                  8.50:  Bit Size 
 BTPL.psig              715.00:  Bit Press Loss 
 CABU.                      No:  Customer Abuse 
 COMM.                     t‘v:  Run Comments 1 
 TCS .hr                 53.00:  Time Ciculation Ended 
 CV  .mps                 3.85:  Crit Velocity 
 CVMX.mps                 4.75:  Max Crit Veloc 
 DD1 .         Intigam Rahimov:  Direct Drillr 1 
 DDSV.                 iCruise:  DD Service 
 DEFF.%                  98.60:  % Det Eff 
 DLRX.°/30m               2.34:  Dogleg Rot Max 
 DLSO.°/30m               0.00:  Dogleg Oriented 
 DLSX.°/30m               0.00:  Dogleg Str Max 
 DRET.      00.15.00 05-Jan-21:  Drill End Time 
 DRST.      22.00.00 03-Jan-21:  Drill Start Tim 
 DTIM.hr                 17.72:  Time Drilling 
 EDEP.m                3814.01:  End Depth 
 ENG1.         Yevgeniy Ulikov:  Engineer 1 
 ENG2.        Farkhad Khalidov:  Engineer 2 
 ENG3.           Samir Gafarov:  Engineer 3 
 ETIM.      21.00.00 07-Jan-21:  End Time 
 FLOI.gpm               590.00:  Flow In 
 FLON.gpm               580.00:  Flow In Min 
 FLOS.cptm                1.00:  Fluid Loss 
 FLOX.gpm               595.00:  Flow In Max 
 FTRO.     Connectivity, Formation Presure:  FTWD Run Obj 
 HFLO.                      No:  High Flow 
 HPRE.                     Yes:  High Pressure 
 HTEM.                      No:  High Temp 
 HYDO.m                   1.80:  Hydro Offset 
 IFIN.deg                63.76:  Inc, Final 
 IMAX.deg                64.09:  Inc Max 
 IMIN.deg                55.81:  Inc Min 
 IMND.m                3455.62:  Inc Min Depth 
 IMXD.m                3796.03:  Inc Max Depth 
 JARR.                      No:  Jarring 
 LETM.      00.15.00 05-Jan-21:  Log End Time 
 LOST.hr                     0:  Lost Rig Time 
 LSTM.      22.00.00 03-Jan-21:  Log Start Time 
 MDCL.ppm             36000.00:  Mud Chlorides 
 MDES.     Inversion Oil/Synthetic:  Mud Desc 
 DFD .sg                  1.51:  Mud Density 
 MDMN.sg                  1.51:  Dens Mud Min 
 MDMX.sg                  1.51:  Dens Mud Max 
 MOIL.                    55.5:  Run Mud Oil % 
 MOWR.                   70:30:  Run Mud OWR 
 MSND.                     0.1:  Run Mud Sand % 
 MSOL.                   20.77:  Run Mud Solids% 
 DFV .spqt               67.00:  Mud Viscosity 
 MWOD.in                  6.75:  MWD Tool OD 
 MWSI.                      No:  Serv Intrp, MWD 
 OTIM.hr                113.53:  Time Operating 
 PCON.           Look Like New:  Pad Condition 
 PMAX.psia             4830.00:  Press Op, Max 
 PV  .cP                 29.00:  Mud PV 
 RUN .                     300:  Run Number 
 ROPA.m/hr               22.00:  ROP Avg 
 ROPN.m/hr               18.00:  ROP Min 
 ROPX.m/hr               25.00:  ROP Max 
 RPMA.rpm               130.00:  RPM Surface Avg 
 RPMN.rpm                80.00:  RPM Surface Min 
 RPMX.rpm               140.00:  RPM Surface Max 
 RRUN.                    L101:  Rig Run Number 
 RTIM.hr                  9.28:  Time Reaming 
 SAZI.deg               316.55:  Azm, Start 
 SDEP.m                3445.01:  Start Depth 
 SIDD.                      No:  Serv Intrp, DD 
 SINC.deg                55.81:  Inc, Start 
 SPPA.psig             4500.00:  SPP Avg 
 SPPN.psig             4350.00:  SPP Min 
 SPPX.psig             4830.00:  SPP Max 
 STIM.      00.00.00 03-Jan-21:  Start Time 
 SVCS.                 DD, MWD:  Services 
 SVER.                    9.20:  Sperry Version 
 TDAT.m                 369.00:  Tot Depth Attmp 
 TDDF.                      No:  Trip for DD 
 TDLG.m                 369.00:  Tot Depth Loggd 
 TFF .                      No:  Trip for Fail 
 TQAA.f-kp               15.00:  Torque Abs Avg 
 TQAN.f-kp               12.00:  Torque Abs Min 
 TQAX.f-kp               16.00:  Torque Abs Max 
 TRRT.°/30m              -2.10:  Turn Rotating 
 MRT .                    HCIM:  Maximum Recorded Temperature 
 TTMX.degC               92.16:  Max Tool Temp 
 VS01.                90627822:  Virtual Str1 SN 
 VS02.                90550008:  Virtual Str2 SN 
 VS03.                90627816:  Virtual Str3 SN 
 VS04.                90633205:  Virtual Str4 SN 
 VS05.                13033835:  Virtual Str5 SN 
 VS06.                11125125:  Virtual Str6 SN 
 WBMN.klb                 8.00:  WOB Min 
 WITN.            Bruce Cheyne:  Customer Rep 
 WITN.           Faig Mammadov:  Customer Rep 2 
 WOBA.klb                 9.00:  WOB Avg 
 WOBX.klb                12.00:  WOB Max 
 YP  .lhf2               30.00:  Yield Point 
~Curve Information Block
#MNEM.UNIT                 API CODE     Curve Description
#---------               -----------    ---------------------------
 TIME.HHMMSS            00 000 000 000:  GT Time & Date
 GTET.sec               00 000 000 000:  GT Elapsed Test Time
 GTPQH.psia             00 000 000 000:  GT HR Quartz Pressure
 GTDEPTH.m              00 000 000 000:  GT Depth
 GTTVD.m                00 000 000 000:  GT True Vertical Depth
 GTTQ.degC              00 000 000 000:  GT Quartz Temperature
 GTTN.NONE              00 000 000 000:  GT Test Number
#Other Information
#
#WARRANTY: Halliburton will use its best efforts to furnish customers with 
#accurate information and interpretations that are part of, and incident to, the services 
#provided.  However, Halliburton cannot and does not warrant the accuracy 
#or correctness of such information and interpretations.  Under no circumstances should any 
#such information or interpretation be relied upon as the sole basis for any drilling, 
#completion, production, or financial decision or any procedure involving any risk to the 
#safety of any drilling venture, drilling rig or its crew or any other third party.  The 
#Customer has full responsibility for all drilling, completion and production operation.  
#Halliburton makes no representations or warranties, either expressed or 
#implied, including, but not limited to, the implied warranties of merchantability or fitness 
#for a particular purpose, with respect to the services rendered.  In no event will 
#Halliburton be liable for failure to obtain any particular results or for 
#any damages, including, but not limited to, indirect, special or consequential damages, 
#resulting from the use of any information or interpretation provided by Halliburton.
#
~A           TIME            GTET   GTPQH  GTDEPTH  GTTVD  GTTQ  GTTN 
# ...
   06:10:40.000.05-Jan-2021 460.00 7509.50 3750.01 3121.90 84.42 3.00
   06:10:40.200.05-Jan-2021 460.20 7509.50 3750.01 3121.90 84.42 3.00
   06:10:40.400.05-Jan-2021 460.40 7509.22 3750.01 3121.90 84.42 3.00
   06:10:40.600.05-Jan-2021 460.60 7509.34 3750.01 3121.90 84.42 3.00
   06:10:40.800.05-Jan-2021 460.80 7513.46 3750.01 3121.90 84.42 3.00
   06:10:41.000.05-Jan-2021 461.00 7511.62 3750.01 3121.90 84.42 3.00
   06:10:41.200.05-Jan-2021 461.20 7511.62 3750.01 3121.90 84.42 3.00
   06:10:41.400.05-Jan-2021 461.40 7515.48 3750.01 3121.90 84.42 3.00
   06:10:41.600.05-Jan-2021 461.60 7513.58 3750.01 3121.90 84.42 3.00
   06:10:41.800.05-Jan-2021 461.80 7506.97 3750.01 3121.90 84.42 3.00
   06:10:42.000.05-Jan-2021 462.00 7516.39 3750.01 3121.90 84.42 3.00
   06:10:42.200.05-Jan-2021 462.20 7516.39 3750.01 3121.90 84.42 3.00
   06:10:42.400.05-Jan-2021 462.40 7507.51 3750.01 3121.90 84.42 3.00
   06:10:42.600.05-Jan-2021 462.60 7509.50 3750.01 3121.90 84.42 3.00
   06:10:42.800.05-Jan-2021 462.80 7520.13 3750.01 3121.90 84.42 3.00
   06:10:43.000.05-Jan-2021 463.00 7511.14 3750.01 3121.90 84.42 3.00
   06:10:43.200.05-Jan-2021 463.20 7511.14 3750.01 3121.90 84.42 3.00
   06:10:43.400.05-Jan-2021 463.40 7509.14 3750.01 3121.90 84.42 3.00
   06:10:43.600.05-Jan-2021 463.60 7528.23 3750.01 3121.90 84.42 3.00
   06:10:43.800.05-Jan-2021 463.80 7507.11 3750.01 3121.90 84.42 3.00
   06:10:44.000.05-Jan-2021 464.00 7510.33 3750.01 3121.90 84.42 3.00
   06:10:44.200.05-Jan-2021 464.20 7510.33 3750.01 3121.90 84.42 3.00
   06:10:44.400.05-Jan-2021 464.40 7514.33 3750.01 3121.90 84.42 3.00
   06:10:44.600.05-Jan-2021 464.60 7513.98 3750.01 3121.90 84.42 3.00
   06:10:44.800.05-Jan-2021 464.80 7512.76 3750.01 3121.90 84.42 3.00
   06:10:45.000.05-Jan-2021 465.00 7511.05 3750.01 3121.90 84.42 3.00
   06:10:45.200.05-Jan-2021 465.20 7511.05 3750.01 3121.90 84.42 3.00
   06:10:45.400.05-Jan-2021 465.40 7513.02 3750.01 3121.90 84.42 3.00
   06:10:45.600.05-Jan-2021 465.60 7511.48 3750.01 3121.90 84.42 3.00
   06:10:45.800.05-Jan-2021 465.80 7510.58 3750.01 3121.90 84.42 3.00
   06:10:46.000.05-Jan-2021 466.00 7510.03 3750.01 3121.90 84.42 3.00
   06:10:46.200.05-Jan-2021 466.20 7510.03 3750.01 3121.90 84.42 3.00
   06:10:46.400.05-Jan-2021 466.40 7510.57 3750.01 3121.90 84.42 3.00
   06:10:46.600.05-Jan-2021 466.60 7513.52 3750.01 3121.90 84.42 3.00
   06:10:46.800.05-Jan-2021 466.80 7509.38 3750.01 3121.90 84.42 3.00
   06:10:47.000.05-Jan-2021 467.00 7509.43 3750.01 3121.90 84.42 3.00
   06:10:47.200.05-Jan-2021 467.20 7509.43 3750.01 3121.90 84.42 3.00
   06:10:47.400.05-Jan-2021 467.40 7511.49 3750.01 3121.90 84.41 3.00
   06:10:47.600.05-Jan-2021 467.60 7510.45 3750.01 3121.90 84.41 3.00
   06:10:47.800.05-Jan-2021 467.80 7508.69 3750.01 3121.90 84.41 3.00
   06:10:48.000.05-Jan-2021 468.00 7510.74 3750.01 3121.90 84.41 3.00
   06:10:48.200.05-Jan-2021 468.20 7510.74 3750.01 3121.90 84.41 3.00
   06:10:48.400.05-Jan-2021 468.40 7508.76 3750.01 3121.90 84.41 3.00
   06:10:48.600.05-Jan-2021 468.60 7509.17 3750.01 3121.90 84.41 3.00
   06:10:48.800.05-Jan-2021 468.80 7509.45 3750.01 3121.90 84.41 3.00
   06:10:49.000.05-Jan-2021 469.00 7508.08 3750.01 3121.90 84.41 3.00
   06:10:49.200.05-Jan-2021 469.20 7508.08 3750.01 3121.90 84.41 3.00
   06:10:49.400.05-Jan-2021 469.40 7506.83 3750.01 3121.90 84.41 3.00
   06:10:49.600.05-Jan-2021 469.60 7507.36 3750.01 3121.90 84.41 3.00
   06:10:49.800.05-Jan-2021 469.80 7512.04 3750.01 3121.90 84.41 3.00
   06:10:50.000.05-Jan-2021 470.00 7514.69 3750.01 3121.90 84.41 3.00
   06:10:50.200.05-Jan-2021 470.20 7514.69 3750.01 3121.90 84.41 3.00
   06:10:50.400.05-Jan-2021 470.40 7512.32 3750.01 3121.90 84.41 3.00
   06:10:50.600.05-Jan-2021 470.60 7509.96 3750.01 3121.90 84.41 3.00
   06:10:50.800.05-Jan-2021 470.80 7508.10 3750.01 3121.90 84.41 3.00
   06:10:51.000.05-Jan-2021 471.00 7511.67 3750.01 3121.90 84.41 3.00
   06:10:51.200.05-Jan-2021 471.20 7511.67 3750.01 3121.90 84.41 3.00
   06:10:51.400.05-Jan-2021 471.40 7520.90 3750.01 3121.90 84.41 3.00
   06:10:51.600.05-Jan-2021 471.60 7507.06 3750.01 3121.90 84.41 3.00
   06:10:51.800.05-Jan-2021 471.80 7508.89 3750.01 3121.90 84.41 3.00
   06:10:52.000.05-Jan-2021 472.00 7509.76 3750.01 3121.90 84.41 3.00
   06:10:52.200.05-Jan-2021 472.20 7509.76 3750.01 3121.90 84.41 3.00
   06:10:52.400.05-Jan-2021 472.40 7515.48 3750.01 3121.90 84.41 3.00
   06:10:52.600.05-Jan-2021 472.60 7509.28 3750.01 3121.90 84.41 3.00
   06:10:52.800.05-Jan-2021 472.80 7509.50 3750.01 3121.90 84.41 3.00
   06:10:53.000.05-Jan-2021 473.00 7514.49 3750.01 3121.90 84.41 3.00
   06:10:53.200.05-Jan-2021 473.20 7514.49 3750.01 3121.90 84.41 3.00
   06:10:53.400.05-Jan-2021 473.40 7510.78 3750.01 3121.90 84.41 3.00
   06:10:53.600.05-Jan-2021 473.60 7509.91 3750.01 3121.90 84.41 3.00
   06:10:53.800.05-Jan-2021 473.80 7511.53 3750.01 3121.90 84.41 3.00
   06:10:54.000.05-Jan-2021 474.00 7510.27 3750.01 3121.90 84.41 3.00
   06:10:54.200.05-Jan-2021 474.20 7510.27 3750.01 3121.90 84.41 3.00
   06:10:54.400.05-Jan-2021 474.40 7509.41 3750.01 3121.90 84.41 3.00
   06:10:54.600.05-Jan-2021 474.60 7509.82 3750.01 3121.90 84.41 3.00
   06:10:54.800.05-Jan-2021 474.80 7510.00 3750.01 3121.90 84.41 3.00
   06:10:55.000.05-Jan-2021 475.00 7521.69 3750.01 3121.90 84.41 3.00
   06:10:55.200.05-Jan-2021 475.20 7521.69 3750.01 3121.90 84.41 3.00
   06:10:55.400.05-Jan-2021 475.40 7508.60 3750.01 3121.90 84.41 3.00
   06:10:55.600.05-Jan-2021 475.60 7509.41 3750.01 3121.90 84.41 3.00
   06:10:55.800.05-Jan-2021 475.80 7513.62 3750.01 3121.90 84.40 3.00
   06:10:56.000.05-Jan-2021 476.00 7512.18 3750.01 3121.90 84.40 3.00
   06:10:56.200.05-Jan-2021 476.20 7512.18 3750.01 3121.90 84.40 3.00
   06:10:56.400.05-Jan-2021 476.40 7510.48 3750.01 3121.90 84.40 3.00
   06:10:56.600.05-Jan-2021 476.60 7511.65 3750.01 3121.90 84.40 3.00
   06:10:56.800.05-Jan-2021 476.80 7510.21 3750.01 3121.90 84.40 3.00
   06:10:57.000.05-Jan-2021 477.00 7509.92 3750.01 3121.90 84.40 3.00
   06:10:57.200.05-Jan-2021 477.20 7509.92 3750.01 3121.90 84.40 3.00
   06:10:57.400.05-Jan-2021 477.40 7508.63 3750.01 3121.90 84.40 3.00
   06:10:57.600.05-Jan-2021 477.60 7509.74 3750.01 3121.90 84.40 3.00
   06:10:57.800.05-Jan-2021 477.80 7515.97 3750.01 3121.90 84.40 3.00
   06:10:58.000.05-Jan-2021 478.00 7511.94 3750.01 3121.90 84.40 3.00
   06:10:58.200.05-Jan-2021 478.20 7511.94 3750.01 3121.90 84.40 3.00
   06:10:58.400.05-Jan-2021 478.40 7511.81 3750.01 3121.90 84.40 3.00
   06:10:58.600.05-Jan-2021 478.60 7511.43 3750.01 3121.90 84.40 3.00
   06:10:58.800.05-Jan-2021 478.80 7521.59 3750.01 3121.90 84.40 3.00
   06:10:59.000.05-Jan-2021 479.00 7509.78 3750.01 3121.90 84.40 3.00
   06:10:59.200.05-Jan-2021 479.20 7509.78 3750.01 3121.90 84.40 3.00
   06:10:59.400.05-Jan-2021 479.40 7508.91 3750.01 3121.90 84.40 3.00
   06:10:59.600.05-Jan-2021 479.60 7513.28 3750.01 3121.90 84.40 3.00
   06:10:59.800.05-Jan-2021 479.80 7511.51 3750.01 3121.90 84.40 3.00
   06:11:00.000.05-Jan-2021 480.00 7515.38 3750.01 3121.90 84.40 3.00
   06:11:00.200.05-Jan-2021 480.20 7515.38 3750.01 3121.90 84.40 3.00
   06:11:00.400.05-Jan-2021 480.40 7508.78 3750.01 3121.90 84.40 3.00
   06:11:00.600.05-Jan-2021 480.60 7518.76 3750.01 3121.90 84.40 3.00
   06:11:00.800.05-Jan-2021 480.80 7515.58 3750.01 3121.90 84.40 3.00
   06:11:01.000.05-Jan-2021 481.00 7508.83 3750.01 3121.90 84.40 3.00
   06:11:01.200.05-Jan-2021 481.20 7508.83 3750.01 3121.90 84.40 3.00
   06:11:01.400.05-Jan-2021 481.40 7511.97 3750.01 3121.90 84.40 3.00
   06:11:01.600.05-Jan-2021 481.60 7511.62 3750.01 3121.90 84.40 3.00
   06:11:01.800.05-Jan-2021 481.80 7511.24 3750.01 3121.90 84.40 3.00
   06:11:02.000.05-Jan-2021 482.00 7509.11 3750.01 3121.90 84.40 3.00
   06:11:02.200.05-Jan-2021 482.20 7509.11 3750.01 3121.90 84.40 3.00
   06:11:02.400.05-Jan-2021 482.40 7510.44 3750.01 3121.90 84.40 3.00
   06:11:02.600.05-Jan-2021 482.60 7510.03 3750.01 3121.90 84.40 3.00
   06:11:02.800.05-Jan-2021 482.80 7509.05 3750.01 3121.90 84.40 3.00
