~Version Information
 VERS.                  2.0:   CWLS log ASCII Standard -VERSION 2.0
 WRAP.                   NO:   One line per depth step
~Well Information Block
#MNEM.UNIT     VALUE/NAME     DESCRIPTION
#---------     -----------    ---------------------------
 STRT.S             07:28:27 05-Jan-21: START TIME 07:28:27 05-Jan-21
 STOP.S             07:36:40 05-Jan-21: STOP TIME  07:36:40 05-Jan-21
 STEP.S                   0.00: STEP TIME
 NULL.                 -999.25: NULL VALUE
 DFWT.                        :  DIST FWL TEXT
 DFST.                        :  DIST FSL TEXT
 DMF .             Drill Floor:  DRILL MEAS FROM
 STIM.      06.00.00 31-Dec-20:  START TIME
 DATE.      05.58.24 07-Jan-21:  END TIME
 SPUD.               24-Dec-20:  SPUD DATE
 NREF.                    Grid:  NORTH REFERENCE
 HPTY.       Minimum Curvature:  HOLE POS TYPE
 DMOD.             Drill Model:  DRILL MOD DESC
 SVYD.                  Survey:  SURVEY DESC
 ILTD.               Lithology:  INTERP LTH DESC
 FTOP.          Formation Tops:  FORM TOPS DESC
 SON .        AZ-XX-0906699554:  JOB NUMBER
 WELL.                    B09z:  WELL NAME
 PDAT.          Mean Sea Level:  PERMANENT DATUM
 FLD .                     ACG:  FIELD NAME
 CTRY.              Azerbaijan:  COUNTRY NAME
 COMP.     BP Exploration (Caspian Sea) Ltd.:  COMPANY
 UWI .                     N/A:  UNIQUE WELL IDENTIFIER
 API .                     N/A:  API NUMBER
 WTYP.                Deviated:  WELL TYPE
 MDS .        Operator Entered:  MAG DATA SOURCE
 BASE.              Azerbaijan:  LOGGING EQUIPMENT BASE LOCATION
 REGN.                   EESSA:  REGION
 PROV.                    Baku:  PROVINCE
 STAT.                    Baku:  STATE NAME
 SRVC.          Turan Drilling:  CONTRACTOR
 MWDS.                    Baku:  MWD SHOP
 JOBN.        AZ-XX-0906699554:  JOB TICKET NUMB
 RIG .           Central Azeri:  RIG NAME
 DOE .                     N/A:  DOE NUMBER
 DCON.         Sperry Drilling:  DIRECTNL CONTR
 UNIT.                     N/A:  LOGGING EQUIPMENT ID
 CNTY.                        :  COUNTY
 LOC .                        :  LOCATION
 LMF .             Drill Floor:  LOG MEASURED FROM
 TVDS.m                  43.29:  TVDSS CORRECTN
 LATI.deg                40.03:  LATITUDE
 LONG.deg                51.35:  LONGITUDE
 WHNS.m                  -2.76:  WELL HEAD N/S
 WHEW.m                  -7.70:  WELL HEAD E/W
 UTMX.m              530128.28:  UTM X
 UTMY.m             4433192.49:  UTM Y
 DFWL.m                   0.00:  DISTANCE FWL
 DFSL.m                   0.00:  DISTANCE FSL
 SDEP.m                3435.01:  START DEPTH
 TDD .m                3814.01:  TOTAL DEPTH (DRILLER)
 VSDR.deg               352.80:  VERT SEC DIRECT
 GVFD.g                   1.00:  GRAVITY FIELD
 MFLD.nT              50303.00:  MAGNETIC FIELD
 MDIP.deg                59.52:  MAGNETIC DIP
 MDEC.deg                 6.47:  MAGNETIC DECL
 GRDC.deg                 0.23:  GRID CORRECTION
 AZTC.deg                 6.24:  AZM TOTAL CORR
 EPD .m                   0.00:  ELEVATION
 EGL .m                   0.00:  GROUND ELEVATION
 WDMS.m                 128.20:  WD ELEV
 APD .m                  43.29:  DEPTH ABOVE PD
 DEP .m                3421.30:  DEPTH
 AGAP.m                  43.60:  AIR GAP
 VSEW.m                  -7.70:  VERT SEC E/W
 VSNS.m                  -2.76:  VERT SEC N/S
 EKB .m                   0.00:  KB ELEVATION
 EDF .m                  43.29:  DF ELEVATION
 TDL .m                 369.00:  TOTAL DEPTH (LOGGER)
 VSC .                       0:  VS TO CLOSURE
 MAGU.                 1850390:  MAGUTM CHECKSUM
~Parameter Information Block
#MNEM.UNIT       Value        Description
#---------     -----------    ---------------------------
 AV  .mps                 2.80:  Ann Velocity 
 AVMX.mps                 4.67:  Max Ann Veloc 
 AZIF.deg               303.89:  Azm, Final 
 BHAT.        Rotary Steerable:  BHA Type 
 BREV.rev            128542.00:  Rev Bit Total 
 BROT.°/30m               1.50:  Build Rotating 
 BS  .in                  8.50:  Bit Size 
 BSZ .in                  8.50:  Bit Size 
 BTPL.psig              715.00:  Bit Press Loss 
 CABU.                      No:  Customer Abuse 
 COMM.                     ÜNb:  Run Comments 1 
 TCS .hr                 53.00:  Time Ciculation Ended 
 CV  .mps                 3.85:  Crit Velocity 
 CVMX.mps                 4.75:  Max Crit Veloc 
 DD1 .         Intigam Rahimov:  Direct Drillr 1 
 DDSV.                 iCruise:  DD Service 
 DEFF.%                  98.60:  % Det Eff 
 DLRX.°/30m               2.34:  Dogleg Rot Max 
 DLSO.°/30m               0.00:  Dogleg Oriented 
 DLSX.°/30m               0.00:  Dogleg Str Max 
 DRET.      00.15.00 05-Jan-21:  Drill End Time 
 DRST.      22.00.00 03-Jan-21:  Drill Start Tim 
 DTIM.hr                 17.72:  Time Drilling 
 EDEP.m                3814.01:  End Depth 
 ENG1.         Yevgeniy Ulikov:  Engineer 1 
 ENG2.        Farkhad Khalidov:  Engineer 2 
 ENG3.           Samir Gafarov:  Engineer 3 
 ETIM.      21.00.00 07-Jan-21:  End Time 
 FLOI.gpm               590.00:  Flow In 
 FLON.gpm               580.00:  Flow In Min 
 FLOS.cptm                1.00:  Fluid Loss 
 FLOX.gpm               595.00:  Flow In Max 
 FTRO.     Connectivity, Formation Presure:  FTWD Run Obj 
 HFLO.                      No:  High Flow 
 HPRE.                     Yes:  High Pressure 
 HTEM.                      No:  High Temp 
 HYDO.m                   1.80:  Hydro Offset 
 IFIN.deg                63.76:  Inc, Final 
 IMAX.deg                64.09:  Inc Max 
 IMIN.deg                55.81:  Inc Min 
 IMND.m                3455.62:  Inc Min Depth 
 IMXD.m                3796.03:  Inc Max Depth 
 JARR.                      No:  Jarring 
 LETM.      00.15.00 05-Jan-21:  Log End Time 
 LOST.hr                     0:  Lost Rig Time 
 LSTM.      22.00.00 03-Jan-21:  Log Start Time 
 MDCL.ppm             36000.00:  Mud Chlorides 
 MDES.     Inversion Oil/Synthetic:  Mud Desc 
 DFD .sg                  1.51:  Mud Density 
 MDMN.sg                  1.51:  Dens Mud Min 
 MDMX.sg                  1.51:  Dens Mud Max 
 MOIL.                    55.5:  Run Mud Oil % 
 MOWR.                   70:30:  Run Mud OWR 
 MSND.                     0.1:  Run Mud Sand % 
 MSOL.                   20.77:  Run Mud Solids% 
 DFV .spqt               67.00:  Mud Viscosity 
 MWOD.in                  6.75:  MWD Tool OD 
 MWSI.                      No:  Serv Intrp, MWD 
 OTIM.hr                113.53:  Time Operating 
 PCON.           Look Like New:  Pad Condition 
 PMAX.psia             4830.00:  Press Op, Max 
 PV  .cP                 29.00:  Mud PV 
 RUN .                     300:  Run Number 
 ROPA.m/hr               22.00:  ROP Avg 
 ROPN.m/hr               18.00:  ROP Min 
 ROPX.m/hr               25.00:  ROP Max 
 RPMA.rpm               130.00:  RPM Surface Avg 
 RPMN.rpm                80.00:  RPM Surface Min 
 RPMX.rpm               140.00:  RPM Surface Max 
 RRUN.                    L101:  Rig Run Number 
 RTIM.hr                  9.28:  Time Reaming 
 SAZI.deg               316.55:  Azm, Start 
 SDEP.m                3445.01:  Start Depth 
 SIDD.                      No:  Serv Intrp, DD 
 SINC.deg                55.81:  Inc, Start 
 SPPA.psig             4500.00:  SPP Avg 
 SPPN.psig             4350.00:  SPP Min 
 SPPX.psig             4830.00:  SPP Max 
 STIM.      00.00.00 03-Jan-21:  Start Time 
 SVCS.                 DD, MWD:  Services 
 SVER.                    9.20:  Sperry Version 
 TDAT.m                 369.00:  Tot Depth Attmp 
 TDDF.                      No:  Trip for DD 
 TDLG.m                 369.00:  Tot Depth Loggd 
 TFF .                      No:  Trip for Fail 
 TQAA.f-kp               15.00:  Torque Abs Avg 
 TQAN.f-kp               12.00:  Torque Abs Min 
 TQAX.f-kp               16.00:  Torque Abs Max 
 TRRT.°/30m              -2.10:  Turn Rotating 
 MRT .                    HCIM:  Maximum Recorded Temperature 
 TTMX.degC               92.16:  Max Tool Temp 
 VS01.                90627822:  Virtual Str1 SN 
 VS02.                90550008:  Virtual Str2 SN 
 VS03.                90627816:  Virtual Str3 SN 
 VS04.                90633205:  Virtual Str4 SN 
 VS05.                13033835:  Virtual Str5 SN 
 VS06.                11125125:  Virtual Str6 SN 
 WBMN.klb                 8.00:  WOB Min 
 WITN.            Bruce Cheyne:  Customer Rep 
 WITN.           Faig Mammadov:  Customer Rep 2 
 WOBA.klb                 9.00:  WOB Avg 
 WOBX.klb                12.00:  WOB Max 
 YP  .lhf2               30.00:  Yield Point 
~Curve Information Block
#MNEM.UNIT                 API CODE     Curve Description
#---------               -----------    ---------------------------
 TIME.HHMMSS            00 000 000 000:  GT Time & Date
 GTET.sec               00 000 000 000:  GT Elapsed Test Time
 GTPQH.psia             00 000 000 000:  GT HR Quartz Pressure
 GTDEPTH.m              00 000 000 000:  GT Depth
 GTTVD.m                00 000 000 000:  GT True Vertical Depth
 GTTQ.degC              00 000 000 000:  GT Quartz Temperature
 GTTN.NONE              00 000 000 000:  GT Test Number
#Other Information
#
#WARRANTY: Halliburton will use its best efforts to furnish customers with 
#accurate information and interpretations that are part of, and incident to, the services 
#provided.  However, Halliburton cannot and does not warrant the accuracy 
#or correctness of such information and interpretations.  Under no circumstances should any 
#such information or interpretation be relied upon as the sole basis for any drilling, 
#completion, production, or financial decision or any procedure involving any risk to the 
#safety of any drilling venture, drilling rig or its crew or any other third party.  The 
#Customer has full responsibility for all drilling, completion and production operation.  
#Halliburton makes no representations or warranties, either expressed or 
#implied, including, but not limited to, the implied warranties of merchantability or fitness 
#for a particular purpose, with respect to the services rendered.  In no event will 
#Halliburton be liable for failure to obtain any particular results or for 
#any damages, including, but not limited to, indirect, special or consequential damages, 
#resulting from the use of any information or interpretation provided by Halliburton.
#
~A           TIME            GTET   GTPQH  GTDEPTH  GTTVD  GTTQ  GTTN 
# ...
   07:31:31.333.05-Jan-2021 184.07 4413.36 3656.51 3079.56 81.12 4.00
   07:31:31.533.05-Jan-2021 184.27 4413.36 3656.51 3079.56 81.12 4.00
   07:31:31.733.05-Jan-2021 184.47 4413.67 3656.51 3079.56 81.13 4.00
   07:31:31.933.05-Jan-2021 184.67 4413.67 3656.51 3079.56 81.13 4.00
   07:31:32.133.05-Jan-2021 184.87 4413.69 3656.51 3079.56 81.13 4.00
   07:31:32.333.05-Jan-2021 185.07 4413.71 3656.51 3079.56 81.13 4.00
   07:31:32.533.05-Jan-2021 185.27 4413.71 3656.51 3079.56 81.13 4.00
   07:31:32.733.05-Jan-2021 185.47 4413.25 3656.51 3079.56 81.13 4.00
   07:31:32.933.05-Jan-2021 185.67 4414.06 3656.51 3079.56 81.13 4.00
   07:31:33.133.05-Jan-2021 185.87 4413.76 3656.51 3079.56 81.13 4.00
   07:31:33.333.05-Jan-2021 186.07 4413.84 3656.51 3079.56 81.13 4.00
   07:31:33.533.05-Jan-2021 186.27 4413.84 3656.51 3079.56 81.13 4.00
   07:31:33.733.05-Jan-2021 186.47 4413.51 3656.51 3079.56 81.13 4.00
   07:31:33.934.05-Jan-2021 186.67 4414.04 3656.51 3079.56 81.13 4.00
   07:31:34.134.05-Jan-2021 186.87 4413.72 3656.51 3079.56 81.13 4.00
   07:31:34.334.05-Jan-2021 187.07 4413.92 3656.51 3079.56 81.13 4.00
   07:31:34.534.05-Jan-2021 187.27 4413.92 3656.51 3079.56 81.13 4.00
   07:31:34.734.05-Jan-2021 187.47 4413.73 3656.51 3079.56 81.13 4.00
   07:31:34.934.05-Jan-2021 187.67 4413.82 3656.51 3079.56 81.13 4.00
   07:31:35.134.05-Jan-2021 187.87 4413.87 3656.51 3079.56 81.13 4.00
   07:31:35.334.05-Jan-2021 188.07 4413.77 3656.51 3079.56 81.13 4.00
   07:31:35.534.05-Jan-2021 188.27 4413.77 3656.51 3079.56 81.13 4.00
   07:31:35.734.05-Jan-2021 188.47 4413.73 3656.51 3079.56 81.13 4.00
   07:31:35.934.05-Jan-2021 188.67 4413.76 3656.51 3079.56 81.13 4.00
   07:31:36.134.05-Jan-2021 188.87 4413.80 3656.51 3079.56 81.13 4.00
   07:31:36.334.05-Jan-2021 189.07 4413.90 3656.51 3079.56 81.13 4.00
   07:31:36.534.05-Jan-2021 189.27 4413.90 3656.51 3079.56 81.13 4.00
   07:31:36.735.05-Jan-2021 189.47 4414.13 3656.51 3079.56 81.13 4.00
   07:31:36.935.05-Jan-2021 189.67 4414.05 3656.51 3079.56 81.13 4.00
   07:31:37.135.05-Jan-2021 189.87 4413.63 3656.51 3079.56 81.13 4.00
   07:31:37.335.05-Jan-2021 190.07 4413.95 3656.51 3079.56 81.13 4.00
   07:31:37.535.05-Jan-2021 190.27 4413.95 3656.51 3079.56 81.13 4.00
   07:31:37.735.05-Jan-2021 190.47 4413.85 3656.51 3079.56 81.13 4.00
   07:31:37.935.05-Jan-2021 190.67 4413.69 3656.51 3079.56 81.13 4.00
   07:31:38.135.05-Jan-2021 190.87 4413.91 3656.51 3079.56 81.13 4.00
   07:31:38.335.05-Jan-2021 191.07 4413.62 3656.51 3079.56 81.13 4.00
   07:31:38.535.05-Jan-2021 191.27 4413.62 3656.51 3079.56 81.13 4.00
   07:31:38.735.05-Jan-2021 191.47 4413.63 3656.51 3079.56 81.13 4.00
   07:31:38.935.05-Jan-2021 191.67 4413.93 3656.51 3079.56 81.14 4.00
   07:31:39.135.05-Jan-2021 191.87 4413.45 3656.51 3079.56 81.14 4.00
   07:31:39.336.05-Jan-2021 192.07 4414.23 3656.51 3079.56 81.14 4.00
   07:31:39.536.05-Jan-2021 192.27 4414.23 3656.51 3079.56 81.14 4.00
   07:31:39.736.05-Jan-2021 192.47 4413.57 3656.51 3079.56 81.14 4.00
   07:31:39.936.05-Jan-2021 192.67 4414.06 3656.51 3079.56 81.14 4.00
   07:31:40.136.05-Jan-2021 192.87 4413.99 3656.51 3079.56 81.14 4.00
   07:31:40.336.05-Jan-2021 193.07 4413.67 3656.51 3079.56 81.14 4.00
   07:31:40.536.05-Jan-2021 193.27 4413.67 3656.51 3079.56 81.14 4.00
   07:31:40.736.05-Jan-2021 193.47 4413.88 3656.51 3079.56 81.14 4.00
   07:31:40.936.05-Jan-2021 193.67 4413.81 3656.51 3079.56 81.14 4.00
   07:31:41.136.05-Jan-2021 193.87 4414.00 3656.51 3079.56 81.14 4.00
   07:31:41.336.05-Jan-2021 194.07 4413.83 3656.51 3079.56 81.14 4.00
   07:31:41.536.05-Jan-2021 194.27 4413.83 3656.51 3079.56 81.14 4.00
   07:31:41.736.05-Jan-2021 194.47 4413.87 3656.51 3079.56 81.14 4.00
   07:31:41.936.05-Jan-2021 194.67 4413.92 3656.51 3079.56 81.14 4.00
   07:31:42.137.05-Jan-2021 194.87 4413.56 3656.51 3079.56 81.14 4.00
   07:31:42.337.05-Jan-2021 195.07 4414.23 3656.51 3079.56 81.14 4.00
   07:31:42.537.05-Jan-2021 195.27 4414.23 3656.51 3079.56 81.14 4.00
   07:31:42.737.05-Jan-2021 195.47 4413.77 3656.51 3079.56 81.14 4.00
   07:31:42.937.05-Jan-2021 195.67 4413.90 3656.51 3079.56 81.14 4.00
   07:31:43.137.05-Jan-2021 195.87 4413.94 3656.51 3079.56 81.14 4.00
   07:31:43.337.05-Jan-2021 196.07 4413.72 3656.51 3079.56 81.14 4.00
   07:31:43.537.05-Jan-2021 196.27 4413.72 3656.51 3079.56 81.14 4.00
   07:31:43.737.05-Jan-2021 196.47 4413.75 3656.51 3079.56 81.14 4.00
   07:31:43.937.05-Jan-2021 196.67 4413.96 3656.51 3079.56 81.14 4.00
   07:31:44.137.05-Jan-2021 196.87 4413.74 3656.51 3079.56 81.14 4.00
   07:31:44.337.05-Jan-2021 197.07 4414.20 3656.51 3079.56 81.14 4.00
   07:31:44.537.05-Jan-2021 197.27 4414.20 3656.51 3079.56 81.14 4.00
   07:31:44.738.05-Jan-2021 197.47 4413.96 3656.51 3079.56 81.14 4.00
   07:31:44.938.05-Jan-2021 197.67 4413.69 3656.51 3079.56 81.14 4.00
   07:31:45.138.05-Jan-2021 197.87 4414.03 3656.51 3079.56 81.14 4.00
   07:31:45.338.05-Jan-2021 198.07 4413.76 3656.51 3079.56 81.14 4.00
   07:31:45.538.05-Jan-2021 198.27 4413.76 3656.51 3079.56 81.14 4.00
   07:31:45.738.05-Jan-2021 198.47 4413.79 3656.51 3079.56 81.14 4.00
   07:31:45.938.05-Jan-2021 198.67 4413.91 3656.51 3079.56 81.14 4.00
   07:31:46.138.05-Jan-2021 198.87 4413.88 3656.51 3079.56 81.14 4.00
   07:31:46.338.05-Jan-2021 199.07 4413.86 3656.51 3079.56 81.14 4.00
   07:31:46.538.05-Jan-2021 199.27 4413.86 3656.51 3079.56 81.14 4.00
   07:31:46.738.05-Jan-2021 199.47 4413.90 3656.51 3079.56 81.14 4.00
   07:31:46.938.05-Jan-2021 199.67 4413.87 3656.51 3079.56 81.14 4.00
   07:31:47.138.05-Jan-2021 199.87 4413.86 3656.51 3079.56 81.14 4.00
   07:31:47.338.05-Jan-2021 200.07 4413.88 3656.51 3079.56 81.14 4.00
   07:31:47.539.05-Jan-2021 200.27 4413.88 3656.51 3079.56 81.14 4.00
   07:31:47.739.05-Jan-2021 200.47 4414.10 3656.51 3079.56 81.14 4.00
   07:31:47.939.05-Jan-2021 200.67 4413.95 3656.51 3079.56 81.14 4.00
   07:31:48.139.05-Jan-2021 200.87 4413.84 3656.51 3079.56 81.14 4.00
   07:31:48.339.05-Jan-2021 201.07 4413.93 3656.51 3079.56 81.14 4.00
   07:31:48.539.05-Jan-2021 201.27 4413.93 3656.51 3079.56 81.14 4.00
   07:31:48.739.05-Jan-2021 201.47 4413.86 3656.51 3079.56 81.15 4.00
   07:31:48.939.05-Jan-2021 201.67 4413.94 3656.51 3079.56 81.15 4.00
   07:31:49.139.05-Jan-2021 201.87 4413.72 3656.51 3079.56 81.15 4.00
   07:31:49.339.05-Jan-2021 202.07 4413.97 3656.51 3079.56 81.15 4.00
   07:31:49.539.05-Jan-2021 202.28 4413.97 3656.51 3079.56 81.15 4.00
   07:31:49.739.05-Jan-2021 202.48 4413.81 3656.51 3079.56 81.15 4.00
   07:31:49.939.05-Jan-2021 202.68 4413.85 3656.51 3079.56 81.15 4.00
   07:31:50.140.05-Jan-2021 202.88 4413.93 3656.51 3079.56 81.15 4.00
   07:31:50.340.05-Jan-2021 203.08 4413.92 3656.51 3079.56 81.15 4.00
   07:31:50.540.05-Jan-2021 203.28 4413.92 3656.51 3079.56 81.15 4.00
   07:31:50.740.05-Jan-2021 203.48 4413.83 3656.51 3079.56 81.15 4.00
   07:31:50.940.05-Jan-2021 203.68 4414.00 3656.51 3079.56 81.15 4.00
   07:31:51.140.05-Jan-2021 203.88 4413.83 3656.51 3079.56 81.15 4.00
   07:31:51.340.05-Jan-2021 204.08 4413.87 3656.51 3079.56 81.15 4.00
   07:31:51.540.05-Jan-2021 204.28 4413.87 3656.51 3079.56 81.15 4.00
   07:31:51.740.05-Jan-2021 204.48 4414.02 3656.51 3079.56 81.15 4.00
   07:31:51.940.05-Jan-2021 204.68 4413.79 3656.51 3079.56 81.15 4.00
   07:31:52.140.05-Jan-2021 204.88 4413.90 3656.51 3079.56 81.15 4.00
   07:31:52.340.05-Jan-2021 205.08 4413.93 3656.51 3079.56 81.15 4.00
   07:31:52.540.05-Jan-2021 205.28 4413.93 3656.51 3079.56 81.15 4.00
   07:31:52.740.05-Jan-2021 205.48 4413.80 3656.51 3079.56 81.15 4.00
   07:31:52.941.05-Jan-2021 205.68 4414.00 3656.51 3079.56 81.15 4.00
   07:31:53.141.05-Jan-2021 205.88 4413.88 3656.51 3079.56 81.15 4.00
   07:31:53.341.05-Jan-2021 206.08 4413.89 3656.51 3079.56 81.15 4.00
   07:31:53.541.05-Jan-2021 206.28 4413.89 3656.51 3079.56 81.15 4.00
   07:31:53.741.05-Jan-2021 206.48 4413.95 3656.51 3079.56 81.15 4.00
   07:31:53.941.05-Jan-2021 206.68 4413.93 3656.51 3079.56 81.15 4.00
   07:31:54.141.05-Jan-2021 206.88 4413.82 3656.51 3079.56 81.15 4.00
