~Version Information
 VERS.                  2.0:   CWLS log ASCII Standard -VERSION 2.0
 WRAP.                   NO:   One line per depth step
~Well Information Block
#MNEM.UNIT     VALUE/NAME     DESCRIPTION
#---------     -----------    ---------------------------
 STRT.S             13:40:14 05-Jan-21: START TIME 13:40:14 05-Jan-21
 STOP.S             13:48:27 05-Jan-21: STOP TIME  13:48:27 05-Jan-21
 STEP.S                   0.00: STEP TIME
 NULL.                 -999.25: NULL VALUE
 DFWT.                        :  DIST FWL TEXT
 DFST.                        :  DIST FSL TEXT
 DMF .             Drill Floor:  DRILL MEAS FROM
 STIM.      06.00.00 31-Dec-20:  START TIME
 DATE.      05.58.24 07-Jan-21:  END TIME
 SPUD.               24-Dec-20:  SPUD DATE
 NREF.                    Grid:  NORTH REFERENCE
 HPTY.       Minimum Curvature:  HOLE POS TYPE
 DMOD.             Drill Model:  DRILL MOD DESC
 SVYD.                  Survey:  SURVEY DESC
 ILTD.               Lithology:  INTERP LTH DESC
 FTOP.          Formation Tops:  FORM TOPS DESC
 SON .        AZ-XX-0906699554:  JOB NUMBER
 WELL.                    B09z:  WELL NAME
 PDAT.          Mean Sea Level:  PERMANENT DATUM
 FLD .                     ACG:  FIELD NAME
 CTRY.              Azerbaijan:  COUNTRY NAME
 COMP.     BP Exploration (Caspian Sea) Ltd.:  COMPANY
 UWI .                     N/A:  UNIQUE WELL IDENTIFIER
 API .                     N/A:  API NUMBER
 WTYP.                Deviated:  WELL TYPE
 MDS .        Operator Entered:  MAG DATA SOURCE
 BASE.              Azerbaijan:  LOGGING EQUIPMENT BASE LOCATION
 REGN.                   EESSA:  REGION
 PROV.                    Baku:  PROVINCE
 STAT.                    Baku:  STATE NAME
 SRVC.          Turan Drilling:  CONTRACTOR
 MWDS.                    Baku:  MWD SHOP
 JOBN.        AZ-XX-0906699554:  JOB TICKET NUMB
 RIG .           Central Azeri:  RIG NAME
 DOE .                     N/A:  DOE NUMBER
 DCON.         Sperry Drilling:  DIRECTNL CONTR
 UNIT.                     N/A:  LOGGING EQUIPMENT ID
 CNTY.                        :  COUNTY
 LOC .                        :  LOCATION
 LMF .             Drill Floor:  LOG MEASURED FROM
 TVDS.m                  43.29:  TVDSS CORRECTN
 LATI.deg                40.03:  LATITUDE
 LONG.deg                51.35:  LONGITUDE
 WHNS.m                  -2.76:  WELL HEAD N/S
 WHEW.m                  -7.70:  WELL HEAD E/W
 UTMX.m              530128.28:  UTM X
 UTMY.m             4433192.49:  UTM Y
 DFWL.m                   0.00:  DISTANCE FWL
 DFSL.m                   0.00:  DISTANCE FSL
 SDEP.m                3435.01:  START DEPTH
 TDD .m                3814.01:  TOTAL DEPTH (DRILLER)
 VSDR.deg               352.80:  VERT SEC DIRECT
 GVFD.g                   1.00:  GRAVITY FIELD
 MFLD.nT              50303.00:  MAGNETIC FIELD
 MDIP.deg                59.52:  MAGNETIC DIP
 MDEC.deg                 6.47:  MAGNETIC DECL
 GRDC.deg                 0.23:  GRID CORRECTION
 AZTC.deg                 6.24:  AZM TOTAL CORR
 EPD .m                   0.00:  ELEVATION
 EGL .m                   0.00:  GROUND ELEVATION
 WDMS.m                 128.20:  WD ELEV
 APD .m                  43.29:  DEPTH ABOVE PD
 DEP .m                3421.30:  DEPTH
 AGAP.m                  43.60:  AIR GAP
 VSEW.m                  -7.70:  VERT SEC E/W
 VSNS.m                  -2.76:  VERT SEC N/S
 EKB .m                   0.00:  KB ELEVATION
 EDF .m                  43.29:  DF ELEVATION
 TDL .m                 369.00:  TOTAL DEPTH (LOGGER)
 VSC .                       0:  VS TO CLOSURE
 MAGU.                 1850390:  MAGUTM CHECKSUM
~Parameter Information Block
#MNEM.UNIT       Value        Description
#---------     -----------    ---------------------------
 AV  .mps                 2.80:  Ann Velocity 
 AVMX.mps                 4.67:  Max Ann Veloc 
 AZIF.deg               303.89:  Azm, Final 
 BHAT.        Rotary Steerable:  BHA Type 
 BREV.rev            128542.00:  Rev Bit Total 
 BROT.°/30m               1.50:  Build Rotating 
 BS  .in                  8.50:  Bit Size 
 BSZ .in                  8.50:  Bit Size 
 BTPL.psig              715.00:  Bit Press Loss 
 CABU.                      No:  Customer Abuse 
 COMM.                     t6w:  Run Comments 1 
 TCS .hr                 53.00:  Time Ciculation Ended 
 CV  .mps                 3.85:  Crit Velocity 
 CVMX.mps                 4.75:  Max Crit Veloc 
 DD1 .         Intigam Rahimov:  Direct Drillr 1 
 DDSV.                 iCruise:  DD Service 
 DEFF.%                  98.60:  % Det Eff 
 DLRX.°/30m               2.34:  Dogleg Rot Max 
 DLSO.°/30m               0.00:  Dogleg Oriented 
 DLSX.°/30m               0.00:  Dogleg Str Max 
 DRET.      00.15.00 05-Jan-21:  Drill End Time 
 DRST.      22.00.00 03-Jan-21:  Drill Start Tim 
 DTIM.hr                 17.72:  Time Drilling 
 EDEP.m                3814.01:  End Depth 
 ENG1.         Yevgeniy Ulikov:  Engineer 1 
 ENG2.        Farkhad Khalidov:  Engineer 2 
 ENG3.           Samir Gafarov:  Engineer 3 
 ETIM.      21.00.00 07-Jan-21:  End Time 
 FLOI.gpm               590.00:  Flow In 
 FLON.gpm               580.00:  Flow In Min 
 FLOS.cptm                1.00:  Fluid Loss 
 FLOX.gpm               595.00:  Flow In Max 
 FTRO.     Connectivity, Formation Presure:  FTWD Run Obj 
 HFLO.                      No:  High Flow 
 HPRE.                     Yes:  High Pressure 
 HTEM.                      No:  High Temp 
 HYDO.m                   1.80:  Hydro Offset 
 IFIN.deg                63.76:  Inc, Final 
 IMAX.deg                64.09:  Inc Max 
 IMIN.deg                55.81:  Inc Min 
 IMND.m                3455.62:  Inc Min Depth 
 IMXD.m                3796.03:  Inc Max Depth 
 JARR.                      No:  Jarring 
 LETM.      00.15.00 05-Jan-21:  Log End Time 
 LOST.hr                     0:  Lost Rig Time 
 LSTM.      22.00.00 03-Jan-21:  Log Start Time 
 MDCL.ppm             36000.00:  Mud Chlorides 
 MDES.     Inversion Oil/Synthetic:  Mud Desc 
 DFD .sg                  1.51:  Mud Density 
 MDMN.sg                  1.51:  Dens Mud Min 
 MDMX.sg                  1.51:  Dens Mud Max 
 MOIL.                    55.5:  Run Mud Oil % 
 MOWR.                   70:30:  Run Mud OWR 
 MSND.                     0.1:  Run Mud Sand % 
 MSOL.                   20.77:  Run Mud Solids% 
 DFV .spqt               67.00:  Mud Viscosity 
 MWOD.in                  6.75:  MWD Tool OD 
 MWSI.                      No:  Serv Intrp, MWD 
 OTIM.hr                113.53:  Time Operating 
 PCON.           Look Like New:  Pad Condition 
 PMAX.psia             4830.00:  Press Op, Max 
 PV  .cP                 29.00:  Mud PV 
 RUN .                     300:  Run Number 
 ROPA.m/hr               22.00:  ROP Avg 
 ROPN.m/hr               18.00:  ROP Min 
 ROPX.m/hr               25.00:  ROP Max 
 RPMA.rpm               130.00:  RPM Surface Avg 
 RPMN.rpm                80.00:  RPM Surface Min 
 RPMX.rpm               140.00:  RPM Surface Max 
 RRUN.                    L101:  Rig Run Number 
 RTIM.hr                  9.28:  Time Reaming 
 SAZI.deg               316.55:  Azm, Start 
 SDEP.m                3445.01:  Start Depth 
 SIDD.                      No:  Serv Intrp, DD 
 SINC.deg                55.81:  Inc, Start 
 SPPA.psig             4500.00:  SPP Avg 
 SPPN.psig             4350.00:  SPP Min 
 SPPX.psig             4830.00:  SPP Max 
 STIM.      00.00.00 03-Jan-21:  Start Time 
 SVCS.                 DD, MWD:  Services 
 SVER.                    9.20:  Sperry Version 
 TDAT.m                 369.00:  Tot Depth Attmp 
 TDDF.                      No:  Trip for DD 
 TDLG.m                 369.00:  Tot Depth Loggd 
 TFF .                      No:  Trip for Fail 
 TQAA.f-kp               15.00:  Torque Abs Avg 
 TQAN.f-kp               12.00:  Torque Abs Min 
 TQAX.f-kp               16.00:  Torque Abs Max 
 TRRT.°/30m              -2.10:  Turn Rotating 
 MRT .                    HCIM:  Maximum Recorded Temperature 
 TTMX.degC               92.16:  Max Tool Temp 
 VS01.                90627822:  Virtual Str1 SN 
 VS02.                90550008:  Virtual Str2 SN 
 VS03.                90627816:  Virtual Str3 SN 
 VS04.                90633205:  Virtual Str4 SN 
 VS05.                13033835:  Virtual Str5 SN 
 VS06.                11125125:  Virtual Str6 SN 
 WBMN.klb                 8.00:  WOB Min 
 WITN.            Bruce Cheyne:  Customer Rep 
 WITN.           Faig Mammadov:  Customer Rep 2 
 WOBA.klb                 9.00:  WOB Avg 
 WOBX.klb                12.00:  WOB Max 
 YP  .lhf2               30.00:  Yield Point 
~Curve Information Block
#MNEM.UNIT                 API CODE     Curve Description
#---------               -----------    ---------------------------
 TIME.HHMMSS            00 000 000 000:  GT Time & Date
 GTET.sec               00 000 000 000:  GT Elapsed Test Time
 GTPQH.psia             00 000 000 000:  GT HR Quartz Pressure
 GTDEPTH.m              00 000 000 000:  GT Depth
 GTTVD.m                00 000 000 000:  GT True Vertical Depth
 GTTQ.degC              00 000 000 000:  GT Quartz Temperature
 GTTN.NONE              00 000 000 000:  GT Test Number
#Other Information
#
#WARRANTY: Halliburton will use its best efforts to furnish customers with 
#accurate information and interpretations that are part of, and incident to, the services 
#provided.  However, Halliburton cannot and does not warrant the accuracy 
#or correctness of such information and interpretations.  Under no circumstances should any 
#such information or interpretation be relied upon as the sole basis for any drilling, 
#completion, production, or financial decision or any procedure involving any risk to the 
#safety of any drilling venture, drilling rig or its crew or any other third party.  The 
#Customer has full responsibility for all drilling, completion and production operation.  
#Halliburton makes no representations or warranties, either expressed or 
#implied, including, but not limited to, the implied warranties of merchantability or fitness 
#for a particular purpose, with respect to the services rendered.  In no event will 
#Halliburton be liable for failure to obtain any particular results or for 
#any damages, including, but not limited to, indirect, special or consequential damages, 
#resulting from the use of any information or interpretation provided by Halliburton.
#
~A           TIME            GTET   GTPQH  GTDEPTH  GTTVD  GTTQ  GTTN 
# ...
   13:43:42.046.05-Jan-2021 207.11 4884.12 3494.01 2996.09 77.95 7.00
   13:43:42.246.05-Jan-2021 207.32 4884.12 3494.01 2996.09 77.95 7.00
   13:43:42.446.05-Jan-2021 207.52 4884.15 3494.01 2996.09 77.95 7.00
   13:43:42.646.05-Jan-2021 207.72 4884.11 3494.01 2996.09 77.95 7.00
   13:43:42.846.05-Jan-2021 207.92 4884.06 3494.01 2996.09 77.95 7.00
   13:43:43.046.05-Jan-2021 208.12 4884.16 3494.01 2996.09 77.95 7.00
   13:43:43.247.05-Jan-2021 208.32 4884.16 3494.01 2996.09 77.95 7.00
   13:43:43.447.05-Jan-2021 208.52 4884.09 3494.01 2996.09 77.95 7.00
   13:43:43.647.05-Jan-2021 208.72 4884.10 3494.01 2996.09 77.95 7.00
   13:43:43.847.05-Jan-2021 208.92 4884.67 3494.01 2996.09 77.95 7.00
   13:43:44.047.05-Jan-2021 209.12 4884.13 3494.01 2996.09 77.95 7.00
   13:43:44.247.05-Jan-2021 209.32 4884.13 3494.01 2996.09 77.95 7.00
   13:43:44.447.05-Jan-2021 209.52 4884.88 3494.01 2996.09 77.95 7.00
   13:43:44.647.05-Jan-2021 209.72 4883.80 3494.01 2996.09 77.95 7.00
   13:43:44.847.05-Jan-2021 209.92 4884.30 3494.01 2996.09 77.95 7.00
   13:43:45.048.05-Jan-2021 210.12 4884.31 3494.01 2996.09 77.95 7.00
   13:43:45.248.05-Jan-2021 210.32 4884.31 3494.01 2996.09 77.95 7.00
   13:43:45.448.05-Jan-2021 210.52 4884.68 3494.01 2996.09 77.95 7.00
   13:43:45.648.05-Jan-2021 210.72 4884.09 3494.01 2996.09 77.95 7.00
   13:43:45.848.05-Jan-2021 210.92 4883.94 3494.01 2996.09 77.96 7.00
   13:43:46.048.05-Jan-2021 211.12 4883.99 3494.01 2996.09 77.96 7.00
   13:43:46.248.05-Jan-2021 211.32 4883.99 3494.01 2996.09 77.96 7.00
   13:43:46.448.05-Jan-2021 211.52 4884.01 3494.01 2996.09 77.96 7.00
   13:43:46.648.05-Jan-2021 211.72 4884.28 3494.01 2996.09 77.96 7.00
   13:43:46.849.05-Jan-2021 211.92 4884.20 3494.01 2996.09 77.96 7.00
   13:43:47.049.05-Jan-2021 212.12 4884.65 3494.01 2996.09 77.96 7.00
   13:43:47.249.05-Jan-2021 212.32 4884.65 3494.01 2996.09 77.96 7.00
   13:43:47.449.05-Jan-2021 212.52 4884.33 3494.01 2996.09 77.96 7.00
   13:43:47.649.05-Jan-2021 212.72 4884.31 3494.01 2996.09 77.96 7.00
   13:43:47.849.05-Jan-2021 212.92 4883.74 3494.01 2996.09 77.96 7.00
   13:43:48.049.05-Jan-2021 213.12 4884.64 3494.01 2996.09 77.96 7.00
   13:43:48.249.05-Jan-2021 213.32 4884.64 3494.01 2996.09 77.96 7.00
   13:43:48.449.05-Jan-2021 213.52 4884.13 3494.01 2996.09 77.96 7.00
   13:43:48.650.05-Jan-2021 213.72 4884.23 3494.01 2996.09 77.96 7.00
   13:43:48.850.05-Jan-2021 213.92 4884.23 3494.01 2996.09 77.96 7.00
   13:43:49.050.05-Jan-2021 214.12 4883.96 3494.01 2996.09 77.96 7.00
   13:43:49.250.05-Jan-2021 214.32 4883.96 3494.01 2996.09 77.96 7.00
   13:43:49.450.05-Jan-2021 214.52 4884.14 3494.01 2996.09 77.96 7.00
   13:43:49.650.05-Jan-2021 214.72 4884.77 3494.01 2996.09 77.96 7.00
   13:43:49.850.05-Jan-2021 214.92 4884.14 3494.01 2996.09 77.96 7.00
   13:43:50.050.05-Jan-2021 215.12 4884.07 3494.01 2996.09 77.96 7.00
   13:43:50.250.05-Jan-2021 215.32 4884.07 3494.01 2996.09 77.96 7.00
   13:43:50.451.05-Jan-2021 215.52 4884.16 3494.01 2996.09 77.96 7.00
   13:43:50.651.05-Jan-2021 215.72 4883.93 3494.01 2996.09 77.96 7.00
   13:43:50.851.05-Jan-2021 215.92 4884.45 3494.01 2996.09 77.96 7.00
   13:43:51.051.05-Jan-2021 216.12 4884.07 3494.01 2996.09 77.96 7.00
   13:43:51.251.05-Jan-2021 216.32 4884.07 3494.01 2996.09 77.96 7.00
   13:43:51.451.05-Jan-2021 216.52 4884.49 3494.01 2996.09 77.96 7.00
   13:43:51.651.05-Jan-2021 216.72 4884.13 3494.01 2996.09 77.96 7.00
   13:43:51.851.05-Jan-2021 216.92 4884.56 3494.01 2996.09 77.96 7.00
   13:43:52.051.05-Jan-2021 217.12 4883.62 3494.01 2996.09 77.96 7.00
   13:43:52.252.05-Jan-2021 217.32 4884.66 3494.01 2996.09 77.96 7.00
   13:43:52.452.05-Jan-2021 217.52 4884.33 3494.01 2996.09 77.96 7.00
   13:43:52.652.05-Jan-2021 217.72 4884.09 3494.01 2996.09 77.96 7.00
   13:43:52.852.05-Jan-2021 217.92 4884.81 3494.01 2996.09 77.96 7.00
   13:43:53.052.05-Jan-2021 218.12 4883.75 3494.01 2996.09 77.96 7.00
   13:43:53.252.05-Jan-2021 218.32 4883.75 3494.01 2996.09 77.96 7.00
   13:43:53.452.05-Jan-2021 218.52 4884.07 3494.01 2996.09 77.96 7.00
   13:43:53.652.05-Jan-2021 218.72 4884.59 3494.01 2996.09 77.96 7.00
   13:43:53.852.05-Jan-2021 218.92 4884.09 3494.01 2996.09 77.96 7.00
   13:43:54.053.05-Jan-2021 219.12 4884.45 3494.01 2996.09 77.96 7.00
   13:43:54.253.05-Jan-2021 219.32 4884.45 3494.01 2996.09 77.96 7.00
   13:43:54.453.05-Jan-2021 219.52 4883.71 3494.01 2996.09 77.96 7.00
   13:43:54.653.05-Jan-2021 219.72 4884.51 3494.01 2996.09 77.96 7.00
   13:43:54.853.05-Jan-2021 219.92 4884.10 3494.01 2996.09 77.96 7.00
   13:43:55.053.05-Jan-2021 220.12 4883.95 3494.01 2996.09 77.96 7.00
   13:43:55.253.05-Jan-2021 220.32 4884.53 3494.01 2996.09 77.96 7.00
   13:43:55.453.05-Jan-2021 220.52 4883.75 3494.01 2996.09 77.96 7.00
   13:43:55.653.05-Jan-2021 220.72 4884.37 3494.01 2996.09 77.96 7.00
   13:43:55.854.05-Jan-2021 220.92 4884.74 3494.01 2996.09 77.96 7.00
   13:43:56.054.05-Jan-2021 221.12 4884.29 3494.01 2996.09 77.96 7.00
   13:43:56.254.05-Jan-2021 221.32 4884.13 3494.01 2996.09 77.96 7.00
   13:43:56.454.05-Jan-2021 221.52 4884.51 3494.01 2996.09 77.96 7.00
   13:43:56.654.05-Jan-2021 221.72 4884.11 3494.01 2996.09 77.96 7.00
   13:43:56.854.05-Jan-2021 221.92 4883.96 3494.01 2996.09 77.96 7.00
   13:43:57.054.05-Jan-2021 222.12 4883.74 3494.01 2996.09 77.96 7.00
   13:43:57.254.05-Jan-2021 222.32 4883.74 3494.01 2996.09 77.96 7.00
   13:43:57.454.05-Jan-2021 222.52 4884.63 3494.01 2996.09 77.96 7.00
   13:43:57.655.05-Jan-2021 222.72 4884.52 3494.01 2996.09 77.96 7.00
   13:43:57.855.05-Jan-2021 222.92 4884.62 3494.01 2996.09 77.96 7.00
   13:43:58.055.05-Jan-2021 223.12 4883.91 3494.01 2996.09 77.97 7.00
   13:43:58.255.05-Jan-2021 223.32 4883.91 3494.01 2996.09 77.97 7.00
   13:43:58.455.05-Jan-2021 223.52 4884.28 3494.01 2996.09 77.97 7.00
   13:43:58.655.05-Jan-2021 223.72 4884.45 3494.01 2996.09 77.97 7.00
   13:43:58.855.05-Jan-2021 223.92 4884.07 3494.01 2996.09 77.97 7.00
   13:43:59.055.05-Jan-2021 224.12 4883.99 3494.01 2996.09 77.97 7.00
   13:43:59.255.05-Jan-2021 224.32 4883.99 3494.01 2996.09 77.97 7.00
   13:43:59.456.05-Jan-2021 224.52 4884.57 3494.01 2996.09 77.97 7.00
   13:43:59.656.05-Jan-2021 224.72 4883.95 3494.01 2996.09 77.97 7.00
   13:43:59.856.05-Jan-2021 224.92 4884.40 3494.01 2996.09 77.97 7.00
   13:44:00.056.05-Jan-2021 225.12 4884.20 3494.01 2996.09 77.97 7.00
   13:44:00.256.05-Jan-2021 225.33 4884.20 3494.01 2996.09 77.97 7.00
   13:44:00.456.05-Jan-2021 225.53 4884.11 3494.01 2996.09 77.97 7.00
   13:44:00.656.05-Jan-2021 225.73 4884.41 3494.01 2996.09 77.97 7.00
   13:44:00.856.05-Jan-2021 225.93 4884.17 3494.01 2996.09 77.97 7.00
   13:44:01.056.05-Jan-2021 226.13 4884.23 3494.01 2996.09 77.97 7.00
   13:44:01.257.05-Jan-2021 226.33 4884.23 3494.01 2996.09 77.97 7.00
   13:44:01.457.05-Jan-2021 226.53 4884.14 3494.01 2996.09 77.97 7.00
   13:44:01.657.05-Jan-2021 226.73 4884.43 3494.01 2996.09 77.97 7.00
   13:44:01.857.05-Jan-2021 226.93 4883.98 3494.01 2996.09 77.97 7.00
   13:44:02.057.05-Jan-2021 227.13 4884.22 3494.01 2996.09 77.97 7.00
   13:44:02.257.05-Jan-2021 227.33 4884.22 3494.01 2996.09 77.97 7.00
   13:44:02.457.05-Jan-2021 227.53 4884.67 3494.01 2996.09 77.97 7.00
   13:44:02.657.05-Jan-2021 227.73 4884.11 3494.01 2996.09 77.97 7.00
   13:44:02.857.05-Jan-2021 227.93 4884.12 3494.01 2996.09 77.97 7.00
   13:44:03.058.05-Jan-2021 228.13 4884.33 3494.01 2996.09 77.97 7.00
   13:44:03.258.05-Jan-2021 228.33 4884.33 3494.01 2996.09 77.97 7.00
   13:44:03.458.05-Jan-2021 228.53 4884.41 3494.01 2996.09 77.97 7.00
   13:44:03.658.05-Jan-2021 228.73 4884.41 3494.01 2996.09 77.97 7.00
   13:44:03.858.05-Jan-2021 228.93 4884.00 3494.01 2996.09 77.97 7.00
   13:44:04.058.05-Jan-2021 229.13 4884.56 3494.01 2996.09 77.97 7.00
   13:44:04.258.05-Jan-2021 229.33 4884.56 3494.01 2996.09 77.97 7.00
   13:44:04.458.05-Jan-2021 229.53 4884.12 3494.01 2996.09 77.97 7.00
   13:44:04.658.05-Jan-2021 229.73 4883.66 3494.01 2996.09 77.97 7.00
   13:44:04.859.05-Jan-2021 229.93 4884.21 3494.01 2996.09 77.97 7.00
