~Version Information
 VERS.                  2.0:   CWLS log ASCII Standard -VERSION 2.0
 WRAP.                   NO:   One line per depth step
~Well Information Block
#MNEM.UNIT     VALUE/NAME     DESCRIPTION
#---------     -----------    ---------------------------
 STRT.S             07:28:27 05-Jan-21: START TIME 07:28:27 05-Jan-21
 STOP.S             07:36:40 05-Jan-21: STOP TIME  07:36:40 05-Jan-21
 STEP.S                   0.00: STEP TIME
 NULL.                 -999.25: NULL VALUE
 DFWT.                        :  DIST FWL TEXT
 DFST.                        :  DIST FSL TEXT
 DMF .             Drill Floor:  DRILL MEAS FROM
 STIM.      06.00.00 31-Dec-20:  START TIME
 DATE.      05.58.24 07-Jan-21:  END TIME
 SPUD.               24-Dec-20:  SPUD DATE
 NREF.                    Grid:  NORTH REFERENCE
 HPTY.       Minimum Curvature:  HOLE POS TYPE
 DMOD.             Drill Model:  DRILL MOD DESC
 SVYD.                  Survey:  SURVEY DESC
 ILTD.               Lithology:  INTERP LTH DESC
 FTOP.          Formation Tops:  FORM TOPS DESC
 SON .        AZ-XX-0906699554:  JOB NUMBER
 WELL.                    B09z:  WELL NAME
 PDAT.          Mean Sea Level:  PERMANENT DATUM
 FLD .                     ACG:  FIELD NAME
 CTRY.              Azerbaijan:  COUNTRY NAME
 COMP.     BP Exploration (Caspian Sea) Ltd.:  COMPANY
 UWI .                     N/A:  UNIQUE WELL IDENTIFIER
 API .                     N/A:  API NUMBER
 WTYP.                Deviated:  WELL TYPE
 MDS .        Operator Entered:  MAG DATA SOURCE
 BASE.              Azerbaijan:  LOGGING EQUIPMENT BASE LOCATION
 REGN.                   EESSA:  REGION
 PROV.                    Baku:  PROVINCE
 STAT.                    Baku:  STATE NAME
 SRVC.          Turan Drilling:  CONTRACTOR
 MWDS.                    Baku:  MWD SHOP
 JOBN.        AZ-XX-0906699554:  JOB TICKET NUMB
 RIG .           Central Azeri:  RIG NAME
 DOE .                     N/A:  DOE NUMBER
 DCON.         Sperry Drilling:  DIRECTNL CONTR
 UNIT.                     N/A:  LOGGING EQUIPMENT ID
 CNTY.                        :  COUNTY
 LOC .                        :  LOCATION
 LMF .             Drill Floor:  LOG MEASURED FROM
 TVDS.m                  43.29:  TVDSS CORRECTN
 LATI.deg                40.03:  LATITUDE
 LONG.deg                51.35:  LONGITUDE
 WHNS.m                  -2.76:  WELL HEAD N/S
 WHEW.m                  -7.70:  WELL HEAD E/W
 UTMX.m              530128.28:  UTM X
 UTMY.m             4433192.49:  UTM Y
 DFWL.m                   0.00:  DISTANCE FWL
 DFSL.m                   0.00:  DISTANCE FSL
 SDEP.m                3435.01:  START DEPTH
 TDD .m                3814.01:  TOTAL DEPTH (DRILLER)
 VSDR.deg               352.80:  VERT SEC DIRECT
 GVFD.g                   1.00:  GRAVITY FIELD
 MFLD.nT              50303.00:  MAGNETIC FIELD
 MDIP.deg                59.52:  MAGNETIC DIP
 MDEC.deg                 6.47:  MAGNETIC DECL
 GRDC.deg                 0.23:  GRID CORRECTION
 AZTC.deg                 6.24:  AZM TOTAL CORR
 EPD .m                   0.00:  ELEVATION
 EGL .m                   0.00:  GROUND ELEVATION
 WDMS.m                 128.20:  WD ELEV
 APD .m                  43.29:  DEPTH ABOVE PD
 DEP .m                3421.30:  DEPTH
 AGAP.m                  43.60:  AIR GAP
 VSEW.m                  -7.70:  VERT SEC E/W
 VSNS.m                  -2.76:  VERT SEC N/S
 EKB .m                   0.00:  KB ELEVATION
 EDF .m                  43.29:  DF ELEVATION
 TDL .m                 369.00:  TOTAL DEPTH (LOGGER)
 VSC .                       0:  VS TO CLOSURE
 MAGU.                 1850390:  MAGUTM CHECKSUM
~Parameter Information Block
#MNEM.UNIT       Value        Description
#---------     -----------    ---------------------------
 AV  .mps                 2.80:  Ann Velocity 
 AVMX.mps                 4.67:  Max Ann Veloc 
 AZIF.deg               303.89:  Azm, Final 
 BHAT.        Rotary Steerable:  BHA Type 
 BREV.rev            128542.00:  Rev Bit Total 
 BROT.°/30m               1.50:  Build Rotating 
 BS  .in                  8.50:  Bit Size 
 BSZ .in                  8.50:  Bit Size 
 BTPL.psig              715.00:  Bit Press Loss 
 CABU.                      No:  Customer Abuse 
 COMM.                     ÜNb:  Run Comments 1 
 TCS .hr                 53.00:  Time Ciculation Ended 
 CV  .mps                 3.85:  Crit Velocity 
 CVMX.mps                 4.75:  Max Crit Veloc 
 DD1 .         Intigam Rahimov:  Direct Drillr 1 
 DDSV.                 iCruise:  DD Service 
 DEFF.%                  98.60:  % Det Eff 
 DLRX.°/30m               2.34:  Dogleg Rot Max 
 DLSO.°/30m               0.00:  Dogleg Oriented 
 DLSX.°/30m               0.00:  Dogleg Str Max 
 DRET.      00.15.00 05-Jan-21:  Drill End Time 
 DRST.      22.00.00 03-Jan-21:  Drill Start Tim 
 DTIM.hr                 17.72:  Time Drilling 
 EDEP.m                3814.01:  End Depth 
 ENG1.         Yevgeniy Ulikov:  Engineer 1 
 ENG2.        Farkhad Khalidov:  Engineer 2 
 ENG3.           Samir Gafarov:  Engineer 3 
 ETIM.      21.00.00 07-Jan-21:  End Time 
 FLOI.gpm               590.00:  Flow In 
 FLON.gpm               580.00:  Flow In Min 
 FLOS.cptm                1.00:  Fluid Loss 
 FLOX.gpm               595.00:  Flow In Max 
 FTRO.     Connectivity, Formation Presure:  FTWD Run Obj 
 HFLO.                      No:  High Flow 
 HPRE.                     Yes:  High Pressure 
 HTEM.                      No:  High Temp 
 HYDO.m                   1.80:  Hydro Offset 
 IFIN.deg                63.76:  Inc, Final 
 IMAX.deg                64.09:  Inc Max 
 IMIN.deg                55.81:  Inc Min 
 IMND.m                3455.62:  Inc Min Depth 
 IMXD.m                3796.03:  Inc Max Depth 
 JARR.                      No:  Jarring 
 LETM.      00.15.00 05-Jan-21:  Log End Time 
 LOST.hr                     0:  Lost Rig Time 
 LSTM.      22.00.00 03-Jan-21:  Log Start Time 
 MDCL.ppm             36000.00:  Mud Chlorides 
 MDES.     Inversion Oil/Synthetic:  Mud Desc 
 DFD .sg                  1.51:  Mud Density 
 MDMN.sg                  1.51:  Dens Mud Min 
 MDMX.sg                  1.51:  Dens Mud Max 
 MOIL.                    55.5:  Run Mud Oil % 
 MOWR.                   70:30:  Run Mud OWR 
 MSND.                     0.1:  Run Mud Sand % 
 MSOL.                   20.77:  Run Mud Solids% 
 DFV .spqt               67.00:  Mud Viscosity 
 MWOD.in                  6.75:  MWD Tool OD 
 MWSI.                      No:  Serv Intrp, MWD 
 OTIM.hr                113.53:  Time Operating 
 PCON.           Look Like New:  Pad Condition 
 PMAX.psia             4830.00:  Press Op, Max 
 PV  .cP                 29.00:  Mud PV 
 RUN .                     300:  Run Number 
 ROPA.m/hr               22.00:  ROP Avg 
 ROPN.m/hr               18.00:  ROP Min 
 ROPX.m/hr               25.00:  ROP Max 
 RPMA.rpm               130.00:  RPM Surface Avg 
 RPMN.rpm                80.00:  RPM Surface Min 
 RPMX.rpm               140.00:  RPM Surface Max 
 RRUN.                    L101:  Rig Run Number 
 RTIM.hr                  9.28:  Time Reaming 
 SAZI.deg               316.55:  Azm, Start 
 SDEP.m                3445.01:  Start Depth 
 SIDD.                      No:  Serv Intrp, DD 
 SINC.deg                55.81:  Inc, Start 
 SPPA.psig             4500.00:  SPP Avg 
 SPPN.psig             4350.00:  SPP Min 
 SPPX.psig             4830.00:  SPP Max 
 STIM.      00.00.00 03-Jan-21:  Start Time 
 SVCS.                 DD, MWD:  Services 
 SVER.                    9.20:  Sperry Version 
 TDAT.m                 369.00:  Tot Depth Attmp 
 TDDF.                      No:  Trip for DD 
 TDLG.m                 369.00:  Tot Depth Loggd 
 TFF .                      No:  Trip for Fail 
 TQAA.f-kp               15.00:  Torque Abs Avg 
 TQAN.f-kp               12.00:  Torque Abs Min 
 TQAX.f-kp               16.00:  Torque Abs Max 
 TRRT.°/30m              -2.10:  Turn Rotating 
 MRT .                    HCIM:  Maximum Recorded Temperature 
 TTMX.degC               92.16:  Max Tool Temp 
 VS01.                90627822:  Virtual Str1 SN 
 VS02.                90550008:  Virtual Str2 SN 
 VS03.                90627816:  Virtual Str3 SN 
 VS04.                90633205:  Virtual Str4 SN 
 VS05.                13033835:  Virtual Str5 SN 
 VS06.                11125125:  Virtual Str6 SN 
 WBMN.klb                 8.00:  WOB Min 
 WITN.            Bruce Cheyne:  Customer Rep 
 WITN.           Faig Mammadov:  Customer Rep 2 
 WOBA.klb                 9.00:  WOB Avg 
 WOBX.klb                12.00:  WOB Max 
 YP  .lhf2               30.00:  Yield Point 
~Curve Information Block
#MNEM.UNIT                 API CODE     Curve Description
#---------               -----------    ---------------------------
 TIME.HHMMSS            00 000 000 000:  GT Time & Date
 GTET.sec               00 000 000 000:  GT Elapsed Test Time
 GTPQH.psia             00 000 000 000:  GT HR Quartz Pressure
 GTDEPTH.m              00 000 000 000:  GT Depth
 GTTVD.m                00 000 000 000:  GT True Vertical Depth
 GTTQ.degC              00 000 000 000:  GT Quartz Temperature
 GTTN.NONE              00 000 000 000:  GT Test Number
#Other Information
#
#WARRANTY: Halliburton will use its best efforts to furnish customers with 
#accurate information and interpretations that are part of, and incident to, the services 
#provided.  However, Halliburton cannot and does not warrant the accuracy 
#or correctness of such information and interpretations.  Under no circumstances should any 
#such information or interpretation be relied upon as the sole basis for any drilling, 
#completion, production, or financial decision or any procedure involving any risk to the 
#safety of any drilling venture, drilling rig or its crew or any other third party.  The 
#Customer has full responsibility for all drilling, completion and production operation.  
#Halliburton makes no representations or warranties, either expressed or 
#implied, including, but not limited to, the implied warranties of merchantability or fitness 
#for a particular purpose, with respect to the services rendered.  In no event will 
#Halliburton be liable for failure to obtain any particular results or for 
#any damages, including, but not limited to, indirect, special or consequential damages, 
#resulting from the use of any information or interpretation provided by Halliburton.
#
~A           TIME            GTET   GTPQH  GTDEPTH  GTTVD  GTTQ  GTTN 
# ...
   07:32:40.358.05-Jan-2021 253.09 4413.91 3656.51 3079.56 81.19 4.00
   07:32:40.558.05-Jan-2021 253.29 4413.91 3656.51 3079.56 81.19 4.00
   07:32:40.758.05-Jan-2021 253.49 4413.96 3656.51 3079.56 81.19 4.00
   07:32:40.958.05-Jan-2021 253.69 4413.79 3656.51 3079.56 81.19 4.00
   07:32:41.158.05-Jan-2021 253.89 4413.89 3656.51 3079.56 81.19 4.00
   07:32:41.359.05-Jan-2021 254.09 4413.99 3656.51 3079.56 81.19 4.00
   07:32:41.559.05-Jan-2021 254.29 4413.99 3656.51 3079.56 81.19 4.00
   07:32:41.759.05-Jan-2021 254.49 4413.89 3656.51 3079.56 81.19 4.00
   07:32:41.959.05-Jan-2021 254.69 4413.88 3656.51 3079.56 81.19 4.00
   07:32:42.159.05-Jan-2021 254.89 4413.87 3656.51 3079.56 81.19 4.00
   07:32:42.359.05-Jan-2021 255.09 4413.92 3656.51 3079.56 81.19 4.00
   07:32:42.559.05-Jan-2021 255.29 4413.92 3656.51 3079.56 81.19 4.00
   07:32:42.759.05-Jan-2021 255.49 4413.93 3656.51 3079.56 81.19 4.00
   07:32:42.959.05-Jan-2021 255.69 4413.85 3656.51 3079.56 81.19 4.00
   07:32:43.159.05-Jan-2021 255.89 4413.89 3656.51 3079.56 81.19 4.00
   07:32:43.359.05-Jan-2021 256.10 4413.92 3656.51 3079.56 81.20 4.00
   07:32:43.559.05-Jan-2021 256.30 4413.92 3656.51 3079.56 81.20 4.00
   07:32:43.759.05-Jan-2021 256.50 4413.88 3656.51 3079.56 81.20 4.00
   07:32:43.960.05-Jan-2021 256.70 4413.86 3656.51 3079.56 81.20 4.00
   07:32:44.160.05-Jan-2021 256.90 4413.94 3656.51 3079.56 81.20 4.00
   07:32:44.360.05-Jan-2021 257.10 4413.84 3656.51 3079.56 81.20 4.00
   07:32:44.560.05-Jan-2021 257.30 4413.84 3656.51 3079.56 81.20 4.00
   07:32:44.760.05-Jan-2021 257.50 4413.86 3656.51 3079.56 81.20 4.00
   07:32:44.960.05-Jan-2021 257.70 4413.93 3656.51 3079.56 81.20 4.00
   07:32:45.160.05-Jan-2021 257.90 4413.82 3656.51 3079.56 81.20 4.00
   07:32:45.360.05-Jan-2021 258.10 4413.99 3656.51 3079.56 81.20 4.00
   07:32:45.560.05-Jan-2021 258.30 4413.99 3656.51 3079.56 81.20 4.00
   07:32:45.760.05-Jan-2021 258.50 4413.94 3656.51 3079.56 81.20 4.00
   07:32:45.960.05-Jan-2021 258.70 4413.85 3656.51 3079.56 81.20 4.00
   07:32:46.160.05-Jan-2021 258.90 4414.04 3656.51 3079.56 81.20 4.00
   07:32:46.360.05-Jan-2021 259.10 4413.77 3656.51 3079.56 81.20 4.00
   07:32:46.560.05-Jan-2021 259.30 4413.77 3656.51 3079.56 81.20 4.00
   07:32:46.761.05-Jan-2021 259.50 4414.01 3656.51 3079.56 81.20 4.00
   07:32:46.961.05-Jan-2021 259.70 4413.83 3656.51 3079.56 81.20 4.00
   07:32:47.161.05-Jan-2021 259.90 4413.84 3656.51 3079.56 81.20 4.00
   07:32:47.361.05-Jan-2021 260.10 4413.67 3656.51 3079.56 81.20 4.00
   07:32:47.561.05-Jan-2021 260.30 4413.67 3656.51 3079.56 81.20 4.00
   07:32:47.761.05-Jan-2021 260.50 4413.85 3656.51 3079.56 81.20 4.00
   07:32:47.961.05-Jan-2021 260.70 4413.95 3656.51 3079.56 81.20 4.00
   07:32:48.161.05-Jan-2021 260.90 4413.59 3656.51 3079.56 81.20 4.00
   07:32:48.361.05-Jan-2021 261.10 4414.18 3656.51 3079.56 81.20 4.00
   07:32:48.561.05-Jan-2021 261.30 4414.18 3656.51 3079.56 81.20 4.00
   07:32:48.761.05-Jan-2021 261.50 4413.88 3656.51 3079.56 81.20 4.00
   07:32:48.961.05-Jan-2021 261.70 4413.92 3656.51 3079.56 81.20 4.00
   07:32:49.161.05-Jan-2021 261.90 4413.82 3656.51 3079.56 81.20 4.00
   07:32:49.362.05-Jan-2021 262.10 4413.92 3656.51 3079.56 81.20 4.00
   07:32:49.562.05-Jan-2021 262.30 4413.92 3656.51 3079.56 81.20 4.00
   07:32:49.762.05-Jan-2021 262.50 4413.90 3656.51 3079.56 81.20 4.00
   07:32:49.962.05-Jan-2021 262.70 4413.85 3656.51 3079.56 81.20 4.00
   07:32:50.162.05-Jan-2021 262.90 4413.82 3656.51 3079.56 81.20 4.00
   07:32:50.362.05-Jan-2021 263.10 4413.98 3656.51 3079.56 81.20 4.00
   07:32:50.562.05-Jan-2021 263.30 4413.98 3656.51 3079.56 81.20 4.00
   07:32:50.762.05-Jan-2021 263.50 4414.00 3656.51 3079.56 81.20 4.00
   07:32:50.962.05-Jan-2021 263.70 4413.77 3656.51 3079.56 81.20 4.00
   07:32:51.162.05-Jan-2021 263.90 4413.94 3656.51 3079.56 81.20 4.00
   07:32:51.362.05-Jan-2021 264.10 4413.86 3656.51 3079.56 81.20 4.00
   07:32:51.562.05-Jan-2021 264.30 4413.86 3656.51 3079.56 81.20 4.00
   07:32:51.762.05-Jan-2021 264.50 4413.66 3656.51 3079.56 81.20 4.00
   07:32:51.962.05-Jan-2021 264.70 4414.14 3656.51 3079.56 81.20 4.00
   07:32:52.163.05-Jan-2021 264.90 4413.85 3656.51 3079.56 81.20 4.00
   07:32:52.363.05-Jan-2021 265.10 4413.93 3656.51 3079.56 81.20 4.00
   07:32:52.563.05-Jan-2021 265.30 4413.93 3656.51 3079.56 81.20 4.00
   07:32:52.763.05-Jan-2021 265.50 4413.93 3656.51 3079.56 81.20 4.00
   07:32:52.963.05-Jan-2021 265.70 4413.82 3656.51 3079.56 81.20 4.00
   07:32:53.163.05-Jan-2021 265.90 4413.92 3656.51 3079.56 81.20 4.00
   07:32:53.363.05-Jan-2021 266.10 4413.85 3656.51 3079.56 81.20 4.00
   07:32:53.563.05-Jan-2021 266.30 4413.85 3656.51 3079.56 81.20 4.00
   07:32:53.763.05-Jan-2021 266.50 4413.82 3656.51 3079.56 81.20 4.00
   07:32:53.963.05-Jan-2021 266.70 4413.92 3656.51 3079.56 81.20 4.00
   07:32:54.163.05-Jan-2021 266.90 4413.82 3656.51 3079.56 81.20 4.00
   07:32:54.363.05-Jan-2021 267.10 4413.89 3656.51 3079.56 81.20 4.00
   07:32:54.563.05-Jan-2021 267.30 4413.89 3656.51 3079.56 81.20 4.00
   07:32:54.764.05-Jan-2021 267.50 4413.82 3656.51 3079.56 81.20 4.00
   07:32:54.964.05-Jan-2021 267.70 4413.67 3656.51 3079.56 81.20 4.00
   07:32:55.164.05-Jan-2021 267.90 4414.26 3656.51 3079.56 81.21 4.00
   07:32:55.364.05-Jan-2021 268.10 4413.84 3656.51 3079.56 81.21 4.00
   07:32:55.564.05-Jan-2021 268.30 4413.84 3656.51 3079.56 81.21 4.00
   07:32:55.764.05-Jan-2021 268.50 4413.42 3656.51 3079.56 81.21 4.00
   07:32:55.964.05-Jan-2021 268.70 4414.29 3656.51 3079.56 81.21 4.00
   07:32:56.164.05-Jan-2021 268.90 4413.80 3656.51 3079.56 81.21 4.00
   07:32:56.364.05-Jan-2021 269.10 4413.86 3656.51 3079.56 81.21 4.00
   07:32:56.564.05-Jan-2021 269.30 4413.86 3656.51 3079.56 81.21 4.00
   07:32:56.764.05-Jan-2021 269.50 4414.28 3656.51 3079.56 81.21 4.00
   07:32:56.964.05-Jan-2021 269.70 4413.85 3656.51 3079.56 81.21 4.00
   07:32:57.164.05-Jan-2021 269.90 4413.76 3656.51 3079.56 81.21 4.00
   07:32:57.364.05-Jan-2021 270.10 4413.77 3656.51 3079.56 81.21 4.00
   07:32:57.565.05-Jan-2021 270.30 4413.77 3656.51 3079.56 81.21 4.00
   07:32:57.765.05-Jan-2021 270.50 4413.96 3656.51 3079.56 81.21 4.00
   07:32:57.965.05-Jan-2021 270.70 4413.72 3656.51 3079.56 81.21 4.00
   07:32:58.165.05-Jan-2021 270.90 4413.90 3656.51 3079.56 81.21 4.00
   07:32:58.365.05-Jan-2021 271.10 4413.88 3656.51 3079.56 81.21 4.00
   07:32:58.565.05-Jan-2021 271.30 4413.88 3656.51 3079.56 81.21 4.00
   07:32:58.765.05-Jan-2021 271.50 4413.80 3656.51 3079.56 81.21 4.00
   07:32:58.965.05-Jan-2021 271.70 4413.91 3656.51 3079.56 81.21 4.00
   07:32:59.165.05-Jan-2021 271.90 4413.77 3656.51 3079.56 81.21 4.00
   07:32:59.365.05-Jan-2021 272.10 4414.01 3656.51 3079.56 81.21 4.00
   07:32:59.565.05-Jan-2021 272.30 4414.01 3656.51 3079.56 81.21 4.00
   07:32:59.765.05-Jan-2021 272.50 4414.01 3656.51 3079.56 81.21 4.00
   07:32:59.965.05-Jan-2021 272.70 4413.74 3656.51 3079.56 81.21 4.00
   07:33:00.166.05-Jan-2021 272.90 4413.65 3656.51 3079.56 81.21 4.00
   07:33:00.366.05-Jan-2021 273.10 4414.12 3656.51 3079.56 81.21 4.00
   07:33:00.566.05-Jan-2021 273.30 4414.12 3656.51 3079.56 81.21 4.00
   07:33:00.766.05-Jan-2021 273.50 4413.91 3656.51 3079.56 81.21 4.00
   07:33:00.966.05-Jan-2021 273.70 4413.88 3656.51 3079.56 81.21 4.00
   07:33:01.166.05-Jan-2021 273.90 4413.85 3656.51 3079.56 81.21 4.00
   07:33:01.366.05-Jan-2021 274.10 4413.89 3656.51 3079.56 81.21 4.00
   07:33:01.566.05-Jan-2021 274.30 4413.89 3656.51 3079.56 81.21 4.00
   07:33:01.766.05-Jan-2021 274.50 4413.84 3656.51 3079.56 81.21 4.00
   07:33:01.966.05-Jan-2021 274.70 4413.84 3656.51 3079.56 81.21 4.00
   07:33:02.166.05-Jan-2021 274.90 4413.81 3656.51 3079.56 81.21 4.00
   07:33:02.366.05-Jan-2021 275.10 4413.93 3656.51 3079.56 81.21 4.00
   07:33:02.566.05-Jan-2021 275.30 4413.93 3656.51 3079.56 81.21 4.00
   07:33:02.766.05-Jan-2021 275.50 4413.68 3656.51 3079.56 81.21 4.00
   07:33:02.967.05-Jan-2021 275.70 4414.05 3656.51 3079.56 81.21 4.00
   07:33:03.167.05-Jan-2021 275.90 4413.87 3656.51 3079.56 81.21 4.00
