~Version Information
 VERS.                  2.0:   CWLS log ASCII Standard -VERSION 2.0
 WRAP.                   NO:   One line per depth step
~Well Information Block
#MNEM.UNIT     VALUE/NAME     DESCRIPTION
#---------     -----------    ---------------------------
 STRT.S             14:32:26 05-Jan-21: START TIME 14:32:26 05-Jan-21
 STOP.S             14:40:38 05-Jan-21: STOP TIME  14:40:38 05-Jan-21
 STEP.S                   0.00: STEP TIME
 NULL.                 -999.25: NULL VALUE
 DFWT.                        :  DIST FWL TEXT
 DFST.                        :  DIST FSL TEXT
 DMF .             Drill Floor:  DRILL MEAS FROM
 STIM.      06.00.00 31-Dec-20:  START TIME
 DATE.      05.58.24 07-Jan-21:  END TIME
 SPUD.               24-Dec-20:  SPUD DATE
 NREF.                    Grid:  NORTH REFERENCE
 HPTY.       Minimum Curvature:  HOLE POS TYPE
 DMOD.             Drill Model:  DRILL MOD DESC
 SVYD.                  Survey:  SURVEY DESC
 ILTD.               Lithology:  INTERP LTH DESC
 FTOP.          Formation Tops:  FORM TOPS DESC
 SON .        AZ-XX-0906699554:  JOB NUMBER
 WELL.                    B09z:  WELL NAME
 PDAT.          Mean Sea Level:  PERMANENT DATUM
 FLD .                     ACG:  FIELD NAME
 CTRY.              Azerbaijan:  COUNTRY NAME
 COMP.     BP Exploration (Caspian Sea) Ltd.:  COMPANY
 UWI .                     N/A:  UNIQUE WELL IDENTIFIER
 API .                     N/A:  API NUMBER
 WTYP.                Deviated:  WELL TYPE
 MDS .        Operator Entered:  MAG DATA SOURCE
 BASE.              Azerbaijan:  LOGGING EQUIPMENT BASE LOCATION
 REGN.                   EESSA:  REGION
 PROV.                    Baku:  PROVINCE
 STAT.                    Baku:  STATE NAME
 SRVC.          Turan Drilling:  CONTRACTOR
 MWDS.                    Baku:  MWD SHOP
 JOBN.        AZ-XX-0906699554:  JOB TICKET NUMB
 RIG .           Central Azeri:  RIG NAME
 DOE .                     N/A:  DOE NUMBER
 DCON.         Sperry Drilling:  DIRECTNL CONTR
 UNIT.                     N/A:  LOGGING EQUIPMENT ID
 CNTY.                        :  COUNTY
 LOC .                        :  LOCATION
 LMF .             Drill Floor:  LOG MEASURED FROM
 TVDS.m                  43.29:  TVDSS CORRECTN
 LATI.deg                40.03:  LATITUDE
 LONG.deg                51.35:  LONGITUDE
 WHNS.m                  -2.76:  WELL HEAD N/S
 WHEW.m                  -7.70:  WELL HEAD E/W
 UTMX.m              530128.28:  UTM X
 UTMY.m             4433192.49:  UTM Y
 DFWL.m                   0.00:  DISTANCE FWL
 DFSL.m                   0.00:  DISTANCE FSL
 SDEP.m                3435.01:  START DEPTH
 TDD .m                3814.01:  TOTAL DEPTH (DRILLER)
 VSDR.deg               352.80:  VERT SEC DIRECT
 GVFD.g                   1.00:  GRAVITY FIELD
 MFLD.nT              50303.00:  MAGNETIC FIELD
 MDIP.deg                59.52:  MAGNETIC DIP
 MDEC.deg                 6.47:  MAGNETIC DECL
 GRDC.deg                 0.23:  GRID CORRECTION
 AZTC.deg                 6.24:  AZM TOTAL CORR
 EPD .m                   0.00:  ELEVATION
 EGL .m                   0.00:  GROUND ELEVATION
 WDMS.m                 128.20:  WD ELEV
 APD .m                  43.29:  DEPTH ABOVE PD
 DEP .m                3421.30:  DEPTH
 AGAP.m                  43.60:  AIR GAP
 VSEW.m                  -7.70:  VERT SEC E/W
 VSNS.m                  -2.76:  VERT SEC N/S
 EKB .m                   0.00:  KB ELEVATION
 EDF .m                  43.29:  DF ELEVATION
 TDL .m                 369.00:  TOTAL DEPTH (LOGGER)
 VSC .                       0:  VS TO CLOSURE
 MAGU.                 1850390:  MAGUTM CHECKSUM
~Parameter Information Block
#MNEM.UNIT       Value        Description
#---------     -----------    ---------------------------
 AV  .mps                 2.80:  Ann Velocity 
 AVMX.mps                 4.67:  Max Ann Veloc 
 AZIF.deg               303.89:  Azm, Final 
 BHAT.        Rotary Steerable:  BHA Type 
 BREV.rev            128542.00:  Rev Bit Total 
 BROT.°/30m               1.50:  Build Rotating 
 BS  .in                  8.50:  Bit Size 
 BSZ .in                  8.50:  Bit Size 
 BTPL.psig              715.00:  Bit Press Loss 
 CABU.                      No:  Customer Abuse 
 COMM.                     œ¬Z:  Run Comments 1 
 TCS .hr                 53.00:  Time Ciculation Ended 
 CV  .mps                 3.85:  Crit Velocity 
 CVMX.mps                 4.75:  Max Crit Veloc 
 DD1 .         Intigam Rahimov:  Direct Drillr 1 
 DDSV.                 iCruise:  DD Service 
 DEFF.%                  98.60:  % Det Eff 
 DLRX.°/30m               2.34:  Dogleg Rot Max 
 DLSO.°/30m               0.00:  Dogleg Oriented 
 DLSX.°/30m               0.00:  Dogleg Str Max 
 DRET.      00.15.00 05-Jan-21:  Drill End Time 
 DRST.      22.00.00 03-Jan-21:  Drill Start Tim 
 DTIM.hr                 17.72:  Time Drilling 
 EDEP.m                3814.01:  End Depth 
 ENG1.         Yevgeniy Ulikov:  Engineer 1 
 ENG2.        Farkhad Khalidov:  Engineer 2 
 ENG3.           Samir Gafarov:  Engineer 3 
 ETIM.      21.00.00 07-Jan-21:  End Time 
 FLOI.gpm               590.00:  Flow In 
 FLON.gpm               580.00:  Flow In Min 
 FLOS.cptm                1.00:  Fluid Loss 
 FLOX.gpm               595.00:  Flow In Max 
 FTRO.     Connectivity, Formation Presure:  FTWD Run Obj 
 HFLO.                      No:  High Flow 
 HPRE.                     Yes:  High Pressure 
 HTEM.                      No:  High Temp 
 HYDO.m                   1.80:  Hydro Offset 
 IFIN.deg                63.76:  Inc, Final 
 IMAX.deg                64.09:  Inc Max 
 IMIN.deg                55.81:  Inc Min 
 IMND.m                3455.62:  Inc Min Depth 
 IMXD.m                3796.03:  Inc Max Depth 
 JARR.                      No:  Jarring 
 LETM.      00.15.00 05-Jan-21:  Log End Time 
 LOST.hr                     0:  Lost Rig Time 
 LSTM.      22.00.00 03-Jan-21:  Log Start Time 
 MDCL.ppm             36000.00:  Mud Chlorides 
 MDES.     Inversion Oil/Synthetic:  Mud Desc 
 DFD .sg                  1.51:  Mud Density 
 MDMN.sg                  1.51:  Dens Mud Min 
 MDMX.sg                  1.51:  Dens Mud Max 
 MOIL.                    55.5:  Run Mud Oil % 
 MOWR.                   70:30:  Run Mud OWR 
 MSND.                     0.1:  Run Mud Sand % 
 MSOL.                   20.77:  Run Mud Solids% 
 DFV .spqt               67.00:  Mud Viscosity 
 MWOD.in                  6.75:  MWD Tool OD 
 MWSI.                      No:  Serv Intrp, MWD 
 OTIM.hr                113.53:  Time Operating 
 PCON.           Look Like New:  Pad Condition 
 PMAX.psia             4830.00:  Press Op, Max 
 PV  .cP                 29.00:  Mud PV 
 RUN .                     300:  Run Number 
 ROPA.m/hr               22.00:  ROP Avg 
 ROPN.m/hr               18.00:  ROP Min 
 ROPX.m/hr               25.00:  ROP Max 
 RPMA.rpm               130.00:  RPM Surface Avg 
 RPMN.rpm                80.00:  RPM Surface Min 
 RPMX.rpm               140.00:  RPM Surface Max 
 RRUN.                    L101:  Rig Run Number 
 RTIM.hr                  9.28:  Time Reaming 
 SAZI.deg               316.55:  Azm, Start 
 SDEP.m                3445.01:  Start Depth 
 SIDD.                      No:  Serv Intrp, DD 
 SINC.deg                55.81:  Inc, Start 
 SPPA.psig             4500.00:  SPP Avg 
 SPPN.psig             4350.00:  SPP Min 
 SPPX.psig             4830.00:  SPP Max 
 STIM.      00.00.00 03-Jan-21:  Start Time 
 SVCS.                 DD, MWD:  Services 
 SVER.                    9.20:  Sperry Version 
 TDAT.m                 369.00:  Tot Depth Attmp 
 TDDF.                      No:  Trip for DD 
 TDLG.m                 369.00:  Tot Depth Loggd 
 TFF .                      No:  Trip for Fail 
 TQAA.f-kp               15.00:  Torque Abs Avg 
 TQAN.f-kp               12.00:  Torque Abs Min 
 TQAX.f-kp               16.00:  Torque Abs Max 
 TRRT.°/30m              -2.10:  Turn Rotating 
 MRT .                    HCIM:  Maximum Recorded Temperature 
 TTMX.degC               92.16:  Max Tool Temp 
 VS01.                90627822:  Virtual Str1 SN 
 VS02.                90550008:  Virtual Str2 SN 
 VS03.                90627816:  Virtual Str3 SN 
 VS04.                90633205:  Virtual Str4 SN 
 VS05.                13033835:  Virtual Str5 SN 
 VS06.                11125125:  Virtual Str6 SN 
 WBMN.klb                 8.00:  WOB Min 
 WITN.            Bruce Cheyne:  Customer Rep 
 WITN.           Faig Mammadov:  Customer Rep 2 
 WOBA.klb                 9.00:  WOB Avg 
 WOBX.klb                12.00:  WOB Max 
 YP  .lhf2               30.00:  Yield Point 
~Curve Information Block
#MNEM.UNIT                 API CODE     Curve Description
#---------               -----------    ---------------------------
 TIME.HHMMSS            00 000 000 000:  GT Time & Date
 GTET.sec               00 000 000 000:  GT Elapsed Test Time
 GTPQH.psia             00 000 000 000:  GT HR Quartz Pressure
 GTDEPTH.m              00 000 000 000:  GT Depth
 GTTVD.m                00 000 000 000:  GT True Vertical Depth
 GTTQ.degC              00 000 000 000:  GT Quartz Temperature
 GTTN.NONE              00 000 000 000:  GT Test Number
#Other Information
#
#WARRANTY: Halliburton will use its best efforts to furnish customers with 
#accurate information and interpretations that are part of, and incident to, the services 
#provided.  However, Halliburton cannot and does not warrant the accuracy 
#or correctness of such information and interpretations.  Under no circumstances should any 
#such information or interpretation be relied upon as the sole basis for any drilling, 
#completion, production, or financial decision or any procedure involving any risk to the 
#safety of any drilling venture, drilling rig or its crew or any other third party.  The 
#Customer has full responsibility for all drilling, completion and production operation.  
#Halliburton makes no representations or warranties, either expressed or 
#implied, including, but not limited to, the implied warranties of merchantability or fitness 
#for a particular purpose, with respect to the services rendered.  In no event will 
#Halliburton be liable for failure to obtain any particular results or for 
#any damages, including, but not limited to, indirect, special or consequential damages, 
#resulting from the use of any information or interpretation provided by Halliburton.
#
~A           TIME            GTET   GTPQH  GTDEPTH  GTTVD  GTTQ  GTTN 
# ...
   14:38:57.000.05-Jan-2021 391.00 4870.90 3453.01 2973.12 77.58 8.00
   14:38:57.200.05-Jan-2021 391.20 4870.94 3453.01 2973.12 77.58 8.00
   14:38:57.400.05-Jan-2021 391.40 4870.94 3453.01 2973.12 77.58 8.00
   14:38:57.600.05-Jan-2021 391.60 4870.89 3453.01 2973.12 77.58 8.00
   14:38:57.800.05-Jan-2021 391.80 4870.90 3453.01 2973.12 77.58 8.00
   14:38:58.000.05-Jan-2021 392.00 4870.94 3453.01 2973.12 77.58 8.00
   14:38:58.200.05-Jan-2021 392.20 4870.94 3453.01 2973.12 77.58 8.00
   14:38:58.400.05-Jan-2021 392.40 4871.35 3453.01 2973.12 77.58 8.00
   14:38:58.600.05-Jan-2021 392.60 4870.93 3453.01 2973.12 77.58 8.00
   14:38:58.800.05-Jan-2021 392.80 4870.93 3453.01 2973.12 77.58 8.00
   14:38:59.000.05-Jan-2021 393.00 4870.96 3453.01 2973.12 77.58 8.00
   14:38:59.200.05-Jan-2021 393.20 4870.93 3453.01 2973.12 77.58 8.00
   14:38:59.400.05-Jan-2021 393.40 4870.91 3453.01 2973.12 77.58 8.00
   14:38:59.600.05-Jan-2021 393.60 4870.87 3453.01 2973.12 77.58 8.00
   14:38:59.800.05-Jan-2021 393.80 4870.98 3453.01 2973.12 77.58 8.00
   14:39:00.000.05-Jan-2021 394.00 4870.94 3453.01 2973.12 77.58 8.00
   14:39:00.200.05-Jan-2021 394.20 4870.94 3453.01 2973.12 77.58 8.00
   14:39:00.400.05-Jan-2021 394.40 4870.92 3453.01 2973.12 77.58 8.00
   14:39:00.600.05-Jan-2021 394.60 4870.90 3453.01 2973.12 77.58 8.00
   14:39:00.800.05-Jan-2021 394.80 4870.58 3453.01 2973.12 77.58 8.00
   14:39:01.000.05-Jan-2021 395.00 4871.15 3453.01 2973.12 77.58 8.00
   14:39:01.200.05-Jan-2021 395.20 4871.15 3453.01 2973.12 77.58 8.00
   14:39:01.400.05-Jan-2021 395.40 4870.38 3453.01 2973.12 77.58 8.00
   14:39:01.600.05-Jan-2021 395.60 4871.38 3453.01 2973.12 77.58 8.00
   14:39:01.800.05-Jan-2021 395.80 4870.95 3453.01 2973.12 77.58 8.00
   14:39:02.000.05-Jan-2021 396.00 4870.67 3453.01 2973.12 77.58 8.00
   14:39:02.200.05-Jan-2021 396.20 4871.11 3453.01 2973.12 77.58 8.00
   14:39:02.400.05-Jan-2021 396.40 4870.93 3453.01 2973.12 77.58 8.00
   14:39:02.600.05-Jan-2021 396.60 4870.44 3453.01 2973.12 77.58 8.00
   14:39:02.800.05-Jan-2021 396.80 4871.35 3453.01 2973.12 77.58 8.00
   14:39:03.000.05-Jan-2021 397.00 4870.90 3453.01 2973.12 77.58 8.00
   14:39:03.200.05-Jan-2021 397.20 4870.88 3453.01 2973.12 77.58 8.00
   14:39:03.400.05-Jan-2021 397.40 4871.00 3453.01 2973.12 77.58 8.00
   14:39:03.600.05-Jan-2021 397.60 4870.91 3453.01 2973.12 77.58 8.00
   14:39:03.800.05-Jan-2021 397.80 4870.75 3453.01 2973.12 77.58 8.00
   14:39:04.000.05-Jan-2021 398.00 4870.96 3453.01 2973.12 77.58 8.00
   14:39:04.200.05-Jan-2021 398.20 4870.96 3453.01 2973.12 77.58 8.00
   14:39:04.400.05-Jan-2021 398.40 4871.06 3453.01 2973.12 77.58 8.00
   14:39:04.600.05-Jan-2021 398.60 4870.82 3453.01 2973.12 77.58 8.00
   14:39:04.800.05-Jan-2021 398.80 4870.92 3453.01 2973.12 77.58 8.00
   14:39:05.000.05-Jan-2021 399.00 4870.88 3453.01 2973.12 77.58 8.00
   14:39:05.200.05-Jan-2021 399.20 4870.88 3453.01 2973.12 77.58 8.00
   14:39:05.400.05-Jan-2021 399.40 4870.94 3453.01 2973.12 77.58 8.00
   14:39:05.600.05-Jan-2021 399.60 4870.92 3453.01 2973.12 77.58 8.00
   14:39:05.800.05-Jan-2021 399.80 4870.89 3453.01 2973.12 77.58 8.00
   14:39:06.000.05-Jan-2021 400.00 4870.91 3453.01 2973.12 77.58 8.00
   14:39:06.200.05-Jan-2021 400.20 4870.91 3453.01 2973.12 77.58 8.00
   14:39:06.400.05-Jan-2021 400.40 4870.95 3453.01 2973.12 77.58 8.00
   14:39:06.600.05-Jan-2021 400.60 4870.77 3453.01 2973.12 77.58 8.00
   14:39:06.800.05-Jan-2021 400.80 4870.95 3453.01 2973.12 77.58 8.00
   14:39:07.000.05-Jan-2021 401.00 4870.94 3453.01 2973.12 77.58 8.00
   14:39:07.200.05-Jan-2021 401.20 4870.94 3453.01 2973.12 77.58 8.00
   14:39:07.400.05-Jan-2021 401.40 4870.86 3453.01 2973.12 77.58 8.00
   14:39:07.600.05-Jan-2021 401.60 4870.89 3453.01 2973.12 77.58 8.00
   14:39:07.800.05-Jan-2021 401.80 4870.86 3453.01 2973.12 77.58 8.00
   14:39:08.000.05-Jan-2021 402.00 4870.97 3453.01 2973.12 77.58 8.00
   14:39:08.200.05-Jan-2021 402.20 4870.94 3453.01 2973.12 77.58 8.00
   14:39:08.400.05-Jan-2021 402.40 4870.87 3453.01 2973.12 77.58 8.00
   14:39:08.600.05-Jan-2021 402.60 4870.91 3453.01 2973.12 77.58 8.00
   14:39:08.800.05-Jan-2021 402.80 4870.92 3453.01 2973.12 77.58 8.00
   14:39:09.000.05-Jan-2021 403.00 4870.91 3453.01 2973.12 77.58 8.00
   14:39:09.200.05-Jan-2021 403.20 4870.91 3453.01 2973.12 77.58 8.00
   14:39:09.400.05-Jan-2021 403.40 4871.09 3453.01 2973.12 77.58 8.00
   14:39:09.600.05-Jan-2021 403.60 4870.93 3453.01 2973.12 77.58 8.00
   14:39:09.800.05-Jan-2021 403.80 4870.89 3453.01 2973.12 77.58 8.00
   14:39:10.000.05-Jan-2021 404.00 4870.96 3453.01 2973.12 77.58 8.00
   14:39:10.200.05-Jan-2021 404.20 4870.96 3453.01 2973.12 77.58 8.00
   14:39:10.400.05-Jan-2021 404.40 4870.87 3453.01 2973.12 77.58 8.00
   14:39:10.600.05-Jan-2021 404.60 4870.92 3453.01 2973.12 77.58 8.00
   14:39:10.800.05-Jan-2021 404.80 4870.93 3453.01 2973.12 77.58 8.00
   14:39:11.000.05-Jan-2021 405.00 4870.81 3453.01 2973.12 77.58 8.00
   14:39:11.200.05-Jan-2021 405.20 4870.93 3453.01 2973.12 77.58 8.00
   14:39:11.400.05-Jan-2021 405.40 4870.91 3453.01 2973.12 77.58 8.00
   14:39:11.600.05-Jan-2021 405.60 4871.03 3453.01 2973.12 77.58 8.00
   14:39:11.800.05-Jan-2021 405.80 4870.88 3453.01 2973.12 77.58 8.00
   14:39:12.000.05-Jan-2021 406.00 4870.56 3453.01 2973.12 77.58 8.00
   14:39:12.200.05-Jan-2021 406.20 4870.56 3453.01 2973.12 77.58 8.00
   14:39:12.400.05-Jan-2021 406.40 4870.98 3453.01 2973.12 77.58 8.00
   14:39:12.600.05-Jan-2021 406.60 4870.96 3453.01 2973.12 77.58 8.00
   14:39:12.800.05-Jan-2021 406.80 4870.94 3453.01 2973.12 77.58 8.00
   14:39:13.000.05-Jan-2021 407.00 4870.85 3453.01 2973.12 77.58 8.00
   14:39:13.200.05-Jan-2021 407.20 4870.85 3453.01 2973.12 77.58 8.00
   14:39:13.400.05-Jan-2021 407.40 4870.93 3453.01 2973.12 77.58 8.00
   14:39:13.600.05-Jan-2021 407.60 4870.94 3453.01 2973.12 77.58 8.00
   14:39:13.800.05-Jan-2021 407.80 4870.90 3453.01 2973.12 77.58 8.00
   14:39:14.000.05-Jan-2021 408.00 4870.89 3453.01 2973.12 77.58 8.00
   14:39:14.200.05-Jan-2021 408.20 4870.93 3453.01 2973.12 77.58 8.00
   14:39:14.400.05-Jan-2021 408.40 4870.94 3453.01 2973.12 77.59 8.00
   14:39:14.600.05-Jan-2021 408.60 4870.92 3453.01 2973.12 77.58 8.00
   14:39:14.800.05-Jan-2021 408.80 4870.58 3453.01 2973.12 77.59 8.00
   14:39:15.000.05-Jan-2021 409.00 4871.10 3453.01 2973.12 77.59 8.00
   14:39:15.200.05-Jan-2021 409.20 4871.10 3453.01 2973.12 77.59 8.00
   14:39:15.400.05-Jan-2021 409.40 4870.97 3453.01 2973.12 77.59 8.00
   14:39:15.600.05-Jan-2021 409.60 4870.87 3453.01 2973.12 77.59 8.00
   14:39:15.800.05-Jan-2021 409.80 4870.93 3453.01 2973.12 77.59 8.00
   14:39:16.000.05-Jan-2021 410.00 4870.93 3453.01 2973.12 77.59 8.00
   14:39:16.200.05-Jan-2021 410.20 4870.93 3453.01 2973.12 77.59 8.00
   14:39:16.400.05-Jan-2021 410.40 4870.94 3453.01 2973.12 77.59 8.00
   14:39:16.600.05-Jan-2021 410.60 4870.86 3453.01 2973.12 77.59 8.00
   14:39:16.800.05-Jan-2021 410.80 4870.92 3453.01 2973.12 77.59 8.00
   14:39:17.000.05-Jan-2021 411.00 4870.94 3453.01 2973.12 77.59 8.00
   14:39:17.200.05-Jan-2021 411.20 4870.94 3453.01 2973.12 77.59 8.00
   14:39:17.400.05-Jan-2021 411.40 4870.89 3453.01 2973.12 77.59 8.00
   14:39:17.600.05-Jan-2021 411.60 4870.78 3453.01 2973.12 77.59 8.00
   14:39:17.800.05-Jan-2021 411.80 4870.96 3453.01 2973.12 77.59 8.00
   14:39:18.000.05-Jan-2021 412.00 4870.65 3453.01 2973.12 77.59 8.00
   14:39:18.200.05-Jan-2021 412.20 4871.15 3453.01 2973.12 77.59 8.00
   14:39:18.400.05-Jan-2021 412.40 4870.88 3453.01 2973.12 77.59 8.00
   14:39:18.600.05-Jan-2021 412.60 4870.40 3453.01 2973.12 77.59 8.00
   14:39:18.800.05-Jan-2021 412.80 4871.39 3453.01 2973.12 77.59 8.00
   14:39:19.000.05-Jan-2021 413.00 4870.99 3453.01 2973.12 77.59 8.00
   14:39:19.200.05-Jan-2021 413.20 4870.32 3453.01 2973.12 77.59 8.00
   14:39:19.400.05-Jan-2021 413.40 4871.35 3453.01 2973.12 77.59 8.00
   14:39:19.600.05-Jan-2021 413.60 4870.98 3453.01 2973.12 77.59 8.00
   14:39:19.800.05-Jan-2021 413.80 4870.93 3453.01 2973.12 77.59 8.00
