~Version Information
 VERS.                  2.0:   CWLS log ASCII Standard -VERSION 2.0
 WRAP.                   NO:   One line per depth step
~Well Information Block
#MNEM.UNIT     VALUE/NAME     DESCRIPTION
#---------     -----------    ---------------------------
 STRT.S             13:40:14 05-Jan-21: START TIME 13:40:14 05-Jan-21
 STOP.S             13:48:27 05-Jan-21: STOP TIME  13:48:27 05-Jan-21
 STEP.S                   0.00: STEP TIME
 NULL.                 -999.25: NULL VALUE
 DFWT.                        :  DIST FWL TEXT
 DFST.                        :  DIST FSL TEXT
 DMF .             Drill Floor:  DRILL MEAS FROM
 STIM.      06.00.00 31-Dec-20:  START TIME
 DATE.      05.58.24 07-Jan-21:  END TIME
 SPUD.               24-Dec-20:  SPUD DATE
 NREF.                    Grid:  NORTH REFERENCE
 HPTY.       Minimum Curvature:  HOLE POS TYPE
 DMOD.             Drill Model:  DRILL MOD DESC
 SVYD.                  Survey:  SURVEY DESC
 ILTD.               Lithology:  INTERP LTH DESC
 FTOP.          Formation Tops:  FORM TOPS DESC
 SON .        AZ-XX-0906699554:  JOB NUMBER
 WELL.                    B09z:  WELL NAME
 PDAT.          Mean Sea Level:  PERMANENT DATUM
 FLD .                     ACG:  FIELD NAME
 CTRY.              Azerbaijan:  COUNTRY NAME
 COMP.     BP Exploration (Caspian Sea) Ltd.:  COMPANY
 UWI .                     N/A:  UNIQUE WELL IDENTIFIER
 API .                     N/A:  API NUMBER
 WTYP.                Deviated:  WELL TYPE
 MDS .        Operator Entered:  MAG DATA SOURCE
 BASE.              Azerbaijan:  LOGGING EQUIPMENT BASE LOCATION
 REGN.                   EESSA:  REGION
 PROV.                    Baku:  PROVINCE
 STAT.                    Baku:  STATE NAME
 SRVC.          Turan Drilling:  CONTRACTOR
 MWDS.                    Baku:  MWD SHOP
 JOBN.        AZ-XX-0906699554:  JOB TICKET NUMB
 RIG .           Central Azeri:  RIG NAME
 DOE .                     N/A:  DOE NUMBER
 DCON.         Sperry Drilling:  DIRECTNL CONTR
 UNIT.                     N/A:  LOGGING EQUIPMENT ID
 CNTY.                        :  COUNTY
 LOC .                        :  LOCATION
 LMF .             Drill Floor:  LOG MEASURED FROM
 TVDS.m                  43.29:  TVDSS CORRECTN
 LATI.deg                40.03:  LATITUDE
 LONG.deg                51.35:  LONGITUDE
 WHNS.m                  -2.76:  WELL HEAD N/S
 WHEW.m                  -7.70:  WELL HEAD E/W
 UTMX.m              530128.28:  UTM X
 UTMY.m             4433192.49:  UTM Y
 DFWL.m                   0.00:  DISTANCE FWL
 DFSL.m                   0.00:  DISTANCE FSL
 SDEP.m                3435.01:  START DEPTH
 TDD .m                3814.01:  TOTAL DEPTH (DRILLER)
 VSDR.deg               352.80:  VERT SEC DIRECT
 GVFD.g                   1.00:  GRAVITY FIELD
 MFLD.nT              50303.00:  MAGNETIC FIELD
 MDIP.deg                59.52:  MAGNETIC DIP
 MDEC.deg                 6.47:  MAGNETIC DECL
 GRDC.deg                 0.23:  GRID CORRECTION
 AZTC.deg                 6.24:  AZM TOTAL CORR
 EPD .m                   0.00:  ELEVATION
 EGL .m                   0.00:  GROUND ELEVATION
 WDMS.m                 128.20:  WD ELEV
 APD .m                  43.29:  DEPTH ABOVE PD
 DEP .m                3421.30:  DEPTH
 AGAP.m                  43.60:  AIR GAP
 VSEW.m                  -7.70:  VERT SEC E/W
 VSNS.m                  -2.76:  VERT SEC N/S
 EKB .m                   0.00:  KB ELEVATION
 EDF .m                  43.29:  DF ELEVATION
 TDL .m                 369.00:  TOTAL DEPTH (LOGGER)
 VSC .                       0:  VS TO CLOSURE
 MAGU.                 1850390:  MAGUTM CHECKSUM
~Parameter Information Block
#MNEM.UNIT       Value        Description
#---------     -----------    ---------------------------
 AV  .mps                 2.80:  Ann Velocity 
 AVMX.mps                 4.67:  Max Ann Veloc 
 AZIF.deg               303.89:  Azm, Final 
 BHAT.        Rotary Steerable:  BHA Type 
 BREV.rev            128542.00:  Rev Bit Total 
 BROT.°/30m               1.50:  Build Rotating 
 BS  .in                  8.50:  Bit Size 
 BSZ .in                  8.50:  Bit Size 
 BTPL.psig              715.00:  Bit Press Loss 
 CABU.                      No:  Customer Abuse 
 COMM.                     t6w:  Run Comments 1 
 TCS .hr                 53.00:  Time Ciculation Ended 
 CV  .mps                 3.85:  Crit Velocity 
 CVMX.mps                 4.75:  Max Crit Veloc 
 DD1 .         Intigam Rahimov:  Direct Drillr 1 
 DDSV.                 iCruise:  DD Service 
 DEFF.%                  98.60:  % Det Eff 
 DLRX.°/30m               2.34:  Dogleg Rot Max 
 DLSO.°/30m               0.00:  Dogleg Oriented 
 DLSX.°/30m               0.00:  Dogleg Str Max 
 DRET.      00.15.00 05-Jan-21:  Drill End Time 
 DRST.      22.00.00 03-Jan-21:  Drill Start Tim 
 DTIM.hr                 17.72:  Time Drilling 
 EDEP.m                3814.01:  End Depth 
 ENG1.         Yevgeniy Ulikov:  Engineer 1 
 ENG2.        Farkhad Khalidov:  Engineer 2 
 ENG3.           Samir Gafarov:  Engineer 3 
 ETIM.      21.00.00 07-Jan-21:  End Time 
 FLOI.gpm               590.00:  Flow In 
 FLON.gpm               580.00:  Flow In Min 
 FLOS.cptm                1.00:  Fluid Loss 
 FLOX.gpm               595.00:  Flow In Max 
 FTRO.     Connectivity, Formation Presure:  FTWD Run Obj 
 HFLO.                      No:  High Flow 
 HPRE.                     Yes:  High Pressure 
 HTEM.                      No:  High Temp 
 HYDO.m                   1.80:  Hydro Offset 
 IFIN.deg                63.76:  Inc, Final 
 IMAX.deg                64.09:  Inc Max 
 IMIN.deg                55.81:  Inc Min 
 IMND.m                3455.62:  Inc Min Depth 
 IMXD.m                3796.03:  Inc Max Depth 
 JARR.                      No:  Jarring 
 LETM.      00.15.00 05-Jan-21:  Log End Time 
 LOST.hr                     0:  Lost Rig Time 
 LSTM.      22.00.00 03-Jan-21:  Log Start Time 
 MDCL.ppm             36000.00:  Mud Chlorides 
 MDES.     Inversion Oil/Synthetic:  Mud Desc 
 DFD .sg                  1.51:  Mud Density 
 MDMN.sg                  1.51:  Dens Mud Min 
 MDMX.sg                  1.51:  Dens Mud Max 
 MOIL.                    55.5:  Run Mud Oil % 
 MOWR.                   70:30:  Run Mud OWR 
 MSND.                     0.1:  Run Mud Sand % 
 MSOL.                   20.77:  Run Mud Solids% 
 DFV .spqt               67.00:  Mud Viscosity 
 MWOD.in                  6.75:  MWD Tool OD 
 MWSI.                      No:  Serv Intrp, MWD 
 OTIM.hr                113.53:  Time Operating 
 PCON.           Look Like New:  Pad Condition 
 PMAX.psia             4830.00:  Press Op, Max 
 PV  .cP                 29.00:  Mud PV 
 RUN .                     300:  Run Number 
 ROPA.m/hr               22.00:  ROP Avg 
 ROPN.m/hr               18.00:  ROP Min 
 ROPX.m/hr               25.00:  ROP Max 
 RPMA.rpm               130.00:  RPM Surface Avg 
 RPMN.rpm                80.00:  RPM Surface Min 
 RPMX.rpm               140.00:  RPM Surface Max 
 RRUN.                    L101:  Rig Run Number 
 RTIM.hr                  9.28:  Time Reaming 
 SAZI.deg               316.55:  Azm, Start 
 SDEP.m                3445.01:  Start Depth 
 SIDD.                      No:  Serv Intrp, DD 
 SINC.deg                55.81:  Inc, Start 
 SPPA.psig             4500.00:  SPP Avg 
 SPPN.psig             4350.00:  SPP Min 
 SPPX.psig             4830.00:  SPP Max 
 STIM.      00.00.00 03-Jan-21:  Start Time 
 SVCS.                 DD, MWD:  Services 
 SVER.                    9.20:  Sperry Version 
 TDAT.m                 369.00:  Tot Depth Attmp 
 TDDF.                      No:  Trip for DD 
 TDLG.m                 369.00:  Tot Depth Loggd 
 TFF .                      No:  Trip for Fail 
 TQAA.f-kp               15.00:  Torque Abs Avg 
 TQAN.f-kp               12.00:  Torque Abs Min 
 TQAX.f-kp               16.00:  Torque Abs Max 
 TRRT.°/30m              -2.10:  Turn Rotating 
 MRT .                    HCIM:  Maximum Recorded Temperature 
 TTMX.degC               92.16:  Max Tool Temp 
 VS01.                90627822:  Virtual Str1 SN 
 VS02.                90550008:  Virtual Str2 SN 
 VS03.                90627816:  Virtual Str3 SN 
 VS04.                90633205:  Virtual Str4 SN 
 VS05.                13033835:  Virtual Str5 SN 
 VS06.                11125125:  Virtual Str6 SN 
 WBMN.klb                 8.00:  WOB Min 
 WITN.            Bruce Cheyne:  Customer Rep 
 WITN.           Faig Mammadov:  Customer Rep 2 
 WOBA.klb                 9.00:  WOB Avg 
 WOBX.klb                12.00:  WOB Max 
 YP  .lhf2               30.00:  Yield Point 
~Curve Information Block
#MNEM.UNIT                 API CODE     Curve Description
#---------               -----------    ---------------------------
 TIME.HHMMSS            00 000 000 000:  GT Time & Date
 GTET.sec               00 000 000 000:  GT Elapsed Test Time
 GTPQH.psia             00 000 000 000:  GT HR Quartz Pressure
 GTDEPTH.m              00 000 000 000:  GT Depth
 GTTVD.m                00 000 000 000:  GT True Vertical Depth
 GTTQ.degC              00 000 000 000:  GT Quartz Temperature
 GTTN.NONE              00 000 000 000:  GT Test Number
#Other Information
#
#WARRANTY: Halliburton will use its best efforts to furnish customers with 
#accurate information and interpretations that are part of, and incident to, the services 
#provided.  However, Halliburton cannot and does not warrant the accuracy 
#or correctness of such information and interpretations.  Under no circumstances should any 
#such information or interpretation be relied upon as the sole basis for any drilling, 
#completion, production, or financial decision or any procedure involving any risk to the 
#safety of any drilling venture, drilling rig or its crew or any other third party.  The 
#Customer has full responsibility for all drilling, completion and production operation.  
#Halliburton makes no representations or warranties, either expressed or 
#implied, including, but not limited to, the implied warranties of merchantability or fitness 
#for a particular purpose, with respect to the services rendered.  In no event will 
#Halliburton be liable for failure to obtain any particular results or for 
#any damages, including, but not limited to, indirect, special or consequential damages, 
#resulting from the use of any information or interpretation provided by Halliburton.
#
~A           TIME            GTET   GTPQH  GTDEPTH  GTTVD  GTTQ  GTTN 
# ...
   13:46:46.148.05-Jan-2021 391.22 4884.26 3494.01 2996.09 78.10 7.00
   13:46:46.348.05-Jan-2021 391.42 4884.11 3494.01 2996.09 78.10 7.00
   13:46:46.548.05-Jan-2021 391.62 4884.12 3494.01 2996.09 78.10 7.00
   13:46:46.748.05-Jan-2021 391.82 4883.72 3494.01 2996.09 78.10 7.00
   13:46:46.949.05-Jan-2021 392.02 4884.30 3494.01 2996.09 78.10 7.00
   13:46:47.149.05-Jan-2021 392.22 4883.99 3494.01 2996.09 78.10 7.00
   13:46:47.349.05-Jan-2021 392.42 4883.95 3494.01 2996.09 78.10 7.00
   13:46:47.549.05-Jan-2021 392.62 4884.23 3494.01 2996.09 78.10 7.00
   13:46:47.749.05-Jan-2021 392.82 4884.06 3494.01 2996.09 78.10 7.00
   13:46:47.949.05-Jan-2021 393.02 4884.09 3494.01 2996.09 78.10 7.00
   13:46:48.149.05-Jan-2021 393.22 4884.04 3494.01 2996.09 78.10 7.00
   13:46:48.349.05-Jan-2021 393.42 4884.11 3494.01 2996.09 78.10 7.00
   13:46:48.549.05-Jan-2021 393.62 4884.07 3494.01 2996.09 78.10 7.00
   13:46:48.750.05-Jan-2021 393.82 4884.21 3494.01 2996.09 78.10 7.00
   13:46:48.950.05-Jan-2021 394.02 4883.90 3494.01 2996.09 78.10 7.00
   13:46:49.150.05-Jan-2021 394.22 4884.08 3494.01 2996.09 78.11 7.00
   13:46:49.350.05-Jan-2021 394.42 4884.08 3494.01 2996.09 78.11 7.00
   13:46:49.550.05-Jan-2021 394.62 4883.99 3494.01 2996.09 78.11 7.00
   13:46:49.750.05-Jan-2021 394.82 4884.09 3494.01 2996.09 78.11 7.00
   13:46:49.950.05-Jan-2021 395.02 4884.06 3494.01 2996.09 78.11 7.00
   13:46:50.150.05-Jan-2021 395.22 4884.08 3494.01 2996.09 78.11 7.00
   13:46:50.350.05-Jan-2021 395.42 4884.08 3494.01 2996.09 78.11 7.00
   13:46:50.551.05-Jan-2021 395.62 4884.11 3494.01 2996.09 78.11 7.00
   13:46:50.751.05-Jan-2021 395.82 4884.06 3494.01 2996.09 78.11 7.00
   13:46:50.951.05-Jan-2021 396.02 4884.01 3494.01 2996.09 78.11 7.00
   13:46:51.151.05-Jan-2021 396.22 4884.10 3494.01 2996.09 78.11 7.00
   13:46:51.351.05-Jan-2021 396.42 4884.08 3494.01 2996.09 78.11 7.00
   13:46:51.551.05-Jan-2021 396.62 4884.14 3494.01 2996.09 78.11 7.00
   13:46:51.751.05-Jan-2021 396.82 4884.02 3494.01 2996.09 78.11 7.00
   13:46:51.951.05-Jan-2021 397.02 4883.96 3494.01 2996.09 78.11 7.00
   13:46:52.151.05-Jan-2021 397.22 4884.08 3494.01 2996.09 78.11 7.00
   13:46:52.352.05-Jan-2021 397.42 4884.11 3494.01 2996.09 78.11 7.00
   13:46:52.552.05-Jan-2021 397.62 4884.05 3494.01 2996.09 78.11 7.00
   13:46:52.752.05-Jan-2021 397.82 4884.06 3494.01 2996.09 78.11 7.00
   13:46:52.952.05-Jan-2021 398.02 4884.11 3494.01 2996.09 78.11 7.00
   13:46:53.152.05-Jan-2021 398.22 4884.09 3494.01 2996.09 78.11 7.00
   13:46:53.352.05-Jan-2021 398.42 4884.09 3494.01 2996.09 78.11 7.00
   13:46:53.552.05-Jan-2021 398.62 4884.12 3494.01 2996.09 78.11 7.00
   13:46:53.752.05-Jan-2021 398.82 4884.07 3494.01 2996.09 78.11 7.00
   13:46:53.952.05-Jan-2021 399.02 4884.03 3494.01 2996.09 78.11 7.00
   13:46:54.153.05-Jan-2021 399.22 4884.12 3494.01 2996.09 78.11 7.00
   13:46:54.353.05-Jan-2021 399.42 4884.12 3494.01 2996.09 78.11 7.00
   13:46:54.553.05-Jan-2021 399.62 4883.99 3494.01 2996.09 78.11 7.00
   13:46:54.753.05-Jan-2021 399.82 4884.22 3494.01 2996.09 78.11 7.00
   13:46:54.953.05-Jan-2021 400.02 4883.92 3494.01 2996.09 78.11 7.00
   13:46:55.153.05-Jan-2021 400.22 4883.62 3494.01 2996.09 78.11 7.00
   13:46:55.353.05-Jan-2021 400.42 4883.62 3494.01 2996.09 78.11 7.00
   13:46:55.553.05-Jan-2021 400.62 4884.01 3494.01 2996.09 78.11 7.00
   13:46:55.753.05-Jan-2021 400.82 4884.04 3494.01 2996.09 78.11 7.00
   13:46:55.954.05-Jan-2021 401.02 4883.91 3494.01 2996.09 78.11 7.00
   13:46:56.154.05-Jan-2021 401.22 4884.31 3494.01 2996.09 78.11 7.00
   13:46:56.354.05-Jan-2021 401.42 4884.01 3494.01 2996.09 78.11 7.00
   13:46:56.554.05-Jan-2021 401.62 4884.05 3494.01 2996.09 78.11 7.00
   13:46:56.754.05-Jan-2021 401.82 4884.10 3494.01 2996.09 78.11 7.00
   13:46:56.954.05-Jan-2021 402.02 4884.09 3494.01 2996.09 78.11 7.00
   13:46:57.154.05-Jan-2021 402.22 4884.12 3494.01 2996.09 78.11 7.00
   13:46:57.354.05-Jan-2021 402.42 4884.12 3494.01 2996.09 78.11 7.00
   13:46:57.554.05-Jan-2021 402.62 4884.03 3494.01 2996.09 78.11 7.00
   13:46:57.755.05-Jan-2021 402.82 4884.08 3494.01 2996.09 78.11 7.00
   13:46:57.955.05-Jan-2021 403.02 4884.11 3494.01 2996.09 78.11 7.00
   13:46:58.155.05-Jan-2021 403.22 4884.08 3494.01 2996.09 78.11 7.00
   13:46:58.355.05-Jan-2021 403.42 4884.08 3494.01 2996.09 78.11 7.00
   13:46:58.555.05-Jan-2021 403.62 4884.03 3494.01 2996.09 78.11 7.00
   13:46:58.755.05-Jan-2021 403.82 4884.08 3494.01 2996.09 78.11 7.00
   13:46:58.955.05-Jan-2021 404.02 4884.06 3494.01 2996.09 78.11 7.00
   13:46:59.155.05-Jan-2021 404.22 4884.08 3494.01 2996.09 78.11 7.00
   13:46:59.355.05-Jan-2021 404.42 4884.08 3494.01 2996.09 78.11 7.00
   13:46:59.556.05-Jan-2021 404.62 4884.10 3494.01 2996.09 78.11 7.00
   13:46:59.756.05-Jan-2021 404.82 4884.01 3494.01 2996.09 78.11 7.00
   13:46:59.956.05-Jan-2021 405.02 4884.21 3494.01 2996.09 78.11 7.00
   13:47:00.156.05-Jan-2021 405.22 4883.96 3494.01 2996.09 78.11 7.00
   13:47:00.356.05-Jan-2021 405.43 4884.11 3494.01 2996.09 78.11 7.00
   13:47:00.556.05-Jan-2021 405.63 4884.06 3494.01 2996.09 78.11 7.00
   13:47:00.756.05-Jan-2021 405.83 4884.14 3494.01 2996.09 78.11 7.00
   13:47:00.956.05-Jan-2021 406.03 4884.11 3494.01 2996.09 78.11 7.00
   13:47:01.156.05-Jan-2021 406.23 4883.98 3494.01 2996.09 78.11 7.00
   13:47:01.357.05-Jan-2021 406.43 4883.98 3494.01 2996.09 78.11 7.00
   13:47:01.557.05-Jan-2021 406.63 4884.05 3494.01 2996.09 78.11 7.00
   13:47:01.757.05-Jan-2021 406.83 4884.10 3494.01 2996.09 78.11 7.00
   13:47:01.957.05-Jan-2021 407.03 4883.95 3494.01 2996.09 78.11 7.00
   13:47:02.157.05-Jan-2021 407.23 4884.22 3494.01 2996.09 78.11 7.00
   13:47:02.357.05-Jan-2021 407.43 4884.22 3494.01 2996.09 78.11 7.00
   13:47:02.557.05-Jan-2021 407.63 4884.18 3494.01 2996.09 78.12 7.00
   13:47:02.757.05-Jan-2021 407.83 4884.16 3494.01 2996.09 78.12 7.00
   13:47:02.957.05-Jan-2021 408.03 4883.81 3494.01 2996.09 78.12 7.00
   13:47:03.158.05-Jan-2021 408.23 4884.48 3494.01 2996.09 78.12 7.00
   13:47:03.358.05-Jan-2021 408.43 4884.48 3494.01 2996.09 78.12 7.00
   13:47:03.558.05-Jan-2021 408.63 4883.99 3494.01 2996.09 78.12 7.00
   13:47:03.758.05-Jan-2021 408.83 4883.66 3494.01 2996.09 78.12 7.00
   13:47:03.958.05-Jan-2021 409.03 4884.50 3494.01 2996.09 78.12 7.00
   13:47:04.158.05-Jan-2021 409.23 4884.02 3494.01 2996.09 78.12 7.00
   13:47:04.358.05-Jan-2021 409.43 4884.02 3494.01 2996.09 78.12 7.00
   13:47:04.558.05-Jan-2021 409.63 4884.18 3494.01 2996.09 78.12 7.00
   13:47:04.758.05-Jan-2021 409.83 4884.03 3494.01 2996.09 78.12 7.00
   13:47:04.959.05-Jan-2021 410.03 4884.12 3494.01 2996.09 78.12 7.00
   13:47:05.159.05-Jan-2021 410.23 4884.03 3494.01 2996.09 78.12 7.00
   13:47:05.359.05-Jan-2021 410.43 4884.03 3494.01 2996.09 78.12 7.00
   13:47:05.559.05-Jan-2021 410.63 4884.09 3494.01 2996.09 78.12 7.00
   13:47:05.759.05-Jan-2021 410.83 4884.02 3494.01 2996.09 78.12 7.00
   13:47:05.959.05-Jan-2021 411.03 4884.08 3494.01 2996.09 78.12 7.00
   13:47:06.159.05-Jan-2021 411.23 4884.03 3494.01 2996.09 78.12 7.00
   13:47:06.359.05-Jan-2021 411.43 4884.03 3494.01 2996.09 78.12 7.00
   13:47:06.559.05-Jan-2021 411.63 4883.98 3494.01 2996.09 78.12 7.00
   13:47:06.760.05-Jan-2021 411.83 4884.14 3494.01 2996.09 78.12 7.00
   13:47:06.960.05-Jan-2021 412.03 4884.08 3494.01 2996.09 78.12 7.00
   13:47:07.160.05-Jan-2021 412.23 4883.88 3494.01 2996.09 78.12 7.00
   13:47:07.360.05-Jan-2021 412.43 4883.88 3494.01 2996.09 78.12 7.00
   13:47:07.560.05-Jan-2021 412.63 4884.01 3494.01 2996.09 78.12 7.00
   13:47:07.760.05-Jan-2021 412.83 4884.11 3494.01 2996.09 78.12 7.00
   13:47:07.960.05-Jan-2021 413.03 4884.02 3494.01 2996.09 78.12 7.00
   13:47:08.160.05-Jan-2021 413.23 4884.08 3494.01 2996.09 78.12 7.00
   13:47:08.360.05-Jan-2021 413.43 4884.08 3494.01 2996.09 78.12 7.00
   13:47:08.561.05-Jan-2021 413.63 4884.07 3494.01 2996.09 78.12 7.00
   13:47:08.761.05-Jan-2021 413.83 4884.07 3494.01 2996.09 78.12 7.00
   13:47:08.961.05-Jan-2021 414.03 4884.04 3494.01 2996.09 78.12 7.00
