~Version Information
 VERS.                  2.0:   CWLS log ASCII Standard -VERSION 2.0
 WRAP.                   NO:   One line per depth step
~Well Information Block
#MNEM.UNIT     VALUE/NAME     DESCRIPTION
#---------     -----------    ---------------------------
 STRT.S             08:46:17 05-Jan-21: START TIME 08:46:17 05-Jan-21
 STOP.S             08:54:30 05-Jan-21: STOP TIME  08:54:30 05-Jan-21
 STEP.S                   0.00: STEP TIME
 NULL.                 -999.25: NULL VALUE
 DFWT.                        :  DIST FWL TEXT
 DFST.                        :  DIST FSL TEXT
 DMF .             Drill Floor:  DRILL MEAS FROM
 STIM.      06.00.00 31-Dec-20:  START TIME
 DATE.      05.58.24 07-Jan-21:  END TIME
 SPUD.               24-Dec-20:  SPUD DATE
 NREF.                    Grid:  NORTH REFERENCE
 HPTY.       Minimum Curvature:  HOLE POS TYPE
 DMOD.             Drill Model:  DRILL MOD DESC
 SVYD.                  Survey:  SURVEY DESC
 ILTD.               Lithology:  INTERP LTH DESC
 FTOP.          Formation Tops:  FORM TOPS DESC
 SON .        AZ-XX-0906699554:  JOB NUMBER
 WELL.                    B09z:  WELL NAME
 PDAT.          Mean Sea Level:  PERMANENT DATUM
 FLD .                     ACG:  FIELD NAME
 CTRY.              Azerbaijan:  COUNTRY NAME
 COMP.     BP Exploration (Caspian Sea) Ltd.:  COMPANY
 UWI .                     N/A:  UNIQUE WELL IDENTIFIER
 API .                     N/A:  API NUMBER
 WTYP.                Deviated:  WELL TYPE
 MDS .        Operator Entered:  MAG DATA SOURCE
 BASE.              Azerbaijan:  LOGGING EQUIPMENT BASE LOCATION
 REGN.                   EESSA:  REGION
 PROV.                    Baku:  PROVINCE
 STAT.                    Baku:  STATE NAME
 SRVC.          Turan Drilling:  CONTRACTOR
 MWDS.                    Baku:  MWD SHOP
 JOBN.        AZ-XX-0906699554:  JOB TICKET NUMB
 RIG .           Central Azeri:  RIG NAME
 DOE .                     N/A:  DOE NUMBER
 DCON.         Sperry Drilling:  DIRECTNL CONTR
 UNIT.                     N/A:  LOGGING EQUIPMENT ID
 CNTY.                        :  COUNTY
 LOC .                        :  LOCATION
 LMF .             Drill Floor:  LOG MEASURED FROM
 TVDS.m                  43.29:  TVDSS CORRECTN
 LATI.deg                40.03:  LATITUDE
 LONG.deg                51.35:  LONGITUDE
 WHNS.m                  -2.76:  WELL HEAD N/S
 WHEW.m                  -7.70:  WELL HEAD E/W
 UTMX.m              530128.28:  UTM X
 UTMY.m             4433192.49:  UTM Y
 DFWL.m                   0.00:  DISTANCE FWL
 DFSL.m                   0.00:  DISTANCE FSL
 SDEP.m                3435.01:  START DEPTH
 TDD .m                3814.01:  TOTAL DEPTH (DRILLER)
 VSDR.deg               352.80:  VERT SEC DIRECT
 GVFD.g                   1.00:  GRAVITY FIELD
 MFLD.nT              50303.00:  MAGNETIC FIELD
 MDIP.deg                59.52:  MAGNETIC DIP
 MDEC.deg                 6.47:  MAGNETIC DECL
 GRDC.deg                 0.23:  GRID CORRECTION
 AZTC.deg                 6.24:  AZM TOTAL CORR
 EPD .m                   0.00:  ELEVATION
 EGL .m                   0.00:  GROUND ELEVATION
 WDMS.m                 128.20:  WD ELEV
 APD .m                  43.29:  DEPTH ABOVE PD
 DEP .m                3421.30:  DEPTH
 AGAP.m                  43.60:  AIR GAP
 VSEW.m                  -7.70:  VERT SEC E/W
 VSNS.m                  -2.76:  VERT SEC N/S
 EKB .m                   0.00:  KB ELEVATION
 EDF .m                  43.29:  DF ELEVATION
 TDL .m                 369.00:  TOTAL DEPTH (LOGGER)
 VSC .                       0:  VS TO CLOSURE
 MAGU.                 1850390:  MAGUTM CHECKSUM
~Parameter Information Block
#MNEM.UNIT       Value        Description
#---------     -----------    ---------------------------
 AV  .mps                 2.80:  Ann Velocity 
 AVMX.mps                 4.67:  Max Ann Veloc 
 AZIF.deg               303.89:  Azm, Final 
 BHAT.        Rotary Steerable:  BHA Type 
 BREV.rev            128542.00:  Rev Bit Total 
 BROT.°/30m               1.50:  Build Rotating 
 BS  .in                  8.50:  Bit Size 
 BSZ .in                  8.50:  Bit Size 
 BTPL.psig              715.00:  Bit Press Loss 
 CABU.                      No:  Customer Abuse 
 COMM.                     Œã}:  Run Comments 1 
 TCS .hr                 53.00:  Time Ciculation Ended 
 CV  .mps                 3.85:  Crit Velocity 
 CVMX.mps                 4.75:  Max Crit Veloc 
 DD1 .         Intigam Rahimov:  Direct Drillr 1 
 DDSV.                 iCruise:  DD Service 
 DEFF.%                  98.60:  % Det Eff 
 DLRX.°/30m               2.34:  Dogleg Rot Max 
 DLSO.°/30m               0.00:  Dogleg Oriented 
 DLSX.°/30m               0.00:  Dogleg Str Max 
 DRET.      00.15.00 05-Jan-21:  Drill End Time 
 DRST.      22.00.00 03-Jan-21:  Drill Start Tim 
 DTIM.hr                 17.72:  Time Drilling 
 EDEP.m                3814.01:  End Depth 
 ENG1.         Yevgeniy Ulikov:  Engineer 1 
 ENG2.        Farkhad Khalidov:  Engineer 2 
 ENG3.           Samir Gafarov:  Engineer 3 
 ETIM.      21.00.00 07-Jan-21:  End Time 
 FLOI.gpm               590.00:  Flow In 
 FLON.gpm               580.00:  Flow In Min 
 FLOS.cptm                1.00:  Fluid Loss 
 FLOX.gpm               595.00:  Flow In Max 
 FTRO.     Connectivity, Formation Presure:  FTWD Run Obj 
 HFLO.                      No:  High Flow 
 HPRE.                     Yes:  High Pressure 
 HTEM.                      No:  High Temp 
 HYDO.m                   1.80:  Hydro Offset 
 IFIN.deg                63.76:  Inc, Final 
 IMAX.deg                64.09:  Inc Max 
 IMIN.deg                55.81:  Inc Min 
 IMND.m                3455.62:  Inc Min Depth 
 IMXD.m                3796.03:  Inc Max Depth 
 JARR.                      No:  Jarring 
 LETM.      00.15.00 05-Jan-21:  Log End Time 
 LOST.hr                     0:  Lost Rig Time 
 LSTM.      22.00.00 03-Jan-21:  Log Start Time 
 MDCL.ppm             36000.00:  Mud Chlorides 
 MDES.     Inversion Oil/Synthetic:  Mud Desc 
 DFD .sg                  1.51:  Mud Density 
 MDMN.sg                  1.51:  Dens Mud Min 
 MDMX.sg                  1.51:  Dens Mud Max 
 MOIL.                    55.5:  Run Mud Oil % 
 MOWR.                   70:30:  Run Mud OWR 
 MSND.                     0.1:  Run Mud Sand % 
 MSOL.                   20.77:  Run Mud Solids% 
 DFV .spqt               67.00:  Mud Viscosity 
 MWOD.in                  6.75:  MWD Tool OD 
 MWSI.                      No:  Serv Intrp, MWD 
 OTIM.hr                113.53:  Time Operating 
 PCON.           Look Like New:  Pad Condition 
 PMAX.psia             4830.00:  Press Op, Max 
 PV  .cP                 29.00:  Mud PV 
 RUN .                     300:  Run Number 
 ROPA.m/hr               22.00:  ROP Avg 
 ROPN.m/hr               18.00:  ROP Min 
 ROPX.m/hr               25.00:  ROP Max 
 RPMA.rpm               130.00:  RPM Surface Avg 
 RPMN.rpm                80.00:  RPM Surface Min 
 RPMX.rpm               140.00:  RPM Surface Max 
 RRUN.                    L101:  Rig Run Number 
 RTIM.hr                  9.28:  Time Reaming 
 SAZI.deg               316.55:  Azm, Start 
 SDEP.m                3445.01:  Start Depth 
 SIDD.                      No:  Serv Intrp, DD 
 SINC.deg                55.81:  Inc, Start 
 SPPA.psig             4500.00:  SPP Avg 
 SPPN.psig             4350.00:  SPP Min 
 SPPX.psig             4830.00:  SPP Max 
 STIM.      00.00.00 03-Jan-21:  Start Time 
 SVCS.                 DD, MWD:  Services 
 SVER.                    9.20:  Sperry Version 
 TDAT.m                 369.00:  Tot Depth Attmp 
 TDDF.                      No:  Trip for DD 
 TDLG.m                 369.00:  Tot Depth Loggd 
 TFF .                      No:  Trip for Fail 
 TQAA.f-kp               15.00:  Torque Abs Avg 
 TQAN.f-kp               12.00:  Torque Abs Min 
 TQAX.f-kp               16.00:  Torque Abs Max 
 TRRT.°/30m              -2.10:  Turn Rotating 
 MRT .                    HCIM:  Maximum Recorded Temperature 
 TTMX.degC               92.16:  Max Tool Temp 
 VS01.                90627822:  Virtual Str1 SN 
 VS02.                90550008:  Virtual Str2 SN 
 VS03.                90627816:  Virtual Str3 SN 
 VS04.                90633205:  Virtual Str4 SN 
 VS05.                13033835:  Virtual Str5 SN 
 VS06.                11125125:  Virtual Str6 SN 
 WBMN.klb                 8.00:  WOB Min 
 WITN.            Bruce Cheyne:  Customer Rep 
 WITN.           Faig Mammadov:  Customer Rep 2 
 WOBA.klb                 9.00:  WOB Avg 
 WOBX.klb                12.00:  WOB Max 
 YP  .lhf2               30.00:  Yield Point 
~Curve Information Block
#MNEM.UNIT                 API CODE     Curve Description
#---------               -----------    ---------------------------
 TIME.HHMMSS            00 000 000 000:  GT Time & Date
 GTET.sec               00 000 000 000:  GT Elapsed Test Time
 GTPQH.psia             00 000 000 000:  GT HR Quartz Pressure
 GTDEPTH.m              00 000 000 000:  GT Depth
 GTTVD.m                00 000 000 000:  GT True Vertical Depth
 GTTQ.degC              00 000 000 000:  GT Quartz Temperature
 GTTN.NONE              00 000 000 000:  GT Test Number
#Other Information
#
#WARRANTY: Halliburton will use its best efforts to furnish customers with 
#accurate information and interpretations that are part of, and incident to, the services 
#provided.  However, Halliburton cannot and does not warrant the accuracy 
#or correctness of such information and interpretations.  Under no circumstances should any 
#such information or interpretation be relied upon as the sole basis for any drilling, 
#completion, production, or financial decision or any procedure involving any risk to the 
#safety of any drilling venture, drilling rig or its crew or any other third party.  The 
#Customer has full responsibility for all drilling, completion and production operation.  
#Halliburton makes no representations or warranties, either expressed or 
#implied, including, but not limited to, the implied warranties of merchantability or fitness 
#for a particular purpose, with respect to the services rendered.  In no event will 
#Halliburton be liable for failure to obtain any particular results or for 
#any damages, including, but not limited to, indirect, special or consequential damages, 
#resulting from the use of any information or interpretation provided by Halliburton.
#
~A           TIME            GTET   GTPQH  GTDEPTH  GTTVD  GTTQ  GTTN 
# ...
   08:49:45.075.05-Jan-2021 207.08 4604.85 3625.51 3064.84 80.08 6.00
   08:49:45.275.05-Jan-2021 207.28 4604.84 3625.51 3064.84 80.08 6.00
   08:49:45.475.05-Jan-2021 207.48 4604.79 3625.51 3064.84 80.08 6.00
   08:49:45.675.05-Jan-2021 207.68 4604.79 3625.51 3064.84 80.08 6.00
   08:49:45.875.05-Jan-2021 207.88 4604.80 3625.51 3064.84 80.08 6.00
   08:49:46.075.05-Jan-2021 208.08 4604.84 3625.51 3064.84 80.08 6.00
   08:49:46.275.05-Jan-2021 208.28 4604.84 3625.51 3064.84 80.08 6.00
   08:49:46.475.05-Jan-2021 208.48 4604.84 3625.51 3064.84 80.08 6.00
   08:49:46.675.05-Jan-2021 208.68 4604.18 3625.51 3064.84 80.08 6.00
   08:49:46.875.05-Jan-2021 208.88 4604.91 3625.51 3064.84 80.08 6.00
   08:49:47.075.05-Jan-2021 209.08 4604.78 3625.51 3064.84 80.08 6.00
   08:49:47.275.05-Jan-2021 209.28 4604.78 3625.51 3064.84 80.08 6.00
   08:49:47.476.05-Jan-2021 209.48 4605.03 3625.51 3064.84 80.08 6.00
   08:49:47.676.05-Jan-2021 209.68 4605.09 3625.51 3064.84 80.08 6.00
   08:49:47.876.05-Jan-2021 209.88 4605.10 3625.51 3064.84 80.08 6.00
   08:49:48.076.05-Jan-2021 210.08 4605.06 3625.51 3064.84 80.08 6.00
   08:49:48.276.05-Jan-2021 210.28 4605.06 3625.51 3064.84 80.08 6.00
   08:49:48.476.05-Jan-2021 210.48 4605.06 3625.51 3064.84 80.08 6.00
   08:49:48.676.05-Jan-2021 210.68 4605.08 3625.51 3064.84 80.08 6.00
   08:49:48.876.05-Jan-2021 210.88 4605.24 3625.51 3064.84 80.08 6.00
   08:49:49.076.05-Jan-2021 211.08 4605.04 3625.51 3064.84 80.08 6.00
   08:49:49.276.05-Jan-2021 211.28 4604.34 3625.51 3064.84 80.08 6.00
   08:49:49.476.05-Jan-2021 211.48 4605.11 3625.51 3064.84 80.08 6.00
   08:49:49.676.05-Jan-2021 211.68 4605.13 3625.51 3064.84 80.08 6.00
   08:49:49.876.05-Jan-2021 211.88 4605.16 3625.51 3064.84 80.08 6.00
   08:49:50.076.05-Jan-2021 212.08 4605.22 3625.51 3064.84 80.08 6.00
   08:49:50.277.05-Jan-2021 212.28 4605.22 3625.51 3064.84 80.08 6.00
   08:49:50.477.05-Jan-2021 212.48 4605.13 3625.51 3064.84 80.08 6.00
   08:49:50.677.05-Jan-2021 212.68 4605.10 3625.51 3064.84 80.08 6.00
   08:49:50.877.05-Jan-2021 212.88 4605.32 3625.51 3064.84 80.08 6.00
   08:49:51.077.05-Jan-2021 213.08 4605.08 3625.51 3064.84 80.08 6.00
   08:49:51.277.05-Jan-2021 213.28 4605.08 3625.51 3064.84 80.08 6.00
   08:49:51.477.05-Jan-2021 213.48 4605.06 3625.51 3064.84 80.07 6.00
   08:49:51.677.05-Jan-2021 213.68 4605.05 3625.51 3064.84 80.07 6.00
   08:49:51.877.05-Jan-2021 213.88 4605.05 3625.51 3064.84 80.07 6.00
   08:49:52.077.05-Jan-2021 214.08 4605.00 3625.51 3064.84 80.07 6.00
   08:49:52.277.05-Jan-2021 214.28 4605.00 3625.51 3064.84 80.07 6.00
   08:49:52.477.05-Jan-2021 214.48 4605.07 3625.51 3064.84 80.07 6.00
   08:49:52.677.05-Jan-2021 214.68 4605.02 3625.51 3064.84 80.07 6.00
   08:49:52.878.05-Jan-2021 214.88 4604.75 3625.51 3064.84 80.07 6.00
   08:49:53.078.05-Jan-2021 215.08 4604.58 3625.51 3064.84 80.07 6.00
   08:49:53.278.05-Jan-2021 215.28 4605.07 3625.51 3064.84 80.07 6.00
   08:49:53.478.05-Jan-2021 215.48 4605.15 3625.51 3064.84 80.07 6.00
   08:49:53.678.05-Jan-2021 215.68 4605.19 3625.51 3064.84 80.07 6.00
   08:49:53.878.05-Jan-2021 215.88 4604.99 3625.51 3064.84 80.07 6.00
   08:49:54.078.05-Jan-2021 216.08 4605.06 3625.51 3064.84 80.07 6.00
   08:49:54.278.05-Jan-2021 216.28 4605.06 3625.51 3064.84 80.07 6.00
   08:49:54.478.05-Jan-2021 216.48 4605.09 3625.51 3064.84 80.07 6.00
   08:49:54.678.05-Jan-2021 216.68 4605.04 3625.51 3064.84 80.07 6.00
   08:49:54.878.05-Jan-2021 216.88 4604.94 3625.51 3064.84 80.07 6.00
   08:49:55.078.05-Jan-2021 217.08 4605.06 3625.51 3064.84 80.07 6.00
   08:49:55.278.05-Jan-2021 217.28 4605.06 3625.51 3064.84 80.07 6.00
   08:49:55.478.05-Jan-2021 217.48 4605.08 3625.51 3064.84 80.07 6.00
   08:49:55.679.05-Jan-2021 217.68 4604.42 3625.51 3064.84 80.07 6.00
   08:49:55.879.05-Jan-2021 217.88 4605.10 3625.51 3064.84 80.07 6.00
   08:49:56.079.05-Jan-2021 218.08 4604.89 3625.51 3064.84 80.07 6.00
   08:49:56.279.05-Jan-2021 218.28 4604.89 3625.51 3064.84 80.07 6.00
   08:49:56.479.05-Jan-2021 218.48 4605.18 3625.51 3064.84 80.07 6.00
   08:49:56.679.05-Jan-2021 218.68 4605.31 3625.51 3064.84 80.07 6.00
   08:49:56.879.05-Jan-2021 218.88 4605.25 3625.51 3064.84 80.07 6.00
   08:49:57.079.05-Jan-2021 219.08 4605.20 3625.51 3064.84 80.07 6.00
   08:49:57.279.05-Jan-2021 219.28 4604.59 3625.51 3064.84 80.07 6.00
   08:49:57.479.05-Jan-2021 219.48 4605.23 3625.51 3064.84 80.07 6.00
   08:49:57.679.05-Jan-2021 219.68 4605.27 3625.51 3064.84 80.07 6.00
   08:49:57.879.05-Jan-2021 219.88 4605.43 3625.51 3064.84 80.07 6.00
   08:49:58.079.05-Jan-2021 220.08 4605.20 3625.51 3064.84 80.07 6.00
   08:49:58.280.05-Jan-2021 220.28 4605.20 3625.51 3064.84 80.07 6.00
   08:49:58.480.05-Jan-2021 220.48 4605.23 3625.51 3064.84 80.07 6.00
   08:49:58.680.05-Jan-2021 220.68 4605.26 3625.51 3064.84 80.07 6.00
   08:49:58.880.05-Jan-2021 220.88 4605.31 3625.51 3064.84 80.07 6.00
   08:49:59.080.05-Jan-2021 221.08 4605.30 3625.51 3064.84 80.07 6.00
   08:49:59.280.05-Jan-2021 221.28 4605.30 3625.51 3064.84 80.07 6.00
   08:49:59.480.05-Jan-2021 221.48 4605.33 3625.51 3064.84 80.07 6.00
   08:49:59.680.05-Jan-2021 221.68 4605.27 3625.51 3064.84 80.07 6.00
   08:49:59.880.05-Jan-2021 221.88 4605.44 3625.51 3064.84 80.07 6.00
   08:50:00.080.05-Jan-2021 222.08 4605.21 3625.51 3064.84 80.07 6.00
   08:50:00.280.05-Jan-2021 222.28 4605.21 3625.51 3064.84 80.07 6.00
   08:50:00.480.05-Jan-2021 222.48 4605.17 3625.51 3064.84 80.07 6.00
   08:50:00.680.05-Jan-2021 222.68 4605.15 3625.51 3064.84 80.07 6.00
   08:50:00.880.05-Jan-2021 222.88 4605.19 3625.51 3064.84 80.07 6.00
   08:50:01.081.05-Jan-2021 223.08 4605.17 3625.51 3064.84 80.07 6.00
   08:50:01.281.05-Jan-2021 223.28 4605.17 3625.51 3064.84 80.07 6.00
   08:50:01.481.05-Jan-2021 223.48 4605.15 3625.51 3064.84 80.07 6.00
   08:50:01.681.05-Jan-2021 223.68 4605.15 3625.51 3064.84 80.07 6.00
   08:50:01.881.05-Jan-2021 223.88 4604.90 3625.51 3064.84 80.07 6.00
   08:50:02.081.05-Jan-2021 224.08 4604.71 3625.51 3064.84 80.06 6.00
   08:50:02.281.05-Jan-2021 224.28 4604.71 3625.51 3064.84 80.06 6.00
   08:50:02.481.05-Jan-2021 224.48 4605.27 3625.51 3064.84 80.06 6.00
   08:50:02.681.05-Jan-2021 224.68 4605.30 3625.51 3064.84 80.06 6.00
   08:50:02.881.05-Jan-2021 224.88 4605.13 3625.51 3064.84 80.06 6.00
   08:50:03.081.05-Jan-2021 225.08 4605.13 3625.51 3064.84 80.06 6.00
   08:50:03.281.05-Jan-2021 225.28 4605.13 3625.51 3064.84 80.06 6.00
   08:50:03.481.05-Jan-2021 225.48 4605.18 3625.51 3064.84 80.06 6.00
   08:50:03.682.05-Jan-2021 225.68 4605.13 3625.51 3064.84 80.06 6.00
   08:50:03.882.05-Jan-2021 225.88 4605.05 3625.51 3064.84 80.06 6.00
   08:50:04.082.05-Jan-2021 226.08 4605.13 3625.51 3064.84 80.06 6.00
   08:50:04.282.05-Jan-2021 226.28 4605.13 3625.51 3064.84 80.06 6.00
   08:50:04.482.05-Jan-2021 226.48 4605.19 3625.51 3064.84 80.06 6.00
   08:50:04.682.05-Jan-2021 226.68 4604.50 3625.51 3064.84 80.06 6.00
   08:50:04.882.05-Jan-2021 226.88 4605.18 3625.51 3064.84 80.06 6.00
   08:50:05.082.05-Jan-2021 227.08 4605.00 3625.51 3064.84 80.06 6.00
   08:50:05.282.05-Jan-2021 227.28 4604.98 3625.51 3064.84 80.06 6.00
   08:50:05.482.05-Jan-2021 227.48 4605.26 3625.51 3064.84 80.06 6.00
   08:50:05.682.05-Jan-2021 227.68 4605.32 3625.51 3064.84 80.06 6.00
   08:50:05.882.05-Jan-2021 227.88 4605.33 3625.51 3064.84 80.06 6.00
   08:50:06.082.05-Jan-2021 228.08 4605.24 3625.51 3064.84 80.06 6.00
   08:50:06.282.05-Jan-2021 228.28 4605.24 3625.51 3064.84 80.06 6.00
   08:50:06.483.05-Jan-2021 228.48 4605.31 3625.51 3064.84 80.06 6.00
   08:50:06.683.05-Jan-2021 228.68 4605.38 3625.51 3064.84 80.06 6.00
   08:50:06.883.05-Jan-2021 228.88 4605.52 3625.51 3064.84 80.06 6.00
   08:50:07.083.05-Jan-2021 229.09 4605.25 3625.51 3064.84 80.06 6.00
   08:50:07.283.05-Jan-2021 229.29 4605.25 3625.51 3064.84 80.06 6.00
   08:50:07.483.05-Jan-2021 229.49 4605.52 3625.51 3064.84 80.06 6.00
   08:50:07.683.05-Jan-2021 229.69 4605.47 3625.51 3064.84 80.06 6.00
   08:50:07.883.05-Jan-2021 229.89 4605.47 3625.51 3064.84 80.06 6.00
