~Version Information
 VERS.                  2.0:   CWLS log ASCII Standard -VERSION 2.0
 WRAP.                   NO:   One line per depth step
~Well Information Block
#MNEM.UNIT     VALUE/NAME     DESCRIPTION
#---------     -----------    ---------------------------
 STRT.S             05:41:02 05-Jan-21: START TIME 05:41:02 05-Jan-21
 STOP.S             05:49:13 05-Jan-21: STOP TIME  05:49:13 05-Jan-21
 STEP.S                   0.00: STEP TIME
 NULL.                 -999.25: NULL VALUE
 DFWT.                        :  DIST FWL TEXT
 DFST.                        :  DIST FSL TEXT
 DMF .             Drill Floor:  DRILL MEAS FROM
 STIM.      06.00.00 31-Dec-20:  START TIME
 DATE.      05.58.24 07-Jan-21:  END TIME
 SPUD.               24-Dec-20:  SPUD DATE
 NREF.                    Grid:  NORTH REFERENCE
 HPTY.       Minimum Curvature:  HOLE POS TYPE
 DMOD.             Drill Model:  DRILL MOD DESC
 SVYD.                  Survey:  SURVEY DESC
 ILTD.               Lithology:  INTERP LTH DESC
 FTOP.          Formation Tops:  FORM TOPS DESC
 SON .        AZ-XX-0906699554:  JOB NUMBER
 WELL.                    B09z:  WELL NAME
 PDAT.          Mean Sea Level:  PERMANENT DATUM
 FLD .                     ACG:  FIELD NAME
 CTRY.              Azerbaijan:  COUNTRY NAME
 COMP.     BP Exploration (Caspian Sea) Ltd.:  COMPANY
 UWI .                     N/A:  UNIQUE WELL IDENTIFIER
 API .                     N/A:  API NUMBER
 WTYP.                Deviated:  WELL TYPE
 MDS .        Operator Entered:  MAG DATA SOURCE
 BASE.              Azerbaijan:  LOGGING EQUIPMENT BASE LOCATION
 REGN.                   EESSA:  REGION
 PROV.                    Baku:  PROVINCE
 STAT.                    Baku:  STATE NAME
 SRVC.          Turan Drilling:  CONTRACTOR
 MWDS.                    Baku:  MWD SHOP
 JOBN.        AZ-XX-0906699554:  JOB TICKET NUMB
 RIG .           Central Azeri:  RIG NAME
 DOE .                     N/A:  DOE NUMBER
 DCON.         Sperry Drilling:  DIRECTNL CONTR
 UNIT.                     N/A:  LOGGING EQUIPMENT ID
 CNTY.                        :  COUNTY
 LOC .                        :  LOCATION
 LMF .             Drill Floor:  LOG MEASURED FROM
 TVDS.m                  43.29:  TVDSS CORRECTN
 LATI.deg                40.03:  LATITUDE
 LONG.deg                51.35:  LONGITUDE
 WHNS.m                  -2.76:  WELL HEAD N/S
 WHEW.m                  -7.70:  WELL HEAD E/W
 UTMX.m              530128.28:  UTM X
 UTMY.m             4433192.49:  UTM Y
 DFWL.m                   0.00:  DISTANCE FWL
 DFSL.m                   0.00:  DISTANCE FSL
 SDEP.m                3435.01:  START DEPTH
 TDD .m                3814.01:  TOTAL DEPTH (DRILLER)
 VSDR.deg               352.80:  VERT SEC DIRECT
 GVFD.g                   1.00:  GRAVITY FIELD
 MFLD.nT              50303.00:  MAGNETIC FIELD
 MDIP.deg                59.52:  MAGNETIC DIP
 MDEC.deg                 6.47:  MAGNETIC DECL
 GRDC.deg                 0.23:  GRID CORRECTION
 AZTC.deg                 6.24:  AZM TOTAL CORR
 EPD .m                   0.00:  ELEVATION
 EGL .m                   0.00:  GROUND ELEVATION
 WDMS.m                 128.20:  WD ELEV
 APD .m                  43.29:  DEPTH ABOVE PD
 DEP .m                3421.30:  DEPTH
 AGAP.m                  43.60:  AIR GAP
 VSEW.m                  -7.70:  VERT SEC E/W
 VSNS.m                  -2.76:  VERT SEC N/S
 EKB .m                   0.00:  KB ELEVATION
 EDF .m                  43.29:  DF ELEVATION
 TDL .m                 369.00:  TOTAL DEPTH (LOGGER)
 VSC .                       0:  VS TO CLOSURE
 MAGU.                 1850390:  MAGUTM CHECKSUM
~Parameter Information Block
#MNEM.UNIT       Value        Description
#---------     -----------    ---------------------------
 AV  .mps                 2.80:  Ann Velocity 
 AVMX.mps                 4.67:  Max Ann Veloc 
 AZIF.deg               303.89:  Azm, Final 
 BHAT.        Rotary Steerable:  BHA Type 
 BREV.rev            128542.00:  Rev Bit Total 
 BROT.°/30m               1.50:  Build Rotating 
 BS  .in                  8.50:  Bit Size 
 BSZ .in                  8.50:  Bit Size 
 BTPL.psig              715.00:  Bit Press Loss 
 CABU.                      No:  Customer Abuse 
 TCS .hr                 53.00:  Time Ciculation Ended 
 CV  .mps                 3.85:  Crit Velocity 
 CVMX.mps                 4.75:  Max Crit Veloc 
 DD1 .         Intigam Rahimov:  Direct Drillr 1 
 DDSV.                 iCruise:  DD Service 
 DEFF.%                  98.60:  % Det Eff 
 DLRX.°/30m               2.34:  Dogleg Rot Max 
 DLSO.°/30m               0.00:  Dogleg Oriented 
 DLSX.°/30m               0.00:  Dogleg Str Max 
 DRET.      00.15.00 05-Jan-21:  Drill End Time 
 DRST.      22.00.00 03-Jan-21:  Drill Start Tim 
 DTIM.hr                 17.72:  Time Drilling 
 EDEP.m                3814.01:  End Depth 
 ENG1.         Yevgeniy Ulikov:  Engineer 1 
 ENG2.        Farkhad Khalidov:  Engineer 2 
 ENG3.           Samir Gafarov:  Engineer 3 
 ETIM.      21.00.00 07-Jan-21:  End Time 
 FLOI.gpm               590.00:  Flow In 
 FLON.gpm               580.00:  Flow In Min 
 FLOS.cptm                1.00:  Fluid Loss 
 FLOX.gpm               595.00:  Flow In Max 
 FTRO.     Connectivity, Formation Presure:  FTWD Run Obj 
 HFLO.                      No:  High Flow 
 HPRE.                     Yes:  High Pressure 
 HTEM.                      No:  High Temp 
 HYDO.m                   1.80:  Hydro Offset 
 IFIN.deg                63.76:  Inc, Final 
 IMAX.deg                64.09:  Inc Max 
 IMIN.deg                55.81:  Inc Min 
 IMND.m                3455.62:  Inc Min Depth 
 IMXD.m                3796.03:  Inc Max Depth 
 JARR.                      No:  Jarring 
 LETM.      00.15.00 05-Jan-21:  Log End Time 
 LOST.hr                     0:  Lost Rig Time 
 LSTM.      22.00.00 03-Jan-21:  Log Start Time 
 MDCL.ppm             36000.00:  Mud Chlorides 
 MDES.     Inversion Oil/Synthetic:  Mud Desc 
 DFD .sg                  1.51:  Mud Density 
 MDMN.sg                  1.51:  Dens Mud Min 
 MDMX.sg                  1.51:  Dens Mud Max 
 MOIL.                    55.5:  Run Mud Oil % 
 MOWR.                   70:30:  Run Mud OWR 
 MSND.                     0.1:  Run Mud Sand % 
 MSOL.                   20.77:  Run Mud Solids% 
 DFV .spqt               67.00:  Mud Viscosity 
 MWOD.in                  6.75:  MWD Tool OD 
 MWSI.                      No:  Serv Intrp, MWD 
 OTIM.hr                113.53:  Time Operating 
 PCON.           Look Like New:  Pad Condition 
 PMAX.psia             4830.00:  Press Op, Max 
 PV  .cP                 29.00:  Mud PV 
 RUN .                     300:  Run Number 
 ROPA.m/hr               22.00:  ROP Avg 
 ROPN.m/hr               18.00:  ROP Min 
 ROPX.m/hr               25.00:  ROP Max 
 RPMA.rpm               130.00:  RPM Surface Avg 
 RPMN.rpm                80.00:  RPM Surface Min 
 RPMX.rpm               140.00:  RPM Surface Max 
 RRUN.                    L101:  Rig Run Number 
 RTIM.hr                  9.28:  Time Reaming 
 SAZI.deg               316.55:  Azm, Start 
 SDEP.m                3445.01:  Start Depth 
 SIDD.                      No:  Serv Intrp, DD 
 SINC.deg                55.81:  Inc, Start 
 SPPA.psig             4500.00:  SPP Avg 
 SPPN.psig             4350.00:  SPP Min 
 SPPX.psig             4830.00:  SPP Max 
 STIM.      00.00.00 03-Jan-21:  Start Time 
 SVCS.                 DD, MWD:  Services 
 SVER.                    9.20:  Sperry Version 
 TDAT.m                 369.00:  Tot Depth Attmp 
 TDDF.                      No:  Trip for DD 
 TDLG.m                 369.00:  Tot Depth Loggd 
 TFF .                      No:  Trip for Fail 
 TQAA.f-kp               15.00:  Torque Abs Avg 
 TQAN.f-kp               12.00:  Torque Abs Min 
 TQAX.f-kp               16.00:  Torque Abs Max 
 TRRT.°/30m              -2.10:  Turn Rotating 
 MRT .                    HCIM:  Maximum Recorded Temperature 
 TTMX.degC               92.16:  Max Tool Temp 
 VS01.                90627822:  Virtual Str1 SN 
 VS02.                90550008:  Virtual Str2 SN 
 VS03.                90627816:  Virtual Str3 SN 
 VS04.                90633205:  Virtual Str4 SN 
 VS05.                13033835:  Virtual Str5 SN 
 VS06.                11125125:  Virtual Str6 SN 
 WBMN.klb                 8.00:  WOB Min 
 WITN.            Bruce Cheyne:  Customer Rep 
 WITN.           Faig Mammadov:  Customer Rep 2 
 WOBA.klb                 9.00:  WOB Avg 
 WOBX.klb                12.00:  WOB Max 
 YP  .lhf2               30.00:  Yield Point 
~Curve Information Block
#MNEM.UNIT                 API CODE     Curve Description
#---------               -----------    ---------------------------
 TIME.HHMMSS            00 000 000 000:  GT Time & Date
 GTET.sec               00 000 000 000:  GT Elapsed Test Time
 GTPQH.psia             00 000 000 000:  GT HR Quartz Pressure
 GTDEPTH.m              00 000 000 000:  GT Depth
 GTTVD.m                00 000 000 000:  GT True Vertical Depth
 GTTQ.degC              00 000 000 000:  GT Quartz Temperature
 GTTN.NONE              00 000 000 000:  GT Test Number
#Other Information
#
#WARRANTY: Halliburton will use its best efforts to furnish customers with 
#accurate information and interpretations that are part of, and incident to, the services 
#provided.  However, Halliburton cannot and does not warrant the accuracy 
#or correctness of such information and interpretations.  Under no circumstances should any 
#such information or interpretation be relied upon as the sole basis for any drilling, 
#completion, production, or financial decision or any procedure involving any risk to the 
#safety of any drilling venture, drilling rig or its crew or any other third party.  The 
#Customer has full responsibility for all drilling, completion and production operation.  
#Halliburton makes no representations or warranties, either expressed or 
#implied, including, but not limited to, the implied warranties of merchantability or fitness 
#for a particular purpose, with respect to the services rendered.  In no event will 
#Halliburton be liable for failure to obtain any particular results or for 
#any damages, including, but not limited to, indirect, special or consequential damages, 
#resulting from the use of any information or interpretation provided by Halliburton.
#
~A           TIME            GTET   GTPQH  GTDEPTH  GTTVD  GTTQ  GTTN 
# ...
   05:43:43.000.05-Jan-2021 161.00 4761.97 3764.51 3128.30 84.57 2.00
   05:43:43.200.05-Jan-2021 161.20 4761.97 3764.51 3128.30 84.57 2.00
   05:43:43.400.05-Jan-2021 161.40 4761.97 3764.51 3128.30 84.57 2.00
   05:43:43.600.05-Jan-2021 161.60 4761.98 3764.51 3128.30 84.57 2.00
   05:43:43.800.05-Jan-2021 161.80 4762.00 3764.51 3128.30 84.57 2.00
   05:43:44.000.05-Jan-2021 162.00 4762.01 3764.51 3128.30 84.57 2.00
   05:43:44.200.05-Jan-2021 162.20 4762.01 3764.51 3128.30 84.57 2.00
   05:43:44.400.05-Jan-2021 162.40 4762.04 3764.51 3128.30 84.57 2.00
   05:43:44.600.05-Jan-2021 162.60 4762.01 3764.51 3128.30 84.57 2.00
   05:43:44.800.05-Jan-2021 162.80 4761.95 3764.51 3128.30 84.57 2.00
   05:43:45.000.05-Jan-2021 163.00 4761.96 3764.51 3128.30 84.57 2.00
   05:43:45.200.05-Jan-2021 163.20 4761.96 3764.51 3128.30 84.57 2.00
   05:43:45.400.05-Jan-2021 163.40 4761.96 3764.51 3128.30 84.57 2.00
   05:43:45.600.05-Jan-2021 163.60 4762.02 3764.51 3128.30 84.57 2.00
   05:43:45.800.05-Jan-2021 163.80 4762.02 3764.51 3128.30 84.57 2.00
   05:43:46.000.05-Jan-2021 164.00 4762.01 3764.51 3128.30 84.57 2.00
   05:43:46.200.05-Jan-2021 164.20 4761.95 3764.51 3128.30 84.57 2.00
   05:43:46.400.05-Jan-2021 164.40 4762.03 3764.51 3128.30 84.57 2.00
   05:43:46.600.05-Jan-2021 164.60 4762.05 3764.51 3128.30 84.57 2.00
   05:43:46.800.05-Jan-2021 164.80 4761.97 3764.51 3128.30 84.57 2.00
   05:43:47.000.05-Jan-2021 165.00 4761.92 3764.51 3128.30 84.57 2.00
   05:43:47.200.05-Jan-2021 165.20 4761.92 3764.51 3128.30 84.57 2.00
   05:43:47.400.05-Jan-2021 165.40 4762.00 3764.51 3128.30 84.57 2.00
   05:43:47.600.05-Jan-2021 165.60 4762.04 3764.51 3128.30 84.57 2.00
   05:43:47.800.05-Jan-2021 165.80 4761.96 3764.51 3128.30 84.57 2.00
   05:43:48.000.05-Jan-2021 166.00 4761.93 3764.51 3128.30 84.57 2.00
   05:43:48.200.05-Jan-2021 166.20 4761.93 3764.51 3128.30 84.57 2.00
   05:43:48.400.05-Jan-2021 166.40 4761.99 3764.51 3128.30 84.57 2.00
   05:43:48.600.05-Jan-2021 166.60 4761.93 3764.51 3128.30 84.57 2.00
   05:43:48.800.05-Jan-2021 166.80 4762.02 3764.51 3128.30 84.57 2.00
   05:43:49.000.05-Jan-2021 167.00 4761.96 3764.51 3128.30 84.57 2.00
   05:43:49.200.05-Jan-2021 167.20 4761.98 3764.51 3128.30 84.57 2.00
   05:43:49.400.05-Jan-2021 167.40 4762.01 3764.51 3128.30 84.57 2.00
   05:43:49.600.05-Jan-2021 167.60 4761.96 3764.51 3128.30 84.57 2.00
   05:43:49.800.05-Jan-2021 167.80 4761.97 3764.51 3128.30 84.57 2.00
   05:43:50.000.05-Jan-2021 168.00 4762.03 3764.51 3128.30 84.57 2.00
   05:43:50.200.05-Jan-2021 168.20 4761.96 3764.51 3128.30 84.57 2.00
   05:43:50.400.05-Jan-2021 168.40 4762.03 3764.51 3128.30 84.57 2.00
   05:43:50.600.05-Jan-2021 168.60 4762.03 3764.51 3128.30 84.57 2.00
   05:43:50.800.05-Jan-2021 168.80 4761.91 3764.51 3128.30 84.57 2.00
   05:43:51.000.05-Jan-2021 169.00 4761.99 3764.51 3128.30 84.57 2.00
   05:43:51.200.05-Jan-2021 169.20 4761.99 3764.51 3128.30 84.57 2.00
   05:43:51.400.05-Jan-2021 169.40 4761.99 3764.51 3128.30 84.57 2.00
   05:43:51.600.05-Jan-2021 169.60 4761.99 3764.51 3128.30 84.57 2.00
   05:43:51.800.05-Jan-2021 169.80 4761.97 3764.51 3128.30 84.57 2.00
   05:43:52.000.05-Jan-2021 170.00 4761.99 3764.51 3128.30 84.56 2.00
   05:43:52.200.05-Jan-2021 170.20 4761.99 3764.51 3128.30 84.56 2.00
   05:43:52.400.05-Jan-2021 170.40 4761.99 3764.51 3128.30 84.57 2.00
   05:43:52.600.05-Jan-2021 170.60 4762.01 3764.51 3128.30 84.56 2.00
   05:43:52.800.05-Jan-2021 170.80 4761.96 3764.51 3128.30 84.56 2.00
   05:43:53.000.05-Jan-2021 171.00 4762.10 3764.51 3128.30 84.56 2.00
   05:43:53.200.05-Jan-2021 171.20 4762.10 3764.51 3128.30 84.56 2.00
   05:43:53.400.05-Jan-2021 171.40 4740.07 3764.51 3128.30 84.56 2.00
   05:43:53.600.05-Jan-2021 171.60 4725.53 3764.51 3128.30 84.56 2.00
   05:43:53.800.05-Jan-2021 171.80 4735.42 3764.51 3128.30 84.56 2.00
   05:43:54.000.05-Jan-2021 172.00 4728.87 3764.51 3128.30 84.56 2.00
   05:43:54.200.05-Jan-2021 172.20 4728.64 3764.51 3128.30 84.56 2.00
   05:43:54.400.05-Jan-2021 172.40 4726.80 3764.51 3128.30 84.56 2.00
   05:43:54.600.05-Jan-2021 172.60 4731.23 3764.51 3128.30 84.56 2.00
   05:43:54.800.05-Jan-2021 172.80 4725.10 3764.51 3128.30 84.56 2.00
   05:43:55.000.05-Jan-2021 173.00 4738.47 3764.51 3128.30 84.56 2.00
   05:43:55.200.05-Jan-2021 173.20 4738.47 3764.51 3128.30 84.56 2.00
   05:43:55.400.05-Jan-2021 173.40 4731.77 3764.51 3128.30 84.56 2.00
   05:43:55.600.05-Jan-2021 173.60 4724.45 3764.51 3128.30 84.56 2.00
   05:43:55.800.05-Jan-2021 173.80 4723.00 3764.51 3128.30 84.56 2.00
   05:43:56.000.05-Jan-2021 174.00 4728.19 3764.51 3128.30 84.56 2.00
   05:43:56.200.05-Jan-2021 174.20 4728.19 3764.51 3128.30 84.56 2.00
   05:43:56.400.05-Jan-2021 174.40 4725.60 3764.51 3128.30 84.56 2.00
   05:43:56.600.05-Jan-2021 174.60 4727.20 3764.51 3128.30 84.56 2.00
   05:43:56.800.05-Jan-2021 174.80 4727.03 3764.51 3128.30 84.56 2.00
   05:43:57.000.05-Jan-2021 175.00 4724.31 3764.51 3128.30 84.56 2.00
   05:43:57.200.05-Jan-2021 175.20 4726.26 3764.51 3128.30 84.56 2.00
   05:43:57.400.05-Jan-2021 175.40 4722.62 3764.51 3128.30 84.56 2.00
   05:43:57.600.05-Jan-2021 175.60 4726.07 3764.51 3128.30 84.56 2.00
   05:43:57.800.05-Jan-2021 175.80 4725.26 3764.51 3128.30 84.56 2.00
   05:43:58.000.05-Jan-2021 176.00 4722.68 3764.51 3128.30 84.56 2.00
   05:43:58.200.05-Jan-2021 176.20 4722.68 3764.51 3128.30 84.56 2.00
   05:43:58.400.05-Jan-2021 176.40 4726.97 3764.51 3128.30 84.56 2.00
   05:43:58.600.05-Jan-2021 176.60 4727.36 3764.51 3128.30 84.56 2.00
   05:43:58.800.05-Jan-2021 176.80 4721.08 3764.51 3128.30 84.56 2.00
   05:43:59.000.05-Jan-2021 177.00 4724.42 3764.51 3128.30 84.56 2.00
   05:43:59.200.05-Jan-2021 177.20 4724.42 3764.51 3128.30 84.56 2.00
   05:43:59.400.05-Jan-2021 177.40 4721.85 3764.51 3128.30 84.56 2.00
   05:43:59.600.05-Jan-2021 177.60 4730.92 3764.51 3128.30 84.56 2.00
   05:43:59.800.05-Jan-2021 177.80 4726.02 3764.51 3128.30 84.56 2.00
   05:44:00.000.05-Jan-2021 178.00 4723.07 3764.51 3128.30 84.56 2.00
   05:44:00.200.05-Jan-2021 178.20 4723.07 3764.51 3128.30 84.56 2.00
   05:44:00.400.05-Jan-2021 178.40 4724.84 3764.51 3128.30 84.56 2.00
   05:44:00.600.05-Jan-2021 178.60 4724.43 3764.51 3128.30 84.56 2.00
   05:44:00.800.05-Jan-2021 178.80 4728.82 3764.51 3128.30 84.56 2.00
   05:44:01.000.05-Jan-2021 179.00 4728.90 3764.51 3128.30 84.56 2.00
   05:44:01.200.05-Jan-2021 179.20 4723.47 3764.51 3128.30 84.56 2.00
   05:44:01.400.05-Jan-2021 179.40 4730.86 3764.51 3128.30 84.56 2.00
   05:44:01.600.05-Jan-2021 179.60 4732.76 3764.51 3128.30 84.56 2.00
   05:44:01.800.05-Jan-2021 179.80 4730.96 3764.51 3128.30 84.56 2.00
   05:44:02.000.05-Jan-2021 180.00 4731.13 3764.51 3128.30 84.56 2.00
   05:44:02.200.05-Jan-2021 180.20 4730.91 3764.51 3128.30 84.56 2.00
   05:44:02.400.05-Jan-2021 180.40 4725.53 3764.51 3128.30 84.56 2.00
   05:44:02.600.05-Jan-2021 180.60 4732.79 3764.51 3128.30 84.56 2.00
   05:44:02.800.05-Jan-2021 180.80 4725.01 3764.51 3128.30 84.56 2.00
   05:44:03.000.05-Jan-2021 181.00 4727.42 3764.51 3128.30 84.56 2.00
   05:44:03.200.05-Jan-2021 181.20 4727.42 3764.51 3128.30 84.56 2.00
   05:44:03.400.05-Jan-2021 181.40 4752.88 3764.51 3128.30 84.56 2.00
   05:44:03.600.05-Jan-2021 181.60 4761.70 3764.51 3128.30 84.56 2.00
   05:44:03.800.05-Jan-2021 181.80 4761.98 3764.51 3128.30 84.56 2.00
   05:44:04.000.05-Jan-2021 182.00 4761.69 3764.51 3128.30 84.56 2.00
   05:44:04.200.05-Jan-2021 182.20 4761.69 3764.51 3128.30 84.56 2.00
   05:44:04.400.05-Jan-2021 182.40 4761.83 3764.51 3128.30 84.56 2.00
   05:44:04.600.05-Jan-2021 182.60 4761.93 3764.51 3128.30 84.56 2.00
   05:44:04.800.05-Jan-2021 182.80 4761.70 3764.51 3128.30 84.56 2.00
   05:44:05.000.05-Jan-2021 183.00 4761.82 3764.51 3128.30 84.56 2.00
   05:44:05.200.05-Jan-2021 183.20 4761.82 3764.51 3128.30 84.56 2.00
   05:44:05.400.05-Jan-2021 183.40 4761.87 3764.51 3128.30 84.56 2.00
   05:44:05.600.05-Jan-2021 183.60 4761.87 3764.51 3128.30 84.56 2.00
   05:44:05.800.05-Jan-2021 183.80 4761.80 3764.51 3128.30 84.56 2.00
