~Version Information
 VERS.                  2.0:   CWLS log ASCII Standard -VERSION 2.0
 WRAP.                   NO:   One line per depth step
~Well Information Block
#MNEM.UNIT     VALUE/NAME     DESCRIPTION
#---------     -----------    ---------------------------
 STRT.S             14:32:26 05-Jan-21: START TIME 14:32:26 05-Jan-21
 STOP.S             14:40:38 05-Jan-21: STOP TIME  14:40:38 05-Jan-21
 STEP.S                   0.00: STEP TIME
 NULL.                 -999.25: NULL VALUE
 DFWT.                        :  DIST FWL TEXT
 DFST.                        :  DIST FSL TEXT
 DMF .             Drill Floor:  DRILL MEAS FROM
 STIM.      06.00.00 31-Dec-20:  START TIME
 DATE.      05.58.24 07-Jan-21:  END TIME
 SPUD.               24-Dec-20:  SPUD DATE
 NREF.                    Grid:  NORTH REFERENCE
 HPTY.       Minimum Curvature:  HOLE POS TYPE
 DMOD.             Drill Model:  DRILL MOD DESC
 SVYD.                  Survey:  SURVEY DESC
 ILTD.               Lithology:  INTERP LTH DESC
 FTOP.          Formation Tops:  FORM TOPS DESC
 SON .        AZ-XX-0906699554:  JOB NUMBER
 WELL.                    B09z:  WELL NAME
 PDAT.          Mean Sea Level:  PERMANENT DATUM
 FLD .                     ACG:  FIELD NAME
 CTRY.              Azerbaijan:  COUNTRY NAME
 COMP.     BP Exploration (Caspian Sea) Ltd.:  COMPANY
 UWI .                     N/A:  UNIQUE WELL IDENTIFIER
 API .                     N/A:  API NUMBER
 WTYP.                Deviated:  WELL TYPE
 MDS .        Operator Entered:  MAG DATA SOURCE
 BASE.              Azerbaijan:  LOGGING EQUIPMENT BASE LOCATION
 REGN.                   EESSA:  REGION
 PROV.                    Baku:  PROVINCE
 STAT.                    Baku:  STATE NAME
 SRVC.          Turan Drilling:  CONTRACTOR
 MWDS.                    Baku:  MWD SHOP
 JOBN.        AZ-XX-0906699554:  JOB TICKET NUMB
 RIG .           Central Azeri:  RIG NAME
 DOE .                     N/A:  DOE NUMBER
 DCON.         Sperry Drilling:  DIRECTNL CONTR
 UNIT.                     N/A:  LOGGING EQUIPMENT ID
 CNTY.                        :  COUNTY
 LOC .                        :  LOCATION
 LMF .             Drill Floor:  LOG MEASURED FROM
 TVDS.m                  43.29:  TVDSS CORRECTN
 LATI.deg                40.03:  LATITUDE
 LONG.deg                51.35:  LONGITUDE
 WHNS.m                  -2.76:  WELL HEAD N/S
 WHEW.m                  -7.70:  WELL HEAD E/W
 UTMX.m              530128.28:  UTM X
 UTMY.m             4433192.49:  UTM Y
 DFWL.m                   0.00:  DISTANCE FWL
 DFSL.m                   0.00:  DISTANCE FSL
 SDEP.m                3435.01:  START DEPTH
 TDD .m                3814.01:  TOTAL DEPTH (DRILLER)
 VSDR.deg               352.80:  VERT SEC DIRECT
 GVFD.g                   1.00:  GRAVITY FIELD
 MFLD.nT              50303.00:  MAGNETIC FIELD
 MDIP.deg                59.52:  MAGNETIC DIP
 MDEC.deg                 6.47:  MAGNETIC DECL
 GRDC.deg                 0.23:  GRID CORRECTION
 AZTC.deg                 6.24:  AZM TOTAL CORR
 EPD .m                   0.00:  ELEVATION
 EGL .m                   0.00:  GROUND ELEVATION
 WDMS.m                 128.20:  WD ELEV
 APD .m                  43.29:  DEPTH ABOVE PD
 DEP .m                3421.30:  DEPTH
 AGAP.m                  43.60:  AIR GAP
 VSEW.m                  -7.70:  VERT SEC E/W
 VSNS.m                  -2.76:  VERT SEC N/S
 EKB .m                   0.00:  KB ELEVATION
 EDF .m                  43.29:  DF ELEVATION
 TDL .m                 369.00:  TOTAL DEPTH (LOGGER)
 VSC .                       0:  VS TO CLOSURE
 MAGU.                 1850390:  MAGUTM CHECKSUM
~Parameter Information Block
#MNEM.UNIT       Value        Description
#---------     -----------    ---------------------------
 AV  .mps                 2.80:  Ann Velocity 
 AVMX.mps                 4.67:  Max Ann Veloc 
 AZIF.deg               303.89:  Azm, Final 
 BHAT.        Rotary Steerable:  BHA Type 
 BREV.rev            128542.00:  Rev Bit Total 
 BROT.°/30m               1.50:  Build Rotating 
 BS  .in                  8.50:  Bit Size 
 BSZ .in                  8.50:  Bit Size 
 BTPL.psig              715.00:  Bit Press Loss 
 CABU.                      No:  Customer Abuse 
 COMM.                     œ¬Z:  Run Comments 1 
 TCS .hr                 53.00:  Time Ciculation Ended 
 CV  .mps                 3.85:  Crit Velocity 
 CVMX.mps                 4.75:  Max Crit Veloc 
 DD1 .         Intigam Rahimov:  Direct Drillr 1 
 DDSV.                 iCruise:  DD Service 
 DEFF.%                  98.60:  % Det Eff 
 DLRX.°/30m               2.34:  Dogleg Rot Max 
 DLSO.°/30m               0.00:  Dogleg Oriented 
 DLSX.°/30m               0.00:  Dogleg Str Max 
 DRET.      00.15.00 05-Jan-21:  Drill End Time 
 DRST.      22.00.00 03-Jan-21:  Drill Start Tim 
 DTIM.hr                 17.72:  Time Drilling 
 EDEP.m                3814.01:  End Depth 
 ENG1.         Yevgeniy Ulikov:  Engineer 1 
 ENG2.        Farkhad Khalidov:  Engineer 2 
 ENG3.           Samir Gafarov:  Engineer 3 
 ETIM.      21.00.00 07-Jan-21:  End Time 
 FLOI.gpm               590.00:  Flow In 
 FLON.gpm               580.00:  Flow In Min 
 FLOS.cptm                1.00:  Fluid Loss 
 FLOX.gpm               595.00:  Flow In Max 
 FTRO.     Connectivity, Formation Presure:  FTWD Run Obj 
 HFLO.                      No:  High Flow 
 HPRE.                     Yes:  High Pressure 
 HTEM.                      No:  High Temp 
 HYDO.m                   1.80:  Hydro Offset 
 IFIN.deg                63.76:  Inc, Final 
 IMAX.deg                64.09:  Inc Max 
 IMIN.deg                55.81:  Inc Min 
 IMND.m                3455.62:  Inc Min Depth 
 IMXD.m                3796.03:  Inc Max Depth 
 JARR.                      No:  Jarring 
 LETM.      00.15.00 05-Jan-21:  Log End Time 
 LOST.hr                     0:  Lost Rig Time 
 LSTM.      22.00.00 03-Jan-21:  Log Start Time 
 MDCL.ppm             36000.00:  Mud Chlorides 
 MDES.     Inversion Oil/Synthetic:  Mud Desc 
 DFD .sg                  1.51:  Mud Density 
 MDMN.sg                  1.51:  Dens Mud Min 
 MDMX.sg                  1.51:  Dens Mud Max 
 MOIL.                    55.5:  Run Mud Oil % 
 MOWR.                   70:30:  Run Mud OWR 
 MSND.                     0.1:  Run Mud Sand % 
 MSOL.                   20.77:  Run Mud Solids% 
 DFV .spqt               67.00:  Mud Viscosity 
 MWOD.in                  6.75:  MWD Tool OD 
 MWSI.                      No:  Serv Intrp, MWD 
 OTIM.hr                113.53:  Time Operating 
 PCON.           Look Like New:  Pad Condition 
 PMAX.psia             4830.00:  Press Op, Max 
 PV  .cP                 29.00:  Mud PV 
 RUN .                     300:  Run Number 
 ROPA.m/hr               22.00:  ROP Avg 
 ROPN.m/hr               18.00:  ROP Min 
 ROPX.m/hr               25.00:  ROP Max 
 RPMA.rpm               130.00:  RPM Surface Avg 
 RPMN.rpm                80.00:  RPM Surface Min 
 RPMX.rpm               140.00:  RPM Surface Max 
 RRUN.                    L101:  Rig Run Number 
 RTIM.hr                  9.28:  Time Reaming 
 SAZI.deg               316.55:  Azm, Start 
 SDEP.m                3445.01:  Start Depth 
 SIDD.                      No:  Serv Intrp, DD 
 SINC.deg                55.81:  Inc, Start 
 SPPA.psig             4500.00:  SPP Avg 
 SPPN.psig             4350.00:  SPP Min 
 SPPX.psig             4830.00:  SPP Max 
 STIM.      00.00.00 03-Jan-21:  Start Time 
 SVCS.                 DD, MWD:  Services 
 SVER.                    9.20:  Sperry Version 
 TDAT.m                 369.00:  Tot Depth Attmp 
 TDDF.                      No:  Trip for DD 
 TDLG.m                 369.00:  Tot Depth Loggd 
 TFF .                      No:  Trip for Fail 
 TQAA.f-kp               15.00:  Torque Abs Avg 
 TQAN.f-kp               12.00:  Torque Abs Min 
 TQAX.f-kp               16.00:  Torque Abs Max 
 TRRT.°/30m              -2.10:  Turn Rotating 
 MRT .                    HCIM:  Maximum Recorded Temperature 
 TTMX.degC               92.16:  Max Tool Temp 
 VS01.                90627822:  Virtual Str1 SN 
 VS02.                90550008:  Virtual Str2 SN 
 VS03.                90627816:  Virtual Str3 SN 
 VS04.                90633205:  Virtual Str4 SN 
 VS05.                13033835:  Virtual Str5 SN 
 VS06.                11125125:  Virtual Str6 SN 
 WBMN.klb                 8.00:  WOB Min 
 WITN.            Bruce Cheyne:  Customer Rep 
 WITN.           Faig Mammadov:  Customer Rep 2 
 WOBA.klb                 9.00:  WOB Avg 
 WOBX.klb                12.00:  WOB Max 
 YP  .lhf2               30.00:  Yield Point 
~Curve Information Block
#MNEM.UNIT                 API CODE     Curve Description
#---------               -----------    ---------------------------
 TIME.HHMMSS            00 000 000 000:  GT Time & Date
 GTET.sec               00 000 000 000:  GT Elapsed Test Time
 GTPQH.psia             00 000 000 000:  GT HR Quartz Pressure
 GTDEPTH.m              00 000 000 000:  GT Depth
 GTTVD.m                00 000 000 000:  GT True Vertical Depth
 GTTQ.degC              00 000 000 000:  GT Quartz Temperature
 GTTN.NONE              00 000 000 000:  GT Test Number
#Other Information
#
#WARRANTY: Halliburton will use its best efforts to furnish customers with 
#accurate information and interpretations that are part of, and incident to, the services 
#provided.  However, Halliburton cannot and does not warrant the accuracy 
#or correctness of such information and interpretations.  Under no circumstances should any 
#such information or interpretation be relied upon as the sole basis for any drilling, 
#completion, production, or financial decision or any procedure involving any risk to the 
#safety of any drilling venture, drilling rig or its crew or any other third party.  The 
#Customer has full responsibility for all drilling, completion and production operation.  
#Halliburton makes no representations or warranties, either expressed or 
#implied, including, but not limited to, the implied warranties of merchantability or fitness 
#for a particular purpose, with respect to the services rendered.  In no event will 
#Halliburton be liable for failure to obtain any particular results or for 
#any damages, including, but not limited to, indirect, special or consequential damages, 
#resulting from the use of any information or interpretation provided by Halliburton.
#
~A           TIME            GTET   GTPQH  GTDEPTH  GTTVD  GTTQ  GTTN 
# ...
   14:32:49.000.05-Jan-2021  23.00 7164.58 3453.01 2973.12 77.51 8.00
   14:32:49.200.05-Jan-2021  23.20 7164.58 3453.01 2973.12 77.51 8.00
   14:32:49.400.05-Jan-2021  23.40 7171.54 3453.01 2973.12 77.51 8.00
   14:32:49.600.05-Jan-2021  23.60 7163.01 3453.01 2973.12 77.51 8.00
   14:32:49.800.05-Jan-2021  23.80 7165.81 3453.01 2973.12 77.51 8.00
   14:32:50.000.05-Jan-2021  24.00 7164.42 3453.01 2973.12 77.51 8.00
   14:32:50.200.05-Jan-2021  24.20 7164.42 3453.01 2973.12 77.51 8.00
   14:32:50.400.05-Jan-2021  24.40 7175.87 3453.01 2973.12 77.51 8.00
   14:32:50.600.05-Jan-2021  24.60 7160.03 3453.01 2973.12 77.51 8.00
   14:32:50.800.05-Jan-2021  24.80 7166.09 3453.01 2973.12 77.51 8.00
   14:32:51.000.05-Jan-2021  25.00 7171.10 3453.01 2973.12 77.51 8.00
   14:32:51.200.05-Jan-2021  25.20 7171.10 3453.01 2973.12 77.51 8.00
   14:32:51.400.05-Jan-2021  25.40 7167.63 3453.01 2973.12 77.51 8.00
   14:32:51.600.05-Jan-2021  25.60 7165.52 3453.01 2973.12 77.51 8.00
   14:32:51.800.05-Jan-2021  25.80 7167.73 3453.01 2973.12 77.51 8.00
   14:32:52.000.05-Jan-2021  26.00 7166.49 3453.01 2973.12 77.51 8.00
   14:32:52.200.05-Jan-2021  26.20 7166.49 3453.01 2973.12 77.51 8.00
   14:32:52.400.05-Jan-2021  26.40 7165.84 3453.01 2973.12 77.51 8.00
   14:32:52.600.05-Jan-2021  26.60 7166.42 3453.01 2973.12 77.51 8.00
   14:32:52.800.05-Jan-2021  26.80 7165.26 3453.01 2973.12 77.51 8.00
   14:32:53.000.05-Jan-2021  27.00 7165.57 3453.01 2973.12 77.51 8.00
   14:32:53.200.05-Jan-2021  27.20 7165.57 3453.01 2973.12 77.51 8.00
   14:32:53.400.05-Jan-2021  27.40 7165.58 3453.01 2973.12 77.51 8.00
   14:32:53.600.05-Jan-2021  27.60 7165.22 3453.01 2973.12 77.51 8.00
   14:32:53.800.05-Jan-2021  27.80 7169.11 3453.01 2973.12 77.51 8.00
   14:32:54.000.05-Jan-2021  28.00 7192.04 3453.01 2973.12 77.51 8.00
   14:32:54.200.05-Jan-2021  28.20 7192.04 3453.01 2973.12 77.51 8.00
   14:32:54.400.05-Jan-2021  28.40 7190.77 3453.01 2973.12 77.51 8.00
   14:32:54.600.05-Jan-2021  28.60 7198.52 3453.01 2973.12 77.51 8.00
   14:32:54.800.05-Jan-2021  28.80 7225.31 3453.01 2973.12 77.51 8.00
   14:32:55.000.05-Jan-2021  29.00 7215.12 3453.01 2973.12 77.51 8.00
   14:32:55.200.05-Jan-2021  29.20 7215.12 3453.01 2973.12 77.51 8.00
   14:32:55.400.05-Jan-2021  29.40 7205.26 3453.01 2973.12 77.51 8.00
   14:32:55.600.05-Jan-2021  29.60 7198.56 3453.01 2973.12 77.51 8.00
   14:32:55.800.05-Jan-2021  29.80 7190.01 3453.01 2973.12 77.51 8.00
   14:32:56.000.05-Jan-2021  30.00 7189.48 3453.01 2973.12 77.51 8.00
   14:32:56.200.05-Jan-2021  30.20 7189.48 3453.01 2973.12 77.51 8.00
   14:32:56.400.05-Jan-2021  30.40 7179.38 3453.01 2973.12 77.51 8.00
   14:32:56.600.05-Jan-2021  30.60 7182.71 3453.01 2973.12 77.51 8.00
   14:32:56.800.05-Jan-2021  30.80 7171.05 3453.01 2973.12 77.51 8.00
   14:32:57.000.05-Jan-2021  31.00 7160.57 3453.01 2973.12 77.51 8.00
   14:32:57.200.05-Jan-2021  31.20 7160.57 3453.01 2973.12 77.51 8.00
   14:32:57.400.05-Jan-2021  31.40 7147.06 3453.01 2973.12 77.51 8.00
   14:32:57.600.05-Jan-2021  31.60 7138.15 3453.01 2973.12 77.51 8.00
   14:32:57.800.05-Jan-2021  31.80 7143.25 3453.01 2973.12 77.51 8.00
   14:32:58.000.05-Jan-2021  32.00 7131.48 3453.01 2973.12 77.51 8.00
   14:32:58.200.05-Jan-2021  32.20 7131.48 3453.01 2973.12 77.51 8.00
   14:32:58.400.05-Jan-2021  32.40 7097.92 3453.01 2973.12 77.51 8.00
   14:32:58.600.05-Jan-2021  32.60 7075.55 3453.01 2973.12 77.51 8.00
   14:32:58.800.05-Jan-2021  32.80 7059.90 3453.01 2973.12 77.51 8.00
   14:32:59.000.05-Jan-2021  33.00 7043.27 3453.01 2973.12 77.51 8.00
   14:32:59.200.05-Jan-2021  33.20 7043.27 3453.01 2973.12 77.51 8.00
   14:32:59.400.05-Jan-2021  33.40 7026.67 3453.01 2973.12 77.51 8.00
   14:32:59.600.05-Jan-2021  33.60 7017.46 3453.01 2973.12 77.51 8.00
   14:32:59.800.05-Jan-2021  33.80 7007.77 3453.01 2973.12 77.51 8.00
   14:33:00.000.05-Jan-2021  34.00 6999.83 3453.01 2973.12 77.51 8.00
   14:33:00.200.05-Jan-2021  34.20 6999.83 3453.01 2973.12 77.51 8.00
   14:33:00.400.05-Jan-2021  34.40 6985.41 3453.01 2973.12 77.51 8.00
   14:33:00.600.05-Jan-2021  34.60 6978.59 3453.01 2973.12 77.51 8.00
   14:33:00.800.05-Jan-2021  34.80 6971.27 3453.01 2973.12 77.51 8.00
   14:33:01.000.05-Jan-2021  35.00 6965.59 3453.01 2973.12 77.51 8.00
   14:33:01.200.05-Jan-2021  35.20 6965.59 3453.01 2973.12 77.51 8.00
   14:33:01.400.05-Jan-2021  35.40 6961.50 3453.01 2973.12 77.51 8.00
   14:33:01.600.05-Jan-2021  35.60 6958.25 3453.01 2973.12 77.51 8.00
   14:33:01.800.05-Jan-2021  35.80 6910.21 3453.01 2973.12 77.51 8.00
   14:33:02.000.05-Jan-2021  36.00 6465.69 3453.01 2973.12 77.51 8.00
   14:33:02.200.05-Jan-2021  36.20 6465.69 3453.01 2973.12 77.51 8.00
   14:33:02.400.05-Jan-2021  36.40 4962.65 3453.01 2973.12 77.51 8.00
   14:33:02.600.05-Jan-2021  36.60 4473.58 3453.01 2973.12 77.51 8.00
   14:33:02.800.05-Jan-2021  36.80 4473.14 3453.01 2973.12 77.51 8.00
   14:33:03.000.05-Jan-2021  37.00 4424.54 3453.01 2973.12 77.51 8.00
   14:33:03.200.05-Jan-2021  37.20 4424.54 3453.01 2973.12 77.51 8.00
   14:33:03.400.05-Jan-2021  37.40 4483.58 3453.01 2973.12 77.51 8.00
   14:33:03.600.05-Jan-2021  37.60 4521.15 3453.01 2973.12 77.51 8.00
   14:33:03.800.05-Jan-2021  37.80 4709.63 3453.01 2973.12 77.50 8.00
   14:33:04.000.05-Jan-2021  38.00 4708.17 3453.01 2973.12 77.50 8.00
   14:33:04.200.05-Jan-2021  38.20 4708.17 3453.01 2973.12 77.50 8.00
   14:33:04.400.05-Jan-2021  38.40 4733.17 3453.01 2973.12 77.50 8.00
   14:33:04.600.05-Jan-2021  38.60 4745.74 3453.01 2973.12 77.50 8.00
   14:33:04.800.05-Jan-2021  38.80 4708.80 3453.01 2973.12 77.49 8.00
   14:33:05.000.05-Jan-2021  39.00 4717.78 3453.01 2973.12 77.49 8.00
   14:33:05.200.05-Jan-2021  39.20 4717.78 3453.01 2973.12 77.49 8.00
   14:33:05.400.05-Jan-2021  39.40 4730.09 3453.01 2973.12 77.49 8.00
   14:33:05.600.05-Jan-2021  39.60 4716.27 3453.01 2973.12 77.49 8.00
   14:33:05.800.05-Jan-2021  39.80 4711.22 3453.01 2973.12 77.48 8.00
   14:33:06.000.05-Jan-2021  40.00 4718.05 3453.01 2973.12 77.48 8.00
   14:33:06.200.05-Jan-2021  40.20 4718.05 3453.01 2973.12 77.48 8.00
   14:33:06.400.05-Jan-2021  40.40 4706.56 3453.01 2973.12 77.48 8.00
   14:33:06.600.05-Jan-2021  40.60 4705.90 3453.01 2973.12 77.48 8.00
   14:33:06.800.05-Jan-2021  40.80 4720.09 3453.01 2973.12 77.47 8.00
   14:33:07.000.05-Jan-2021  41.00 4709.36 3453.01 2973.12 77.47 8.00
   14:33:07.200.05-Jan-2021  41.20 4709.36 3453.01 2973.12 77.47 8.00
   14:33:07.400.05-Jan-2021  41.40 4719.39 3453.01 2973.12 77.47 8.00
   14:33:07.600.05-Jan-2021  41.60 4700.02 3453.01 2973.12 77.47 8.00
   14:33:07.800.05-Jan-2021  41.80 4701.79 3453.01 2973.12 77.47 8.00
   14:33:08.000.05-Jan-2021  42.00 4702.00 3453.01 2973.12 77.46 8.00
   14:33:08.200.05-Jan-2021  42.20 4702.00 3453.01 2973.12 77.46 8.00
   14:33:08.400.05-Jan-2021  42.40 4702.84 3453.01 2973.12 77.46 8.00
   14:33:08.600.05-Jan-2021  42.60 4702.24 3453.01 2973.12 77.46 8.00
   14:33:08.800.05-Jan-2021  42.80 4696.63 3453.01 2973.12 77.46 8.00
   14:33:09.000.05-Jan-2021  43.00 4695.85 3453.01 2973.12 77.46 8.00
   14:33:09.200.05-Jan-2021  43.20 4695.85 3453.01 2973.12 77.46 8.00
   14:33:09.400.05-Jan-2021  43.40 4704.83 3453.01 2973.12 77.45 8.00
   14:33:09.600.05-Jan-2021  43.60 4699.29 3453.01 2973.12 77.45 8.00
   14:33:09.800.05-Jan-2021  43.80 4691.82 3453.01 2973.12 77.45 8.00
   14:33:10.000.05-Jan-2021  44.00 4706.99 3453.01 2973.12 77.45 8.00
   14:33:10.200.05-Jan-2021  44.20 4706.99 3453.01 2973.12 77.45 8.00
   14:33:10.400.05-Jan-2021  44.40 4702.96 3453.01 2973.12 77.45 8.00
   14:33:10.600.05-Jan-2021  44.60 4809.58 3453.01 2973.12 77.45 8.00
   14:33:10.800.05-Jan-2021  44.80 4865.27 3453.01 2973.12 77.45 8.00
   14:33:11.000.05-Jan-2021  45.00 4870.13 3453.01 2973.12 77.45 8.00
   14:33:11.200.05-Jan-2021  45.20 4869.93 3453.01 2973.12 77.45 8.00
   14:33:11.400.05-Jan-2021  45.40 4869.98 3453.01 2973.12 77.45 8.00
   14:33:11.600.05-Jan-2021  45.60 4870.06 3453.01 2973.12 77.45 8.00
   14:33:11.800.05-Jan-2021  45.80 4870.40 3453.01 2973.12 77.45 8.00
