~Version Information
 VERS.                  2.0:   CWLS log ASCII Standard -VERSION 2.0
 WRAP.                   NO:   One line per depth step
~Well Information Block
#MNEM.UNIT     VALUE/NAME     DESCRIPTION
#---------     -----------    ---------------------------
 STRT.S             08:46:17 05-Jan-21: START TIME 08:46:17 05-Jan-21
 STOP.S             08:54:30 05-Jan-21: STOP TIME  08:54:30 05-Jan-21
 STEP.S                   0.00: STEP TIME
 NULL.                 -999.25: NULL VALUE
 DFWT.                        :  DIST FWL TEXT
 DFST.                        :  DIST FSL TEXT
 DMF .             Drill Floor:  DRILL MEAS FROM
 STIM.      06.00.00 31-Dec-20:  START TIME
 DATE.      05.58.24 07-Jan-21:  END TIME
 SPUD.               24-Dec-20:  SPUD DATE
 NREF.                    Grid:  NORTH REFERENCE
 HPTY.       Minimum Curvature:  HOLE POS TYPE
 DMOD.             Drill Model:  DRILL MOD DESC
 SVYD.                  Survey:  SURVEY DESC
 ILTD.               Lithology:  INTERP LTH DESC
 FTOP.          Formation Tops:  FORM TOPS DESC
 SON .        AZ-XX-0906699554:  JOB NUMBER
 WELL.                    B09z:  WELL NAME
 PDAT.          Mean Sea Level:  PERMANENT DATUM
 FLD .                     ACG:  FIELD NAME
 CTRY.              Azerbaijan:  COUNTRY NAME
 COMP.     BP Exploration (Caspian Sea) Ltd.:  COMPANY
 UWI .                     N/A:  UNIQUE WELL IDENTIFIER
 API .                     N/A:  API NUMBER
 WTYP.                Deviated:  WELL TYPE
 MDS .        Operator Entered:  MAG DATA SOURCE
 BASE.              Azerbaijan:  LOGGING EQUIPMENT BASE LOCATION
 REGN.                   EESSA:  REGION
 PROV.                    Baku:  PROVINCE
 STAT.                    Baku:  STATE NAME
 SRVC.          Turan Drilling:  CONTRACTOR
 MWDS.                    Baku:  MWD SHOP
 JOBN.        AZ-XX-0906699554:  JOB TICKET NUMB
 RIG .           Central Azeri:  RIG NAME
 DOE .                     N/A:  DOE NUMBER
 DCON.         Sperry Drilling:  DIRECTNL CONTR
 UNIT.                     N/A:  LOGGING EQUIPMENT ID
 CNTY.                        :  COUNTY
 LOC .                        :  LOCATION
 LMF .             Drill Floor:  LOG MEASURED FROM
 TVDS.m                  43.29:  TVDSS CORRECTN
 LATI.deg                40.03:  LATITUDE
 LONG.deg                51.35:  LONGITUDE
 WHNS.m                  -2.76:  WELL HEAD N/S
 WHEW.m                  -7.70:  WELL HEAD E/W
 UTMX.m              530128.28:  UTM X
 UTMY.m             4433192.49:  UTM Y
 DFWL.m                   0.00:  DISTANCE FWL
 DFSL.m                   0.00:  DISTANCE FSL
 SDEP.m                3435.01:  START DEPTH
 TDD .m                3814.01:  TOTAL DEPTH (DRILLER)
 VSDR.deg               352.80:  VERT SEC DIRECT
 GVFD.g                   1.00:  GRAVITY FIELD
 MFLD.nT              50303.00:  MAGNETIC FIELD
 MDIP.deg                59.52:  MAGNETIC DIP
 MDEC.deg                 6.47:  MAGNETIC DECL
 GRDC.deg                 0.23:  GRID CORRECTION
 AZTC.deg                 6.24:  AZM TOTAL CORR
 EPD .m                   0.00:  ELEVATION
 EGL .m                   0.00:  GROUND ELEVATION
 WDMS.m                 128.20:  WD ELEV
 APD .m                  43.29:  DEPTH ABOVE PD
 DEP .m                3421.30:  DEPTH
 AGAP.m                  43.60:  AIR GAP
 VSEW.m                  -7.70:  VERT SEC E/W
 VSNS.m                  -2.76:  VERT SEC N/S
 EKB .m                   0.00:  KB ELEVATION
 EDF .m                  43.29:  DF ELEVATION
 TDL .m                 369.00:  TOTAL DEPTH (LOGGER)
 VSC .                       0:  VS TO CLOSURE
 MAGU.                 1850390:  MAGUTM CHECKSUM
~Parameter Information Block
#MNEM.UNIT       Value        Description
#---------     -----------    ---------------------------
 AV  .mps                 2.80:  Ann Velocity 
 AVMX.mps                 4.67:  Max Ann Veloc 
 AZIF.deg               303.89:  Azm, Final 
 BHAT.        Rotary Steerable:  BHA Type 
 BREV.rev            128542.00:  Rev Bit Total 
 BROT.°/30m               1.50:  Build Rotating 
 BS  .in                  8.50:  Bit Size 
 BSZ .in                  8.50:  Bit Size 
 BTPL.psig              715.00:  Bit Press Loss 
 CABU.                      No:  Customer Abuse 
 COMM.                     Œã}:  Run Comments 1 
 TCS .hr                 53.00:  Time Ciculation Ended 
 CV  .mps                 3.85:  Crit Velocity 
 CVMX.mps                 4.75:  Max Crit Veloc 
 DD1 .         Intigam Rahimov:  Direct Drillr 1 
 DDSV.                 iCruise:  DD Service 
 DEFF.%                  98.60:  % Det Eff 
 DLRX.°/30m               2.34:  Dogleg Rot Max 
 DLSO.°/30m               0.00:  Dogleg Oriented 
 DLSX.°/30m               0.00:  Dogleg Str Max 
 DRET.      00.15.00 05-Jan-21:  Drill End Time 
 DRST.      22.00.00 03-Jan-21:  Drill Start Tim 
 DTIM.hr                 17.72:  Time Drilling 
 EDEP.m                3814.01:  End Depth 
 ENG1.         Yevgeniy Ulikov:  Engineer 1 
 ENG2.        Farkhad Khalidov:  Engineer 2 
 ENG3.           Samir Gafarov:  Engineer 3 
 ETIM.      21.00.00 07-Jan-21:  End Time 
 FLOI.gpm               590.00:  Flow In 
 FLON.gpm               580.00:  Flow In Min 
 FLOS.cptm                1.00:  Fluid Loss 
 FLOX.gpm               595.00:  Flow In Max 
 FTRO.     Connectivity, Formation Presure:  FTWD Run Obj 
 HFLO.                      No:  High Flow 
 HPRE.                     Yes:  High Pressure 
 HTEM.                      No:  High Temp 
 HYDO.m                   1.80:  Hydro Offset 
 IFIN.deg                63.76:  Inc, Final 
 IMAX.deg                64.09:  Inc Max 
 IMIN.deg                55.81:  Inc Min 
 IMND.m                3455.62:  Inc Min Depth 
 IMXD.m                3796.03:  Inc Max Depth 
 JARR.                      No:  Jarring 
 LETM.      00.15.00 05-Jan-21:  Log End Time 
 LOST.hr                     0:  Lost Rig Time 
 LSTM.      22.00.00 03-Jan-21:  Log Start Time 
 MDCL.ppm             36000.00:  Mud Chlorides 
 MDES.     Inversion Oil/Synthetic:  Mud Desc 
 DFD .sg                  1.51:  Mud Density 
 MDMN.sg                  1.51:  Dens Mud Min 
 MDMX.sg                  1.51:  Dens Mud Max 
 MOIL.                    55.5:  Run Mud Oil % 
 MOWR.                   70:30:  Run Mud OWR 
 MSND.                     0.1:  Run Mud Sand % 
 MSOL.                   20.77:  Run Mud Solids% 
 DFV .spqt               67.00:  Mud Viscosity 
 MWOD.in                  6.75:  MWD Tool OD 
 MWSI.                      No:  Serv Intrp, MWD 
 OTIM.hr                113.53:  Time Operating 
 PCON.           Look Like New:  Pad Condition 
 PMAX.psia             4830.00:  Press Op, Max 
 PV  .cP                 29.00:  Mud PV 
 RUN .                     300:  Run Number 
 ROPA.m/hr               22.00:  ROP Avg 
 ROPN.m/hr               18.00:  ROP Min 
 ROPX.m/hr               25.00:  ROP Max 
 RPMA.rpm               130.00:  RPM Surface Avg 
 RPMN.rpm                80.00:  RPM Surface Min 
 RPMX.rpm               140.00:  RPM Surface Max 
 RRUN.                    L101:  Rig Run Number 
 RTIM.hr                  9.28:  Time Reaming 
 SAZI.deg               316.55:  Azm, Start 
 SDEP.m                3445.01:  Start Depth 
 SIDD.                      No:  Serv Intrp, DD 
 SINC.deg                55.81:  Inc, Start 
 SPPA.psig             4500.00:  SPP Avg 
 SPPN.psig             4350.00:  SPP Min 
 SPPX.psig             4830.00:  SPP Max 
 STIM.      00.00.00 03-Jan-21:  Start Time 
 SVCS.                 DD, MWD:  Services 
 SVER.                    9.20:  Sperry Version 
 TDAT.m                 369.00:  Tot Depth Attmp 
 TDDF.                      No:  Trip for DD 
 TDLG.m                 369.00:  Tot Depth Loggd 
 TFF .                      No:  Trip for Fail 
 TQAA.f-kp               15.00:  Torque Abs Avg 
 TQAN.f-kp               12.00:  Torque Abs Min 
 TQAX.f-kp               16.00:  Torque Abs Max 
 TRRT.°/30m              -2.10:  Turn Rotating 
 MRT .                    HCIM:  Maximum Recorded Temperature 
 TTMX.degC               92.16:  Max Tool Temp 
 VS01.                90627822:  Virtual Str1 SN 
 VS02.                90550008:  Virtual Str2 SN 
 VS03.                90627816:  Virtual Str3 SN 
 VS04.                90633205:  Virtual Str4 SN 
 VS05.                13033835:  Virtual Str5 SN 
 VS06.                11125125:  Virtual Str6 SN 
 WBMN.klb                 8.00:  WOB Min 
 WITN.            Bruce Cheyne:  Customer Rep 
 WITN.           Faig Mammadov:  Customer Rep 2 
 WOBA.klb                 9.00:  WOB Avg 
 WOBX.klb                12.00:  WOB Max 
 YP  .lhf2               30.00:  Yield Point 
~Curve Information Block
#MNEM.UNIT                 API CODE     Curve Description
#---------               -----------    ---------------------------
 TIME.HHMMSS            00 000 000 000:  GT Time & Date
 GTET.sec               00 000 000 000:  GT Elapsed Test Time
 GTPQH.psia             00 000 000 000:  GT HR Quartz Pressure
 GTDEPTH.m              00 000 000 000:  GT Depth
 GTTVD.m                00 000 000 000:  GT True Vertical Depth
 GTTQ.degC              00 000 000 000:  GT Quartz Temperature
 GTTN.NONE              00 000 000 000:  GT Test Number
#Other Information
#
#WARRANTY: Halliburton will use its best efforts to furnish customers with 
#accurate information and interpretations that are part of, and incident to, the services 
#provided.  However, Halliburton cannot and does not warrant the accuracy 
#or correctness of such information and interpretations.  Under no circumstances should any 
#such information or interpretation be relied upon as the sole basis for any drilling, 
#completion, production, or financial decision or any procedure involving any risk to the 
#safety of any drilling venture, drilling rig or its crew or any other third party.  The 
#Customer has full responsibility for all drilling, completion and production operation.  
#Halliburton makes no representations or warranties, either expressed or 
#implied, including, but not limited to, the implied warranties of merchantability or fitness 
#for a particular purpose, with respect to the services rendered.  In no event will 
#Halliburton be liable for failure to obtain any particular results or for 
#any damages, including, but not limited to, indirect, special or consequential damages, 
#resulting from the use of any information or interpretation provided by Halliburton.
#
~A           TIME            GTET   GTPQH  GTDEPTH  GTTVD  GTTQ  GTTN 
# ...
   08:50:54.100.05-Jan-2021 276.10 4605.37 3625.51 3064.84 80.02 6.00
   08:50:54.300.05-Jan-2021 276.30 4605.37 3625.51 3064.84 80.02 6.00
   08:50:54.500.05-Jan-2021 276.50 4605.46 3625.51 3064.84 80.02 6.00
   08:50:54.700.05-Jan-2021 276.70 4605.32 3625.51 3064.84 80.02 6.00
   08:50:54.901.05-Jan-2021 276.90 4605.29 3625.51 3064.84 80.02 6.00
   08:50:55.101.05-Jan-2021 277.10 4605.24 3625.51 3064.84 80.02 6.00
   08:50:55.301.05-Jan-2021 277.30 4605.24 3625.51 3064.84 80.02 6.00
   08:50:55.501.05-Jan-2021 277.50 4605.29 3625.51 3064.84 80.02 6.00
   08:50:55.701.05-Jan-2021 277.70 4605.27 3625.51 3064.84 80.02 6.00
   08:50:55.901.05-Jan-2021 277.90 4605.35 3625.51 3064.84 80.02 6.00
   08:50:56.101.05-Jan-2021 278.10 4605.27 3625.51 3064.84 80.02 6.00
   08:50:56.301.05-Jan-2021 278.30 4605.27 3625.51 3064.84 80.02 6.00
   08:50:56.501.05-Jan-2021 278.50 4604.75 3625.51 3064.84 80.02 6.00
   08:50:56.701.05-Jan-2021 278.70 4605.31 3625.51 3064.84 80.02 6.00
   08:50:56.901.05-Jan-2021 278.90 4605.46 3625.51 3064.84 80.02 6.00
   08:50:57.101.05-Jan-2021 279.10 4605.53 3625.51 3064.84 80.02 6.00
   08:50:57.301.05-Jan-2021 279.30 4605.35 3625.51 3064.84 80.02 6.00
   08:50:57.502.05-Jan-2021 279.50 4605.36 3625.51 3064.84 80.02 6.00
   08:50:57.702.05-Jan-2021 279.70 4605.28 3625.51 3064.84 80.02 6.00
   08:50:57.902.05-Jan-2021 279.90 4605.29 3625.51 3064.84 80.02 6.00
   08:50:58.102.05-Jan-2021 280.10 4605.28 3625.51 3064.84 80.02 6.00
   08:50:58.302.05-Jan-2021 280.30 4605.28 3625.51 3064.84 80.02 6.00
   08:50:58.502.05-Jan-2021 280.50 4605.34 3625.51 3064.84 80.02 6.00
   08:50:58.702.05-Jan-2021 280.70 4605.28 3625.51 3064.84 80.02 6.00
   08:50:58.902.05-Jan-2021 280.90 4605.27 3625.51 3064.84 80.02 6.00
   08:50:59.102.05-Jan-2021 281.10 4604.52 3625.51 3064.84 80.02 6.00
   08:50:59.302.05-Jan-2021 281.30 4604.52 3625.51 3064.84 80.02 6.00
   08:50:59.502.05-Jan-2021 281.50 4605.33 3625.51 3064.84 80.02 6.00
   08:50:59.702.05-Jan-2021 281.70 4604.80 3625.51 3064.84 80.02 6.00
   08:50:59.902.05-Jan-2021 281.90 4605.49 3625.51 3064.84 80.02 6.00
   08:51:00.102.05-Jan-2021 282.10 4605.45 3625.51 3064.84 80.02 6.00
   08:51:00.303.05-Jan-2021 282.30 4605.45 3625.51 3064.84 80.02 6.00
   08:51:00.503.05-Jan-2021 282.50 4605.23 3625.51 3064.84 80.02 6.00
   08:51:00.703.05-Jan-2021 282.70 4604.73 3625.51 3064.84 80.02 6.00
   08:51:00.903.05-Jan-2021 282.91 4605.36 3625.51 3064.84 80.02 6.00
   08:51:01.103.05-Jan-2021 283.11 4605.42 3625.51 3064.84 80.02 6.00
   08:51:01.303.05-Jan-2021 283.31 4605.42 3625.51 3064.84 80.02 6.00
   08:51:01.503.05-Jan-2021 283.51 4605.42 3625.51 3064.84 80.02 6.00
   08:51:01.703.05-Jan-2021 283.71 4605.30 3625.51 3064.84 80.02 6.00
   08:51:01.903.05-Jan-2021 283.91 4604.75 3625.51 3064.84 80.02 6.00
   08:51:02.103.05-Jan-2021 284.11 4605.38 3625.51 3064.84 80.02 6.00
   08:51:02.303.05-Jan-2021 284.31 4605.38 3625.51 3064.84 80.02 6.00
   08:51:02.503.05-Jan-2021 284.51 4605.47 3625.51 3064.84 80.02 6.00
   08:51:02.703.05-Jan-2021 284.71 4605.28 3625.51 3064.84 80.02 6.00
   08:51:02.904.05-Jan-2021 284.91 4604.72 3625.51 3064.84 80.02 6.00
   08:51:03.104.05-Jan-2021 285.11 4605.37 3625.51 3064.84 80.02 6.00
   08:51:03.304.05-Jan-2021 285.31 4605.37 3625.51 3064.84 80.02 6.00
   08:51:03.504.05-Jan-2021 285.51 4605.56 3625.51 3064.84 80.02 6.00
   08:51:03.704.05-Jan-2021 285.71 4605.28 3625.51 3064.84 80.02 6.00
   08:51:03.904.05-Jan-2021 285.91 4605.30 3625.51 3064.84 80.02 6.00
   08:51:04.104.05-Jan-2021 286.11 4605.29 3625.51 3064.84 80.02 6.00
   08:51:04.304.05-Jan-2021 286.31 4605.29 3625.51 3064.84 80.02 6.00
   08:51:04.504.05-Jan-2021 286.51 4605.29 3625.51 3064.84 80.02 6.00
   08:51:04.704.05-Jan-2021 286.71 4605.27 3625.51 3064.84 80.02 6.00
   08:51:04.904.05-Jan-2021 286.91 4605.29 3625.51 3064.84 80.02 6.00
   08:51:05.104.05-Jan-2021 287.11 4605.28 3625.51 3064.84 80.02 6.00
   08:51:05.304.05-Jan-2021 287.31 4605.28 3625.51 3064.84 80.02 6.00
   08:51:05.504.05-Jan-2021 287.51 4605.19 3625.51 3064.84 80.02 6.00
   08:51:05.705.05-Jan-2021 287.71 4604.73 3625.51 3064.84 80.02 6.00
   08:51:05.905.05-Jan-2021 287.91 4605.31 3625.51 3064.84 80.02 6.00
   08:51:06.105.05-Jan-2021 288.11 4605.45 3625.51 3064.84 80.02 6.00
   08:51:06.305.05-Jan-2021 288.31 4605.45 3625.51 3064.84 80.02 6.00
   08:51:06.505.05-Jan-2021 288.51 4605.34 3625.51 3064.84 80.02 6.00
   08:51:06.705.05-Jan-2021 288.71 4605.31 3625.51 3064.84 80.02 6.00
   08:51:06.905.05-Jan-2021 288.91 4605.25 3625.51 3064.84 80.02 6.00
   08:51:07.105.05-Jan-2021 289.11 4605.33 3625.51 3064.84 80.02 6.00
   08:51:07.305.05-Jan-2021 289.31 4605.33 3625.51 3064.84 80.02 6.00
   08:51:07.505.05-Jan-2021 289.51 4605.24 3625.51 3064.84 80.02 6.00
   08:51:07.705.05-Jan-2021 289.71 4605.30 3625.51 3064.84 80.02 6.00
   08:51:07.905.05-Jan-2021 289.91 4605.24 3625.51 3064.84 80.02 6.00
   08:51:08.105.05-Jan-2021 290.11 4605.32 3625.51 3064.84 80.02 6.00
   08:51:08.306.05-Jan-2021 290.31 4605.32 3625.51 3064.84 80.02 6.00
   08:51:08.506.05-Jan-2021 290.51 4605.27 3625.51 3064.84 80.02 6.00
   08:51:08.706.05-Jan-2021 290.71 4605.27 3625.51 3064.84 80.02 6.00
   08:51:08.906.05-Jan-2021 290.91 4605.03 3625.51 3064.84 80.01 6.00
   08:51:09.106.05-Jan-2021 291.11 4605.36 3625.51 3064.84 80.01 6.00
   08:51:09.306.05-Jan-2021 291.31 4605.39 3625.51 3064.84 80.01 6.00
   08:51:09.506.05-Jan-2021 291.51 4605.37 3625.51 3064.84 80.01 6.00
   08:51:09.706.05-Jan-2021 291.71 4605.30 3625.51 3064.84 80.01 6.00
   08:51:09.906.05-Jan-2021 291.91 4604.76 3625.51 3064.84 80.01 6.00
   08:51:10.106.05-Jan-2021 292.11 4605.37 3625.51 3064.84 80.01 6.00
   08:51:10.306.05-Jan-2021 292.31 4605.37 3625.51 3064.84 80.01 6.00
   08:51:10.506.05-Jan-2021 292.51 4605.48 3625.51 3064.84 80.01 6.00
   08:51:10.706.05-Jan-2021 292.71 4605.34 3625.51 3064.84 80.01 6.00
   08:51:10.906.05-Jan-2021 292.91 4605.24 3625.51 3064.84 80.01 6.00
   08:51:11.107.05-Jan-2021 293.11 4604.79 3625.51 3064.84 80.01 6.00
   08:51:11.307.05-Jan-2021 293.31 4604.79 3625.51 3064.84 80.01 6.00
   08:51:11.507.05-Jan-2021 293.51 4605.41 3625.51 3064.84 80.01 6.00
   08:51:11.707.05-Jan-2021 293.71 4605.40 3625.51 3064.84 80.01 6.00
   08:51:11.907.05-Jan-2021 293.91 4604.78 3625.51 3064.84 80.01 6.00
   08:51:12.107.05-Jan-2021 294.11 4605.33 3625.51 3064.84 80.01 6.00
   08:51:12.307.05-Jan-2021 294.31 4605.33 3625.51 3064.84 80.01 6.00
   08:51:12.507.05-Jan-2021 294.51 4605.44 3625.51 3064.84 80.01 6.00
   08:51:12.707.05-Jan-2021 294.71 4605.44 3625.51 3064.84 80.01 6.00
   08:51:12.907.05-Jan-2021 294.91 4605.35 3625.51 3064.84 80.01 6.00
   08:51:13.107.05-Jan-2021 295.11 4605.28 3625.51 3064.84 80.01 6.00
   08:51:13.307.05-Jan-2021 295.31 4605.28 3625.51 3064.84 80.01 6.00
   08:51:13.507.05-Jan-2021 295.51 4605.25 3625.51 3064.84 80.01 6.00
   08:51:13.708.05-Jan-2021 295.71 4605.29 3625.51 3064.84 80.01 6.00
   08:51:13.908.05-Jan-2021 295.91 4605.26 3625.51 3064.84 80.01 6.00
   08:51:14.108.05-Jan-2021 296.11 4605.28 3625.51 3064.84 80.01 6.00
   08:51:14.308.05-Jan-2021 296.31 4605.28 3625.51 3064.84 80.01 6.00
   08:51:14.508.05-Jan-2021 296.51 4605.29 3625.51 3064.84 80.01 6.00
   08:51:14.708.05-Jan-2021 296.71 4604.49 3625.51 3064.84 80.01 6.00
   08:51:14.908.05-Jan-2021 296.91 4605.50 3625.51 3064.84 80.01 6.00
   08:51:15.108.05-Jan-2021 297.11 4605.42 3625.51 3064.84 80.01 6.00
   08:51:15.308.05-Jan-2021 297.31 4605.42 3625.51 3064.84 80.01 6.00
   08:51:15.508.05-Jan-2021 297.51 4605.39 3625.51 3064.84 80.01 6.00
   08:51:15.708.05-Jan-2021 297.71 4605.38 3625.51 3064.84 80.01 6.00
   08:51:15.908.05-Jan-2021 297.91 4605.28 3625.51 3064.84 80.01 6.00
   08:51:16.108.05-Jan-2021 298.11 4605.31 3625.51 3064.84 80.01 6.00
   08:51:16.308.05-Jan-2021 298.31 4605.31 3625.51 3064.84 80.01 6.00
   08:51:16.509.05-Jan-2021 298.51 4605.25 3625.51 3064.84 80.01 6.00
   08:51:16.709.05-Jan-2021 298.71 4605.26 3625.51 3064.84 80.01 6.00
   08:51:16.909.05-Jan-2021 298.91 4605.28 3625.51 3064.84 80.01 6.00
