~Version Information
 VERS.                  2.0:   CWLS log ASCII Standard -VERSION 2.0
 WRAP.                   NO:   One line per depth step
~Well Information Block
#MNEM.UNIT     VALUE/NAME     DESCRIPTION
#---------     -----------    ---------------------------
 STRT.S             13:40:14 05-Jan-21: START TIME 13:40:14 05-Jan-21
 STOP.S             13:48:27 05-Jan-21: STOP TIME  13:48:27 05-Jan-21
 STEP.S                   0.00: STEP TIME
 NULL.                 -999.25: NULL VALUE
 DFWT.                        :  DIST FWL TEXT
 DFST.                        :  DIST FSL TEXT
 DMF .             Drill Floor:  DRILL MEAS FROM
 STIM.      06.00.00 31-Dec-20:  START TIME
 DATE.      05.58.24 07-Jan-21:  END TIME
 SPUD.               24-Dec-20:  SPUD DATE
 NREF.                    Grid:  NORTH REFERENCE
 HPTY.       Minimum Curvature:  HOLE POS TYPE
 DMOD.             Drill Model:  DRILL MOD DESC
 SVYD.                  Survey:  SURVEY DESC
 ILTD.               Lithology:  INTERP LTH DESC
 FTOP.          Formation Tops:  FORM TOPS DESC
 SON .        AZ-XX-0906699554:  JOB NUMBER
 WELL.                    B09z:  WELL NAME
 PDAT.          Mean Sea Level:  PERMANENT DATUM
 FLD .                     ACG:  FIELD NAME
 CTRY.              Azerbaijan:  COUNTRY NAME
 COMP.     BP Exploration (Caspian Sea) Ltd.:  COMPANY
 UWI .                     N/A:  UNIQUE WELL IDENTIFIER
 API .                     N/A:  API NUMBER
 WTYP.                Deviated:  WELL TYPE
 MDS .        Operator Entered:  MAG DATA SOURCE
 BASE.              Azerbaijan:  LOGGING EQUIPMENT BASE LOCATION
 REGN.                   EESSA:  REGION
 PROV.                    Baku:  PROVINCE
 STAT.                    Baku:  STATE NAME
 SRVC.          Turan Drilling:  CONTRACTOR
 MWDS.                    Baku:  MWD SHOP
 JOBN.        AZ-XX-0906699554:  JOB TICKET NUMB
 RIG .           Central Azeri:  RIG NAME
 DOE .                     N/A:  DOE NUMBER
 DCON.         Sperry Drilling:  DIRECTNL CONTR
 UNIT.                     N/A:  LOGGING EQUIPMENT ID
 CNTY.                        :  COUNTY
 LOC .                        :  LOCATION
 LMF .             Drill Floor:  LOG MEASURED FROM
 TVDS.m                  43.29:  TVDSS CORRECTN
 LATI.deg                40.03:  LATITUDE
 LONG.deg                51.35:  LONGITUDE
 WHNS.m                  -2.76:  WELL HEAD N/S
 WHEW.m                  -7.70:  WELL HEAD E/W
 UTMX.m              530128.28:  UTM X
 UTMY.m             4433192.49:  UTM Y
 DFWL.m                   0.00:  DISTANCE FWL
 DFSL.m                   0.00:  DISTANCE FSL
 SDEP.m                3435.01:  START DEPTH
 TDD .m                3814.01:  TOTAL DEPTH (DRILLER)
 VSDR.deg               352.80:  VERT SEC DIRECT
 GVFD.g                   1.00:  GRAVITY FIELD
 MFLD.nT              50303.00:  MAGNETIC FIELD
 MDIP.deg                59.52:  MAGNETIC DIP
 MDEC.deg                 6.47:  MAGNETIC DECL
 GRDC.deg                 0.23:  GRID CORRECTION
 AZTC.deg                 6.24:  AZM TOTAL CORR
 EPD .m                   0.00:  ELEVATION
 EGL .m                   0.00:  GROUND ELEVATION
 WDMS.m                 128.20:  WD ELEV
 APD .m                  43.29:  DEPTH ABOVE PD
 DEP .m                3421.30:  DEPTH
 AGAP.m                  43.60:  AIR GAP
 VSEW.m                  -7.70:  VERT SEC E/W
 VSNS.m                  -2.76:  VERT SEC N/S
 EKB .m                   0.00:  KB ELEVATION
 EDF .m                  43.29:  DF ELEVATION
 TDL .m                 369.00:  TOTAL DEPTH (LOGGER)
 VSC .                       0:  VS TO CLOSURE
 MAGU.                 1850390:  MAGUTM CHECKSUM
~Parameter Information Block
#MNEM.UNIT       Value        Description
#---------     -----------    ---------------------------
 AV  .mps                 2.80:  Ann Velocity 
 AVMX.mps                 4.67:  Max Ann Veloc 
 AZIF.deg               303.89:  Azm, Final 
 BHAT.        Rotary Steerable:  BHA Type 
 BREV.rev            128542.00:  Rev Bit Total 
 BROT.°/30m               1.50:  Build Rotating 
 BS  .in                  8.50:  Bit Size 
 BSZ .in                  8.50:  Bit Size 
 BTPL.psig              715.00:  Bit Press Loss 
 CABU.                      No:  Customer Abuse 
 COMM.                     t6w:  Run Comments 1 
 TCS .hr                 53.00:  Time Ciculation Ended 
 CV  .mps                 3.85:  Crit Velocity 
 CVMX.mps                 4.75:  Max Crit Veloc 
 DD1 .         Intigam Rahimov:  Direct Drillr 1 
 DDSV.                 iCruise:  DD Service 
 DEFF.%                  98.60:  % Det Eff 
 DLRX.°/30m               2.34:  Dogleg Rot Max 
 DLSO.°/30m               0.00:  Dogleg Oriented 
 DLSX.°/30m               0.00:  Dogleg Str Max 
 DRET.      00.15.00 05-Jan-21:  Drill End Time 
 DRST.      22.00.00 03-Jan-21:  Drill Start Tim 
 DTIM.hr                 17.72:  Time Drilling 
 EDEP.m                3814.01:  End Depth 
 ENG1.         Yevgeniy Ulikov:  Engineer 1 
 ENG2.        Farkhad Khalidov:  Engineer 2 
 ENG3.           Samir Gafarov:  Engineer 3 
 ETIM.      21.00.00 07-Jan-21:  End Time 
 FLOI.gpm               590.00:  Flow In 
 FLON.gpm               580.00:  Flow In Min 
 FLOS.cptm                1.00:  Fluid Loss 
 FLOX.gpm               595.00:  Flow In Max 
 FTRO.     Connectivity, Formation Presure:  FTWD Run Obj 
 HFLO.                      No:  High Flow 
 HPRE.                     Yes:  High Pressure 
 HTEM.                      No:  High Temp 
 HYDO.m                   1.80:  Hydro Offset 
 IFIN.deg                63.76:  Inc, Final 
 IMAX.deg                64.09:  Inc Max 
 IMIN.deg                55.81:  Inc Min 
 IMND.m                3455.62:  Inc Min Depth 
 IMXD.m                3796.03:  Inc Max Depth 
 JARR.                      No:  Jarring 
 LETM.      00.15.00 05-Jan-21:  Log End Time 
 LOST.hr                     0:  Lost Rig Time 
 LSTM.      22.00.00 03-Jan-21:  Log Start Time 
 MDCL.ppm             36000.00:  Mud Chlorides 
 MDES.     Inversion Oil/Synthetic:  Mud Desc 
 DFD .sg                  1.51:  Mud Density 
 MDMN.sg                  1.51:  Dens Mud Min 
 MDMX.sg                  1.51:  Dens Mud Max 
 MOIL.                    55.5:  Run Mud Oil % 
 MOWR.                   70:30:  Run Mud OWR 
 MSND.                     0.1:  Run Mud Sand % 
 MSOL.                   20.77:  Run Mud Solids% 
 DFV .spqt               67.00:  Mud Viscosity 
 MWOD.in                  6.75:  MWD Tool OD 
 MWSI.                      No:  Serv Intrp, MWD 
 OTIM.hr                113.53:  Time Operating 
 PCON.           Look Like New:  Pad Condition 
 PMAX.psia             4830.00:  Press Op, Max 
 PV  .cP                 29.00:  Mud PV 
 RUN .                     300:  Run Number 
 ROPA.m/hr               22.00:  ROP Avg 
 ROPN.m/hr               18.00:  ROP Min 
 ROPX.m/hr               25.00:  ROP Max 
 RPMA.rpm               130.00:  RPM Surface Avg 
 RPMN.rpm                80.00:  RPM Surface Min 
 RPMX.rpm               140.00:  RPM Surface Max 
 RRUN.                    L101:  Rig Run Number 
 RTIM.hr                  9.28:  Time Reaming 
 SAZI.deg               316.55:  Azm, Start 
 SDEP.m                3445.01:  Start Depth 
 SIDD.                      No:  Serv Intrp, DD 
 SINC.deg                55.81:  Inc, Start 
 SPPA.psig             4500.00:  SPP Avg 
 SPPN.psig             4350.00:  SPP Min 
 SPPX.psig             4830.00:  SPP Max 
 STIM.      00.00.00 03-Jan-21:  Start Time 
 SVCS.                 DD, MWD:  Services 
 SVER.                    9.20:  Sperry Version 
 TDAT.m                 369.00:  Tot Depth Attmp 
 TDDF.                      No:  Trip for DD 
 TDLG.m                 369.00:  Tot Depth Loggd 
 TFF .                      No:  Trip for Fail 
 TQAA.f-kp               15.00:  Torque Abs Avg 
 TQAN.f-kp               12.00:  Torque Abs Min 
 TQAX.f-kp               16.00:  Torque Abs Max 
 TRRT.°/30m              -2.10:  Turn Rotating 
 MRT .                    HCIM:  Maximum Recorded Temperature 
 TTMX.degC               92.16:  Max Tool Temp 
 VS01.                90627822:  Virtual Str1 SN 
 VS02.                90550008:  Virtual Str2 SN 
 VS03.                90627816:  Virtual Str3 SN 
 VS04.                90633205:  Virtual Str4 SN 
 VS05.                13033835:  Virtual Str5 SN 
 VS06.                11125125:  Virtual Str6 SN 
 WBMN.klb                 8.00:  WOB Min 
 WITN.            Bruce Cheyne:  Customer Rep 
 WITN.           Faig Mammadov:  Customer Rep 2 
 WOBA.klb                 9.00:  WOB Avg 
 WOBX.klb                12.00:  WOB Max 
 YP  .lhf2               30.00:  Yield Point 
~Curve Information Block
#MNEM.UNIT                 API CODE     Curve Description
#---------               -----------    ---------------------------
 TIME.HHMMSS            00 000 000 000:  GT Time & Date
 GTET.sec               00 000 000 000:  GT Elapsed Test Time
 GTPQH.psia             00 000 000 000:  GT HR Quartz Pressure
 GTDEPTH.m              00 000 000 000:  GT Depth
 GTTVD.m                00 000 000 000:  GT True Vertical Depth
 GTTQ.degC              00 000 000 000:  GT Quartz Temperature
 GTTN.NONE              00 000 000 000:  GT Test Number
#Other Information
#
#WARRANTY: Halliburton will use its best efforts to furnish customers with 
#accurate information and interpretations that are part of, and incident to, the services 
#provided.  However, Halliburton cannot and does not warrant the accuracy 
#or correctness of such information and interpretations.  Under no circumstances should any 
#such information or interpretation be relied upon as the sole basis for any drilling, 
#completion, production, or financial decision or any procedure involving any risk to the 
#safety of any drilling venture, drilling rig or its crew or any other third party.  The 
#Customer has full responsibility for all drilling, completion and production operation.  
#Halliburton makes no representations or warranties, either expressed or 
#implied, including, but not limited to, the implied warranties of merchantability or fitness 
#for a particular purpose, with respect to the services rendered.  In no event will 
#Halliburton be liable for failure to obtain any particular results or for 
#any damages, including, but not limited to, indirect, special or consequential damages, 
#resulting from the use of any information or interpretation provided by Halliburton.
#
~A           TIME            GTET   GTPQH  GTDEPTH  GTTVD  GTTQ  GTTN 
# ...
   13:43:19.033.05-Jan-2021 184.10 4883.81 3494.01 2996.09 77.93 7.00
   13:43:19.233.05-Jan-2021 184.30 4883.81 3494.01 2996.09 77.93 7.00
   13:43:19.433.05-Jan-2021 184.50 4884.25 3494.01 2996.09 77.93 7.00
   13:43:19.633.05-Jan-2021 184.70 4884.08 3494.01 2996.09 77.93 7.00
   13:43:19.834.05-Jan-2021 184.90 4883.71 3494.01 2996.09 77.93 7.00
   13:43:20.034.05-Jan-2021 185.10 4884.28 3494.01 2996.09 77.93 7.00
   13:43:20.234.05-Jan-2021 185.30 4884.28 3494.01 2996.09 77.93 7.00
   13:43:20.434.05-Jan-2021 185.50 4884.44 3494.01 2996.09 77.93 7.00
   13:43:20.634.05-Jan-2021 185.70 4883.87 3494.01 2996.09 77.93 7.00
   13:43:20.834.05-Jan-2021 185.90 4883.92 3494.01 2996.09 77.93 7.00
   13:43:21.034.05-Jan-2021 186.10 4883.97 3494.01 2996.09 77.93 7.00
   13:43:21.234.05-Jan-2021 186.30 4883.97 3494.01 2996.09 77.93 7.00
   13:43:21.434.05-Jan-2021 186.50 4883.84 3494.01 2996.09 77.93 7.00
   13:43:21.635.05-Jan-2021 186.70 4883.64 3494.01 2996.09 77.93 7.00
   13:43:21.835.05-Jan-2021 186.90 4884.32 3494.01 2996.09 77.93 7.00
   13:43:22.035.05-Jan-2021 187.10 4884.75 3494.01 2996.09 77.93 7.00
   13:43:22.235.05-Jan-2021 187.30 4884.75 3494.01 2996.09 77.93 7.00
   13:43:22.435.05-Jan-2021 187.50 4883.91 3494.01 2996.09 77.93 7.00
   13:43:22.635.05-Jan-2021 187.70 4883.71 3494.01 2996.09 77.93 7.00
   13:43:22.835.05-Jan-2021 187.90 4884.14 3494.01 2996.09 77.93 7.00
   13:43:23.035.05-Jan-2021 188.10 4884.31 3494.01 2996.09 77.94 7.00
   13:43:23.235.05-Jan-2021 188.30 4884.46 3494.01 2996.09 77.94 7.00
   13:43:23.436.05-Jan-2021 188.50 4883.53 3494.01 2996.09 77.94 7.00
   13:43:23.636.05-Jan-2021 188.70 4884.02 3494.01 2996.09 77.94 7.00
   13:43:23.836.05-Jan-2021 188.90 4884.45 3494.01 2996.09 77.94 7.00
   13:43:24.036.05-Jan-2021 189.10 4884.41 3494.01 2996.09 77.94 7.00
   13:43:24.236.05-Jan-2021 189.31 4884.41 3494.01 2996.09 77.94 7.00
   13:43:24.436.05-Jan-2021 189.51 4884.18 3494.01 2996.09 77.94 7.00
   13:43:24.636.05-Jan-2021 189.71 4884.14 3494.01 2996.09 77.94 7.00
   13:43:24.836.05-Jan-2021 189.91 4883.96 3494.01 2996.09 77.94 7.00
   13:43:25.036.05-Jan-2021 190.11 4884.02 3494.01 2996.09 77.94 7.00
   13:43:25.237.05-Jan-2021 190.31 4884.02 3494.01 2996.09 77.94 7.00
   13:43:25.437.05-Jan-2021 190.51 4884.54 3494.01 2996.09 77.94 7.00
   13:43:25.637.05-Jan-2021 190.71 4883.41 3494.01 2996.09 77.94 7.00
   13:43:25.837.05-Jan-2021 190.91 4883.92 3494.01 2996.09 77.94 7.00
   13:43:26.037.05-Jan-2021 191.11 4884.70 3494.01 2996.09 77.94 7.00
   13:43:26.237.05-Jan-2021 191.31 4884.70 3494.01 2996.09 77.94 7.00
   13:43:26.437.05-Jan-2021 191.51 4884.66 3494.01 2996.09 77.94 7.00
   13:43:26.637.05-Jan-2021 191.71 4884.08 3494.01 2996.09 77.94 7.00
   13:43:26.837.05-Jan-2021 191.91 4884.37 3494.01 2996.09 77.94 7.00
   13:43:27.038.05-Jan-2021 192.11 4883.83 3494.01 2996.09 77.94 7.00
   13:43:27.238.05-Jan-2021 192.31 4884.09 3494.01 2996.09 77.94 7.00
   13:43:27.438.05-Jan-2021 192.51 4884.20 3494.01 2996.09 77.94 7.00
   13:43:27.638.05-Jan-2021 192.71 4884.26 3494.01 2996.09 77.94 7.00
   13:43:27.838.05-Jan-2021 192.91 4884.09 3494.01 2996.09 77.94 7.00
   13:43:28.038.05-Jan-2021 193.11 4883.50 3494.01 2996.09 77.94 7.00
   13:43:28.238.05-Jan-2021 193.31 4884.52 3494.01 2996.09 77.94 7.00
   13:43:28.438.05-Jan-2021 193.51 4883.89 3494.01 2996.09 77.94 7.00
   13:43:28.638.05-Jan-2021 193.71 4884.89 3494.01 2996.09 77.94 7.00
   13:43:28.839.05-Jan-2021 193.91 4883.97 3494.01 2996.09 77.94 7.00
   13:43:29.039.05-Jan-2021 194.11 4884.10 3494.01 2996.09 77.94 7.00
   13:43:29.239.05-Jan-2021 194.31 4884.10 3494.01 2996.09 77.94 7.00
   13:43:29.439.05-Jan-2021 194.51 4883.99 3494.01 2996.09 77.94 7.00
   13:43:29.639.05-Jan-2021 194.71 4884.50 3494.01 2996.09 77.94 7.00
   13:43:29.839.05-Jan-2021 194.91 4884.17 3494.01 2996.09 77.94 7.00
   13:43:30.039.05-Jan-2021 195.11 4884.15 3494.01 2996.09 77.94 7.00
   13:43:30.239.05-Jan-2021 195.31 4884.15 3494.01 2996.09 77.94 7.00
   13:43:30.439.05-Jan-2021 195.51 4884.50 3494.01 2996.09 77.94 7.00
   13:43:30.640.05-Jan-2021 195.71 4884.14 3494.01 2996.09 77.94 7.00
   13:43:30.840.05-Jan-2021 195.91 4883.57 3494.01 2996.09 77.94 7.00
   13:43:31.040.05-Jan-2021 196.11 4885.08 3494.01 2996.09 77.94 7.00
   13:43:31.240.05-Jan-2021 196.31 4884.41 3494.01 2996.09 77.94 7.00
   13:43:31.440.05-Jan-2021 196.51 4884.16 3494.01 2996.09 77.94 7.00
   13:43:31.640.05-Jan-2021 196.71 4884.64 3494.01 2996.09 77.94 7.00
   13:43:31.840.05-Jan-2021 196.91 4884.24 3494.01 2996.09 77.94 7.00
   13:43:32.040.05-Jan-2021 197.11 4883.78 3494.01 2996.09 77.94 7.00
   13:43:32.240.05-Jan-2021 197.31 4884.18 3494.01 2996.09 77.94 7.00
   13:43:32.441.05-Jan-2021 197.51 4883.96 3494.01 2996.09 77.94 7.00
   13:43:32.641.05-Jan-2021 197.71 4883.96 3494.01 2996.09 77.94 7.00
   13:43:32.841.05-Jan-2021 197.91 4884.09 3494.01 2996.09 77.94 7.00
   13:43:33.041.05-Jan-2021 198.11 4883.90 3494.01 2996.09 77.94 7.00
   13:43:33.241.05-Jan-2021 198.31 4883.90 3494.01 2996.09 77.94 7.00
   13:43:33.441.05-Jan-2021 198.51 4884.16 3494.01 2996.09 77.94 7.00
   13:43:33.641.05-Jan-2021 198.71 4883.45 3494.01 2996.09 77.95 7.00
   13:43:33.841.05-Jan-2021 198.91 4884.87 3494.01 2996.09 77.95 7.00
   13:43:34.041.05-Jan-2021 199.11 4884.21 3494.01 2996.09 77.95 7.00
   13:43:34.242.05-Jan-2021 199.31 4884.21 3494.01 2996.09 77.95 7.00
   13:43:34.442.05-Jan-2021 199.51 4883.81 3494.01 2996.09 77.95 7.00
   13:43:34.642.05-Jan-2021 199.71 4884.31 3494.01 2996.09 77.95 7.00
   13:43:34.842.05-Jan-2021 199.91 4884.52 3494.01 2996.09 77.95 7.00
   13:43:35.042.05-Jan-2021 200.11 4884.46 3494.01 2996.09 77.95 7.00
   13:43:35.242.05-Jan-2021 200.31 4884.50 3494.01 2996.09 77.95 7.00
   13:43:35.442.05-Jan-2021 200.51 4884.25 3494.01 2996.09 77.95 7.00
   13:43:35.642.05-Jan-2021 200.71 4883.83 3494.01 2996.09 77.95 7.00
   13:43:35.842.05-Jan-2021 200.91 4884.40 3494.01 2996.09 77.95 7.00
   13:43:36.043.05-Jan-2021 201.11 4884.20 3494.01 2996.09 77.95 7.00
   13:43:36.243.05-Jan-2021 201.31 4884.20 3494.01 2996.09 77.95 7.00
   13:43:36.443.05-Jan-2021 201.51 4884.73 3494.01 2996.09 77.95 7.00
   13:43:36.643.05-Jan-2021 201.71 4883.74 3494.01 2996.09 77.95 7.00
   13:43:36.843.05-Jan-2021 201.91 4883.87 3494.01 2996.09 77.95 7.00
   13:43:37.043.05-Jan-2021 202.11 4884.49 3494.01 2996.09 77.95 7.00
   13:43:37.243.05-Jan-2021 202.31 4884.49 3494.01 2996.09 77.95 7.00
   13:43:37.443.05-Jan-2021 202.51 4883.60 3494.01 2996.09 77.95 7.00
   13:43:37.643.05-Jan-2021 202.71 4884.30 3494.01 2996.09 77.95 7.00
   13:43:37.844.05-Jan-2021 202.91 4884.53 3494.01 2996.09 77.95 7.00
   13:43:38.044.05-Jan-2021 203.11 4884.33 3494.01 2996.09 77.95 7.00
   13:43:38.244.05-Jan-2021 203.31 4884.33 3494.01 2996.09 77.95 7.00
   13:43:38.444.05-Jan-2021 203.51 4883.99 3494.01 2996.09 77.95 7.00
   13:43:38.644.05-Jan-2021 203.71 4884.74 3494.01 2996.09 77.95 7.00
   13:43:38.844.05-Jan-2021 203.91 4884.28 3494.01 2996.09 77.95 7.00
   13:43:39.044.05-Jan-2021 204.11 4884.01 3494.01 2996.09 77.95 7.00
   13:43:39.244.05-Jan-2021 204.31 4884.01 3494.01 2996.09 77.95 7.00
   13:43:39.444.05-Jan-2021 204.51 4884.17 3494.01 2996.09 77.95 7.00
   13:43:39.645.05-Jan-2021 204.71 4884.35 3494.01 2996.09 77.95 7.00
   13:43:39.845.05-Jan-2021 204.91 4883.93 3494.01 2996.09 77.95 7.00
   13:43:40.045.05-Jan-2021 205.11 4884.10 3494.01 2996.09 77.95 7.00
   13:43:40.245.05-Jan-2021 205.31 4884.10 3494.01 2996.09 77.95 7.00
   13:43:40.445.05-Jan-2021 205.51 4884.21 3494.01 2996.09 77.95 7.00
   13:43:40.645.05-Jan-2021 205.71 4884.44 3494.01 2996.09 77.95 7.00
   13:43:40.845.05-Jan-2021 205.91 4884.10 3494.01 2996.09 77.95 7.00
   13:43:41.045.05-Jan-2021 206.11 4884.43 3494.01 2996.09 77.95 7.00
   13:43:41.245.05-Jan-2021 206.31 4884.43 3494.01 2996.09 77.95 7.00
   13:43:41.446.05-Jan-2021 206.51 4883.97 3494.01 2996.09 77.95 7.00
   13:43:41.646.05-Jan-2021 206.71 4884.68 3494.01 2996.09 77.95 7.00
   13:43:41.846.05-Jan-2021 206.91 4883.82 3494.01 2996.09 77.95 7.00
