~Version Information
 VERS.                  2.0:   CWLS log ASCII Standard -VERSION 2.0
 WRAP.                   NO:   One line per depth step
~Well Information Block
#MNEM.UNIT     VALUE/NAME     DESCRIPTION
#---------     -----------    ---------------------------
 STRT.S             08:46:17 05-Jan-21: START TIME 08:46:17 05-Jan-21
 STOP.S             08:54:30 05-Jan-21: STOP TIME  08:54:30 05-Jan-21
 STEP.S                   0.00: STEP TIME
 NULL.                 -999.25: NULL VALUE
 DFWT.                        :  DIST FWL TEXT
 DFST.                        :  DIST FSL TEXT
 DMF .             Drill Floor:  DRILL MEAS FROM
 STIM.      06.00.00 31-Dec-20:  START TIME
 DATE.      05.58.24 07-Jan-21:  END TIME
 SPUD.               24-Dec-20:  SPUD DATE
 NREF.                    Grid:  NORTH REFERENCE
 HPTY.       Minimum Curvature:  HOLE POS TYPE
 DMOD.             Drill Model:  DRILL MOD DESC
 SVYD.                  Survey:  SURVEY DESC
 ILTD.               Lithology:  INTERP LTH DESC
 FTOP.          Formation Tops:  FORM TOPS DESC
 SON .        AZ-XX-0906699554:  JOB NUMBER
 WELL.                    B09z:  WELL NAME
 PDAT.          Mean Sea Level:  PERMANENT DATUM
 FLD .                     ACG:  FIELD NAME
 CTRY.              Azerbaijan:  COUNTRY NAME
 COMP.     BP Exploration (Caspian Sea) Ltd.:  COMPANY
 UWI .                     N/A:  UNIQUE WELL IDENTIFIER
 API .                     N/A:  API NUMBER
 WTYP.                Deviated:  WELL TYPE
 MDS .        Operator Entered:  MAG DATA SOURCE
 BASE.              Azerbaijan:  LOGGING EQUIPMENT BASE LOCATION
 REGN.                   EESSA:  REGION
 PROV.                    Baku:  PROVINCE
 STAT.                    Baku:  STATE NAME
 SRVC.          Turan Drilling:  CONTRACTOR
 MWDS.                    Baku:  MWD SHOP
 JOBN.        AZ-XX-0906699554:  JOB TICKET NUMB
 RIG .           Central Azeri:  RIG NAME
 DOE .                     N/A:  DOE NUMBER
 DCON.         Sperry Drilling:  DIRECTNL CONTR
 UNIT.                     N/A:  LOGGING EQUIPMENT ID
 CNTY.                        :  COUNTY
 LOC .                        :  LOCATION
 LMF .             Drill Floor:  LOG MEASURED FROM
 TVDS.m                  43.29:  TVDSS CORRECTN
 LATI.deg                40.03:  LATITUDE
 LONG.deg                51.35:  LONGITUDE
 WHNS.m                  -2.76:  WELL HEAD N/S
 WHEW.m                  -7.70:  WELL HEAD E/W
 UTMX.m              530128.28:  UTM X
 UTMY.m             4433192.49:  UTM Y
 DFWL.m                   0.00:  DISTANCE FWL
 DFSL.m                   0.00:  DISTANCE FSL
 SDEP.m                3435.01:  START DEPTH
 TDD .m                3814.01:  TOTAL DEPTH (DRILLER)
 VSDR.deg               352.80:  VERT SEC DIRECT
 GVFD.g                   1.00:  GRAVITY FIELD
 MFLD.nT              50303.00:  MAGNETIC FIELD
 MDIP.deg                59.52:  MAGNETIC DIP
 MDEC.deg                 6.47:  MAGNETIC DECL
 GRDC.deg                 0.23:  GRID CORRECTION
 AZTC.deg                 6.24:  AZM TOTAL CORR
 EPD .m                   0.00:  ELEVATION
 EGL .m                   0.00:  GROUND ELEVATION
 WDMS.m                 128.20:  WD ELEV
 APD .m                  43.29:  DEPTH ABOVE PD
 DEP .m                3421.30:  DEPTH
 AGAP.m                  43.60:  AIR GAP
 VSEW.m                  -7.70:  VERT SEC E/W
 VSNS.m                  -2.76:  VERT SEC N/S
 EKB .m                   0.00:  KB ELEVATION
 EDF .m                  43.29:  DF ELEVATION
 TDL .m                 369.00:  TOTAL DEPTH (LOGGER)
 VSC .                       0:  VS TO CLOSURE
 MAGU.                 1850390:  MAGUTM CHECKSUM
~Parameter Information Block
#MNEM.UNIT       Value        Description
#---------     -----------    ---------------------------
 AV  .mps                 2.80:  Ann Velocity 
 AVMX.mps                 4.67:  Max Ann Veloc 
 AZIF.deg               303.89:  Azm, Final 
 BHAT.        Rotary Steerable:  BHA Type 
 BREV.rev            128542.00:  Rev Bit Total 
 BROT.°/30m               1.50:  Build Rotating 
 BS  .in                  8.50:  Bit Size 
 BSZ .in                  8.50:  Bit Size 
 BTPL.psig              715.00:  Bit Press Loss 
 CABU.                      No:  Customer Abuse 
 COMM.                     Œã}:  Run Comments 1 
 TCS .hr                 53.00:  Time Ciculation Ended 
 CV  .mps                 3.85:  Crit Velocity 
 CVMX.mps                 4.75:  Max Crit Veloc 
 DD1 .         Intigam Rahimov:  Direct Drillr 1 
 DDSV.                 iCruise:  DD Service 
 DEFF.%                  98.60:  % Det Eff 
 DLRX.°/30m               2.34:  Dogleg Rot Max 
 DLSO.°/30m               0.00:  Dogleg Oriented 
 DLSX.°/30m               0.00:  Dogleg Str Max 
 DRET.      00.15.00 05-Jan-21:  Drill End Time 
 DRST.      22.00.00 03-Jan-21:  Drill Start Tim 
 DTIM.hr                 17.72:  Time Drilling 
 EDEP.m                3814.01:  End Depth 
 ENG1.         Yevgeniy Ulikov:  Engineer 1 
 ENG2.        Farkhad Khalidov:  Engineer 2 
 ENG3.           Samir Gafarov:  Engineer 3 
 ETIM.      21.00.00 07-Jan-21:  End Time 
 FLOI.gpm               590.00:  Flow In 
 FLON.gpm               580.00:  Flow In Min 
 FLOS.cptm                1.00:  Fluid Loss 
 FLOX.gpm               595.00:  Flow In Max 
 FTRO.     Connectivity, Formation Presure:  FTWD Run Obj 
 HFLO.                      No:  High Flow 
 HPRE.                     Yes:  High Pressure 
 HTEM.                      No:  High Temp 
 HYDO.m                   1.80:  Hydro Offset 
 IFIN.deg                63.76:  Inc, Final 
 IMAX.deg                64.09:  Inc Max 
 IMIN.deg                55.81:  Inc Min 
 IMND.m                3455.62:  Inc Min Depth 
 IMXD.m                3796.03:  Inc Max Depth 
 JARR.                      No:  Jarring 
 LETM.      00.15.00 05-Jan-21:  Log End Time 
 LOST.hr                     0:  Lost Rig Time 
 LSTM.      22.00.00 03-Jan-21:  Log Start Time 
 MDCL.ppm             36000.00:  Mud Chlorides 
 MDES.     Inversion Oil/Synthetic:  Mud Desc 
 DFD .sg                  1.51:  Mud Density 
 MDMN.sg                  1.51:  Dens Mud Min 
 MDMX.sg                  1.51:  Dens Mud Max 
 MOIL.                    55.5:  Run Mud Oil % 
 MOWR.                   70:30:  Run Mud OWR 
 MSND.                     0.1:  Run Mud Sand % 
 MSOL.                   20.77:  Run Mud Solids% 
 DFV .spqt               67.00:  Mud Viscosity 
 MWOD.in                  6.75:  MWD Tool OD 
 MWSI.                      No:  Serv Intrp, MWD 
 OTIM.hr                113.53:  Time Operating 
 PCON.           Look Like New:  Pad Condition 
 PMAX.psia             4830.00:  Press Op, Max 
 PV  .cP                 29.00:  Mud PV 
 RUN .                     300:  Run Number 
 ROPA.m/hr               22.00:  ROP Avg 
 ROPN.m/hr               18.00:  ROP Min 
 ROPX.m/hr               25.00:  ROP Max 
 RPMA.rpm               130.00:  RPM Surface Avg 
 RPMN.rpm                80.00:  RPM Surface Min 
 RPMX.rpm               140.00:  RPM Surface Max 
 RRUN.                    L101:  Rig Run Number 
 RTIM.hr                  9.28:  Time Reaming 
 SAZI.deg               316.55:  Azm, Start 
 SDEP.m                3445.01:  Start Depth 
 SIDD.                      No:  Serv Intrp, DD 
 SINC.deg                55.81:  Inc, Start 
 SPPA.psig             4500.00:  SPP Avg 
 SPPN.psig             4350.00:  SPP Min 
 SPPX.psig             4830.00:  SPP Max 
 STIM.      00.00.00 03-Jan-21:  Start Time 
 SVCS.                 DD, MWD:  Services 
 SVER.                    9.20:  Sperry Version 
 TDAT.m                 369.00:  Tot Depth Attmp 
 TDDF.                      No:  Trip for DD 
 TDLG.m                 369.00:  Tot Depth Loggd 
 TFF .                      No:  Trip for Fail 
 TQAA.f-kp               15.00:  Torque Abs Avg 
 TQAN.f-kp               12.00:  Torque Abs Min 
 TQAX.f-kp               16.00:  Torque Abs Max 
 TRRT.°/30m              -2.10:  Turn Rotating 
 MRT .                    HCIM:  Maximum Recorded Temperature 
 TTMX.degC               92.16:  Max Tool Temp 
 VS01.                90627822:  Virtual Str1 SN 
 VS02.                90550008:  Virtual Str2 SN 
 VS03.                90627816:  Virtual Str3 SN 
 VS04.                90633205:  Virtual Str4 SN 
 VS05.                13033835:  Virtual Str5 SN 
 VS06.                11125125:  Virtual Str6 SN 
 WBMN.klb                 8.00:  WOB Min 
 WITN.            Bruce Cheyne:  Customer Rep 
 WITN.           Faig Mammadov:  Customer Rep 2 
 WOBA.klb                 9.00:  WOB Avg 
 WOBX.klb                12.00:  WOB Max 
 YP  .lhf2               30.00:  Yield Point 
~Curve Information Block
#MNEM.UNIT                 API CODE     Curve Description
#---------               -----------    ---------------------------
 TIME.HHMMSS            00 000 000 000:  GT Time & Date
 GTET.sec               00 000 000 000:  GT Elapsed Test Time
 GTPQH.psia             00 000 000 000:  GT HR Quartz Pressure
 GTDEPTH.m              00 000 000 000:  GT Depth
 GTTVD.m                00 000 000 000:  GT True Vertical Depth
 GTTQ.degC              00 000 000 000:  GT Quartz Temperature
 GTTN.NONE              00 000 000 000:  GT Test Number
#Other Information
#
#WARRANTY: Halliburton will use its best efforts to furnish customers with 
#accurate information and interpretations that are part of, and incident to, the services 
#provided.  However, Halliburton cannot and does not warrant the accuracy 
#or correctness of such information and interpretations.  Under no circumstances should any 
#such information or interpretation be relied upon as the sole basis for any drilling, 
#completion, production, or financial decision or any procedure involving any risk to the 
#safety of any drilling venture, drilling rig or its crew or any other third party.  The 
#Customer has full responsibility for all drilling, completion and production operation.  
#Halliburton makes no representations or warranties, either expressed or 
#implied, including, but not limited to, the implied warranties of merchantability or fitness 
#for a particular purpose, with respect to the services rendered.  In no event will 
#Halliburton be liable for failure to obtain any particular results or for 
#any damages, including, but not limited to, indirect, special or consequential damages, 
#resulting from the use of any information or interpretation provided by Halliburton.
#
~A           TIME            GTET   GTPQH  GTDEPTH  GTTVD  GTTQ  GTTN 
   08:46:17.998.05-Jan-2021   0.00 7356.15 3625.51 3064.84 80.33 6.00
   08:46:18.198.05-Jan-2021   0.20 7356.15 3625.51 3064.84 80.33 6.00
   08:46:18.398.05-Jan-2021   0.40 7345.31 3625.51 3064.84 80.33 6.00
   08:46:18.598.05-Jan-2021   0.60 7344.29 3625.51 3064.84 80.33 6.00
   08:46:18.798.05-Jan-2021   0.80 7345.49 3625.51 3064.84 80.33 6.00
   08:46:18.998.05-Jan-2021   1.00 7345.98 3625.51 3064.84 80.33 6.00
   08:46:19.198.05-Jan-2021   1.20 7345.98 3625.51 3064.84 80.33 6.00
   08:46:19.398.05-Jan-2021   1.40 7346.53 3625.51 3064.84 80.33 6.00
   08:46:19.598.05-Jan-2021   1.60 7346.86 3625.51 3064.84 80.33 6.00
   08:46:19.798.05-Jan-2021   1.80 7348.23 3625.51 3064.84 80.33 6.00
   08:46:19.999.05-Jan-2021   2.00 7350.78 3625.51 3064.84 80.33 6.00
   08:46:20.199.05-Jan-2021   2.20 7347.45 3625.51 3064.84 80.33 6.00
   08:46:20.399.05-Jan-2021   2.40 7350.29 3625.51 3064.84 80.33 6.00
   08:46:20.599.05-Jan-2021   2.60 7347.01 3625.51 3064.84 80.32 6.00
   08:46:20.799.05-Jan-2021   2.80 7346.71 3625.51 3064.84 80.32 6.00
   08:46:20.999.05-Jan-2021   3.00 7349.18 3625.51 3064.84 80.32 6.00
   08:46:21.199.05-Jan-2021   3.20 7349.18 3625.51 3064.84 80.32 6.00
   08:46:21.399.05-Jan-2021   3.40 7347.59 3625.51 3064.84 80.32 6.00
   08:46:21.599.05-Jan-2021   3.60 7351.07 3625.51 3064.84 80.32 6.00
   08:46:21.799.05-Jan-2021   3.80 7348.94 3625.51 3064.84 80.32 6.00
   08:46:21.999.05-Jan-2021   4.00 7349.09 3625.51 3064.84 80.32 6.00
   08:46:22.199.05-Jan-2021   4.20 7349.09 3625.51 3064.84 80.32 6.00
   08:46:22.399.05-Jan-2021   4.40 7349.24 3625.51 3064.84 80.32 6.00
   08:46:22.599.05-Jan-2021   4.60 7359.21 3625.51 3064.84 80.32 6.00
   08:46:22.800.05-Jan-2021   4.80 7346.67 3625.51 3064.84 80.32 6.00
   08:46:23.000.05-Jan-2021   5.00 7351.46 3625.51 3064.84 80.32 6.00
   08:46:23.200.05-Jan-2021   5.20 7351.46 3625.51 3064.84 80.32 6.00
   08:46:23.400.05-Jan-2021   5.40 7350.82 3625.51 3064.84 80.32 6.00
   08:46:23.600.05-Jan-2021   5.60 7350.92 3625.51 3064.84 80.32 6.00
   08:46:23.800.05-Jan-2021   5.80 7350.95 3625.51 3064.84 80.32 6.00
   08:46:24.000.05-Jan-2021   6.00 7351.12 3625.51 3064.84 80.32 6.00
   08:46:24.200.05-Jan-2021   6.20 7351.12 3625.51 3064.84 80.32 6.00
   08:46:24.400.05-Jan-2021   6.40 7351.69 3625.51 3064.84 80.32 6.00
   08:46:24.600.05-Jan-2021   6.60 7352.30 3625.51 3064.84 80.32 6.00
   08:46:24.800.05-Jan-2021   6.80 7352.25 3625.51 3064.84 80.32 6.00
   08:46:25.000.05-Jan-2021   7.00 7352.56 3625.51 3064.84 80.32 6.00
   08:46:25.200.05-Jan-2021   7.20 7352.33 3625.51 3064.84 80.32 6.00
   08:46:25.401.05-Jan-2021   7.40 7361.08 3625.51 3064.84 80.32 6.00
   08:46:25.601.05-Jan-2021   7.60 7350.19 3625.51 3064.84 80.32 6.00
   08:46:25.801.05-Jan-2021   7.80 7352.92 3625.51 3064.84 80.32 6.00
   08:46:26.001.05-Jan-2021   8.00 7354.92 3625.51 3064.84 80.32 6.00
   08:46:26.201.05-Jan-2021   8.20 7354.92 3625.51 3064.84 80.32 6.00
   08:46:26.401.05-Jan-2021   8.40 7353.59 3625.51 3064.84 80.32 6.00
   08:46:26.601.05-Jan-2021   8.60 7354.41 3625.51 3064.84 80.32 6.00
   08:46:26.801.05-Jan-2021   8.80 7353.77 3625.51 3064.84 80.32 6.00
   08:46:27.001.05-Jan-2021   9.00 7353.30 3625.51 3064.84 80.32 6.00
   08:46:27.201.05-Jan-2021   9.20 7353.30 3625.51 3064.84 80.32 6.00
   08:46:27.401.05-Jan-2021   9.40 7353.73 3625.51 3064.84 80.32 6.00
   08:46:27.601.05-Jan-2021   9.60 7354.20 3625.51 3064.84 80.32 6.00
   08:46:27.801.05-Jan-2021   9.80 7355.43 3625.51 3064.84 80.32 6.00
   08:46:28.001.05-Jan-2021  10.00 7358.88 3625.51 3064.84 80.32 6.00
   08:46:28.202.05-Jan-2021  10.20 7358.88 3625.51 3064.84 80.32 6.00
   08:46:28.402.05-Jan-2021  10.40 7358.47 3625.51 3064.84 80.31 6.00
   08:46:28.602.05-Jan-2021  10.60 7355.51 3625.51 3064.84 80.31 6.00
   08:46:28.802.05-Jan-2021  10.80 7369.48 3625.51 3064.84 80.31 6.00
   08:46:29.002.05-Jan-2021  11.00 7348.98 3625.51 3064.84 80.31 6.00
   08:46:29.202.05-Jan-2021  11.20 7357.94 3625.51 3064.84 80.31 6.00
   08:46:29.402.05-Jan-2021  11.40 7356.41 3625.51 3064.84 80.31 6.00
   08:46:29.602.05-Jan-2021  11.60 7358.94 3625.51 3064.84 80.31 6.00
   08:46:29.802.05-Jan-2021  11.80 7361.89 3625.51 3064.84 80.31 6.00
   08:46:30.002.05-Jan-2021  12.00 7357.47 3625.51 3064.84 80.31 6.00
   08:46:30.202.05-Jan-2021  12.20 7357.47 3625.51 3064.84 80.31 6.00
   08:46:30.402.05-Jan-2021  12.40 7358.28 3625.51 3064.84 80.31 6.00
   08:46:30.602.05-Jan-2021  12.60 7364.25 3625.51 3064.84 80.31 6.00
   08:46:30.803.05-Jan-2021  12.80 7360.13 3625.51 3064.84 80.31 6.00
   08:46:31.003.05-Jan-2021  13.00 7362.61 3625.51 3064.84 80.31 6.00
   08:46:31.203.05-Jan-2021  13.20 7362.61 3625.51 3064.84 80.31 6.00
   08:46:31.403.05-Jan-2021  13.40 7360.51 3625.51 3064.84 80.31 6.00
   08:46:31.603.05-Jan-2021  13.61 7364.48 3625.51 3064.84 80.31 6.00
   08:46:31.803.05-Jan-2021  13.81 7361.68 3625.51 3064.84 80.31 6.00
   08:46:32.003.05-Jan-2021  14.01 7361.68 3625.51 3064.84 80.31 6.00
   08:46:32.203.05-Jan-2021  14.21 7361.68 3625.51 3064.84 80.31 6.00
   08:46:32.403.05-Jan-2021  14.41 7358.61 3625.51 3064.84 80.31 6.00
   08:46:32.603.05-Jan-2021  14.61 7362.82 3625.51 3064.84 80.31 6.00
   08:46:32.803.05-Jan-2021  14.81 7361.91 3625.51 3064.84 80.31 6.00
   08:46:33.003.05-Jan-2021  15.01 7362.98 3625.51 3064.84 80.31 6.00
   08:46:33.203.05-Jan-2021  15.21 7362.25 3625.51 3064.84 80.31 6.00
   08:46:33.403.05-Jan-2021  15.41 7362.01 3625.51 3064.84 80.31 6.00
   08:46:33.604.05-Jan-2021  15.61 7362.73 3625.51 3064.84 80.31 6.00
   08:46:33.804.05-Jan-2021  15.81 7362.95 3625.51 3064.84 80.31 6.00
   08:46:34.004.05-Jan-2021  16.01 7362.86 3625.51 3064.84 80.31 6.00
   08:46:34.204.05-Jan-2021  16.21 7362.86 3625.51 3064.84 80.31 6.00
   08:46:34.404.05-Jan-2021  16.41 7362.95 3625.51 3064.84 80.31 6.00
   08:46:34.604.05-Jan-2021  16.61 7362.85 3625.51 3064.84 80.31 6.00
   08:46:34.804.05-Jan-2021  16.81 7362.89 3625.51 3064.84 80.31 6.00
   08:46:35.004.05-Jan-2021  17.01 7376.70 3625.51 3064.84 80.31 6.00
   08:46:35.204.05-Jan-2021  17.21 7376.70 3625.51 3064.84 80.31 6.00
   08:46:35.404.05-Jan-2021  17.41 7363.76 3625.51 3064.84 80.31 6.00
   08:46:35.604.05-Jan-2021  17.61 7362.13 3625.51 3064.84 80.31 6.00
   08:46:35.804.05-Jan-2021  17.81 7363.46 3625.51 3064.84 80.31 6.00
   08:46:36.004.05-Jan-2021  18.01 7363.11 3625.51 3064.84 80.31 6.00
   08:46:36.205.05-Jan-2021  18.21 7363.11 3625.51 3064.84 80.31 6.00
   08:46:36.405.05-Jan-2021  18.41 7362.83 3625.51 3064.84 80.30 6.00
   08:46:36.605.05-Jan-2021  18.61 7363.33 3625.51 3064.84 80.30 6.00
   08:46:36.805.05-Jan-2021  18.81 7362.75 3625.51 3064.84 80.30 6.00
   08:46:37.005.05-Jan-2021  19.01 7363.25 3625.51 3064.84 80.30 6.00
   08:46:37.205.05-Jan-2021  19.21 7363.32 3625.51 3064.84 80.30 6.00
   08:46:37.405.05-Jan-2021  19.41 7363.66 3625.51 3064.84 80.30 6.00
   08:46:37.605.05-Jan-2021  19.61 7365.03 3625.51 3064.84 80.30 6.00
   08:46:37.805.05-Jan-2021  19.81 7368.18 3625.51 3064.84 80.30 6.00
   08:46:38.005.05-Jan-2021  20.01 7363.80 3625.51 3064.84 80.30 6.00
   08:46:38.205.05-Jan-2021  20.21 7363.80 3625.51 3064.84 80.30 6.00
   08:46:38.405.05-Jan-2021  20.41 7362.81 3625.51 3064.84 80.30 6.00
   08:46:38.605.05-Jan-2021  20.61 7363.55 3625.51 3064.84 80.30 6.00
   08:46:38.805.05-Jan-2021  20.81 7367.15 3625.51 3064.84 80.30 6.00
   08:46:39.006.05-Jan-2021  21.01 7364.07 3625.51 3064.84 80.30 6.00
   08:46:39.206.05-Jan-2021  21.21 7364.07 3625.51 3064.84 80.30 6.00
   08:46:39.406.05-Jan-2021  21.41 7375.48 3625.51 3064.84 80.30 6.00
   08:46:39.606.05-Jan-2021  21.61 7360.31 3625.51 3064.84 80.30 6.00
   08:46:39.806.05-Jan-2021  21.81 7365.27 3625.51 3064.84 80.30 6.00
   08:46:40.006.05-Jan-2021  22.01 7365.18 3625.51 3064.84 80.30 6.00
   08:46:40.206.05-Jan-2021  22.21 7365.18 3625.51 3064.84 80.30 6.00
   08:46:40.406.05-Jan-2021  22.41 7365.51 3625.51 3064.84 80.30 6.00
   08:46:40.606.05-Jan-2021  22.61 7368.34 3625.51 3064.84 80.30 6.00
   08:46:40.806.05-Jan-2021  22.81 7365.99 3625.51 3064.84 80.30 6.00
