~Version Information
 VERS.                  2.0:   CWLS log ASCII Standard -VERSION 2.0
 WRAP.                   NO:   One line per depth step
~Well Information Block
#MNEM.UNIT     VALUE/NAME     DESCRIPTION
#---------     -----------    ---------------------------
 STRT.S             13:40:14 05-Jan-21: START TIME 13:40:14 05-Jan-21
 STOP.S             13:48:27 05-Jan-21: STOP TIME  13:48:27 05-Jan-21
 STEP.S                   0.00: STEP TIME
 NULL.                 -999.25: NULL VALUE
 DFWT.                        :  DIST FWL TEXT
 DFST.                        :  DIST FSL TEXT
 DMF .             Drill Floor:  DRILL MEAS FROM
 STIM.      06.00.00 31-Dec-20:  START TIME
 DATE.      05.58.24 07-Jan-21:  END TIME
 SPUD.               24-Dec-20:  SPUD DATE
 NREF.                    Grid:  NORTH REFERENCE
 HPTY.       Minimum Curvature:  HOLE POS TYPE
 DMOD.             Drill Model:  DRILL MOD DESC
 SVYD.                  Survey:  SURVEY DESC
 ILTD.               Lithology:  INTERP LTH DESC
 FTOP.          Formation Tops:  FORM TOPS DESC
 SON .        AZ-XX-0906699554:  JOB NUMBER
 WELL.                    B09z:  WELL NAME
 PDAT.          Mean Sea Level:  PERMANENT DATUM
 FLD .                     ACG:  FIELD NAME
 CTRY.              Azerbaijan:  COUNTRY NAME
 COMP.     BP Exploration (Caspian Sea) Ltd.:  COMPANY
 UWI .                     N/A:  UNIQUE WELL IDENTIFIER
 API .                     N/A:  API NUMBER
 WTYP.                Deviated:  WELL TYPE
 MDS .        Operator Entered:  MAG DATA SOURCE
 BASE.              Azerbaijan:  LOGGING EQUIPMENT BASE LOCATION
 REGN.                   EESSA:  REGION
 PROV.                    Baku:  PROVINCE
 STAT.                    Baku:  STATE NAME
 SRVC.          Turan Drilling:  CONTRACTOR
 MWDS.                    Baku:  MWD SHOP
 JOBN.        AZ-XX-0906699554:  JOB TICKET NUMB
 RIG .           Central Azeri:  RIG NAME
 DOE .                     N/A:  DOE NUMBER
 DCON.         Sperry Drilling:  DIRECTNL CONTR
 UNIT.                     N/A:  LOGGING EQUIPMENT ID
 CNTY.                        :  COUNTY
 LOC .                        :  LOCATION
 LMF .             Drill Floor:  LOG MEASURED FROM
 TVDS.m                  43.29:  TVDSS CORRECTN
 LATI.deg                40.03:  LATITUDE
 LONG.deg                51.35:  LONGITUDE
 WHNS.m                  -2.76:  WELL HEAD N/S
 WHEW.m                  -7.70:  WELL HEAD E/W
 UTMX.m              530128.28:  UTM X
 UTMY.m             4433192.49:  UTM Y
 DFWL.m                   0.00:  DISTANCE FWL
 DFSL.m                   0.00:  DISTANCE FSL
 SDEP.m                3435.01:  START DEPTH
 TDD .m                3814.01:  TOTAL DEPTH (DRILLER)
 VSDR.deg               352.80:  VERT SEC DIRECT
 GVFD.g                   1.00:  GRAVITY FIELD
 MFLD.nT              50303.00:  MAGNETIC FIELD
 MDIP.deg                59.52:  MAGNETIC DIP
 MDEC.deg                 6.47:  MAGNETIC DECL
 GRDC.deg                 0.23:  GRID CORRECTION
 AZTC.deg                 6.24:  AZM TOTAL CORR
 EPD .m                   0.00:  ELEVATION
 EGL .m                   0.00:  GROUND ELEVATION
 WDMS.m                 128.20:  WD ELEV
 APD .m                  43.29:  DEPTH ABOVE PD
 DEP .m                3421.30:  DEPTH
 AGAP.m                  43.60:  AIR GAP
 VSEW.m                  -7.70:  VERT SEC E/W
 VSNS.m                  -2.76:  VERT SEC N/S
 EKB .m                   0.00:  KB ELEVATION
 EDF .m                  43.29:  DF ELEVATION
 TDL .m                 369.00:  TOTAL DEPTH (LOGGER)
 VSC .                       0:  VS TO CLOSURE
 MAGU.                 1850390:  MAGUTM CHECKSUM
~Parameter Information Block
#MNEM.UNIT       Value        Description
#---------     -----------    ---------------------------
 AV  .mps                 2.80:  Ann Velocity 
 AVMX.mps                 4.67:  Max Ann Veloc 
 AZIF.deg               303.89:  Azm, Final 
 BHAT.        Rotary Steerable:  BHA Type 
 BREV.rev            128542.00:  Rev Bit Total 
 BROT.°/30m               1.50:  Build Rotating 
 BS  .in                  8.50:  Bit Size 
 BSZ .in                  8.50:  Bit Size 
 BTPL.psig              715.00:  Bit Press Loss 
 CABU.                      No:  Customer Abuse 
 COMM.                     t6w:  Run Comments 1 
 TCS .hr                 53.00:  Time Ciculation Ended 
 CV  .mps                 3.85:  Crit Velocity 
 CVMX.mps                 4.75:  Max Crit Veloc 
 DD1 .         Intigam Rahimov:  Direct Drillr 1 
 DDSV.                 iCruise:  DD Service 
 DEFF.%                  98.60:  % Det Eff 
 DLRX.°/30m               2.34:  Dogleg Rot Max 
 DLSO.°/30m               0.00:  Dogleg Oriented 
 DLSX.°/30m               0.00:  Dogleg Str Max 
 DRET.      00.15.00 05-Jan-21:  Drill End Time 
 DRST.      22.00.00 03-Jan-21:  Drill Start Tim 
 DTIM.hr                 17.72:  Time Drilling 
 EDEP.m                3814.01:  End Depth 
 ENG1.         Yevgeniy Ulikov:  Engineer 1 
 ENG2.        Farkhad Khalidov:  Engineer 2 
 ENG3.           Samir Gafarov:  Engineer 3 
 ETIM.      21.00.00 07-Jan-21:  End Time 
 FLOI.gpm               590.00:  Flow In 
 FLON.gpm               580.00:  Flow In Min 
 FLOS.cptm                1.00:  Fluid Loss 
 FLOX.gpm               595.00:  Flow In Max 
 FTRO.     Connectivity, Formation Presure:  FTWD Run Obj 
 HFLO.                      No:  High Flow 
 HPRE.                     Yes:  High Pressure 
 HTEM.                      No:  High Temp 
 HYDO.m                   1.80:  Hydro Offset 
 IFIN.deg                63.76:  Inc, Final 
 IMAX.deg                64.09:  Inc Max 
 IMIN.deg                55.81:  Inc Min 
 IMND.m                3455.62:  Inc Min Depth 
 IMXD.m                3796.03:  Inc Max Depth 
 JARR.                      No:  Jarring 
 LETM.      00.15.00 05-Jan-21:  Log End Time 
 LOST.hr                     0:  Lost Rig Time 
 LSTM.      22.00.00 03-Jan-21:  Log Start Time 
 MDCL.ppm             36000.00:  Mud Chlorides 
 MDES.     Inversion Oil/Synthetic:  Mud Desc 
 DFD .sg                  1.51:  Mud Density 
 MDMN.sg                  1.51:  Dens Mud Min 
 MDMX.sg                  1.51:  Dens Mud Max 
 MOIL.                    55.5:  Run Mud Oil % 
 MOWR.                   70:30:  Run Mud OWR 
 MSND.                     0.1:  Run Mud Sand % 
 MSOL.                   20.77:  Run Mud Solids% 
 DFV .spqt               67.00:  Mud Viscosity 
 MWOD.in                  6.75:  MWD Tool OD 
 MWSI.                      No:  Serv Intrp, MWD 
 OTIM.hr                113.53:  Time Operating 
 PCON.           Look Like New:  Pad Condition 
 PMAX.psia             4830.00:  Press Op, Max 
 PV  .cP                 29.00:  Mud PV 
 RUN .                     300:  Run Number 
 ROPA.m/hr               22.00:  ROP Avg 
 ROPN.m/hr               18.00:  ROP Min 
 ROPX.m/hr               25.00:  ROP Max 
 RPMA.rpm               130.00:  RPM Surface Avg 
 RPMN.rpm                80.00:  RPM Surface Min 
 RPMX.rpm               140.00:  RPM Surface Max 
 RRUN.                    L101:  Rig Run Number 
 RTIM.hr                  9.28:  Time Reaming 
 SAZI.deg               316.55:  Azm, Start 
 SDEP.m                3445.01:  Start Depth 
 SIDD.                      No:  Serv Intrp, DD 
 SINC.deg                55.81:  Inc, Start 
 SPPA.psig             4500.00:  SPP Avg 
 SPPN.psig             4350.00:  SPP Min 
 SPPX.psig             4830.00:  SPP Max 
 STIM.      00.00.00 03-Jan-21:  Start Time 
 SVCS.                 DD, MWD:  Services 
 SVER.                    9.20:  Sperry Version 
 TDAT.m                 369.00:  Tot Depth Attmp 
 TDDF.                      No:  Trip for DD 
 TDLG.m                 369.00:  Tot Depth Loggd 
 TFF .                      No:  Trip for Fail 
 TQAA.f-kp               15.00:  Torque Abs Avg 
 TQAN.f-kp               12.00:  Torque Abs Min 
 TQAX.f-kp               16.00:  Torque Abs Max 
 TRRT.°/30m              -2.10:  Turn Rotating 
 MRT .                    HCIM:  Maximum Recorded Temperature 
 TTMX.degC               92.16:  Max Tool Temp 
 VS01.                90627822:  Virtual Str1 SN 
 VS02.                90550008:  Virtual Str2 SN 
 VS03.                90627816:  Virtual Str3 SN 
 VS04.                90633205:  Virtual Str4 SN 
 VS05.                13033835:  Virtual Str5 SN 
 VS06.                11125125:  Virtual Str6 SN 
 WBMN.klb                 8.00:  WOB Min 
 WITN.            Bruce Cheyne:  Customer Rep 
 WITN.           Faig Mammadov:  Customer Rep 2 
 WOBA.klb                 9.00:  WOB Avg 
 WOBX.klb                12.00:  WOB Max 
 YP  .lhf2               30.00:  Yield Point 
~Curve Information Block
#MNEM.UNIT                 API CODE     Curve Description
#---------               -----------    ---------------------------
 TIME.HHMMSS            00 000 000 000:  GT Time & Date
 GTET.sec               00 000 000 000:  GT Elapsed Test Time
 GTPQH.psia             00 000 000 000:  GT HR Quartz Pressure
 GTDEPTH.m              00 000 000 000:  GT Depth
 GTTVD.m                00 000 000 000:  GT True Vertical Depth
 GTTQ.degC              00 000 000 000:  GT Quartz Temperature
 GTTN.NONE              00 000 000 000:  GT Test Number
#Other Information
#
#WARRANTY: Halliburton will use its best efforts to furnish customers with 
#accurate information and interpretations that are part of, and incident to, the services 
#provided.  However, Halliburton cannot and does not warrant the accuracy 
#or correctness of such information and interpretations.  Under no circumstances should any 
#such information or interpretation be relied upon as the sole basis for any drilling, 
#completion, production, or financial decision or any procedure involving any risk to the 
#safety of any drilling venture, drilling rig or its crew or any other third party.  The 
#Customer has full responsibility for all drilling, completion and production operation.  
#Halliburton makes no representations or warranties, either expressed or 
#implied, including, but not limited to, the implied warranties of merchantability or fitness 
#for a particular purpose, with respect to the services rendered.  In no event will 
#Halliburton be liable for failure to obtain any particular results or for 
#any damages, including, but not limited to, indirect, special or consequential damages, 
#resulting from the use of any information or interpretation provided by Halliburton.
#
~A           TIME            GTET   GTPQH  GTDEPTH  GTTVD  GTTQ  GTTN 
# ...
   13:47:55.186.05-Jan-2021 460.26 7282.63 3494.01 2996.09 78.23 7.00
   13:47:55.387.05-Jan-2021 460.46 7282.63 3494.01 2996.09 78.23 7.00
   13:47:55.587.05-Jan-2021 460.66 7281.64 3494.01 2996.09 78.23 7.00
   13:47:55.787.05-Jan-2021 460.86 7281.82 3494.01 2996.09 78.23 7.00
   13:47:55.987.05-Jan-2021 461.06 7280.52 3494.01 2996.09 78.23 7.00
   13:47:56.187.05-Jan-2021 461.26 7279.30 3494.01 2996.09 78.23 7.00
   13:47:56.387.05-Jan-2021 461.46 7279.30 3494.01 2996.09 78.23 7.00
   13:47:56.587.05-Jan-2021 461.66 7279.41 3494.01 2996.09 78.23 7.00
   13:47:56.787.05-Jan-2021 461.86 7278.31 3494.01 2996.09 78.23 7.00
   13:47:56.987.05-Jan-2021 462.06 7284.65 3494.01 2996.09 78.23 7.00
   13:47:57.188.05-Jan-2021 462.26 7284.15 3494.01 2996.09 78.23 7.00
   13:47:57.388.05-Jan-2021 462.46 7284.15 3494.01 2996.09 78.23 7.00
   13:47:57.588.05-Jan-2021 462.66 7290.07 3494.01 2996.09 78.23 7.00
   13:47:57.788.05-Jan-2021 462.86 7281.17 3494.01 2996.09 78.23 7.00
   13:47:57.988.05-Jan-2021 463.06 7279.36 3494.01 2996.09 78.23 7.00
   13:47:58.188.05-Jan-2021 463.26 7278.94 3494.01 2996.09 78.23 7.00
   13:47:58.388.05-Jan-2021 463.46 7290.05 3494.01 2996.09 78.23 7.00
   13:47:58.588.05-Jan-2021 463.66 7280.17 3494.01 2996.09 78.23 7.00
   13:47:58.788.05-Jan-2021 463.86 7279.07 3494.01 2996.09 78.23 7.00
   13:47:58.989.05-Jan-2021 464.06 7282.24 3494.01 2996.09 78.23 7.00
   13:47:59.189.05-Jan-2021 464.26 7282.97 3494.01 2996.09 78.23 7.00
   13:47:59.389.05-Jan-2021 464.46 7282.97 3494.01 2996.09 78.23 7.00
   13:47:59.589.05-Jan-2021 464.66 7283.17 3494.01 2996.09 78.23 7.00
   13:47:59.789.05-Jan-2021 464.86 7292.99 3494.01 2996.09 78.23 7.00
   13:47:59.989.05-Jan-2021 465.06 7282.50 3494.01 2996.09 78.23 7.00
   13:48:00.189.05-Jan-2021 465.26 7282.91 3494.01 2996.09 78.23 7.00
   13:48:00.389.05-Jan-2021 465.46 7282.85 3494.01 2996.09 78.23 7.00
   13:48:00.589.05-Jan-2021 465.66 7283.67 3494.01 2996.09 78.23 7.00
   13:48:00.790.05-Jan-2021 465.86 7282.27 3494.01 2996.09 78.23 7.00
   13:48:00.990.05-Jan-2021 466.06 7281.75 3494.01 2996.09 78.23 7.00
   13:48:01.190.05-Jan-2021 466.26 7282.81 3494.01 2996.09 78.23 7.00
   13:48:01.390.05-Jan-2021 466.46 7282.19 3494.01 2996.09 78.23 7.00
   13:48:01.590.05-Jan-2021 466.66 7281.29 3494.01 2996.09 78.23 7.00
   13:48:01.790.05-Jan-2021 466.86 7281.50 3494.01 2996.09 78.23 7.00
   13:48:01.990.05-Jan-2021 467.06 7281.25 3494.01 2996.09 78.23 7.00
   13:48:02.190.05-Jan-2021 467.26 7281.11 3494.01 2996.09 78.23 7.00
   13:48:02.390.05-Jan-2021 467.46 7281.02 3494.01 2996.09 78.23 7.00
   13:48:02.591.05-Jan-2021 467.66 7286.63 3494.01 2996.09 78.23 7.00
   13:48:02.791.05-Jan-2021 467.86 7285.37 3494.01 2996.09 78.23 7.00
   13:48:02.991.05-Jan-2021 468.06 7280.82 3494.01 2996.09 78.23 7.00
   13:48:03.191.05-Jan-2021 468.26 7280.78 3494.01 2996.09 78.23 7.00
   13:48:03.391.05-Jan-2021 468.46 7281.28 3494.01 2996.09 78.23 7.00
   13:48:03.591.05-Jan-2021 468.66 7279.89 3494.01 2996.09 78.23 7.00
   13:48:03.791.05-Jan-2021 468.86 7280.21 3494.01 2996.09 78.23 7.00
   13:48:03.991.05-Jan-2021 469.06 7280.46 3494.01 2996.09 78.23 7.00
   13:48:04.191.05-Jan-2021 469.26 7279.34 3494.01 2996.09 78.23 7.00
   13:48:04.392.05-Jan-2021 469.46 7279.34 3494.01 2996.09 78.23 7.00
   13:48:04.592.05-Jan-2021 469.66 7279.77 3494.01 2996.09 78.23 7.00
   13:48:04.792.05-Jan-2021 469.86 7278.29 3494.01 2996.09 78.23 7.00
   13:48:04.992.05-Jan-2021 470.06 7278.87 3494.01 2996.09 78.23 7.00
   13:48:05.192.05-Jan-2021 470.26 7279.74 3494.01 2996.09 78.23 7.00
   13:48:05.392.05-Jan-2021 470.46 7288.89 3494.01 2996.09 78.23 7.00
   13:48:05.592.05-Jan-2021 470.66 7280.65 3494.01 2996.09 78.22 7.00
   13:48:05.792.05-Jan-2021 470.86 7278.86 3494.01 2996.09 78.23 7.00
   13:48:05.992.05-Jan-2021 471.06 7288.75 3494.01 2996.09 78.22 7.00
   13:48:06.193.05-Jan-2021 471.26 7279.63 3494.01 2996.09 78.22 7.00
   13:48:06.393.05-Jan-2021 471.46 7276.99 3494.01 2996.09 78.22 7.00
   13:48:06.593.05-Jan-2021 471.66 7287.53 3494.01 2996.09 78.22 7.00
   13:48:06.793.05-Jan-2021 471.86 7278.68 3494.01 2996.09 78.22 7.00
   13:48:06.993.05-Jan-2021 472.06 7276.56 3494.01 2996.09 78.22 7.00
   13:48:07.193.05-Jan-2021 472.26 7277.04 3494.01 2996.09 78.22 7.00
   13:48:07.393.05-Jan-2021 472.46 7278.46 3494.01 2996.09 78.22 7.00
   13:48:07.593.05-Jan-2021 472.66 7283.21 3494.01 2996.09 78.22 7.00
   13:48:07.793.05-Jan-2021 472.86 7282.46 3494.01 2996.09 78.22 7.00
   13:48:07.994.05-Jan-2021 473.06 7278.55 3494.01 2996.09 78.22 7.00
   13:48:08.194.05-Jan-2021 473.26 7277.88 3494.01 2996.09 78.22 7.00
   13:48:08.394.05-Jan-2021 473.46 7287.55 3494.01 2996.09 78.22 7.00
   13:48:08.594.05-Jan-2021 473.66 7279.25 3494.01 2996.09 78.22 7.00
   13:48:08.794.05-Jan-2021 473.86 7277.92 3494.01 2996.09 78.22 7.00
   13:48:08.994.05-Jan-2021 474.06 7278.25 3494.01 2996.09 78.22 7.00
   13:48:09.194.05-Jan-2021 474.26 7278.18 3494.01 2996.09 78.22 7.00
   13:48:09.394.05-Jan-2021 474.46 7278.18 3494.01 2996.09 78.22 7.00
   13:48:09.594.05-Jan-2021 474.66 7276.83 3494.01 2996.09 78.22 7.00
   13:48:09.795.05-Jan-2021 474.86 7276.57 3494.01 2996.09 78.22 7.00
   13:48:09.995.05-Jan-2021 475.06 7276.59 3494.01 2996.09 78.22 7.00
   13:48:10.195.05-Jan-2021 475.26 7277.23 3494.01 2996.09 78.22 7.00
   13:48:10.395.05-Jan-2021 475.46 7277.23 3494.01 2996.09 78.22 7.00
   13:48:10.595.05-Jan-2021 475.66 7277.59 3494.01 2996.09 78.22 7.00
   13:48:10.795.05-Jan-2021 475.86 7277.71 3494.01 2996.09 78.22 7.00
   13:48:10.995.05-Jan-2021 476.06 7277.80 3494.01 2996.09 78.22 7.00
   13:48:11.195.05-Jan-2021 476.26 7286.72 3494.01 2996.09 78.22 7.00
   13:48:11.395.05-Jan-2021 476.46 7277.94 3494.01 2996.09 78.22 7.00
   13:48:11.596.05-Jan-2021 476.66 7276.61 3494.01 2996.09 78.22 7.00
   13:48:11.796.05-Jan-2021 476.86 7286.28 3494.01 2996.09 78.22 7.00
   13:48:11.996.05-Jan-2021 477.06 7290.96 3494.01 2996.09 78.22 7.00
   13:48:12.196.05-Jan-2021 477.26 7289.33 3494.01 2996.09 78.22 7.00
   13:48:12.396.05-Jan-2021 477.47 7284.87 3494.01 2996.09 78.22 7.00
   13:48:12.596.05-Jan-2021 477.67 7283.61 3494.01 2996.09 78.22 7.00
   13:48:12.796.05-Jan-2021 477.87 7282.72 3494.01 2996.09 78.22 7.00
   13:48:12.996.05-Jan-2021 478.07 7281.30 3494.01 2996.09 78.22 7.00
   13:48:13.196.05-Jan-2021 478.27 7280.68 3494.01 2996.09 78.22 7.00
   13:48:13.397.05-Jan-2021 478.47 7280.68 3494.01 2996.09 78.22 7.00
   13:48:13.597.05-Jan-2021 478.67 7280.24 3494.01 2996.09 78.22 7.00
   13:48:13.797.05-Jan-2021 478.87 7285.70 3494.01 2996.09 78.22 7.00
   13:48:13.997.05-Jan-2021 479.07 7283.63 3494.01 2996.09 78.22 7.00
   13:48:14.197.05-Jan-2021 479.27 7278.84 3494.01 2996.09 78.22 7.00
   13:48:14.397.05-Jan-2021 479.47 7278.84 3494.01 2996.09 78.22 7.00
   13:48:14.597.05-Jan-2021 479.67 7279.47 3494.01 2996.09 78.22 7.00
   13:48:14.797.05-Jan-2021 479.87 7278.63 3494.01 2996.09 78.22 7.00
   13:48:14.997.05-Jan-2021 480.07 7278.37 3494.01 2996.09 78.22 7.00
   13:48:15.198.05-Jan-2021 480.27 7291.18 3494.01 2996.09 78.22 7.00
   13:48:15.398.05-Jan-2021 480.47 7277.54 3494.01 2996.09 78.22 7.00
   13:48:15.598.05-Jan-2021 480.67 7278.06 3494.01 2996.09 78.22 7.00
   13:48:15.798.05-Jan-2021 480.87 7278.67 3494.01 2996.09 78.22 7.00
   13:48:15.998.05-Jan-2021 481.07 7279.87 3494.01 2996.09 78.22 7.00
   13:48:16.198.05-Jan-2021 481.27 7288.66 3494.01 2996.09 78.22 7.00
   13:48:16.398.05-Jan-2021 481.47 7279.69 3494.01 2996.09 78.22 7.00
   13:48:16.598.05-Jan-2021 481.67 7280.45 3494.01 2996.09 78.22 7.00
   13:48:16.798.05-Jan-2021 481.87 7290.02 3494.01 2996.09 78.22 7.00
   13:48:16.999.05-Jan-2021 482.07 7282.02 3494.01 2996.09 78.22 7.00
   13:48:17.199.05-Jan-2021 482.27 7280.98 3494.01 2996.09 78.22 7.00
   13:48:17.399.05-Jan-2021 482.47 7280.98 3494.01 2996.09 78.22 7.00
   13:48:17.599.05-Jan-2021 482.67 7288.09 3494.01 2996.09 78.22 7.00
   13:48:17.799.05-Jan-2021 482.87 7292.30 3494.01 2996.09 78.22 7.00
   13:48:17.999.05-Jan-2021 483.07 7291.57 3494.01 2996.09 78.22 7.00
