~Version Information
 VERS.                  2.0:   CWLS log ASCII Standard -VERSION 2.0
 WRAP.                   NO:   One line per depth step
~Well Information Block
#MNEM.UNIT     VALUE/NAME     DESCRIPTION
#---------     -----------    ---------------------------
 STRT.S             08:18:37 05-Jan-21: START TIME 08:18:37 05-Jan-21
 STOP.S             08:26:49 05-Jan-21: STOP TIME  08:26:49 05-Jan-21
 STEP.S                   0.00: STEP TIME
 NULL.                 -999.25: NULL VALUE
 DFWT.                        :  DIST FWL TEXT
 DFST.                        :  DIST FSL TEXT
 DMF .             Drill Floor:  DRILL MEAS FROM
 STIM.      06.00.00 31-Dec-20:  START TIME
 DATE.      05.58.24 07-Jan-21:  END TIME
 SPUD.               24-Dec-20:  SPUD DATE
 NREF.                    Grid:  NORTH REFERENCE
 HPTY.       Minimum Curvature:  HOLE POS TYPE
 DMOD.             Drill Model:  DRILL MOD DESC
 SVYD.                  Survey:  SURVEY DESC
 ILTD.               Lithology:  INTERP LTH DESC
 FTOP.          Formation Tops:  FORM TOPS DESC
 SON .        AZ-XX-0906699554:  JOB NUMBER
 WELL.                    B09z:  WELL NAME
 PDAT.          Mean Sea Level:  PERMANENT DATUM
 FLD .                     ACG:  FIELD NAME
 CTRY.              Azerbaijan:  COUNTRY NAME
 COMP.     BP Exploration (Caspian Sea) Ltd.:  COMPANY
 UWI .                     N/A:  UNIQUE WELL IDENTIFIER
 API .                     N/A:  API NUMBER
 WTYP.                Deviated:  WELL TYPE
 MDS .        Operator Entered:  MAG DATA SOURCE
 BASE.              Azerbaijan:  LOGGING EQUIPMENT BASE LOCATION
 REGN.                   EESSA:  REGION
 PROV.                    Baku:  PROVINCE
 STAT.                    Baku:  STATE NAME
 SRVC.          Turan Drilling:  CONTRACTOR
 MWDS.                    Baku:  MWD SHOP
 JOBN.        AZ-XX-0906699554:  JOB TICKET NUMB
 RIG .           Central Azeri:  RIG NAME
 DOE .                     N/A:  DOE NUMBER
 DCON.         Sperry Drilling:  DIRECTNL CONTR
 UNIT.                     N/A:  LOGGING EQUIPMENT ID
 CNTY.                        :  COUNTY
 LOC .                        :  LOCATION
 LMF .             Drill Floor:  LOG MEASURED FROM
 TVDS.m                  43.29:  TVDSS CORRECTN
 LATI.deg                40.03:  LATITUDE
 LONG.deg                51.35:  LONGITUDE
 WHNS.m                  -2.76:  WELL HEAD N/S
 WHEW.m                  -7.70:  WELL HEAD E/W
 UTMX.m              530128.28:  UTM X
 UTMY.m             4433192.49:  UTM Y
 DFWL.m                   0.00:  DISTANCE FWL
 DFSL.m                   0.00:  DISTANCE FSL
 SDEP.m                3435.01:  START DEPTH
 TDD .m                3814.01:  TOTAL DEPTH (DRILLER)
 VSDR.deg               352.80:  VERT SEC DIRECT
 GVFD.g                   1.00:  GRAVITY FIELD
 MFLD.nT              50303.00:  MAGNETIC FIELD
 MDIP.deg                59.52:  MAGNETIC DIP
 MDEC.deg                 6.47:  MAGNETIC DECL
 GRDC.deg                 0.23:  GRID CORRECTION
 AZTC.deg                 6.24:  AZM TOTAL CORR
 EPD .m                   0.00:  ELEVATION
 EGL .m                   0.00:  GROUND ELEVATION
 WDMS.m                 128.20:  WD ELEV
 APD .m                  43.29:  DEPTH ABOVE PD
 DEP .m                3421.30:  DEPTH
 AGAP.m                  43.60:  AIR GAP
 VSEW.m                  -7.70:  VERT SEC E/W
 VSNS.m                  -2.76:  VERT SEC N/S
 EKB .m                   0.00:  KB ELEVATION
 EDF .m                  43.29:  DF ELEVATION
 TDL .m                 369.00:  TOTAL DEPTH (LOGGER)
 VSC .                       0:  VS TO CLOSURE
 MAGU.                 1850390:  MAGUTM CHECKSUM
~Parameter Information Block
#MNEM.UNIT       Value        Description
#---------     -----------    ---------------------------
 AV  .mps                 2.80:  Ann Velocity 
 AVMX.mps                 4.67:  Max Ann Veloc 
 AZIF.deg               303.89:  Azm, Final 
 BHAT.        Rotary Steerable:  BHA Type 
 BREV.rev            128542.00:  Rev Bit Total 
 BROT.°/30m               1.50:  Build Rotating 
 BS  .in                  8.50:  Bit Size 
 BSZ .in                  8.50:  Bit Size 
 BTPL.psig              715.00:  Bit Press Loss 
 CABU.                      No:  Customer Abuse 
 COMM.                     ¤’i:  Run Comments 1 
 TCS .hr                 53.00:  Time Ciculation Ended 
 CV  .mps                 3.85:  Crit Velocity 
 CVMX.mps                 4.75:  Max Crit Veloc 
 DD1 .         Intigam Rahimov:  Direct Drillr 1 
 DDSV.                 iCruise:  DD Service 
 DEFF.%                  98.60:  % Det Eff 
 DLRX.°/30m               2.34:  Dogleg Rot Max 
 DLSO.°/30m               0.00:  Dogleg Oriented 
 DLSX.°/30m               0.00:  Dogleg Str Max 
 DRET.      00.15.00 05-Jan-21:  Drill End Time 
 DRST.      22.00.00 03-Jan-21:  Drill Start Tim 
 DTIM.hr                 17.72:  Time Drilling 
 EDEP.m                3814.01:  End Depth 
 ENG1.         Yevgeniy Ulikov:  Engineer 1 
 ENG2.        Farkhad Khalidov:  Engineer 2 
 ENG3.           Samir Gafarov:  Engineer 3 
 ETIM.      21.00.00 07-Jan-21:  End Time 
 FLOI.gpm               590.00:  Flow In 
 FLON.gpm               580.00:  Flow In Min 
 FLOS.cptm                1.00:  Fluid Loss 
 FLOX.gpm               595.00:  Flow In Max 
 FTRO.     Connectivity, Formation Presure:  FTWD Run Obj 
 HFLO.                      No:  High Flow 
 HPRE.                     Yes:  High Pressure 
 HTEM.                      No:  High Temp 
 HYDO.m                   1.80:  Hydro Offset 
 IFIN.deg                63.76:  Inc, Final 
 IMAX.deg                64.09:  Inc Max 
 IMIN.deg                55.81:  Inc Min 
 IMND.m                3455.62:  Inc Min Depth 
 IMXD.m                3796.03:  Inc Max Depth 
 JARR.                      No:  Jarring 
 LETM.      00.15.00 05-Jan-21:  Log End Time 
 LOST.hr                     0:  Lost Rig Time 
 LSTM.      22.00.00 03-Jan-21:  Log Start Time 
 MDCL.ppm             36000.00:  Mud Chlorides 
 MDES.     Inversion Oil/Synthetic:  Mud Desc 
 DFD .sg                  1.51:  Mud Density 
 MDMN.sg                  1.51:  Dens Mud Min 
 MDMX.sg                  1.51:  Dens Mud Max 
 MOIL.                    55.5:  Run Mud Oil % 
 MOWR.                   70:30:  Run Mud OWR 
 MSND.                     0.1:  Run Mud Sand % 
 MSOL.                   20.77:  Run Mud Solids% 
 DFV .spqt               67.00:  Mud Viscosity 
 MWOD.in                  6.75:  MWD Tool OD 
 MWSI.                      No:  Serv Intrp, MWD 
 OTIM.hr                113.53:  Time Operating 
 PCON.           Look Like New:  Pad Condition 
 PMAX.psia             4830.00:  Press Op, Max 
 PV  .cP                 29.00:  Mud PV 
 RUN .                     300:  Run Number 
 ROPA.m/hr               22.00:  ROP Avg 
 ROPN.m/hr               18.00:  ROP Min 
 ROPX.m/hr               25.00:  ROP Max 
 RPMA.rpm               130.00:  RPM Surface Avg 
 RPMN.rpm                80.00:  RPM Surface Min 
 RPMX.rpm               140.00:  RPM Surface Max 
 RRUN.                    L101:  Rig Run Number 
 RTIM.hr                  9.28:  Time Reaming 
 SAZI.deg               316.55:  Azm, Start 
 SDEP.m                3445.01:  Start Depth 
 SIDD.                      No:  Serv Intrp, DD 
 SINC.deg                55.81:  Inc, Start 
 SPPA.psig             4500.00:  SPP Avg 
 SPPN.psig             4350.00:  SPP Min 
 SPPX.psig             4830.00:  SPP Max 
 STIM.      00.00.00 03-Jan-21:  Start Time 
 SVCS.                 DD, MWD:  Services 
 SVER.                    9.20:  Sperry Version 
 TDAT.m                 369.00:  Tot Depth Attmp 
 TDDF.                      No:  Trip for DD 
 TDLG.m                 369.00:  Tot Depth Loggd 
 TFF .                      No:  Trip for Fail 
 TQAA.f-kp               15.00:  Torque Abs Avg 
 TQAN.f-kp               12.00:  Torque Abs Min 
 TQAX.f-kp               16.00:  Torque Abs Max 
 TRRT.°/30m              -2.10:  Turn Rotating 
 MRT .                    HCIM:  Maximum Recorded Temperature 
 TTMX.degC               92.16:  Max Tool Temp 
 VS01.                90627822:  Virtual Str1 SN 
 VS02.                90550008:  Virtual Str2 SN 
 VS03.                90627816:  Virtual Str3 SN 
 VS04.                90633205:  Virtual Str4 SN 
 VS05.                13033835:  Virtual Str5 SN 
 VS06.                11125125:  Virtual Str6 SN 
 WBMN.klb                 8.00:  WOB Min 
 WITN.            Bruce Cheyne:  Customer Rep 
 WITN.           Faig Mammadov:  Customer Rep 2 
 WOBA.klb                 9.00:  WOB Avg 
 WOBX.klb                12.00:  WOB Max 
 YP  .lhf2               30.00:  Yield Point 
~Curve Information Block
#MNEM.UNIT                 API CODE     Curve Description
#---------               -----------    ---------------------------
 TIME.HHMMSS            00 000 000 000:  GT Time & Date
 GTET.sec               00 000 000 000:  GT Elapsed Test Time
 GTPQH.psia             00 000 000 000:  GT HR Quartz Pressure
 GTDEPTH.m              00 000 000 000:  GT Depth
 GTTVD.m                00 000 000 000:  GT True Vertical Depth
 GTTQ.degC              00 000 000 000:  GT Quartz Temperature
 GTTN.NONE              00 000 000 000:  GT Test Number
#Other Information
#
#WARRANTY: Halliburton will use its best efforts to furnish customers with 
#accurate information and interpretations that are part of, and incident to, the services 
#provided.  However, Halliburton cannot and does not warrant the accuracy 
#or correctness of such information and interpretations.  Under no circumstances should any 
#such information or interpretation be relied upon as the sole basis for any drilling, 
#completion, production, or financial decision or any procedure involving any risk to the 
#safety of any drilling venture, drilling rig or its crew or any other third party.  The 
#Customer has full responsibility for all drilling, completion and production operation.  
#Halliburton makes no representations or warranties, either expressed or 
#implied, including, but not limited to, the implied warranties of merchantability or fitness 
#for a particular purpose, with respect to the services rendered.  In no event will 
#Halliburton be liable for failure to obtain any particular results or for 
#any damages, including, but not limited to, indirect, special or consequential damages, 
#resulting from the use of any information or interpretation provided by Halliburton.
#
~A           TIME            GTET   GTPQH  GTDEPTH  GTTVD  GTTQ  GTTN 
# ...
   08:23:36.492.05-Jan-2021 299.11 4455.40 3649.01 3076.03 80.48 5.00
   08:23:36.693.05-Jan-2021 299.31 4455.40 3649.01 3076.03 80.48 5.00
   08:23:36.893.05-Jan-2021 299.51 4455.60 3649.01 3076.03 80.48 5.00
   08:23:37.093.05-Jan-2021 299.71 4455.42 3649.01 3076.03 80.48 5.00
   08:23:37.293.05-Jan-2021 299.91 4455.58 3649.01 3076.03 80.48 5.00
   08:23:37.493.05-Jan-2021 300.11 4455.42 3649.01 3076.03 80.48 5.00
   08:23:37.693.05-Jan-2021 300.31 4455.52 3649.01 3076.03 80.48 5.00
   08:23:37.893.05-Jan-2021 300.51 4455.52 3649.01 3076.03 80.48 5.00
   08:23:38.093.05-Jan-2021 300.71 4455.51 3649.01 3076.03 80.48 5.00
   08:23:38.293.05-Jan-2021 300.91 4455.47 3649.01 3076.03 80.48 5.00
   08:23:38.493.05-Jan-2021 301.11 4455.48 3649.01 3076.03 80.48 5.00
   08:23:38.693.05-Jan-2021 301.31 4455.48 3649.01 3076.03 80.48 5.00
   08:23:38.893.05-Jan-2021 301.51 4455.51 3649.01 3076.03 80.48 5.00
   08:23:39.093.05-Jan-2021 301.71 4455.44 3649.01 3076.03 80.48 5.00
   08:23:39.293.05-Jan-2021 301.91 4455.53 3649.01 3076.03 80.48 5.00
   08:23:39.494.05-Jan-2021 302.11 4455.51 3649.01 3076.03 80.48 5.00
   08:23:39.694.05-Jan-2021 302.31 4455.51 3649.01 3076.03 80.48 5.00
   08:23:39.894.05-Jan-2021 302.51 4455.47 3649.01 3076.03 80.48 5.00
   08:23:40.094.05-Jan-2021 302.71 4455.61 3649.01 3076.03 80.48 5.00
   08:23:40.294.05-Jan-2021 302.91 4455.40 3649.01 3076.03 80.48 5.00
   08:23:40.494.05-Jan-2021 303.11 4455.52 3649.01 3076.03 80.48 5.00
   08:23:40.694.05-Jan-2021 303.31 4455.52 3649.01 3076.03 80.48 5.00
   08:23:40.894.05-Jan-2021 303.51 4455.50 3649.01 3076.03 80.48 5.00
   08:23:41.094.05-Jan-2021 303.71 4455.46 3649.01 3076.03 80.48 5.00
   08:23:41.294.05-Jan-2021 303.91 4455.60 3649.01 3076.03 80.48 5.00
   08:23:41.494.05-Jan-2021 304.11 4455.44 3649.01 3076.03 80.48 5.00
   08:23:41.694.05-Jan-2021 304.31 4455.44 3649.01 3076.03 80.48 5.00
   08:23:41.894.05-Jan-2021 304.51 4455.53 3649.01 3076.03 80.49 5.00
   08:23:42.095.05-Jan-2021 304.71 4455.54 3649.01 3076.03 80.49 5.00
   08:23:42.295.05-Jan-2021 304.91 4455.50 3649.01 3076.03 80.49 5.00
   08:23:42.495.05-Jan-2021 305.11 4455.45 3649.01 3076.03 80.49 5.00
   08:23:42.695.05-Jan-2021 305.31 4455.45 3649.01 3076.03 80.49 5.00
   08:23:42.895.05-Jan-2021 305.51 4455.36 3649.01 3076.03 80.49 5.00
   08:23:43.095.05-Jan-2021 305.71 4455.53 3649.01 3076.03 80.49 5.00
   08:23:43.295.05-Jan-2021 305.91 4455.62 3649.01 3076.03 80.49 5.00
   08:23:43.495.05-Jan-2021 306.11 4455.40 3649.01 3076.03 80.49 5.00
   08:23:43.695.05-Jan-2021 306.31 4455.40 3649.01 3076.03 80.49 5.00
   08:23:43.895.05-Jan-2021 306.51 4455.41 3649.01 3076.03 80.49 5.00
   08:23:44.095.05-Jan-2021 306.71 4455.61 3649.01 3076.03 80.49 5.00
   08:23:44.295.05-Jan-2021 306.91 4455.51 3649.01 3076.03 80.49 5.00
   08:23:44.495.05-Jan-2021 307.11 4455.51 3649.01 3076.03 80.49 5.00
   08:23:44.695.05-Jan-2021 307.31 4455.51 3649.01 3076.03 80.49 5.00
   08:23:44.896.05-Jan-2021 307.51 4455.35 3649.01 3076.03 80.49 5.00
   08:23:45.096.05-Jan-2021 307.71 4455.68 3649.01 3076.03 80.49 5.00
   08:23:45.296.05-Jan-2021 307.91 4455.47 3649.01 3076.03 80.49 5.00
   08:23:45.496.05-Jan-2021 308.11 4455.49 3649.01 3076.03 80.49 5.00
   08:23:45.696.05-Jan-2021 308.31 4455.50 3649.01 3076.03 80.49 5.00
   08:23:45.896.05-Jan-2021 308.51 4455.41 3649.01 3076.03 80.49 5.00
   08:23:46.096.05-Jan-2021 308.71 4455.65 3649.01 3076.03 80.49 5.00
   08:23:46.296.05-Jan-2021 308.91 4455.52 3649.01 3076.03 80.49 5.00
   08:23:46.496.05-Jan-2021 309.11 4455.46 3649.01 3076.03 80.49 5.00
   08:23:46.696.05-Jan-2021 309.31 4455.46 3649.01 3076.03 80.49 5.00
   08:23:46.896.05-Jan-2021 309.51 4437.39 3649.01 3076.03 80.49 5.00
   08:23:47.096.05-Jan-2021 309.71 4413.19 3649.01 3076.03 80.49 5.00
   08:23:47.296.05-Jan-2021 309.92 4413.35 3649.01 3076.03 80.49 5.00
   08:23:47.497.05-Jan-2021 310.12 4414.65 3649.01 3076.03 80.49 5.00
   08:23:47.697.05-Jan-2021 310.32 4414.65 3649.01 3076.03 80.49 5.00
   08:23:47.897.05-Jan-2021 310.52 4413.94 3649.01 3076.03 80.49 5.00
   08:23:48.097.05-Jan-2021 310.72 4414.93 3649.01 3076.03 80.49 5.00
   08:23:48.297.05-Jan-2021 310.92 4414.06 3649.01 3076.03 80.49 5.00
   08:23:48.497.05-Jan-2021 311.12 4415.43 3649.01 3076.03 80.49 5.00
   08:23:48.697.05-Jan-2021 311.32 4415.43 3649.01 3076.03 80.49 5.00
   08:23:48.897.05-Jan-2021 311.52 4411.34 3649.01 3076.03 80.49 5.00
   08:23:49.097.05-Jan-2021 311.72 4411.80 3649.01 3076.03 80.49 5.00
   08:23:49.297.05-Jan-2021 311.92 4414.07 3649.01 3076.03 80.49 5.00
   08:23:49.497.05-Jan-2021 312.12 4410.78 3649.01 3076.03 80.49 5.00
   08:23:49.697.05-Jan-2021 312.32 4413.59 3649.01 3076.03 80.49 5.00
   08:23:49.897.05-Jan-2021 312.52 4410.84 3649.01 3076.03 80.49 5.00
   08:23:50.097.05-Jan-2021 312.72 4408.98 3649.01 3076.03 80.49 5.00
   08:23:50.298.05-Jan-2021 312.92 4416.48 3649.01 3076.03 80.49 5.00
   08:23:50.498.05-Jan-2021 313.12 4412.79 3649.01 3076.03 80.49 5.00
   08:23:50.698.05-Jan-2021 313.32 4412.79 3649.01 3076.03 80.49 5.00
   08:23:50.898.05-Jan-2021 313.52 4417.14 3649.01 3076.03 80.49 5.00
   08:23:51.098.05-Jan-2021 313.72 4411.25 3649.01 3076.03 80.49 5.00
   08:23:51.298.05-Jan-2021 313.92 4415.60 3649.01 3076.03 80.49 5.00
   08:23:51.498.05-Jan-2021 314.12 4413.48 3649.01 3076.03 80.49 5.00
   08:23:51.698.05-Jan-2021 314.32 4413.48 3649.01 3076.03 80.49 5.00
   08:23:51.898.05-Jan-2021 314.52 4415.88 3649.01 3076.03 80.49 5.00
   08:23:52.098.05-Jan-2021 314.72 4413.84 3649.01 3076.03 80.49 5.00
   08:23:52.298.05-Jan-2021 314.92 4409.15 3649.01 3076.03 80.49 5.00
   08:23:52.498.05-Jan-2021 315.12 4415.57 3649.01 3076.03 80.49 5.00
   08:23:52.698.05-Jan-2021 315.32 4415.57 3649.01 3076.03 80.49 5.00
   08:23:52.899.05-Jan-2021 315.52 4410.55 3649.01 3076.03 80.49 5.00
   08:23:53.099.05-Jan-2021 315.72 4415.53 3649.01 3076.03 80.49 5.00
   08:23:53.299.05-Jan-2021 315.92 4410.80 3649.01 3076.03 80.49 5.00
   08:23:53.499.05-Jan-2021 316.12 4416.61 3649.01 3076.03 80.49 5.00
   08:23:53.699.05-Jan-2021 316.32 4408.44 3649.01 3076.03 80.49 5.00
   08:23:53.899.05-Jan-2021 316.52 4415.66 3649.01 3076.03 80.49 5.00
   08:23:54.099.05-Jan-2021 316.72 4411.67 3649.01 3076.03 80.49 5.00
   08:23:54.299.05-Jan-2021 316.92 4411.41 3649.01 3076.03 80.49 5.00
   08:23:54.499.05-Jan-2021 317.12 4415.16 3649.01 3076.03 80.49 5.00
   08:23:54.699.05-Jan-2021 317.32 4415.16 3649.01 3076.03 80.49 5.00
   08:23:54.899.05-Jan-2021 317.52 4416.74 3649.01 3076.03 80.49 5.00
   08:23:55.099.05-Jan-2021 317.72 4415.01 3649.01 3076.03 80.49 5.00
   08:23:55.299.05-Jan-2021 317.92 4416.96 3649.01 3076.03 80.49 5.00
   08:23:55.500.05-Jan-2021 318.12 4416.67 3649.01 3076.03 80.49 5.00
   08:23:55.700.05-Jan-2021 318.32 4416.67 3649.01 3076.03 80.49 5.00
   08:23:55.900.05-Jan-2021 318.52 4415.93 3649.01 3076.03 80.49 5.00
   08:23:56.100.05-Jan-2021 318.72 4415.50 3649.01 3076.03 80.49 5.00
   08:23:56.300.05-Jan-2021 318.92 4413.59 3649.01 3076.03 80.49 5.00
   08:23:56.500.05-Jan-2021 319.12 4417.00 3649.01 3076.03 80.49 5.00
   08:23:56.700.05-Jan-2021 319.32 4417.00 3649.01 3076.03 80.49 5.00
   08:23:56.900.05-Jan-2021 319.52 4419.90 3649.01 3076.03 80.49 5.00
   08:23:57.100.05-Jan-2021 319.72 4447.04 3649.01 3076.03 80.49 5.00
   08:23:57.300.05-Jan-2021 319.92 4454.99 3649.01 3076.03 80.49 5.00
   08:23:57.500.05-Jan-2021 320.12 4455.61 3649.01 3076.03 80.49 5.00
   08:23:57.700.05-Jan-2021 320.32 4455.25 3649.01 3076.03 80.49 5.00
   08:23:57.900.05-Jan-2021 320.52 4455.28 3649.01 3076.03 80.49 5.00
   08:23:58.100.05-Jan-2021 320.72 4455.26 3649.01 3076.03 80.49 5.00
   08:23:58.301.05-Jan-2021 320.92 4455.27 3649.01 3076.03 80.49 5.00
   08:23:58.501.05-Jan-2021 321.12 4455.29 3649.01 3076.03 80.49 5.00
   08:23:58.701.05-Jan-2021 321.32 4455.29 3649.01 3076.03 80.49 5.00
   08:23:58.901.05-Jan-2021 321.52 4455.31 3649.01 3076.03 80.49 5.00
   08:23:59.101.05-Jan-2021 321.72 4455.31 3649.01 3076.03 80.49 5.00
   08:23:59.301.05-Jan-2021 321.92 4455.32 3649.01 3076.03 80.49 5.00
