~Version Information
 VERS.                  2.0:   CWLS log ASCII Standard -VERSION 2.0
 WRAP.                   NO:   One line per depth step
~Well Information Block
#MNEM.UNIT     VALUE/NAME     DESCRIPTION
#---------     -----------    ---------------------------
 STRT.S             05:41:02 05-Jan-21: START TIME 05:41:02 05-Jan-21
 STOP.S             05:49:13 05-Jan-21: STOP TIME  05:49:13 05-Jan-21
 STEP.S                   0.00: STEP TIME
 NULL.                 -999.25: NULL VALUE
 DFWT.                        :  DIST FWL TEXT
 DFST.                        :  DIST FSL TEXT
 DMF .             Drill Floor:  DRILL MEAS FROM
 STIM.      06.00.00 31-Dec-20:  START TIME
 DATE.      05.58.24 07-Jan-21:  END TIME
 SPUD.               24-Dec-20:  SPUD DATE
 NREF.                    Grid:  NORTH REFERENCE
 HPTY.       Minimum Curvature:  HOLE POS TYPE
 DMOD.             Drill Model:  DRILL MOD DESC
 SVYD.                  Survey:  SURVEY DESC
 ILTD.               Lithology:  INTERP LTH DESC
 FTOP.          Formation Tops:  FORM TOPS DESC
 SON .        AZ-XX-0906699554:  JOB NUMBER
 WELL.                    B09z:  WELL NAME
 PDAT.          Mean Sea Level:  PERMANENT DATUM
 FLD .                     ACG:  FIELD NAME
 CTRY.              Azerbaijan:  COUNTRY NAME
 COMP.     BP Exploration (Caspian Sea) Ltd.:  COMPANY
 UWI .                     N/A:  UNIQUE WELL IDENTIFIER
 API .                     N/A:  API NUMBER
 WTYP.                Deviated:  WELL TYPE
 MDS .        Operator Entered:  MAG DATA SOURCE
 BASE.              Azerbaijan:  LOGGING EQUIPMENT BASE LOCATION
 REGN.                   EESSA:  REGION
 PROV.                    Baku:  PROVINCE
 STAT.                    Baku:  STATE NAME
 SRVC.          Turan Drilling:  CONTRACTOR
 MWDS.                    Baku:  MWD SHOP
 JOBN.        AZ-XX-0906699554:  JOB TICKET NUMB
 RIG .           Central Azeri:  RIG NAME
 DOE .                     N/A:  DOE NUMBER
 DCON.         Sperry Drilling:  DIRECTNL CONTR
 UNIT.                     N/A:  LOGGING EQUIPMENT ID
 CNTY.                        :  COUNTY
 LOC .                        :  LOCATION
 LMF .             Drill Floor:  LOG MEASURED FROM
 TVDS.m                  43.29:  TVDSS CORRECTN
 LATI.deg                40.03:  LATITUDE
 LONG.deg                51.35:  LONGITUDE
 WHNS.m                  -2.76:  WELL HEAD N/S
 WHEW.m                  -7.70:  WELL HEAD E/W
 UTMX.m              530128.28:  UTM X
 UTMY.m             4433192.49:  UTM Y
 DFWL.m                   0.00:  DISTANCE FWL
 DFSL.m                   0.00:  DISTANCE FSL
 SDEP.m                3435.01:  START DEPTH
 TDD .m                3814.01:  TOTAL DEPTH (DRILLER)
 VSDR.deg               352.80:  VERT SEC DIRECT
 GVFD.g                   1.00:  GRAVITY FIELD
 MFLD.nT              50303.00:  MAGNETIC FIELD
 MDIP.deg                59.52:  MAGNETIC DIP
 MDEC.deg                 6.47:  MAGNETIC DECL
 GRDC.deg                 0.23:  GRID CORRECTION
 AZTC.deg                 6.24:  AZM TOTAL CORR
 EPD .m                   0.00:  ELEVATION
 EGL .m                   0.00:  GROUND ELEVATION
 WDMS.m                 128.20:  WD ELEV
 APD .m                  43.29:  DEPTH ABOVE PD
 DEP .m                3421.30:  DEPTH
 AGAP.m                  43.60:  AIR GAP
 VSEW.m                  -7.70:  VERT SEC E/W
 VSNS.m                  -2.76:  VERT SEC N/S
 EKB .m                   0.00:  KB ELEVATION
 EDF .m                  43.29:  DF ELEVATION
 TDL .m                 369.00:  TOTAL DEPTH (LOGGER)
 VSC .                       0:  VS TO CLOSURE
 MAGU.                 1850390:  MAGUTM CHECKSUM
~Parameter Information Block
#MNEM.UNIT       Value        Description
#---------     -----------    ---------------------------
 AV  .mps                 2.80:  Ann Velocity 
 AVMX.mps                 4.67:  Max Ann Veloc 
 AZIF.deg               303.89:  Azm, Final 
 BHAT.        Rotary Steerable:  BHA Type 
 BREV.rev            128542.00:  Rev Bit Total 
 BROT.°/30m               1.50:  Build Rotating 
 BS  .in                  8.50:  Bit Size 
 BSZ .in                  8.50:  Bit Size 
 BTPL.psig              715.00:  Bit Press Loss 
 CABU.                      No:  Customer Abuse 
 TCS .hr                 53.00:  Time Ciculation Ended 
 CV  .mps                 3.85:  Crit Velocity 
 CVMX.mps                 4.75:  Max Crit Veloc 
 DD1 .         Intigam Rahimov:  Direct Drillr 1 
 DDSV.                 iCruise:  DD Service 
 DEFF.%                  98.60:  % Det Eff 
 DLRX.°/30m               2.34:  Dogleg Rot Max 
 DLSO.°/30m               0.00:  Dogleg Oriented 
 DLSX.°/30m               0.00:  Dogleg Str Max 
 DRET.      00.15.00 05-Jan-21:  Drill End Time 
 DRST.      22.00.00 03-Jan-21:  Drill Start Tim 
 DTIM.hr                 17.72:  Time Drilling 
 EDEP.m                3814.01:  End Depth 
 ENG1.         Yevgeniy Ulikov:  Engineer 1 
 ENG2.        Farkhad Khalidov:  Engineer 2 
 ENG3.           Samir Gafarov:  Engineer 3 
 ETIM.      21.00.00 07-Jan-21:  End Time 
 FLOI.gpm               590.00:  Flow In 
 FLON.gpm               580.00:  Flow In Min 
 FLOS.cptm                1.00:  Fluid Loss 
 FLOX.gpm               595.00:  Flow In Max 
 FTRO.     Connectivity, Formation Presure:  FTWD Run Obj 
 HFLO.                      No:  High Flow 
 HPRE.                     Yes:  High Pressure 
 HTEM.                      No:  High Temp 
 HYDO.m                   1.80:  Hydro Offset 
 IFIN.deg                63.76:  Inc, Final 
 IMAX.deg                64.09:  Inc Max 
 IMIN.deg                55.81:  Inc Min 
 IMND.m                3455.62:  Inc Min Depth 
 IMXD.m                3796.03:  Inc Max Depth 
 JARR.                      No:  Jarring 
 LETM.      00.15.00 05-Jan-21:  Log End Time 
 LOST.hr                     0:  Lost Rig Time 
 LSTM.      22.00.00 03-Jan-21:  Log Start Time 
 MDCL.ppm             36000.00:  Mud Chlorides 
 MDES.     Inversion Oil/Synthetic:  Mud Desc 
 DFD .sg                  1.51:  Mud Density 
 MDMN.sg                  1.51:  Dens Mud Min 
 MDMX.sg                  1.51:  Dens Mud Max 
 MOIL.                    55.5:  Run Mud Oil % 
 MOWR.                   70:30:  Run Mud OWR 
 MSND.                     0.1:  Run Mud Sand % 
 MSOL.                   20.77:  Run Mud Solids% 
 DFV .spqt               67.00:  Mud Viscosity 
 MWOD.in                  6.75:  MWD Tool OD 
 MWSI.                      No:  Serv Intrp, MWD 
 OTIM.hr                113.53:  Time Operating 
 PCON.           Look Like New:  Pad Condition 
 PMAX.psia             4830.00:  Press Op, Max 
 PV  .cP                 29.00:  Mud PV 
 RUN .                     300:  Run Number 
 ROPA.m/hr               22.00:  ROP Avg 
 ROPN.m/hr               18.00:  ROP Min 
 ROPX.m/hr               25.00:  ROP Max 
 RPMA.rpm               130.00:  RPM Surface Avg 
 RPMN.rpm                80.00:  RPM Surface Min 
 RPMX.rpm               140.00:  RPM Surface Max 
 RRUN.                    L101:  Rig Run Number 
 RTIM.hr                  9.28:  Time Reaming 
 SAZI.deg               316.55:  Azm, Start 
 SDEP.m                3445.01:  Start Depth 
 SIDD.                      No:  Serv Intrp, DD 
 SINC.deg                55.81:  Inc, Start 
 SPPA.psig             4500.00:  SPP Avg 
 SPPN.psig             4350.00:  SPP Min 
 SPPX.psig             4830.00:  SPP Max 
 STIM.      00.00.00 03-Jan-21:  Start Time 
 SVCS.                 DD, MWD:  Services 
 SVER.                    9.20:  Sperry Version 
 TDAT.m                 369.00:  Tot Depth Attmp 
 TDDF.                      No:  Trip for DD 
 TDLG.m                 369.00:  Tot Depth Loggd 
 TFF .                      No:  Trip for Fail 
 TQAA.f-kp               15.00:  Torque Abs Avg 
 TQAN.f-kp               12.00:  Torque Abs Min 
 TQAX.f-kp               16.00:  Torque Abs Max 
 TRRT.°/30m              -2.10:  Turn Rotating 
 MRT .                    HCIM:  Maximum Recorded Temperature 
 TTMX.degC               92.16:  Max Tool Temp 
 VS01.                90627822:  Virtual Str1 SN 
 VS02.                90550008:  Virtual Str2 SN 
 VS03.                90627816:  Virtual Str3 SN 
 VS04.                90633205:  Virtual Str4 SN 
 VS05.                13033835:  Virtual Str5 SN 
 VS06.                11125125:  Virtual Str6 SN 
 WBMN.klb                 8.00:  WOB Min 
 WITN.            Bruce Cheyne:  Customer Rep 
 WITN.           Faig Mammadov:  Customer Rep 2 
 WOBA.klb                 9.00:  WOB Avg 
 WOBX.klb                12.00:  WOB Max 
 YP  .lhf2               30.00:  Yield Point 
~Curve Information Block
#MNEM.UNIT                 API CODE     Curve Description
#---------               -----------    ---------------------------
 TIME.HHMMSS            00 000 000 000:  GT Time & Date
 GTET.sec               00 000 000 000:  GT Elapsed Test Time
 GTPQH.psia             00 000 000 000:  GT HR Quartz Pressure
 GTDEPTH.m              00 000 000 000:  GT Depth
 GTTVD.m                00 000 000 000:  GT True Vertical Depth
 GTTQ.degC              00 000 000 000:  GT Quartz Temperature
 GTTN.NONE              00 000 000 000:  GT Test Number
#Other Information
#
#WARRANTY: Halliburton will use its best efforts to furnish customers with 
#accurate information and interpretations that are part of, and incident to, the services 
#provided.  However, Halliburton cannot and does not warrant the accuracy 
#or correctness of such information and interpretations.  Under no circumstances should any 
#such information or interpretation be relied upon as the sole basis for any drilling, 
#completion, production, or financial decision or any procedure involving any risk to the 
#safety of any drilling venture, drilling rig or its crew or any other third party.  The 
#Customer has full responsibility for all drilling, completion and production operation.  
#Halliburton makes no representations or warranties, either expressed or 
#implied, including, but not limited to, the implied warranties of merchantability or fitness 
#for a particular purpose, with respect to the services rendered.  In no event will 
#Halliburton be liable for failure to obtain any particular results or for 
#any damages, including, but not limited to, indirect, special or consequential damages, 
#resulting from the use of any information or interpretation provided by Halliburton.
#
~A           TIME            GTET   GTPQH  GTDEPTH  GTTVD  GTTQ  GTTN 
# ...
   05:41:25.000.05-Jan-2021  23.00 7521.17 3764.51 3128.30 84.67 2.00
   05:41:25.200.05-Jan-2021  23.20 7521.17 3764.51 3128.30 84.67 2.00
   05:41:25.400.05-Jan-2021  23.40 7520.22 3764.51 3128.30 84.67 2.00
   05:41:25.600.05-Jan-2021  23.60 7519.85 3764.51 3128.30 84.67 2.00
   05:41:25.800.05-Jan-2021  23.80 7521.57 3764.51 3128.30 84.67 2.00
   05:41:26.000.05-Jan-2021  24.00 7517.63 3764.51 3128.30 84.67 2.00
   05:41:26.200.05-Jan-2021  24.20 7526.40 3764.51 3128.30 84.67 2.00
   05:41:26.400.05-Jan-2021  24.40 7523.89 3764.51 3128.30 84.67 2.00
   05:41:26.600.05-Jan-2021  24.60 7517.25 3764.51 3128.30 84.67 2.00
   05:41:26.800.05-Jan-2021  24.80 7527.14 3764.51 3128.30 84.67 2.00
   05:41:27.000.05-Jan-2021  25.00 7525.17 3764.51 3128.30 84.67 2.00
   05:41:27.200.05-Jan-2021  25.20 7525.17 3764.51 3128.30 84.67 2.00
   05:41:27.400.05-Jan-2021  25.40 7526.76 3764.51 3128.30 84.67 2.00
   05:41:27.600.05-Jan-2021  25.60 7525.46 3764.51 3128.30 84.67 2.00
   05:41:27.800.05-Jan-2021  25.80 7518.47 3764.51 3128.30 84.67 2.00
   05:41:28.000.05-Jan-2021  26.00 7524.11 3764.51 3128.30 84.67 2.00
   05:41:28.200.05-Jan-2021  26.20 7524.11 3764.51 3128.30 84.67 2.00
   05:41:28.400.05-Jan-2021  26.40 7529.47 3764.51 3128.30 84.66 2.00
   05:41:28.600.05-Jan-2021  26.60 7522.15 3764.51 3128.30 84.66 2.00
   05:41:28.800.05-Jan-2021  26.80 7520.93 3764.51 3128.30 84.66 2.00
   05:41:29.000.05-Jan-2021  27.00 7522.64 3764.51 3128.30 84.66 2.00
   05:41:29.200.05-Jan-2021  27.20 7533.35 3764.51 3128.30 84.66 2.00
   05:41:29.400.05-Jan-2021  27.40 7526.00 3764.51 3128.30 84.66 2.00
   05:41:29.600.05-Jan-2021  27.60 7522.06 3764.51 3128.30 84.66 2.00
   05:41:29.800.05-Jan-2021  27.80 7522.51 3764.51 3128.30 84.66 2.00
   05:41:30.000.05-Jan-2021  28.00 7528.56 3764.51 3128.30 84.66 2.00
   05:41:30.200.05-Jan-2021  28.20 7525.34 3764.51 3128.30 84.66 2.00
   05:41:30.400.05-Jan-2021  28.40 7679.76 3764.51 3128.30 84.66 2.00
   05:41:30.600.05-Jan-2021  28.60 7731.71 3764.51 3128.30 84.66 2.00
   05:41:30.800.05-Jan-2021  28.80 7728.54 3764.51 3128.30 84.66 2.00
   05:41:31.000.05-Jan-2021  29.00 7733.21 3764.51 3128.30 84.66 2.00
   05:41:31.200.05-Jan-2021  29.20 7733.21 3764.51 3128.30 84.66 2.00
   05:41:31.400.05-Jan-2021  29.40 7740.56 3764.51 3128.30 84.66 2.00
   05:41:31.600.05-Jan-2021  29.60 7736.78 3764.51 3128.30 84.66 2.00
   05:41:31.800.05-Jan-2021  29.80 7738.52 3764.51 3128.30 84.66 2.00
   05:41:32.000.05-Jan-2021  30.00 7756.98 3764.51 3128.30 84.66 2.00
   05:41:32.200.05-Jan-2021  30.20 7756.98 3764.51 3128.30 84.66 2.00
   05:41:32.400.05-Jan-2021  30.40 7765.81 3764.51 3128.30 84.66 2.00
   05:41:32.600.05-Jan-2021  30.60 7768.04 3764.51 3128.30 84.66 2.00
   05:41:32.800.05-Jan-2021  30.80 7750.36 3764.51 3128.30 84.66 2.00
   05:41:33.000.05-Jan-2021  31.00 7703.05 3764.51 3128.30 84.66 2.00
   05:41:33.200.05-Jan-2021  31.20 7703.05 3764.51 3128.30 84.66 2.00
   05:41:33.400.05-Jan-2021  31.40 7541.88 3764.51 3128.30 84.66 2.00
   05:41:33.600.05-Jan-2021  31.60 7483.71 3764.51 3128.30 84.66 2.00
   05:41:33.800.05-Jan-2021  31.80 7428.56 3764.51 3128.30 84.66 2.00
   05:41:34.000.05-Jan-2021  32.00 7384.18 3764.51 3128.30 84.66 2.00
   05:41:34.200.05-Jan-2021  32.20 7345.02 3764.51 3128.30 84.66 2.00
   05:41:34.400.05-Jan-2021  32.40 7313.84 3764.51 3128.30 84.66 2.00
   05:41:34.600.05-Jan-2021  32.60 7287.72 3764.51 3128.30 84.66 2.00
   05:41:34.800.05-Jan-2021  32.80 7285.86 3764.51 3128.30 84.66 2.00
   05:41:35.000.05-Jan-2021  33.00 7288.17 3764.51 3128.30 84.66 2.00
   05:41:35.200.05-Jan-2021  33.20 7288.17 3764.51 3128.30 84.66 2.00
   05:41:35.400.05-Jan-2021  33.40 7273.44 3764.51 3128.30 84.66 2.00
   05:41:35.600.05-Jan-2021  33.60 7264.21 3764.51 3128.30 84.66 2.00
   05:41:35.800.05-Jan-2021  33.80 7247.37 3764.51 3128.30 84.66 2.00
   05:41:36.000.05-Jan-2021  34.00 7240.52 3764.51 3128.30 84.66 2.00
   05:41:36.200.05-Jan-2021  34.20 7240.52 3764.51 3128.30 84.66 2.00
   05:41:36.400.05-Jan-2021  34.40 7228.20 3764.51 3128.30 84.66 2.00
   05:41:36.600.05-Jan-2021  34.60 7222.42 3764.51 3128.30 84.66 2.00
   05:41:36.800.05-Jan-2021  34.80 7218.91 3764.51 3128.30 84.66 2.00
   05:41:37.000.05-Jan-2021  35.00 7093.10 3764.51 3128.30 84.66 2.00
   05:41:37.200.05-Jan-2021  35.20 6420.06 3764.51 3128.30 84.66 2.00
   05:41:37.400.05-Jan-2021  35.40 5965.92 3764.51 3128.30 84.66 2.00
   05:41:37.600.05-Jan-2021  35.60 5889.53 3764.51 3128.30 84.66 2.00
   05:41:37.800.05-Jan-2021  35.80 5658.30 3764.51 3128.30 84.66 2.00
   05:41:38.000.05-Jan-2021  36.00 5054.87 3764.51 3128.30 84.66 2.00
   05:41:38.200.05-Jan-2021  36.20 5054.87 3764.51 3128.30 84.66 2.00
   05:41:38.400.05-Jan-2021  36.40 4715.12 3764.51 3128.30 84.65 2.00
   05:41:38.600.05-Jan-2021  36.60 4718.08 3764.51 3128.30 84.65 2.00
   05:41:38.800.05-Jan-2021  36.80 4719.26 3764.51 3128.30 84.65 2.00
   05:41:39.000.05-Jan-2021  37.00 4721.89 3764.51 3128.30 84.65 2.00
   05:41:39.200.05-Jan-2021  37.20 4721.89 3764.51 3128.30 84.65 2.00
   05:41:39.400.05-Jan-2021  37.40 4728.20 3764.51 3128.30 84.65 2.00
   05:41:39.600.05-Jan-2021  37.60 4728.72 3764.51 3128.30 84.64 2.00
   05:41:39.800.05-Jan-2021  37.80 4727.39 3764.51 3128.30 84.64 2.00
   05:41:40.000.05-Jan-2021  38.00 4729.59 3764.51 3128.30 84.64 2.00
   05:41:40.200.05-Jan-2021  38.20 4729.59 3764.51 3128.30 84.64 2.00
   05:41:40.400.05-Jan-2021  38.40 4725.12 3764.51 3128.30 84.63 2.00
   05:41:40.600.05-Jan-2021  38.60 4733.81 3764.51 3128.30 84.63 2.00
   05:41:40.800.05-Jan-2021  38.80 4740.41 3764.51 3128.30 84.63 2.00
   05:41:41.000.05-Jan-2021  39.00 4727.18 3764.51 3128.30 84.63 2.00
   05:41:41.200.05-Jan-2021  39.20 4727.18 3764.51 3128.30 84.63 2.00
   05:41:41.400.05-Jan-2021  39.40 4730.11 3764.51 3128.30 84.62 2.00
   05:41:41.600.05-Jan-2021  39.60 4728.85 3764.51 3128.30 84.62 2.00
   05:41:41.800.05-Jan-2021  39.80 4730.11 3764.51 3128.30 84.62 2.00
   05:41:42.000.05-Jan-2021  40.00 4729.53 3764.51 3128.30 84.61 2.00
   05:41:42.200.05-Jan-2021  40.20 4729.38 3764.51 3128.30 84.61 2.00
   05:41:42.400.05-Jan-2021  40.40 4728.07 3764.51 3128.30 84.61 2.00
   05:41:42.600.05-Jan-2021  40.60 4728.63 3764.51 3128.30 84.61 2.00
   05:41:42.800.05-Jan-2021  40.80 4730.40 3764.51 3128.30 84.61 2.00
   05:41:43.000.05-Jan-2021  41.00 4729.88 3764.51 3128.30 84.60 2.00
   05:41:43.200.05-Jan-2021  41.20 4729.88 3764.51 3128.30 84.60 2.00
   05:41:43.400.05-Jan-2021  41.40 4730.50 3764.51 3128.30 84.60 2.00
   05:41:43.600.05-Jan-2021  41.60 4735.88 3764.51 3128.30 84.60 2.00
   05:41:43.800.05-Jan-2021  41.80 4734.71 3764.51 3128.30 84.60 2.00
   05:41:44.000.05-Jan-2021  42.00 4731.95 3764.51 3128.30 84.59 2.00
   05:41:44.200.05-Jan-2021  42.20 4731.95 3764.51 3128.30 84.59 2.00
   05:41:44.400.05-Jan-2021  42.40 4730.60 3764.51 3128.30 84.59 2.00
   05:41:44.600.05-Jan-2021  42.60 4734.68 3764.51 3128.30 84.59 2.00
   05:41:44.800.05-Jan-2021  42.80 4732.73 3764.51 3128.30 84.59 2.00
   05:41:45.000.05-Jan-2021  43.00 4732.75 3764.51 3128.30 84.59 2.00
   05:41:45.200.05-Jan-2021  43.20 4732.75 3764.51 3128.30 84.59 2.00
   05:41:45.400.05-Jan-2021  43.40 4731.08 3764.51 3128.30 84.58 2.00
   05:41:45.600.05-Jan-2021  43.60 4752.03 3764.51 3128.30 84.58 2.00
   05:41:45.800.05-Jan-2021  43.80 4761.11 3764.51 3128.30 84.58 2.00
   05:41:46.000.05-Jan-2021  44.00 4761.44 3764.51 3128.30 84.58 2.00
   05:41:46.200.05-Jan-2021  44.20 4761.25 3764.51 3128.30 84.58 2.00
   05:41:46.400.05-Jan-2021  44.40 4761.17 3764.51 3128.30 84.58 2.00
   05:41:46.600.05-Jan-2021  44.60 4761.28 3764.51 3128.30 84.58 2.00
   05:41:46.800.05-Jan-2021  44.80 4761.21 3764.51 3128.30 84.58 2.00
   05:41:47.000.05-Jan-2021  45.00 4761.23 3764.51 3128.30 84.58 2.00
   05:41:47.200.05-Jan-2021  45.20 4761.23 3764.51 3128.30 84.58 2.00
   05:41:47.400.05-Jan-2021  45.40 4761.32 3764.51 3128.30 84.57 2.00
   05:41:47.600.05-Jan-2021  45.60 4761.36 3764.51 3128.30 84.57 2.00
   05:41:47.800.05-Jan-2021  45.80 4761.23 3764.51 3128.30 84.57 2.00
