~Version Information
 VERS.                  2.0:   CWLS log ASCII Standard -VERSION 2.0
 WRAP.                   NO:   One line per depth step
~Well Information Block
#MNEM.UNIT     VALUE/NAME     DESCRIPTION
#---------     -----------    ---------------------------
 STRT.S             08:46:17 05-Jan-21: START TIME 08:46:17 05-Jan-21
 STOP.S             08:54:30 05-Jan-21: STOP TIME  08:54:30 05-Jan-21
 STEP.S                   0.00: STEP TIME
 NULL.                 -999.25: NULL VALUE
 DFWT.                        :  DIST FWL TEXT
 DFST.                        :  DIST FSL TEXT
 DMF .             Drill Floor:  DRILL MEAS FROM
 STIM.      06.00.00 31-Dec-20:  START TIME
 DATE.      05.58.24 07-Jan-21:  END TIME
 SPUD.               24-Dec-20:  SPUD DATE
 NREF.                    Grid:  NORTH REFERENCE
 HPTY.       Minimum Curvature:  HOLE POS TYPE
 DMOD.             Drill Model:  DRILL MOD DESC
 SVYD.                  Survey:  SURVEY DESC
 ILTD.               Lithology:  INTERP LTH DESC
 FTOP.          Formation Tops:  FORM TOPS DESC
 SON .        AZ-XX-0906699554:  JOB NUMBER
 WELL.                    B09z:  WELL NAME
 PDAT.          Mean Sea Level:  PERMANENT DATUM
 FLD .                     ACG:  FIELD NAME
 CTRY.              Azerbaijan:  COUNTRY NAME
 COMP.     BP Exploration (Caspian Sea) Ltd.:  COMPANY
 UWI .                     N/A:  UNIQUE WELL IDENTIFIER
 API .                     N/A:  API NUMBER
 WTYP.                Deviated:  WELL TYPE
 MDS .        Operator Entered:  MAG DATA SOURCE
 BASE.              Azerbaijan:  LOGGING EQUIPMENT BASE LOCATION
 REGN.                   EESSA:  REGION
 PROV.                    Baku:  PROVINCE
 STAT.                    Baku:  STATE NAME
 SRVC.          Turan Drilling:  CONTRACTOR
 MWDS.                    Baku:  MWD SHOP
 JOBN.        AZ-XX-0906699554:  JOB TICKET NUMB
 RIG .           Central Azeri:  RIG NAME
 DOE .                     N/A:  DOE NUMBER
 DCON.         Sperry Drilling:  DIRECTNL CONTR
 UNIT.                     N/A:  LOGGING EQUIPMENT ID
 CNTY.                        :  COUNTY
 LOC .                        :  LOCATION
 LMF .             Drill Floor:  LOG MEASURED FROM
 TVDS.m                  43.29:  TVDSS CORRECTN
 LATI.deg                40.03:  LATITUDE
 LONG.deg                51.35:  LONGITUDE
 WHNS.m                  -2.76:  WELL HEAD N/S
 WHEW.m                  -7.70:  WELL HEAD E/W
 UTMX.m              530128.28:  UTM X
 UTMY.m             4433192.49:  UTM Y
 DFWL.m                   0.00:  DISTANCE FWL
 DFSL.m                   0.00:  DISTANCE FSL
 SDEP.m                3435.01:  START DEPTH
 TDD .m                3814.01:  TOTAL DEPTH (DRILLER)
 VSDR.deg               352.80:  VERT SEC DIRECT
 GVFD.g                   1.00:  GRAVITY FIELD
 MFLD.nT              50303.00:  MAGNETIC FIELD
 MDIP.deg                59.52:  MAGNETIC DIP
 MDEC.deg                 6.47:  MAGNETIC DECL
 GRDC.deg                 0.23:  GRID CORRECTION
 AZTC.deg                 6.24:  AZM TOTAL CORR
 EPD .m                   0.00:  ELEVATION
 EGL .m                   0.00:  GROUND ELEVATION
 WDMS.m                 128.20:  WD ELEV
 APD .m                  43.29:  DEPTH ABOVE PD
 DEP .m                3421.30:  DEPTH
 AGAP.m                  43.60:  AIR GAP
 VSEW.m                  -7.70:  VERT SEC E/W
 VSNS.m                  -2.76:  VERT SEC N/S
 EKB .m                   0.00:  KB ELEVATION
 EDF .m                  43.29:  DF ELEVATION
 TDL .m                 369.00:  TOTAL DEPTH (LOGGER)
 VSC .                       0:  VS TO CLOSURE
 MAGU.                 1850390:  MAGUTM CHECKSUM
~Parameter Information Block
#MNEM.UNIT       Value        Description
#---------     -----------    ---------------------------
 AV  .mps                 2.80:  Ann Velocity 
 AVMX.mps                 4.67:  Max Ann Veloc 
 AZIF.deg               303.89:  Azm, Final 
 BHAT.        Rotary Steerable:  BHA Type 
 BREV.rev            128542.00:  Rev Bit Total 
 BROT.°/30m               1.50:  Build Rotating 
 BS  .in                  8.50:  Bit Size 
 BSZ .in                  8.50:  Bit Size 
 BTPL.psig              715.00:  Bit Press Loss 
 CABU.                      No:  Customer Abuse 
 COMM.                     Œã}:  Run Comments 1 
 TCS .hr                 53.00:  Time Ciculation Ended 
 CV  .mps                 3.85:  Crit Velocity 
 CVMX.mps                 4.75:  Max Crit Veloc 
 DD1 .         Intigam Rahimov:  Direct Drillr 1 
 DDSV.                 iCruise:  DD Service 
 DEFF.%                  98.60:  % Det Eff 
 DLRX.°/30m               2.34:  Dogleg Rot Max 
 DLSO.°/30m               0.00:  Dogleg Oriented 
 DLSX.°/30m               0.00:  Dogleg Str Max 
 DRET.      00.15.00 05-Jan-21:  Drill End Time 
 DRST.      22.00.00 03-Jan-21:  Drill Start Tim 
 DTIM.hr                 17.72:  Time Drilling 
 EDEP.m                3814.01:  End Depth 
 ENG1.         Yevgeniy Ulikov:  Engineer 1 
 ENG2.        Farkhad Khalidov:  Engineer 2 
 ENG3.           Samir Gafarov:  Engineer 3 
 ETIM.      21.00.00 07-Jan-21:  End Time 
 FLOI.gpm               590.00:  Flow In 
 FLON.gpm               580.00:  Flow In Min 
 FLOS.cptm                1.00:  Fluid Loss 
 FLOX.gpm               595.00:  Flow In Max 
 FTRO.     Connectivity, Formation Presure:  FTWD Run Obj 
 HFLO.                      No:  High Flow 
 HPRE.                     Yes:  High Pressure 
 HTEM.                      No:  High Temp 
 HYDO.m                   1.80:  Hydro Offset 
 IFIN.deg                63.76:  Inc, Final 
 IMAX.deg                64.09:  Inc Max 
 IMIN.deg                55.81:  Inc Min 
 IMND.m                3455.62:  Inc Min Depth 
 IMXD.m                3796.03:  Inc Max Depth 
 JARR.                      No:  Jarring 
 LETM.      00.15.00 05-Jan-21:  Log End Time 
 LOST.hr                     0:  Lost Rig Time 
 LSTM.      22.00.00 03-Jan-21:  Log Start Time 
 MDCL.ppm             36000.00:  Mud Chlorides 
 MDES.     Inversion Oil/Synthetic:  Mud Desc 
 DFD .sg                  1.51:  Mud Density 
 MDMN.sg                  1.51:  Dens Mud Min 
 MDMX.sg                  1.51:  Dens Mud Max 
 MOIL.                    55.5:  Run Mud Oil % 
 MOWR.                   70:30:  Run Mud OWR 
 MSND.                     0.1:  Run Mud Sand % 
 MSOL.                   20.77:  Run Mud Solids% 
 DFV .spqt               67.00:  Mud Viscosity 
 MWOD.in                  6.75:  MWD Tool OD 
 MWSI.                      No:  Serv Intrp, MWD 
 OTIM.hr                113.53:  Time Operating 
 PCON.           Look Like New:  Pad Condition 
 PMAX.psia             4830.00:  Press Op, Max 
 PV  .cP                 29.00:  Mud PV 
 RUN .                     300:  Run Number 
 ROPA.m/hr               22.00:  ROP Avg 
 ROPN.m/hr               18.00:  ROP Min 
 ROPX.m/hr               25.00:  ROP Max 
 RPMA.rpm               130.00:  RPM Surface Avg 
 RPMN.rpm                80.00:  RPM Surface Min 
 RPMX.rpm               140.00:  RPM Surface Max 
 RRUN.                    L101:  Rig Run Number 
 RTIM.hr                  9.28:  Time Reaming 
 SAZI.deg               316.55:  Azm, Start 
 SDEP.m                3445.01:  Start Depth 
 SIDD.                      No:  Serv Intrp, DD 
 SINC.deg                55.81:  Inc, Start 
 SPPA.psig             4500.00:  SPP Avg 
 SPPN.psig             4350.00:  SPP Min 
 SPPX.psig             4830.00:  SPP Max 
 STIM.      00.00.00 03-Jan-21:  Start Time 
 SVCS.                 DD, MWD:  Services 
 SVER.                    9.20:  Sperry Version 
 TDAT.m                 369.00:  Tot Depth Attmp 
 TDDF.                      No:  Trip for DD 
 TDLG.m                 369.00:  Tot Depth Loggd 
 TFF .                      No:  Trip for Fail 
 TQAA.f-kp               15.00:  Torque Abs Avg 
 TQAN.f-kp               12.00:  Torque Abs Min 
 TQAX.f-kp               16.00:  Torque Abs Max 
 TRRT.°/30m              -2.10:  Turn Rotating 
 MRT .                    HCIM:  Maximum Recorded Temperature 
 TTMX.degC               92.16:  Max Tool Temp 
 VS01.                90627822:  Virtual Str1 SN 
 VS02.                90550008:  Virtual Str2 SN 
 VS03.                90627816:  Virtual Str3 SN 
 VS04.                90633205:  Virtual Str4 SN 
 VS05.                13033835:  Virtual Str5 SN 
 VS06.                11125125:  Virtual Str6 SN 
 WBMN.klb                 8.00:  WOB Min 
 WITN.            Bruce Cheyne:  Customer Rep 
 WITN.           Faig Mammadov:  Customer Rep 2 
 WOBA.klb                 9.00:  WOB Avg 
 WOBX.klb                12.00:  WOB Max 
 YP  .lhf2               30.00:  Yield Point 
~Curve Information Block
#MNEM.UNIT                 API CODE     Curve Description
#---------               -----------    ---------------------------
 TIME.HHMMSS            00 000 000 000:  GT Time & Date
 GTET.sec               00 000 000 000:  GT Elapsed Test Time
 GTPQH.psia             00 000 000 000:  GT HR Quartz Pressure
 GTDEPTH.m              00 000 000 000:  GT Depth
 GTTVD.m                00 000 000 000:  GT True Vertical Depth
 GTTQ.degC              00 000 000 000:  GT Quartz Temperature
 GTTN.NONE              00 000 000 000:  GT Test Number
#Other Information
#
#WARRANTY: Halliburton will use its best efforts to furnish customers with 
#accurate information and interpretations that are part of, and incident to, the services 
#provided.  However, Halliburton cannot and does not warrant the accuracy 
#or correctness of such information and interpretations.  Under no circumstances should any 
#such information or interpretation be relied upon as the sole basis for any drilling, 
#completion, production, or financial decision or any procedure involving any risk to the 
#safety of any drilling venture, drilling rig or its crew or any other third party.  The 
#Customer has full responsibility for all drilling, completion and production operation.  
#Halliburton makes no representations or warranties, either expressed or 
#implied, including, but not limited to, the implied warranties of merchantability or fitness 
#for a particular purpose, with respect to the services rendered.  In no event will 
#Halliburton be liable for failure to obtain any particular results or for 
#any damages, including, but not limited to, indirect, special or consequential damages, 
#resulting from the use of any information or interpretation provided by Halliburton.
#
~A           TIME            GTET   GTPQH  GTDEPTH  GTTVD  GTTQ  GTTN 
# ...
   08:46:41.006.05-Jan-2021  23.01 7365.96 3625.51 3064.84 80.30 6.00
   08:46:41.206.05-Jan-2021  23.21 7365.96 3625.51 3064.84 80.30 6.00
   08:46:41.406.05-Jan-2021  23.41 7367.93 3625.51 3064.84 80.30 6.00
   08:46:41.607.05-Jan-2021  23.61 7369.07 3625.51 3064.84 80.30 6.00
   08:46:41.807.05-Jan-2021  23.81 7367.36 3625.51 3064.84 80.30 6.00
   08:46:42.007.05-Jan-2021  24.01 7367.83 3625.51 3064.84 80.30 6.00
   08:46:42.207.05-Jan-2021  24.21 7367.83 3625.51 3064.84 80.30 6.00
   08:46:42.407.05-Jan-2021  24.41 7367.05 3625.51 3064.84 80.30 6.00
   08:46:42.607.05-Jan-2021  24.61 7367.09 3625.51 3064.84 80.30 6.00
   08:46:42.807.05-Jan-2021  24.81 7367.72 3625.51 3064.84 80.30 6.00
   08:46:43.007.05-Jan-2021  25.01 7367.70 3625.51 3064.84 80.30 6.00
   08:46:43.207.05-Jan-2021  25.21 7367.70 3625.51 3064.84 80.30 6.00
   08:46:43.407.05-Jan-2021  25.41 7367.63 3625.51 3064.84 80.30 6.00
   08:46:43.607.05-Jan-2021  25.61 7368.18 3625.51 3064.84 80.29 6.00
   08:46:43.807.05-Jan-2021  25.81 7368.41 3625.51 3064.84 80.29 6.00
   08:46:44.007.05-Jan-2021  26.01 7379.26 3625.51 3064.84 80.29 6.00
   08:46:44.207.05-Jan-2021  26.21 7379.26 3625.51 3064.84 80.29 6.00
   08:46:44.408.05-Jan-2021  26.41 7369.09 3625.51 3064.84 80.29 6.00
   08:46:44.608.05-Jan-2021  26.61 7368.49 3625.51 3064.84 80.29 6.00
   08:46:44.808.05-Jan-2021  26.81 7369.07 3625.51 3064.84 80.29 6.00
   08:46:45.008.05-Jan-2021  27.01 7368.42 3625.51 3064.84 80.29 6.00
   08:46:45.208.05-Jan-2021  27.21 7367.72 3625.51 3064.84 80.29 6.00
   08:46:45.408.05-Jan-2021  27.41 7367.86 3625.51 3064.84 80.29 6.00
   08:46:45.608.05-Jan-2021  27.61 7368.07 3625.51 3064.84 80.29 6.00
   08:46:45.808.05-Jan-2021  27.81 7367.39 3625.51 3064.84 80.29 6.00
   08:46:46.008.05-Jan-2021  28.01 7367.85 3625.51 3064.84 80.29 6.00
   08:46:46.208.05-Jan-2021  28.21 7367.85 3625.51 3064.84 80.29 6.00
   08:46:46.408.05-Jan-2021  28.41 7368.37 3625.51 3064.84 80.29 6.00
   08:46:46.608.05-Jan-2021  28.61 7376.65 3625.51 3064.84 80.29 6.00
   08:46:46.808.05-Jan-2021  28.81 7366.27 3625.51 3064.84 80.29 6.00
   08:46:47.009.05-Jan-2021  29.01 7368.14 3625.51 3064.84 80.29 6.00
   08:46:47.209.05-Jan-2021  29.21 7368.14 3625.51 3064.84 80.29 6.00
   08:46:47.409.05-Jan-2021  29.41 7362.13 3625.51 3064.84 80.29 6.00
   08:46:47.609.05-Jan-2021  29.61 7370.60 3625.51 3064.84 80.29 6.00
   08:46:47.809.05-Jan-2021  29.81 7376.91 3625.51 3064.84 80.29 6.00
   08:46:48.009.05-Jan-2021  30.01 7477.75 3625.51 3064.84 80.29 6.00
   08:46:48.209.05-Jan-2021  30.21 7509.11 3625.51 3064.84 80.29 6.00
   08:46:48.409.05-Jan-2021  30.41 7508.13 3625.51 3064.84 80.29 6.00
   08:46:48.609.05-Jan-2021  30.61 7523.00 3625.51 3064.84 80.29 6.00
   08:46:48.809.05-Jan-2021  30.81 7530.42 3625.51 3064.84 80.29 6.00
   08:46:49.009.05-Jan-2021  31.01 7513.37 3625.51 3064.84 80.29 6.00
   08:46:49.209.05-Jan-2021  31.21 7474.38 3625.51 3064.84 80.29 6.00
   08:46:49.409.05-Jan-2021  31.41 7419.38 3625.51 3064.84 80.29 6.00
   08:46:49.610.05-Jan-2021  31.61 7363.71 3625.51 3064.84 80.29 6.00
   08:46:49.810.05-Jan-2021  31.81 7303.68 3625.51 3064.84 80.29 6.00
   08:46:50.010.05-Jan-2021  32.01 7248.49 3625.51 3064.84 80.29 6.00
   08:46:50.210.05-Jan-2021  32.21 7248.49 3625.51 3064.84 80.29 6.00
   08:46:50.410.05-Jan-2021  32.41 7212.11 3625.51 3064.84 80.29 6.00
   08:46:50.610.05-Jan-2021  32.61 7182.68 3625.51 3064.84 80.29 6.00
   08:46:50.810.05-Jan-2021  32.81 7151.03 3625.51 3064.84 80.29 6.00
   08:46:51.010.05-Jan-2021  33.01 7127.17 3625.51 3064.84 80.29 6.00
   08:46:51.210.05-Jan-2021  33.21 7127.17 3625.51 3064.84 80.29 6.00
   08:46:51.410.05-Jan-2021  33.41 7092.58 3625.51 3064.84 80.29 6.00
   08:46:51.610.05-Jan-2021  33.61 7079.12 3625.51 3064.84 80.28 6.00
   08:46:51.810.05-Jan-2021  33.81 7067.82 3625.51 3064.84 80.28 6.00
   08:46:52.010.05-Jan-2021  34.01 7062.26 3625.51 3064.84 80.28 6.00
   08:46:52.210.05-Jan-2021  34.21 7062.26 3625.51 3064.84 80.28 6.00
   08:46:52.411.05-Jan-2021  34.41 7049.51 3625.51 3064.84 80.28 6.00
   08:46:52.611.05-Jan-2021  34.61 7042.33 3625.51 3064.84 80.28 6.00
   08:46:52.811.05-Jan-2021  34.81 7035.96 3625.51 3064.84 80.28 6.00
   08:46:53.011.05-Jan-2021  35.01 7043.82 3625.51 3064.84 80.28 6.00
   08:46:53.211.05-Jan-2021  35.21 7046.16 3625.51 3064.84 80.28 6.00
   08:46:53.411.05-Jan-2021  35.41 7051.43 3625.51 3064.84 80.28 6.00
   08:46:53.611.05-Jan-2021  35.61 6863.47 3625.51 3064.84 80.28 6.00
   08:46:53.811.05-Jan-2021  35.81 6123.43 3625.51 3064.84 80.28 6.00
   08:46:54.011.05-Jan-2021  36.01 5477.37 3625.51 3064.84 80.28 6.00
   08:46:54.211.05-Jan-2021  36.21 5477.37 3625.51 3064.84 80.28 6.00
   08:46:54.411.05-Jan-2021  36.41 4355.08 3625.51 3064.84 80.28 6.00
   08:46:54.611.05-Jan-2021  36.61 3836.74 3625.51 3064.84 80.28 6.00
   08:46:54.811.05-Jan-2021  36.81 3478.92 3625.51 3064.84 80.27 6.00
   08:46:55.012.05-Jan-2021  37.01 3261.02 3625.51 3064.84 80.27 6.00
   08:46:55.212.05-Jan-2021  37.21 3261.02 3625.51 3064.84 80.27 6.00
   08:46:55.412.05-Jan-2021  37.41 3105.03 3625.51 3064.84 80.27 6.00
   08:46:55.612.05-Jan-2021  37.61 3084.87 3625.51 3064.84 80.27 6.00
   08:46:55.812.05-Jan-2021  37.81 3083.87 3625.51 3064.84 80.26 6.00
   08:46:56.012.05-Jan-2021  38.01 3064.13 3625.51 3064.84 80.26 6.00
   08:46:56.212.05-Jan-2021  38.21 3064.13 3625.51 3064.84 80.26 6.00
   08:46:56.412.05-Jan-2021  38.41 3038.60 3625.51 3064.84 80.25 6.00
   08:46:56.612.05-Jan-2021  38.61 3019.68 3625.51 3064.84 80.25 6.00
   08:46:56.812.05-Jan-2021  38.81 3009.81 3625.51 3064.84 80.25 6.00
   08:46:57.012.05-Jan-2021  39.01 2983.40 3625.51 3064.84 80.24 6.00
   08:46:57.212.05-Jan-2021  39.21 2982.69 3625.51 3064.84 80.24 6.00
   08:46:57.412.05-Jan-2021  39.41 2993.41 3625.51 3064.84 80.24 6.00
   08:46:57.612.05-Jan-2021  39.61 2974.96 3625.51 3064.84 80.23 6.00
   08:46:57.813.05-Jan-2021  39.81 2978.45 3625.51 3064.84 80.23 6.00
   08:46:58.013.05-Jan-2021  40.01 2964.23 3625.51 3064.84 80.22 6.00
   08:46:58.213.05-Jan-2021  40.21 2964.23 3625.51 3064.84 80.22 6.00
   08:46:58.413.05-Jan-2021  40.41 2967.98 3625.51 3064.84 80.22 6.00
   08:46:58.613.05-Jan-2021  40.62 2969.54 3625.51 3064.84 80.21 6.00
   08:46:58.813.05-Jan-2021  40.82 2952.57 3625.51 3064.84 80.21 6.00
   08:46:59.013.05-Jan-2021  41.02 3001.14 3625.51 3064.84 80.21 6.00
   08:46:59.213.05-Jan-2021  41.22 3001.14 3625.51 3064.84 80.21 6.00
   08:46:59.413.05-Jan-2021  41.42 3199.70 3625.51 3064.84 80.20 6.00
   08:46:59.613.05-Jan-2021  41.62 3136.38 3625.51 3064.84 80.19 6.00
   08:46:59.813.05-Jan-2021  41.82 3060.61 3625.51 3064.84 80.19 6.00
   08:47:00.013.05-Jan-2021  42.02 3037.30 3625.51 3064.84 80.19 6.00
   08:47:00.213.05-Jan-2021  42.22 3074.12 3625.51 3064.84 80.18 6.00
   08:47:00.414.05-Jan-2021  42.42 3019.25 3625.51 3064.84 80.18 6.00
   08:47:00.614.05-Jan-2021  42.62 3006.94 3625.51 3064.84 80.18 6.00
   08:47:00.814.05-Jan-2021  42.82 3002.21 3625.51 3064.84 80.18 6.00
   08:47:01.014.05-Jan-2021  43.02 2955.80 3625.51 3064.84 80.17 6.00
   08:47:01.214.05-Jan-2021  43.22 2955.80 3625.51 3064.84 80.17 6.00
   08:47:01.414.05-Jan-2021  43.42 2918.93 3625.51 3064.84 80.17 6.00
   08:47:01.614.05-Jan-2021  43.62 2937.34 3625.51 3064.84 80.17 6.00
   08:47:01.814.05-Jan-2021  43.82 2955.90 3625.51 3064.84 80.16 6.00
   08:47:02.014.05-Jan-2021  44.02 2979.86 3625.51 3064.84 80.16 6.00
   08:47:02.214.05-Jan-2021  44.22 2989.78 3625.51 3064.84 80.16 6.00
   08:47:02.414.05-Jan-2021  44.42 3002.10 3625.51 3064.84 80.16 6.00
   08:47:02.614.05-Jan-2021  44.62 3305.61 3625.51 3064.84 80.16 6.00
   08:47:02.814.05-Jan-2021  44.82 3585.28 3625.51 3064.84 80.15 6.00
   08:47:03.014.05-Jan-2021  45.02 3829.12 3625.51 3064.84 80.15 6.00
   08:47:03.215.05-Jan-2021  45.22 3829.12 3625.51 3064.84 80.15 6.00
   08:47:03.415.05-Jan-2021  45.42 4157.50 3625.51 3064.84 80.15 6.00
   08:47:03.615.05-Jan-2021  45.62 4264.18 3625.51 3064.84 80.15 6.00
   08:47:03.815.05-Jan-2021  45.82 4344.75 3625.51 3064.84 80.15 6.00
