~Version Information
 VERS.                  2.0:   CWLS log ASCII Standard -VERSION 2.0
 WRAP.                   NO:   One line per depth step
~Well Information Block
#MNEM.UNIT     VALUE/NAME     DESCRIPTION
#---------     -----------    ---------------------------
 STRT.S             13:40:14 05-Jan-21: START TIME 13:40:14 05-Jan-21
 STOP.S             13:48:27 05-Jan-21: STOP TIME  13:48:27 05-Jan-21
 STEP.S                   0.00: STEP TIME
 NULL.                 -999.25: NULL VALUE
 DFWT.                        :  DIST FWL TEXT
 DFST.                        :  DIST FSL TEXT
 DMF .             Drill Floor:  DRILL MEAS FROM
 STIM.      06.00.00 31-Dec-20:  START TIME
 DATE.      05.58.24 07-Jan-21:  END TIME
 SPUD.               24-Dec-20:  SPUD DATE
 NREF.                    Grid:  NORTH REFERENCE
 HPTY.       Minimum Curvature:  HOLE POS TYPE
 DMOD.             Drill Model:  DRILL MOD DESC
 SVYD.                  Survey:  SURVEY DESC
 ILTD.               Lithology:  INTERP LTH DESC
 FTOP.          Formation Tops:  FORM TOPS DESC
 SON .        AZ-XX-0906699554:  JOB NUMBER
 WELL.                    B09z:  WELL NAME
 PDAT.          Mean Sea Level:  PERMANENT DATUM
 FLD .                     ACG:  FIELD NAME
 CTRY.              Azerbaijan:  COUNTRY NAME
 COMP.     BP Exploration (Caspian Sea) Ltd.:  COMPANY
 UWI .                     N/A:  UNIQUE WELL IDENTIFIER
 API .                     N/A:  API NUMBER
 WTYP.                Deviated:  WELL TYPE
 MDS .        Operator Entered:  MAG DATA SOURCE
 BASE.              Azerbaijan:  LOGGING EQUIPMENT BASE LOCATION
 REGN.                   EESSA:  REGION
 PROV.                    Baku:  PROVINCE
 STAT.                    Baku:  STATE NAME
 SRVC.          Turan Drilling:  CONTRACTOR
 MWDS.                    Baku:  MWD SHOP
 JOBN.        AZ-XX-0906699554:  JOB TICKET NUMB
 RIG .           Central Azeri:  RIG NAME
 DOE .                     N/A:  DOE NUMBER
 DCON.         Sperry Drilling:  DIRECTNL CONTR
 UNIT.                     N/A:  LOGGING EQUIPMENT ID
 CNTY.                        :  COUNTY
 LOC .                        :  LOCATION
 LMF .             Drill Floor:  LOG MEASURED FROM
 TVDS.m                  43.29:  TVDSS CORRECTN
 LATI.deg                40.03:  LATITUDE
 LONG.deg                51.35:  LONGITUDE
 WHNS.m                  -2.76:  WELL HEAD N/S
 WHEW.m                  -7.70:  WELL HEAD E/W
 UTMX.m              530128.28:  UTM X
 UTMY.m             4433192.49:  UTM Y
 DFWL.m                   0.00:  DISTANCE FWL
 DFSL.m                   0.00:  DISTANCE FSL
 SDEP.m                3435.01:  START DEPTH
 TDD .m                3814.01:  TOTAL DEPTH (DRILLER)
 VSDR.deg               352.80:  VERT SEC DIRECT
 GVFD.g                   1.00:  GRAVITY FIELD
 MFLD.nT              50303.00:  MAGNETIC FIELD
 MDIP.deg                59.52:  MAGNETIC DIP
 MDEC.deg                 6.47:  MAGNETIC DECL
 GRDC.deg                 0.23:  GRID CORRECTION
 AZTC.deg                 6.24:  AZM TOTAL CORR
 EPD .m                   0.00:  ELEVATION
 EGL .m                   0.00:  GROUND ELEVATION
 WDMS.m                 128.20:  WD ELEV
 APD .m                  43.29:  DEPTH ABOVE PD
 DEP .m                3421.30:  DEPTH
 AGAP.m                  43.60:  AIR GAP
 VSEW.m                  -7.70:  VERT SEC E/W
 VSNS.m                  -2.76:  VERT SEC N/S
 EKB .m                   0.00:  KB ELEVATION
 EDF .m                  43.29:  DF ELEVATION
 TDL .m                 369.00:  TOTAL DEPTH (LOGGER)
 VSC .                       0:  VS TO CLOSURE
 MAGU.                 1850390:  MAGUTM CHECKSUM
~Parameter Information Block
#MNEM.UNIT       Value        Description
#---------     -----------    ---------------------------
 AV  .mps                 2.80:  Ann Velocity 
 AVMX.mps                 4.67:  Max Ann Veloc 
 AZIF.deg               303.89:  Azm, Final 
 BHAT.        Rotary Steerable:  BHA Type 
 BREV.rev            128542.00:  Rev Bit Total 
 BROT.°/30m               1.50:  Build Rotating 
 BS  .in                  8.50:  Bit Size 
 BSZ .in                  8.50:  Bit Size 
 BTPL.psig              715.00:  Bit Press Loss 
 CABU.                      No:  Customer Abuse 
 COMM.                     t6w:  Run Comments 1 
 TCS .hr                 53.00:  Time Ciculation Ended 
 CV  .mps                 3.85:  Crit Velocity 
 CVMX.mps                 4.75:  Max Crit Veloc 
 DD1 .         Intigam Rahimov:  Direct Drillr 1 
 DDSV.                 iCruise:  DD Service 
 DEFF.%                  98.60:  % Det Eff 
 DLRX.°/30m               2.34:  Dogleg Rot Max 
 DLSO.°/30m               0.00:  Dogleg Oriented 
 DLSX.°/30m               0.00:  Dogleg Str Max 
 DRET.      00.15.00 05-Jan-21:  Drill End Time 
 DRST.      22.00.00 03-Jan-21:  Drill Start Tim 
 DTIM.hr                 17.72:  Time Drilling 
 EDEP.m                3814.01:  End Depth 
 ENG1.         Yevgeniy Ulikov:  Engineer 1 
 ENG2.        Farkhad Khalidov:  Engineer 2 
 ENG3.           Samir Gafarov:  Engineer 3 
 ETIM.      21.00.00 07-Jan-21:  End Time 
 FLOI.gpm               590.00:  Flow In 
 FLON.gpm               580.00:  Flow In Min 
 FLOS.cptm                1.00:  Fluid Loss 
 FLOX.gpm               595.00:  Flow In Max 
 FTRO.     Connectivity, Formation Presure:  FTWD Run Obj 
 HFLO.                      No:  High Flow 
 HPRE.                     Yes:  High Pressure 
 HTEM.                      No:  High Temp 
 HYDO.m                   1.80:  Hydro Offset 
 IFIN.deg                63.76:  Inc, Final 
 IMAX.deg                64.09:  Inc Max 
 IMIN.deg                55.81:  Inc Min 
 IMND.m                3455.62:  Inc Min Depth 
 IMXD.m                3796.03:  Inc Max Depth 
 JARR.                      No:  Jarring 
 LETM.      00.15.00 05-Jan-21:  Log End Time 
 LOST.hr                     0:  Lost Rig Time 
 LSTM.      22.00.00 03-Jan-21:  Log Start Time 
 MDCL.ppm             36000.00:  Mud Chlorides 
 MDES.     Inversion Oil/Synthetic:  Mud Desc 
 DFD .sg                  1.51:  Mud Density 
 MDMN.sg                  1.51:  Dens Mud Min 
 MDMX.sg                  1.51:  Dens Mud Max 
 MOIL.                    55.5:  Run Mud Oil % 
 MOWR.                   70:30:  Run Mud OWR 
 MSND.                     0.1:  Run Mud Sand % 
 MSOL.                   20.77:  Run Mud Solids% 
 DFV .spqt               67.00:  Mud Viscosity 
 MWOD.in                  6.75:  MWD Tool OD 
 MWSI.                      No:  Serv Intrp, MWD 
 OTIM.hr                113.53:  Time Operating 
 PCON.           Look Like New:  Pad Condition 
 PMAX.psia             4830.00:  Press Op, Max 
 PV  .cP                 29.00:  Mud PV 
 RUN .                     300:  Run Number 
 ROPA.m/hr               22.00:  ROP Avg 
 ROPN.m/hr               18.00:  ROP Min 
 ROPX.m/hr               25.00:  ROP Max 
 RPMA.rpm               130.00:  RPM Surface Avg 
 RPMN.rpm                80.00:  RPM Surface Min 
 RPMX.rpm               140.00:  RPM Surface Max 
 RRUN.                    L101:  Rig Run Number 
 RTIM.hr                  9.28:  Time Reaming 
 SAZI.deg               316.55:  Azm, Start 
 SDEP.m                3445.01:  Start Depth 
 SIDD.                      No:  Serv Intrp, DD 
 SINC.deg                55.81:  Inc, Start 
 SPPA.psig             4500.00:  SPP Avg 
 SPPN.psig             4350.00:  SPP Min 
 SPPX.psig             4830.00:  SPP Max 
 STIM.      00.00.00 03-Jan-21:  Start Time 
 SVCS.                 DD, MWD:  Services 
 SVER.                    9.20:  Sperry Version 
 TDAT.m                 369.00:  Tot Depth Attmp 
 TDDF.                      No:  Trip for DD 
 TDLG.m                 369.00:  Tot Depth Loggd 
 TFF .                      No:  Trip for Fail 
 TQAA.f-kp               15.00:  Torque Abs Avg 
 TQAN.f-kp               12.00:  Torque Abs Min 
 TQAX.f-kp               16.00:  Torque Abs Max 
 TRRT.°/30m              -2.10:  Turn Rotating 
 MRT .                    HCIM:  Maximum Recorded Temperature 
 TTMX.degC               92.16:  Max Tool Temp 
 VS01.                90627822:  Virtual Str1 SN 
 VS02.                90550008:  Virtual Str2 SN 
 VS03.                90627816:  Virtual Str3 SN 
 VS04.                90633205:  Virtual Str4 SN 
 VS05.                13033835:  Virtual Str5 SN 
 VS06.                11125125:  Virtual Str6 SN 
 WBMN.klb                 8.00:  WOB Min 
 WITN.            Bruce Cheyne:  Customer Rep 
 WITN.           Faig Mammadov:  Customer Rep 2 
 WOBA.klb                 9.00:  WOB Avg 
 WOBX.klb                12.00:  WOB Max 
 YP  .lhf2               30.00:  Yield Point 
~Curve Information Block
#MNEM.UNIT                 API CODE     Curve Description
#---------               -----------    ---------------------------
 TIME.HHMMSS            00 000 000 000:  GT Time & Date
 GTET.sec               00 000 000 000:  GT Elapsed Test Time
 GTPQH.psia             00 000 000 000:  GT HR Quartz Pressure
 GTDEPTH.m              00 000 000 000:  GT Depth
 GTTVD.m                00 000 000 000:  GT True Vertical Depth
 GTTQ.degC              00 000 000 000:  GT Quartz Temperature
 GTTN.NONE              00 000 000 000:  GT Test Number
#Other Information
#
#WARRANTY: Halliburton will use its best efforts to furnish customers with 
#accurate information and interpretations that are part of, and incident to, the services 
#provided.  However, Halliburton cannot and does not warrant the accuracy 
#or correctness of such information and interpretations.  Under no circumstances should any 
#such information or interpretation be relied upon as the sole basis for any drilling, 
#completion, production, or financial decision or any procedure involving any risk to the 
#safety of any drilling venture, drilling rig or its crew or any other third party.  The 
#Customer has full responsibility for all drilling, completion and production operation.  
#Halliburton makes no representations or warranties, either expressed or 
#implied, including, but not limited to, the implied warranties of merchantability or fitness 
#for a particular purpose, with respect to the services rendered.  In no event will 
#Halliburton be liable for failure to obtain any particular results or for 
#any damages, including, but not limited to, indirect, special or consequential damages, 
#resulting from the use of any information or interpretation provided by Halliburton.
#
~A           TIME            GTET   GTPQH  GTDEPTH  GTTVD  GTTQ  GTTN 
# ...
   13:42:09.995.05-Jan-2021 115.06 4884.21 3494.01 2996.09 77.87 7.00
   13:42:10.195.05-Jan-2021 115.26 4884.21 3494.01 2996.09 77.87 7.00
   13:42:10.395.05-Jan-2021 115.46 4883.97 3494.01 2996.09 77.87 7.00
   13:42:10.595.05-Jan-2021 115.66 4883.69 3494.01 2996.09 77.87 7.00
   13:42:10.795.05-Jan-2021 115.86 4884.51 3494.01 2996.09 77.87 7.00
   13:42:10.995.05-Jan-2021 116.06 4884.01 3494.01 2996.09 77.87 7.00
   13:42:11.195.05-Jan-2021 116.26 4884.01 3494.01 2996.09 77.87 7.00
   13:42:11.396.05-Jan-2021 116.46 4883.96 3494.01 2996.09 77.87 7.00
   13:42:11.596.05-Jan-2021 116.66 4884.28 3494.01 2996.09 77.87 7.00
   13:42:11.796.05-Jan-2021 116.86 4884.09 3494.01 2996.09 77.88 7.00
   13:42:11.996.05-Jan-2021 117.06 4884.36 3494.01 2996.09 77.88 7.00
   13:42:12.196.05-Jan-2021 117.27 4884.36 3494.01 2996.09 77.88 7.00
   13:42:12.396.05-Jan-2021 117.47 4883.99 3494.01 2996.09 77.88 7.00
   13:42:12.596.05-Jan-2021 117.67 4884.32 3494.01 2996.09 77.88 7.00
   13:42:12.796.05-Jan-2021 117.87 4883.87 3494.01 2996.09 77.88 7.00
   13:42:12.996.05-Jan-2021 118.07 4884.14 3494.01 2996.09 77.88 7.00
   13:42:13.197.05-Jan-2021 118.27 4884.09 3494.01 2996.09 77.88 7.00
   13:42:13.397.05-Jan-2021 118.47 4884.25 3494.01 2996.09 77.88 7.00
   13:42:13.597.05-Jan-2021 118.67 4884.14 3494.01 2996.09 77.88 7.00
   13:42:13.797.05-Jan-2021 118.87 4884.36 3494.01 2996.09 77.88 7.00
   13:42:13.997.05-Jan-2021 119.07 4884.08 3494.01 2996.09 77.88 7.00
   13:42:14.197.05-Jan-2021 119.27 4884.08 3494.01 2996.09 77.88 7.00
   13:42:14.397.05-Jan-2021 119.47 4884.14 3494.01 2996.09 77.88 7.00
   13:42:14.597.05-Jan-2021 119.67 4884.26 3494.01 2996.09 77.88 7.00
   13:42:14.797.05-Jan-2021 119.87 4884.28 3494.01 2996.09 77.88 7.00
   13:42:14.998.05-Jan-2021 120.07 4884.22 3494.01 2996.09 77.88 7.00
   13:42:15.198.05-Jan-2021 120.27 4884.22 3494.01 2996.09 77.88 7.00
   13:42:15.398.05-Jan-2021 120.47 4884.30 3494.01 2996.09 77.88 7.00
   13:42:15.598.05-Jan-2021 120.67 4884.14 3494.01 2996.09 77.88 7.00
   13:42:15.798.05-Jan-2021 120.87 4884.23 3494.01 2996.09 77.88 7.00
   13:42:15.998.05-Jan-2021 121.07 4884.14 3494.01 2996.09 77.88 7.00
   13:42:16.198.05-Jan-2021 121.27 4884.13 3494.01 2996.09 77.88 7.00
   13:42:16.398.05-Jan-2021 121.47 4884.13 3494.01 2996.09 77.88 7.00
   13:42:16.598.05-Jan-2021 121.67 4884.32 3494.01 2996.09 77.88 7.00
   13:42:16.799.05-Jan-2021 121.87 4884.14 3494.01 2996.09 77.88 7.00
   13:42:16.999.05-Jan-2021 122.07 4884.17 3494.01 2996.09 77.88 7.00
   13:42:17.199.05-Jan-2021 122.27 4884.17 3494.01 2996.09 77.88 7.00
   13:42:17.399.05-Jan-2021 122.47 4884.22 3494.01 2996.09 77.88 7.00
   13:42:17.599.05-Jan-2021 122.67 4884.17 3494.01 2996.09 77.88 7.00
   13:42:17.799.05-Jan-2021 122.87 4884.25 3494.01 2996.09 77.88 7.00
   13:42:17.999.05-Jan-2021 123.07 4884.11 3494.01 2996.09 77.88 7.00
   13:42:18.199.05-Jan-2021 123.27 4884.12 3494.01 2996.09 77.88 7.00
   13:42:18.399.05-Jan-2021 123.47 4884.08 3494.01 2996.09 77.88 7.00
   13:42:18.600.05-Jan-2021 123.67 4884.29 3494.01 2996.09 77.88 7.00
   13:42:18.800.05-Jan-2021 123.87 4884.04 3494.01 2996.09 77.88 7.00
   13:42:19.000.05-Jan-2021 124.07 4884.48 3494.01 2996.09 77.88 7.00
   13:42:19.200.05-Jan-2021 124.27 4884.48 3494.01 2996.09 77.88 7.00
   13:42:19.400.05-Jan-2021 124.47 4884.70 3494.01 2996.09 77.88 7.00
   13:42:19.600.05-Jan-2021 124.67 4884.25 3494.01 2996.09 77.88 7.00
   13:42:19.800.05-Jan-2021 124.87 4884.26 3494.01 2996.09 77.88 7.00
   13:42:20.000.05-Jan-2021 125.07 4883.77 3494.01 2996.09 77.88 7.00
   13:42:20.200.05-Jan-2021 125.27 4884.23 3494.01 2996.09 77.88 7.00
   13:42:20.401.05-Jan-2021 125.47 4884.50 3494.01 2996.09 77.88 7.00
   13:42:20.601.05-Jan-2021 125.67 4884.29 3494.01 2996.09 77.88 7.00
   13:42:20.801.05-Jan-2021 125.87 4884.38 3494.01 2996.09 77.88 7.00
   13:42:21.001.05-Jan-2021 126.07 4884.32 3494.01 2996.09 77.88 7.00
   13:42:21.201.05-Jan-2021 126.27 4884.02 3494.01 2996.09 77.88 7.00
   13:42:21.401.05-Jan-2021 126.47 4884.12 3494.01 2996.09 77.88 7.00
   13:42:21.601.05-Jan-2021 126.67 4884.16 3494.01 2996.09 77.88 7.00
   13:42:21.801.05-Jan-2021 126.87 4884.17 3494.01 2996.09 77.88 7.00
   13:42:22.001.05-Jan-2021 127.07 4884.30 3494.01 2996.09 77.88 7.00
   13:42:22.202.05-Jan-2021 127.27 4884.54 3494.01 2996.09 77.88 7.00
   13:42:22.402.05-Jan-2021 127.47 4883.97 3494.01 2996.09 77.88 7.00
   13:42:22.602.05-Jan-2021 127.67 4883.97 3494.01 2996.09 77.89 7.00
   13:42:22.802.05-Jan-2021 127.87 4884.18 3494.01 2996.09 77.88 7.00
   13:42:23.002.05-Jan-2021 128.07 4883.91 3494.01 2996.09 77.89 7.00
   13:42:23.202.05-Jan-2021 128.27 4884.49 3494.01 2996.09 77.89 7.00
   13:42:23.402.05-Jan-2021 128.47 4884.48 3494.01 2996.09 77.89 7.00
   13:42:23.602.05-Jan-2021 128.67 4884.22 3494.01 2996.09 77.89 7.00
   13:42:23.802.05-Jan-2021 128.87 4883.92 3494.01 2996.09 77.89 7.00
   13:42:24.003.05-Jan-2021 129.07 4884.08 3494.01 2996.09 77.89 7.00
   13:42:24.203.05-Jan-2021 129.27 4884.08 3494.01 2996.09 77.89 7.00
   13:42:24.403.05-Jan-2021 129.47 4883.36 3494.01 2996.09 77.89 7.00
   13:42:24.603.05-Jan-2021 129.67 4884.36 3494.01 2996.09 77.89 7.00
   13:42:24.803.05-Jan-2021 129.87 4884.19 3494.01 2996.09 77.89 7.00
   13:42:25.003.05-Jan-2021 130.07 4884.24 3494.01 2996.09 77.89 7.00
   13:42:25.203.05-Jan-2021 130.27 4884.24 3494.01 2996.09 77.89 7.00
   13:42:25.403.05-Jan-2021 130.47 4884.02 3494.01 2996.09 77.89 7.00
   13:42:25.603.05-Jan-2021 130.67 4884.40 3494.01 2996.09 77.89 7.00
   13:42:25.804.05-Jan-2021 130.87 4884.01 3494.01 2996.09 77.89 7.00
   13:42:26.004.05-Jan-2021 131.07 4884.32 3494.01 2996.09 77.89 7.00
   13:42:26.204.05-Jan-2021 131.27 4884.32 3494.01 2996.09 77.89 7.00
   13:42:26.404.05-Jan-2021 131.47 4884.68 3494.01 2996.09 77.89 7.00
   13:42:26.604.05-Jan-2021 131.67 4884.09 3494.01 2996.09 77.89 7.00
   13:42:26.804.05-Jan-2021 131.87 4884.00 3494.01 2996.09 77.89 7.00
   13:42:27.004.05-Jan-2021 132.07 4884.00 3494.01 2996.09 77.89 7.00
   13:42:27.204.05-Jan-2021 132.27 4884.48 3494.01 2996.09 77.89 7.00
   13:42:27.404.05-Jan-2021 132.47 4884.23 3494.01 2996.09 77.89 7.00
   13:42:27.605.05-Jan-2021 132.67 4883.72 3494.01 2996.09 77.89 7.00
   13:42:27.805.05-Jan-2021 132.87 4884.54 3494.01 2996.09 77.89 7.00
   13:42:28.005.05-Jan-2021 133.07 4884.21 3494.01 2996.09 77.89 7.00
   13:42:28.205.05-Jan-2021 133.27 4884.30 3494.01 2996.09 77.89 7.00
   13:42:28.405.05-Jan-2021 133.47 4884.09 3494.01 2996.09 77.89 7.00
   13:42:28.605.05-Jan-2021 133.67 4884.22 3494.01 2996.09 77.89 7.00
   13:42:28.805.05-Jan-2021 133.87 4884.18 3494.01 2996.09 77.89 7.00
   13:42:29.005.05-Jan-2021 134.07 4884.19 3494.01 2996.09 77.89 7.00
   13:42:29.205.05-Jan-2021 134.27 4884.19 3494.01 2996.09 77.89 7.00
   13:42:29.406.05-Jan-2021 134.47 4884.00 3494.01 2996.09 77.89 7.00
   13:42:29.606.05-Jan-2021 134.67 4884.15 3494.01 2996.09 77.89 7.00
   13:42:29.806.05-Jan-2021 134.87 4884.10 3494.01 2996.09 77.89 7.00
   13:42:30.006.05-Jan-2021 135.07 4884.06 3494.01 2996.09 77.89 7.00
   13:42:30.206.05-Jan-2021 135.28 4884.06 3494.01 2996.09 77.89 7.00
   13:42:30.406.05-Jan-2021 135.48 4884.00 3494.01 2996.09 77.89 7.00
   13:42:30.606.05-Jan-2021 135.68 4884.65 3494.01 2996.09 77.89 7.00
   13:42:30.806.05-Jan-2021 135.88 4884.40 3494.01 2996.09 77.89 7.00
   13:42:31.006.05-Jan-2021 136.08 4884.14 3494.01 2996.09 77.89 7.00
   13:42:31.207.05-Jan-2021 136.28 4883.98 3494.01 2996.09 77.89 7.00
   13:42:31.407.05-Jan-2021 136.48 4883.51 3494.01 2996.09 77.89 7.00
   13:42:31.607.05-Jan-2021 136.68 4884.62 3494.01 2996.09 77.89 7.00
   13:42:31.807.05-Jan-2021 136.88 4884.63 3494.01 2996.09 77.89 7.00
   13:42:32.007.05-Jan-2021 137.08 4884.17 3494.01 2996.09 77.89 7.00
   13:42:32.207.05-Jan-2021 137.28 4884.36 3494.01 2996.09 77.89 7.00
   13:42:32.407.05-Jan-2021 137.48 4884.42 3494.01 2996.09 77.89 7.00
   13:42:32.607.05-Jan-2021 137.68 4884.22 3494.01 2996.09 77.89 7.00
   13:42:32.807.05-Jan-2021 137.88 4884.20 3494.01 2996.09 77.89 7.00
