~Version Information
 VERS.                  2.0:   CWLS log ASCII Standard -VERSION 2.0
 WRAP.                   NO:   One line per depth step
~Well Information Block
#MNEM.UNIT     VALUE/NAME     DESCRIPTION
#---------     -----------    ---------------------------
 STRT.S             08:18:37 05-Jan-21: START TIME 08:18:37 05-Jan-21
 STOP.S             08:26:49 05-Jan-21: STOP TIME  08:26:49 05-Jan-21
 STEP.S                   0.00: STEP TIME
 NULL.                 -999.25: NULL VALUE
 DFWT.                        :  DIST FWL TEXT
 DFST.                        :  DIST FSL TEXT
 DMF .             Drill Floor:  DRILL MEAS FROM
 STIM.      06.00.00 31-Dec-20:  START TIME
 DATE.      05.58.24 07-Jan-21:  END TIME
 SPUD.               24-Dec-20:  SPUD DATE
 NREF.                    Grid:  NORTH REFERENCE
 HPTY.       Minimum Curvature:  HOLE POS TYPE
 DMOD.             Drill Model:  DRILL MOD DESC
 SVYD.                  Survey:  SURVEY DESC
 ILTD.               Lithology:  INTERP LTH DESC
 FTOP.          Formation Tops:  FORM TOPS DESC
 SON .        AZ-XX-0906699554:  JOB NUMBER
 WELL.                    B09z:  WELL NAME
 PDAT.          Mean Sea Level:  PERMANENT DATUM
 FLD .                     ACG:  FIELD NAME
 CTRY.              Azerbaijan:  COUNTRY NAME
 COMP.     BP Exploration (Caspian Sea) Ltd.:  COMPANY
 UWI .                     N/A:  UNIQUE WELL IDENTIFIER
 API .                     N/A:  API NUMBER
 WTYP.                Deviated:  WELL TYPE
 MDS .        Operator Entered:  MAG DATA SOURCE
 BASE.              Azerbaijan:  LOGGING EQUIPMENT BASE LOCATION
 REGN.                   EESSA:  REGION
 PROV.                    Baku:  PROVINCE
 STAT.                    Baku:  STATE NAME
 SRVC.          Turan Drilling:  CONTRACTOR
 MWDS.                    Baku:  MWD SHOP
 JOBN.        AZ-XX-0906699554:  JOB TICKET NUMB
 RIG .           Central Azeri:  RIG NAME
 DOE .                     N/A:  DOE NUMBER
 DCON.         Sperry Drilling:  DIRECTNL CONTR
 UNIT.                     N/A:  LOGGING EQUIPMENT ID
 CNTY.                        :  COUNTY
 LOC .                        :  LOCATION
 LMF .             Drill Floor:  LOG MEASURED FROM
 TVDS.m                  43.29:  TVDSS CORRECTN
 LATI.deg                40.03:  LATITUDE
 LONG.deg                51.35:  LONGITUDE
 WHNS.m                  -2.76:  WELL HEAD N/S
 WHEW.m                  -7.70:  WELL HEAD E/W
 UTMX.m              530128.28:  UTM X
 UTMY.m             4433192.49:  UTM Y
 DFWL.m                   0.00:  DISTANCE FWL
 DFSL.m                   0.00:  DISTANCE FSL
 SDEP.m                3435.01:  START DEPTH
 TDD .m                3814.01:  TOTAL DEPTH (DRILLER)
 VSDR.deg               352.80:  VERT SEC DIRECT
 GVFD.g                   1.00:  GRAVITY FIELD
 MFLD.nT              50303.00:  MAGNETIC FIELD
 MDIP.deg                59.52:  MAGNETIC DIP
 MDEC.deg                 6.47:  MAGNETIC DECL
 GRDC.deg                 0.23:  GRID CORRECTION
 AZTC.deg                 6.24:  AZM TOTAL CORR
 EPD .m                   0.00:  ELEVATION
 EGL .m                   0.00:  GROUND ELEVATION
 WDMS.m                 128.20:  WD ELEV
 APD .m                  43.29:  DEPTH ABOVE PD
 DEP .m                3421.30:  DEPTH
 AGAP.m                  43.60:  AIR GAP
 VSEW.m                  -7.70:  VERT SEC E/W
 VSNS.m                  -2.76:  VERT SEC N/S
 EKB .m                   0.00:  KB ELEVATION
 EDF .m                  43.29:  DF ELEVATION
 TDL .m                 369.00:  TOTAL DEPTH (LOGGER)
 VSC .                       0:  VS TO CLOSURE
 MAGU.                 1850390:  MAGUTM CHECKSUM
~Parameter Information Block
#MNEM.UNIT       Value        Description
#---------     -----------    ---------------------------
 AV  .mps                 2.80:  Ann Velocity 
 AVMX.mps                 4.67:  Max Ann Veloc 
 AZIF.deg               303.89:  Azm, Final 
 BHAT.        Rotary Steerable:  BHA Type 
 BREV.rev            128542.00:  Rev Bit Total 
 BROT.°/30m               1.50:  Build Rotating 
 BS  .in                  8.50:  Bit Size 
 BSZ .in                  8.50:  Bit Size 
 BTPL.psig              715.00:  Bit Press Loss 
 CABU.                      No:  Customer Abuse 
 COMM.                     ¤’i:  Run Comments 1 
 TCS .hr                 53.00:  Time Ciculation Ended 
 CV  .mps                 3.85:  Crit Velocity 
 CVMX.mps                 4.75:  Max Crit Veloc 
 DD1 .         Intigam Rahimov:  Direct Drillr 1 
 DDSV.                 iCruise:  DD Service 
 DEFF.%                  98.60:  % Det Eff 
 DLRX.°/30m               2.34:  Dogleg Rot Max 
 DLSO.°/30m               0.00:  Dogleg Oriented 
 DLSX.°/30m               0.00:  Dogleg Str Max 
 DRET.      00.15.00 05-Jan-21:  Drill End Time 
 DRST.      22.00.00 03-Jan-21:  Drill Start Tim 
 DTIM.hr                 17.72:  Time Drilling 
 EDEP.m                3814.01:  End Depth 
 ENG1.         Yevgeniy Ulikov:  Engineer 1 
 ENG2.        Farkhad Khalidov:  Engineer 2 
 ENG3.           Samir Gafarov:  Engineer 3 
 ETIM.      21.00.00 07-Jan-21:  End Time 
 FLOI.gpm               590.00:  Flow In 
 FLON.gpm               580.00:  Flow In Min 
 FLOS.cptm                1.00:  Fluid Loss 
 FLOX.gpm               595.00:  Flow In Max 
 FTRO.     Connectivity, Formation Presure:  FTWD Run Obj 
 HFLO.                      No:  High Flow 
 HPRE.                     Yes:  High Pressure 
 HTEM.                      No:  High Temp 
 HYDO.m                   1.80:  Hydro Offset 
 IFIN.deg                63.76:  Inc, Final 
 IMAX.deg                64.09:  Inc Max 
 IMIN.deg                55.81:  Inc Min 
 IMND.m                3455.62:  Inc Min Depth 
 IMXD.m                3796.03:  Inc Max Depth 
 JARR.                      No:  Jarring 
 LETM.      00.15.00 05-Jan-21:  Log End Time 
 LOST.hr                     0:  Lost Rig Time 
 LSTM.      22.00.00 03-Jan-21:  Log Start Time 
 MDCL.ppm             36000.00:  Mud Chlorides 
 MDES.     Inversion Oil/Synthetic:  Mud Desc 
 DFD .sg                  1.51:  Mud Density 
 MDMN.sg                  1.51:  Dens Mud Min 
 MDMX.sg                  1.51:  Dens Mud Max 
 MOIL.                    55.5:  Run Mud Oil % 
 MOWR.                   70:30:  Run Mud OWR 
 MSND.                     0.1:  Run Mud Sand % 
 MSOL.                   20.77:  Run Mud Solids% 
 DFV .spqt               67.00:  Mud Viscosity 
 MWOD.in                  6.75:  MWD Tool OD 
 MWSI.                      No:  Serv Intrp, MWD 
 OTIM.hr                113.53:  Time Operating 
 PCON.           Look Like New:  Pad Condition 
 PMAX.psia             4830.00:  Press Op, Max 
 PV  .cP                 29.00:  Mud PV 
 RUN .                     300:  Run Number 
 ROPA.m/hr               22.00:  ROP Avg 
 ROPN.m/hr               18.00:  ROP Min 
 ROPX.m/hr               25.00:  ROP Max 
 RPMA.rpm               130.00:  RPM Surface Avg 
 RPMN.rpm                80.00:  RPM Surface Min 
 RPMX.rpm               140.00:  RPM Surface Max 
 RRUN.                    L101:  Rig Run Number 
 RTIM.hr                  9.28:  Time Reaming 
 SAZI.deg               316.55:  Azm, Start 
 SDEP.m                3445.01:  Start Depth 
 SIDD.                      No:  Serv Intrp, DD 
 SINC.deg                55.81:  Inc, Start 
 SPPA.psig             4500.00:  SPP Avg 
 SPPN.psig             4350.00:  SPP Min 
 SPPX.psig             4830.00:  SPP Max 
 STIM.      00.00.00 03-Jan-21:  Start Time 
 SVCS.                 DD, MWD:  Services 
 SVER.                    9.20:  Sperry Version 
 TDAT.m                 369.00:  Tot Depth Attmp 
 TDDF.                      No:  Trip for DD 
 TDLG.m                 369.00:  Tot Depth Loggd 
 TFF .                      No:  Trip for Fail 
 TQAA.f-kp               15.00:  Torque Abs Avg 
 TQAN.f-kp               12.00:  Torque Abs Min 
 TQAX.f-kp               16.00:  Torque Abs Max 
 TRRT.°/30m              -2.10:  Turn Rotating 
 MRT .                    HCIM:  Maximum Recorded Temperature 
 TTMX.degC               92.16:  Max Tool Temp 
 VS01.                90627822:  Virtual Str1 SN 
 VS02.                90550008:  Virtual Str2 SN 
 VS03.                90627816:  Virtual Str3 SN 
 VS04.                90633205:  Virtual Str4 SN 
 VS05.                13033835:  Virtual Str5 SN 
 VS06.                11125125:  Virtual Str6 SN 
 WBMN.klb                 8.00:  WOB Min 
 WITN.            Bruce Cheyne:  Customer Rep 
 WITN.           Faig Mammadov:  Customer Rep 2 
 WOBA.klb                 9.00:  WOB Avg 
 WOBX.klb                12.00:  WOB Max 
 YP  .lhf2               30.00:  Yield Point 
~Curve Information Block
#MNEM.UNIT                 API CODE     Curve Description
#---------               -----------    ---------------------------
 TIME.HHMMSS            00 000 000 000:  GT Time & Date
 GTET.sec               00 000 000 000:  GT Elapsed Test Time
 GTPQH.psia             00 000 000 000:  GT HR Quartz Pressure
 GTDEPTH.m              00 000 000 000:  GT Depth
 GTTVD.m                00 000 000 000:  GT True Vertical Depth
 GTTQ.degC              00 000 000 000:  GT Quartz Temperature
 GTTN.NONE              00 000 000 000:  GT Test Number
#Other Information
#
#WARRANTY: Halliburton will use its best efforts to furnish customers with 
#accurate information and interpretations that are part of, and incident to, the services 
#provided.  However, Halliburton cannot and does not warrant the accuracy 
#or correctness of such information and interpretations.  Under no circumstances should any 
#such information or interpretation be relied upon as the sole basis for any drilling, 
#completion, production, or financial decision or any procedure involving any risk to the 
#safety of any drilling venture, drilling rig or its crew or any other third party.  The 
#Customer has full responsibility for all drilling, completion and production operation.  
#Halliburton makes no representations or warranties, either expressed or 
#implied, including, but not limited to, the implied warranties of merchantability or fitness 
#for a particular purpose, with respect to the services rendered.  In no event will 
#Halliburton be liable for failure to obtain any particular results or for 
#any damages, including, but not limited to, indirect, special or consequential damages, 
#resulting from the use of any information or interpretation provided by Halliburton.
#
~A           TIME            GTET   GTPQH  GTDEPTH  GTTVD  GTTQ  GTTN 
# ...
   08:22:50.475.05-Jan-2021 253.09 4455.52 3649.01 3076.03 80.46 5.00
   08:22:50.675.05-Jan-2021 253.29 4455.52 3649.01 3076.03 80.46 5.00
   08:22:50.876.05-Jan-2021 253.49 4455.49 3649.01 3076.03 80.46 5.00
   08:22:51.076.05-Jan-2021 253.69 4455.40 3649.01 3076.03 80.46 5.00
   08:22:51.276.05-Jan-2021 253.89 4455.64 3649.01 3076.03 80.46 5.00
   08:22:51.476.05-Jan-2021 254.09 4455.54 3649.01 3076.03 80.46 5.00
   08:22:51.676.05-Jan-2021 254.29 4455.54 3649.01 3076.03 80.46 5.00
   08:22:51.876.05-Jan-2021 254.49 4455.58 3649.01 3076.03 80.46 5.00
   08:22:52.076.05-Jan-2021 254.69 4455.40 3649.01 3076.03 80.46 5.00
   08:22:52.276.05-Jan-2021 254.89 4455.48 3649.01 3076.03 80.46 5.00
   08:22:52.476.05-Jan-2021 255.09 4455.58 3649.01 3076.03 80.46 5.00
   08:22:52.676.05-Jan-2021 255.29 4455.58 3649.01 3076.03 80.46 5.00
   08:22:52.876.05-Jan-2021 255.49 4455.53 3649.01 3076.03 80.46 5.00
   08:22:53.076.05-Jan-2021 255.69 4455.47 3649.01 3076.03 80.46 5.00
   08:22:53.276.05-Jan-2021 255.89 4455.47 3649.01 3076.03 80.46 5.00
   08:22:53.476.05-Jan-2021 256.10 4455.57 3649.01 3076.03 80.46 5.00
   08:22:53.677.05-Jan-2021 256.30 4455.49 3649.01 3076.03 80.46 5.00
   08:22:53.877.05-Jan-2021 256.50 4455.57 3649.01 3076.03 80.46 5.00
   08:22:54.077.05-Jan-2021 256.70 4455.42 3649.01 3076.03 80.46 5.00
   08:22:54.277.05-Jan-2021 256.90 4455.49 3649.01 3076.03 80.46 5.00
   08:22:54.477.05-Jan-2021 257.10 4455.56 3649.01 3076.03 80.46 5.00
   08:22:54.677.05-Jan-2021 257.30 4455.56 3649.01 3076.03 80.46 5.00
   08:22:54.877.05-Jan-2021 257.50 4455.52 3649.01 3076.03 80.46 5.00
   08:22:55.077.05-Jan-2021 257.70 4455.47 3649.01 3076.03 80.46 5.00
   08:22:55.277.05-Jan-2021 257.90 4455.53 3649.01 3076.03 80.46 5.00
   08:22:55.477.05-Jan-2021 258.10 4455.51 3649.01 3076.03 80.46 5.00
   08:22:55.677.05-Jan-2021 258.30 4455.51 3649.01 3076.03 80.46 5.00
   08:22:55.877.05-Jan-2021 258.50 4455.51 3649.01 3076.03 80.46 5.00
   08:22:56.077.05-Jan-2021 258.70 4455.56 3649.01 3076.03 80.46 5.00
   08:22:56.278.05-Jan-2021 258.90 4455.47 3649.01 3076.03 80.46 5.00
   08:22:56.478.05-Jan-2021 259.10 4455.52 3649.01 3076.03 80.46 5.00
   08:22:56.678.05-Jan-2021 259.30 4455.52 3649.01 3076.03 80.46 5.00
   08:22:56.878.05-Jan-2021 259.50 4455.47 3649.01 3076.03 80.46 5.00
   08:22:57.078.05-Jan-2021 259.70 4455.50 3649.01 3076.03 80.46 5.00
   08:22:57.278.05-Jan-2021 259.90 4455.52 3649.01 3076.03 80.46 5.00
   08:22:57.478.05-Jan-2021 260.10 4455.51 3649.01 3076.03 80.46 5.00
   08:22:57.678.05-Jan-2021 260.30 4455.48 3649.01 3076.03 80.46 5.00
   08:22:57.878.05-Jan-2021 260.50 4455.53 3649.01 3076.03 80.46 5.00
   08:22:58.078.05-Jan-2021 260.70 4455.50 3649.01 3076.03 80.46 5.00
   08:22:58.278.05-Jan-2021 260.90 4455.47 3649.01 3076.03 80.46 5.00
   08:22:58.478.05-Jan-2021 261.10 4455.54 3649.01 3076.03 80.46 5.00
   08:22:58.678.05-Jan-2021 261.30 4455.54 3649.01 3076.03 80.46 5.00
   08:22:58.878.05-Jan-2021 261.50 4455.54 3649.01 3076.03 80.46 5.00
   08:22:59.079.05-Jan-2021 261.70 4455.51 3649.01 3076.03 80.46 5.00
   08:22:59.279.05-Jan-2021 261.90 4455.58 3649.01 3076.03 80.46 5.00
   08:22:59.479.05-Jan-2021 262.10 4455.42 3649.01 3076.03 80.46 5.00
   08:22:59.679.05-Jan-2021 262.30 4455.42 3649.01 3076.03 80.46 5.00
   08:22:59.879.05-Jan-2021 262.50 4455.54 3649.01 3076.03 80.46 5.00
   08:23:00.079.05-Jan-2021 262.70 4455.44 3649.01 3076.03 80.46 5.00
   08:23:00.279.05-Jan-2021 262.90 4455.53 3649.01 3076.03 80.46 5.00
   08:23:00.479.05-Jan-2021 263.10 4455.39 3649.01 3076.03 80.46 5.00
   08:23:00.679.05-Jan-2021 263.30 4455.39 3649.01 3076.03 80.46 5.00
   08:23:00.879.05-Jan-2021 263.50 4455.57 3649.01 3076.03 80.46 5.00
   08:23:01.079.05-Jan-2021 263.70 4455.48 3649.01 3076.03 80.46 5.00
   08:23:01.279.05-Jan-2021 263.90 4455.47 3649.01 3076.03 80.46 5.00
   08:23:01.479.05-Jan-2021 264.10 4455.43 3649.01 3076.03 80.46 5.00
   08:23:01.680.05-Jan-2021 264.30 4455.43 3649.01 3076.03 80.46 5.00
   08:23:01.880.05-Jan-2021 264.50 4455.51 3649.01 3076.03 80.46 5.00
   08:23:02.080.05-Jan-2021 264.70 4455.50 3649.01 3076.03 80.46 5.00
   08:23:02.280.05-Jan-2021 264.90 4455.44 3649.01 3076.03 80.46 5.00
   08:23:02.480.05-Jan-2021 265.10 4455.39 3649.01 3076.03 80.46 5.00
   08:23:02.680.05-Jan-2021 265.30 4455.39 3649.01 3076.03 80.46 5.00
   08:23:02.880.05-Jan-2021 265.50 4455.54 3649.01 3076.03 80.46 5.00
   08:23:03.080.05-Jan-2021 265.70 4455.46 3649.01 3076.03 80.46 5.00
   08:23:03.280.05-Jan-2021 265.90 4455.49 3649.01 3076.03 80.46 5.00
   08:23:03.480.05-Jan-2021 266.10 4455.52 3649.01 3076.03 80.46 5.00
   08:23:03.680.05-Jan-2021 266.30 4455.52 3649.01 3076.03 80.46 5.00
   08:23:03.880.05-Jan-2021 266.50 4455.55 3649.01 3076.03 80.46 5.00
   08:23:04.080.05-Jan-2021 266.70 4455.43 3649.01 3076.03 80.46 5.00
   08:23:04.280.05-Jan-2021 266.90 4455.58 3649.01 3076.03 80.46 5.00
   08:23:04.481.05-Jan-2021 267.10 4455.47 3649.01 3076.03 80.46 5.00
   08:23:04.681.05-Jan-2021 267.30 4455.47 3649.01 3076.03 80.46 5.00
   08:23:04.881.05-Jan-2021 267.50 4455.46 3649.01 3076.03 80.46 5.00
   08:23:05.081.05-Jan-2021 267.70 4455.57 3649.01 3076.03 80.46 5.00
   08:23:05.281.05-Jan-2021 267.90 4455.39 3649.01 3076.03 80.46 5.00
   08:23:05.481.05-Jan-2021 268.10 4455.61 3649.01 3076.03 80.46 5.00
   08:23:05.681.05-Jan-2021 268.30 4455.50 3649.01 3076.03 80.46 5.00
   08:23:05.881.05-Jan-2021 268.50 4455.44 3649.01 3076.03 80.47 5.00
   08:23:06.081.05-Jan-2021 268.70 4455.55 3649.01 3076.03 80.47 5.00
   08:23:06.281.05-Jan-2021 268.90 4455.46 3649.01 3076.03 80.47 5.00
   08:23:06.481.05-Jan-2021 269.10 4455.51 3649.01 3076.03 80.47 5.00
   08:23:06.681.05-Jan-2021 269.30 4455.51 3649.01 3076.03 80.47 5.00
   08:23:06.881.05-Jan-2021 269.50 4455.49 3649.01 3076.03 80.47 5.00
   08:23:07.082.05-Jan-2021 269.70 4455.54 3649.01 3076.03 80.47 5.00
   08:23:07.282.05-Jan-2021 269.90 4455.46 3649.01 3076.03 80.47 5.00
   08:23:07.482.05-Jan-2021 270.10 4455.55 3649.01 3076.03 80.47 5.00
   08:23:07.682.05-Jan-2021 270.30 4455.55 3649.01 3076.03 80.47 5.00
   08:23:07.882.05-Jan-2021 270.50 4455.34 3649.01 3076.03 80.47 5.00
   08:23:08.082.05-Jan-2021 270.70 4455.64 3649.01 3076.03 80.47 5.00
   08:23:08.282.05-Jan-2021 270.90 4455.51 3649.01 3076.03 80.47 5.00
   08:23:08.482.05-Jan-2021 271.10 4455.46 3649.01 3076.03 80.47 5.00
   08:23:08.682.05-Jan-2021 271.30 4455.46 3649.01 3076.03 80.47 5.00
   08:23:08.882.05-Jan-2021 271.50 4455.52 3649.01 3076.03 80.47 5.00
   08:23:09.082.05-Jan-2021 271.70 4455.53 3649.01 3076.03 80.47 5.00
   08:23:09.282.05-Jan-2021 271.90 4455.49 3649.01 3076.03 80.47 5.00
   08:23:09.482.05-Jan-2021 272.10 4455.45 3649.01 3076.03 80.47 5.00
   08:23:09.682.05-Jan-2021 272.30 4455.52 3649.01 3076.03 80.47 5.00
   08:23:09.883.05-Jan-2021 272.50 4455.53 3649.01 3076.03 80.47 5.00
   08:23:10.083.05-Jan-2021 272.70 4455.50 3649.01 3076.03 80.47 5.00
   08:23:10.283.05-Jan-2021 272.90 4455.42 3649.01 3076.03 80.47 5.00
   08:23:10.483.05-Jan-2021 273.10 4455.51 3649.01 3076.03 80.47 5.00
   08:23:10.683.05-Jan-2021 273.30 4455.51 3649.01 3076.03 80.47 5.00
   08:23:10.883.05-Jan-2021 273.50 4455.52 3649.01 3076.03 80.47 5.00
   08:23:11.083.05-Jan-2021 273.70 4455.49 3649.01 3076.03 80.47 5.00
   08:23:11.283.05-Jan-2021 273.90 4455.52 3649.01 3076.03 80.47 5.00
   08:23:11.483.05-Jan-2021 274.10 4455.46 3649.01 3076.03 80.47 5.00
   08:23:11.683.05-Jan-2021 274.30 4455.46 3649.01 3076.03 80.47 5.00
   08:23:11.883.05-Jan-2021 274.50 4455.52 3649.01 3076.03 80.47 5.00
   08:23:12.083.05-Jan-2021 274.70 4455.47 3649.01 3076.03 80.47 5.00
   08:23:12.283.05-Jan-2021 274.90 4455.53 3649.01 3076.03 80.47 5.00
   08:23:12.484.05-Jan-2021 275.10 4455.47 3649.01 3076.03 80.47 5.00
   08:23:12.684.05-Jan-2021 275.30 4455.47 3649.01 3076.03 80.47 5.00
   08:23:12.884.05-Jan-2021 275.50 4455.48 3649.01 3076.03 80.47 5.00
   08:23:13.084.05-Jan-2021 275.70 4455.52 3649.01 3076.03 80.47 5.00
   08:23:13.284.05-Jan-2021 275.90 4455.50 3649.01 3076.03 80.47 5.00
