~Version Information
 VERS.                  2.0:   CWLS log ASCII Standard -VERSION 2.0
 WRAP.                   NO:   One line per depth step
~Well Information Block
#MNEM.UNIT     VALUE/NAME     DESCRIPTION
#---------     -----------    ---------------------------
 STRT.S             05:14:37 05-Jan-21: START TIME 05:14:37 05-Jan-21
 STOP.S             05:24:42 05-Jan-21: STOP TIME  05:24:42 05-Jan-21
 STEP.S                   0.00: STEP TIME
 NULL.                 -999.25: NULL VALUE
 DFWT.                        :  DIST FWL TEXT
 DFST.                        :  DIST FSL TEXT
 DMF .             Drill Floor:  DRILL MEAS FROM
 STIM.      06.00.00 31-Dec-20:  START TIME
 DATE.      05.58.24 07-Jan-21:  END TIME
 SPUD.               24-Dec-20:  SPUD DATE
 NREF.                    Grid:  NORTH REFERENCE
 HPTY.       Minimum Curvature:  HOLE POS TYPE
 DMOD.             Drill Model:  DRILL MOD DESC
 SVYD.                  Survey:  SURVEY DESC
 ILTD.               Lithology:  INTERP LTH DESC
 FTOP.          Formation Tops:  FORM TOPS DESC
 SON .        AZ-XX-0906699554:  JOB NUMBER
 WELL.                    B09z:  WELL NAME
 PDAT.          Mean Sea Level:  PERMANENT DATUM
 FLD .                     ACG:  FIELD NAME
 CTRY.              Azerbaijan:  COUNTRY NAME
 COMP.     BP Exploration (Caspian Sea) Ltd.:  COMPANY
 UWI .                     N/A:  UNIQUE WELL IDENTIFIER
 API .                     N/A:  API NUMBER
 WTYP.                Deviated:  WELL TYPE
 MDS .        Operator Entered:  MAG DATA SOURCE
 BASE.              Azerbaijan:  LOGGING EQUIPMENT BASE LOCATION
 REGN.                   EESSA:  REGION
 PROV.                    Baku:  PROVINCE
 STAT.                    Baku:  STATE NAME
 SRVC.          Turan Drilling:  CONTRACTOR
 MWDS.                    Baku:  MWD SHOP
 JOBN.        AZ-XX-0906699554:  JOB TICKET NUMB
 RIG .           Central Azeri:  RIG NAME
 DOE .                     N/A:  DOE NUMBER
 DCON.         Sperry Drilling:  DIRECTNL CONTR
 UNIT.                     N/A:  LOGGING EQUIPMENT ID
 CNTY.                        :  COUNTY
 LOC .                        :  LOCATION
 LMF .             Drill Floor:  LOG MEASURED FROM
 TVDS.m                  43.29:  TVDSS CORRECTN
 LATI.deg                40.03:  LATITUDE
 LONG.deg                51.35:  LONGITUDE
 WHNS.m                  -2.76:  WELL HEAD N/S
 WHEW.m                  -7.70:  WELL HEAD E/W
 UTMX.m              530128.28:  UTM X
 UTMY.m             4433192.49:  UTM Y
 DFWL.m                   0.00:  DISTANCE FWL
 DFSL.m                   0.00:  DISTANCE FSL
 SDEP.m                3435.01:  START DEPTH
 TDD .m                3814.01:  TOTAL DEPTH (DRILLER)
 VSDR.deg               352.80:  VERT SEC DIRECT
 GVFD.g                   1.00:  GRAVITY FIELD
 MFLD.nT              50303.00:  MAGNETIC FIELD
 MDIP.deg                59.52:  MAGNETIC DIP
 MDEC.deg                 6.47:  MAGNETIC DECL
 GRDC.deg                 0.23:  GRID CORRECTION
 AZTC.deg                 6.24:  AZM TOTAL CORR
 EPD .m                   0.00:  ELEVATION
 EGL .m                   0.00:  GROUND ELEVATION
 WDMS.m                 128.20:  WD ELEV
 APD .m                  43.29:  DEPTH ABOVE PD
 DEP .m                3421.30:  DEPTH
 AGAP.m                  43.60:  AIR GAP
 VSEW.m                  -7.70:  VERT SEC E/W
 VSNS.m                  -2.76:  VERT SEC N/S
 EKB .m                   0.00:  KB ELEVATION
 EDF .m                  43.29:  DF ELEVATION
 TDL .m                 369.00:  TOTAL DEPTH (LOGGER)
 VSC .                       0:  VS TO CLOSURE
 MAGU.                 1850390:  MAGUTM CHECKSUM
~Parameter Information Block
#MNEM.UNIT       Value        Description
#---------     -----------    ---------------------------
 AV  .mps                 2.80:  Ann Velocity 
 AVMX.mps                 4.67:  Max Ann Veloc 
 AZIF.deg               303.89:  Azm, Final 
 BHAT.        Rotary Steerable:  BHA Type 
 BREV.rev            128542.00:  Rev Bit Total 
 BROT.°/30m               1.50:  Build Rotating 
 BS  .in                  8.50:  Bit Size 
 BSZ .in                  8.50:  Bit Size 
 BTPL.psig              715.00:  Bit Press Loss 
 CABU.                      No:  Customer Abuse 
 COMM.                     ¼Ûƒ:  Run Comments 1 
 TCS .hr                 53.00:  Time Ciculation Ended 
 CV  .mps                 3.85:  Crit Velocity 
 CVMX.mps                 4.75:  Max Crit Veloc 
 DD1 .         Intigam Rahimov:  Direct Drillr 1 
 DDSV.                 iCruise:  DD Service 
 DEFF.%                  98.60:  % Det Eff 
 DLRX.°/30m               2.34:  Dogleg Rot Max 
 DLSO.°/30m               0.00:  Dogleg Oriented 
 DLSX.°/30m               0.00:  Dogleg Str Max 
 DRET.      00.15.00 05-Jan-21:  Drill End Time 
 DRST.      22.00.00 03-Jan-21:  Drill Start Tim 
 DTIM.hr                 17.72:  Time Drilling 
 EDEP.m                3814.01:  End Depth 
 ENG1.         Yevgeniy Ulikov:  Engineer 1 
 ENG2.        Farkhad Khalidov:  Engineer 2 
 ENG3.           Samir Gafarov:  Engineer 3 
 ETIM.      21.00.00 07-Jan-21:  End Time 
 FLOI.gpm               590.00:  Flow In 
 FLON.gpm               580.00:  Flow In Min 
 FLOS.cptm                1.00:  Fluid Loss 
 FLOX.gpm               595.00:  Flow In Max 
 FTRO.     Connectivity, Formation Presure:  FTWD Run Obj 
 HFLO.                      No:  High Flow 
 HPRE.                     Yes:  High Pressure 
 HTEM.                      No:  High Temp 
 HYDO.m                   1.80:  Hydro Offset 
 IFIN.deg                63.76:  Inc, Final 
 IMAX.deg                64.09:  Inc Max 
 IMIN.deg                55.81:  Inc Min 
 IMND.m                3455.62:  Inc Min Depth 
 IMXD.m                3796.03:  Inc Max Depth 
 JARR.                      No:  Jarring 
 LETM.      00.15.00 05-Jan-21:  Log End Time 
 LOST.hr                     0:  Lost Rig Time 
 LSTM.      22.00.00 03-Jan-21:  Log Start Time 
 MDCL.ppm             36000.00:  Mud Chlorides 
 MDES.     Inversion Oil/Synthetic:  Mud Desc 
 DFD .sg                  1.51:  Mud Density 
 MDMN.sg                  1.51:  Dens Mud Min 
 MDMX.sg                  1.51:  Dens Mud Max 
 MOIL.                    55.5:  Run Mud Oil % 
 MOWR.                   70:30:  Run Mud OWR 
 MSND.                     0.1:  Run Mud Sand % 
 MSOL.                   20.77:  Run Mud Solids% 
 DFV .spqt               67.00:  Mud Viscosity 
 MWOD.in                  6.75:  MWD Tool OD 
 MWSI.                      No:  Serv Intrp, MWD 
 OTIM.hr                113.53:  Time Operating 
 PCON.           Look Like New:  Pad Condition 
 PMAX.psia             4830.00:  Press Op, Max 
 PV  .cP                 29.00:  Mud PV 
 RUN .                     300:  Run Number 
 ROPA.m/hr               22.00:  ROP Avg 
 ROPN.m/hr               18.00:  ROP Min 
 ROPX.m/hr               25.00:  ROP Max 
 RPMA.rpm               130.00:  RPM Surface Avg 
 RPMN.rpm                80.00:  RPM Surface Min 
 RPMX.rpm               140.00:  RPM Surface Max 
 RRUN.                    L101:  Rig Run Number 
 RTIM.hr                  9.28:  Time Reaming 
 SAZI.deg               316.55:  Azm, Start 
 SDEP.m                3445.01:  Start Depth 
 SIDD.                      No:  Serv Intrp, DD 
 SINC.deg                55.81:  Inc, Start 
 SPPA.psig             4500.00:  SPP Avg 
 SPPN.psig             4350.00:  SPP Min 
 SPPX.psig             4830.00:  SPP Max 
 STIM.      00.00.00 03-Jan-21:  Start Time 
 SVCS.                 DD, MWD:  Services 
 SVER.                    9.20:  Sperry Version 
 TDAT.m                 369.00:  Tot Depth Attmp 
 TDDF.                      No:  Trip for DD 
 TDLG.m                 369.00:  Tot Depth Loggd 
 TFF .                      No:  Trip for Fail 
 TQAA.f-kp               15.00:  Torque Abs Avg 
 TQAN.f-kp               12.00:  Torque Abs Min 
 TQAX.f-kp               16.00:  Torque Abs Max 
 TRRT.°/30m              -2.10:  Turn Rotating 
 MRT .                    HCIM:  Maximum Recorded Temperature 
 TTMX.degC               92.16:  Max Tool Temp 
 VS01.                90627822:  Virtual Str1 SN 
 VS02.                90550008:  Virtual Str2 SN 
 VS03.                90627816:  Virtual Str3 SN 
 VS04.                90633205:  Virtual Str4 SN 
 VS05.                13033835:  Virtual Str5 SN 
 VS06.                11125125:  Virtual Str6 SN 
 WBMN.klb                 8.00:  WOB Min 
 WITN.            Bruce Cheyne:  Customer Rep 
 WITN.           Faig Mammadov:  Customer Rep 2 
 WOBA.klb                 9.00:  WOB Avg 
 WOBX.klb                12.00:  WOB Max 
 YP  .lhf2               30.00:  Yield Point 
~Curve Information Block
#MNEM.UNIT                 API CODE     Curve Description
#---------               -----------    ---------------------------
 TIME.HHMMSS            00 000 000 000:  GT Time & Date
 GTET.sec               00 000 000 000:  GT Elapsed Test Time
 GTPQH.psia             00 000 000 000:  GT HR Quartz Pressure
 GTDEPTH.m              00 000 000 000:  GT Depth
 GTTVD.m                00 000 000 000:  GT True Vertical Depth
 GTTQ.degC              00 000 000 000:  GT Quartz Temperature
 GTTN.NONE              00 000 000 000:  GT Test Number
#Other Information
#
#WARRANTY: Halliburton will use its best efforts to furnish customers with 
#accurate information and interpretations that are part of, and incident to, the services 
#provided.  However, Halliburton cannot and does not warrant the accuracy 
#or correctness of such information and interpretations.  Under no circumstances should any 
#such information or interpretation be relied upon as the sole basis for any drilling, 
#completion, production, or financial decision or any procedure involving any risk to the 
#safety of any drilling venture, drilling rig or its crew or any other third party.  The 
#Customer has full responsibility for all drilling, completion and production operation.  
#Halliburton makes no representations or warranties, either expressed or 
#implied, including, but not limited to, the implied warranties of merchantability or fitness 
#for a particular purpose, with respect to the services rendered.  In no event will 
#Halliburton be liable for failure to obtain any particular results or for 
#any damages, including, but not limited to, indirect, special or consequential damages, 
#resulting from the use of any information or interpretation provided by Halliburton.
#
~A           TIME            GTET   GTPQH  GTDEPTH  GTTVD  GTTQ  GTTN 
# ...
   05:18:27.000.05-Jan-2021 230.00 7534.33 3765.01 3128.52 84.77 1.00
   05:18:27.200.05-Jan-2021 230.20 7534.33 3765.01 3128.52 84.77 1.00
   05:18:27.400.05-Jan-2021 230.40 7528.44 3765.01 3128.52 84.77 1.00
   05:18:27.600.05-Jan-2021 230.60 7536.49 3765.01 3128.52 84.77 1.00
   05:18:27.800.05-Jan-2021 230.80 7536.83 3765.01 3128.52 84.77 1.00
   05:18:28.000.05-Jan-2021 231.00 7526.51 3765.01 3128.52 84.77 1.00
   05:18:28.200.05-Jan-2021 231.20 7526.51 3765.01 3128.52 84.77 1.00
   05:18:28.400.05-Jan-2021 231.40 7544.31 3765.01 3128.52 84.77 1.00
   05:18:28.600.05-Jan-2021 231.60 7530.09 3765.01 3128.52 84.77 1.00
   05:18:28.800.05-Jan-2021 231.80 7528.29 3765.01 3128.52 84.77 1.00
   05:18:29.000.05-Jan-2021 232.00 7528.08 3765.01 3128.52 84.77 1.00
   05:18:29.200.05-Jan-2021 232.20 7533.27 3765.01 3128.52 84.77 1.00
   05:18:29.400.05-Jan-2021 232.40 7531.78 3765.01 3128.52 84.77 1.00
   05:18:29.600.05-Jan-2021 232.60 7530.30 3765.01 3128.52 84.77 1.00
   05:18:29.800.05-Jan-2021 232.80 7528.13 3765.01 3128.52 84.77 1.00
   05:18:30.000.05-Jan-2021 233.00 7531.40 3765.01 3128.52 84.77 1.00
   05:18:30.200.05-Jan-2021 233.20 7531.40 3765.01 3128.52 84.77 1.00
   05:18:30.400.05-Jan-2021 233.40 7530.95 3765.01 3128.52 84.77 1.00
   05:18:30.600.05-Jan-2021 233.60 7528.16 3765.01 3128.52 84.77 1.00
   05:18:30.800.05-Jan-2021 233.80 7529.68 3765.01 3128.52 84.77 1.00
   05:18:31.000.05-Jan-2021 234.00 7529.44 3765.01 3128.52 84.77 1.00
   05:18:31.200.05-Jan-2021 234.20 7543.56 3765.01 3128.52 84.77 1.00
   05:18:31.400.05-Jan-2021 234.40 7527.96 3765.01 3128.52 84.77 1.00
   05:18:31.600.05-Jan-2021 234.60 7529.50 3765.01 3128.52 84.77 1.00
   05:18:31.800.05-Jan-2021 234.80 7527.62 3765.01 3128.52 84.77 1.00
   05:18:32.000.05-Jan-2021 235.00 7532.77 3765.01 3128.52 84.77 1.00
   05:18:32.200.05-Jan-2021 235.20 7532.77 3765.01 3128.52 84.77 1.00
   05:18:32.400.05-Jan-2021 235.40 7528.66 3765.01 3128.52 84.77 1.00
   05:18:32.600.05-Jan-2021 235.60 7528.31 3765.01 3128.52 84.77 1.00
   05:18:32.800.05-Jan-2021 235.80 7529.73 3765.01 3128.52 84.77 1.00
   05:18:33.000.05-Jan-2021 236.00 7527.88 3765.01 3128.52 84.77 1.00
   05:18:33.200.05-Jan-2021 236.20 7527.88 3765.01 3128.52 84.77 1.00
   05:18:33.400.05-Jan-2021 236.40 7528.39 3765.01 3128.52 84.77 1.00
   05:18:33.600.05-Jan-2021 236.60 7527.79 3765.01 3128.52 84.77 1.00
   05:18:33.800.05-Jan-2021 236.80 7526.85 3765.01 3128.52 84.77 1.00
   05:18:34.000.05-Jan-2021 237.00 7533.87 3765.01 3128.52 84.77 1.00
   05:18:34.200.05-Jan-2021 237.20 7533.87 3765.01 3128.52 84.77 1.00
   05:18:34.400.05-Jan-2021 237.40 7526.29 3765.01 3128.52 84.77 1.00
   05:18:34.600.05-Jan-2021 237.60 7534.78 3765.01 3128.52 84.77 1.00
   05:18:34.800.05-Jan-2021 237.80 7532.06 3765.01 3128.52 84.77 1.00
   05:18:35.000.05-Jan-2021 238.00 7529.11 3765.01 3128.52 84.77 1.00
   05:18:35.200.05-Jan-2021 238.20 7529.11 3765.01 3128.52 84.77 1.00
   05:18:35.400.05-Jan-2021 238.40 7528.32 3765.01 3128.52 84.77 1.00
   05:18:35.600.05-Jan-2021 238.60 7526.87 3765.01 3128.52 84.77 1.00
   05:18:35.800.05-Jan-2021 238.80 7528.92 3765.01 3128.52 84.77 1.00
   05:18:36.000.05-Jan-2021 239.00 7532.96 3765.01 3128.52 84.77 1.00
   05:18:36.200.05-Jan-2021 239.20 7532.96 3765.01 3128.52 84.77 1.00
   05:18:36.400.05-Jan-2021 239.40 7532.82 3765.01 3128.52 84.77 1.00
   05:18:36.600.05-Jan-2021 239.60 7528.32 3765.01 3128.52 84.77 1.00
   05:18:36.800.05-Jan-2021 239.80 7531.15 3765.01 3128.52 84.77 1.00
   05:18:37.000.05-Jan-2021 240.00 7535.18 3765.01 3128.52 84.77 1.00
   05:18:37.200.05-Jan-2021 240.20 7535.18 3765.01 3128.52 84.77 1.00
   05:18:37.400.05-Jan-2021 240.40 7537.83 3765.01 3128.52 84.77 1.00
   05:18:37.600.05-Jan-2021 240.60 7530.05 3765.01 3128.52 84.77 1.00
   05:18:37.800.05-Jan-2021 240.80 7530.37 3765.01 3128.52 84.77 1.00
   05:18:38.000.05-Jan-2021 241.00 7534.80 3765.01 3128.52 84.77 1.00
   05:18:38.200.05-Jan-2021 241.20 7534.80 3765.01 3128.52 84.77 1.00
   05:18:38.400.05-Jan-2021 241.40 7531.80 3765.01 3128.52 84.76 1.00
   05:18:38.600.05-Jan-2021 241.60 7530.80 3765.01 3128.52 84.76 1.00
   05:18:38.800.05-Jan-2021 241.80 7532.05 3765.01 3128.52 84.76 1.00
   05:18:39.000.05-Jan-2021 242.00 7530.53 3765.01 3128.52 84.76 1.00
   05:18:39.200.05-Jan-2021 242.20 7530.53 3765.01 3128.52 84.76 1.00
   05:18:39.400.05-Jan-2021 242.40 7530.40 3765.01 3128.52 84.76 1.00
   05:18:39.600.05-Jan-2021 242.60 7532.05 3765.01 3128.52 84.76 1.00
   05:18:39.800.05-Jan-2021 242.80 7531.19 3765.01 3128.52 84.76 1.00
   05:18:40.000.05-Jan-2021 243.00 7531.61 3765.01 3128.52 84.76 1.00
   05:18:40.200.05-Jan-2021 243.20 7531.61 3765.01 3128.52 84.76 1.00
   05:18:40.400.05-Jan-2021 243.40 7533.44 3765.01 3128.52 84.76 1.00
   05:18:40.600.05-Jan-2021 243.60 7528.81 3765.01 3128.52 84.76 1.00
   05:18:40.800.05-Jan-2021 243.80 7530.46 3765.01 3128.52 84.76 1.00
   05:18:41.000.05-Jan-2021 244.00 7532.39 3765.01 3128.52 84.76 1.00
   05:18:41.200.05-Jan-2021 244.20 7532.39 3765.01 3128.52 84.76 1.00
   05:18:41.400.05-Jan-2021 244.40 7530.90 3765.01 3128.52 84.76 1.00
   05:18:41.600.05-Jan-2021 244.60 7527.85 3765.01 3128.52 84.76 1.00
   05:18:41.800.05-Jan-2021 244.80 7530.47 3765.01 3128.52 84.76 1.00
   05:18:42.000.05-Jan-2021 245.00 7529.23 3765.01 3128.52 84.76 1.00
   05:18:42.200.05-Jan-2021 245.20 7529.23 3765.01 3128.52 84.76 1.00
   05:18:42.400.05-Jan-2021 245.40 7528.01 3765.01 3128.52 84.76 1.00
   05:18:42.600.05-Jan-2021 245.60 7530.17 3765.01 3128.52 84.76 1.00
   05:18:42.800.05-Jan-2021 245.80 7541.51 3765.01 3128.52 84.76 1.00
   05:18:43.000.05-Jan-2021 246.00 7528.28 3765.01 3128.52 84.76 1.00
   05:18:43.200.05-Jan-2021 246.20 7528.28 3765.01 3128.52 84.76 1.00
   05:18:43.400.05-Jan-2021 246.40 7543.34 3765.01 3128.52 84.76 1.00
   05:18:43.600.05-Jan-2021 246.60 7530.04 3765.01 3128.52 84.76 1.00
   05:18:43.800.05-Jan-2021 246.80 7530.72 3765.01 3128.52 84.76 1.00
   05:18:44.000.05-Jan-2021 247.00 7527.07 3765.01 3128.52 84.76 1.00
   05:18:44.200.05-Jan-2021 247.20 7527.07 3765.01 3128.52 84.76 1.00
   05:18:44.400.05-Jan-2021 247.40 7534.42 3765.01 3128.52 84.76 1.00
   05:18:44.600.05-Jan-2021 247.60 7529.58 3765.01 3128.52 84.76 1.00
   05:18:44.800.05-Jan-2021 247.80 7529.84 3765.01 3128.52 84.76 1.00
   05:18:45.000.05-Jan-2021 248.00 7532.31 3765.01 3128.52 84.76 1.00
   05:18:45.200.05-Jan-2021 248.20 7532.31 3765.01 3128.52 84.76 1.00
   05:18:45.400.05-Jan-2021 248.40 7531.75 3765.01 3128.52 84.76 1.00
   05:18:45.600.05-Jan-2021 248.60 7528.91 3765.01 3128.52 84.76 1.00
   05:18:45.800.05-Jan-2021 248.80 7530.83 3765.01 3128.52 84.76 1.00
   05:18:46.000.05-Jan-2021 249.00 7542.37 3765.01 3128.52 84.76 1.00
   05:18:46.200.05-Jan-2021 249.20 7542.37 3765.01 3128.52 84.76 1.00
   05:18:46.400.05-Jan-2021 249.40 7528.93 3765.01 3128.52 84.76 1.00
   05:18:46.600.05-Jan-2021 249.60 7530.42 3765.01 3128.52 84.76 1.00
   05:18:46.800.05-Jan-2021 249.80 7535.59 3765.01 3128.52 84.76 1.00
   05:18:47.000.05-Jan-2021 250.00 7530.41 3765.01 3128.52 84.76 1.00
   05:18:47.200.05-Jan-2021 250.20 7530.41 3765.01 3128.52 84.76 1.00
   05:18:47.400.05-Jan-2021 250.40 7530.81 3765.01 3128.52 84.76 1.00
   05:18:47.600.05-Jan-2021 250.60 7531.79 3765.01 3128.52 84.76 1.00
   05:18:47.800.05-Jan-2021 250.80 7530.86 3765.01 3128.52 84.76 1.00
   05:18:48.000.05-Jan-2021 251.00 7529.70 3765.01 3128.52 84.76 1.00
   05:18:48.200.05-Jan-2021 251.20 7529.70 3765.01 3128.52 84.76 1.00
   05:18:48.400.05-Jan-2021 251.40 7530.84 3765.01 3128.52 84.76 1.00
   05:18:48.600.05-Jan-2021 251.60 7531.51 3765.01 3128.52 84.76 1.00
   05:18:48.800.05-Jan-2021 251.80 7537.76 3765.01 3128.52 84.76 1.00
   05:18:49.000.05-Jan-2021 252.00 7535.51 3765.01 3128.52 84.76 1.00
   05:18:49.200.05-Jan-2021 252.20 7535.51 3765.01 3128.52 84.76 1.00
   05:18:49.400.05-Jan-2021 252.40 7531.09 3765.01 3128.52 84.76 1.00
   05:18:49.600.05-Jan-2021 252.60 7533.61 3765.01 3128.52 84.76 1.00
   05:18:49.800.05-Jan-2021 252.80 7531.19 3765.01 3128.52 84.76 1.00
