~Version Information
 VERS.                  2.0:   CWLS log ASCII Standard -VERSION 2.0
 WRAP.                   NO:   One line per depth step
~Well Information Block
#MNEM.UNIT     VALUE/NAME     DESCRIPTION
#---------     -----------    ---------------------------
 STRT.S             05:41:02 05-Jan-21: START TIME 05:41:02 05-Jan-21
 STOP.S             05:49:13 05-Jan-21: STOP TIME  05:49:13 05-Jan-21
 STEP.S                   0.00: STEP TIME
 NULL.                 -999.25: NULL VALUE
 DFWT.                        :  DIST FWL TEXT
 DFST.                        :  DIST FSL TEXT
 DMF .             Drill Floor:  DRILL MEAS FROM
 STIM.      06.00.00 31-Dec-20:  START TIME
 DATE.      05.58.24 07-Jan-21:  END TIME
 SPUD.               24-Dec-20:  SPUD DATE
 NREF.                    Grid:  NORTH REFERENCE
 HPTY.       Minimum Curvature:  HOLE POS TYPE
 DMOD.             Drill Model:  DRILL MOD DESC
 SVYD.                  Survey:  SURVEY DESC
 ILTD.               Lithology:  INTERP LTH DESC
 FTOP.          Formation Tops:  FORM TOPS DESC
 SON .        AZ-XX-0906699554:  JOB NUMBER
 WELL.                    B09z:  WELL NAME
 PDAT.          Mean Sea Level:  PERMANENT DATUM
 FLD .                     ACG:  FIELD NAME
 CTRY.              Azerbaijan:  COUNTRY NAME
 COMP.     BP Exploration (Caspian Sea) Ltd.:  COMPANY
 UWI .                     N/A:  UNIQUE WELL IDENTIFIER
 API .                     N/A:  API NUMBER
 WTYP.                Deviated:  WELL TYPE
 MDS .        Operator Entered:  MAG DATA SOURCE
 BASE.              Azerbaijan:  LOGGING EQUIPMENT BASE LOCATION
 REGN.                   EESSA:  REGION
 PROV.                    Baku:  PROVINCE
 STAT.                    Baku:  STATE NAME
 SRVC.          Turan Drilling:  CONTRACTOR
 MWDS.                    Baku:  MWD SHOP
 JOBN.        AZ-XX-0906699554:  JOB TICKET NUMB
 RIG .           Central Azeri:  RIG NAME
 DOE .                     N/A:  DOE NUMBER
 DCON.         Sperry Drilling:  DIRECTNL CONTR
 UNIT.                     N/A:  LOGGING EQUIPMENT ID
 CNTY.                        :  COUNTY
 LOC .                        :  LOCATION
 LMF .             Drill Floor:  LOG MEASURED FROM
 TVDS.m                  43.29:  TVDSS CORRECTN
 LATI.deg                40.03:  LATITUDE
 LONG.deg                51.35:  LONGITUDE
 WHNS.m                  -2.76:  WELL HEAD N/S
 WHEW.m                  -7.70:  WELL HEAD E/W
 UTMX.m              530128.28:  UTM X
 UTMY.m             4433192.49:  UTM Y
 DFWL.m                   0.00:  DISTANCE FWL
 DFSL.m                   0.00:  DISTANCE FSL
 SDEP.m                3435.01:  START DEPTH
 TDD .m                3814.01:  TOTAL DEPTH (DRILLER)
 VSDR.deg               352.80:  VERT SEC DIRECT
 GVFD.g                   1.00:  GRAVITY FIELD
 MFLD.nT              50303.00:  MAGNETIC FIELD
 MDIP.deg                59.52:  MAGNETIC DIP
 MDEC.deg                 6.47:  MAGNETIC DECL
 GRDC.deg                 0.23:  GRID CORRECTION
 AZTC.deg                 6.24:  AZM TOTAL CORR
 EPD .m                   0.00:  ELEVATION
 EGL .m                   0.00:  GROUND ELEVATION
 WDMS.m                 128.20:  WD ELEV
 APD .m                  43.29:  DEPTH ABOVE PD
 DEP .m                3421.30:  DEPTH
 AGAP.m                  43.60:  AIR GAP
 VSEW.m                  -7.70:  VERT SEC E/W
 VSNS.m                  -2.76:  VERT SEC N/S
 EKB .m                   0.00:  KB ELEVATION
 EDF .m                  43.29:  DF ELEVATION
 TDL .m                 369.00:  TOTAL DEPTH (LOGGER)
 VSC .                       0:  VS TO CLOSURE
 MAGU.                 1850390:  MAGUTM CHECKSUM
~Parameter Information Block
#MNEM.UNIT       Value        Description
#---------     -----------    ---------------------------
 AV  .mps                 2.80:  Ann Velocity 
 AVMX.mps                 4.67:  Max Ann Veloc 
 AZIF.deg               303.89:  Azm, Final 
 BHAT.        Rotary Steerable:  BHA Type 
 BREV.rev            128542.00:  Rev Bit Total 
 BROT.°/30m               1.50:  Build Rotating 
 BS  .in                  8.50:  Bit Size 
 BSZ .in                  8.50:  Bit Size 
 BTPL.psig              715.00:  Bit Press Loss 
 CABU.                      No:  Customer Abuse 
 TCS .hr                 53.00:  Time Ciculation Ended 
 CV  .mps                 3.85:  Crit Velocity 
 CVMX.mps                 4.75:  Max Crit Veloc 
 DD1 .         Intigam Rahimov:  Direct Drillr 1 
 DDSV.                 iCruise:  DD Service 
 DEFF.%                  98.60:  % Det Eff 
 DLRX.°/30m               2.34:  Dogleg Rot Max 
 DLSO.°/30m               0.00:  Dogleg Oriented 
 DLSX.°/30m               0.00:  Dogleg Str Max 
 DRET.      00.15.00 05-Jan-21:  Drill End Time 
 DRST.      22.00.00 03-Jan-21:  Drill Start Tim 
 DTIM.hr                 17.72:  Time Drilling 
 EDEP.m                3814.01:  End Depth 
 ENG1.         Yevgeniy Ulikov:  Engineer 1 
 ENG2.        Farkhad Khalidov:  Engineer 2 
 ENG3.           Samir Gafarov:  Engineer 3 
 ETIM.      21.00.00 07-Jan-21:  End Time 
 FLOI.gpm               590.00:  Flow In 
 FLON.gpm               580.00:  Flow In Min 
 FLOS.cptm                1.00:  Fluid Loss 
 FLOX.gpm               595.00:  Flow In Max 
 FTRO.     Connectivity, Formation Presure:  FTWD Run Obj 
 HFLO.                      No:  High Flow 
 HPRE.                     Yes:  High Pressure 
 HTEM.                      No:  High Temp 
 HYDO.m                   1.80:  Hydro Offset 
 IFIN.deg                63.76:  Inc, Final 
 IMAX.deg                64.09:  Inc Max 
 IMIN.deg                55.81:  Inc Min 
 IMND.m                3455.62:  Inc Min Depth 
 IMXD.m                3796.03:  Inc Max Depth 
 JARR.                      No:  Jarring 
 LETM.      00.15.00 05-Jan-21:  Log End Time 
 LOST.hr                     0:  Lost Rig Time 
 LSTM.      22.00.00 03-Jan-21:  Log Start Time 
 MDCL.ppm             36000.00:  Mud Chlorides 
 MDES.     Inversion Oil/Synthetic:  Mud Desc 
 DFD .sg                  1.51:  Mud Density 
 MDMN.sg                  1.51:  Dens Mud Min 
 MDMX.sg                  1.51:  Dens Mud Max 
 MOIL.                    55.5:  Run Mud Oil % 
 MOWR.                   70:30:  Run Mud OWR 
 MSND.                     0.1:  Run Mud Sand % 
 MSOL.                   20.77:  Run Mud Solids% 
 DFV .spqt               67.00:  Mud Viscosity 
 MWOD.in                  6.75:  MWD Tool OD 
 MWSI.                      No:  Serv Intrp, MWD 
 OTIM.hr                113.53:  Time Operating 
 PCON.           Look Like New:  Pad Condition 
 PMAX.psia             4830.00:  Press Op, Max 
 PV  .cP                 29.00:  Mud PV 
 RUN .                     300:  Run Number 
 ROPA.m/hr               22.00:  ROP Avg 
 ROPN.m/hr               18.00:  ROP Min 
 ROPX.m/hr               25.00:  ROP Max 
 RPMA.rpm               130.00:  RPM Surface Avg 
 RPMN.rpm                80.00:  RPM Surface Min 
 RPMX.rpm               140.00:  RPM Surface Max 
 RRUN.                    L101:  Rig Run Number 
 RTIM.hr                  9.28:  Time Reaming 
 SAZI.deg               316.55:  Azm, Start 
 SDEP.m                3445.01:  Start Depth 
 SIDD.                      No:  Serv Intrp, DD 
 SINC.deg                55.81:  Inc, Start 
 SPPA.psig             4500.00:  SPP Avg 
 SPPN.psig             4350.00:  SPP Min 
 SPPX.psig             4830.00:  SPP Max 
 STIM.      00.00.00 03-Jan-21:  Start Time 
 SVCS.                 DD, MWD:  Services 
 SVER.                    9.20:  Sperry Version 
 TDAT.m                 369.00:  Tot Depth Attmp 
 TDDF.                      No:  Trip for DD 
 TDLG.m                 369.00:  Tot Depth Loggd 
 TFF .                      No:  Trip for Fail 
 TQAA.f-kp               15.00:  Torque Abs Avg 
 TQAN.f-kp               12.00:  Torque Abs Min 
 TQAX.f-kp               16.00:  Torque Abs Max 
 TRRT.°/30m              -2.10:  Turn Rotating 
 MRT .                    HCIM:  Maximum Recorded Temperature 
 TTMX.degC               92.16:  Max Tool Temp 
 VS01.                90627822:  Virtual Str1 SN 
 VS02.                90550008:  Virtual Str2 SN 
 VS03.                90627816:  Virtual Str3 SN 
 VS04.                90633205:  Virtual Str4 SN 
 VS05.                13033835:  Virtual Str5 SN 
 VS06.                11125125:  Virtual Str6 SN 
 WBMN.klb                 8.00:  WOB Min 
 WITN.            Bruce Cheyne:  Customer Rep 
 WITN.           Faig Mammadov:  Customer Rep 2 
 WOBA.klb                 9.00:  WOB Avg 
 WOBX.klb                12.00:  WOB Max 
 YP  .lhf2               30.00:  Yield Point 
~Curve Information Block
#MNEM.UNIT                 API CODE     Curve Description
#---------               -----------    ---------------------------
 TIME.HHMMSS            00 000 000 000:  GT Time & Date
 GTET.sec               00 000 000 000:  GT Elapsed Test Time
 GTPQH.psia             00 000 000 000:  GT HR Quartz Pressure
 GTDEPTH.m              00 000 000 000:  GT Depth
 GTTVD.m                00 000 000 000:  GT True Vertical Depth
 GTTQ.degC              00 000 000 000:  GT Quartz Temperature
 GTTN.NONE              00 000 000 000:  GT Test Number
#Other Information
#
#WARRANTY: Halliburton will use its best efforts to furnish customers with 
#accurate information and interpretations that are part of, and incident to, the services 
#provided.  However, Halliburton cannot and does not warrant the accuracy 
#or correctness of such information and interpretations.  Under no circumstances should any 
#such information or interpretation be relied upon as the sole basis for any drilling, 
#completion, production, or financial decision or any procedure involving any risk to the 
#safety of any drilling venture, drilling rig or its crew or any other third party.  The 
#Customer has full responsibility for all drilling, completion and production operation.  
#Halliburton makes no representations or warranties, either expressed or 
#implied, including, but not limited to, the implied warranties of merchantability or fitness 
#for a particular purpose, with respect to the services rendered.  In no event will 
#Halliburton be liable for failure to obtain any particular results or for 
#any damages, including, but not limited to, indirect, special or consequential damages, 
#resulting from the use of any information or interpretation provided by Halliburton.
#
~A           TIME            GTET   GTPQH  GTDEPTH  GTTVD  GTTQ  GTTN 
# ...
   05:46:47.000.05-Jan-2021 345.00 4761.62 3764.51 3128.30 84.53 2.00
   05:46:47.200.05-Jan-2021 345.20 4761.62 3764.51 3128.30 84.53 2.00
   05:46:47.400.05-Jan-2021 345.40 4761.73 3764.51 3128.30 84.53 2.00
   05:46:47.600.05-Jan-2021 345.60 4761.87 3764.51 3128.30 84.53 2.00
   05:46:47.800.05-Jan-2021 345.80 4761.96 3764.51 3128.30 84.53 2.00
   05:46:48.000.05-Jan-2021 346.00 4761.65 3764.51 3128.30 84.53 2.00
   05:46:48.200.05-Jan-2021 346.20 4761.65 3764.51 3128.30 84.53 2.00
   05:46:48.400.05-Jan-2021 346.40 4761.74 3764.51 3128.30 84.53 2.00
   05:46:48.600.05-Jan-2021 346.60 4761.85 3764.51 3128.30 84.53 2.00
   05:46:48.800.05-Jan-2021 346.80 4761.77 3764.51 3128.30 84.53 2.00
   05:46:49.000.05-Jan-2021 347.00 4761.76 3764.51 3128.30 84.53 2.00
   05:46:49.200.05-Jan-2021 347.20 4761.83 3764.51 3128.30 84.53 2.00
   05:46:49.400.05-Jan-2021 347.40 4761.71 3764.51 3128.30 84.53 2.00
   05:46:49.600.05-Jan-2021 347.60 4761.83 3764.51 3128.30 84.53 2.00
   05:46:49.800.05-Jan-2021 347.80 4761.81 3764.51 3128.30 84.53 2.00
   05:46:50.000.05-Jan-2021 348.00 4761.71 3764.51 3128.30 84.53 2.00
   05:46:50.200.05-Jan-2021 348.20 4761.84 3764.51 3128.30 84.53 2.00
   05:46:50.400.05-Jan-2021 348.40 4761.82 3764.51 3128.30 84.53 2.00
   05:46:50.600.05-Jan-2021 348.60 4761.97 3764.51 3128.30 84.53 2.00
   05:46:50.800.05-Jan-2021 348.80 4761.63 3764.51 3128.30 84.53 2.00
   05:46:51.000.05-Jan-2021 349.00 4761.77 3764.51 3128.30 84.53 2.00
   05:46:51.200.05-Jan-2021 349.20 4761.77 3764.51 3128.30 84.53 2.00
   05:46:51.400.05-Jan-2021 349.40 4761.85 3764.51 3128.30 84.53 2.00
   05:46:51.600.05-Jan-2021 349.60 4761.75 3764.51 3128.30 84.53 2.00
   05:46:51.800.05-Jan-2021 349.80 4761.78 3764.51 3128.30 84.53 2.00
   05:46:52.000.05-Jan-2021 350.00 4761.81 3764.51 3128.30 84.53 2.00
   05:46:52.200.05-Jan-2021 350.20 4761.81 3764.51 3128.30 84.53 2.00
   05:46:52.400.05-Jan-2021 350.40 4761.74 3764.51 3128.30 84.53 2.00
   05:46:52.600.05-Jan-2021 350.60 4761.79 3764.51 3128.30 84.53 2.00
   05:46:52.800.05-Jan-2021 350.80 4761.80 3764.51 3128.30 84.53 2.00
   05:46:53.000.05-Jan-2021 351.00 4761.76 3764.51 3128.30 84.53 2.00
   05:46:53.200.05-Jan-2021 351.20 4761.76 3764.51 3128.30 84.53 2.00
   05:46:53.400.05-Jan-2021 351.40 4761.60 3764.51 3128.30 84.53 2.00
   05:46:53.600.05-Jan-2021 351.60 4761.74 3764.51 3128.30 84.53 2.00
   05:46:53.800.05-Jan-2021 351.80 4761.79 3764.51 3128.30 84.53 2.00
   05:46:54.000.05-Jan-2021 352.00 4761.83 3764.51 3128.30 84.53 2.00
   05:46:54.200.05-Jan-2021 352.20 4761.71 3764.51 3128.30 84.53 2.00
   05:46:54.400.05-Jan-2021 352.40 4761.86 3764.51 3128.30 84.53 2.00
   05:46:54.600.05-Jan-2021 352.60 4761.71 3764.51 3128.30 84.53 2.00
   05:46:54.800.05-Jan-2021 352.80 4761.91 3764.51 3128.30 84.53 2.00
   05:46:55.000.05-Jan-2021 353.00 4761.73 3764.51 3128.30 84.53 2.00
   05:46:55.200.05-Jan-2021 353.20 4761.73 3764.51 3128.30 84.53 2.00
   05:46:55.400.05-Jan-2021 353.40 4762.05 3764.51 3128.30 84.53 2.00
   05:46:55.600.05-Jan-2021 353.60 4761.53 3764.51 3128.30 84.53 2.00
   05:46:55.800.05-Jan-2021 353.80 4761.75 3764.51 3128.30 84.53 2.00
   05:46:56.000.05-Jan-2021 354.00 4761.77 3764.51 3128.30 84.53 2.00
   05:46:56.200.05-Jan-2021 354.20 4761.77 3764.51 3128.30 84.53 2.00
   05:46:56.400.05-Jan-2021 354.40 4762.05 3764.51 3128.30 84.53 2.00
   05:46:56.600.05-Jan-2021 354.60 4761.59 3764.51 3128.30 84.53 2.00
   05:46:56.800.05-Jan-2021 354.80 4761.73 3764.51 3128.30 84.53 2.00
   05:46:57.000.05-Jan-2021 355.00 4761.78 3764.51 3128.30 84.53 2.00
   05:46:57.200.05-Jan-2021 355.20 4761.81 3764.51 3128.30 84.53 2.00
   05:46:57.400.05-Jan-2021 355.40 4761.74 3764.51 3128.30 84.53 2.00
   05:46:57.600.05-Jan-2021 355.60 4761.78 3764.51 3128.30 84.53 2.00
   05:46:57.800.05-Jan-2021 355.80 4761.81 3764.51 3128.30 84.53 2.00
   05:46:58.000.05-Jan-2021 356.00 4761.75 3764.51 3128.30 84.53 2.00
   05:46:58.200.05-Jan-2021 356.20 4761.75 3764.51 3128.30 84.53 2.00
   05:46:58.400.05-Jan-2021 356.40 4761.74 3764.51 3128.30 84.53 2.00
   05:46:58.600.05-Jan-2021 356.60 4761.76 3764.51 3128.30 84.53 2.00
   05:46:58.800.05-Jan-2021 356.80 4761.83 3764.51 3128.30 84.53 2.00
   05:46:59.000.05-Jan-2021 357.00 4761.77 3764.51 3128.30 84.53 2.00
   05:46:59.200.05-Jan-2021 357.20 4761.77 3764.51 3128.30 84.53 2.00
   05:46:59.400.05-Jan-2021 357.40 4761.60 3764.51 3128.30 84.53 2.00
   05:46:59.600.05-Jan-2021 357.60 4761.71 3764.51 3128.30 84.53 2.00
   05:46:59.800.05-Jan-2021 357.80 4761.81 3764.51 3128.30 84.53 2.00
   05:47:00.000.05-Jan-2021 358.00 4761.77 3764.51 3128.30 84.53 2.00
   05:47:00.200.05-Jan-2021 358.20 4761.77 3764.51 3128.30 84.53 2.00
   05:47:00.400.05-Jan-2021 358.40 4761.83 3764.51 3128.30 84.53 2.00
   05:47:00.600.05-Jan-2021 358.60 4761.74 3764.51 3128.30 84.53 2.00
   05:47:00.800.05-Jan-2021 358.80 4761.78 3764.51 3128.30 84.53 2.00
   05:47:01.000.05-Jan-2021 359.00 4761.78 3764.51 3128.30 84.53 2.00
   05:47:01.200.05-Jan-2021 359.20 4761.76 3764.51 3128.30 84.53 2.00
   05:47:01.400.05-Jan-2021 359.40 4761.81 3764.51 3128.30 84.53 2.00
   05:47:01.600.05-Jan-2021 359.60 4761.76 3764.51 3128.30 84.53 2.00
   05:47:01.800.05-Jan-2021 359.80 4761.99 3764.51 3128.30 84.53 2.00
   05:47:02.000.05-Jan-2021 360.00 4761.64 3764.51 3128.30 84.53 2.00
   05:47:02.200.05-Jan-2021 360.20 4761.74 3764.51 3128.30 84.53 2.00
   05:47:02.400.05-Jan-2021 360.40 4761.75 3764.51 3128.30 84.53 2.00
   05:47:02.600.05-Jan-2021 360.60 4761.80 3764.51 3128.30 84.53 2.00
   05:47:02.800.05-Jan-2021 360.80 4761.75 3764.51 3128.30 84.53 2.00
   05:47:03.000.05-Jan-2021 361.00 4761.84 3764.51 3128.30 84.53 2.00
   05:47:03.200.05-Jan-2021 361.20 4761.84 3764.51 3128.30 84.53 2.00
   05:47:03.400.05-Jan-2021 361.40 4761.90 3764.51 3128.30 84.53 2.00
   05:47:03.600.05-Jan-2021 361.60 4761.76 3764.51 3128.30 84.53 2.00
   05:47:03.800.05-Jan-2021 361.80 4761.79 3764.51 3128.30 84.53 2.00
   05:47:04.000.05-Jan-2021 362.00 4762.04 3764.51 3128.30 84.53 2.00
   05:47:04.200.05-Jan-2021 362.20 4762.04 3764.51 3128.30 84.53 2.00
   05:47:04.400.05-Jan-2021 362.40 4761.73 3764.51 3128.30 84.53 2.00
   05:47:04.600.05-Jan-2021 362.60 4761.78 3764.51 3128.30 84.53 2.00
   05:47:04.800.05-Jan-2021 362.80 4761.78 3764.51 3128.30 84.53 2.00
   05:47:05.000.05-Jan-2021 363.00 4762.02 3764.51 3128.30 84.53 2.00
   05:47:05.200.05-Jan-2021 363.20 4762.02 3764.51 3128.30 84.53 2.00
   05:47:05.400.05-Jan-2021 363.40 4761.80 3764.51 3128.30 84.53 2.00
   05:47:05.600.05-Jan-2021 363.60 4761.76 3764.51 3128.30 84.53 2.00
   05:47:05.800.05-Jan-2021 363.80 4761.77 3764.51 3128.30 84.53 2.00
   05:47:06.000.05-Jan-2021 364.00 4761.76 3764.51 3128.30 84.53 2.00
   05:47:06.200.05-Jan-2021 364.20 4761.74 3764.51 3128.30 84.53 2.00
   05:47:06.400.05-Jan-2021 364.40 4761.83 3764.51 3128.30 84.53 2.00
   05:47:06.600.05-Jan-2021 364.60 4761.79 3764.51 3128.30 84.53 2.00
   05:47:06.800.05-Jan-2021 364.80 4761.71 3764.51 3128.30 84.53 2.00
   05:47:07.000.05-Jan-2021 365.00 4761.80 3764.51 3128.30 84.53 2.00
   05:47:07.200.05-Jan-2021 365.20 4761.80 3764.51 3128.30 84.53 2.00
   05:47:07.400.05-Jan-2021 365.40 4761.79 3764.51 3128.30 84.53 2.00
   05:47:07.600.05-Jan-2021 365.60 4761.79 3764.51 3128.30 84.53 2.00
   05:47:07.800.05-Jan-2021 365.80 4762.00 3764.51 3128.30 84.53 2.00
   05:47:08.000.05-Jan-2021 366.00 4761.61 3764.51 3128.30 84.53 2.00
   05:47:08.200.05-Jan-2021 366.20 4761.61 3764.51 3128.30 84.53 2.00
   05:47:08.400.05-Jan-2021 366.40 4761.79 3764.51 3128.30 84.53 2.00
   05:47:08.600.05-Jan-2021 366.60 4761.76 3764.51 3128.30 84.53 2.00
   05:47:08.800.05-Jan-2021 366.80 4761.77 3764.51 3128.30 84.53 2.00
   05:47:09.000.05-Jan-2021 367.00 4761.79 3764.51 3128.30 84.53 2.00
   05:47:09.200.05-Jan-2021 367.20 4761.79 3764.51 3128.30 84.53 2.00
   05:47:09.400.05-Jan-2021 367.40 4761.77 3764.51 3128.30 84.53 2.00
   05:47:09.600.05-Jan-2021 367.60 4761.77 3764.51 3128.30 84.53 2.00
   05:47:09.800.05-Jan-2021 367.80 4761.77 3764.51 3128.30 84.53 2.00
