~Version Information
 VERS.                  2.0:   CWLS log ASCII Standard -VERSION 2.0
 WRAP.                   NO:   One line per depth step
~Well Information Block
#MNEM.UNIT     VALUE/NAME     DESCRIPTION
#---------     -----------    ---------------------------
 STRT.S             08:18:37 05-Jan-21: START TIME 08:18:37 05-Jan-21
 STOP.S             08:26:49 05-Jan-21: STOP TIME  08:26:49 05-Jan-21
 STEP.S                   0.00: STEP TIME
 NULL.                 -999.25: NULL VALUE
 DFWT.                        :  DIST FWL TEXT
 DFST.                        :  DIST FSL TEXT
 DMF .             Drill Floor:  DRILL MEAS FROM
 STIM.      06.00.00 31-Dec-20:  START TIME
 DATE.      05.58.24 07-Jan-21:  END TIME
 SPUD.               24-Dec-20:  SPUD DATE
 NREF.                    Grid:  NORTH REFERENCE
 HPTY.       Minimum Curvature:  HOLE POS TYPE
 DMOD.             Drill Model:  DRILL MOD DESC
 SVYD.                  Survey:  SURVEY DESC
 ILTD.               Lithology:  INTERP LTH DESC
 FTOP.          Formation Tops:  FORM TOPS DESC
 SON .        AZ-XX-0906699554:  JOB NUMBER
 WELL.                    B09z:  WELL NAME
 PDAT.          Mean Sea Level:  PERMANENT DATUM
 FLD .                     ACG:  FIELD NAME
 CTRY.              Azerbaijan:  COUNTRY NAME
 COMP.     BP Exploration (Caspian Sea) Ltd.:  COMPANY
 UWI .                     N/A:  UNIQUE WELL IDENTIFIER
 API .                     N/A:  API NUMBER
 WTYP.                Deviated:  WELL TYPE
 MDS .        Operator Entered:  MAG DATA SOURCE
 BASE.              Azerbaijan:  LOGGING EQUIPMENT BASE LOCATION
 REGN.                   EESSA:  REGION
 PROV.                    Baku:  PROVINCE
 STAT.                    Baku:  STATE NAME
 SRVC.          Turan Drilling:  CONTRACTOR
 MWDS.                    Baku:  MWD SHOP
 JOBN.        AZ-XX-0906699554:  JOB TICKET NUMB
 RIG .           Central Azeri:  RIG NAME
 DOE .                     N/A:  DOE NUMBER
 DCON.         Sperry Drilling:  DIRECTNL CONTR
 UNIT.                     N/A:  LOGGING EQUIPMENT ID
 CNTY.                        :  COUNTY
 LOC .                        :  LOCATION
 LMF .             Drill Floor:  LOG MEASURED FROM
 TVDS.m                  43.29:  TVDSS CORRECTN
 LATI.deg                40.03:  LATITUDE
 LONG.deg                51.35:  LONGITUDE
 WHNS.m                  -2.76:  WELL HEAD N/S
 WHEW.m                  -7.70:  WELL HEAD E/W
 UTMX.m              530128.28:  UTM X
 UTMY.m             4433192.49:  UTM Y
 DFWL.m                   0.00:  DISTANCE FWL
 DFSL.m                   0.00:  DISTANCE FSL
 SDEP.m                3435.01:  START DEPTH
 TDD .m                3814.01:  TOTAL DEPTH (DRILLER)
 VSDR.deg               352.80:  VERT SEC DIRECT
 GVFD.g                   1.00:  GRAVITY FIELD
 MFLD.nT              50303.00:  MAGNETIC FIELD
 MDIP.deg                59.52:  MAGNETIC DIP
 MDEC.deg                 6.47:  MAGNETIC DECL
 GRDC.deg                 0.23:  GRID CORRECTION
 AZTC.deg                 6.24:  AZM TOTAL CORR
 EPD .m                   0.00:  ELEVATION
 EGL .m                   0.00:  GROUND ELEVATION
 WDMS.m                 128.20:  WD ELEV
 APD .m                  43.29:  DEPTH ABOVE PD
 DEP .m                3421.30:  DEPTH
 AGAP.m                  43.60:  AIR GAP
 VSEW.m                  -7.70:  VERT SEC E/W
 VSNS.m                  -2.76:  VERT SEC N/S
 EKB .m                   0.00:  KB ELEVATION
 EDF .m                  43.29:  DF ELEVATION
 TDL .m                 369.00:  TOTAL DEPTH (LOGGER)
 VSC .                       0:  VS TO CLOSURE
 MAGU.                 1850390:  MAGUTM CHECKSUM
~Parameter Information Block
#MNEM.UNIT       Value        Description
#---------     -----------    ---------------------------
 AV  .mps                 2.80:  Ann Velocity 
 AVMX.mps                 4.67:  Max Ann Veloc 
 AZIF.deg               303.89:  Azm, Final 
 BHAT.        Rotary Steerable:  BHA Type 
 BREV.rev            128542.00:  Rev Bit Total 
 BROT.°/30m               1.50:  Build Rotating 
 BS  .in                  8.50:  Bit Size 
 BSZ .in                  8.50:  Bit Size 
 BTPL.psig              715.00:  Bit Press Loss 
 CABU.                      No:  Customer Abuse 
 COMM.                     ¤’i:  Run Comments 1 
 TCS .hr                 53.00:  Time Ciculation Ended 
 CV  .mps                 3.85:  Crit Velocity 
 CVMX.mps                 4.75:  Max Crit Veloc 
 DD1 .         Intigam Rahimov:  Direct Drillr 1 
 DDSV.                 iCruise:  DD Service 
 DEFF.%                  98.60:  % Det Eff 
 DLRX.°/30m               2.34:  Dogleg Rot Max 
 DLSO.°/30m               0.00:  Dogleg Oriented 
 DLSX.°/30m               0.00:  Dogleg Str Max 
 DRET.      00.15.00 05-Jan-21:  Drill End Time 
 DRST.      22.00.00 03-Jan-21:  Drill Start Tim 
 DTIM.hr                 17.72:  Time Drilling 
 EDEP.m                3814.01:  End Depth 
 ENG1.         Yevgeniy Ulikov:  Engineer 1 
 ENG2.        Farkhad Khalidov:  Engineer 2 
 ENG3.           Samir Gafarov:  Engineer 3 
 ETIM.      21.00.00 07-Jan-21:  End Time 
 FLOI.gpm               590.00:  Flow In 
 FLON.gpm               580.00:  Flow In Min 
 FLOS.cptm                1.00:  Fluid Loss 
 FLOX.gpm               595.00:  Flow In Max 
 FTRO.     Connectivity, Formation Presure:  FTWD Run Obj 
 HFLO.                      No:  High Flow 
 HPRE.                     Yes:  High Pressure 
 HTEM.                      No:  High Temp 
 HYDO.m                   1.80:  Hydro Offset 
 IFIN.deg                63.76:  Inc, Final 
 IMAX.deg                64.09:  Inc Max 
 IMIN.deg                55.81:  Inc Min 
 IMND.m                3455.62:  Inc Min Depth 
 IMXD.m                3796.03:  Inc Max Depth 
 JARR.                      No:  Jarring 
 LETM.      00.15.00 05-Jan-21:  Log End Time 
 LOST.hr                     0:  Lost Rig Time 
 LSTM.      22.00.00 03-Jan-21:  Log Start Time 
 MDCL.ppm             36000.00:  Mud Chlorides 
 MDES.     Inversion Oil/Synthetic:  Mud Desc 
 DFD .sg                  1.51:  Mud Density 
 MDMN.sg                  1.51:  Dens Mud Min 
 MDMX.sg                  1.51:  Dens Mud Max 
 MOIL.                    55.5:  Run Mud Oil % 
 MOWR.                   70:30:  Run Mud OWR 
 MSND.                     0.1:  Run Mud Sand % 
 MSOL.                   20.77:  Run Mud Solids% 
 DFV .spqt               67.00:  Mud Viscosity 
 MWOD.in                  6.75:  MWD Tool OD 
 MWSI.                      No:  Serv Intrp, MWD 
 OTIM.hr                113.53:  Time Operating 
 PCON.           Look Like New:  Pad Condition 
 PMAX.psia             4830.00:  Press Op, Max 
 PV  .cP                 29.00:  Mud PV 
 RUN .                     300:  Run Number 
 ROPA.m/hr               22.00:  ROP Avg 
 ROPN.m/hr               18.00:  ROP Min 
 ROPX.m/hr               25.00:  ROP Max 
 RPMA.rpm               130.00:  RPM Surface Avg 
 RPMN.rpm                80.00:  RPM Surface Min 
 RPMX.rpm               140.00:  RPM Surface Max 
 RRUN.                    L101:  Rig Run Number 
 RTIM.hr                  9.28:  Time Reaming 
 SAZI.deg               316.55:  Azm, Start 
 SDEP.m                3445.01:  Start Depth 
 SIDD.                      No:  Serv Intrp, DD 
 SINC.deg                55.81:  Inc, Start 
 SPPA.psig             4500.00:  SPP Avg 
 SPPN.psig             4350.00:  SPP Min 
 SPPX.psig             4830.00:  SPP Max 
 STIM.      00.00.00 03-Jan-21:  Start Time 
 SVCS.                 DD, MWD:  Services 
 SVER.                    9.20:  Sperry Version 
 TDAT.m                 369.00:  Tot Depth Attmp 
 TDDF.                      No:  Trip for DD 
 TDLG.m                 369.00:  Tot Depth Loggd 
 TFF .                      No:  Trip for Fail 
 TQAA.f-kp               15.00:  Torque Abs Avg 
 TQAN.f-kp               12.00:  Torque Abs Min 
 TQAX.f-kp               16.00:  Torque Abs Max 
 TRRT.°/30m              -2.10:  Turn Rotating 
 MRT .                    HCIM:  Maximum Recorded Temperature 
 TTMX.degC               92.16:  Max Tool Temp 
 VS01.                90627822:  Virtual Str1 SN 
 VS02.                90550008:  Virtual Str2 SN 
 VS03.                90627816:  Virtual Str3 SN 
 VS04.                90633205:  Virtual Str4 SN 
 VS05.                13033835:  Virtual Str5 SN 
 VS06.                11125125:  Virtual Str6 SN 
 WBMN.klb                 8.00:  WOB Min 
 WITN.            Bruce Cheyne:  Customer Rep 
 WITN.           Faig Mammadov:  Customer Rep 2 
 WOBA.klb                 9.00:  WOB Avg 
 WOBX.klb                12.00:  WOB Max 
 YP  .lhf2               30.00:  Yield Point 
~Curve Information Block
#MNEM.UNIT                 API CODE     Curve Description
#---------               -----------    ---------------------------
 TIME.HHMMSS            00 000 000 000:  GT Time & Date
 GTET.sec               00 000 000 000:  GT Elapsed Test Time
 GTPQH.psia             00 000 000 000:  GT HR Quartz Pressure
 GTDEPTH.m              00 000 000 000:  GT Depth
 GTTVD.m                00 000 000 000:  GT True Vertical Depth
 GTTQ.degC              00 000 000 000:  GT Quartz Temperature
 GTTN.NONE              00 000 000 000:  GT Test Number
#Other Information
#
#WARRANTY: Halliburton will use its best efforts to furnish customers with 
#accurate information and interpretations that are part of, and incident to, the services 
#provided.  However, Halliburton cannot and does not warrant the accuracy 
#or correctness of such information and interpretations.  Under no circumstances should any 
#such information or interpretation be relied upon as the sole basis for any drilling, 
#completion, production, or financial decision or any procedure involving any risk to the 
#safety of any drilling venture, drilling rig or its crew or any other third party.  The 
#Customer has full responsibility for all drilling, completion and production operation.  
#Halliburton makes no representations or warranties, either expressed or 
#implied, including, but not limited to, the implied warranties of merchantability or fitness 
#for a particular purpose, with respect to the services rendered.  In no event will 
#Halliburton be liable for failure to obtain any particular results or for 
#any damages, including, but not limited to, indirect, special or consequential damages, 
#resulting from the use of any information or interpretation provided by Halliburton.
#
~A           TIME            GTET   GTPQH  GTDEPTH  GTTVD  GTTQ  GTTN 
# ...
   08:21:41.450.05-Jan-2021 184.07 4455.45 3649.01 3076.03 80.41 5.00
   08:21:41.650.05-Jan-2021 184.27 4455.45 3649.01 3076.03 80.41 5.00
   08:21:41.850.05-Jan-2021 184.47 4455.37 3649.01 3076.03 80.41 5.00
   08:21:42.050.05-Jan-2021 184.67 4455.53 3649.01 3076.03 80.41 5.00
   08:21:42.250.05-Jan-2021 184.87 4455.31 3649.01 3076.03 80.41 5.00
   08:21:42.450.05-Jan-2021 185.07 4455.43 3649.01 3076.03 80.41 5.00
   08:21:42.650.05-Jan-2021 185.27 4455.43 3649.01 3076.03 80.41 5.00
   08:21:42.850.05-Jan-2021 185.47 4455.46 3649.01 3076.03 80.42 5.00
   08:21:43.050.05-Jan-2021 185.67 4455.36 3649.01 3076.03 80.42 5.00
   08:21:43.250.05-Jan-2021 185.87 4455.40 3649.01 3076.03 80.42 5.00
   08:21:43.450.05-Jan-2021 186.07 4455.50 3649.01 3076.03 80.42 5.00
   08:21:43.651.05-Jan-2021 186.27 4455.50 3649.01 3076.03 80.42 5.00
   08:21:43.851.05-Jan-2021 186.47 4455.47 3649.01 3076.03 80.42 5.00
   08:21:44.051.05-Jan-2021 186.67 4455.43 3649.01 3076.03 80.42 5.00
   08:21:44.251.05-Jan-2021 186.87 4455.44 3649.01 3076.03 80.42 5.00
   08:21:44.451.05-Jan-2021 187.07 4455.49 3649.01 3076.03 80.42 5.00
   08:21:44.651.05-Jan-2021 187.27 4455.49 3649.01 3076.03 80.42 5.00
   08:21:44.851.05-Jan-2021 187.47 4455.46 3649.01 3076.03 80.42 5.00
   08:21:45.051.05-Jan-2021 187.67 4455.50 3649.01 3076.03 80.42 5.00
   08:21:45.251.05-Jan-2021 187.87 4455.46 3649.01 3076.03 80.42 5.00
   08:21:45.451.05-Jan-2021 188.07 4455.44 3649.01 3076.03 80.42 5.00
   08:21:45.651.05-Jan-2021 188.27 4455.44 3649.01 3076.03 80.42 5.00
   08:21:45.851.05-Jan-2021 188.47 4455.47 3649.01 3076.03 80.42 5.00
   08:21:46.051.05-Jan-2021 188.67 4455.49 3649.01 3076.03 80.42 5.00
   08:21:46.252.05-Jan-2021 188.87 4455.46 3649.01 3076.03 80.42 5.00
   08:21:46.452.05-Jan-2021 189.07 4455.46 3649.01 3076.03 80.42 5.00
   08:21:46.652.05-Jan-2021 189.27 4455.46 3649.01 3076.03 80.42 5.00
   08:21:46.852.05-Jan-2021 189.47 4455.46 3649.01 3076.03 80.42 5.00
   08:21:47.052.05-Jan-2021 189.67 4455.49 3649.01 3076.03 80.42 5.00
   08:21:47.252.05-Jan-2021 189.87 4455.42 3649.01 3076.03 80.42 5.00
   08:21:47.452.05-Jan-2021 190.07 4455.50 3649.01 3076.03 80.42 5.00
   08:21:47.652.05-Jan-2021 190.27 4455.50 3649.01 3076.03 80.42 5.00
   08:21:47.852.05-Jan-2021 190.47 4455.46 3649.01 3076.03 80.42 5.00
   08:21:48.052.05-Jan-2021 190.67 4455.47 3649.01 3076.03 80.42 5.00
   08:21:48.252.05-Jan-2021 190.87 4455.48 3649.01 3076.03 80.42 5.00
   08:21:48.452.05-Jan-2021 191.07 4455.50 3649.01 3076.03 80.42 5.00
   08:21:48.652.05-Jan-2021 191.27 4455.50 3649.01 3076.03 80.42 5.00
   08:21:48.852.05-Jan-2021 191.47 4455.53 3649.01 3076.03 80.42 5.00
   08:21:49.053.05-Jan-2021 191.67 4455.44 3649.01 3076.03 80.42 5.00
   08:21:49.253.05-Jan-2021 191.87 4455.50 3649.01 3076.03 80.42 5.00
   08:21:49.453.05-Jan-2021 192.07 4455.49 3649.01 3076.03 80.42 5.00
   08:21:49.653.05-Jan-2021 192.27 4455.48 3649.01 3076.03 80.42 5.00
   08:21:49.853.05-Jan-2021 192.47 4455.50 3649.01 3076.03 80.42 5.00
   08:21:50.053.05-Jan-2021 192.67 4455.47 3649.01 3076.03 80.42 5.00
   08:21:50.253.05-Jan-2021 192.87 4455.46 3649.01 3076.03 80.42 5.00
   08:21:50.453.05-Jan-2021 193.07 4455.51 3649.01 3076.03 80.42 5.00
   08:21:50.653.05-Jan-2021 193.27 4455.51 3649.01 3076.03 80.42 5.00
   08:21:50.853.05-Jan-2021 193.47 4455.47 3649.01 3076.03 80.42 5.00
   08:21:51.053.05-Jan-2021 193.67 4455.39 3649.01 3076.03 80.42 5.00
   08:21:51.253.05-Jan-2021 193.87 4455.60 3649.01 3076.03 80.42 5.00
   08:21:51.453.05-Jan-2021 194.07 4455.49 3649.01 3076.03 80.42 5.00
   08:21:51.654.05-Jan-2021 194.27 4455.49 3649.01 3076.03 80.42 5.00
   08:21:51.854.05-Jan-2021 194.47 4455.43 3649.01 3076.03 80.42 5.00
   08:21:52.054.05-Jan-2021 194.67 4455.56 3649.01 3076.03 80.42 5.00
   08:21:52.254.05-Jan-2021 194.87 4455.42 3649.01 3076.03 80.42 5.00
   08:21:52.454.05-Jan-2021 195.07 4455.49 3649.01 3076.03 80.42 5.00
   08:21:52.654.05-Jan-2021 195.27 4455.49 3649.01 3076.03 80.42 5.00
   08:21:52.854.05-Jan-2021 195.47 4455.44 3649.01 3076.03 80.42 5.00
   08:21:53.054.05-Jan-2021 195.67 4455.43 3649.01 3076.03 80.42 5.00
   08:21:53.254.05-Jan-2021 195.87 4455.55 3649.01 3076.03 80.42 5.00
   08:21:53.454.05-Jan-2021 196.07 4455.50 3649.01 3076.03 80.42 5.00
   08:21:53.654.05-Jan-2021 196.27 4455.47 3649.01 3076.03 80.42 5.00
   08:21:53.854.05-Jan-2021 196.47 4455.52 3649.01 3076.03 80.42 5.00
   08:21:54.054.05-Jan-2021 196.67 4455.48 3649.01 3076.03 80.42 5.00
   08:21:54.255.05-Jan-2021 196.87 4455.52 3649.01 3076.03 80.42 5.00
   08:21:54.455.05-Jan-2021 197.07 4455.50 3649.01 3076.03 80.42 5.00
   08:21:54.655.05-Jan-2021 197.27 4455.50 3649.01 3076.03 80.42 5.00
   08:21:54.855.05-Jan-2021 197.47 4455.56 3649.01 3076.03 80.42 5.00
   08:21:55.055.05-Jan-2021 197.67 4455.48 3649.01 3076.03 80.42 5.00
   08:21:55.255.05-Jan-2021 197.87 4455.50 3649.01 3076.03 80.42 5.00
   08:21:55.455.05-Jan-2021 198.07 4455.52 3649.01 3076.03 80.42 5.00
   08:21:55.655.05-Jan-2021 198.27 4455.52 3649.01 3076.03 80.42 5.00
   08:21:55.855.05-Jan-2021 198.47 4455.58 3649.01 3076.03 80.42 5.00
   08:21:56.055.05-Jan-2021 198.67 4455.41 3649.01 3076.03 80.42 5.00
   08:21:56.255.05-Jan-2021 198.87 4455.52 3649.01 3076.03 80.42 5.00
   08:21:56.455.05-Jan-2021 199.07 4455.52 3649.01 3076.03 80.42 5.00
   08:21:56.655.05-Jan-2021 199.27 4455.52 3649.01 3076.03 80.43 5.00
   08:21:56.855.05-Jan-2021 199.47 4455.48 3649.01 3076.03 80.43 5.00
   08:21:57.056.05-Jan-2021 199.67 4455.47 3649.01 3076.03 80.43 5.00
   08:21:57.256.05-Jan-2021 199.87 4455.52 3649.01 3076.03 80.43 5.00
   08:21:57.456.05-Jan-2021 200.07 4455.48 3649.01 3076.03 80.43 5.00
   08:21:57.656.05-Jan-2021 200.27 4455.49 3649.01 3076.03 80.43 5.00
   08:21:57.856.05-Jan-2021 200.47 4455.54 3649.01 3076.03 80.43 5.00
   08:21:58.056.05-Jan-2021 200.67 4455.45 3649.01 3076.03 80.43 5.00
   08:21:58.256.05-Jan-2021 200.87 4455.54 3649.01 3076.03 80.43 5.00
   08:21:58.456.05-Jan-2021 201.07 4455.39 3649.01 3076.03 80.43 5.00
   08:21:58.656.05-Jan-2021 201.27 4455.39 3649.01 3076.03 80.43 5.00
   08:21:58.856.05-Jan-2021 201.47 4455.52 3649.01 3076.03 80.43 5.00
   08:21:59.056.05-Jan-2021 201.67 4455.63 3649.01 3076.03 80.43 5.00
   08:21:59.256.05-Jan-2021 201.87 4455.34 3649.01 3076.03 80.43 5.00
   08:21:59.456.05-Jan-2021 202.08 4455.54 3649.01 3076.03 80.43 5.00
   08:21:59.657.05-Jan-2021 202.28 4455.54 3649.01 3076.03 80.43 5.00
   08:21:59.857.05-Jan-2021 202.48 4455.48 3649.01 3076.03 80.43 5.00
   08:22:00.057.05-Jan-2021 202.68 4455.51 3649.01 3076.03 80.43 5.00
   08:22:00.257.05-Jan-2021 202.88 4455.48 3649.01 3076.03 80.43 5.00
   08:22:00.457.05-Jan-2021 203.08 4455.52 3649.01 3076.03 80.43 5.00
   08:22:00.657.05-Jan-2021 203.28 4455.52 3649.01 3076.03 80.43 5.00
   08:22:00.857.05-Jan-2021 203.48 4455.58 3649.01 3076.03 80.43 5.00
   08:22:01.057.05-Jan-2021 203.68 4455.51 3649.01 3076.03 80.43 5.00
   08:22:01.257.05-Jan-2021 203.88 4455.54 3649.01 3076.03 80.43 5.00
   08:22:01.457.05-Jan-2021 204.08 4455.46 3649.01 3076.03 80.43 5.00
   08:22:01.657.05-Jan-2021 204.28 4455.46 3649.01 3076.03 80.43 5.00
   08:22:01.857.05-Jan-2021 204.48 4455.52 3649.01 3076.03 80.43 5.00
   08:22:02.057.05-Jan-2021 204.68 4455.50 3649.01 3076.03 80.43 5.00
   08:22:02.257.05-Jan-2021 204.88 4455.50 3649.01 3076.03 80.43 5.00
   08:22:02.458.05-Jan-2021 205.08 4455.45 3649.01 3076.03 80.43 5.00
   08:22:02.658.05-Jan-2021 205.28 4455.45 3649.01 3076.03 80.43 5.00
   08:22:02.858.05-Jan-2021 205.48 4455.48 3649.01 3076.03 80.43 5.00
   08:22:03.058.05-Jan-2021 205.68 4455.50 3649.01 3076.03 80.43 5.00
   08:22:03.258.05-Jan-2021 205.88 4455.52 3649.01 3076.03 80.43 5.00
   08:22:03.458.05-Jan-2021 206.08 4455.48 3649.01 3076.03 80.43 5.00
   08:22:03.658.05-Jan-2021 206.28 4455.48 3649.01 3076.03 80.43 5.00
   08:22:03.858.05-Jan-2021 206.48 4455.51 3649.01 3076.03 80.43 5.00
   08:22:04.058.05-Jan-2021 206.68 4455.50 3649.01 3076.03 80.43 5.00
   08:22:04.258.05-Jan-2021 206.88 4455.49 3649.01 3076.03 80.43 5.00
