~Version Information
 VERS.                  2.0:   CWLS log ASCII Standard -VERSION 2.0
 WRAP.                   NO:   One line per depth step
~Well Information Block
#MNEM.UNIT     VALUE/NAME     DESCRIPTION
#---------     -----------    ---------------------------
 STRT.S             07:28:27 05-Jan-21: START TIME 07:28:27 05-Jan-21
 STOP.S             07:36:40 05-Jan-21: STOP TIME  07:36:40 05-Jan-21
 STEP.S                   0.00: STEP TIME
 NULL.                 -999.25: NULL VALUE
 DFWT.                        :  DIST FWL TEXT
 DFST.                        :  DIST FSL TEXT
 DMF .             Drill Floor:  DRILL MEAS FROM
 STIM.      06.00.00 31-Dec-20:  START TIME
 DATE.      05.58.24 07-Jan-21:  END TIME
 SPUD.               24-Dec-20:  SPUD DATE
 NREF.                    Grid:  NORTH REFERENCE
 HPTY.       Minimum Curvature:  HOLE POS TYPE
 DMOD.             Drill Model:  DRILL MOD DESC
 SVYD.                  Survey:  SURVEY DESC
 ILTD.               Lithology:  INTERP LTH DESC
 FTOP.          Formation Tops:  FORM TOPS DESC
 SON .        AZ-XX-0906699554:  JOB NUMBER
 WELL.                    B09z:  WELL NAME
 PDAT.          Mean Sea Level:  PERMANENT DATUM
 FLD .                     ACG:  FIELD NAME
 CTRY.              Azerbaijan:  COUNTRY NAME
 COMP.     BP Exploration (Caspian Sea) Ltd.:  COMPANY
 UWI .                     N/A:  UNIQUE WELL IDENTIFIER
 API .                     N/A:  API NUMBER
 WTYP.                Deviated:  WELL TYPE
 MDS .        Operator Entered:  MAG DATA SOURCE
 BASE.              Azerbaijan:  LOGGING EQUIPMENT BASE LOCATION
 REGN.                   EESSA:  REGION
 PROV.                    Baku:  PROVINCE
 STAT.                    Baku:  STATE NAME
 SRVC.          Turan Drilling:  CONTRACTOR
 MWDS.                    Baku:  MWD SHOP
 JOBN.        AZ-XX-0906699554:  JOB TICKET NUMB
 RIG .           Central Azeri:  RIG NAME
 DOE .                     N/A:  DOE NUMBER
 DCON.         Sperry Drilling:  DIRECTNL CONTR
 UNIT.                     N/A:  LOGGING EQUIPMENT ID
 CNTY.                        :  COUNTY
 LOC .                        :  LOCATION
 LMF .             Drill Floor:  LOG MEASURED FROM
 TVDS.m                  43.29:  TVDSS CORRECTN
 LATI.deg                40.03:  LATITUDE
 LONG.deg                51.35:  LONGITUDE
 WHNS.m                  -2.76:  WELL HEAD N/S
 WHEW.m                  -7.70:  WELL HEAD E/W
 UTMX.m              530128.28:  UTM X
 UTMY.m             4433192.49:  UTM Y
 DFWL.m                   0.00:  DISTANCE FWL
 DFSL.m                   0.00:  DISTANCE FSL
 SDEP.m                3435.01:  START DEPTH
 TDD .m                3814.01:  TOTAL DEPTH (DRILLER)
 VSDR.deg               352.80:  VERT SEC DIRECT
 GVFD.g                   1.00:  GRAVITY FIELD
 MFLD.nT              50303.00:  MAGNETIC FIELD
 MDIP.deg                59.52:  MAGNETIC DIP
 MDEC.deg                 6.47:  MAGNETIC DECL
 GRDC.deg                 0.23:  GRID CORRECTION
 AZTC.deg                 6.24:  AZM TOTAL CORR
 EPD .m                   0.00:  ELEVATION
 EGL .m                   0.00:  GROUND ELEVATION
 WDMS.m                 128.20:  WD ELEV
 APD .m                  43.29:  DEPTH ABOVE PD
 DEP .m                3421.30:  DEPTH
 AGAP.m                  43.60:  AIR GAP
 VSEW.m                  -7.70:  VERT SEC E/W
 VSNS.m                  -2.76:  VERT SEC N/S
 EKB .m                   0.00:  KB ELEVATION
 EDF .m                  43.29:  DF ELEVATION
 TDL .m                 369.00:  TOTAL DEPTH (LOGGER)
 VSC .                       0:  VS TO CLOSURE
 MAGU.                 1850390:  MAGUTM CHECKSUM
~Parameter Information Block
#MNEM.UNIT       Value        Description
#---------     -----------    ---------------------------
 AV  .mps                 2.80:  Ann Velocity 
 AVMX.mps                 4.67:  Max Ann Veloc 
 AZIF.deg               303.89:  Azm, Final 
 BHAT.        Rotary Steerable:  BHA Type 
 BREV.rev            128542.00:  Rev Bit Total 
 BROT.°/30m               1.50:  Build Rotating 
 BS  .in                  8.50:  Bit Size 
 BSZ .in                  8.50:  Bit Size 
 BTPL.psig              715.00:  Bit Press Loss 
 CABU.                      No:  Customer Abuse 
 COMM.                     ÜNb:  Run Comments 1 
 TCS .hr                 53.00:  Time Ciculation Ended 
 CV  .mps                 3.85:  Crit Velocity 
 CVMX.mps                 4.75:  Max Crit Veloc 
 DD1 .         Intigam Rahimov:  Direct Drillr 1 
 DDSV.                 iCruise:  DD Service 
 DEFF.%                  98.60:  % Det Eff 
 DLRX.°/30m               2.34:  Dogleg Rot Max 
 DLSO.°/30m               0.00:  Dogleg Oriented 
 DLSX.°/30m               0.00:  Dogleg Str Max 
 DRET.      00.15.00 05-Jan-21:  Drill End Time 
 DRST.      22.00.00 03-Jan-21:  Drill Start Tim 
 DTIM.hr                 17.72:  Time Drilling 
 EDEP.m                3814.01:  End Depth 
 ENG1.         Yevgeniy Ulikov:  Engineer 1 
 ENG2.        Farkhad Khalidov:  Engineer 2 
 ENG3.           Samir Gafarov:  Engineer 3 
 ETIM.      21.00.00 07-Jan-21:  End Time 
 FLOI.gpm               590.00:  Flow In 
 FLON.gpm               580.00:  Flow In Min 
 FLOS.cptm                1.00:  Fluid Loss 
 FLOX.gpm               595.00:  Flow In Max 
 FTRO.     Connectivity, Formation Presure:  FTWD Run Obj 
 HFLO.                      No:  High Flow 
 HPRE.                     Yes:  High Pressure 
 HTEM.                      No:  High Temp 
 HYDO.m                   1.80:  Hydro Offset 
 IFIN.deg                63.76:  Inc, Final 
 IMAX.deg                64.09:  Inc Max 
 IMIN.deg                55.81:  Inc Min 
 IMND.m                3455.62:  Inc Min Depth 
 IMXD.m                3796.03:  Inc Max Depth 
 JARR.                      No:  Jarring 
 LETM.      00.15.00 05-Jan-21:  Log End Time 
 LOST.hr                     0:  Lost Rig Time 
 LSTM.      22.00.00 03-Jan-21:  Log Start Time 
 MDCL.ppm             36000.00:  Mud Chlorides 
 MDES.     Inversion Oil/Synthetic:  Mud Desc 
 DFD .sg                  1.51:  Mud Density 
 MDMN.sg                  1.51:  Dens Mud Min 
 MDMX.sg                  1.51:  Dens Mud Max 
 MOIL.                    55.5:  Run Mud Oil % 
 MOWR.                   70:30:  Run Mud OWR 
 MSND.                     0.1:  Run Mud Sand % 
 MSOL.                   20.77:  Run Mud Solids% 
 DFV .spqt               67.00:  Mud Viscosity 
 MWOD.in                  6.75:  MWD Tool OD 
 MWSI.                      No:  Serv Intrp, MWD 
 OTIM.hr                113.53:  Time Operating 
 PCON.           Look Like New:  Pad Condition 
 PMAX.psia             4830.00:  Press Op, Max 
 PV  .cP                 29.00:  Mud PV 
 RUN .                     300:  Run Number 
 ROPA.m/hr               22.00:  ROP Avg 
 ROPN.m/hr               18.00:  ROP Min 
 ROPX.m/hr               25.00:  ROP Max 
 RPMA.rpm               130.00:  RPM Surface Avg 
 RPMN.rpm                80.00:  RPM Surface Min 
 RPMX.rpm               140.00:  RPM Surface Max 
 RRUN.                    L101:  Rig Run Number 
 RTIM.hr                  9.28:  Time Reaming 
 SAZI.deg               316.55:  Azm, Start 
 SDEP.m                3445.01:  Start Depth 
 SIDD.                      No:  Serv Intrp, DD 
 SINC.deg                55.81:  Inc, Start 
 SPPA.psig             4500.00:  SPP Avg 
 SPPN.psig             4350.00:  SPP Min 
 SPPX.psig             4830.00:  SPP Max 
 STIM.      00.00.00 03-Jan-21:  Start Time 
 SVCS.                 DD, MWD:  Services 
 SVER.                    9.20:  Sperry Version 
 TDAT.m                 369.00:  Tot Depth Attmp 
 TDDF.                      No:  Trip for DD 
 TDLG.m                 369.00:  Tot Depth Loggd 
 TFF .                      No:  Trip for Fail 
 TQAA.f-kp               15.00:  Torque Abs Avg 
 TQAN.f-kp               12.00:  Torque Abs Min 
 TQAX.f-kp               16.00:  Torque Abs Max 
 TRRT.°/30m              -2.10:  Turn Rotating 
 MRT .                    HCIM:  Maximum Recorded Temperature 
 TTMX.degC               92.16:  Max Tool Temp 
 VS01.                90627822:  Virtual Str1 SN 
 VS02.                90550008:  Virtual Str2 SN 
 VS03.                90627816:  Virtual Str3 SN 
 VS04.                90633205:  Virtual Str4 SN 
 VS05.                13033835:  Virtual Str5 SN 
 VS06.                11125125:  Virtual Str6 SN 
 WBMN.klb                 8.00:  WOB Min 
 WITN.            Bruce Cheyne:  Customer Rep 
 WITN.           Faig Mammadov:  Customer Rep 2 
 WOBA.klb                 9.00:  WOB Avg 
 WOBX.klb                12.00:  WOB Max 
 YP  .lhf2               30.00:  Yield Point 
~Curve Information Block
#MNEM.UNIT                 API CODE     Curve Description
#---------               -----------    ---------------------------
 TIME.HHMMSS            00 000 000 000:  GT Time & Date
 GTET.sec               00 000 000 000:  GT Elapsed Test Time
 GTPQH.psia             00 000 000 000:  GT HR Quartz Pressure
 GTDEPTH.m              00 000 000 000:  GT Depth
 GTTVD.m                00 000 000 000:  GT True Vertical Depth
 GTTQ.degC              00 000 000 000:  GT Quartz Temperature
 GTTN.NONE              00 000 000 000:  GT Test Number
#Other Information
#
#WARRANTY: Halliburton will use its best efforts to furnish customers with 
#accurate information and interpretations that are part of, and incident to, the services 
#provided.  However, Halliburton cannot and does not warrant the accuracy 
#or correctness of such information and interpretations.  Under no circumstances should any 
#such information or interpretation be relied upon as the sole basis for any drilling, 
#completion, production, or financial decision or any procedure involving any risk to the 
#safety of any drilling venture, drilling rig or its crew or any other third party.  The 
#Customer has full responsibility for all drilling, completion and production operation.  
#Halliburton makes no representations or warranties, either expressed or 
#implied, including, but not limited to, the implied warranties of merchantability or fitness 
#for a particular purpose, with respect to the services rendered.  In no event will 
#Halliburton be liable for failure to obtain any particular results or for 
#any damages, including, but not limited to, indirect, special or consequential damages, 
#resulting from the use of any information or interpretation provided by Halliburton.
#
~A           TIME            GTET   GTPQH  GTDEPTH  GTTVD  GTTQ  GTTN 
   07:28:27.264.05-Jan-2021   0.00 7533.04 3656.51 3079.56 80.98 4.00
   07:28:27.464.05-Jan-2021   0.20 7533.04 3656.51 3079.56 80.98 4.00
   07:28:27.664.05-Jan-2021   0.40 7519.31 3656.51 3079.56 80.98 4.00
   07:28:27.864.05-Jan-2021   0.60 7523.80 3656.51 3079.56 80.98 4.00
   07:28:28.065.05-Jan-2021   0.80 7522.08 3656.51 3079.56 80.98 4.00
   07:28:28.265.05-Jan-2021   1.00 7527.94 3656.51 3079.56 80.98 4.00
   07:28:28.465.05-Jan-2021   1.20 7527.94 3656.51 3079.56 80.98 4.00
   07:28:28.665.05-Jan-2021   1.40 7523.60 3656.51 3079.56 80.98 4.00
   07:28:28.865.05-Jan-2021   1.60 7536.66 3656.51 3079.56 80.98 4.00
   07:28:29.065.05-Jan-2021   1.80 7521.07 3656.51 3079.56 80.99 4.00
   07:28:29.265.05-Jan-2021   2.00 7525.71 3656.51 3079.56 80.99 4.00
   07:28:29.465.05-Jan-2021   2.20 7525.71 3656.51 3079.56 80.99 4.00
   07:28:29.665.05-Jan-2021   2.40 7522.64 3656.51 3079.56 80.99 4.00
   07:28:29.865.05-Jan-2021   2.60 7528.43 3656.51 3079.56 80.99 4.00
   07:28:30.065.05-Jan-2021   2.80 7529.70 3656.51 3079.56 80.99 4.00
   07:28:30.265.05-Jan-2021   3.00 7528.07 3656.51 3079.56 80.99 4.00
   07:28:30.465.05-Jan-2021   3.20 7528.07 3656.51 3079.56 80.99 4.00
   07:28:30.665.05-Jan-2021   3.40 7530.43 3656.51 3079.56 80.99 4.00
   07:28:30.866.05-Jan-2021   3.60 7532.79 3656.51 3079.56 80.99 4.00
   07:28:31.066.05-Jan-2021   3.80 7524.69 3656.51 3079.56 80.99 4.00
   07:28:31.266.05-Jan-2021   4.00 7526.41 3656.51 3079.56 80.99 4.00
   07:28:31.466.05-Jan-2021   4.20 7526.41 3656.51 3079.56 80.99 4.00
   07:28:31.666.05-Jan-2021   4.40 7527.12 3656.51 3079.56 80.99 4.00
   07:28:31.866.05-Jan-2021   4.60 7536.52 3656.51 3079.56 80.99 4.00
   07:28:32.066.05-Jan-2021   4.80 7527.15 3656.51 3079.56 80.99 4.00
   07:28:32.266.05-Jan-2021   5.00 7525.78 3656.51 3079.56 80.99 4.00
   07:28:32.466.05-Jan-2021   5.20 7525.78 3656.51 3079.56 80.99 4.00
   07:28:32.666.05-Jan-2021   5.40 7528.06 3656.51 3079.56 80.99 4.00
   07:28:32.866.05-Jan-2021   5.60 7531.09 3656.51 3079.56 80.99 4.00
   07:28:33.066.05-Jan-2021   5.80 7528.74 3656.51 3079.56 80.99 4.00
   07:28:33.266.05-Jan-2021   6.00 7531.79 3656.51 3079.56 80.99 4.00
   07:28:33.467.05-Jan-2021   6.20 7531.79 3656.51 3079.56 80.99 4.00
   07:28:33.667.05-Jan-2021   6.40 7528.81 3656.51 3079.56 80.99 4.00
   07:28:33.867.05-Jan-2021   6.60 7530.74 3656.51 3079.56 80.99 4.00
   07:28:34.067.05-Jan-2021   6.80 7545.70 3656.51 3079.56 80.99 4.00
   07:28:34.267.05-Jan-2021   7.00 7527.45 3656.51 3079.56 80.99 4.00
   07:28:34.467.05-Jan-2021   7.20 7527.45 3656.51 3079.56 80.99 4.00
   07:28:34.667.05-Jan-2021   7.40 7533.93 3656.51 3079.56 80.99 4.00
   07:28:34.867.05-Jan-2021   7.60 7533.10 3656.51 3079.56 80.99 4.00
   07:28:35.067.05-Jan-2021   7.80 7534.20 3656.51 3079.56 80.99 4.00
   07:28:35.267.05-Jan-2021   8.00 7537.03 3656.51 3079.56 80.99 4.00
   07:28:35.467.05-Jan-2021   8.20 7537.03 3656.51 3079.56 80.99 4.00
   07:28:35.667.05-Jan-2021   8.40 7538.91 3656.51 3079.56 80.99 4.00
   07:28:35.867.05-Jan-2021   8.60 7537.47 3656.51 3079.56 80.99 4.00
   07:28:36.067.05-Jan-2021   8.80 7539.15 3656.51 3079.56 80.99 4.00
   07:28:36.268.05-Jan-2021   9.00 7538.81 3656.51 3079.56 80.99 4.00
   07:28:36.468.05-Jan-2021   9.20 7538.81 3656.51 3079.56 80.99 4.00
   07:28:36.668.05-Jan-2021   9.40 7540.57 3656.51 3079.56 80.99 4.00
   07:28:36.868.05-Jan-2021   9.60 7551.54 3656.51 3079.56 80.99 4.00
   07:28:37.068.05-Jan-2021   9.80 7540.83 3656.51 3079.56 80.99 4.00
   07:28:37.268.05-Jan-2021  10.00 7543.56 3656.51 3079.56 80.99 4.00
   07:28:37.468.05-Jan-2021  10.20 7543.56 3656.51 3079.56 80.99 4.00
   07:28:37.668.05-Jan-2021  10.40 7548.10 3656.51 3079.56 80.99 4.00
   07:28:37.868.05-Jan-2021  10.60 7549.31 3656.51 3079.56 80.99 4.00
   07:28:38.068.05-Jan-2021  10.80 7547.80 3656.51 3079.56 80.99 4.00
   07:28:38.268.05-Jan-2021  11.00 7548.43 3656.51 3079.56 80.99 4.00
   07:28:38.468.05-Jan-2021  11.20 7548.43 3656.51 3079.56 80.99 4.00
   07:28:38.668.05-Jan-2021  11.40 7547.87 3656.51 3079.56 81.00 4.00
   07:28:38.869.05-Jan-2021  11.60 7546.13 3656.51 3079.56 81.00 4.00
   07:28:39.069.05-Jan-2021  11.80 7548.46 3656.51 3079.56 81.00 4.00
   07:28:39.269.05-Jan-2021  12.00 7548.44 3656.51 3079.56 81.00 4.00
   07:28:39.469.05-Jan-2021  12.20 7548.44 3656.51 3079.56 81.00 4.00
   07:28:39.669.05-Jan-2021  12.40 7544.55 3656.51 3079.56 81.00 4.00
   07:28:39.869.05-Jan-2021  12.60 7549.30 3656.51 3079.56 81.00 4.00
   07:28:40.069.05-Jan-2021  12.80 7548.45 3656.51 3079.56 81.00 4.00
   07:28:40.269.05-Jan-2021  13.00 7562.12 3656.51 3079.56 81.00 4.00
   07:28:40.469.05-Jan-2021  13.20 7562.12 3656.51 3079.56 81.00 4.00
   07:28:40.669.05-Jan-2021  13.40 7550.26 3656.51 3079.56 81.00 4.00
   07:28:40.869.05-Jan-2021  13.61 7549.38 3656.51 3079.56 81.00 4.00
   07:28:41.069.05-Jan-2021  13.81 7554.31 3656.51 3079.56 81.00 4.00
   07:28:41.269.05-Jan-2021  14.01 7557.20 3656.51 3079.56 81.00 4.00
   07:28:41.470.05-Jan-2021  14.21 7557.20 3656.51 3079.56 81.00 4.00
   07:28:41.670.05-Jan-2021  14.41 7550.18 3656.51 3079.56 81.00 4.00
   07:28:41.870.05-Jan-2021  14.61 7551.14 3656.51 3079.56 81.00 4.00
   07:28:42.070.05-Jan-2021  14.81 7557.29 3656.51 3079.56 81.00 4.00
   07:28:42.270.05-Jan-2021  15.01 7546.40 3656.51 3079.56 81.00 4.00
   07:28:42.470.05-Jan-2021  15.21 7546.40 3656.51 3079.56 81.00 4.00
   07:28:42.670.05-Jan-2021  15.41 7546.40 3656.51 3079.56 81.00 4.00
   07:28:42.870.05-Jan-2021  15.61 7549.24 3656.51 3079.56 81.00 4.00
   07:28:43.070.05-Jan-2021  15.81 7552.40 3656.51 3079.56 81.00 4.00
   07:28:43.270.05-Jan-2021  16.01 7554.13 3656.51 3079.56 81.00 4.00
   07:28:43.470.05-Jan-2021  16.21 7554.13 3656.51 3079.56 81.00 4.00
   07:28:43.670.05-Jan-2021  16.41 7564.88 3656.51 3079.56 81.00 4.00
   07:28:43.870.05-Jan-2021  16.61 7548.34 3656.51 3079.56 81.00 4.00
   07:28:44.070.05-Jan-2021  16.81 7550.80 3656.51 3079.56 81.00 4.00
   07:28:44.271.05-Jan-2021  17.01 7550.48 3656.51 3079.56 81.00 4.00
   07:28:44.471.05-Jan-2021  17.21 7550.48 3656.51 3079.56 81.00 4.00
   07:28:44.671.05-Jan-2021  17.41 7551.08 3656.51 3079.56 81.00 4.00
   07:28:44.871.05-Jan-2021  17.61 7552.42 3656.51 3079.56 81.00 4.00
   07:28:45.071.05-Jan-2021  17.81 7550.41 3656.51 3079.56 81.00 4.00
   07:28:45.271.05-Jan-2021  18.01 7552.10 3656.51 3079.56 81.00 4.00
   07:28:45.471.05-Jan-2021  18.21 7552.10 3656.51 3079.56 81.00 4.00
   07:28:45.671.05-Jan-2021  18.41 7553.57 3656.51 3079.56 81.00 4.00
   07:28:45.871.05-Jan-2021  18.61 7552.11 3656.51 3079.56 81.00 4.00
   07:28:46.071.05-Jan-2021  18.81 7552.78 3656.51 3079.56 81.00 4.00
   07:28:46.271.05-Jan-2021  19.01 7550.24 3656.51 3079.56 81.00 4.00
   07:28:46.471.05-Jan-2021  19.21 7550.24 3656.51 3079.56 81.00 4.00
   07:28:46.671.05-Jan-2021  19.41 7545.22 3656.51 3079.56 81.00 4.00
   07:28:46.872.05-Jan-2021  19.61 7551.98 3656.51 3079.56 81.00 4.00
   07:28:47.072.05-Jan-2021  19.81 7549.57 3656.51 3079.56 81.00 4.00
   07:28:47.272.05-Jan-2021  20.01 7552.19 3656.51 3079.56 81.00 4.00
   07:28:47.472.05-Jan-2021  20.21 7552.19 3656.51 3079.56 81.00 4.00
   07:28:47.672.05-Jan-2021  20.41 7554.78 3656.51 3079.56 81.00 4.00
   07:28:47.872.05-Jan-2021  20.61 7551.70 3656.51 3079.56 81.00 4.00
   07:28:48.072.05-Jan-2021  20.81 7554.80 3656.51 3079.56 81.00 4.00
   07:28:48.272.05-Jan-2021  21.01 7553.54 3656.51 3079.56 81.01 4.00
   07:28:48.472.05-Jan-2021  21.21 7553.54 3656.51 3079.56 81.01 4.00
   07:28:48.672.05-Jan-2021  21.41 7555.22 3656.51 3079.56 81.01 4.00
   07:28:48.872.05-Jan-2021  21.61 7556.60 3656.51 3079.56 81.01 4.00
   07:28:49.072.05-Jan-2021  21.81 7555.65 3656.51 3079.56 81.01 4.00
   07:28:49.272.05-Jan-2021  22.01 7566.62 3656.51 3079.56 81.01 4.00
   07:28:49.472.05-Jan-2021  22.21 7566.62 3656.51 3079.56 81.01 4.00
   07:28:49.673.05-Jan-2021  22.41 7552.10 3656.51 3079.56 81.01 4.00
   07:28:49.873.05-Jan-2021  22.61 7561.66 3656.51 3079.56 81.01 4.00
   07:28:50.073.05-Jan-2021  22.81 7552.94 3656.51 3079.56 81.01 4.00
