~Version Information
 VERS.                  2.0:   CWLS log ASCII Standard -VERSION 2.0
 WRAP.                   NO:   One line per depth step
~Well Information Block
#MNEM.UNIT     VALUE/NAME     DESCRIPTION
#---------     -----------    ---------------------------
 STRT.S             08:18:37 05-Jan-21: START TIME 08:18:37 05-Jan-21
 STOP.S             08:26:49 05-Jan-21: STOP TIME  08:26:49 05-Jan-21
 STEP.S                   0.00: STEP TIME
 NULL.                 -999.25: NULL VALUE
 DFWT.                        :  DIST FWL TEXT
 DFST.                        :  DIST FSL TEXT
 DMF .             Drill Floor:  DRILL MEAS FROM
 STIM.      06.00.00 31-Dec-20:  START TIME
 DATE.      05.58.24 07-Jan-21:  END TIME
 SPUD.               24-Dec-20:  SPUD DATE
 NREF.                    Grid:  NORTH REFERENCE
 HPTY.       Minimum Curvature:  HOLE POS TYPE
 DMOD.             Drill Model:  DRILL MOD DESC
 SVYD.                  Survey:  SURVEY DESC
 ILTD.               Lithology:  INTERP LTH DESC
 FTOP.          Formation Tops:  FORM TOPS DESC
 SON .        AZ-XX-0906699554:  JOB NUMBER
 WELL.                    B09z:  WELL NAME
 PDAT.          Mean Sea Level:  PERMANENT DATUM
 FLD .                     ACG:  FIELD NAME
 CTRY.              Azerbaijan:  COUNTRY NAME
 COMP.     BP Exploration (Caspian Sea) Ltd.:  COMPANY
 UWI .                     N/A:  UNIQUE WELL IDENTIFIER
 API .                     N/A:  API NUMBER
 WTYP.                Deviated:  WELL TYPE
 MDS .        Operator Entered:  MAG DATA SOURCE
 BASE.              Azerbaijan:  LOGGING EQUIPMENT BASE LOCATION
 REGN.                   EESSA:  REGION
 PROV.                    Baku:  PROVINCE
 STAT.                    Baku:  STATE NAME
 SRVC.          Turan Drilling:  CONTRACTOR
 MWDS.                    Baku:  MWD SHOP
 JOBN.        AZ-XX-0906699554:  JOB TICKET NUMB
 RIG .           Central Azeri:  RIG NAME
 DOE .                     N/A:  DOE NUMBER
 DCON.         Sperry Drilling:  DIRECTNL CONTR
 UNIT.                     N/A:  LOGGING EQUIPMENT ID
 CNTY.                        :  COUNTY
 LOC .                        :  LOCATION
 LMF .             Drill Floor:  LOG MEASURED FROM
 TVDS.m                  43.29:  TVDSS CORRECTN
 LATI.deg                40.03:  LATITUDE
 LONG.deg                51.35:  LONGITUDE
 WHNS.m                  -2.76:  WELL HEAD N/S
 WHEW.m                  -7.70:  WELL HEAD E/W
 UTMX.m              530128.28:  UTM X
 UTMY.m             4433192.49:  UTM Y
 DFWL.m                   0.00:  DISTANCE FWL
 DFSL.m                   0.00:  DISTANCE FSL
 SDEP.m                3435.01:  START DEPTH
 TDD .m                3814.01:  TOTAL DEPTH (DRILLER)
 VSDR.deg               352.80:  VERT SEC DIRECT
 GVFD.g                   1.00:  GRAVITY FIELD
 MFLD.nT              50303.00:  MAGNETIC FIELD
 MDIP.deg                59.52:  MAGNETIC DIP
 MDEC.deg                 6.47:  MAGNETIC DECL
 GRDC.deg                 0.23:  GRID CORRECTION
 AZTC.deg                 6.24:  AZM TOTAL CORR
 EPD .m                   0.00:  ELEVATION
 EGL .m                   0.00:  GROUND ELEVATION
 WDMS.m                 128.20:  WD ELEV
 APD .m                  43.29:  DEPTH ABOVE PD
 DEP .m                3421.30:  DEPTH
 AGAP.m                  43.60:  AIR GAP
 VSEW.m                  -7.70:  VERT SEC E/W
 VSNS.m                  -2.76:  VERT SEC N/S
 EKB .m                   0.00:  KB ELEVATION
 EDF .m                  43.29:  DF ELEVATION
 TDL .m                 369.00:  TOTAL DEPTH (LOGGER)
 VSC .                       0:  VS TO CLOSURE
 MAGU.                 1850390:  MAGUTM CHECKSUM
~Parameter Information Block
#MNEM.UNIT       Value        Description
#---------     -----------    ---------------------------
 AV  .mps                 2.80:  Ann Velocity 
 AVMX.mps                 4.67:  Max Ann Veloc 
 AZIF.deg               303.89:  Azm, Final 
 BHAT.        Rotary Steerable:  BHA Type 
 BREV.rev            128542.00:  Rev Bit Total 
 BROT.°/30m               1.50:  Build Rotating 
 BS  .in                  8.50:  Bit Size 
 BSZ .in                  8.50:  Bit Size 
 BTPL.psig              715.00:  Bit Press Loss 
 CABU.                      No:  Customer Abuse 
 COMM.                     ¤’i:  Run Comments 1 
 TCS .hr                 53.00:  Time Ciculation Ended 
 CV  .mps                 3.85:  Crit Velocity 
 CVMX.mps                 4.75:  Max Crit Veloc 
 DD1 .         Intigam Rahimov:  Direct Drillr 1 
 DDSV.                 iCruise:  DD Service 
 DEFF.%                  98.60:  % Det Eff 
 DLRX.°/30m               2.34:  Dogleg Rot Max 
 DLSO.°/30m               0.00:  Dogleg Oriented 
 DLSX.°/30m               0.00:  Dogleg Str Max 
 DRET.      00.15.00 05-Jan-21:  Drill End Time 
 DRST.      22.00.00 03-Jan-21:  Drill Start Tim 
 DTIM.hr                 17.72:  Time Drilling 
 EDEP.m                3814.01:  End Depth 
 ENG1.         Yevgeniy Ulikov:  Engineer 1 
 ENG2.        Farkhad Khalidov:  Engineer 2 
 ENG3.           Samir Gafarov:  Engineer 3 
 ETIM.      21.00.00 07-Jan-21:  End Time 
 FLOI.gpm               590.00:  Flow In 
 FLON.gpm               580.00:  Flow In Min 
 FLOS.cptm                1.00:  Fluid Loss 
 FLOX.gpm               595.00:  Flow In Max 
 FTRO.     Connectivity, Formation Presure:  FTWD Run Obj 
 HFLO.                      No:  High Flow 
 HPRE.                     Yes:  High Pressure 
 HTEM.                      No:  High Temp 
 HYDO.m                   1.80:  Hydro Offset 
 IFIN.deg                63.76:  Inc, Final 
 IMAX.deg                64.09:  Inc Max 
 IMIN.deg                55.81:  Inc Min 
 IMND.m                3455.62:  Inc Min Depth 
 IMXD.m                3796.03:  Inc Max Depth 
 JARR.                      No:  Jarring 
 LETM.      00.15.00 05-Jan-21:  Log End Time 
 LOST.hr                     0:  Lost Rig Time 
 LSTM.      22.00.00 03-Jan-21:  Log Start Time 
 MDCL.ppm             36000.00:  Mud Chlorides 
 MDES.     Inversion Oil/Synthetic:  Mud Desc 
 DFD .sg                  1.51:  Mud Density 
 MDMN.sg                  1.51:  Dens Mud Min 
 MDMX.sg                  1.51:  Dens Mud Max 
 MOIL.                    55.5:  Run Mud Oil % 
 MOWR.                   70:30:  Run Mud OWR 
 MSND.                     0.1:  Run Mud Sand % 
 MSOL.                   20.77:  Run Mud Solids% 
 DFV .spqt               67.00:  Mud Viscosity 
 MWOD.in                  6.75:  MWD Tool OD 
 MWSI.                      No:  Serv Intrp, MWD 
 OTIM.hr                113.53:  Time Operating 
 PCON.           Look Like New:  Pad Condition 
 PMAX.psia             4830.00:  Press Op, Max 
 PV  .cP                 29.00:  Mud PV 
 RUN .                     300:  Run Number 
 ROPA.m/hr               22.00:  ROP Avg 
 ROPN.m/hr               18.00:  ROP Min 
 ROPX.m/hr               25.00:  ROP Max 
 RPMA.rpm               130.00:  RPM Surface Avg 
 RPMN.rpm                80.00:  RPM Surface Min 
 RPMX.rpm               140.00:  RPM Surface Max 
 RRUN.                    L101:  Rig Run Number 
 RTIM.hr                  9.28:  Time Reaming 
 SAZI.deg               316.55:  Azm, Start 
 SDEP.m                3445.01:  Start Depth 
 SIDD.                      No:  Serv Intrp, DD 
 SINC.deg                55.81:  Inc, Start 
 SPPA.psig             4500.00:  SPP Avg 
 SPPN.psig             4350.00:  SPP Min 
 SPPX.psig             4830.00:  SPP Max 
 STIM.      00.00.00 03-Jan-21:  Start Time 
 SVCS.                 DD, MWD:  Services 
 SVER.                    9.20:  Sperry Version 
 TDAT.m                 369.00:  Tot Depth Attmp 
 TDDF.                      No:  Trip for DD 
 TDLG.m                 369.00:  Tot Depth Loggd 
 TFF .                      No:  Trip for Fail 
 TQAA.f-kp               15.00:  Torque Abs Avg 
 TQAN.f-kp               12.00:  Torque Abs Min 
 TQAX.f-kp               16.00:  Torque Abs Max 
 TRRT.°/30m              -2.10:  Turn Rotating 
 MRT .                    HCIM:  Maximum Recorded Temperature 
 TTMX.degC               92.16:  Max Tool Temp 
 VS01.                90627822:  Virtual Str1 SN 
 VS02.                90550008:  Virtual Str2 SN 
 VS03.                90627816:  Virtual Str3 SN 
 VS04.                90633205:  Virtual Str4 SN 
 VS05.                13033835:  Virtual Str5 SN 
 VS06.                11125125:  Virtual Str6 SN 
 WBMN.klb                 8.00:  WOB Min 
 WITN.            Bruce Cheyne:  Customer Rep 
 WITN.           Faig Mammadov:  Customer Rep 2 
 WOBA.klb                 9.00:  WOB Avg 
 WOBX.klb                12.00:  WOB Max 
 YP  .lhf2               30.00:  Yield Point 
~Curve Information Block
#MNEM.UNIT                 API CODE     Curve Description
#---------               -----------    ---------------------------
 TIME.HHMMSS            00 000 000 000:  GT Time & Date
 GTET.sec               00 000 000 000:  GT Elapsed Test Time
 GTPQH.psia             00 000 000 000:  GT HR Quartz Pressure
 GTDEPTH.m              00 000 000 000:  GT Depth
 GTTVD.m                00 000 000 000:  GT True Vertical Depth
 GTTQ.degC              00 000 000 000:  GT Quartz Temperature
 GTTN.NONE              00 000 000 000:  GT Test Number
#Other Information
#
#WARRANTY: Halliburton will use its best efforts to furnish customers with 
#accurate information and interpretations that are part of, and incident to, the services 
#provided.  However, Halliburton cannot and does not warrant the accuracy 
#or correctness of such information and interpretations.  Under no circumstances should any 
#such information or interpretation be relied upon as the sole basis for any drilling, 
#completion, production, or financial decision or any procedure involving any risk to the 
#safety of any drilling venture, drilling rig or its crew or any other third party.  The 
#Customer has full responsibility for all drilling, completion and production operation.  
#Halliburton makes no representations or warranties, either expressed or 
#implied, including, but not limited to, the implied warranties of merchantability or fitness 
#for a particular purpose, with respect to the services rendered.  In no event will 
#Halliburton be liable for failure to obtain any particular results or for 
#any damages, including, but not limited to, indirect, special or consequential damages, 
#resulting from the use of any information or interpretation provided by Halliburton.
#
~A           TIME            GTET   GTPQH  GTDEPTH  GTTVD  GTTQ  GTTN 
# ...
   08:20:32.424.05-Jan-2021 115.04 4455.17 3649.01 3076.03 80.37 5.00
   08:20:32.624.05-Jan-2021 115.24 4455.17 3649.01 3076.03 80.37 5.00
   08:20:32.824.05-Jan-2021 115.44 4455.73 3649.01 3076.03 80.37 5.00
   08:20:33.024.05-Jan-2021 115.64 4455.61 3649.01 3076.03 80.37 5.00
   08:20:33.224.05-Jan-2021 115.84 4455.30 3649.01 3076.03 80.37 5.00
   08:20:33.425.05-Jan-2021 116.04 4455.90 3649.01 3076.03 80.37 5.00
   08:20:33.625.05-Jan-2021 116.24 4455.73 3649.01 3076.03 80.37 5.00
   08:20:33.825.05-Jan-2021 116.44 4455.73 3649.01 3076.03 80.37 5.00
   08:20:34.025.05-Jan-2021 116.64 4455.52 3649.01 3076.03 80.37 5.00
   08:20:34.225.05-Jan-2021 116.84 4455.37 3649.01 3076.03 80.37 5.00
   08:20:34.425.05-Jan-2021 117.04 4455.78 3649.01 3076.03 80.37 5.00
   08:20:34.625.05-Jan-2021 117.24 4455.78 3649.01 3076.03 80.37 5.00
   08:20:34.825.05-Jan-2021 117.44 4455.82 3649.01 3076.03 80.37 5.00
   08:20:35.025.05-Jan-2021 117.64 4455.52 3649.01 3076.03 80.37 5.00
   08:20:35.225.05-Jan-2021 117.84 4455.38 3649.01 3076.03 80.37 5.00
   08:20:35.425.05-Jan-2021 118.04 4455.90 3649.01 3076.03 80.37 5.00
   08:20:35.625.05-Jan-2021 118.24 4455.90 3649.01 3076.03 80.37 5.00
   08:20:35.825.05-Jan-2021 118.44 4455.70 3649.01 3076.03 80.37 5.00
   08:20:36.025.05-Jan-2021 118.64 4455.57 3649.01 3076.03 80.37 5.00
   08:20:36.226.05-Jan-2021 118.84 4455.61 3649.01 3076.03 80.37 5.00
   08:20:36.426.05-Jan-2021 119.04 4455.58 3649.01 3076.03 80.37 5.00
   08:20:36.626.05-Jan-2021 119.24 4455.58 3649.01 3076.03 80.37 5.00
   08:20:36.826.05-Jan-2021 119.44 4455.49 3649.01 3076.03 80.37 5.00
   08:20:37.026.05-Jan-2021 119.64 4455.60 3649.01 3076.03 80.37 5.00
   08:20:37.226.05-Jan-2021 119.84 4455.67 3649.01 3076.03 80.37 5.00
   08:20:37.426.05-Jan-2021 120.04 4455.64 3649.01 3076.03 80.37 5.00
   08:20:37.626.05-Jan-2021 120.24 4455.68 3649.01 3076.03 80.37 5.00
   08:20:37.826.05-Jan-2021 120.44 4455.63 3649.01 3076.03 80.37 5.00
   08:20:38.026.05-Jan-2021 120.64 4455.50 3649.01 3076.03 80.37 5.00
   08:20:38.226.05-Jan-2021 120.84 4455.83 3649.01 3076.03 80.37 5.00
   08:20:38.426.05-Jan-2021 121.04 4455.69 3649.01 3076.03 80.37 5.00
   08:20:38.626.05-Jan-2021 121.25 4455.69 3649.01 3076.03 80.37 5.00
   08:20:38.827.05-Jan-2021 121.45 4455.56 3649.01 3076.03 80.37 5.00
   08:20:39.027.05-Jan-2021 121.65 4455.59 3649.01 3076.03 80.37 5.00
   08:20:39.227.05-Jan-2021 121.85 4455.63 3649.01 3076.03 80.37 5.00
   08:20:39.427.05-Jan-2021 122.05 4455.59 3649.01 3076.03 80.37 5.00
   08:20:39.627.05-Jan-2021 122.25 4455.59 3649.01 3076.03 80.37 5.00
   08:20:39.827.05-Jan-2021 122.45 4455.60 3649.01 3076.03 80.37 5.00
   08:20:40.027.05-Jan-2021 122.65 4455.63 3649.01 3076.03 80.37 5.00
   08:20:40.227.05-Jan-2021 122.85 4455.67 3649.01 3076.03 80.37 5.00
   08:20:40.427.05-Jan-2021 123.05 4455.61 3649.01 3076.03 80.37 5.00
   08:20:40.627.05-Jan-2021 123.25 4455.61 3649.01 3076.03 80.37 5.00
   08:20:40.827.05-Jan-2021 123.45 4455.71 3649.01 3076.03 80.37 5.00
   08:20:41.027.05-Jan-2021 123.65 4455.77 3649.01 3076.03 80.37 5.00
   08:20:41.227.05-Jan-2021 123.85 4455.34 3649.01 3076.03 80.37 5.00
   08:20:41.427.05-Jan-2021 124.05 4455.78 3649.01 3076.03 80.37 5.00
   08:20:41.628.05-Jan-2021 124.25 4455.78 3649.01 3076.03 80.37 5.00
   08:20:41.828.05-Jan-2021 124.45 4455.23 3649.01 3076.03 80.37 5.00
   08:20:42.028.05-Jan-2021 124.65 4455.86 3649.01 3076.03 80.37 5.00
   08:20:42.228.05-Jan-2021 124.85 4455.76 3649.01 3076.03 80.37 5.00
   08:20:42.428.05-Jan-2021 125.05 4455.56 3649.01 3076.03 80.37 5.00
   08:20:42.628.05-Jan-2021 125.25 4455.56 3649.01 3076.03 80.37 5.00
   08:20:42.828.05-Jan-2021 125.45 4454.99 3649.01 3076.03 80.37 5.00
   08:20:43.028.05-Jan-2021 125.65 4455.99 3649.01 3076.03 80.38 5.00
   08:20:43.228.05-Jan-2021 125.85 4455.64 3649.01 3076.03 80.38 5.00
   08:20:43.428.05-Jan-2021 126.05 4455.64 3649.01 3076.03 80.38 5.00
   08:20:43.628.05-Jan-2021 126.25 4455.64 3649.01 3076.03 80.38 5.00
   08:20:43.828.05-Jan-2021 126.45 4455.18 3649.01 3076.03 80.38 5.00
   08:20:44.028.05-Jan-2021 126.65 4456.00 3649.01 3076.03 80.38 5.00
   08:20:44.229.05-Jan-2021 126.85 4455.75 3649.01 3076.03 80.38 5.00
   08:20:44.429.05-Jan-2021 127.05 4455.72 3649.01 3076.03 80.38 5.00
   08:20:44.629.05-Jan-2021 127.25 4455.72 3649.01 3076.03 80.38 5.00
   08:20:44.829.05-Jan-2021 127.45 4455.63 3649.01 3076.03 80.38 5.00
   08:20:45.029.05-Jan-2021 127.65 4455.57 3649.01 3076.03 80.38 5.00
   08:20:45.229.05-Jan-2021 127.85 4455.61 3649.01 3076.03 80.38 5.00
   08:20:45.429.05-Jan-2021 128.05 4455.61 3649.01 3076.03 80.38 5.00
   08:20:45.629.05-Jan-2021 128.25 4455.58 3649.01 3076.03 80.38 5.00
   08:20:45.829.05-Jan-2021 128.45 4455.63 3649.01 3076.03 80.38 5.00
   08:20:46.029.05-Jan-2021 128.65 4455.55 3649.01 3076.03 80.38 5.00
   08:20:46.229.05-Jan-2021 128.85 4455.62 3649.01 3076.03 80.38 5.00
   08:20:46.429.05-Jan-2021 129.05 4455.66 3649.01 3076.03 80.38 5.00
   08:20:46.629.05-Jan-2021 129.25 4455.66 3649.01 3076.03 80.38 5.00
   08:20:46.829.05-Jan-2021 129.45 4456.08 3649.01 3076.03 80.38 5.00
   08:20:47.030.05-Jan-2021 129.65 4455.71 3649.01 3076.03 80.38 5.00
   08:20:47.230.05-Jan-2021 129.85 4455.67 3649.01 3076.03 80.38 5.00
   08:20:47.430.05-Jan-2021 130.05 4455.65 3649.01 3076.03 80.38 5.00
   08:20:47.630.05-Jan-2021 130.25 4455.65 3649.01 3076.03 80.38 5.00
   08:20:47.830.05-Jan-2021 130.45 4455.61 3649.01 3076.03 80.38 5.00
   08:20:48.030.05-Jan-2021 130.65 4455.64 3649.01 3076.03 80.38 5.00
   08:20:48.230.05-Jan-2021 130.85 4455.60 3649.01 3076.03 80.38 5.00
   08:20:48.430.05-Jan-2021 131.05 4455.62 3649.01 3076.03 80.38 5.00
   08:20:48.630.05-Jan-2021 131.25 4455.62 3649.01 3076.03 80.38 5.00
   08:20:48.830.05-Jan-2021 131.45 4455.53 3649.01 3076.03 80.38 5.00
   08:20:49.030.05-Jan-2021 131.65 4455.67 3649.01 3076.03 80.38 5.00
   08:20:49.230.05-Jan-2021 131.85 4455.19 3649.01 3076.03 80.38 5.00
   08:20:49.430.05-Jan-2021 132.05 4455.61 3649.01 3076.03 80.38 5.00
   08:20:49.631.05-Jan-2021 132.25 4455.74 3649.01 3076.03 80.38 5.00
   08:20:49.831.05-Jan-2021 132.45 4454.95 3649.01 3076.03 80.38 5.00
   08:20:50.031.05-Jan-2021 132.65 4456.02 3649.01 3076.03 80.38 5.00
   08:20:50.231.05-Jan-2021 132.85 4455.73 3649.01 3076.03 80.38 5.00
   08:20:50.431.05-Jan-2021 133.05 4455.55 3649.01 3076.03 80.38 5.00
   08:20:50.631.05-Jan-2021 133.25 4455.55 3649.01 3076.03 80.38 5.00
   08:20:50.831.05-Jan-2021 133.45 4455.83 3649.01 3076.03 80.38 5.00
   08:20:51.031.05-Jan-2021 133.65 4455.59 3649.01 3076.03 80.38 5.00
   08:20:51.231.05-Jan-2021 133.85 4455.74 3649.01 3076.03 80.38 5.00
   08:20:51.431.05-Jan-2021 134.05 4455.54 3649.01 3076.03 80.38 5.00
   08:20:51.631.05-Jan-2021 134.25 4455.54 3649.01 3076.03 80.38 5.00
   08:20:51.831.05-Jan-2021 134.45 4455.75 3649.01 3076.03 80.38 5.00
   08:20:52.031.05-Jan-2021 134.65 4455.62 3649.01 3076.03 80.38 5.00
   08:20:52.231.05-Jan-2021 134.85 4455.66 3649.01 3076.03 80.38 5.00
   08:20:52.432.05-Jan-2021 135.05 4455.65 3649.01 3076.03 80.38 5.00
   08:20:52.632.05-Jan-2021 135.25 4455.65 3649.01 3076.03 80.38 5.00
   08:20:52.832.05-Jan-2021 135.45 4455.70 3649.01 3076.03 80.38 5.00
   08:20:53.032.05-Jan-2021 135.65 4455.65 3649.01 3076.03 80.38 5.00
   08:20:53.232.05-Jan-2021 135.85 4455.73 3649.01 3076.03 80.38 5.00
   08:20:53.432.05-Jan-2021 136.05 4455.47 3649.01 3076.03 80.38 5.00
   08:20:53.632.05-Jan-2021 136.25 4455.67 3649.01 3076.03 80.38 5.00
   08:20:53.832.05-Jan-2021 136.45 4455.55 3649.01 3076.03 80.38 5.00
   08:20:54.032.05-Jan-2021 136.65 4455.55 3649.01 3076.03 80.38 5.00
   08:20:54.232.05-Jan-2021 136.85 4455.63 3649.01 3076.03 80.38 5.00
   08:20:54.432.05-Jan-2021 137.05 4455.59 3649.01 3076.03 80.38 5.00
   08:20:54.632.05-Jan-2021 137.25 4455.59 3649.01 3076.03 80.38 5.00
   08:20:54.832.05-Jan-2021 137.45 4455.68 3649.01 3076.03 80.38 5.00
   08:20:55.033.05-Jan-2021 137.65 4455.57 3649.01 3076.03 80.38 5.00
   08:20:55.233.05-Jan-2021 137.85 4455.58 3649.01 3076.03 80.38 5.00
