~Version Information
 VERS.                  2.0:   CWLS log ASCII Standard -VERSION 2.0
 WRAP.                   NO:   One line per depth step
~Well Information Block
#MNEM.UNIT     VALUE/NAME     DESCRIPTION
#---------     -----------    ---------------------------
 STRT.S             08:18:37 05-Jan-21: START TIME 08:18:37 05-Jan-21
 STOP.S             08:26:49 05-Jan-21: STOP TIME  08:26:49 05-Jan-21
 STEP.S                   0.00: STEP TIME
 NULL.                 -999.25: NULL VALUE
 DFWT.                        :  DIST FWL TEXT
 DFST.                        :  DIST FSL TEXT
 DMF .             Drill Floor:  DRILL MEAS FROM
 STIM.      06.00.00 31-Dec-20:  START TIME
 DATE.      05.58.24 07-Jan-21:  END TIME
 SPUD.               24-Dec-20:  SPUD DATE
 NREF.                    Grid:  NORTH REFERENCE
 HPTY.       Minimum Curvature:  HOLE POS TYPE
 DMOD.             Drill Model:  DRILL MOD DESC
 SVYD.                  Survey:  SURVEY DESC
 ILTD.               Lithology:  INTERP LTH DESC
 FTOP.          Formation Tops:  FORM TOPS DESC
 SON .        AZ-XX-0906699554:  JOB NUMBER
 WELL.                    B09z:  WELL NAME
 PDAT.          Mean Sea Level:  PERMANENT DATUM
 FLD .                     ACG:  FIELD NAME
 CTRY.              Azerbaijan:  COUNTRY NAME
 COMP.     BP Exploration (Caspian Sea) Ltd.:  COMPANY
 UWI .                     N/A:  UNIQUE WELL IDENTIFIER
 API .                     N/A:  API NUMBER
 WTYP.                Deviated:  WELL TYPE
 MDS .        Operator Entered:  MAG DATA SOURCE
 BASE.              Azerbaijan:  LOGGING EQUIPMENT BASE LOCATION
 REGN.                   EESSA:  REGION
 PROV.                    Baku:  PROVINCE
 STAT.                    Baku:  STATE NAME
 SRVC.          Turan Drilling:  CONTRACTOR
 MWDS.                    Baku:  MWD SHOP
 JOBN.        AZ-XX-0906699554:  JOB TICKET NUMB
 RIG .           Central Azeri:  RIG NAME
 DOE .                     N/A:  DOE NUMBER
 DCON.         Sperry Drilling:  DIRECTNL CONTR
 UNIT.                     N/A:  LOGGING EQUIPMENT ID
 CNTY.                        :  COUNTY
 LOC .                        :  LOCATION
 LMF .             Drill Floor:  LOG MEASURED FROM
 TVDS.m                  43.29:  TVDSS CORRECTN
 LATI.deg                40.03:  LATITUDE
 LONG.deg                51.35:  LONGITUDE
 WHNS.m                  -2.76:  WELL HEAD N/S
 WHEW.m                  -7.70:  WELL HEAD E/W
 UTMX.m              530128.28:  UTM X
 UTMY.m             4433192.49:  UTM Y
 DFWL.m                   0.00:  DISTANCE FWL
 DFSL.m                   0.00:  DISTANCE FSL
 SDEP.m                3435.01:  START DEPTH
 TDD .m                3814.01:  TOTAL DEPTH (DRILLER)
 VSDR.deg               352.80:  VERT SEC DIRECT
 GVFD.g                   1.00:  GRAVITY FIELD
 MFLD.nT              50303.00:  MAGNETIC FIELD
 MDIP.deg                59.52:  MAGNETIC DIP
 MDEC.deg                 6.47:  MAGNETIC DECL
 GRDC.deg                 0.23:  GRID CORRECTION
 AZTC.deg                 6.24:  AZM TOTAL CORR
 EPD .m                   0.00:  ELEVATION
 EGL .m                   0.00:  GROUND ELEVATION
 WDMS.m                 128.20:  WD ELEV
 APD .m                  43.29:  DEPTH ABOVE PD
 DEP .m                3421.30:  DEPTH
 AGAP.m                  43.60:  AIR GAP
 VSEW.m                  -7.70:  VERT SEC E/W
 VSNS.m                  -2.76:  VERT SEC N/S
 EKB .m                   0.00:  KB ELEVATION
 EDF .m                  43.29:  DF ELEVATION
 TDL .m                 369.00:  TOTAL DEPTH (LOGGER)
 VSC .                       0:  VS TO CLOSURE
 MAGU.                 1850390:  MAGUTM CHECKSUM
~Parameter Information Block
#MNEM.UNIT       Value        Description
#---------     -----------    ---------------------------
 AV  .mps                 2.80:  Ann Velocity 
 AVMX.mps                 4.67:  Max Ann Veloc 
 AZIF.deg               303.89:  Azm, Final 
 BHAT.        Rotary Steerable:  BHA Type 
 BREV.rev            128542.00:  Rev Bit Total 
 BROT.°/30m               1.50:  Build Rotating 
 BS  .in                  8.50:  Bit Size 
 BSZ .in                  8.50:  Bit Size 
 BTPL.psig              715.00:  Bit Press Loss 
 CABU.                      No:  Customer Abuse 
 COMM.                     ¤’i:  Run Comments 1 
 TCS .hr                 53.00:  Time Ciculation Ended 
 CV  .mps                 3.85:  Crit Velocity 
 CVMX.mps                 4.75:  Max Crit Veloc 
 DD1 .         Intigam Rahimov:  Direct Drillr 1 
 DDSV.                 iCruise:  DD Service 
 DEFF.%                  98.60:  % Det Eff 
 DLRX.°/30m               2.34:  Dogleg Rot Max 
 DLSO.°/30m               0.00:  Dogleg Oriented 
 DLSX.°/30m               0.00:  Dogleg Str Max 
 DRET.      00.15.00 05-Jan-21:  Drill End Time 
 DRST.      22.00.00 03-Jan-21:  Drill Start Tim 
 DTIM.hr                 17.72:  Time Drilling 
 EDEP.m                3814.01:  End Depth 
 ENG1.         Yevgeniy Ulikov:  Engineer 1 
 ENG2.        Farkhad Khalidov:  Engineer 2 
 ENG3.           Samir Gafarov:  Engineer 3 
 ETIM.      21.00.00 07-Jan-21:  End Time 
 FLOI.gpm               590.00:  Flow In 
 FLON.gpm               580.00:  Flow In Min 
 FLOS.cptm                1.00:  Fluid Loss 
 FLOX.gpm               595.00:  Flow In Max 
 FTRO.     Connectivity, Formation Presure:  FTWD Run Obj 
 HFLO.                      No:  High Flow 
 HPRE.                     Yes:  High Pressure 
 HTEM.                      No:  High Temp 
 HYDO.m                   1.80:  Hydro Offset 
 IFIN.deg                63.76:  Inc, Final 
 IMAX.deg                64.09:  Inc Max 
 IMIN.deg                55.81:  Inc Min 
 IMND.m                3455.62:  Inc Min Depth 
 IMXD.m                3796.03:  Inc Max Depth 
 JARR.                      No:  Jarring 
 LETM.      00.15.00 05-Jan-21:  Log End Time 
 LOST.hr                     0:  Lost Rig Time 
 LSTM.      22.00.00 03-Jan-21:  Log Start Time 
 MDCL.ppm             36000.00:  Mud Chlorides 
 MDES.     Inversion Oil/Synthetic:  Mud Desc 
 DFD .sg                  1.51:  Mud Density 
 MDMN.sg                  1.51:  Dens Mud Min 
 MDMX.sg                  1.51:  Dens Mud Max 
 MOIL.                    55.5:  Run Mud Oil % 
 MOWR.                   70:30:  Run Mud OWR 
 MSND.                     0.1:  Run Mud Sand % 
 MSOL.                   20.77:  Run Mud Solids% 
 DFV .spqt               67.00:  Mud Viscosity 
 MWOD.in                  6.75:  MWD Tool OD 
 MWSI.                      No:  Serv Intrp, MWD 
 OTIM.hr                113.53:  Time Operating 
 PCON.           Look Like New:  Pad Condition 
 PMAX.psia             4830.00:  Press Op, Max 
 PV  .cP                 29.00:  Mud PV 
 RUN .                     300:  Run Number 
 ROPA.m/hr               22.00:  ROP Avg 
 ROPN.m/hr               18.00:  ROP Min 
 ROPX.m/hr               25.00:  ROP Max 
 RPMA.rpm               130.00:  RPM Surface Avg 
 RPMN.rpm                80.00:  RPM Surface Min 
 RPMX.rpm               140.00:  RPM Surface Max 
 RRUN.                    L101:  Rig Run Number 
 RTIM.hr                  9.28:  Time Reaming 
 SAZI.deg               316.55:  Azm, Start 
 SDEP.m                3445.01:  Start Depth 
 SIDD.                      No:  Serv Intrp, DD 
 SINC.deg                55.81:  Inc, Start 
 SPPA.psig             4500.00:  SPP Avg 
 SPPN.psig             4350.00:  SPP Min 
 SPPX.psig             4830.00:  SPP Max 
 STIM.      00.00.00 03-Jan-21:  Start Time 
 SVCS.                 DD, MWD:  Services 
 SVER.                    9.20:  Sperry Version 
 TDAT.m                 369.00:  Tot Depth Attmp 
 TDDF.                      No:  Trip for DD 
 TDLG.m                 369.00:  Tot Depth Loggd 
 TFF .                      No:  Trip for Fail 
 TQAA.f-kp               15.00:  Torque Abs Avg 
 TQAN.f-kp               12.00:  Torque Abs Min 
 TQAX.f-kp               16.00:  Torque Abs Max 
 TRRT.°/30m              -2.10:  Turn Rotating 
 MRT .                    HCIM:  Maximum Recorded Temperature 
 TTMX.degC               92.16:  Max Tool Temp 
 VS01.                90627822:  Virtual Str1 SN 
 VS02.                90550008:  Virtual Str2 SN 
 VS03.                90627816:  Virtual Str3 SN 
 VS04.                90633205:  Virtual Str4 SN 
 VS05.                13033835:  Virtual Str5 SN 
 VS06.                11125125:  Virtual Str6 SN 
 WBMN.klb                 8.00:  WOB Min 
 WITN.            Bruce Cheyne:  Customer Rep 
 WITN.           Faig Mammadov:  Customer Rep 2 
 WOBA.klb                 9.00:  WOB Avg 
 WOBX.klb                12.00:  WOB Max 
 YP  .lhf2               30.00:  Yield Point 
~Curve Information Block
#MNEM.UNIT                 API CODE     Curve Description
#---------               -----------    ---------------------------
 TIME.HHMMSS            00 000 000 000:  GT Time & Date
 GTET.sec               00 000 000 000:  GT Elapsed Test Time
 GTPQH.psia             00 000 000 000:  GT HR Quartz Pressure
 GTDEPTH.m              00 000 000 000:  GT Depth
 GTTVD.m                00 000 000 000:  GT True Vertical Depth
 GTTQ.degC              00 000 000 000:  GT Quartz Temperature
 GTTN.NONE              00 000 000 000:  GT Test Number
#Other Information
#
#WARRANTY: Halliburton will use its best efforts to furnish customers with 
#accurate information and interpretations that are part of, and incident to, the services 
#provided.  However, Halliburton cannot and does not warrant the accuracy 
#or correctness of such information and interpretations.  Under no circumstances should any 
#such information or interpretation be relied upon as the sole basis for any drilling, 
#completion, production, or financial decision or any procedure involving any risk to the 
#safety of any drilling venture, drilling rig or its crew or any other third party.  The 
#Customer has full responsibility for all drilling, completion and production operation.  
#Halliburton makes no representations or warranties, either expressed or 
#implied, including, but not limited to, the implied warranties of merchantability or fitness 
#for a particular purpose, with respect to the services rendered.  In no event will 
#Halliburton be liable for failure to obtain any particular results or for 
#any damages, including, but not limited to, indirect, special or consequential damages, 
#resulting from the use of any information or interpretation provided by Halliburton.
#
~A           TIME            GTET   GTPQH  GTDEPTH  GTTVD  GTTQ  GTTN 
# ...
   08:20:09.416.05-Jan-2021  92.03 4455.77 3649.01 3076.03 80.35 5.00
   08:20:09.616.05-Jan-2021  92.23 4455.65 3649.01 3076.03 80.35 5.00
   08:20:09.816.05-Jan-2021  92.43 4455.66 3649.01 3076.03 80.35 5.00
   08:20:10.016.05-Jan-2021  92.63 4455.45 3649.01 3076.03 80.35 5.00
   08:20:10.216.05-Jan-2021  92.83 4455.67 3649.01 3076.03 80.35 5.00
   08:20:10.416.05-Jan-2021  93.03 4455.57 3649.01 3076.03 80.35 5.00
   08:20:10.616.05-Jan-2021  93.23 4455.57 3649.01 3076.03 80.35 5.00
   08:20:10.816.05-Jan-2021  93.43 4455.58 3649.01 3076.03 80.35 5.00
   08:20:11.016.05-Jan-2021  93.63 4455.58 3649.01 3076.03 80.35 5.00
   08:20:11.216.05-Jan-2021  93.83 4455.57 3649.01 3076.03 80.35 5.00
   08:20:11.416.05-Jan-2021  94.03 4455.63 3649.01 3076.03 80.35 5.00
   08:20:11.616.05-Jan-2021  94.23 4455.63 3649.01 3076.03 80.35 5.00
   08:20:11.816.05-Jan-2021  94.44 4455.48 3649.01 3076.03 80.35 5.00
   08:20:12.017.05-Jan-2021  94.64 4456.02 3649.01 3076.03 80.35 5.00
   08:20:12.217.05-Jan-2021  94.84 4455.94 3649.01 3076.03 80.35 5.00
   08:20:12.417.05-Jan-2021  95.04 4455.70 3649.01 3076.03 80.35 5.00
   08:20:12.617.05-Jan-2021  95.24 4455.70 3649.01 3076.03 80.35 5.00
   08:20:12.817.05-Jan-2021  95.44 4455.61 3649.01 3076.03 80.35 5.00
   08:20:13.017.05-Jan-2021  95.64 4455.54 3649.01 3076.03 80.35 5.00
   08:20:13.217.05-Jan-2021  95.84 4455.56 3649.01 3076.03 80.35 5.00
   08:20:13.417.05-Jan-2021  96.04 4455.63 3649.01 3076.03 80.35 5.00
   08:20:13.617.05-Jan-2021  96.24 4455.60 3649.01 3076.03 80.35 5.00
   08:20:13.817.05-Jan-2021  96.44 4455.56 3649.01 3076.03 80.35 5.00
   08:20:14.017.05-Jan-2021  96.64 4455.61 3649.01 3076.03 80.35 5.00
   08:20:14.217.05-Jan-2021  96.84 4455.67 3649.01 3076.03 80.35 5.00
   08:20:14.417.05-Jan-2021  97.04 4455.61 3649.01 3076.03 80.35 5.00
   08:20:14.618.05-Jan-2021  97.24 4455.61 3649.01 3076.03 80.35 5.00
   08:20:14.818.05-Jan-2021  97.44 4455.70 3649.01 3076.03 80.35 5.00
   08:20:15.018.05-Jan-2021  97.64 4456.17 3649.01 3076.03 80.35 5.00
   08:20:15.218.05-Jan-2021  97.84 4455.62 3649.01 3076.03 80.35 5.00
   08:20:15.418.05-Jan-2021  98.04 4455.73 3649.01 3076.03 80.35 5.00
   08:20:15.618.05-Jan-2021  98.24 4455.73 3649.01 3076.03 80.35 5.00
   08:20:15.818.05-Jan-2021  98.44 4455.20 3649.01 3076.03 80.35 5.00
   08:20:16.018.05-Jan-2021  98.64 4456.06 3649.01 3076.03 80.35 5.00
   08:20:16.218.05-Jan-2021  98.84 4455.74 3649.01 3076.03 80.35 5.00
   08:20:16.418.05-Jan-2021  99.04 4455.60 3649.01 3076.03 80.35 5.00
   08:20:16.618.05-Jan-2021  99.24 4455.60 3649.01 3076.03 80.35 5.00
   08:20:16.818.05-Jan-2021  99.44 4455.21 3649.01 3076.03 80.35 5.00
   08:20:17.018.05-Jan-2021  99.64 4455.70 3649.01 3076.03 80.35 5.00
   08:20:17.218.05-Jan-2021  99.84 4455.59 3649.01 3076.03 80.35 5.00
   08:20:17.419.05-Jan-2021 100.04 4455.76 3649.01 3076.03 80.35 5.00
   08:20:17.619.05-Jan-2021 100.24 4455.52 3649.01 3076.03 80.35 5.00
   08:20:17.819.05-Jan-2021 100.44 4455.02 3649.01 3076.03 80.35 5.00
   08:20:18.019.05-Jan-2021 100.64 4456.09 3649.01 3076.03 80.35 5.00
   08:20:18.219.05-Jan-2021 100.84 4455.64 3649.01 3076.03 80.35 5.00
   08:20:18.419.05-Jan-2021 101.04 4455.60 3649.01 3076.03 80.35 5.00
   08:20:18.619.05-Jan-2021 101.24 4455.60 3649.01 3076.03 80.35 5.00
   08:20:18.819.05-Jan-2021 101.44 4455.55 3649.01 3076.03 80.36 5.00
   08:20:19.019.05-Jan-2021 101.64 4455.58 3649.01 3076.03 80.36 5.00
   08:20:19.219.05-Jan-2021 101.84 4455.62 3649.01 3076.03 80.36 5.00
   08:20:19.419.05-Jan-2021 102.04 4455.56 3649.01 3076.03 80.36 5.00
   08:20:19.619.05-Jan-2021 102.24 4455.56 3649.01 3076.03 80.36 5.00
   08:20:19.819.05-Jan-2021 102.44 4455.67 3649.01 3076.03 80.36 5.00
   08:20:20.020.05-Jan-2021 102.64 4455.59 3649.01 3076.03 80.36 5.00
   08:20:20.220.05-Jan-2021 102.84 4455.66 3649.01 3076.03 80.36 5.00
   08:20:20.420.05-Jan-2021 103.04 4455.56 3649.01 3076.03 80.36 5.00
   08:20:20.620.05-Jan-2021 103.24 4455.56 3649.01 3076.03 80.36 5.00
   08:20:20.820.05-Jan-2021 103.44 4455.74 3649.01 3076.03 80.36 5.00
   08:20:21.020.05-Jan-2021 103.64 4455.64 3649.01 3076.03 80.36 5.00
   08:20:21.220.05-Jan-2021 103.84 4455.71 3649.01 3076.03 80.36 5.00
   08:20:21.420.05-Jan-2021 104.04 4455.51 3649.01 3076.03 80.36 5.00
   08:20:21.620.05-Jan-2021 104.24 4455.51 3649.01 3076.03 80.36 5.00
   08:20:21.820.05-Jan-2021 104.44 4455.59 3649.01 3076.03 80.36 5.00
   08:20:22.020.05-Jan-2021 104.64 4455.60 3649.01 3076.03 80.36 5.00
   08:20:22.220.05-Jan-2021 104.84 4455.58 3649.01 3076.03 80.36 5.00
   08:20:22.420.05-Jan-2021 105.04 4455.55 3649.01 3076.03 80.36 5.00
   08:20:22.620.05-Jan-2021 105.24 4455.55 3649.01 3076.03 80.36 5.00
   08:20:22.821.05-Jan-2021 105.44 4455.65 3649.01 3076.03 80.36 5.00
   08:20:23.021.05-Jan-2021 105.64 4455.60 3649.01 3076.03 80.36 5.00
   08:20:23.221.05-Jan-2021 105.84 4454.97 3649.01 3076.03 80.36 5.00
   08:20:23.421.05-Jan-2021 106.04 4455.85 3649.01 3076.03 80.36 5.00
   08:20:23.621.05-Jan-2021 106.24 4455.85 3649.01 3076.03 80.36 5.00
   08:20:23.821.05-Jan-2021 106.44 4455.45 3649.01 3076.03 80.36 5.00
   08:20:24.021.05-Jan-2021 106.64 4455.87 3649.01 3076.03 80.36 5.00
   08:20:24.221.05-Jan-2021 106.84 4455.56 3649.01 3076.03 80.36 5.00
   08:20:24.421.05-Jan-2021 107.04 4455.70 3649.01 3076.03 80.36 5.00
   08:20:24.621.05-Jan-2021 107.24 4455.70 3649.01 3076.03 80.36 5.00
   08:20:24.821.05-Jan-2021 107.44 4455.71 3649.01 3076.03 80.36 5.00
   08:20:25.021.05-Jan-2021 107.64 4455.66 3649.01 3076.03 80.36 5.00
   08:20:25.221.05-Jan-2021 107.84 4455.58 3649.01 3076.03 80.36 5.00
   08:20:25.422.05-Jan-2021 108.04 4455.06 3649.01 3076.03 80.36 5.00
   08:20:25.622.05-Jan-2021 108.24 4455.80 3649.01 3076.03 80.36 5.00
   08:20:25.822.05-Jan-2021 108.44 4455.71 3649.01 3076.03 80.36 5.00
   08:20:26.022.05-Jan-2021 108.64 4455.56 3649.01 3076.03 80.36 5.00
   08:20:26.222.05-Jan-2021 108.84 4455.60 3649.01 3076.03 80.36 5.00
   08:20:26.422.05-Jan-2021 109.04 4455.58 3649.01 3076.03 80.36 5.00
   08:20:26.622.05-Jan-2021 109.24 4455.58 3649.01 3076.03 80.36 5.00
   08:20:26.822.05-Jan-2021 109.44 4455.70 3649.01 3076.03 80.36 5.00
   08:20:27.022.05-Jan-2021 109.64 4455.59 3649.01 3076.03 80.36 5.00
   08:20:27.222.05-Jan-2021 109.84 4455.65 3649.01 3076.03 80.36 5.00
   08:20:27.422.05-Jan-2021 110.04 4455.56 3649.01 3076.03 80.36 5.00
   08:20:27.622.05-Jan-2021 110.24 4455.56 3649.01 3076.03 80.36 5.00
   08:20:27.822.05-Jan-2021 110.44 4455.52 3649.01 3076.03 80.36 5.00
   08:20:28.022.05-Jan-2021 110.64 4455.60 3649.01 3076.03 80.36 5.00
   08:20:28.223.05-Jan-2021 110.84 4455.59 3649.01 3076.03 80.36 5.00
   08:20:28.423.05-Jan-2021 111.04 4455.64 3649.01 3076.03 80.36 5.00
   08:20:28.623.05-Jan-2021 111.24 4455.64 3649.01 3076.03 80.36 5.00
   08:20:28.823.05-Jan-2021 111.44 4455.58 3649.01 3076.03 80.36 5.00
   08:20:29.023.05-Jan-2021 111.64 4455.68 3649.01 3076.03 80.36 5.00
   08:20:29.223.05-Jan-2021 111.84 4455.13 3649.01 3076.03 80.36 5.00
   08:20:29.423.05-Jan-2021 112.04 4455.78 3649.01 3076.03 80.36 5.00
   08:20:29.623.05-Jan-2021 112.24 4455.72 3649.01 3076.03 80.36 5.00
   08:20:29.823.05-Jan-2021 112.44 4455.59 3649.01 3076.03 80.36 5.00
   08:20:30.023.05-Jan-2021 112.64 4455.64 3649.01 3076.03 80.36 5.00
   08:20:30.223.05-Jan-2021 112.84 4455.60 3649.01 3076.03 80.37 5.00
   08:20:30.423.05-Jan-2021 113.04 4455.58 3649.01 3076.03 80.36 5.00
   08:20:30.623.05-Jan-2021 113.24 4455.58 3649.01 3076.03 80.36 5.00
   08:20:30.824.05-Jan-2021 113.44 4455.64 3649.01 3076.03 80.37 5.00
   08:20:31.024.05-Jan-2021 113.64 4455.60 3649.01 3076.03 80.37 5.00
   08:20:31.224.05-Jan-2021 113.84 4455.58 3649.01 3076.03 80.37 5.00
   08:20:31.424.05-Jan-2021 114.04 4455.61 3649.01 3076.03 80.37 5.00
   08:20:31.624.05-Jan-2021 114.24 4455.61 3649.01 3076.03 80.37 5.00
   08:20:31.824.05-Jan-2021 114.44 4455.66 3649.01 3076.03 80.37 5.00
   08:20:32.024.05-Jan-2021 114.64 4455.23 3649.01 3076.03 80.37 5.00
   08:20:32.224.05-Jan-2021 114.84 4455.69 3649.01 3076.03 80.37 5.00
