~Version Information
 VERS.                  2.0:   CWLS log ASCII Standard -VERSION 2.0
 WRAP.                   NO:   One line per depth step
~Well Information Block
#MNEM.UNIT     VALUE/NAME     DESCRIPTION
#---------     -----------    ---------------------------
 STRT.S             13:40:14 05-Jan-21: START TIME 13:40:14 05-Jan-21
 STOP.S             13:48:27 05-Jan-21: STOP TIME  13:48:27 05-Jan-21
 STEP.S                   0.00: STEP TIME
 NULL.                 -999.25: NULL VALUE
 DFWT.                        :  DIST FWL TEXT
 DFST.                        :  DIST FSL TEXT
 DMF .             Drill Floor:  DRILL MEAS FROM
 STIM.      06.00.00 31-Dec-20:  START TIME
 DATE.      05.58.24 07-Jan-21:  END TIME
 SPUD.               24-Dec-20:  SPUD DATE
 NREF.                    Grid:  NORTH REFERENCE
 HPTY.       Minimum Curvature:  HOLE POS TYPE
 DMOD.             Drill Model:  DRILL MOD DESC
 SVYD.                  Survey:  SURVEY DESC
 ILTD.               Lithology:  INTERP LTH DESC
 FTOP.          Formation Tops:  FORM TOPS DESC
 SON .        AZ-XX-0906699554:  JOB NUMBER
 WELL.                    B09z:  WELL NAME
 PDAT.          Mean Sea Level:  PERMANENT DATUM
 FLD .                     ACG:  FIELD NAME
 CTRY.              Azerbaijan:  COUNTRY NAME
 COMP.     BP Exploration (Caspian Sea) Ltd.:  COMPANY
 UWI .                     N/A:  UNIQUE WELL IDENTIFIER
 API .                     N/A:  API NUMBER
 WTYP.                Deviated:  WELL TYPE
 MDS .        Operator Entered:  MAG DATA SOURCE
 BASE.              Azerbaijan:  LOGGING EQUIPMENT BASE LOCATION
 REGN.                   EESSA:  REGION
 PROV.                    Baku:  PROVINCE
 STAT.                    Baku:  STATE NAME
 SRVC.          Turan Drilling:  CONTRACTOR
 MWDS.                    Baku:  MWD SHOP
 JOBN.        AZ-XX-0906699554:  JOB TICKET NUMB
 RIG .           Central Azeri:  RIG NAME
 DOE .                     N/A:  DOE NUMBER
 DCON.         Sperry Drilling:  DIRECTNL CONTR
 UNIT.                     N/A:  LOGGING EQUIPMENT ID
 CNTY.                        :  COUNTY
 LOC .                        :  LOCATION
 LMF .             Drill Floor:  LOG MEASURED FROM
 TVDS.m                  43.29:  TVDSS CORRECTN
 LATI.deg                40.03:  LATITUDE
 LONG.deg                51.35:  LONGITUDE
 WHNS.m                  -2.76:  WELL HEAD N/S
 WHEW.m                  -7.70:  WELL HEAD E/W
 UTMX.m              530128.28:  UTM X
 UTMY.m             4433192.49:  UTM Y
 DFWL.m                   0.00:  DISTANCE FWL
 DFSL.m                   0.00:  DISTANCE FSL
 SDEP.m                3435.01:  START DEPTH
 TDD .m                3814.01:  TOTAL DEPTH (DRILLER)
 VSDR.deg               352.80:  VERT SEC DIRECT
 GVFD.g                   1.00:  GRAVITY FIELD
 MFLD.nT              50303.00:  MAGNETIC FIELD
 MDIP.deg                59.52:  MAGNETIC DIP
 MDEC.deg                 6.47:  MAGNETIC DECL
 GRDC.deg                 0.23:  GRID CORRECTION
 AZTC.deg                 6.24:  AZM TOTAL CORR
 EPD .m                   0.00:  ELEVATION
 EGL .m                   0.00:  GROUND ELEVATION
 WDMS.m                 128.20:  WD ELEV
 APD .m                  43.29:  DEPTH ABOVE PD
 DEP .m                3421.30:  DEPTH
 AGAP.m                  43.60:  AIR GAP
 VSEW.m                  -7.70:  VERT SEC E/W
 VSNS.m                  -2.76:  VERT SEC N/S
 EKB .m                   0.00:  KB ELEVATION
 EDF .m                  43.29:  DF ELEVATION
 TDL .m                 369.00:  TOTAL DEPTH (LOGGER)
 VSC .                       0:  VS TO CLOSURE
 MAGU.                 1850390:  MAGUTM CHECKSUM
~Parameter Information Block
#MNEM.UNIT       Value        Description
#---------     -----------    ---------------------------
 AV  .mps                 2.80:  Ann Velocity 
 AVMX.mps                 4.67:  Max Ann Veloc 
 AZIF.deg               303.89:  Azm, Final 
 BHAT.        Rotary Steerable:  BHA Type 
 BREV.rev            128542.00:  Rev Bit Total 
 BROT.°/30m               1.50:  Build Rotating 
 BS  .in                  8.50:  Bit Size 
 BSZ .in                  8.50:  Bit Size 
 BTPL.psig              715.00:  Bit Press Loss 
 CABU.                      No:  Customer Abuse 
 COMM.                     t6w:  Run Comments 1 
 TCS .hr                 53.00:  Time Ciculation Ended 
 CV  .mps                 3.85:  Crit Velocity 
 CVMX.mps                 4.75:  Max Crit Veloc 
 DD1 .         Intigam Rahimov:  Direct Drillr 1 
 DDSV.                 iCruise:  DD Service 
 DEFF.%                  98.60:  % Det Eff 
 DLRX.°/30m               2.34:  Dogleg Rot Max 
 DLSO.°/30m               0.00:  Dogleg Oriented 
 DLSX.°/30m               0.00:  Dogleg Str Max 
 DRET.      00.15.00 05-Jan-21:  Drill End Time 
 DRST.      22.00.00 03-Jan-21:  Drill Start Tim 
 DTIM.hr                 17.72:  Time Drilling 
 EDEP.m                3814.01:  End Depth 
 ENG1.         Yevgeniy Ulikov:  Engineer 1 
 ENG2.        Farkhad Khalidov:  Engineer 2 
 ENG3.           Samir Gafarov:  Engineer 3 
 ETIM.      21.00.00 07-Jan-21:  End Time 
 FLOI.gpm               590.00:  Flow In 
 FLON.gpm               580.00:  Flow In Min 
 FLOS.cptm                1.00:  Fluid Loss 
 FLOX.gpm               595.00:  Flow In Max 
 FTRO.     Connectivity, Formation Presure:  FTWD Run Obj 
 HFLO.                      No:  High Flow 
 HPRE.                     Yes:  High Pressure 
 HTEM.                      No:  High Temp 
 HYDO.m                   1.80:  Hydro Offset 
 IFIN.deg                63.76:  Inc, Final 
 IMAX.deg                64.09:  Inc Max 
 IMIN.deg                55.81:  Inc Min 
 IMND.m                3455.62:  Inc Min Depth 
 IMXD.m                3796.03:  Inc Max Depth 
 JARR.                      No:  Jarring 
 LETM.      00.15.00 05-Jan-21:  Log End Time 
 LOST.hr                     0:  Lost Rig Time 
 LSTM.      22.00.00 03-Jan-21:  Log Start Time 
 MDCL.ppm             36000.00:  Mud Chlorides 
 MDES.     Inversion Oil/Synthetic:  Mud Desc 
 DFD .sg                  1.51:  Mud Density 
 MDMN.sg                  1.51:  Dens Mud Min 
 MDMX.sg                  1.51:  Dens Mud Max 
 MOIL.                    55.5:  Run Mud Oil % 
 MOWR.                   70:30:  Run Mud OWR 
 MSND.                     0.1:  Run Mud Sand % 
 MSOL.                   20.77:  Run Mud Solids% 
 DFV .spqt               67.00:  Mud Viscosity 
 MWOD.in                  6.75:  MWD Tool OD 
 MWSI.                      No:  Serv Intrp, MWD 
 OTIM.hr                113.53:  Time Operating 
 PCON.           Look Like New:  Pad Condition 
 PMAX.psia             4830.00:  Press Op, Max 
 PV  .cP                 29.00:  Mud PV 
 RUN .                     300:  Run Number 
 ROPA.m/hr               22.00:  ROP Avg 
 ROPN.m/hr               18.00:  ROP Min 
 ROPX.m/hr               25.00:  ROP Max 
 RPMA.rpm               130.00:  RPM Surface Avg 
 RPMN.rpm                80.00:  RPM Surface Min 
 RPMX.rpm               140.00:  RPM Surface Max 
 RRUN.                    L101:  Rig Run Number 
 RTIM.hr                  9.28:  Time Reaming 
 SAZI.deg               316.55:  Azm, Start 
 SDEP.m                3445.01:  Start Depth 
 SIDD.                      No:  Serv Intrp, DD 
 SINC.deg                55.81:  Inc, Start 
 SPPA.psig             4500.00:  SPP Avg 
 SPPN.psig             4350.00:  SPP Min 
 SPPX.psig             4830.00:  SPP Max 
 STIM.      00.00.00 03-Jan-21:  Start Time 
 SVCS.                 DD, MWD:  Services 
 SVER.                    9.20:  Sperry Version 
 TDAT.m                 369.00:  Tot Depth Attmp 
 TDDF.                      No:  Trip for DD 
 TDLG.m                 369.00:  Tot Depth Loggd 
 TFF .                      No:  Trip for Fail 
 TQAA.f-kp               15.00:  Torque Abs Avg 
 TQAN.f-kp               12.00:  Torque Abs Min 
 TQAX.f-kp               16.00:  Torque Abs Max 
 TRRT.°/30m              -2.10:  Turn Rotating 
 MRT .                    HCIM:  Maximum Recorded Temperature 
 TTMX.degC               92.16:  Max Tool Temp 
 VS01.                90627822:  Virtual Str1 SN 
 VS02.                90550008:  Virtual Str2 SN 
 VS03.                90627816:  Virtual Str3 SN 
 VS04.                90633205:  Virtual Str4 SN 
 VS05.                13033835:  Virtual Str5 SN 
 VS06.                11125125:  Virtual Str6 SN 
 WBMN.klb                 8.00:  WOB Min 
 WITN.            Bruce Cheyne:  Customer Rep 
 WITN.           Faig Mammadov:  Customer Rep 2 
 WOBA.klb                 9.00:  WOB Avg 
 WOBX.klb                12.00:  WOB Max 
 YP  .lhf2               30.00:  Yield Point 
~Curve Information Block
#MNEM.UNIT                 API CODE     Curve Description
#---------               -----------    ---------------------------
 TIME.HHMMSS            00 000 000 000:  GT Time & Date
 GTET.sec               00 000 000 000:  GT Elapsed Test Time
 GTPQH.psia             00 000 000 000:  GT HR Quartz Pressure
 GTDEPTH.m              00 000 000 000:  GT Depth
 GTTVD.m                00 000 000 000:  GT True Vertical Depth
 GTTQ.degC              00 000 000 000:  GT Quartz Temperature
 GTTN.NONE              00 000 000 000:  GT Test Number
#Other Information
#
#WARRANTY: Halliburton will use its best efforts to furnish customers with 
#accurate information and interpretations that are part of, and incident to, the services 
#provided.  However, Halliburton cannot and does not warrant the accuracy 
#or correctness of such information and interpretations.  Under no circumstances should any 
#such information or interpretation be relied upon as the sole basis for any drilling, 
#completion, production, or financial decision or any procedure involving any risk to the 
#safety of any drilling venture, drilling rig or its crew or any other third party.  The 
#Customer has full responsibility for all drilling, completion and production operation.  
#Halliburton makes no representations or warranties, either expressed or 
#implied, including, but not limited to, the implied warranties of merchantability or fitness 
#for a particular purpose, with respect to the services rendered.  In no event will 
#Halliburton be liable for failure to obtain any particular results or for 
#any damages, including, but not limited to, indirect, special or consequential damages, 
#resulting from the use of any information or interpretation provided by Halliburton.
#
~A           TIME            GTET   GTPQH  GTDEPTH  GTTVD  GTTQ  GTTN 
# ...
   13:40:37.944.05-Jan-2021  23.01 7331.94 3494.01 2996.09 77.86 7.00
   13:40:38.144.05-Jan-2021  23.21 7331.94 3494.01 2996.09 77.86 7.00
   13:40:38.344.05-Jan-2021  23.41 7330.37 3494.01 2996.09 77.86 7.00
   13:40:38.544.05-Jan-2021  23.61 7330.46 3494.01 2996.09 77.86 7.00
   13:40:38.744.05-Jan-2021  23.81 7330.74 3494.01 2996.09 77.86 7.00
   13:40:38.944.05-Jan-2021  24.01 7330.96 3494.01 2996.09 77.86 7.00
   13:40:39.144.05-Jan-2021  24.21 7330.96 3494.01 2996.09 77.86 7.00
   13:40:39.344.05-Jan-2021  24.41 7335.21 3494.01 2996.09 77.86 7.00
   13:40:39.545.05-Jan-2021  24.61 7334.87 3494.01 2996.09 77.86 7.00
   13:40:39.745.05-Jan-2021  24.81 7330.91 3494.01 2996.09 77.86 7.00
   13:40:39.945.05-Jan-2021  25.01 7339.11 3494.01 2996.09 77.86 7.00
   13:40:40.145.05-Jan-2021  25.21 7339.11 3494.01 2996.09 77.86 7.00
   13:40:40.345.05-Jan-2021  25.41 7329.92 3494.01 2996.09 77.86 7.00
   13:40:40.545.05-Jan-2021  25.61 7329.24 3494.01 2996.09 77.86 7.00
   13:40:40.745.05-Jan-2021  25.81 7330.66 3494.01 2996.09 77.86 7.00
   13:40:40.945.05-Jan-2021  26.01 7336.11 3494.01 2996.09 77.86 7.00
   13:40:41.145.05-Jan-2021  26.21 7336.11 3494.01 2996.09 77.86 7.00
   13:40:41.346.05-Jan-2021  26.41 7331.08 3494.01 2996.09 77.86 7.00
   13:40:41.546.05-Jan-2021  26.61 7331.01 3494.01 2996.09 77.86 7.00
   13:40:41.746.05-Jan-2021  26.81 7338.35 3494.01 2996.09 77.86 7.00
   13:40:41.946.05-Jan-2021  27.01 7332.23 3494.01 2996.09 77.86 7.00
   13:40:42.146.05-Jan-2021  27.22 7332.23 3494.01 2996.09 77.86 7.00
   13:40:42.346.05-Jan-2021  27.42 7330.25 3494.01 2996.09 77.86 7.00
   13:40:42.546.05-Jan-2021  27.62 7330.32 3494.01 2996.09 77.86 7.00
   13:40:42.746.05-Jan-2021  27.82 7337.81 3494.01 2996.09 77.86 7.00
   13:40:42.946.05-Jan-2021  28.02 7335.36 3494.01 2996.09 77.86 7.00
   13:40:43.147.05-Jan-2021  28.22 7335.36 3494.01 2996.09 77.86 7.00
   13:40:43.347.05-Jan-2021  28.42 7404.33 3494.01 2996.09 77.86 7.00
   13:40:43.547.05-Jan-2021  28.62 7421.33 3494.01 2996.09 77.86 7.00
   13:40:43.747.05-Jan-2021  28.82 7434.08 3494.01 2996.09 77.86 7.00
   13:40:43.947.05-Jan-2021  29.02 7438.08 3494.01 2996.09 77.86 7.00
   13:40:44.147.05-Jan-2021  29.22 7438.08 3494.01 2996.09 77.86 7.00
   13:40:44.347.05-Jan-2021  29.42 7441.91 3494.01 2996.09 77.86 7.00
   13:40:44.547.05-Jan-2021  29.62 7448.23 3494.01 2996.09 77.86 7.00
   13:40:44.747.05-Jan-2021  29.82 7420.28 3494.01 2996.09 77.86 7.00
   13:40:44.948.05-Jan-2021  30.02 7367.64 3494.01 2996.09 77.86 7.00
   13:40:45.148.05-Jan-2021  30.22 7367.64 3494.01 2996.09 77.86 7.00
   13:40:45.348.05-Jan-2021  30.42 7243.96 3494.01 2996.09 77.86 7.00
   13:40:45.548.05-Jan-2021  30.62 7203.51 3494.01 2996.09 77.86 7.00
   13:40:45.748.05-Jan-2021  30.82 7188.30 3494.01 2996.09 77.86 7.00
   13:40:45.948.05-Jan-2021  31.02 7149.84 3494.01 2996.09 77.86 7.00
   13:40:46.148.05-Jan-2021  31.22 7149.84 3494.01 2996.09 77.86 7.00
   13:40:46.348.05-Jan-2021  31.42 7069.63 3494.01 2996.09 77.86 7.00
   13:40:46.548.05-Jan-2021  31.62 7038.23 3494.01 2996.09 77.86 7.00
   13:40:46.749.05-Jan-2021  31.82 7019.27 3494.01 2996.09 77.86 7.00
   13:40:46.949.05-Jan-2021  32.02 7006.90 3494.01 2996.09 77.86 7.00
   13:40:47.149.05-Jan-2021  32.22 7006.90 3494.01 2996.09 77.86 7.00
   13:40:47.349.05-Jan-2021  32.42 6982.08 3494.01 2996.09 77.86 7.00
   13:40:47.549.05-Jan-2021  32.62 6976.07 3494.01 2996.09 77.86 7.00
   13:40:47.749.05-Jan-2021  32.82 6962.33 3494.01 2996.09 77.86 7.00
   13:40:47.949.05-Jan-2021  33.02 6948.41 3494.01 2996.09 77.86 7.00
   13:40:48.149.05-Jan-2021  33.22 6948.41 3494.01 2996.09 77.86 7.00
   13:40:48.349.05-Jan-2021  33.42 6935.47 3494.01 2996.09 77.86 7.00
   13:40:48.550.05-Jan-2021  33.62 6942.62 3494.01 2996.09 77.86 7.00
   13:40:48.750.05-Jan-2021  33.82 6761.12 3494.01 2996.09 77.86 7.00
   13:40:48.950.05-Jan-2021  34.02 6168.74 3494.01 2996.09 77.86 7.00
   13:40:49.150.05-Jan-2021  34.22 6168.74 3494.01 2996.09 77.86 7.00
   13:40:49.350.05-Jan-2021  34.42 5025.68 3494.01 2996.09 77.86 7.00
   13:40:49.550.05-Jan-2021  34.62 4650.83 3494.01 2996.09 77.86 7.00
   13:40:49.750.05-Jan-2021  34.82 4629.03 3494.01 2996.09 77.86 7.00
   13:40:49.950.05-Jan-2021  35.02 4669.25 3494.01 2996.09 77.86 7.00
   13:40:50.150.05-Jan-2021  35.22 4669.25 3494.01 2996.09 77.86 7.00
   13:40:50.351.05-Jan-2021  35.42 4698.36 3494.01 2996.09 77.85 7.00
   13:40:50.551.05-Jan-2021  35.62 4708.47 3494.01 2996.09 77.85 7.00
   13:40:50.751.05-Jan-2021  35.82 4716.33 3494.01 2996.09 77.85 7.00
   13:40:50.951.05-Jan-2021  36.02 4723.95 3494.01 2996.09 77.85 7.00
   13:40:51.151.05-Jan-2021  36.22 4723.95 3494.01 2996.09 77.85 7.00
   13:40:51.351.05-Jan-2021  36.42 4748.82 3494.01 2996.09 77.85 7.00
   13:40:51.551.05-Jan-2021  36.62 4747.41 3494.01 2996.09 77.84 7.00
   13:40:51.751.05-Jan-2021  36.82 4745.66 3494.01 2996.09 77.84 7.00
   13:40:51.951.05-Jan-2021  37.02 4749.03 3494.01 2996.09 77.84 7.00
   13:40:52.152.05-Jan-2021  37.22 4749.03 3494.01 2996.09 77.84 7.00
   13:40:52.352.05-Jan-2021  37.42 4752.14 3494.01 2996.09 77.84 7.00
   13:40:52.552.05-Jan-2021  37.62 4743.15 3494.01 2996.09 77.83 7.00
   13:40:52.752.05-Jan-2021  37.82 4751.22 3494.01 2996.09 77.83 7.00
   13:40:52.952.05-Jan-2021  38.02 4748.68 3494.01 2996.09 77.83 7.00
   13:40:53.152.05-Jan-2021  38.22 4748.68 3494.01 2996.09 77.83 7.00
   13:40:53.352.05-Jan-2021  38.42 4767.70 3494.01 2996.09 77.83 7.00
   13:40:53.552.05-Jan-2021  38.62 4739.93 3494.01 2996.09 77.82 7.00
   13:40:53.752.05-Jan-2021  38.82 4767.38 3494.01 2996.09 77.82 7.00
   13:40:53.953.05-Jan-2021  39.02 4753.99 3494.01 2996.09 77.82 7.00
   13:40:54.153.05-Jan-2021  39.22 4753.99 3494.01 2996.09 77.82 7.00
   13:40:54.353.05-Jan-2021  39.42 4754.52 3494.01 2996.09 77.82 7.00
   13:40:54.553.05-Jan-2021  39.62 4759.33 3494.01 2996.09 77.82 7.00
   13:40:54.753.05-Jan-2021  39.82 4763.94 3494.01 2996.09 77.81 7.00
   13:40:54.953.05-Jan-2021  40.02 4751.67 3494.01 2996.09 77.81 7.00
   13:40:55.153.05-Jan-2021  40.22 4751.67 3494.01 2996.09 77.81 7.00
   13:40:55.353.05-Jan-2021  40.42 4756.39 3494.01 2996.09 77.81 7.00
   13:40:55.553.05-Jan-2021  40.62 4766.23 3494.01 2996.09 77.81 7.00
   13:40:55.754.05-Jan-2021  40.82 4756.13 3494.01 2996.09 77.81 7.00
   13:40:55.954.05-Jan-2021  41.02 4760.92 3494.01 2996.09 77.81 7.00
   13:40:56.154.05-Jan-2021  41.22 4760.92 3494.01 2996.09 77.80 7.00
   13:40:56.354.05-Jan-2021  41.42 4754.96 3494.01 2996.09 77.80 7.00
   13:40:56.554.05-Jan-2021  41.62 4764.01 3494.01 2996.09 77.80 7.00
   13:40:56.754.05-Jan-2021  41.82 4756.68 3494.01 2996.09 77.80 7.00
   13:40:56.954.05-Jan-2021  42.02 4757.75 3494.01 2996.09 77.80 7.00
   13:40:57.154.05-Jan-2021  42.22 4757.75 3494.01 2996.09 77.80 7.00
   13:40:57.354.05-Jan-2021  42.42 4843.18 3494.01 2996.09 77.80 7.00
   13:40:57.555.05-Jan-2021  42.62 4881.20 3494.01 2996.09 77.80 7.00
   13:40:57.755.05-Jan-2021  42.82 4883.59 3494.01 2996.09 77.80 7.00
   13:40:57.955.05-Jan-2021  43.02 4882.22 3494.01 2996.09 77.80 7.00
   13:40:58.155.05-Jan-2021  43.22 4882.22 3494.01 2996.09 77.80 7.00
   13:40:58.355.05-Jan-2021  43.42 4882.94 3494.01 2996.09 77.80 7.00
   13:40:58.555.05-Jan-2021  43.62 4882.52 3494.01 2996.09 77.79 7.00
   13:40:58.755.05-Jan-2021  43.82 4884.46 3494.01 2996.09 77.79 7.00
   13:40:58.955.05-Jan-2021  44.02 4883.25 3494.01 2996.09 77.79 7.00
   13:40:59.155.05-Jan-2021  44.22 4883.25 3494.01 2996.09 77.79 7.00
   13:40:59.356.05-Jan-2021  44.42 4883.35 3494.01 2996.09 77.79 7.00
   13:40:59.556.05-Jan-2021  44.62 4883.95 3494.01 2996.09 77.79 7.00
   13:40:59.756.05-Jan-2021  44.82 4883.46 3494.01 2996.09 77.79 7.00
   13:40:59.956.05-Jan-2021  45.02 4883.11 3494.01 2996.09 77.79 7.00
   13:41:00.156.05-Jan-2021  45.23 4884.25 3494.01 2996.09 77.79 7.00
   13:41:00.356.05-Jan-2021  45.43 4883.51 3494.01 2996.09 77.79 7.00
   13:41:00.556.05-Jan-2021  45.63 4883.50 3494.01 2996.09 77.79 7.00
   13:41:00.756.05-Jan-2021  45.83 4883.51 3494.01 2996.09 77.79 7.00
