~Version Information
 VERS.                  2.0:   CWLS log ASCII Standard -VERSION 2.0
 WRAP.                   NO:   One line per depth step
~Well Information Block
#MNEM.UNIT     VALUE/NAME     DESCRIPTION
#---------     -----------    ---------------------------
 STRT.S             07:28:27 05-Jan-21: START TIME 07:28:27 05-Jan-21
 STOP.S             07:36:40 05-Jan-21: STOP TIME  07:36:40 05-Jan-21
 STEP.S                   0.00: STEP TIME
 NULL.                 -999.25: NULL VALUE
 DFWT.                        :  DIST FWL TEXT
 DFST.                        :  DIST FSL TEXT
 DMF .             Drill Floor:  DRILL MEAS FROM
 STIM.      06.00.00 31-Dec-20:  START TIME
 DATE.      05.58.24 07-Jan-21:  END TIME
 SPUD.               24-Dec-20:  SPUD DATE
 NREF.                    Grid:  NORTH REFERENCE
 HPTY.       Minimum Curvature:  HOLE POS TYPE
 DMOD.             Drill Model:  DRILL MOD DESC
 SVYD.                  Survey:  SURVEY DESC
 ILTD.               Lithology:  INTERP LTH DESC
 FTOP.          Formation Tops:  FORM TOPS DESC
 SON .        AZ-XX-0906699554:  JOB NUMBER
 WELL.                    B09z:  WELL NAME
 PDAT.          Mean Sea Level:  PERMANENT DATUM
 FLD .                     ACG:  FIELD NAME
 CTRY.              Azerbaijan:  COUNTRY NAME
 COMP.     BP Exploration (Caspian Sea) Ltd.:  COMPANY
 UWI .                     N/A:  UNIQUE WELL IDENTIFIER
 API .                     N/A:  API NUMBER
 WTYP.                Deviated:  WELL TYPE
 MDS .        Operator Entered:  MAG DATA SOURCE
 BASE.              Azerbaijan:  LOGGING EQUIPMENT BASE LOCATION
 REGN.                   EESSA:  REGION
 PROV.                    Baku:  PROVINCE
 STAT.                    Baku:  STATE NAME
 SRVC.          Turan Drilling:  CONTRACTOR
 MWDS.                    Baku:  MWD SHOP
 JOBN.        AZ-XX-0906699554:  JOB TICKET NUMB
 RIG .           Central Azeri:  RIG NAME
 DOE .                     N/A:  DOE NUMBER
 DCON.         Sperry Drilling:  DIRECTNL CONTR
 UNIT.                     N/A:  LOGGING EQUIPMENT ID
 CNTY.                        :  COUNTY
 LOC .                        :  LOCATION
 LMF .             Drill Floor:  LOG MEASURED FROM
 TVDS.m                  43.29:  TVDSS CORRECTN
 LATI.deg                40.03:  LATITUDE
 LONG.deg                51.35:  LONGITUDE
 WHNS.m                  -2.76:  WELL HEAD N/S
 WHEW.m                  -7.70:  WELL HEAD E/W
 UTMX.m              530128.28:  UTM X
 UTMY.m             4433192.49:  UTM Y
 DFWL.m                   0.00:  DISTANCE FWL
 DFSL.m                   0.00:  DISTANCE FSL
 SDEP.m                3435.01:  START DEPTH
 TDD .m                3814.01:  TOTAL DEPTH (DRILLER)
 VSDR.deg               352.80:  VERT SEC DIRECT
 GVFD.g                   1.00:  GRAVITY FIELD
 MFLD.nT              50303.00:  MAGNETIC FIELD
 MDIP.deg                59.52:  MAGNETIC DIP
 MDEC.deg                 6.47:  MAGNETIC DECL
 GRDC.deg                 0.23:  GRID CORRECTION
 AZTC.deg                 6.24:  AZM TOTAL CORR
 EPD .m                   0.00:  ELEVATION
 EGL .m                   0.00:  GROUND ELEVATION
 WDMS.m                 128.20:  WD ELEV
 APD .m                  43.29:  DEPTH ABOVE PD
 DEP .m                3421.30:  DEPTH
 AGAP.m                  43.60:  AIR GAP
 VSEW.m                  -7.70:  VERT SEC E/W
 VSNS.m                  -2.76:  VERT SEC N/S
 EKB .m                   0.00:  KB ELEVATION
 EDF .m                  43.29:  DF ELEVATION
 TDL .m                 369.00:  TOTAL DEPTH (LOGGER)
 VSC .                       0:  VS TO CLOSURE
 MAGU.                 1850390:  MAGUTM CHECKSUM
~Parameter Information Block
#MNEM.UNIT       Value        Description
#---------     -----------    ---------------------------
 AV  .mps                 2.80:  Ann Velocity 
 AVMX.mps                 4.67:  Max Ann Veloc 
 AZIF.deg               303.89:  Azm, Final 
 BHAT.        Rotary Steerable:  BHA Type 
 BREV.rev            128542.00:  Rev Bit Total 
 BROT.°/30m               1.50:  Build Rotating 
 BS  .in                  8.50:  Bit Size 
 BSZ .in                  8.50:  Bit Size 
 BTPL.psig              715.00:  Bit Press Loss 
 CABU.                      No:  Customer Abuse 
 COMM.                     ÜNb:  Run Comments 1 
 TCS .hr                 53.00:  Time Ciculation Ended 
 CV  .mps                 3.85:  Crit Velocity 
 CVMX.mps                 4.75:  Max Crit Veloc 
 DD1 .         Intigam Rahimov:  Direct Drillr 1 
 DDSV.                 iCruise:  DD Service 
 DEFF.%                  98.60:  % Det Eff 
 DLRX.°/30m               2.34:  Dogleg Rot Max 
 DLSO.°/30m               0.00:  Dogleg Oriented 
 DLSX.°/30m               0.00:  Dogleg Str Max 
 DRET.      00.15.00 05-Jan-21:  Drill End Time 
 DRST.      22.00.00 03-Jan-21:  Drill Start Tim 
 DTIM.hr                 17.72:  Time Drilling 
 EDEP.m                3814.01:  End Depth 
 ENG1.         Yevgeniy Ulikov:  Engineer 1 
 ENG2.        Farkhad Khalidov:  Engineer 2 
 ENG3.           Samir Gafarov:  Engineer 3 
 ETIM.      21.00.00 07-Jan-21:  End Time 
 FLOI.gpm               590.00:  Flow In 
 FLON.gpm               580.00:  Flow In Min 
 FLOS.cptm                1.00:  Fluid Loss 
 FLOX.gpm               595.00:  Flow In Max 
 FTRO.     Connectivity, Formation Presure:  FTWD Run Obj 
 HFLO.                      No:  High Flow 
 HPRE.                     Yes:  High Pressure 
 HTEM.                      No:  High Temp 
 HYDO.m                   1.80:  Hydro Offset 
 IFIN.deg                63.76:  Inc, Final 
 IMAX.deg                64.09:  Inc Max 
 IMIN.deg                55.81:  Inc Min 
 IMND.m                3455.62:  Inc Min Depth 
 IMXD.m                3796.03:  Inc Max Depth 
 JARR.                      No:  Jarring 
 LETM.      00.15.00 05-Jan-21:  Log End Time 
 LOST.hr                     0:  Lost Rig Time 
 LSTM.      22.00.00 03-Jan-21:  Log Start Time 
 MDCL.ppm             36000.00:  Mud Chlorides 
 MDES.     Inversion Oil/Synthetic:  Mud Desc 
 DFD .sg                  1.51:  Mud Density 
 MDMN.sg                  1.51:  Dens Mud Min 
 MDMX.sg                  1.51:  Dens Mud Max 
 MOIL.                    55.5:  Run Mud Oil % 
 MOWR.                   70:30:  Run Mud OWR 
 MSND.                     0.1:  Run Mud Sand % 
 MSOL.                   20.77:  Run Mud Solids% 
 DFV .spqt               67.00:  Mud Viscosity 
 MWOD.in                  6.75:  MWD Tool OD 
 MWSI.                      No:  Serv Intrp, MWD 
 OTIM.hr                113.53:  Time Operating 
 PCON.           Look Like New:  Pad Condition 
 PMAX.psia             4830.00:  Press Op, Max 
 PV  .cP                 29.00:  Mud PV 
 RUN .                     300:  Run Number 
 ROPA.m/hr               22.00:  ROP Avg 
 ROPN.m/hr               18.00:  ROP Min 
 ROPX.m/hr               25.00:  ROP Max 
 RPMA.rpm               130.00:  RPM Surface Avg 
 RPMN.rpm                80.00:  RPM Surface Min 
 RPMX.rpm               140.00:  RPM Surface Max 
 RRUN.                    L101:  Rig Run Number 
 RTIM.hr                  9.28:  Time Reaming 
 SAZI.deg               316.55:  Azm, Start 
 SDEP.m                3445.01:  Start Depth 
 SIDD.                      No:  Serv Intrp, DD 
 SINC.deg                55.81:  Inc, Start 
 SPPA.psig             4500.00:  SPP Avg 
 SPPN.psig             4350.00:  SPP Min 
 SPPX.psig             4830.00:  SPP Max 
 STIM.      00.00.00 03-Jan-21:  Start Time 
 SVCS.                 DD, MWD:  Services 
 SVER.                    9.20:  Sperry Version 
 TDAT.m                 369.00:  Tot Depth Attmp 
 TDDF.                      No:  Trip for DD 
 TDLG.m                 369.00:  Tot Depth Loggd 
 TFF .                      No:  Trip for Fail 
 TQAA.f-kp               15.00:  Torque Abs Avg 
 TQAN.f-kp               12.00:  Torque Abs Min 
 TQAX.f-kp               16.00:  Torque Abs Max 
 TRRT.°/30m              -2.10:  Turn Rotating 
 MRT .                    HCIM:  Maximum Recorded Temperature 
 TTMX.degC               92.16:  Max Tool Temp 
 VS01.                90627822:  Virtual Str1 SN 
 VS02.                90550008:  Virtual Str2 SN 
 VS03.                90627816:  Virtual Str3 SN 
 VS04.                90633205:  Virtual Str4 SN 
 VS05.                13033835:  Virtual Str5 SN 
 VS06.                11125125:  Virtual Str6 SN 
 WBMN.klb                 8.00:  WOB Min 
 WITN.            Bruce Cheyne:  Customer Rep 
 WITN.           Faig Mammadov:  Customer Rep 2 
 WOBA.klb                 9.00:  WOB Avg 
 WOBX.klb                12.00:  WOB Max 
 YP  .lhf2               30.00:  Yield Point 
~Curve Information Block
#MNEM.UNIT                 API CODE     Curve Description
#---------               -----------    ---------------------------
 TIME.HHMMSS            00 000 000 000:  GT Time & Date
 GTET.sec               00 000 000 000:  GT Elapsed Test Time
 GTPQH.psia             00 000 000 000:  GT HR Quartz Pressure
 GTDEPTH.m              00 000 000 000:  GT Depth
 GTTVD.m                00 000 000 000:  GT True Vertical Depth
 GTTQ.degC              00 000 000 000:  GT Quartz Temperature
 GTTN.NONE              00 000 000 000:  GT Test Number
#Other Information
#
#WARRANTY: Halliburton will use its best efforts to furnish customers with 
#accurate information and interpretations that are part of, and incident to, the services 
#provided.  However, Halliburton cannot and does not warrant the accuracy 
#or correctness of such information and interpretations.  Under no circumstances should any 
#such information or interpretation be relied upon as the sole basis for any drilling, 
#completion, production, or financial decision or any procedure involving any risk to the 
#safety of any drilling venture, drilling rig or its crew or any other third party.  The 
#Customer has full responsibility for all drilling, completion and production operation.  
#Halliburton makes no representations or warranties, either expressed or 
#implied, including, but not limited to, the implied warranties of merchantability or fitness 
#for a particular purpose, with respect to the services rendered.  In no event will 
#Halliburton be liable for failure to obtain any particular results or for 
#any damages, including, but not limited to, indirect, special or consequential damages, 
#resulting from the use of any information or interpretation provided by Halliburton.
#
~A           TIME            GTET   GTPQH  GTDEPTH  GTTVD  GTTQ  GTTN 
# ...
   07:35:44.426.05-Jan-2021 437.16 4413.57 3656.51 3079.56 81.33 4.00
   07:35:44.627.05-Jan-2021 437.36 4413.57 3656.51 3079.56 81.33 4.00
   07:35:44.827.05-Jan-2021 437.56 4413.54 3656.51 3079.56 81.33 4.00
   07:35:45.027.05-Jan-2021 437.76 4413.61 3656.51 3079.56 81.33 4.00
   07:35:45.227.05-Jan-2021 437.96 4413.62 3656.51 3079.56 81.33 4.00
   07:35:45.427.05-Jan-2021 438.16 4413.63 3656.51 3079.56 81.33 4.00
   07:35:45.627.05-Jan-2021 438.36 4413.63 3656.51 3079.56 81.33 4.00
   07:35:45.827.05-Jan-2021 438.56 4413.62 3656.51 3079.56 81.33 4.00
   07:35:46.027.05-Jan-2021 438.76 4413.68 3656.51 3079.56 81.33 4.00
   07:35:46.227.05-Jan-2021 438.96 4413.50 3656.51 3079.56 81.33 4.00
   07:35:46.427.05-Jan-2021 439.16 4413.61 3656.51 3079.56 81.33 4.00
   07:35:46.627.05-Jan-2021 439.36 4413.61 3656.51 3079.56 81.33 4.00
   07:35:46.827.05-Jan-2021 439.56 4413.60 3656.51 3079.56 81.33 4.00
   07:35:47.027.05-Jan-2021 439.76 4413.54 3656.51 3079.56 81.33 4.00
   07:35:47.228.05-Jan-2021 439.96 4413.61 3656.51 3079.56 81.33 4.00
   07:35:47.428.05-Jan-2021 440.16 4413.58 3656.51 3079.56 81.33 4.00
   07:35:47.628.05-Jan-2021 440.36 4413.58 3656.51 3079.56 81.33 4.00
   07:35:47.828.05-Jan-2021 440.56 4413.52 3656.51 3079.56 81.33 4.00
   07:35:48.028.05-Jan-2021 440.76 4413.64 3656.51 3079.56 81.33 4.00
   07:35:48.228.05-Jan-2021 440.96 4413.54 3656.51 3079.56 81.33 4.00
   07:35:48.428.05-Jan-2021 441.16 4413.61 3656.51 3079.56 81.33 4.00
   07:35:48.628.05-Jan-2021 441.36 4413.61 3656.51 3079.56 81.33 4.00
   07:35:48.828.05-Jan-2021 441.56 4413.57 3656.51 3079.56 81.33 4.00
   07:35:49.028.05-Jan-2021 441.76 4413.64 3656.51 3079.56 81.33 4.00
   07:35:49.228.05-Jan-2021 441.96 4413.50 3656.51 3079.56 81.33 4.00
   07:35:49.428.05-Jan-2021 442.16 4413.59 3656.51 3079.56 81.33 4.00
   07:35:49.628.05-Jan-2021 442.36 4413.59 3656.51 3079.56 81.33 4.00
   07:35:49.828.05-Jan-2021 442.56 4413.48 3656.51 3079.56 81.33 4.00
   07:35:50.029.05-Jan-2021 442.76 4413.65 3656.51 3079.56 81.33 4.00
   07:35:50.229.05-Jan-2021 442.96 4413.52 3656.51 3079.56 81.33 4.00
   07:35:50.429.05-Jan-2021 443.16 4413.61 3656.51 3079.56 81.33 4.00
   07:35:50.629.05-Jan-2021 443.36 4413.61 3656.51 3079.56 81.33 4.00
   07:35:50.829.05-Jan-2021 443.56 4413.55 3656.51 3079.56 81.33 4.00
   07:35:51.029.05-Jan-2021 443.76 4413.58 3656.51 3079.56 81.33 4.00
   07:35:51.229.05-Jan-2021 443.96 4413.60 3656.51 3079.56 81.33 4.00
   07:35:51.429.05-Jan-2021 444.16 4413.51 3656.51 3079.56 81.33 4.00
   07:35:51.629.05-Jan-2021 444.36 4413.51 3656.51 3079.56 81.33 4.00
   07:35:51.829.05-Jan-2021 444.57 4413.60 3656.51 3079.56 81.33 4.00
   07:35:52.029.05-Jan-2021 444.77 4413.50 3656.51 3079.56 81.33 4.00
   07:35:52.229.05-Jan-2021 444.97 4413.57 3656.51 3079.56 81.33 4.00
   07:35:52.429.05-Jan-2021 445.17 4413.60 3656.51 3079.56 81.33 4.00
   07:35:52.630.05-Jan-2021 445.37 4413.60 3656.51 3079.56 81.33 4.00
   07:35:52.830.05-Jan-2021 445.57 4413.59 3656.51 3079.56 81.33 4.00
   07:35:53.030.05-Jan-2021 445.77 4413.57 3656.51 3079.56 81.33 4.00
   07:35:53.230.05-Jan-2021 445.97 4413.57 3656.51 3079.56 81.33 4.00
   07:35:53.430.05-Jan-2021 446.17 4413.54 3656.51 3079.56 81.33 4.00
   07:35:53.630.05-Jan-2021 446.37 4413.54 3656.51 3079.56 81.33 4.00
   07:35:53.830.05-Jan-2021 446.57 4413.52 3656.51 3079.56 81.33 4.00
   07:35:54.030.05-Jan-2021 446.77 4413.59 3656.51 3079.56 81.33 4.00
   07:35:54.230.05-Jan-2021 446.97 4413.53 3656.51 3079.56 81.33 4.00
   07:35:54.430.05-Jan-2021 447.17 4413.55 3656.51 3079.56 81.33 4.00
   07:35:54.630.05-Jan-2021 447.37 4413.55 3656.51 3079.56 81.33 4.00
   07:35:54.830.05-Jan-2021 447.57 4413.54 3656.51 3079.56 81.33 4.00
   07:35:55.030.05-Jan-2021 447.77 4413.55 3656.51 3079.56 81.33 4.00
   07:35:55.230.05-Jan-2021 447.97 4395.87 3656.51 3079.56 81.33 4.00
   07:35:55.431.05-Jan-2021 448.17 4440.14 3656.51 3079.56 81.33 4.00
   07:35:55.631.05-Jan-2021 448.37 4440.14 3656.51 3079.56 81.33 4.00
   07:35:55.831.05-Jan-2021 448.57 7264.53 3656.51 3079.56 81.33 4.00
   07:35:56.031.05-Jan-2021 448.77 7262.63 3656.51 3079.56 81.33 4.00
   07:35:56.231.05-Jan-2021 448.97 7261.53 3656.51 3079.56 81.33 4.00
   07:35:56.431.05-Jan-2021 449.17 7261.40 3656.51 3079.56 81.33 4.00
   07:35:56.631.05-Jan-2021 449.37 7261.40 3656.51 3079.56 81.33 4.00
   07:35:56.831.05-Jan-2021 449.57 7263.46 3656.51 3079.56 81.33 4.00
   07:35:57.031.05-Jan-2021 449.77 7263.74 3656.51 3079.56 81.34 4.00
   07:35:57.231.05-Jan-2021 449.97 7264.75 3656.51 3079.56 81.34 4.00
   07:35:57.431.05-Jan-2021 450.17 7264.91 3656.51 3079.56 81.34 4.00
   07:35:57.631.05-Jan-2021 450.37 7264.91 3656.51 3079.56 81.34 4.00
   07:35:57.831.05-Jan-2021 450.57 7264.23 3656.51 3079.56 81.34 4.00
   07:35:58.032.05-Jan-2021 450.77 7264.42 3656.51 3079.56 81.35 4.00
   07:35:58.232.05-Jan-2021 450.97 7263.56 3656.51 3079.56 81.35 4.00
   07:35:58.432.05-Jan-2021 451.17 7263.89 3656.51 3079.56 81.35 4.00
   07:35:58.632.05-Jan-2021 451.37 7263.89 3656.51 3079.56 81.35 4.00
   07:35:58.832.05-Jan-2021 451.57 7263.72 3656.51 3079.56 81.36 4.00
   07:35:59.032.05-Jan-2021 451.77 7263.02 3656.51 3079.56 81.36 4.00
   07:35:59.232.05-Jan-2021 451.97 7263.60 3656.51 3079.56 81.36 4.00
   07:35:59.432.05-Jan-2021 452.17 7262.82 3656.51 3079.56 81.36 4.00
   07:35:59.632.05-Jan-2021 452.37 7262.82 3656.51 3079.56 81.36 4.00
   07:35:59.832.05-Jan-2021 452.57 7262.47 3656.51 3079.56 81.37 4.00
   07:36:00.032.05-Jan-2021 452.77 7262.77 3656.51 3079.56 81.37 4.00
   07:36:00.232.05-Jan-2021 452.97 7262.18 3656.51 3079.56 81.37 4.00
   07:36:00.432.05-Jan-2021 453.17 7262.47 3656.51 3079.56 81.38 4.00
   07:36:00.632.05-Jan-2021 453.37 7262.47 3656.51 3079.56 81.38 4.00
   07:36:00.833.05-Jan-2021 453.57 7262.29 3656.51 3079.56 81.38 4.00
   07:36:01.033.05-Jan-2021 453.77 7261.62 3656.51 3079.56 81.38 4.00
   07:36:01.233.05-Jan-2021 453.97 7261.53 3656.51 3079.56 81.39 4.00
   07:36:01.433.05-Jan-2021 454.17 7261.09 3656.51 3079.56 81.39 4.00
   07:36:01.633.05-Jan-2021 454.37 7261.09 3656.51 3079.56 81.39 4.00
   07:36:01.833.05-Jan-2021 454.57 7260.77 3656.51 3079.56 81.39 4.00
   07:36:02.033.05-Jan-2021 454.77 7260.71 3656.51 3079.56 81.39 4.00
   07:36:02.233.05-Jan-2021 454.97 7260.55 3656.51 3079.56 81.40 4.00
   07:36:02.433.05-Jan-2021 455.17 7260.12 3656.51 3079.56 81.40 4.00
   07:36:02.633.05-Jan-2021 455.37 7260.12 3656.51 3079.56 81.40 4.00
   07:36:02.833.05-Jan-2021 455.57 7260.12 3656.51 3079.56 81.40 4.00
   07:36:03.033.05-Jan-2021 455.77 7259.22 3656.51 3079.56 81.40 4.00
   07:36:03.233.05-Jan-2021 455.97 7258.50 3656.51 3079.56 81.40 4.00
   07:36:03.434.05-Jan-2021 456.17 7258.41 3656.51 3079.56 81.40 4.00
   07:36:03.634.05-Jan-2021 456.37 7258.41 3656.51 3079.56 81.40 4.00
   07:36:03.834.05-Jan-2021 456.57 7258.08 3656.51 3079.56 81.41 4.00
   07:36:04.034.05-Jan-2021 456.77 7257.77 3656.51 3079.56 81.41 4.00
   07:36:04.234.05-Jan-2021 456.97 7257.66 3656.51 3079.56 81.41 4.00
   07:36:04.434.05-Jan-2021 457.17 7257.04 3656.51 3079.56 81.41 4.00
   07:36:04.634.05-Jan-2021 457.37 7257.04 3656.51 3079.56 81.41 4.00
   07:36:04.834.05-Jan-2021 457.57 7256.70 3656.51 3079.56 81.41 4.00
   07:36:05.034.05-Jan-2021 457.77 7257.54 3656.51 3079.56 81.41 4.00
   07:36:05.234.05-Jan-2021 457.97 7256.77 3656.51 3079.56 81.41 4.00
   07:36:05.434.05-Jan-2021 458.17 7257.02 3656.51 3079.56 81.41 4.00
   07:36:05.634.05-Jan-2021 458.37 7257.02 3656.51 3079.56 81.41 4.00
   07:36:05.834.05-Jan-2021 458.57 7256.55 3656.51 3079.56 81.42 4.00
   07:36:06.035.05-Jan-2021 458.77 7255.71 3656.51 3079.56 81.42 4.00
   07:36:06.235.05-Jan-2021 458.97 7256.30 3656.51 3079.56 81.42 4.00
   07:36:06.435.05-Jan-2021 459.17 7255.76 3656.51 3079.56 81.42 4.00
   07:36:06.635.05-Jan-2021 459.37 7255.76 3656.51 3079.56 81.42 4.00
   07:36:06.835.05-Jan-2021 459.57 7255.21 3656.51 3079.56 81.42 4.00
   07:36:07.035.05-Jan-2021 459.77 7255.57 3656.51 3079.56 81.42 4.00
   07:36:07.235.05-Jan-2021 459.97 7254.96 3656.51 3079.56 81.42 4.00
