~Version Information
 VERS.                  2.0:   CWLS log ASCII Standard -VERSION 2.0
 WRAP.                   NO:   One line per depth step
~Well Information Block
#MNEM.UNIT     VALUE/NAME     DESCRIPTION
#---------     -----------    ---------------------------
 STRT.S             08:46:17 05-Jan-21: START TIME 08:46:17 05-Jan-21
 STOP.S             08:54:30 05-Jan-21: STOP TIME  08:54:30 05-Jan-21
 STEP.S                   0.00: STEP TIME
 NULL.                 -999.25: NULL VALUE
 DFWT.                        :  DIST FWL TEXT
 DFST.                        :  DIST FSL TEXT
 DMF .             Drill Floor:  DRILL MEAS FROM
 STIM.      06.00.00 31-Dec-20:  START TIME
 DATE.      05.58.24 07-Jan-21:  END TIME
 SPUD.               24-Dec-20:  SPUD DATE
 NREF.                    Grid:  NORTH REFERENCE
 HPTY.       Minimum Curvature:  HOLE POS TYPE
 DMOD.             Drill Model:  DRILL MOD DESC
 SVYD.                  Survey:  SURVEY DESC
 ILTD.               Lithology:  INTERP LTH DESC
 FTOP.          Formation Tops:  FORM TOPS DESC
 SON .        AZ-XX-0906699554:  JOB NUMBER
 WELL.                    B09z:  WELL NAME
 PDAT.          Mean Sea Level:  PERMANENT DATUM
 FLD .                     ACG:  FIELD NAME
 CTRY.              Azerbaijan:  COUNTRY NAME
 COMP.     BP Exploration (Caspian Sea) Ltd.:  COMPANY
 UWI .                     N/A:  UNIQUE WELL IDENTIFIER
 API .                     N/A:  API NUMBER
 WTYP.                Deviated:  WELL TYPE
 MDS .        Operator Entered:  MAG DATA SOURCE
 BASE.              Azerbaijan:  LOGGING EQUIPMENT BASE LOCATION
 REGN.                   EESSA:  REGION
 PROV.                    Baku:  PROVINCE
 STAT.                    Baku:  STATE NAME
 SRVC.          Turan Drilling:  CONTRACTOR
 MWDS.                    Baku:  MWD SHOP
 JOBN.        AZ-XX-0906699554:  JOB TICKET NUMB
 RIG .           Central Azeri:  RIG NAME
 DOE .                     N/A:  DOE NUMBER
 DCON.         Sperry Drilling:  DIRECTNL CONTR
 UNIT.                     N/A:  LOGGING EQUIPMENT ID
 CNTY.                        :  COUNTY
 LOC .                        :  LOCATION
 LMF .             Drill Floor:  LOG MEASURED FROM
 TVDS.m                  43.29:  TVDSS CORRECTN
 LATI.deg                40.03:  LATITUDE
 LONG.deg                51.35:  LONGITUDE
 WHNS.m                  -2.76:  WELL HEAD N/S
 WHEW.m                  -7.70:  WELL HEAD E/W
 UTMX.m              530128.28:  UTM X
 UTMY.m             4433192.49:  UTM Y
 DFWL.m                   0.00:  DISTANCE FWL
 DFSL.m                   0.00:  DISTANCE FSL
 SDEP.m                3435.01:  START DEPTH
 TDD .m                3814.01:  TOTAL DEPTH (DRILLER)
 VSDR.deg               352.80:  VERT SEC DIRECT
 GVFD.g                   1.00:  GRAVITY FIELD
 MFLD.nT              50303.00:  MAGNETIC FIELD
 MDIP.deg                59.52:  MAGNETIC DIP
 MDEC.deg                 6.47:  MAGNETIC DECL
 GRDC.deg                 0.23:  GRID CORRECTION
 AZTC.deg                 6.24:  AZM TOTAL CORR
 EPD .m                   0.00:  ELEVATION
 EGL .m                   0.00:  GROUND ELEVATION
 WDMS.m                 128.20:  WD ELEV
 APD .m                  43.29:  DEPTH ABOVE PD
 DEP .m                3421.30:  DEPTH
 AGAP.m                  43.60:  AIR GAP
 VSEW.m                  -7.70:  VERT SEC E/W
 VSNS.m                  -2.76:  VERT SEC N/S
 EKB .m                   0.00:  KB ELEVATION
 EDF .m                  43.29:  DF ELEVATION
 TDL .m                 369.00:  TOTAL DEPTH (LOGGER)
 VSC .                       0:  VS TO CLOSURE
 MAGU.                 1850390:  MAGUTM CHECKSUM
~Parameter Information Block
#MNEM.UNIT       Value        Description
#---------     -----------    ---------------------------
 AV  .mps                 2.80:  Ann Velocity 
 AVMX.mps                 4.67:  Max Ann Veloc 
 AZIF.deg               303.89:  Azm, Final 
 BHAT.        Rotary Steerable:  BHA Type 
 BREV.rev            128542.00:  Rev Bit Total 
 BROT.°/30m               1.50:  Build Rotating 
 BS  .in                  8.50:  Bit Size 
 BSZ .in                  8.50:  Bit Size 
 BTPL.psig              715.00:  Bit Press Loss 
 CABU.                      No:  Customer Abuse 
 COMM.                     Œã}:  Run Comments 1 
 TCS .hr                 53.00:  Time Ciculation Ended 
 CV  .mps                 3.85:  Crit Velocity 
 CVMX.mps                 4.75:  Max Crit Veloc 
 DD1 .         Intigam Rahimov:  Direct Drillr 1 
 DDSV.                 iCruise:  DD Service 
 DEFF.%                  98.60:  % Det Eff 
 DLRX.°/30m               2.34:  Dogleg Rot Max 
 DLSO.°/30m               0.00:  Dogleg Oriented 
 DLSX.°/30m               0.00:  Dogleg Str Max 
 DRET.      00.15.00 05-Jan-21:  Drill End Time 
 DRST.      22.00.00 03-Jan-21:  Drill Start Tim 
 DTIM.hr                 17.72:  Time Drilling 
 EDEP.m                3814.01:  End Depth 
 ENG1.         Yevgeniy Ulikov:  Engineer 1 
 ENG2.        Farkhad Khalidov:  Engineer 2 
 ENG3.           Samir Gafarov:  Engineer 3 
 ETIM.      21.00.00 07-Jan-21:  End Time 
 FLOI.gpm               590.00:  Flow In 
 FLON.gpm               580.00:  Flow In Min 
 FLOS.cptm                1.00:  Fluid Loss 
 FLOX.gpm               595.00:  Flow In Max 
 FTRO.     Connectivity, Formation Presure:  FTWD Run Obj 
 HFLO.                      No:  High Flow 
 HPRE.                     Yes:  High Pressure 
 HTEM.                      No:  High Temp 
 HYDO.m                   1.80:  Hydro Offset 
 IFIN.deg                63.76:  Inc, Final 
 IMAX.deg                64.09:  Inc Max 
 IMIN.deg                55.81:  Inc Min 
 IMND.m                3455.62:  Inc Min Depth 
 IMXD.m                3796.03:  Inc Max Depth 
 JARR.                      No:  Jarring 
 LETM.      00.15.00 05-Jan-21:  Log End Time 
 LOST.hr                     0:  Lost Rig Time 
 LSTM.      22.00.00 03-Jan-21:  Log Start Time 
 MDCL.ppm             36000.00:  Mud Chlorides 
 MDES.     Inversion Oil/Synthetic:  Mud Desc 
 DFD .sg                  1.51:  Mud Density 
 MDMN.sg                  1.51:  Dens Mud Min 
 MDMX.sg                  1.51:  Dens Mud Max 
 MOIL.                    55.5:  Run Mud Oil % 
 MOWR.                   70:30:  Run Mud OWR 
 MSND.                     0.1:  Run Mud Sand % 
 MSOL.                   20.77:  Run Mud Solids% 
 DFV .spqt               67.00:  Mud Viscosity 
 MWOD.in                  6.75:  MWD Tool OD 
 MWSI.                      No:  Serv Intrp, MWD 
 OTIM.hr                113.53:  Time Operating 
 PCON.           Look Like New:  Pad Condition 
 PMAX.psia             4830.00:  Press Op, Max 
 PV  .cP                 29.00:  Mud PV 
 RUN .                     300:  Run Number 
 ROPA.m/hr               22.00:  ROP Avg 
 ROPN.m/hr               18.00:  ROP Min 
 ROPX.m/hr               25.00:  ROP Max 
 RPMA.rpm               130.00:  RPM Surface Avg 
 RPMN.rpm                80.00:  RPM Surface Min 
 RPMX.rpm               140.00:  RPM Surface Max 
 RRUN.                    L101:  Rig Run Number 
 RTIM.hr                  9.28:  Time Reaming 
 SAZI.deg               316.55:  Azm, Start 
 SDEP.m                3445.01:  Start Depth 
 SIDD.                      No:  Serv Intrp, DD 
 SINC.deg                55.81:  Inc, Start 
 SPPA.psig             4500.00:  SPP Avg 
 SPPN.psig             4350.00:  SPP Min 
 SPPX.psig             4830.00:  SPP Max 
 STIM.      00.00.00 03-Jan-21:  Start Time 
 SVCS.                 DD, MWD:  Services 
 SVER.                    9.20:  Sperry Version 
 TDAT.m                 369.00:  Tot Depth Attmp 
 TDDF.                      No:  Trip for DD 
 TDLG.m                 369.00:  Tot Depth Loggd 
 TFF .                      No:  Trip for Fail 
 TQAA.f-kp               15.00:  Torque Abs Avg 
 TQAN.f-kp               12.00:  Torque Abs Min 
 TQAX.f-kp               16.00:  Torque Abs Max 
 TRRT.°/30m              -2.10:  Turn Rotating 
 MRT .                    HCIM:  Maximum Recorded Temperature 
 TTMX.degC               92.16:  Max Tool Temp 
 VS01.                90627822:  Virtual Str1 SN 
 VS02.                90550008:  Virtual Str2 SN 
 VS03.                90627816:  Virtual Str3 SN 
 VS04.                90633205:  Virtual Str4 SN 
 VS05.                13033835:  Virtual Str5 SN 
 VS06.                11125125:  Virtual Str6 SN 
 WBMN.klb                 8.00:  WOB Min 
 WITN.            Bruce Cheyne:  Customer Rep 
 WITN.           Faig Mammadov:  Customer Rep 2 
 WOBA.klb                 9.00:  WOB Avg 
 WOBX.klb                12.00:  WOB Max 
 YP  .lhf2               30.00:  Yield Point 
~Curve Information Block
#MNEM.UNIT                 API CODE     Curve Description
#---------               -----------    ---------------------------
 TIME.HHMMSS            00 000 000 000:  GT Time & Date
 GTET.sec               00 000 000 000:  GT Elapsed Test Time
 GTPQH.psia             00 000 000 000:  GT HR Quartz Pressure
 GTDEPTH.m              00 000 000 000:  GT Depth
 GTTVD.m                00 000 000 000:  GT True Vertical Depth
 GTTQ.degC              00 000 000 000:  GT Quartz Temperature
 GTTN.NONE              00 000 000 000:  GT Test Number
#Other Information
#
#WARRANTY: Halliburton will use its best efforts to furnish customers with 
#accurate information and interpretations that are part of, and incident to, the services 
#provided.  However, Halliburton cannot and does not warrant the accuracy 
#or correctness of such information and interpretations.  Under no circumstances should any 
#such information or interpretation be relied upon as the sole basis for any drilling, 
#completion, production, or financial decision or any procedure involving any risk to the 
#safety of any drilling venture, drilling rig or its crew or any other third party.  The 
#Customer has full responsibility for all drilling, completion and production operation.  
#Halliburton makes no representations or warranties, either expressed or 
#implied, including, but not limited to, the implied warranties of merchantability or fitness 
#for a particular purpose, with respect to the services rendered.  In no event will 
#Halliburton be liable for failure to obtain any particular results or for 
#any damages, including, but not limited to, indirect, special or consequential damages, 
#resulting from the use of any information or interpretation provided by Halliburton.
#
~A           TIME            GTET   GTPQH  GTDEPTH  GTTVD  GTTQ  GTTN 
# ...
   08:50:31.092.05-Jan-2021 253.09 4605.26 3625.51 3064.84 80.04 6.00
   08:50:31.292.05-Jan-2021 253.29 4605.26 3625.51 3064.84 80.04 6.00
   08:50:31.492.05-Jan-2021 253.49 4605.24 3625.51 3064.84 80.04 6.00
   08:50:31.692.05-Jan-2021 253.69 4604.61 3625.51 3064.84 80.04 6.00
   08:50:31.892.05-Jan-2021 253.89 4605.32 3625.51 3064.84 80.04 6.00
   08:50:32.092.05-Jan-2021 254.09 4605.28 3625.51 3064.84 80.04 6.00
   08:50:32.292.05-Jan-2021 254.29 4605.28 3625.51 3064.84 80.04 6.00
   08:50:32.492.05-Jan-2021 254.49 4605.68 3625.51 3064.84 80.04 6.00
   08:50:32.692.05-Jan-2021 254.69 4605.43 3625.51 3064.84 80.04 6.00
   08:50:32.892.05-Jan-2021 254.89 4605.39 3625.51 3064.84 80.04 6.00
   08:50:33.092.05-Jan-2021 255.09 4605.38 3625.51 3064.84 80.04 6.00
   08:50:33.293.05-Jan-2021 255.29 4605.17 3625.51 3064.84 80.04 6.00
   08:50:33.493.05-Jan-2021 255.49 4604.92 3625.51 3064.84 80.04 6.00
   08:50:33.693.05-Jan-2021 255.69 4605.40 3625.51 3064.84 80.04 6.00
   08:50:33.893.05-Jan-2021 255.89 4605.43 3625.51 3064.84 80.04 6.00
   08:50:34.093.05-Jan-2021 256.10 4605.44 3625.51 3064.84 80.04 6.00
   08:50:34.293.05-Jan-2021 256.30 4605.44 3625.51 3064.84 80.04 6.00
   08:50:34.493.05-Jan-2021 256.50 4604.53 3625.51 3064.84 80.04 6.00
   08:50:34.693.05-Jan-2021 256.70 4605.43 3625.51 3064.84 80.04 6.00
   08:50:34.893.05-Jan-2021 256.90 4605.45 3625.51 3064.84 80.04 6.00
   08:50:35.093.05-Jan-2021 257.10 4605.45 3625.51 3064.84 80.04 6.00
   08:50:35.293.05-Jan-2021 257.30 4605.45 3625.51 3064.84 80.04 6.00
   08:50:35.493.05-Jan-2021 257.50 4604.70 3625.51 3064.84 80.04 6.00
   08:50:35.693.05-Jan-2021 257.70 4605.34 3625.51 3064.84 80.04 6.00
   08:50:35.893.05-Jan-2021 257.90 4605.38 3625.51 3064.84 80.04 6.00
   08:50:36.094.05-Jan-2021 258.10 4605.54 3625.51 3064.84 80.04 6.00
   08:50:36.294.05-Jan-2021 258.30 4605.54 3625.51 3064.84 80.04 6.00
   08:50:36.494.05-Jan-2021 258.50 4605.32 3625.51 3064.84 80.04 6.00
   08:50:36.694.05-Jan-2021 258.70 4605.26 3625.51 3064.84 80.04 6.00
   08:50:36.894.05-Jan-2021 258.90 4605.23 3625.51 3064.84 80.04 6.00
   08:50:37.094.05-Jan-2021 259.10 4605.28 3625.51 3064.84 80.04 6.00
   08:50:37.294.05-Jan-2021 259.30 4605.29 3625.51 3064.84 80.04 6.00
   08:50:37.494.05-Jan-2021 259.50 4605.31 3625.51 3064.84 80.04 6.00
   08:50:37.694.05-Jan-2021 259.70 4605.24 3625.51 3064.84 80.04 6.00
   08:50:37.894.05-Jan-2021 259.90 4605.26 3625.51 3064.84 80.04 6.00
   08:50:38.094.05-Jan-2021 260.10 4605.24 3625.51 3064.84 80.04 6.00
   08:50:38.294.05-Jan-2021 260.30 4605.24 3625.51 3064.84 80.04 6.00
   08:50:38.494.05-Jan-2021 260.50 4605.29 3625.51 3064.84 80.04 6.00
   08:50:38.695.05-Jan-2021 260.70 4605.38 3625.51 3064.84 80.04 6.00
   08:50:38.895.05-Jan-2021 260.90 4605.45 3625.51 3064.84 80.04 6.00
   08:50:39.095.05-Jan-2021 261.10 4605.22 3625.51 3064.84 80.04 6.00
   08:50:39.295.05-Jan-2021 261.30 4605.22 3625.51 3064.84 80.04 6.00
   08:50:39.495.05-Jan-2021 261.50 4605.35 3625.51 3064.84 80.04 6.00
   08:50:39.695.05-Jan-2021 261.70 4605.32 3625.51 3064.84 80.03 6.00
   08:50:39.895.05-Jan-2021 261.90 4605.29 3625.51 3064.84 80.03 6.00
   08:50:40.095.05-Jan-2021 262.10 4605.21 3625.51 3064.84 80.03 6.00
   08:50:40.295.05-Jan-2021 262.30 4605.21 3625.51 3064.84 80.03 6.00
   08:50:40.495.05-Jan-2021 262.50 4605.29 3625.51 3064.84 80.03 6.00
   08:50:40.695.05-Jan-2021 262.70 4605.31 3625.51 3064.84 80.03 6.00
   08:50:40.895.05-Jan-2021 262.90 4604.70 3625.51 3064.84 80.03 6.00
   08:50:41.095.05-Jan-2021 263.10 4605.35 3625.51 3064.84 80.03 6.00
   08:50:41.295.05-Jan-2021 263.30 4605.35 3625.51 3064.84 80.03 6.00
   08:50:41.496.05-Jan-2021 263.50 4604.96 3625.51 3064.84 80.03 6.00
   08:50:41.696.05-Jan-2021 263.70 4605.39 3625.51 3064.84 80.03 6.00
   08:50:41.896.05-Jan-2021 263.90 4605.41 3625.51 3064.84 80.03 6.00
   08:50:42.096.05-Jan-2021 264.10 4605.48 3625.51 3064.84 80.03 6.00
   08:50:42.296.05-Jan-2021 264.30 4605.48 3625.51 3064.84 80.03 6.00
   08:50:42.496.05-Jan-2021 264.50 4604.56 3625.51 3064.84 80.03 6.00
   08:50:42.696.05-Jan-2021 264.70 4605.52 3625.51 3064.84 80.03 6.00
   08:50:42.896.05-Jan-2021 264.90 4605.46 3625.51 3064.84 80.03 6.00
   08:50:43.096.05-Jan-2021 265.10 4605.39 3625.51 3064.84 80.03 6.00
   08:50:43.296.05-Jan-2021 265.30 4605.39 3625.51 3064.84 80.03 6.00
   08:50:43.496.05-Jan-2021 265.50 4605.30 3625.51 3064.84 80.03 6.00
   08:50:43.696.05-Jan-2021 265.70 4604.74 3625.51 3064.84 80.03 6.00
   08:50:43.896.05-Jan-2021 265.90 4605.42 3625.51 3064.84 80.03 6.00
   08:50:44.097.05-Jan-2021 266.10 4605.41 3625.51 3064.84 80.03 6.00
   08:50:44.297.05-Jan-2021 266.30 4605.41 3625.51 3064.84 80.03 6.00
   08:50:44.497.05-Jan-2021 266.50 4605.13 3625.51 3064.84 80.03 6.00
   08:50:44.697.05-Jan-2021 266.70 4604.88 3625.51 3064.84 80.03 6.00
   08:50:44.897.05-Jan-2021 266.90 4605.37 3625.51 3064.84 80.03 6.00
   08:50:45.097.05-Jan-2021 267.10 4605.49 3625.51 3064.84 80.03 6.00
   08:50:45.297.05-Jan-2021 267.30 4605.49 3625.51 3064.84 80.03 6.00
   08:50:45.497.05-Jan-2021 267.50 4605.34 3625.51 3064.84 80.03 6.00
   08:50:45.697.05-Jan-2021 267.70 4605.30 3625.51 3064.84 80.03 6.00
   08:50:45.897.05-Jan-2021 267.90 4605.30 3625.51 3064.84 80.03 6.00
   08:50:46.097.05-Jan-2021 268.10 4605.25 3625.51 3064.84 80.03 6.00
   08:50:46.297.05-Jan-2021 268.30 4605.25 3625.51 3064.84 80.03 6.00
   08:50:46.497.05-Jan-2021 268.50 4605.30 3625.51 3064.84 80.03 6.00
   08:50:46.697.05-Jan-2021 268.70 4605.30 3625.51 3064.84 80.03 6.00
   08:50:46.898.05-Jan-2021 268.90 4605.28 3625.51 3064.84 80.03 6.00
   08:50:47.098.05-Jan-2021 269.10 4605.27 3625.51 3064.84 80.03 6.00
   08:50:47.298.05-Jan-2021 269.30 4605.27 3625.51 3064.84 80.03 6.00
   08:50:47.498.05-Jan-2021 269.50 4605.33 3625.51 3064.84 80.03 6.00
   08:50:47.698.05-Jan-2021 269.70 4605.41 3625.51 3064.84 80.03 6.00
   08:50:47.898.05-Jan-2021 269.90 4605.39 3625.51 3064.84 80.03 6.00
   08:50:48.098.05-Jan-2021 270.10 4605.39 3625.51 3064.84 80.03 6.00
   08:50:48.298.05-Jan-2021 270.30 4605.39 3625.51 3064.84 80.03 6.00
   08:50:48.498.05-Jan-2021 270.50 4605.30 3625.51 3064.84 80.03 6.00
   08:50:48.698.05-Jan-2021 270.70 4605.31 3625.51 3064.84 80.03 6.00
   08:50:48.898.05-Jan-2021 270.90 4605.30 3625.51 3064.84 80.03 6.00
   08:50:49.098.05-Jan-2021 271.10 4605.26 3625.51 3064.84 80.03 6.00
   08:50:49.298.05-Jan-2021 271.30 4605.24 3625.51 3064.84 80.03 6.00
   08:50:49.499.05-Jan-2021 271.50 4605.31 3625.51 3064.84 80.03 6.00
   08:50:49.699.05-Jan-2021 271.70 4605.30 3625.51 3064.84 80.03 6.00
   08:50:49.899.05-Jan-2021 271.90 4605.17 3625.51 3064.84 80.03 6.00
   08:50:50.099.05-Jan-2021 272.10 4604.85 3625.51 3064.84 80.03 6.00
   08:50:50.299.05-Jan-2021 272.30 4604.85 3625.51 3064.84 80.03 6.00
   08:50:50.499.05-Jan-2021 272.50 4604.85 3625.51 3064.84 80.03 6.00
   08:50:50.699.05-Jan-2021 272.70 4605.47 3625.51 3064.84 80.03 6.00
   08:50:50.899.05-Jan-2021 272.90 4605.42 3625.51 3064.84 80.03 6.00
   08:50:51.099.05-Jan-2021 273.10 4605.47 3625.51 3064.84 80.03 6.00
   08:50:51.299.05-Jan-2021 273.30 4605.47 3625.51 3064.84 80.03 6.00
   08:50:51.499.05-Jan-2021 273.50 4605.33 3625.51 3064.84 80.03 6.00
   08:50:51.699.05-Jan-2021 273.70 4604.78 3625.51 3064.84 80.03 6.00
   08:50:51.899.05-Jan-2021 273.90 4605.46 3625.51 3064.84 80.03 6.00
   08:50:52.100.05-Jan-2021 274.10 4605.42 3625.51 3064.84 80.03 6.00
   08:50:52.300.05-Jan-2021 274.30 4605.42 3625.51 3064.84 80.03 6.00
   08:50:52.500.05-Jan-2021 274.50 4605.30 3625.51 3064.84 80.03 6.00
   08:50:52.700.05-Jan-2021 274.70 4604.72 3625.51 3064.84 80.03 6.00
   08:50:52.900.05-Jan-2021 274.90 4605.36 3625.51 3064.84 80.03 6.00
   08:50:53.100.05-Jan-2021 275.10 4605.38 3625.51 3064.84 80.03 6.00
   08:50:53.300.05-Jan-2021 275.30 4605.42 3625.51 3064.84 80.03 6.00
   08:50:53.500.05-Jan-2021 275.50 4605.41 3625.51 3064.84 80.03 6.00
   08:50:53.700.05-Jan-2021 275.70 4604.56 3625.51 3064.84 80.03 6.00
   08:50:53.900.05-Jan-2021 275.90 4605.55 3625.51 3064.84 80.03 6.00
