~Version Information
 VERS.                  2.0:   CWLS log ASCII Standard -VERSION 2.0
 WRAP.                   NO:   One line per depth step
~Well Information Block
#MNEM.UNIT     VALUE/NAME     DESCRIPTION
#---------     -----------    ---------------------------
 STRT.S             08:18:37 05-Jan-21: START TIME 08:18:37 05-Jan-21
 STOP.S             08:26:49 05-Jan-21: STOP TIME  08:26:49 05-Jan-21
 STEP.S                   0.00: STEP TIME
 NULL.                 -999.25: NULL VALUE
 DFWT.                        :  DIST FWL TEXT
 DFST.                        :  DIST FSL TEXT
 DMF .             Drill Floor:  DRILL MEAS FROM
 STIM.      06.00.00 31-Dec-20:  START TIME
 DATE.      05.58.24 07-Jan-21:  END TIME
 SPUD.               24-Dec-20:  SPUD DATE
 NREF.                    Grid:  NORTH REFERENCE
 HPTY.       Minimum Curvature:  HOLE POS TYPE
 DMOD.             Drill Model:  DRILL MOD DESC
 SVYD.                  Survey:  SURVEY DESC
 ILTD.               Lithology:  INTERP LTH DESC
 FTOP.          Formation Tops:  FORM TOPS DESC
 SON .        AZ-XX-0906699554:  JOB NUMBER
 WELL.                    B09z:  WELL NAME
 PDAT.          Mean Sea Level:  PERMANENT DATUM
 FLD .                     ACG:  FIELD NAME
 CTRY.              Azerbaijan:  COUNTRY NAME
 COMP.     BP Exploration (Caspian Sea) Ltd.:  COMPANY
 UWI .                     N/A:  UNIQUE WELL IDENTIFIER
 API .                     N/A:  API NUMBER
 WTYP.                Deviated:  WELL TYPE
 MDS .        Operator Entered:  MAG DATA SOURCE
 BASE.              Azerbaijan:  LOGGING EQUIPMENT BASE LOCATION
 REGN.                   EESSA:  REGION
 PROV.                    Baku:  PROVINCE
 STAT.                    Baku:  STATE NAME
 SRVC.          Turan Drilling:  CONTRACTOR
 MWDS.                    Baku:  MWD SHOP
 JOBN.        AZ-XX-0906699554:  JOB TICKET NUMB
 RIG .           Central Azeri:  RIG NAME
 DOE .                     N/A:  DOE NUMBER
 DCON.         Sperry Drilling:  DIRECTNL CONTR
 UNIT.                     N/A:  LOGGING EQUIPMENT ID
 CNTY.                        :  COUNTY
 LOC .                        :  LOCATION
 LMF .             Drill Floor:  LOG MEASURED FROM
 TVDS.m                  43.29:  TVDSS CORRECTN
 LATI.deg                40.03:  LATITUDE
 LONG.deg                51.35:  LONGITUDE
 WHNS.m                  -2.76:  WELL HEAD N/S
 WHEW.m                  -7.70:  WELL HEAD E/W
 UTMX.m              530128.28:  UTM X
 UTMY.m             4433192.49:  UTM Y
 DFWL.m                   0.00:  DISTANCE FWL
 DFSL.m                   0.00:  DISTANCE FSL
 SDEP.m                3435.01:  START DEPTH
 TDD .m                3814.01:  TOTAL DEPTH (DRILLER)
 VSDR.deg               352.80:  VERT SEC DIRECT
 GVFD.g                   1.00:  GRAVITY FIELD
 MFLD.nT              50303.00:  MAGNETIC FIELD
 MDIP.deg                59.52:  MAGNETIC DIP
 MDEC.deg                 6.47:  MAGNETIC DECL
 GRDC.deg                 0.23:  GRID CORRECTION
 AZTC.deg                 6.24:  AZM TOTAL CORR
 EPD .m                   0.00:  ELEVATION
 EGL .m                   0.00:  GROUND ELEVATION
 WDMS.m                 128.20:  WD ELEV
 APD .m                  43.29:  DEPTH ABOVE PD
 DEP .m                3421.30:  DEPTH
 AGAP.m                  43.60:  AIR GAP
 VSEW.m                  -7.70:  VERT SEC E/W
 VSNS.m                  -2.76:  VERT SEC N/S
 EKB .m                   0.00:  KB ELEVATION
 EDF .m                  43.29:  DF ELEVATION
 TDL .m                 369.00:  TOTAL DEPTH (LOGGER)
 VSC .                       0:  VS TO CLOSURE
 MAGU.                 1850390:  MAGUTM CHECKSUM
~Parameter Information Block
#MNEM.UNIT       Value        Description
#---------     -----------    ---------------------------
 AV  .mps                 2.80:  Ann Velocity 
 AVMX.mps                 4.67:  Max Ann Veloc 
 AZIF.deg               303.89:  Azm, Final 
 BHAT.        Rotary Steerable:  BHA Type 
 BREV.rev            128542.00:  Rev Bit Total 
 BROT.°/30m               1.50:  Build Rotating 
 BS  .in                  8.50:  Bit Size 
 BSZ .in                  8.50:  Bit Size 
 BTPL.psig              715.00:  Bit Press Loss 
 CABU.                      No:  Customer Abuse 
 COMM.                     ¤’i:  Run Comments 1 
 TCS .hr                 53.00:  Time Ciculation Ended 
 CV  .mps                 3.85:  Crit Velocity 
 CVMX.mps                 4.75:  Max Crit Veloc 
 DD1 .         Intigam Rahimov:  Direct Drillr 1 
 DDSV.                 iCruise:  DD Service 
 DEFF.%                  98.60:  % Det Eff 
 DLRX.°/30m               2.34:  Dogleg Rot Max 
 DLSO.°/30m               0.00:  Dogleg Oriented 
 DLSX.°/30m               0.00:  Dogleg Str Max 
 DRET.      00.15.00 05-Jan-21:  Drill End Time 
 DRST.      22.00.00 03-Jan-21:  Drill Start Tim 
 DTIM.hr                 17.72:  Time Drilling 
 EDEP.m                3814.01:  End Depth 
 ENG1.         Yevgeniy Ulikov:  Engineer 1 
 ENG2.        Farkhad Khalidov:  Engineer 2 
 ENG3.           Samir Gafarov:  Engineer 3 
 ETIM.      21.00.00 07-Jan-21:  End Time 
 FLOI.gpm               590.00:  Flow In 
 FLON.gpm               580.00:  Flow In Min 
 FLOS.cptm                1.00:  Fluid Loss 
 FLOX.gpm               595.00:  Flow In Max 
 FTRO.     Connectivity, Formation Presure:  FTWD Run Obj 
 HFLO.                      No:  High Flow 
 HPRE.                     Yes:  High Pressure 
 HTEM.                      No:  High Temp 
 HYDO.m                   1.80:  Hydro Offset 
 IFIN.deg                63.76:  Inc, Final 
 IMAX.deg                64.09:  Inc Max 
 IMIN.deg                55.81:  Inc Min 
 IMND.m                3455.62:  Inc Min Depth 
 IMXD.m                3796.03:  Inc Max Depth 
 JARR.                      No:  Jarring 
 LETM.      00.15.00 05-Jan-21:  Log End Time 
 LOST.hr                     0:  Lost Rig Time 
 LSTM.      22.00.00 03-Jan-21:  Log Start Time 
 MDCL.ppm             36000.00:  Mud Chlorides 
 MDES.     Inversion Oil/Synthetic:  Mud Desc 
 DFD .sg                  1.51:  Mud Density 
 MDMN.sg                  1.51:  Dens Mud Min 
 MDMX.sg                  1.51:  Dens Mud Max 
 MOIL.                    55.5:  Run Mud Oil % 
 MOWR.                   70:30:  Run Mud OWR 
 MSND.                     0.1:  Run Mud Sand % 
 MSOL.                   20.77:  Run Mud Solids% 
 DFV .spqt               67.00:  Mud Viscosity 
 MWOD.in                  6.75:  MWD Tool OD 
 MWSI.                      No:  Serv Intrp, MWD 
 OTIM.hr                113.53:  Time Operating 
 PCON.           Look Like New:  Pad Condition 
 PMAX.psia             4830.00:  Press Op, Max 
 PV  .cP                 29.00:  Mud PV 
 RUN .                     300:  Run Number 
 ROPA.m/hr               22.00:  ROP Avg 
 ROPN.m/hr               18.00:  ROP Min 
 ROPX.m/hr               25.00:  ROP Max 
 RPMA.rpm               130.00:  RPM Surface Avg 
 RPMN.rpm                80.00:  RPM Surface Min 
 RPMX.rpm               140.00:  RPM Surface Max 
 RRUN.                    L101:  Rig Run Number 
 RTIM.hr                  9.28:  Time Reaming 
 SAZI.deg               316.55:  Azm, Start 
 SDEP.m                3445.01:  Start Depth 
 SIDD.                      No:  Serv Intrp, DD 
 SINC.deg                55.81:  Inc, Start 
 SPPA.psig             4500.00:  SPP Avg 
 SPPN.psig             4350.00:  SPP Min 
 SPPX.psig             4830.00:  SPP Max 
 STIM.      00.00.00 03-Jan-21:  Start Time 
 SVCS.                 DD, MWD:  Services 
 SVER.                    9.20:  Sperry Version 
 TDAT.m                 369.00:  Tot Depth Attmp 
 TDDF.                      No:  Trip for DD 
 TDLG.m                 369.00:  Tot Depth Loggd 
 TFF .                      No:  Trip for Fail 
 TQAA.f-kp               15.00:  Torque Abs Avg 
 TQAN.f-kp               12.00:  Torque Abs Min 
 TQAX.f-kp               16.00:  Torque Abs Max 
 TRRT.°/30m              -2.10:  Turn Rotating 
 MRT .                    HCIM:  Maximum Recorded Temperature 
 TTMX.degC               92.16:  Max Tool Temp 
 VS01.                90627822:  Virtual Str1 SN 
 VS02.                90550008:  Virtual Str2 SN 
 VS03.                90627816:  Virtual Str3 SN 
 VS04.                90633205:  Virtual Str4 SN 
 VS05.                13033835:  Virtual Str5 SN 
 VS06.                11125125:  Virtual Str6 SN 
 WBMN.klb                 8.00:  WOB Min 
 WITN.            Bruce Cheyne:  Customer Rep 
 WITN.           Faig Mammadov:  Customer Rep 2 
 WOBA.klb                 9.00:  WOB Avg 
 WOBX.klb                12.00:  WOB Max 
 YP  .lhf2               30.00:  Yield Point 
~Curve Information Block
#MNEM.UNIT                 API CODE     Curve Description
#---------               -----------    ---------------------------
 TIME.HHMMSS            00 000 000 000:  GT Time & Date
 GTET.sec               00 000 000 000:  GT Elapsed Test Time
 GTPQH.psia             00 000 000 000:  GT HR Quartz Pressure
 GTDEPTH.m              00 000 000 000:  GT Depth
 GTTVD.m                00 000 000 000:  GT True Vertical Depth
 GTTQ.degC              00 000 000 000:  GT Quartz Temperature
 GTTN.NONE              00 000 000 000:  GT Test Number
#Other Information
#
#WARRANTY: Halliburton will use its best efforts to furnish customers with 
#accurate information and interpretations that are part of, and incident to, the services 
#provided.  However, Halliburton cannot and does not warrant the accuracy 
#or correctness of such information and interpretations.  Under no circumstances should any 
#such information or interpretation be relied upon as the sole basis for any drilling, 
#completion, production, or financial decision or any procedure involving any risk to the 
#safety of any drilling venture, drilling rig or its crew or any other third party.  The 
#Customer has full responsibility for all drilling, completion and production operation.  
#Halliburton makes no representations or warranties, either expressed or 
#implied, including, but not limited to, the implied warranties of merchantability or fitness 
#for a particular purpose, with respect to the services rendered.  In no event will 
#Halliburton be liable for failure to obtain any particular results or for 
#any damages, including, but not limited to, indirect, special or consequential damages, 
#resulting from the use of any information or interpretation provided by Halliburton.
#
~A           TIME            GTET   GTPQH  GTDEPTH  GTTVD  GTTQ  GTTN 
# ...
   08:24:45.518.05-Jan-2021 368.14 4455.45 3649.01 3076.03 80.52 5.00
   08:24:45.718.05-Jan-2021 368.34 4455.53 3649.01 3076.03 80.52 5.00
   08:24:45.918.05-Jan-2021 368.54 4455.56 3649.01 3076.03 80.52 5.00
   08:24:46.118.05-Jan-2021 368.74 4455.51 3649.01 3076.03 80.52 5.00
   08:24:46.318.05-Jan-2021 368.94 4455.45 3649.01 3076.03 80.52 5.00
   08:24:46.518.05-Jan-2021 369.14 4455.53 3649.01 3076.03 80.52 5.00
   08:24:46.719.05-Jan-2021 369.34 4455.53 3649.01 3076.03 80.52 5.00
   08:24:46.919.05-Jan-2021 369.54 4455.43 3649.01 3076.03 80.52 5.00
   08:24:47.119.05-Jan-2021 369.74 4455.60 3649.01 3076.03 80.52 5.00
   08:24:47.319.05-Jan-2021 369.94 4455.53 3649.01 3076.03 80.52 5.00
   08:24:47.519.05-Jan-2021 370.14 4455.44 3649.01 3076.03 80.52 5.00
   08:24:47.719.05-Jan-2021 370.34 4455.44 3649.01 3076.03 80.52 5.00
   08:24:47.919.05-Jan-2021 370.54 4455.48 3649.01 3076.03 80.52 5.00
   08:24:48.119.05-Jan-2021 370.74 4455.53 3649.01 3076.03 80.52 5.00
   08:24:48.319.05-Jan-2021 370.94 4455.41 3649.01 3076.03 80.52 5.00
   08:24:48.519.05-Jan-2021 371.14 4455.51 3649.01 3076.03 80.52 5.00
   08:24:48.719.05-Jan-2021 371.34 4455.51 3649.01 3076.03 80.52 5.00
   08:24:48.919.05-Jan-2021 371.54 4455.58 3649.01 3076.03 80.52 5.00
   08:24:49.119.05-Jan-2021 371.74 4455.48 3649.01 3076.03 80.52 5.00
   08:24:49.319.05-Jan-2021 371.94 4455.51 3649.01 3076.03 80.52 5.00
   08:24:49.520.05-Jan-2021 372.14 4455.49 3649.01 3076.03 80.52 5.00
   08:24:49.720.05-Jan-2021 372.34 4455.53 3649.01 3076.03 80.52 5.00
   08:24:49.920.05-Jan-2021 372.54 4455.44 3649.01 3076.03 80.52 5.00
   08:24:50.120.05-Jan-2021 372.74 4455.64 3649.01 3076.03 80.52 5.00
   08:24:50.320.05-Jan-2021 372.94 4455.45 3649.01 3076.03 80.52 5.00
   08:24:50.520.05-Jan-2021 373.14 4455.44 3649.01 3076.03 80.52 5.00
   08:24:50.720.05-Jan-2021 373.34 4455.44 3649.01 3076.03 80.52 5.00
   08:24:50.920.05-Jan-2021 373.54 4455.47 3649.01 3076.03 80.52 5.00
   08:24:51.120.05-Jan-2021 373.74 4455.50 3649.01 3076.03 80.52 5.00
   08:24:51.320.05-Jan-2021 373.94 4455.52 3649.01 3076.03 80.52 5.00
   08:24:51.520.05-Jan-2021 374.14 4455.48 3649.01 3076.03 80.52 5.00
   08:24:51.720.05-Jan-2021 374.34 4455.48 3649.01 3076.03 80.52 5.00
   08:24:51.920.05-Jan-2021 374.54 4455.65 3649.01 3076.03 80.52 5.00
   08:24:52.121.05-Jan-2021 374.74 4455.33 3649.01 3076.03 80.52 5.00
   08:24:52.321.05-Jan-2021 374.94 4455.51 3649.01 3076.03 80.52 5.00
   08:24:52.521.05-Jan-2021 375.14 4455.64 3649.01 3076.03 80.52 5.00
   08:24:52.721.05-Jan-2021 375.34 4455.64 3649.01 3076.03 80.52 5.00
   08:24:52.921.05-Jan-2021 375.54 4455.63 3649.01 3076.03 80.52 5.00
   08:24:53.121.05-Jan-2021 375.74 4455.46 3649.01 3076.03 80.52 5.00
   08:24:53.321.05-Jan-2021 375.94 4455.35 3649.01 3076.03 80.52 5.00
   08:24:53.521.05-Jan-2021 376.14 4455.59 3649.01 3076.03 80.52 5.00
   08:24:53.721.05-Jan-2021 376.34 4455.50 3649.01 3076.03 80.52 5.00
   08:24:53.921.05-Jan-2021 376.54 4455.50 3649.01 3076.03 80.52 5.00
   08:24:54.121.05-Jan-2021 376.74 4455.49 3649.01 3076.03 80.52 5.00
   08:24:54.321.05-Jan-2021 376.94 4455.61 3649.01 3076.03 80.52 5.00
   08:24:54.521.05-Jan-2021 377.14 4455.41 3649.01 3076.03 80.52 5.00
   08:24:54.721.05-Jan-2021 377.34 4455.41 3649.01 3076.03 80.52 5.00
   08:24:54.922.05-Jan-2021 377.54 4455.56 3649.01 3076.03 80.52 5.00
   08:24:55.122.05-Jan-2021 377.74 4455.51 3649.01 3076.03 80.52 5.00
   08:24:55.322.05-Jan-2021 377.94 4455.42 3649.01 3076.03 80.52 5.00
   08:24:55.522.05-Jan-2021 378.14 4455.57 3649.01 3076.03 80.52 5.00
   08:24:55.722.05-Jan-2021 378.34 4455.57 3649.01 3076.03 80.52 5.00
   08:24:55.922.05-Jan-2021 378.54 4455.60 3649.01 3076.03 80.52 5.00
   08:24:56.122.05-Jan-2021 378.74 4455.45 3649.01 3076.03 80.52 5.00
   08:24:56.322.05-Jan-2021 378.94 4455.52 3649.01 3076.03 80.52 5.00
   08:24:56.522.05-Jan-2021 379.14 4455.49 3649.01 3076.03 80.52 5.00
   08:24:56.722.05-Jan-2021 379.34 4455.49 3649.01 3076.03 80.52 5.00
   08:24:56.922.05-Jan-2021 379.54 4455.47 3649.01 3076.03 80.52 5.00
   08:24:57.122.05-Jan-2021 379.74 4455.51 3649.01 3076.03 80.52 5.00
   08:24:57.322.05-Jan-2021 379.94 4455.48 3649.01 3076.03 80.52 5.00
   08:24:57.523.05-Jan-2021 380.14 4455.57 3649.01 3076.03 80.53 5.00
   08:24:57.723.05-Jan-2021 380.34 4455.45 3649.01 3076.03 80.53 5.00
   08:24:57.923.05-Jan-2021 380.54 4455.56 3649.01 3076.03 80.53 5.00
   08:24:58.123.05-Jan-2021 380.74 4455.55 3649.01 3076.03 80.53 5.00
   08:24:58.323.05-Jan-2021 380.94 4455.39 3649.01 3076.03 80.53 5.00
   08:24:58.523.05-Jan-2021 381.14 4455.53 3649.01 3076.03 80.53 5.00
   08:24:58.723.05-Jan-2021 381.34 4455.53 3649.01 3076.03 80.53 5.00
   08:24:58.923.05-Jan-2021 381.54 4455.49 3649.01 3076.03 80.53 5.00
   08:24:59.123.05-Jan-2021 381.74 4455.53 3649.01 3076.03 80.53 5.00
   08:24:59.323.05-Jan-2021 381.94 4455.49 3649.01 3076.03 80.53 5.00
   08:24:59.523.05-Jan-2021 382.14 4455.47 3649.01 3076.03 80.53 5.00
   08:24:59.723.05-Jan-2021 382.34 4455.47 3649.01 3076.03 80.53 5.00
   08:24:59.923.05-Jan-2021 382.54 4455.48 3649.01 3076.03 80.53 5.00
   08:25:00.123.05-Jan-2021 382.74 4455.54 3649.01 3076.03 80.53 5.00
   08:25:00.324.05-Jan-2021 382.94 4455.49 3649.01 3076.03 80.53 5.00
   08:25:00.524.05-Jan-2021 383.14 4455.48 3649.01 3076.03 80.53 5.00
   08:25:00.724.05-Jan-2021 383.34 4455.48 3649.01 3076.03 80.53 5.00
   08:25:00.924.05-Jan-2021 383.54 4455.46 3649.01 3076.03 80.53 5.00
   08:25:01.124.05-Jan-2021 383.74 4455.54 3649.01 3076.03 80.53 5.00
   08:25:01.324.05-Jan-2021 383.94 4455.55 3649.01 3076.03 80.53 5.00
   08:25:01.524.05-Jan-2021 384.14 4455.42 3649.01 3076.03 80.53 5.00
   08:25:01.724.05-Jan-2021 384.34 4455.42 3649.01 3076.03 80.53 5.00
   08:25:01.924.05-Jan-2021 384.54 4455.60 3649.01 3076.03 80.53 5.00
   08:25:02.124.05-Jan-2021 384.74 4455.39 3649.01 3076.03 80.53 5.00
   08:25:02.324.05-Jan-2021 384.94 4455.56 3649.01 3076.03 80.53 5.00
   08:25:02.524.05-Jan-2021 385.14 4455.55 3649.01 3076.03 80.53 5.00
   08:25:02.724.05-Jan-2021 385.34 4455.55 3649.01 3076.03 80.53 5.00
   08:25:02.925.05-Jan-2021 385.54 4455.33 3649.01 3076.03 80.53 5.00
   08:25:03.125.05-Jan-2021 385.74 4455.76 3649.01 3076.03 80.53 5.00
   08:25:03.325.05-Jan-2021 385.94 4455.42 3649.01 3076.03 80.53 5.00
   08:25:03.525.05-Jan-2021 386.14 4455.61 3649.01 3076.03 80.53 5.00
   08:25:03.725.05-Jan-2021 386.34 4455.61 3649.01 3076.03 80.53 5.00
   08:25:03.925.05-Jan-2021 386.54 4455.48 3649.01 3076.03 80.53 5.00
   08:25:04.125.05-Jan-2021 386.74 4455.56 3649.01 3076.03 80.53 5.00
   08:25:04.325.05-Jan-2021 386.94 4455.48 3649.01 3076.03 80.53 5.00
   08:25:04.525.05-Jan-2021 387.14 4455.63 3649.01 3076.03 80.53 5.00
   08:25:04.725.05-Jan-2021 387.34 4455.63 3649.01 3076.03 80.53 5.00
   08:25:04.925.05-Jan-2021 387.54 4455.55 3649.01 3076.03 80.53 5.00
   08:25:05.125.05-Jan-2021 387.74 4455.49 3649.01 3076.03 80.53 5.00
   08:25:05.325.05-Jan-2021 387.94 4455.48 3649.01 3076.03 80.53 5.00
   08:25:05.525.05-Jan-2021 388.14 4455.54 3649.01 3076.03 80.53 5.00
   08:25:05.726.05-Jan-2021 388.34 4455.52 3649.01 3076.03 80.53 5.00
   08:25:05.926.05-Jan-2021 388.54 4455.49 3649.01 3076.03 80.53 5.00
   08:25:06.126.05-Jan-2021 388.74 4455.54 3649.01 3076.03 80.53 5.00
   08:25:06.326.05-Jan-2021 388.94 4455.45 3649.01 3076.03 80.53 5.00
   08:25:06.526.05-Jan-2021 389.14 4455.58 3649.01 3076.03 80.53 5.00
   08:25:06.726.05-Jan-2021 389.34 4455.58 3649.01 3076.03 80.53 5.00
   08:25:06.926.05-Jan-2021 389.54 4455.62 3649.01 3076.03 80.53 5.00
   08:25:07.126.05-Jan-2021 389.74 4455.65 3649.01 3076.03 80.53 5.00
   08:25:07.326.05-Jan-2021 389.94 4455.40 3649.01 3076.03 80.53 5.00
   08:25:07.526.05-Jan-2021 390.14 4455.52 3649.01 3076.03 80.53 5.00
   08:25:07.726.05-Jan-2021 390.34 4455.52 3649.01 3076.03 80.53 5.00
   08:25:07.926.05-Jan-2021 390.54 4455.43 3649.01 3076.03 80.53 5.00
   08:25:08.126.05-Jan-2021 390.75 4455.52 3649.01 3076.03 80.53 5.00
   08:25:08.327.05-Jan-2021 390.95 4455.48 3649.01 3076.03 80.53 5.00
