~Version Information
 VERS.                  2.0:   CWLS log ASCII Standard -VERSION 2.0
 WRAP.                   NO:   One line per depth step
~Well Information Block
#MNEM.UNIT     VALUE/NAME     DESCRIPTION
#---------     -----------    ---------------------------
 STRT.S             08:46:17 05-Jan-21: START TIME 08:46:17 05-Jan-21
 STOP.S             08:54:30 05-Jan-21: STOP TIME  08:54:30 05-Jan-21
 STEP.S                   0.00: STEP TIME
 NULL.                 -999.25: NULL VALUE
 DFWT.                        :  DIST FWL TEXT
 DFST.                        :  DIST FSL TEXT
 DMF .             Drill Floor:  DRILL MEAS FROM
 STIM.      06.00.00 31-Dec-20:  START TIME
 DATE.      05.58.24 07-Jan-21:  END TIME
 SPUD.               24-Dec-20:  SPUD DATE
 NREF.                    Grid:  NORTH REFERENCE
 HPTY.       Minimum Curvature:  HOLE POS TYPE
 DMOD.             Drill Model:  DRILL MOD DESC
 SVYD.                  Survey:  SURVEY DESC
 ILTD.               Lithology:  INTERP LTH DESC
 FTOP.          Formation Tops:  FORM TOPS DESC
 SON .        AZ-XX-0906699554:  JOB NUMBER
 WELL.                    B09z:  WELL NAME
 PDAT.          Mean Sea Level:  PERMANENT DATUM
 FLD .                     ACG:  FIELD NAME
 CTRY.              Azerbaijan:  COUNTRY NAME
 COMP.     BP Exploration (Caspian Sea) Ltd.:  COMPANY
 UWI .                     N/A:  UNIQUE WELL IDENTIFIER
 API .                     N/A:  API NUMBER
 WTYP.                Deviated:  WELL TYPE
 MDS .        Operator Entered:  MAG DATA SOURCE
 BASE.              Azerbaijan:  LOGGING EQUIPMENT BASE LOCATION
 REGN.                   EESSA:  REGION
 PROV.                    Baku:  PROVINCE
 STAT.                    Baku:  STATE NAME
 SRVC.          Turan Drilling:  CONTRACTOR
 MWDS.                    Baku:  MWD SHOP
 JOBN.        AZ-XX-0906699554:  JOB TICKET NUMB
 RIG .           Central Azeri:  RIG NAME
 DOE .                     N/A:  DOE NUMBER
 DCON.         Sperry Drilling:  DIRECTNL CONTR
 UNIT.                     N/A:  LOGGING EQUIPMENT ID
 CNTY.                        :  COUNTY
 LOC .                        :  LOCATION
 LMF .             Drill Floor:  LOG MEASURED FROM
 TVDS.m                  43.29:  TVDSS CORRECTN
 LATI.deg                40.03:  LATITUDE
 LONG.deg                51.35:  LONGITUDE
 WHNS.m                  -2.76:  WELL HEAD N/S
 WHEW.m                  -7.70:  WELL HEAD E/W
 UTMX.m              530128.28:  UTM X
 UTMY.m             4433192.49:  UTM Y
 DFWL.m                   0.00:  DISTANCE FWL
 DFSL.m                   0.00:  DISTANCE FSL
 SDEP.m                3435.01:  START DEPTH
 TDD .m                3814.01:  TOTAL DEPTH (DRILLER)
 VSDR.deg               352.80:  VERT SEC DIRECT
 GVFD.g                   1.00:  GRAVITY FIELD
 MFLD.nT              50303.00:  MAGNETIC FIELD
 MDIP.deg                59.52:  MAGNETIC DIP
 MDEC.deg                 6.47:  MAGNETIC DECL
 GRDC.deg                 0.23:  GRID CORRECTION
 AZTC.deg                 6.24:  AZM TOTAL CORR
 EPD .m                   0.00:  ELEVATION
 EGL .m                   0.00:  GROUND ELEVATION
 WDMS.m                 128.20:  WD ELEV
 APD .m                  43.29:  DEPTH ABOVE PD
 DEP .m                3421.30:  DEPTH
 AGAP.m                  43.60:  AIR GAP
 VSEW.m                  -7.70:  VERT SEC E/W
 VSNS.m                  -2.76:  VERT SEC N/S
 EKB .m                   0.00:  KB ELEVATION
 EDF .m                  43.29:  DF ELEVATION
 TDL .m                 369.00:  TOTAL DEPTH (LOGGER)
 VSC .                       0:  VS TO CLOSURE
 MAGU.                 1850390:  MAGUTM CHECKSUM
~Parameter Information Block
#MNEM.UNIT       Value        Description
#---------     -----------    ---------------------------
 AV  .mps                 2.80:  Ann Velocity 
 AVMX.mps                 4.67:  Max Ann Veloc 
 AZIF.deg               303.89:  Azm, Final 
 BHAT.        Rotary Steerable:  BHA Type 
 BREV.rev            128542.00:  Rev Bit Total 
 BROT.°/30m               1.50:  Build Rotating 
 BS  .in                  8.50:  Bit Size 
 BSZ .in                  8.50:  Bit Size 
 BTPL.psig              715.00:  Bit Press Loss 
 CABU.                      No:  Customer Abuse 
 COMM.                     Œã}:  Run Comments 1 
 TCS .hr                 53.00:  Time Ciculation Ended 
 CV  .mps                 3.85:  Crit Velocity 
 CVMX.mps                 4.75:  Max Crit Veloc 
 DD1 .         Intigam Rahimov:  Direct Drillr 1 
 DDSV.                 iCruise:  DD Service 
 DEFF.%                  98.60:  % Det Eff 
 DLRX.°/30m               2.34:  Dogleg Rot Max 
 DLSO.°/30m               0.00:  Dogleg Oriented 
 DLSX.°/30m               0.00:  Dogleg Str Max 
 DRET.      00.15.00 05-Jan-21:  Drill End Time 
 DRST.      22.00.00 03-Jan-21:  Drill Start Tim 
 DTIM.hr                 17.72:  Time Drilling 
 EDEP.m                3814.01:  End Depth 
 ENG1.         Yevgeniy Ulikov:  Engineer 1 
 ENG2.        Farkhad Khalidov:  Engineer 2 
 ENG3.           Samir Gafarov:  Engineer 3 
 ETIM.      21.00.00 07-Jan-21:  End Time 
 FLOI.gpm               590.00:  Flow In 
 FLON.gpm               580.00:  Flow In Min 
 FLOS.cptm                1.00:  Fluid Loss 
 FLOX.gpm               595.00:  Flow In Max 
 FTRO.     Connectivity, Formation Presure:  FTWD Run Obj 
 HFLO.                      No:  High Flow 
 HPRE.                     Yes:  High Pressure 
 HTEM.                      No:  High Temp 
 HYDO.m                   1.80:  Hydro Offset 
 IFIN.deg                63.76:  Inc, Final 
 IMAX.deg                64.09:  Inc Max 
 IMIN.deg                55.81:  Inc Min 
 IMND.m                3455.62:  Inc Min Depth 
 IMXD.m                3796.03:  Inc Max Depth 
 JARR.                      No:  Jarring 
 LETM.      00.15.00 05-Jan-21:  Log End Time 
 LOST.hr                     0:  Lost Rig Time 
 LSTM.      22.00.00 03-Jan-21:  Log Start Time 
 MDCL.ppm             36000.00:  Mud Chlorides 
 MDES.     Inversion Oil/Synthetic:  Mud Desc 
 DFD .sg                  1.51:  Mud Density 
 MDMN.sg                  1.51:  Dens Mud Min 
 MDMX.sg                  1.51:  Dens Mud Max 
 MOIL.                    55.5:  Run Mud Oil % 
 MOWR.                   70:30:  Run Mud OWR 
 MSND.                     0.1:  Run Mud Sand % 
 MSOL.                   20.77:  Run Mud Solids% 
 DFV .spqt               67.00:  Mud Viscosity 
 MWOD.in                  6.75:  MWD Tool OD 
 MWSI.                      No:  Serv Intrp, MWD 
 OTIM.hr                113.53:  Time Operating 
 PCON.           Look Like New:  Pad Condition 
 PMAX.psia             4830.00:  Press Op, Max 
 PV  .cP                 29.00:  Mud PV 
 RUN .                     300:  Run Number 
 ROPA.m/hr               22.00:  ROP Avg 
 ROPN.m/hr               18.00:  ROP Min 
 ROPX.m/hr               25.00:  ROP Max 
 RPMA.rpm               130.00:  RPM Surface Avg 
 RPMN.rpm                80.00:  RPM Surface Min 
 RPMX.rpm               140.00:  RPM Surface Max 
 RRUN.                    L101:  Rig Run Number 
 RTIM.hr                  9.28:  Time Reaming 
 SAZI.deg               316.55:  Azm, Start 
 SDEP.m                3445.01:  Start Depth 
 SIDD.                      No:  Serv Intrp, DD 
 SINC.deg                55.81:  Inc, Start 
 SPPA.psig             4500.00:  SPP Avg 
 SPPN.psig             4350.00:  SPP Min 
 SPPX.psig             4830.00:  SPP Max 
 STIM.      00.00.00 03-Jan-21:  Start Time 
 SVCS.                 DD, MWD:  Services 
 SVER.                    9.20:  Sperry Version 
 TDAT.m                 369.00:  Tot Depth Attmp 
 TDDF.                      No:  Trip for DD 
 TDLG.m                 369.00:  Tot Depth Loggd 
 TFF .                      No:  Trip for Fail 
 TQAA.f-kp               15.00:  Torque Abs Avg 
 TQAN.f-kp               12.00:  Torque Abs Min 
 TQAX.f-kp               16.00:  Torque Abs Max 
 TRRT.°/30m              -2.10:  Turn Rotating 
 MRT .                    HCIM:  Maximum Recorded Temperature 
 TTMX.degC               92.16:  Max Tool Temp 
 VS01.                90627822:  Virtual Str1 SN 
 VS02.                90550008:  Virtual Str2 SN 
 VS03.                90627816:  Virtual Str3 SN 
 VS04.                90633205:  Virtual Str4 SN 
 VS05.                13033835:  Virtual Str5 SN 
 VS06.                11125125:  Virtual Str6 SN 
 WBMN.klb                 8.00:  WOB Min 
 WITN.            Bruce Cheyne:  Customer Rep 
 WITN.           Faig Mammadov:  Customer Rep 2 
 WOBA.klb                 9.00:  WOB Avg 
 WOBX.klb                12.00:  WOB Max 
 YP  .lhf2               30.00:  Yield Point 
~Curve Information Block
#MNEM.UNIT                 API CODE     Curve Description
#---------               -----------    ---------------------------
 TIME.HHMMSS            00 000 000 000:  GT Time & Date
 GTET.sec               00 000 000 000:  GT Elapsed Test Time
 GTPQH.psia             00 000 000 000:  GT HR Quartz Pressure
 GTDEPTH.m              00 000 000 000:  GT Depth
 GTTVD.m                00 000 000 000:  GT True Vertical Depth
 GTTQ.degC              00 000 000 000:  GT Quartz Temperature
 GTTN.NONE              00 000 000 000:  GT Test Number
#Other Information
#
#WARRANTY: Halliburton will use its best efforts to furnish customers with 
#accurate information and interpretations that are part of, and incident to, the services 
#provided.  However, Halliburton cannot and does not warrant the accuracy 
#or correctness of such information and interpretations.  Under no circumstances should any 
#such information or interpretation be relied upon as the sole basis for any drilling, 
#completion, production, or financial decision or any procedure involving any risk to the 
#safety of any drilling venture, drilling rig or its crew or any other third party.  The 
#Customer has full responsibility for all drilling, completion and production operation.  
#Halliburton makes no representations or warranties, either expressed or 
#implied, including, but not limited to, the implied warranties of merchantability or fitness 
#for a particular purpose, with respect to the services rendered.  In no event will 
#Halliburton be liable for failure to obtain any particular results or for 
#any damages, including, but not limited to, indirect, special or consequential damages, 
#resulting from the use of any information or interpretation provided by Halliburton.
#
~A           TIME            GTET   GTPQH  GTDEPTH  GTTVD  GTTQ  GTTN 
# ...
   08:51:17.109.05-Jan-2021 299.11 4605.30 3625.51 3064.84 80.01 6.00
   08:51:17.309.05-Jan-2021 299.31 4604.73 3625.51 3064.84 80.01 6.00
   08:51:17.509.05-Jan-2021 299.51 4605.31 3625.51 3064.84 80.01 6.00
   08:51:17.709.05-Jan-2021 299.71 4605.31 3625.51 3064.84 80.01 6.00
   08:51:17.909.05-Jan-2021 299.91 4604.67 3625.51 3064.84 80.01 6.00
   08:51:18.109.05-Jan-2021 300.11 4605.76 3625.51 3064.84 80.01 6.00
   08:51:18.309.05-Jan-2021 300.31 4605.76 3625.51 3064.84 80.01 6.00
   08:51:18.509.05-Jan-2021 300.51 4605.47 3625.51 3064.84 80.01 6.00
   08:51:18.709.05-Jan-2021 300.71 4605.40 3625.51 3064.84 80.01 6.00
   08:51:18.909.05-Jan-2021 300.91 4605.29 3625.51 3064.84 80.01 6.00
   08:51:19.110.05-Jan-2021 301.11 4604.74 3625.51 3064.84 80.01 6.00
   08:51:19.310.05-Jan-2021 301.31 4604.74 3625.51 3064.84 80.01 6.00
   08:51:19.510.05-Jan-2021 301.51 4605.44 3625.51 3064.84 80.01 6.00
   08:51:19.710.05-Jan-2021 301.71 4605.46 3625.51 3064.84 80.01 6.00
   08:51:19.910.05-Jan-2021 301.91 4605.32 3625.51 3064.84 80.01 6.00
   08:51:20.110.05-Jan-2021 302.11 4604.50 3625.51 3064.84 80.01 6.00
   08:51:20.310.05-Jan-2021 302.31 4605.63 3625.51 3064.84 80.01 6.00
   08:51:20.510.05-Jan-2021 302.51 4605.55 3625.51 3064.84 80.01 6.00
   08:51:20.710.05-Jan-2021 302.71 4605.47 3625.51 3064.84 80.01 6.00
   08:51:20.910.05-Jan-2021 302.91 4605.46 3625.51 3064.84 80.01 6.00
   08:51:21.110.05-Jan-2021 303.11 4604.75 3625.51 3064.84 80.01 6.00
   08:51:21.310.05-Jan-2021 303.31 4604.75 3625.51 3064.84 80.01 6.00
   08:51:21.510.05-Jan-2021 303.51 4605.40 3625.51 3064.84 80.01 6.00
   08:51:21.710.05-Jan-2021 303.71 4605.49 3625.51 3064.84 80.01 6.00
   08:51:21.911.05-Jan-2021 303.91 4605.33 3625.51 3064.84 80.01 6.00
   08:51:22.111.05-Jan-2021 304.11 4605.29 3625.51 3064.84 80.01 6.00
   08:51:22.311.05-Jan-2021 304.31 4605.29 3625.51 3064.84 80.01 6.00
   08:51:22.511.05-Jan-2021 304.51 4605.27 3625.51 3064.84 80.01 6.00
   08:51:22.711.05-Jan-2021 304.71 4605.30 3625.51 3064.84 80.01 6.00
   08:51:22.911.05-Jan-2021 304.91 4605.29 3625.51 3064.84 80.01 6.00
   08:51:23.111.05-Jan-2021 305.11 4605.26 3625.51 3064.84 80.01 6.00
   08:51:23.311.05-Jan-2021 305.31 4605.26 3625.51 3064.84 80.01 6.00
   08:51:23.511.05-Jan-2021 305.51 4605.31 3625.51 3064.84 80.01 6.00
   08:51:23.711.05-Jan-2021 305.71 4605.29 3625.51 3064.84 80.01 6.00
   08:51:23.911.05-Jan-2021 305.91 4604.72 3625.51 3064.84 80.01 6.00
   08:51:24.111.05-Jan-2021 306.11 4605.35 3625.51 3064.84 80.00 6.00
   08:51:24.311.05-Jan-2021 306.31 4605.35 3625.51 3064.84 80.00 6.00
   08:51:24.512.05-Jan-2021 306.51 4605.51 3625.51 3064.84 80.00 6.00
   08:51:24.712.05-Jan-2021 306.71 4605.27 3625.51 3064.84 80.00 6.00
   08:51:24.912.05-Jan-2021 306.91 4605.30 3625.51 3064.84 80.00 6.00
   08:51:25.112.05-Jan-2021 307.11 4605.33 3625.51 3064.84 80.00 6.00
   08:51:25.312.05-Jan-2021 307.31 4605.34 3625.51 3064.84 80.00 6.00
   08:51:25.512.05-Jan-2021 307.51 4605.27 3625.51 3064.84 80.00 6.00
   08:51:25.712.05-Jan-2021 307.71 4605.21 3625.51 3064.84 80.00 6.00
   08:51:25.912.05-Jan-2021 307.91 4605.32 3625.51 3064.84 80.00 6.00
   08:51:26.112.05-Jan-2021 308.11 4605.28 3625.51 3064.84 80.00 6.00
   08:51:26.312.05-Jan-2021 308.31 4605.28 3625.51 3064.84 80.00 6.00
   08:51:26.512.05-Jan-2021 308.51 4604.74 3625.51 3064.84 80.00 6.00
   08:51:26.712.05-Jan-2021 308.71 4605.43 3625.51 3064.84 80.00 6.00
   08:51:26.912.05-Jan-2021 308.91 4605.43 3625.51 3064.84 80.00 6.00
   08:51:27.112.05-Jan-2021 309.11 4604.99 3625.51 3064.84 80.00 6.00
   08:51:27.313.05-Jan-2021 309.31 4604.99 3625.51 3064.84 80.00 6.00
   08:51:27.513.05-Jan-2021 309.51 4605.46 3625.51 3064.84 80.00 6.00
   08:51:27.713.05-Jan-2021 309.71 4605.48 3625.51 3064.84 80.00 6.00
   08:51:27.913.05-Jan-2021 309.92 4605.29 3625.51 3064.84 80.00 6.00
   08:51:28.113.05-Jan-2021 310.12 4604.51 3625.51 3064.84 80.00 6.00
   08:51:28.313.05-Jan-2021 310.32 4604.51 3625.51 3064.84 80.00 6.00
   08:51:28.513.05-Jan-2021 310.52 4338.82 3625.51 3064.84 80.00 6.00
   08:51:28.713.05-Jan-2021 310.72 3989.88 3625.51 3064.84 80.00 6.00
   08:51:28.913.05-Jan-2021 310.92 3731.71 3625.51 3064.84 80.00 6.00
   08:51:29.113.05-Jan-2021 311.12 3532.67 3625.51 3064.84 80.00 6.00
   08:51:29.313.05-Jan-2021 311.32 3389.85 3625.51 3064.84 80.00 6.00
   08:51:29.513.05-Jan-2021 311.52 3274.95 3625.51 3064.84 80.00 6.00
   08:51:29.713.05-Jan-2021 311.72 3180.93 3625.51 3064.84 80.00 6.00
   08:51:29.914.05-Jan-2021 311.92 3108.09 3625.51 3064.84 80.00 6.00
   08:51:30.114.05-Jan-2021 312.12 3074.92 3625.51 3064.84 80.00 6.00
   08:51:30.314.05-Jan-2021 312.32 3074.92 3625.51 3064.84 80.00 6.00
   08:51:30.514.05-Jan-2021 312.52 2980.26 3625.51 3064.84 80.00 6.00
   08:51:30.714.05-Jan-2021 312.72 2957.85 3625.51 3064.84 80.00 6.00
   08:51:30.914.05-Jan-2021 312.92 2941.31 3625.51 3064.84 79.99 6.00
   08:51:31.114.05-Jan-2021 313.12 2897.18 3625.51 3064.84 79.99 6.00
   08:51:31.314.05-Jan-2021 313.32 2897.18 3625.51 3064.84 79.99 6.00
   08:51:31.514.05-Jan-2021 313.52 2885.78 3625.51 3064.84 79.99 6.00
   08:51:31.714.05-Jan-2021 313.72 2867.06 3625.51 3064.84 79.99 6.00
   08:51:31.914.05-Jan-2021 313.92 2881.23 3625.51 3064.84 79.99 6.00
   08:51:32.114.05-Jan-2021 314.12 2875.00 3625.51 3064.84 79.99 6.00
   08:51:32.314.05-Jan-2021 314.32 2875.00 3625.51 3064.84 79.99 6.00
   08:51:32.515.05-Jan-2021 314.52 2866.33 3625.51 3064.84 79.98 6.00
   08:51:32.715.05-Jan-2021 314.72 2834.12 3625.51 3064.84 79.98 6.00
   08:51:32.915.05-Jan-2021 314.92 2877.18 3625.51 3064.84 79.98 6.00
   08:51:33.115.05-Jan-2021 315.12 2897.84 3625.51 3064.84 79.98 6.00
   08:51:33.315.05-Jan-2021 315.32 2867.11 3625.51 3064.84 79.98 6.00
   08:51:33.515.05-Jan-2021 315.52 2958.96 3625.51 3064.84 79.98 6.00
   08:51:33.715.05-Jan-2021 315.72 2951.86 3625.51 3064.84 79.97 6.00
   08:51:33.915.05-Jan-2021 315.92 2919.99 3625.51 3064.84 79.97 6.00
   08:51:34.115.05-Jan-2021 316.12 2910.12 3625.51 3064.84 79.97 6.00
   08:51:34.315.05-Jan-2021 316.32 2910.12 3625.51 3064.84 79.97 6.00
   08:51:34.515.05-Jan-2021 316.52 2847.49 3625.51 3064.84 79.97 6.00
   08:51:34.715.05-Jan-2021 316.72 2869.69 3625.51 3064.84 79.97 6.00
   08:51:34.915.05-Jan-2021 316.92 2858.28 3625.51 3064.84 79.96 6.00
   08:51:35.115.05-Jan-2021 317.12 2832.78 3625.51 3064.84 79.96 6.00
   08:51:35.316.05-Jan-2021 317.32 2832.78 3625.51 3064.84 79.96 6.00
   08:51:35.516.05-Jan-2021 317.52 2820.60 3625.51 3064.84 79.96 6.00
   08:51:35.716.05-Jan-2021 317.72 2812.90 3625.51 3064.84 79.96 6.00
   08:51:35.916.05-Jan-2021 317.92 2806.47 3625.51 3064.84 79.96 6.00
   08:51:36.116.05-Jan-2021 318.12 2786.87 3625.51 3064.84 79.96 6.00
   08:51:36.316.05-Jan-2021 318.32 2786.87 3625.51 3064.84 79.96 6.00
   08:51:36.516.05-Jan-2021 318.52 2800.36 3625.51 3064.84 79.96 6.00
   08:51:36.716.05-Jan-2021 318.72 2835.95 3625.51 3064.84 79.95 6.00
   08:51:36.916.05-Jan-2021 318.92 2856.02 3625.51 3064.84 79.95 6.00
   08:51:37.116.05-Jan-2021 319.12 2861.66 3625.51 3064.84 79.95 6.00
   08:51:37.316.05-Jan-2021 319.32 2847.31 3625.51 3064.84 79.95 6.00
   08:51:37.516.05-Jan-2021 319.52 2850.46 3625.51 3064.84 79.95 6.00
   08:51:37.716.05-Jan-2021 319.72 2829.12 3625.51 3064.84 79.95 6.00
   08:51:37.917.05-Jan-2021 319.92 2802.59 3625.51 3064.84 79.95 6.00
   08:51:38.117.05-Jan-2021 320.12 2805.25 3625.51 3064.84 79.95 6.00
   08:51:38.317.05-Jan-2021 320.32 2805.25 3625.51 3064.84 79.95 6.00
   08:51:38.517.05-Jan-2021 320.52 2802.85 3625.51 3064.84 79.95 6.00
   08:51:38.717.05-Jan-2021 320.72 2834.21 3625.51 3064.84 79.95 6.00
   08:51:38.917.05-Jan-2021 320.92 3018.27 3625.51 3064.84 79.95 6.00
   08:51:39.117.05-Jan-2021 321.12 3263.14 3625.51 3064.84 79.94 6.00
   08:51:39.317.05-Jan-2021 321.32 3263.14 3625.51 3064.84 79.94 6.00
   08:51:39.517.05-Jan-2021 321.52 3687.69 3625.51 3064.84 79.94 6.00
   08:51:39.717.05-Jan-2021 321.72 3848.21 3625.51 3064.84 79.94 6.00
   08:51:39.917.05-Jan-2021 321.92 3980.46 3625.51 3064.84 79.94 6.00
