~Version Information
 VERS.                  2.0:   CWLS log ASCII Standard -VERSION 2.0
 WRAP.                   NO:   One line per depth step
~Well Information Block
#MNEM.UNIT     VALUE/NAME     DESCRIPTION
#---------     -----------    ---------------------------
 STRT.S             06:03:00 05-Jan-21: START TIME 06:03:00 05-Jan-21
 STOP.S             06:11:11 05-Jan-21: STOP TIME  06:11:11 05-Jan-21
 STEP.S                   0.00: STEP TIME
 NULL.                 -999.25: NULL VALUE
 DFWT.                        :  DIST FWL TEXT
 DFST.                        :  DIST FSL TEXT
 DMF .             Drill Floor:  DRILL MEAS FROM
 STIM.      06.00.00 31-Dec-20:  START TIME
 DATE.      05.58.24 07-Jan-21:  END TIME
 SPUD.               24-Dec-20:  SPUD DATE
 NREF.                    Grid:  NORTH REFERENCE
 HPTY.       Minimum Curvature:  HOLE POS TYPE
 DMOD.             Drill Model:  DRILL MOD DESC
 SVYD.                  Survey:  SURVEY DESC
 ILTD.               Lithology:  INTERP LTH DESC
 FTOP.          Formation Tops:  FORM TOPS DESC
 SON .        AZ-XX-0906699554:  JOB NUMBER
 WELL.                    B09z:  WELL NAME
 PDAT.          Mean Sea Level:  PERMANENT DATUM
 FLD .                     ACG:  FIELD NAME
 CTRY.              Azerbaijan:  COUNTRY NAME
 COMP.     BP Exploration (Caspian Sea) Ltd.:  COMPANY
 UWI .                     N/A:  UNIQUE WELL IDENTIFIER
 API .                     N/A:  API NUMBER
 WTYP.                Deviated:  WELL TYPE
 MDS .        Operator Entered:  MAG DATA SOURCE
 BASE.              Azerbaijan:  LOGGING EQUIPMENT BASE LOCATION
 REGN.                   EESSA:  REGION
 PROV.                    Baku:  PROVINCE
 STAT.                    Baku:  STATE NAME
 SRVC.          Turan Drilling:  CONTRACTOR
 MWDS.                    Baku:  MWD SHOP
 JOBN.        AZ-XX-0906699554:  JOB TICKET NUMB
 RIG .           Central Azeri:  RIG NAME
 DOE .                     N/A:  DOE NUMBER
 DCON.         Sperry Drilling:  DIRECTNL CONTR
 UNIT.                     N/A:  LOGGING EQUIPMENT ID
 CNTY.                        :  COUNTY
 LOC .                        :  LOCATION
 LMF .             Drill Floor:  LOG MEASURED FROM
 TVDS.m                  43.29:  TVDSS CORRECTN
 LATI.deg                40.03:  LATITUDE
 LONG.deg                51.35:  LONGITUDE
 WHNS.m                  -2.76:  WELL HEAD N/S
 WHEW.m                  -7.70:  WELL HEAD E/W
 UTMX.m              530128.28:  UTM X
 UTMY.m             4433192.49:  UTM Y
 DFWL.m                   0.00:  DISTANCE FWL
 DFSL.m                   0.00:  DISTANCE FSL
 SDEP.m                3435.01:  START DEPTH
 TDD .m                3814.01:  TOTAL DEPTH (DRILLER)
 VSDR.deg               352.80:  VERT SEC DIRECT
 GVFD.g                   1.00:  GRAVITY FIELD
 MFLD.nT              50303.00:  MAGNETIC FIELD
 MDIP.deg                59.52:  MAGNETIC DIP
 MDEC.deg                 6.47:  MAGNETIC DECL
 GRDC.deg                 0.23:  GRID CORRECTION
 AZTC.deg                 6.24:  AZM TOTAL CORR
 EPD .m                   0.00:  ELEVATION
 EGL .m                   0.00:  GROUND ELEVATION
 WDMS.m                 128.20:  WD ELEV
 APD .m                  43.29:  DEPTH ABOVE PD
 DEP .m                3421.30:  DEPTH
 AGAP.m                  43.60:  AIR GAP
 VSEW.m                  -7.70:  VERT SEC E/W
 VSNS.m                  -2.76:  VERT SEC N/S
 EKB .m                   0.00:  KB ELEVATION
 EDF .m                  43.29:  DF ELEVATION
 TDL .m                 369.00:  TOTAL DEPTH (LOGGER)
 VSC .                       0:  VS TO CLOSURE
 MAGU.                 1850390:  MAGUTM CHECKSUM
~Parameter Information Block
#MNEM.UNIT       Value        Description
#---------     -----------    ---------------------------
 AV  .mps                 2.80:  Ann Velocity 
 AVMX.mps                 4.67:  Max Ann Veloc 
 AZIF.deg               303.89:  Azm, Final 
 BHAT.        Rotary Steerable:  BHA Type 
 BREV.rev            128542.00:  Rev Bit Total 
 BROT.°/30m               1.50:  Build Rotating 
 BS  .in                  8.50:  Bit Size 
 BSZ .in                  8.50:  Bit Size 
 BTPL.psig              715.00:  Bit Press Loss 
 CABU.                      No:  Customer Abuse 
 COMM.                     t‘v:  Run Comments 1 
 TCS .hr                 53.00:  Time Ciculation Ended 
 CV  .mps                 3.85:  Crit Velocity 
 CVMX.mps                 4.75:  Max Crit Veloc 
 DD1 .         Intigam Rahimov:  Direct Drillr 1 
 DDSV.                 iCruise:  DD Service 
 DEFF.%                  98.60:  % Det Eff 
 DLRX.°/30m               2.34:  Dogleg Rot Max 
 DLSO.°/30m               0.00:  Dogleg Oriented 
 DLSX.°/30m               0.00:  Dogleg Str Max 
 DRET.      00.15.00 05-Jan-21:  Drill End Time 
 DRST.      22.00.00 03-Jan-21:  Drill Start Tim 
 DTIM.hr                 17.72:  Time Drilling 
 EDEP.m                3814.01:  End Depth 
 ENG1.         Yevgeniy Ulikov:  Engineer 1 
 ENG2.        Farkhad Khalidov:  Engineer 2 
 ENG3.           Samir Gafarov:  Engineer 3 
 ETIM.      21.00.00 07-Jan-21:  End Time 
 FLOI.gpm               590.00:  Flow In 
 FLON.gpm               580.00:  Flow In Min 
 FLOS.cptm                1.00:  Fluid Loss 
 FLOX.gpm               595.00:  Flow In Max 
 FTRO.     Connectivity, Formation Presure:  FTWD Run Obj 
 HFLO.                      No:  High Flow 
 HPRE.                     Yes:  High Pressure 
 HTEM.                      No:  High Temp 
 HYDO.m                   1.80:  Hydro Offset 
 IFIN.deg                63.76:  Inc, Final 
 IMAX.deg                64.09:  Inc Max 
 IMIN.deg                55.81:  Inc Min 
 IMND.m                3455.62:  Inc Min Depth 
 IMXD.m                3796.03:  Inc Max Depth 
 JARR.                      No:  Jarring 
 LETM.      00.15.00 05-Jan-21:  Log End Time 
 LOST.hr                     0:  Lost Rig Time 
 LSTM.      22.00.00 03-Jan-21:  Log Start Time 
 MDCL.ppm             36000.00:  Mud Chlorides 
 MDES.     Inversion Oil/Synthetic:  Mud Desc 
 DFD .sg                  1.51:  Mud Density 
 MDMN.sg                  1.51:  Dens Mud Min 
 MDMX.sg                  1.51:  Dens Mud Max 
 MOIL.                    55.5:  Run Mud Oil % 
 MOWR.                   70:30:  Run Mud OWR 
 MSND.                     0.1:  Run Mud Sand % 
 MSOL.                   20.77:  Run Mud Solids% 
 DFV .spqt               67.00:  Mud Viscosity 
 MWOD.in                  6.75:  MWD Tool OD 
 MWSI.                      No:  Serv Intrp, MWD 
 OTIM.hr                113.53:  Time Operating 
 PCON.           Look Like New:  Pad Condition 
 PMAX.psia             4830.00:  Press Op, Max 
 PV  .cP                 29.00:  Mud PV 
 RUN .                     300:  Run Number 
 ROPA.m/hr               22.00:  ROP Avg 
 ROPN.m/hr               18.00:  ROP Min 
 ROPX.m/hr               25.00:  ROP Max 
 RPMA.rpm               130.00:  RPM Surface Avg 
 RPMN.rpm                80.00:  RPM Surface Min 
 RPMX.rpm               140.00:  RPM Surface Max 
 RRUN.                    L101:  Rig Run Number 
 RTIM.hr                  9.28:  Time Reaming 
 SAZI.deg               316.55:  Azm, Start 
 SDEP.m                3445.01:  Start Depth 
 SIDD.                      No:  Serv Intrp, DD 
 SINC.deg                55.81:  Inc, Start 
 SPPA.psig             4500.00:  SPP Avg 
 SPPN.psig             4350.00:  SPP Min 
 SPPX.psig             4830.00:  SPP Max 
 STIM.      00.00.00 03-Jan-21:  Start Time 
 SVCS.                 DD, MWD:  Services 
 SVER.                    9.20:  Sperry Version 
 TDAT.m                 369.00:  Tot Depth Attmp 
 TDDF.                      No:  Trip for DD 
 TDLG.m                 369.00:  Tot Depth Loggd 
 TFF .                      No:  Trip for Fail 
 TQAA.f-kp               15.00:  Torque Abs Avg 
 TQAN.f-kp               12.00:  Torque Abs Min 
 TQAX.f-kp               16.00:  Torque Abs Max 
 TRRT.°/30m              -2.10:  Turn Rotating 
 MRT .                    HCIM:  Maximum Recorded Temperature 
 TTMX.degC               92.16:  Max Tool Temp 
 VS01.                90627822:  Virtual Str1 SN 
 VS02.                90550008:  Virtual Str2 SN 
 VS03.                90627816:  Virtual Str3 SN 
 VS04.                90633205:  Virtual Str4 SN 
 VS05.                13033835:  Virtual Str5 SN 
 VS06.                11125125:  Virtual Str6 SN 
 WBMN.klb                 8.00:  WOB Min 
 WITN.            Bruce Cheyne:  Customer Rep 
 WITN.           Faig Mammadov:  Customer Rep 2 
 WOBA.klb                 9.00:  WOB Avg 
 WOBX.klb                12.00:  WOB Max 
 YP  .lhf2               30.00:  Yield Point 
~Curve Information Block
#MNEM.UNIT                 API CODE     Curve Description
#---------               -----------    ---------------------------
 TIME.HHMMSS            00 000 000 000:  GT Time & Date
 GTET.sec               00 000 000 000:  GT Elapsed Test Time
 GTPQH.psia             00 000 000 000:  GT HR Quartz Pressure
 GTDEPTH.m              00 000 000 000:  GT Depth
 GTTVD.m                00 000 000 000:  GT True Vertical Depth
 GTTQ.degC              00 000 000 000:  GT Quartz Temperature
 GTTN.NONE              00 000 000 000:  GT Test Number
#Other Information
#
#WARRANTY: Halliburton will use its best efforts to furnish customers with 
#accurate information and interpretations that are part of, and incident to, the services 
#provided.  However, Halliburton cannot and does not warrant the accuracy 
#or correctness of such information and interpretations.  Under no circumstances should any 
#such information or interpretation be relied upon as the sole basis for any drilling, 
#completion, production, or financial decision or any procedure involving any risk to the 
#safety of any drilling venture, drilling rig or its crew or any other third party.  The 
#Customer has full responsibility for all drilling, completion and production operation.  
#Halliburton makes no representations or warranties, either expressed or 
#implied, including, but not limited to, the implied warranties of merchantability or fitness 
#for a particular purpose, with respect to the services rendered.  In no event will 
#Halliburton be liable for failure to obtain any particular results or for 
#any damages, including, but not limited to, indirect, special or consequential damages, 
#resulting from the use of any information or interpretation provided by Halliburton.
#
~A           TIME            GTET   GTPQH  GTDEPTH  GTTVD  GTTQ  GTTN 
# ...
   06:07:13.000.05-Jan-2021 253.00 4756.33 3750.01 3121.90 84.34 3.00
   06:07:13.200.05-Jan-2021 253.20 4756.33 3750.01 3121.90 84.34 3.00
   06:07:13.400.05-Jan-2021 253.40 4756.36 3750.01 3121.90 84.34 3.00
   06:07:13.600.05-Jan-2021 253.60 4756.36 3750.01 3121.90 84.34 3.00
   06:07:13.800.05-Jan-2021 253.80 4756.25 3750.01 3121.90 84.34 3.00
   06:07:14.000.05-Jan-2021 254.00 4756.50 3750.01 3121.90 84.34 3.00
   06:07:14.200.05-Jan-2021 254.20 4756.50 3750.01 3121.90 84.34 3.00
   06:07:14.400.05-Jan-2021 254.40 4756.33 3750.01 3121.90 84.34 3.00
   06:07:14.600.05-Jan-2021 254.60 4756.38 3750.01 3121.90 84.34 3.00
   06:07:14.800.05-Jan-2021 254.80 4756.38 3750.01 3121.90 84.34 3.00
   06:07:15.000.05-Jan-2021 255.00 4756.33 3750.01 3121.90 84.34 3.00
   06:07:15.200.05-Jan-2021 255.20 4756.33 3750.01 3121.90 84.34 3.00
   06:07:15.400.05-Jan-2021 255.40 4756.38 3750.01 3121.90 84.34 3.00
   06:07:15.600.05-Jan-2021 255.60 4756.37 3750.01 3121.90 84.34 3.00
   06:07:15.800.05-Jan-2021 255.80 4756.39 3750.01 3121.90 84.34 3.00
   06:07:16.000.05-Jan-2021 256.00 4756.33 3750.01 3121.90 84.34 3.00
   06:07:16.200.05-Jan-2021 256.20 4756.33 3750.01 3121.90 84.34 3.00
   06:07:16.400.05-Jan-2021 256.40 4756.31 3750.01 3121.90 84.34 3.00
   06:07:16.600.05-Jan-2021 256.60 4756.41 3750.01 3121.90 84.34 3.00
   06:07:16.800.05-Jan-2021 256.80 4756.37 3750.01 3121.90 84.34 3.00
   06:07:17.000.05-Jan-2021 257.00 4756.40 3750.01 3121.90 84.34 3.00
   06:07:17.200.05-Jan-2021 257.20 4756.40 3750.01 3121.90 84.34 3.00
   06:07:17.400.05-Jan-2021 257.40 4756.30 3750.01 3121.90 84.34 3.00
   06:07:17.600.05-Jan-2021 257.60 4756.42 3750.01 3121.90 84.34 3.00
   06:07:17.800.05-Jan-2021 257.80 4756.23 3750.01 3121.90 84.34 3.00
   06:07:18.000.05-Jan-2021 258.00 4756.44 3750.01 3121.90 84.34 3.00
   06:07:18.200.05-Jan-2021 258.20 4756.44 3750.01 3121.90 84.34 3.00
   06:07:18.400.05-Jan-2021 258.40 4756.33 3750.01 3121.90 84.34 3.00
   06:07:18.600.05-Jan-2021 258.60 4756.35 3750.01 3121.90 84.34 3.00
   06:07:18.800.05-Jan-2021 258.80 4756.40 3750.01 3121.90 84.34 3.00
   06:07:19.000.05-Jan-2021 259.00 4756.31 3750.01 3121.90 84.34 3.00
   06:07:19.200.05-Jan-2021 259.20 4756.31 3750.01 3121.90 84.34 3.00
   06:07:19.400.05-Jan-2021 259.40 4756.44 3750.01 3121.90 84.34 3.00
   06:07:19.600.05-Jan-2021 259.60 4756.29 3750.01 3121.90 84.34 3.00
   06:07:19.800.05-Jan-2021 259.80 4756.38 3750.01 3121.90 84.34 3.00
   06:07:20.000.05-Jan-2021 260.00 4756.38 3750.01 3121.90 84.34 3.00
   06:07:20.200.05-Jan-2021 260.20 4756.38 3750.01 3121.90 84.34 3.00
   06:07:20.400.05-Jan-2021 260.40 4756.35 3750.01 3121.90 84.34 3.00
   06:07:20.600.05-Jan-2021 260.60 4756.33 3750.01 3121.90 84.34 3.00
   06:07:20.800.05-Jan-2021 260.80 4756.41 3750.01 3121.90 84.34 3.00
   06:07:21.000.05-Jan-2021 261.00 4756.33 3750.01 3121.90 84.34 3.00
   06:07:21.200.05-Jan-2021 261.20 4756.33 3750.01 3121.90 84.34 3.00
   06:07:21.400.05-Jan-2021 261.40 4756.39 3750.01 3121.90 84.34 3.00
   06:07:21.600.05-Jan-2021 261.60 4756.34 3750.01 3121.90 84.34 3.00
   06:07:21.800.05-Jan-2021 261.80 4756.36 3750.01 3121.90 84.34 3.00
   06:07:22.000.05-Jan-2021 262.00 4756.32 3750.01 3121.90 84.34 3.00
   06:07:22.200.05-Jan-2021 262.20 4756.32 3750.01 3121.90 84.34 3.00
   06:07:22.400.05-Jan-2021 262.40 4756.34 3750.01 3121.90 84.34 3.00
   06:07:22.600.05-Jan-2021 262.60 4756.33 3750.01 3121.90 84.34 3.00
   06:07:22.800.05-Jan-2021 262.80 4756.42 3750.01 3121.90 84.34 3.00
   06:07:23.000.05-Jan-2021 263.00 4756.33 3750.01 3121.90 84.34 3.00
   06:07:23.200.05-Jan-2021 263.20 4756.33 3750.01 3121.90 84.34 3.00
   06:07:23.400.05-Jan-2021 263.40 4756.38 3750.01 3121.90 84.34 3.00
   06:07:23.600.05-Jan-2021 263.60 4756.36 3750.01 3121.90 84.34 3.00
   06:07:23.800.05-Jan-2021 263.80 4756.33 3750.01 3121.90 84.34 3.00
   06:07:24.000.05-Jan-2021 264.00 4756.35 3750.01 3121.90 84.34 3.00
   06:07:24.200.05-Jan-2021 264.20 4756.35 3750.01 3121.90 84.34 3.00
   06:07:24.400.05-Jan-2021 264.40 4756.38 3750.01 3121.90 84.34 3.00
   06:07:24.600.05-Jan-2021 264.60 4756.29 3750.01 3121.90 84.34 3.00
   06:07:24.800.05-Jan-2021 264.80 4756.42 3750.01 3121.90 84.34 3.00
   06:07:25.000.05-Jan-2021 265.00 4756.31 3750.01 3121.90 84.34 3.00
   06:07:25.200.05-Jan-2021 265.20 4756.31 3750.01 3121.90 84.34 3.00
   06:07:25.400.05-Jan-2021 265.40 4756.26 3750.01 3121.90 84.34 3.00
   06:07:25.600.05-Jan-2021 265.60 4756.36 3750.01 3121.90 84.34 3.00
   06:07:25.800.05-Jan-2021 265.80 4756.38 3750.01 3121.90 84.34 3.00
   06:07:26.000.05-Jan-2021 266.00 4756.33 3750.01 3121.90 84.34 3.00
   06:07:26.200.05-Jan-2021 266.20 4756.33 3750.01 3121.90 84.34 3.00
   06:07:26.400.05-Jan-2021 266.40 4756.31 3750.01 3121.90 84.34 3.00
   06:07:26.600.05-Jan-2021 266.60 4756.38 3750.01 3121.90 84.34 3.00
   06:07:26.800.05-Jan-2021 266.80 4756.47 3750.01 3121.90 84.34 3.00
   06:07:27.000.05-Jan-2021 267.00 4756.24 3750.01 3121.90 84.34 3.00
   06:07:27.200.05-Jan-2021 267.20 4756.24 3750.01 3121.90 84.34 3.00
   06:07:27.400.05-Jan-2021 267.40 4756.58 3750.01 3121.90 84.34 3.00
   06:07:27.600.05-Jan-2021 267.60 4756.25 3750.01 3121.90 84.34 3.00
   06:07:27.800.05-Jan-2021 267.80 4756.30 3750.01 3121.90 84.34 3.00
   06:07:28.000.05-Jan-2021 268.00 4756.40 3750.01 3121.90 84.34 3.00
   06:07:28.200.05-Jan-2021 268.20 4756.40 3750.01 3121.90 84.34 3.00
   06:07:28.400.05-Jan-2021 268.40 4756.33 3750.01 3121.90 84.34 3.00
   06:07:28.600.05-Jan-2021 268.60 4756.35 3750.01 3121.90 84.34 3.00
   06:07:28.800.05-Jan-2021 268.80 4756.33 3750.01 3121.90 84.34 3.00
   06:07:29.000.05-Jan-2021 269.00 4756.39 3750.01 3121.90 84.34 3.00
   06:07:29.200.05-Jan-2021 269.20 4756.39 3750.01 3121.90 84.34 3.00
   06:07:29.400.05-Jan-2021 269.40 4756.32 3750.01 3121.90 84.34 3.00
   06:07:29.600.05-Jan-2021 269.60 4756.41 3750.01 3121.90 84.34 3.00
   06:07:29.800.05-Jan-2021 269.80 4756.32 3750.01 3121.90 84.34 3.00
   06:07:30.000.05-Jan-2021 270.00 4756.28 3750.01 3121.90 84.34 3.00
   06:07:30.200.05-Jan-2021 270.20 4756.28 3750.01 3121.90 84.34 3.00
   06:07:30.400.05-Jan-2021 270.40 4756.28 3750.01 3121.90 84.34 3.00
   06:07:30.600.05-Jan-2021 270.60 4756.35 3750.01 3121.90 84.34 3.00
   06:07:30.800.05-Jan-2021 270.80 4756.40 3750.01 3121.90 84.34 3.00
   06:07:31.000.05-Jan-2021 271.00 4756.34 3750.01 3121.90 84.34 3.00
   06:07:31.200.05-Jan-2021 271.20 4756.34 3750.01 3121.90 84.34 3.00
   06:07:31.400.05-Jan-2021 271.40 4756.34 3750.01 3121.90 84.34 3.00
   06:07:31.600.05-Jan-2021 271.60 4756.34 3750.01 3121.90 84.34 3.00
   06:07:31.800.05-Jan-2021 271.80 4756.33 3750.01 3121.90 84.34 3.00
   06:07:32.000.05-Jan-2021 272.00 4756.39 3750.01 3121.90 84.34 3.00
   06:07:32.200.05-Jan-2021 272.20 4756.39 3750.01 3121.90 84.34 3.00
   06:07:32.400.05-Jan-2021 272.40 4756.35 3750.01 3121.90 84.34 3.00
   06:07:32.600.05-Jan-2021 272.60 4756.28 3750.01 3121.90 84.34 3.00
   06:07:32.800.05-Jan-2021 272.80 4756.46 3750.01 3121.90 84.34 3.00
   06:07:33.000.05-Jan-2021 273.00 4756.31 3750.01 3121.90 84.34 3.00
   06:07:33.200.05-Jan-2021 273.20 4756.31 3750.01 3121.90 84.34 3.00
   06:07:33.400.05-Jan-2021 273.40 4756.41 3750.01 3121.90 84.34 3.00
   06:07:33.600.05-Jan-2021 273.60 4756.23 3750.01 3121.90 84.34 3.00
   06:07:33.800.05-Jan-2021 273.80 4756.32 3750.01 3121.90 84.34 3.00
   06:07:34.000.05-Jan-2021 274.00 4756.35 3750.01 3121.90 84.34 3.00
   06:07:34.200.05-Jan-2021 274.20 4756.35 3750.01 3121.90 84.34 3.00
   06:07:34.400.05-Jan-2021 274.40 4756.23 3750.01 3121.90 84.34 3.00
   06:07:34.600.05-Jan-2021 274.60 4756.34 3750.01 3121.90 84.34 3.00
   06:07:34.800.05-Jan-2021 274.80 4756.50 3750.01 3121.90 84.34 3.00
   06:07:35.000.05-Jan-2021 275.00 4756.30 3750.01 3121.90 84.34 3.00
   06:07:35.200.05-Jan-2021 275.20 4756.30 3750.01 3121.90 84.34 3.00
   06:07:35.400.05-Jan-2021 275.40 4756.38 3750.01 3121.90 84.34 3.00
   06:07:35.600.05-Jan-2021 275.60 4756.41 3750.01 3121.90 84.34 3.00
   06:07:35.800.05-Jan-2021 275.80 4756.27 3750.01 3121.90 84.34 3.00
