~Version Information
 VERS.                  2.0:   CWLS log ASCII Standard -VERSION 2.0
 WRAP.                   NO:   One line per depth step
~Well Information Block
#MNEM.UNIT     VALUE/NAME     DESCRIPTION
#---------     -----------    ---------------------------
 STRT.S             14:32:26 05-Jan-21: START TIME 14:32:26 05-Jan-21
 STOP.S             14:40:38 05-Jan-21: STOP TIME  14:40:38 05-Jan-21
 STEP.S                   0.00: STEP TIME
 NULL.                 -999.25: NULL VALUE
 DFWT.                        :  DIST FWL TEXT
 DFST.                        :  DIST FSL TEXT
 DMF .             Drill Floor:  DRILL MEAS FROM
 STIM.      06.00.00 31-Dec-20:  START TIME
 DATE.      05.58.24 07-Jan-21:  END TIME
 SPUD.               24-Dec-20:  SPUD DATE
 NREF.                    Grid:  NORTH REFERENCE
 HPTY.       Minimum Curvature:  HOLE POS TYPE
 DMOD.             Drill Model:  DRILL MOD DESC
 SVYD.                  Survey:  SURVEY DESC
 ILTD.               Lithology:  INTERP LTH DESC
 FTOP.          Formation Tops:  FORM TOPS DESC
 SON .        AZ-XX-0906699554:  JOB NUMBER
 WELL.                    B09z:  WELL NAME
 PDAT.          Mean Sea Level:  PERMANENT DATUM
 FLD .                     ACG:  FIELD NAME
 CTRY.              Azerbaijan:  COUNTRY NAME
 COMP.     BP Exploration (Caspian Sea) Ltd.:  COMPANY
 UWI .                     N/A:  UNIQUE WELL IDENTIFIER
 API .                     N/A:  API NUMBER
 WTYP.                Deviated:  WELL TYPE
 MDS .        Operator Entered:  MAG DATA SOURCE
 BASE.              Azerbaijan:  LOGGING EQUIPMENT BASE LOCATION
 REGN.                   EESSA:  REGION
 PROV.                    Baku:  PROVINCE
 STAT.                    Baku:  STATE NAME
 SRVC.          Turan Drilling:  CONTRACTOR
 MWDS.                    Baku:  MWD SHOP
 JOBN.        AZ-XX-0906699554:  JOB TICKET NUMB
 RIG .           Central Azeri:  RIG NAME
 DOE .                     N/A:  DOE NUMBER
 DCON.         Sperry Drilling:  DIRECTNL CONTR
 UNIT.                     N/A:  LOGGING EQUIPMENT ID
 CNTY.                        :  COUNTY
 LOC .                        :  LOCATION
 LMF .             Drill Floor:  LOG MEASURED FROM
 TVDS.m                  43.29:  TVDSS CORRECTN
 LATI.deg                40.03:  LATITUDE
 LONG.deg                51.35:  LONGITUDE
 WHNS.m                  -2.76:  WELL HEAD N/S
 WHEW.m                  -7.70:  WELL HEAD E/W
 UTMX.m              530128.28:  UTM X
 UTMY.m             4433192.49:  UTM Y
 DFWL.m                   0.00:  DISTANCE FWL
 DFSL.m                   0.00:  DISTANCE FSL
 SDEP.m                3435.01:  START DEPTH
 TDD .m                3814.01:  TOTAL DEPTH (DRILLER)
 VSDR.deg               352.80:  VERT SEC DIRECT
 GVFD.g                   1.00:  GRAVITY FIELD
 MFLD.nT              50303.00:  MAGNETIC FIELD
 MDIP.deg                59.52:  MAGNETIC DIP
 MDEC.deg                 6.47:  MAGNETIC DECL
 GRDC.deg                 0.23:  GRID CORRECTION
 AZTC.deg                 6.24:  AZM TOTAL CORR
 EPD .m                   0.00:  ELEVATION
 EGL .m                   0.00:  GROUND ELEVATION
 WDMS.m                 128.20:  WD ELEV
 APD .m                  43.29:  DEPTH ABOVE PD
 DEP .m                3421.30:  DEPTH
 AGAP.m                  43.60:  AIR GAP
 VSEW.m                  -7.70:  VERT SEC E/W
 VSNS.m                  -2.76:  VERT SEC N/S
 EKB .m                   0.00:  KB ELEVATION
 EDF .m                  43.29:  DF ELEVATION
 TDL .m                 369.00:  TOTAL DEPTH (LOGGER)
 VSC .                       0:  VS TO CLOSURE
 MAGU.                 1850390:  MAGUTM CHECKSUM
~Parameter Information Block
#MNEM.UNIT       Value        Description
#---------     -----------    ---------------------------
 AV  .mps                 2.80:  Ann Velocity 
 AVMX.mps                 4.67:  Max Ann Veloc 
 AZIF.deg               303.89:  Azm, Final 
 BHAT.        Rotary Steerable:  BHA Type 
 BREV.rev            128542.00:  Rev Bit Total 
 BROT.°/30m               1.50:  Build Rotating 
 BS  .in                  8.50:  Bit Size 
 BSZ .in                  8.50:  Bit Size 
 BTPL.psig              715.00:  Bit Press Loss 
 CABU.                      No:  Customer Abuse 
 COMM.                     œ¬Z:  Run Comments 1 
 TCS .hr                 53.00:  Time Ciculation Ended 
 CV  .mps                 3.85:  Crit Velocity 
 CVMX.mps                 4.75:  Max Crit Veloc 
 DD1 .         Intigam Rahimov:  Direct Drillr 1 
 DDSV.                 iCruise:  DD Service 
 DEFF.%                  98.60:  % Det Eff 
 DLRX.°/30m               2.34:  Dogleg Rot Max 
 DLSO.°/30m               0.00:  Dogleg Oriented 
 DLSX.°/30m               0.00:  Dogleg Str Max 
 DRET.      00.15.00 05-Jan-21:  Drill End Time 
 DRST.      22.00.00 03-Jan-21:  Drill Start Tim 
 DTIM.hr                 17.72:  Time Drilling 
 EDEP.m                3814.01:  End Depth 
 ENG1.         Yevgeniy Ulikov:  Engineer 1 
 ENG2.        Farkhad Khalidov:  Engineer 2 
 ENG3.           Samir Gafarov:  Engineer 3 
 ETIM.      21.00.00 07-Jan-21:  End Time 
 FLOI.gpm               590.00:  Flow In 
 FLON.gpm               580.00:  Flow In Min 
 FLOS.cptm                1.00:  Fluid Loss 
 FLOX.gpm               595.00:  Flow In Max 
 FTRO.     Connectivity, Formation Presure:  FTWD Run Obj 
 HFLO.                      No:  High Flow 
 HPRE.                     Yes:  High Pressure 
 HTEM.                      No:  High Temp 
 HYDO.m                   1.80:  Hydro Offset 
 IFIN.deg                63.76:  Inc, Final 
 IMAX.deg                64.09:  Inc Max 
 IMIN.deg                55.81:  Inc Min 
 IMND.m                3455.62:  Inc Min Depth 
 IMXD.m                3796.03:  Inc Max Depth 
 JARR.                      No:  Jarring 
 LETM.      00.15.00 05-Jan-21:  Log End Time 
 LOST.hr                     0:  Lost Rig Time 
 LSTM.      22.00.00 03-Jan-21:  Log Start Time 
 MDCL.ppm             36000.00:  Mud Chlorides 
 MDES.     Inversion Oil/Synthetic:  Mud Desc 
 DFD .sg                  1.51:  Mud Density 
 MDMN.sg                  1.51:  Dens Mud Min 
 MDMX.sg                  1.51:  Dens Mud Max 
 MOIL.                    55.5:  Run Mud Oil % 
 MOWR.                   70:30:  Run Mud OWR 
 MSND.                     0.1:  Run Mud Sand % 
 MSOL.                   20.77:  Run Mud Solids% 
 DFV .spqt               67.00:  Mud Viscosity 
 MWOD.in                  6.75:  MWD Tool OD 
 MWSI.                      No:  Serv Intrp, MWD 
 OTIM.hr                113.53:  Time Operating 
 PCON.           Look Like New:  Pad Condition 
 PMAX.psia             4830.00:  Press Op, Max 
 PV  .cP                 29.00:  Mud PV 
 RUN .                     300:  Run Number 
 ROPA.m/hr               22.00:  ROP Avg 
 ROPN.m/hr               18.00:  ROP Min 
 ROPX.m/hr               25.00:  ROP Max 
 RPMA.rpm               130.00:  RPM Surface Avg 
 RPMN.rpm                80.00:  RPM Surface Min 
 RPMX.rpm               140.00:  RPM Surface Max 
 RRUN.                    L101:  Rig Run Number 
 RTIM.hr                  9.28:  Time Reaming 
 SAZI.deg               316.55:  Azm, Start 
 SDEP.m                3445.01:  Start Depth 
 SIDD.                      No:  Serv Intrp, DD 
 SINC.deg                55.81:  Inc, Start 
 SPPA.psig             4500.00:  SPP Avg 
 SPPN.psig             4350.00:  SPP Min 
 SPPX.psig             4830.00:  SPP Max 
 STIM.      00.00.00 03-Jan-21:  Start Time 
 SVCS.                 DD, MWD:  Services 
 SVER.                    9.20:  Sperry Version 
 TDAT.m                 369.00:  Tot Depth Attmp 
 TDDF.                      No:  Trip for DD 
 TDLG.m                 369.00:  Tot Depth Loggd 
 TFF .                      No:  Trip for Fail 
 TQAA.f-kp               15.00:  Torque Abs Avg 
 TQAN.f-kp               12.00:  Torque Abs Min 
 TQAX.f-kp               16.00:  Torque Abs Max 
 TRRT.°/30m              -2.10:  Turn Rotating 
 MRT .                    HCIM:  Maximum Recorded Temperature 
 TTMX.degC               92.16:  Max Tool Temp 
 VS01.                90627822:  Virtual Str1 SN 
 VS02.                90550008:  Virtual Str2 SN 
 VS03.                90627816:  Virtual Str3 SN 
 VS04.                90633205:  Virtual Str4 SN 
 VS05.                13033835:  Virtual Str5 SN 
 VS06.                11125125:  Virtual Str6 SN 
 WBMN.klb                 8.00:  WOB Min 
 WITN.            Bruce Cheyne:  Customer Rep 
 WITN.           Faig Mammadov:  Customer Rep 2 
 WOBA.klb                 9.00:  WOB Avg 
 WOBX.klb                12.00:  WOB Max 
 YP  .lhf2               30.00:  Yield Point 
~Curve Information Block
#MNEM.UNIT                 API CODE     Curve Description
#---------               -----------    ---------------------------
 TIME.HHMMSS            00 000 000 000:  GT Time & Date
 GTET.sec               00 000 000 000:  GT Elapsed Test Time
 GTPQH.psia             00 000 000 000:  GT HR Quartz Pressure
 GTDEPTH.m              00 000 000 000:  GT Depth
 GTTVD.m                00 000 000 000:  GT True Vertical Depth
 GTTQ.degC              00 000 000 000:  GT Quartz Temperature
 GTTN.NONE              00 000 000 000:  GT Test Number
#Other Information
#
#WARRANTY: Halliburton will use its best efforts to furnish customers with 
#accurate information and interpretations that are part of, and incident to, the services 
#provided.  However, Halliburton cannot and does not warrant the accuracy 
#or correctness of such information and interpretations.  Under no circumstances should any 
#such information or interpretation be relied upon as the sole basis for any drilling, 
#completion, production, or financial decision or any procedure involving any risk to the 
#safety of any drilling venture, drilling rig or its crew or any other third party.  The 
#Customer has full responsibility for all drilling, completion and production operation.  
#Halliburton makes no representations or warranties, either expressed or 
#implied, including, but not limited to, the implied warranties of merchantability or fitness 
#for a particular purpose, with respect to the services rendered.  In no event will 
#Halliburton be liable for failure to obtain any particular results or for 
#any damages, including, but not limited to, indirect, special or consequential damages, 
#resulting from the use of any information or interpretation provided by Halliburton.
#
~A           TIME            GTET   GTPQH  GTDEPTH  GTTVD  GTTQ  GTTN 
# ...
   14:39:43.000.05-Jan-2021 437.00 4870.94 3453.01 2973.12 77.59 8.00
   14:39:43.200.05-Jan-2021 437.20 4870.43 3453.01 2973.12 77.59 8.00
   14:39:43.400.05-Jan-2021 437.40 4871.38 3453.01 2973.12 77.59 8.00
   14:39:43.600.05-Jan-2021 437.60 4870.94 3453.01 2973.12 77.59 8.00
   14:39:43.800.05-Jan-2021 437.80 4870.34 3453.01 2973.12 77.59 8.00
   14:39:44.000.05-Jan-2021 438.00 4871.42 3453.01 2973.12 77.59 8.00
   14:39:44.200.05-Jan-2021 438.20 4871.42 3453.01 2973.12 77.59 8.00
   14:39:44.400.05-Jan-2021 438.40 4870.87 3453.01 2973.12 77.59 8.00
   14:39:44.600.05-Jan-2021 438.60 4870.95 3453.01 2973.12 77.59 8.00
   14:39:44.800.05-Jan-2021 438.80 4870.63 3453.01 2973.12 77.59 8.00
   14:39:45.000.05-Jan-2021 439.00 4871.10 3453.01 2973.12 77.59 8.00
   14:39:45.200.05-Jan-2021 439.20 4871.10 3453.01 2973.12 77.59 8.00
   14:39:45.400.05-Jan-2021 439.40 4870.91 3453.01 2973.12 77.59 8.00
   14:39:45.600.05-Jan-2021 439.60 4870.90 3453.01 2973.12 77.59 8.00
   14:39:45.800.05-Jan-2021 439.80 4870.92 3453.01 2973.12 77.59 8.00
   14:39:46.000.05-Jan-2021 440.00 4870.95 3453.01 2973.12 77.59 8.00
   14:39:46.200.05-Jan-2021 440.20 4870.90 3453.01 2973.12 77.59 8.00
   14:39:46.400.05-Jan-2021 440.40 4870.88 3453.01 2973.12 77.59 8.00
   14:39:46.600.05-Jan-2021 440.60 4870.90 3453.01 2973.12 77.59 8.00
   14:39:46.800.05-Jan-2021 440.80 4870.94 3453.01 2973.12 77.59 8.00
   14:39:47.000.05-Jan-2021 441.00 4870.92 3453.01 2973.12 77.59 8.00
   14:39:47.200.05-Jan-2021 441.20 4870.89 3453.01 2973.12 77.59 8.00
   14:39:47.400.05-Jan-2021 441.40 4870.91 3453.01 2973.12 77.59 8.00
   14:39:47.600.05-Jan-2021 441.60 4870.66 3453.01 2973.12 77.59 8.00
   14:39:47.800.05-Jan-2021 441.80 4871.08 3453.01 2973.12 77.59 8.00
   14:39:48.000.05-Jan-2021 442.00 4870.95 3453.01 2973.12 77.59 8.00
   14:39:48.200.05-Jan-2021 442.20 4870.95 3453.01 2973.12 77.59 8.00
   14:39:48.400.05-Jan-2021 442.40 4870.94 3453.01 2973.12 77.59 8.00
   14:39:48.600.05-Jan-2021 442.60 4870.94 3453.01 2973.12 77.59 8.00
   14:39:48.800.05-Jan-2021 442.80 4870.92 3453.01 2973.12 77.59 8.00
   14:39:49.000.05-Jan-2021 443.00 4870.84 3453.01 2973.12 77.59 8.00
   14:39:49.200.05-Jan-2021 443.20 4870.84 3453.01 2973.12 77.59 8.00
   14:39:49.400.05-Jan-2021 443.40 4870.93 3453.01 2973.12 77.59 8.00
   14:39:49.600.05-Jan-2021 443.60 4870.92 3453.01 2973.12 77.59 8.00
   14:39:49.800.05-Jan-2021 443.80 4870.93 3453.01 2973.12 77.59 8.00
   14:39:50.000.05-Jan-2021 444.00 4870.88 3453.01 2973.12 77.59 8.00
   14:39:50.200.05-Jan-2021 444.20 4870.88 3453.01 2973.12 77.59 8.00
   14:39:50.400.05-Jan-2021 444.40 4870.85 3453.01 2973.12 77.59 8.00
   14:39:50.600.05-Jan-2021 444.60 4870.98 3453.01 2973.12 77.59 8.00
   14:39:50.800.05-Jan-2021 444.80 4870.64 3453.01 2973.12 77.59 8.00
   14:39:51.000.05-Jan-2021 445.00 4871.07 3453.01 2973.12 77.59 8.00
   14:39:51.200.05-Jan-2021 445.20 4870.95 3453.01 2973.12 77.59 8.00
   14:39:51.400.05-Jan-2021 445.40 4870.43 3453.01 2973.12 77.59 8.00
   14:39:51.600.05-Jan-2021 445.60 4871.36 3453.01 2973.12 77.59 8.00
   14:39:51.800.05-Jan-2021 445.80 4870.94 3453.01 2973.12 77.59 8.00
   14:39:52.000.05-Jan-2021 446.00 4870.35 3453.01 2973.12 77.59 8.00
   14:39:52.200.05-Jan-2021 446.20 4870.35 3453.01 2973.12 77.59 8.00
   14:39:52.400.05-Jan-2021 446.40 4870.97 3453.01 2973.12 77.59 8.00
   14:39:52.600.05-Jan-2021 446.60 4870.88 3453.01 2973.12 77.59 8.00
   14:39:52.800.05-Jan-2021 446.80 4870.95 3453.01 2973.12 77.59 8.00
   14:39:53.000.05-Jan-2021 447.00 4870.65 3453.01 2973.12 77.59 8.00
   14:39:53.200.05-Jan-2021 447.20 4870.65 3453.01 2973.12 77.59 8.00
   14:39:53.400.05-Jan-2021 447.40 4870.91 3453.01 2973.12 77.59 8.00
   14:39:53.600.05-Jan-2021 447.60 4870.91 3453.01 2973.12 77.59 8.00
   14:39:53.800.05-Jan-2021 447.80 4870.93 3453.01 2973.12 77.59 8.00
   14:39:54.000.05-Jan-2021 448.00 4870.84 3453.01 2973.12 77.59 8.00
   14:39:54.200.05-Jan-2021 448.20 4870.91 3453.01 2973.12 77.59 8.00
   14:39:54.400.05-Jan-2021 448.40 4932.33 3453.01 2973.12 77.59 8.00
   14:39:54.600.05-Jan-2021 448.60 6978.56 3453.01 2973.12 77.59 8.00
   14:39:54.800.05-Jan-2021 448.80 7165.57 3453.01 2973.12 77.59 8.00
   14:39:55.000.05-Jan-2021 449.00 7164.63 3453.01 2973.12 77.59 8.00
   14:39:55.200.05-Jan-2021 449.20 7164.63 3453.01 2973.12 77.59 8.00
   14:39:55.400.05-Jan-2021 449.40 7164.95 3453.01 2973.12 77.59 8.00
   14:39:55.600.05-Jan-2021 449.60 7165.30 3453.01 2973.12 77.59 8.00
   14:39:55.800.05-Jan-2021 449.80 7167.52 3453.01 2973.12 77.60 8.00
   14:39:56.000.05-Jan-2021 450.00 7170.29 3453.01 2973.12 77.60 8.00
   14:39:56.200.05-Jan-2021 450.20 7170.29 3453.01 2973.12 77.60 8.00
   14:39:56.400.05-Jan-2021 450.40 7168.52 3453.01 2973.12 77.60 8.00
   14:39:56.600.05-Jan-2021 450.60 7170.06 3453.01 2973.12 77.60 8.00
   14:39:56.800.05-Jan-2021 450.80 7170.43 3453.01 2973.12 77.60 8.00
   14:39:57.000.05-Jan-2021 451.00 7170.37 3453.01 2973.12 77.60 8.00
   14:39:57.200.05-Jan-2021 451.20 7170.37 3453.01 2973.12 77.60 8.00
   14:39:57.400.05-Jan-2021 451.40 7171.43 3453.01 2973.12 77.61 8.00
   14:39:57.600.05-Jan-2021 451.60 7171.18 3453.01 2973.12 77.61 8.00
   14:39:57.800.05-Jan-2021 451.80 7171.06 3453.01 2973.12 77.61 8.00
   14:39:58.000.05-Jan-2021 452.00 7171.01 3453.01 2973.12 77.61 8.00
   14:39:58.200.05-Jan-2021 452.20 7171.01 3453.01 2973.12 77.61 8.00
   14:39:58.400.05-Jan-2021 452.40 7171.22 3453.01 2973.12 77.62 8.00
   14:39:58.600.05-Jan-2021 452.60 7176.98 3453.01 2973.12 77.62 8.00
   14:39:58.800.05-Jan-2021 452.80 7170.05 3453.01 2973.12 77.62 8.00
   14:39:59.000.05-Jan-2021 453.00 7173.45 3453.01 2973.12 77.62 8.00
   14:39:59.200.05-Jan-2021 453.20 7175.45 3453.01 2973.12 77.63 8.00
   14:39:59.400.05-Jan-2021 453.40 7173.10 3453.01 2973.12 77.63 8.00
   14:39:59.600.05-Jan-2021 453.60 7177.53 3453.01 2973.12 77.63 8.00
   14:39:59.800.05-Jan-2021 453.80 7170.46 3453.01 2973.12 77.63 8.00
   14:40:00.000.05-Jan-2021 454.00 7174.06 3453.01 2973.12 77.63 8.00
   14:40:00.200.05-Jan-2021 454.20 7174.06 3453.01 2973.12 77.63 8.00
   14:40:00.400.05-Jan-2021 454.40 7171.46 3453.01 2973.12 77.64 8.00
   14:40:00.600.05-Jan-2021 454.60 7173.68 3453.01 2973.12 77.64 8.00
   14:40:00.800.05-Jan-2021 454.80 7171.98 3453.01 2973.12 77.64 8.00
   14:40:01.000.05-Jan-2021 455.00 7173.58 3453.01 2973.12 77.64 8.00
   14:40:01.200.05-Jan-2021 455.20 7175.05 3453.01 2973.12 77.64 8.00
   14:40:01.400.05-Jan-2021 455.40 7175.75 3453.01 2973.12 77.64 8.00
   14:40:01.600.05-Jan-2021 455.60 7172.28 3453.01 2973.12 77.65 8.00
   14:40:01.800.05-Jan-2021 455.80 7173.41 3453.01 2973.12 77.65 8.00
   14:40:02.000.05-Jan-2021 456.00 7173.34 3453.01 2973.12 77.65 8.00
   14:40:02.200.05-Jan-2021 456.20 7173.82 3453.01 2973.12 77.65 8.00
   14:40:02.400.05-Jan-2021 456.40 7171.86 3453.01 2973.12 77.65 8.00
   14:40:02.600.05-Jan-2021 456.60 7172.36 3453.01 2973.12 77.65 8.00
   14:40:02.800.05-Jan-2021 456.80 7173.00 3453.01 2973.12 77.65 8.00
   14:40:03.000.05-Jan-2021 457.00 7171.66 3453.01 2973.12 77.65 8.00
   14:40:03.200.05-Jan-2021 457.20 7171.53 3453.01 2973.12 77.65 8.00
   14:40:03.400.05-Jan-2021 457.40 7172.23 3453.01 2973.12 77.65 8.00
   14:40:03.600.05-Jan-2021 457.60 7172.62 3453.01 2973.12 77.66 8.00
   14:40:03.800.05-Jan-2021 457.80 7172.41 3453.01 2973.12 77.66 8.00
   14:40:04.000.05-Jan-2021 458.00 7172.15 3453.01 2973.12 77.66 8.00
   14:40:04.200.05-Jan-2021 458.20 7178.54 3453.01 2973.12 77.66 8.00
   14:40:04.400.05-Jan-2021 458.40 7171.11 3453.01 2973.12 77.66 8.00
   14:40:04.600.05-Jan-2021 458.60 7173.12 3453.01 2973.12 77.66 8.00
   14:40:04.800.05-Jan-2021 458.80 7171.88 3453.01 2973.12 77.66 8.00
   14:40:05.000.05-Jan-2021 459.00 7173.38 3453.01 2973.12 77.66 8.00
   14:40:05.200.05-Jan-2021 459.20 7173.38 3453.01 2973.12 77.66 8.00
   14:40:05.400.05-Jan-2021 459.40 7172.80 3453.01 2973.12 77.66 8.00
   14:40:05.600.05-Jan-2021 459.60 7172.70 3453.01 2973.12 77.66 8.00
   14:40:05.800.05-Jan-2021 459.80 7172.17 3453.01 2973.12 77.66 8.00
