~Version Information
 VERS.                  2.0:   CWLS log ASCII Standard -VERSION 2.0
 WRAP.                   NO:   One line per depth step
~Well Information Block
#MNEM.UNIT     VALUE/NAME     DESCRIPTION
#---------     -----------    ---------------------------
 STRT.S             13:40:14 05-Jan-21: START TIME 13:40:14 05-Jan-21
 STOP.S             13:48:27 05-Jan-21: STOP TIME  13:48:27 05-Jan-21
 STEP.S                   0.00: STEP TIME
 NULL.                 -999.25: NULL VALUE
 DFWT.                        :  DIST FWL TEXT
 DFST.                        :  DIST FSL TEXT
 DMF .             Drill Floor:  DRILL MEAS FROM
 STIM.      06.00.00 31-Dec-20:  START TIME
 DATE.      05.58.24 07-Jan-21:  END TIME
 SPUD.               24-Dec-20:  SPUD DATE
 NREF.                    Grid:  NORTH REFERENCE
 HPTY.       Minimum Curvature:  HOLE POS TYPE
 DMOD.             Drill Model:  DRILL MOD DESC
 SVYD.                  Survey:  SURVEY DESC
 ILTD.               Lithology:  INTERP LTH DESC
 FTOP.          Formation Tops:  FORM TOPS DESC
 SON .        AZ-XX-0906699554:  JOB NUMBER
 WELL.                    B09z:  WELL NAME
 PDAT.          Mean Sea Level:  PERMANENT DATUM
 FLD .                     ACG:  FIELD NAME
 CTRY.              Azerbaijan:  COUNTRY NAME
 COMP.     BP Exploration (Caspian Sea) Ltd.:  COMPANY
 UWI .                     N/A:  UNIQUE WELL IDENTIFIER
 API .                     N/A:  API NUMBER
 WTYP.                Deviated:  WELL TYPE
 MDS .        Operator Entered:  MAG DATA SOURCE
 BASE.              Azerbaijan:  LOGGING EQUIPMENT BASE LOCATION
 REGN.                   EESSA:  REGION
 PROV.                    Baku:  PROVINCE
 STAT.                    Baku:  STATE NAME
 SRVC.          Turan Drilling:  CONTRACTOR
 MWDS.                    Baku:  MWD SHOP
 JOBN.        AZ-XX-0906699554:  JOB TICKET NUMB
 RIG .           Central Azeri:  RIG NAME
 DOE .                     N/A:  DOE NUMBER
 DCON.         Sperry Drilling:  DIRECTNL CONTR
 UNIT.                     N/A:  LOGGING EQUIPMENT ID
 CNTY.                        :  COUNTY
 LOC .                        :  LOCATION
 LMF .             Drill Floor:  LOG MEASURED FROM
 TVDS.m                  43.29:  TVDSS CORRECTN
 LATI.deg                40.03:  LATITUDE
 LONG.deg                51.35:  LONGITUDE
 WHNS.m                  -2.76:  WELL HEAD N/S
 WHEW.m                  -7.70:  WELL HEAD E/W
 UTMX.m              530128.28:  UTM X
 UTMY.m             4433192.49:  UTM Y
 DFWL.m                   0.00:  DISTANCE FWL
 DFSL.m                   0.00:  DISTANCE FSL
 SDEP.m                3435.01:  START DEPTH
 TDD .m                3814.01:  TOTAL DEPTH (DRILLER)
 VSDR.deg               352.80:  VERT SEC DIRECT
 GVFD.g                   1.00:  GRAVITY FIELD
 MFLD.nT              50303.00:  MAGNETIC FIELD
 MDIP.deg                59.52:  MAGNETIC DIP
 MDEC.deg                 6.47:  MAGNETIC DECL
 GRDC.deg                 0.23:  GRID CORRECTION
 AZTC.deg                 6.24:  AZM TOTAL CORR
 EPD .m                   0.00:  ELEVATION
 EGL .m                   0.00:  GROUND ELEVATION
 WDMS.m                 128.20:  WD ELEV
 APD .m                  43.29:  DEPTH ABOVE PD
 DEP .m                3421.30:  DEPTH
 AGAP.m                  43.60:  AIR GAP
 VSEW.m                  -7.70:  VERT SEC E/W
 VSNS.m                  -2.76:  VERT SEC N/S
 EKB .m                   0.00:  KB ELEVATION
 EDF .m                  43.29:  DF ELEVATION
 TDL .m                 369.00:  TOTAL DEPTH (LOGGER)
 VSC .                       0:  VS TO CLOSURE
 MAGU.                 1850390:  MAGUTM CHECKSUM
~Parameter Information Block
#MNEM.UNIT       Value        Description
#---------     -----------    ---------------------------
 AV  .mps                 2.80:  Ann Velocity 
 AVMX.mps                 4.67:  Max Ann Veloc 
 AZIF.deg               303.89:  Azm, Final 
 BHAT.        Rotary Steerable:  BHA Type 
 BREV.rev            128542.00:  Rev Bit Total 
 BROT.°/30m               1.50:  Build Rotating 
 BS  .in                  8.50:  Bit Size 
 BSZ .in                  8.50:  Bit Size 
 BTPL.psig              715.00:  Bit Press Loss 
 CABU.                      No:  Customer Abuse 
 COMM.                     t6w:  Run Comments 1 
 TCS .hr                 53.00:  Time Ciculation Ended 
 CV  .mps                 3.85:  Crit Velocity 
 CVMX.mps                 4.75:  Max Crit Veloc 
 DD1 .         Intigam Rahimov:  Direct Drillr 1 
 DDSV.                 iCruise:  DD Service 
 DEFF.%                  98.60:  % Det Eff 
 DLRX.°/30m               2.34:  Dogleg Rot Max 
 DLSO.°/30m               0.00:  Dogleg Oriented 
 DLSX.°/30m               0.00:  Dogleg Str Max 
 DRET.      00.15.00 05-Jan-21:  Drill End Time 
 DRST.      22.00.00 03-Jan-21:  Drill Start Tim 
 DTIM.hr                 17.72:  Time Drilling 
 EDEP.m                3814.01:  End Depth 
 ENG1.         Yevgeniy Ulikov:  Engineer 1 
 ENG2.        Farkhad Khalidov:  Engineer 2 
 ENG3.           Samir Gafarov:  Engineer 3 
 ETIM.      21.00.00 07-Jan-21:  End Time 
 FLOI.gpm               590.00:  Flow In 
 FLON.gpm               580.00:  Flow In Min 
 FLOS.cptm                1.00:  Fluid Loss 
 FLOX.gpm               595.00:  Flow In Max 
 FTRO.     Connectivity, Formation Presure:  FTWD Run Obj 
 HFLO.                      No:  High Flow 
 HPRE.                     Yes:  High Pressure 
 HTEM.                      No:  High Temp 
 HYDO.m                   1.80:  Hydro Offset 
 IFIN.deg                63.76:  Inc, Final 
 IMAX.deg                64.09:  Inc Max 
 IMIN.deg                55.81:  Inc Min 
 IMND.m                3455.62:  Inc Min Depth 
 IMXD.m                3796.03:  Inc Max Depth 
 JARR.                      No:  Jarring 
 LETM.      00.15.00 05-Jan-21:  Log End Time 
 LOST.hr                     0:  Lost Rig Time 
 LSTM.      22.00.00 03-Jan-21:  Log Start Time 
 MDCL.ppm             36000.00:  Mud Chlorides 
 MDES.     Inversion Oil/Synthetic:  Mud Desc 
 DFD .sg                  1.51:  Mud Density 
 MDMN.sg                  1.51:  Dens Mud Min 
 MDMX.sg                  1.51:  Dens Mud Max 
 MOIL.                    55.5:  Run Mud Oil % 
 MOWR.                   70:30:  Run Mud OWR 
 MSND.                     0.1:  Run Mud Sand % 
 MSOL.                   20.77:  Run Mud Solids% 
 DFV .spqt               67.00:  Mud Viscosity 
 MWOD.in                  6.75:  MWD Tool OD 
 MWSI.                      No:  Serv Intrp, MWD 
 OTIM.hr                113.53:  Time Operating 
 PCON.           Look Like New:  Pad Condition 
 PMAX.psia             4830.00:  Press Op, Max 
 PV  .cP                 29.00:  Mud PV 
 RUN .                     300:  Run Number 
 ROPA.m/hr               22.00:  ROP Avg 
 ROPN.m/hr               18.00:  ROP Min 
 ROPX.m/hr               25.00:  ROP Max 
 RPMA.rpm               130.00:  RPM Surface Avg 
 RPMN.rpm                80.00:  RPM Surface Min 
 RPMX.rpm               140.00:  RPM Surface Max 
 RRUN.                    L101:  Rig Run Number 
 RTIM.hr                  9.28:  Time Reaming 
 SAZI.deg               316.55:  Azm, Start 
 SDEP.m                3445.01:  Start Depth 
 SIDD.                      No:  Serv Intrp, DD 
 SINC.deg                55.81:  Inc, Start 
 SPPA.psig             4500.00:  SPP Avg 
 SPPN.psig             4350.00:  SPP Min 
 SPPX.psig             4830.00:  SPP Max 
 STIM.      00.00.00 03-Jan-21:  Start Time 
 SVCS.                 DD, MWD:  Services 
 SVER.                    9.20:  Sperry Version 
 TDAT.m                 369.00:  Tot Depth Attmp 
 TDDF.                      No:  Trip for DD 
 TDLG.m                 369.00:  Tot Depth Loggd 
 TFF .                      No:  Trip for Fail 
 TQAA.f-kp               15.00:  Torque Abs Avg 
 TQAN.f-kp               12.00:  Torque Abs Min 
 TQAX.f-kp               16.00:  Torque Abs Max 
 TRRT.°/30m              -2.10:  Turn Rotating 
 MRT .                    HCIM:  Maximum Recorded Temperature 
 TTMX.degC               92.16:  Max Tool Temp 
 VS01.                90627822:  Virtual Str1 SN 
 VS02.                90550008:  Virtual Str2 SN 
 VS03.                90627816:  Virtual Str3 SN 
 VS04.                90633205:  Virtual Str4 SN 
 VS05.                13033835:  Virtual Str5 SN 
 VS06.                11125125:  Virtual Str6 SN 
 WBMN.klb                 8.00:  WOB Min 
 WITN.            Bruce Cheyne:  Customer Rep 
 WITN.           Faig Mammadov:  Customer Rep 2 
 WOBA.klb                 9.00:  WOB Avg 
 WOBX.klb                12.00:  WOB Max 
 YP  .lhf2               30.00:  Yield Point 
~Curve Information Block
#MNEM.UNIT                 API CODE     Curve Description
#---------               -----------    ---------------------------
 TIME.HHMMSS            00 000 000 000:  GT Time & Date
 GTET.sec               00 000 000 000:  GT Elapsed Test Time
 GTPQH.psia             00 000 000 000:  GT HR Quartz Pressure
 GTDEPTH.m              00 000 000 000:  GT Depth
 GTTVD.m                00 000 000 000:  GT True Vertical Depth
 GTTQ.degC              00 000 000 000:  GT Quartz Temperature
 GTTN.NONE              00 000 000 000:  GT Test Number
#Other Information
#
#WARRANTY: Halliburton will use its best efforts to furnish customers with 
#accurate information and interpretations that are part of, and incident to, the services 
#provided.  However, Halliburton cannot and does not warrant the accuracy 
#or correctness of such information and interpretations.  Under no circumstances should any 
#such information or interpretation be relied upon as the sole basis for any drilling, 
#completion, production, or financial decision or any procedure involving any risk to the 
#safety of any drilling venture, drilling rig or its crew or any other third party.  The 
#Customer has full responsibility for all drilling, completion and production operation.  
#Halliburton makes no representations or warranties, either expressed or 
#implied, including, but not limited to, the implied warranties of merchantability or fitness 
#for a particular purpose, with respect to the services rendered.  In no event will 
#Halliburton be liable for failure to obtain any particular results or for 
#any damages, including, but not limited to, indirect, special or consequential damages, 
#resulting from the use of any information or interpretation provided by Halliburton.
#
~A           TIME            GTET   GTPQH  GTDEPTH  GTTVD  GTTQ  GTTN 
# ...
   13:47:32.174.05-Jan-2021 437.24 4884.10 3494.01 2996.09 78.14 7.00
   13:47:32.374.05-Jan-2021 437.44 4884.07 3494.01 2996.09 78.14 7.00
   13:47:32.574.05-Jan-2021 437.64 4884.06 3494.01 2996.09 78.14 7.00
   13:47:32.774.05-Jan-2021 437.84 4884.04 3494.01 2996.09 78.14 7.00
   13:47:32.974.05-Jan-2021 438.04 4884.05 3494.01 2996.09 78.14 7.00
   13:47:33.174.05-Jan-2021 438.24 4884.07 3494.01 2996.09 78.14 7.00
   13:47:33.374.05-Jan-2021 438.44 4884.07 3494.01 2996.09 78.14 7.00
   13:47:33.574.05-Jan-2021 438.64 4884.47 3494.01 2996.09 78.14 7.00
   13:47:33.775.05-Jan-2021 438.84 4883.90 3494.01 2996.09 78.14 7.00
   13:47:33.975.05-Jan-2021 439.04 4883.90 3494.01 2996.09 78.14 7.00
   13:47:34.175.05-Jan-2021 439.24 4884.33 3494.01 2996.09 78.14 7.00
   13:47:34.375.05-Jan-2021 439.44 4884.33 3494.01 2996.09 78.14 7.00
   13:47:34.575.05-Jan-2021 439.64 4884.18 3494.01 2996.09 78.14 7.00
   13:47:34.775.05-Jan-2021 439.84 4883.99 3494.01 2996.09 78.14 7.00
   13:47:34.975.05-Jan-2021 440.04 4884.01 3494.01 2996.09 78.14 7.00
   13:47:35.175.05-Jan-2021 440.24 4883.91 3494.01 2996.09 78.14 7.00
   13:47:35.375.05-Jan-2021 440.44 4883.91 3494.01 2996.09 78.14 7.00
   13:47:35.576.05-Jan-2021 440.64 4884.05 3494.01 2996.09 78.14 7.00
   13:47:35.776.05-Jan-2021 440.84 4883.65 3494.01 2996.09 78.14 7.00
   13:47:35.976.05-Jan-2021 441.04 4884.58 3494.01 2996.09 78.14 7.00
   13:47:36.176.05-Jan-2021 441.24 4884.03 3494.01 2996.09 78.14 7.00
   13:47:36.376.05-Jan-2021 441.45 4884.10 3494.01 2996.09 78.14 7.00
   13:47:36.576.05-Jan-2021 441.65 4884.14 3494.01 2996.09 78.14 7.00
   13:47:36.776.05-Jan-2021 441.85 4884.09 3494.01 2996.09 78.14 7.00
   13:47:36.976.05-Jan-2021 442.05 4884.00 3494.01 2996.09 78.14 7.00
   13:47:37.176.05-Jan-2021 442.25 4884.06 3494.01 2996.09 78.14 7.00
   13:47:37.377.05-Jan-2021 442.45 4884.06 3494.01 2996.09 78.14 7.00
   13:47:37.577.05-Jan-2021 442.65 4884.13 3494.01 2996.09 78.14 7.00
   13:47:37.777.05-Jan-2021 442.85 4884.10 3494.01 2996.09 78.14 7.00
   13:47:37.977.05-Jan-2021 443.05 4884.08 3494.01 2996.09 78.14 7.00
   13:47:38.177.05-Jan-2021 443.25 4884.03 3494.01 2996.09 78.14 7.00
   13:47:38.377.05-Jan-2021 443.45 4884.03 3494.01 2996.09 78.14 7.00
   13:47:38.577.05-Jan-2021 443.65 4883.72 3494.01 2996.09 78.14 7.00
   13:47:38.777.05-Jan-2021 443.85 4884.52 3494.01 2996.09 78.14 7.00
   13:47:38.977.05-Jan-2021 444.05 4884.00 3494.01 2996.09 78.14 7.00
   13:47:39.178.05-Jan-2021 444.25 4884.01 3494.01 2996.09 78.14 7.00
   13:47:39.378.05-Jan-2021 444.45 4884.01 3494.01 2996.09 78.14 7.00
   13:47:39.578.05-Jan-2021 444.65 4884.07 3494.01 2996.09 78.14 7.00
   13:47:39.778.05-Jan-2021 444.85 4884.05 3494.01 2996.09 78.14 7.00
   13:47:39.978.05-Jan-2021 445.05 4884.11 3494.01 2996.09 78.14 7.00
   13:47:40.178.05-Jan-2021 445.25 4884.06 3494.01 2996.09 78.14 7.00
   13:47:40.378.05-Jan-2021 445.45 4884.05 3494.01 2996.09 78.14 7.00
   13:47:40.578.05-Jan-2021 445.65 4884.04 3494.01 2996.09 78.14 7.00
   13:47:40.778.05-Jan-2021 445.85 4884.10 3494.01 2996.09 78.14 7.00
   13:47:40.979.05-Jan-2021 446.05 4884.06 3494.01 2996.09 78.14 7.00
   13:47:41.179.05-Jan-2021 446.25 4883.87 3494.01 2996.09 78.14 7.00
   13:47:41.379.05-Jan-2021 446.45 4883.87 3494.01 2996.09 78.14 7.00
   13:47:41.579.05-Jan-2021 446.65 4883.69 3494.01 2996.09 78.14 7.00
   13:47:41.779.05-Jan-2021 446.85 4931.79 3494.01 2996.09 78.14 7.00
   13:47:41.979.05-Jan-2021 447.05 6815.34 3494.01 2996.09 78.14 7.00
   13:47:42.179.05-Jan-2021 447.25 7267.29 3494.01 2996.09 78.15 7.00
   13:47:42.379.05-Jan-2021 447.45 7267.29 3494.01 2996.09 78.15 7.00
   13:47:42.579.05-Jan-2021 447.65 7266.78 3494.01 2996.09 78.15 7.00
   13:47:42.780.05-Jan-2021 447.85 7266.12 3494.01 2996.09 78.15 7.00
   13:47:42.980.05-Jan-2021 448.05 7265.41 3494.01 2996.09 78.15 7.00
   13:47:43.180.05-Jan-2021 448.25 7278.32 3494.01 2996.09 78.15 7.00
   13:47:43.380.05-Jan-2021 448.45 7270.50 3494.01 2996.09 78.15 7.00
   13:47:43.580.05-Jan-2021 448.65 7270.45 3494.01 2996.09 78.15 7.00
   13:47:43.780.05-Jan-2021 448.85 7280.74 3494.01 2996.09 78.15 7.00
   13:47:43.980.05-Jan-2021 449.05 7273.65 3494.01 2996.09 78.16 7.00
   13:47:44.180.05-Jan-2021 449.25 7273.02 3494.01 2996.09 78.16 7.00
   13:47:44.380.05-Jan-2021 449.45 7273.02 3494.01 2996.09 78.16 7.00
   13:47:44.581.05-Jan-2021 449.65 7275.02 3494.01 2996.09 78.16 7.00
   13:47:44.781.05-Jan-2021 449.85 7275.74 3494.01 2996.09 78.16 7.00
   13:47:44.981.05-Jan-2021 450.05 7276.93 3494.01 2996.09 78.17 7.00
   13:47:45.181.05-Jan-2021 450.25 7276.67 3494.01 2996.09 78.17 7.00
   13:47:45.381.05-Jan-2021 450.45 7276.67 3494.01 2996.09 78.17 7.00
   13:47:45.581.05-Jan-2021 450.65 7279.55 3494.01 2996.09 78.17 7.00
   13:47:45.781.05-Jan-2021 450.85 7279.42 3494.01 2996.09 78.17 7.00
   13:47:45.981.05-Jan-2021 451.05 7280.10 3494.01 2996.09 78.18 7.00
   13:47:46.181.05-Jan-2021 451.25 7280.86 3494.01 2996.09 78.18 7.00
   13:47:46.382.05-Jan-2021 451.45 7282.54 3494.01 2996.09 78.18 7.00
   13:47:46.582.05-Jan-2021 451.65 7290.51 3494.01 2996.09 78.18 7.00
   13:47:46.782.05-Jan-2021 451.85 7281.50 3494.01 2996.09 78.19 7.00
   13:47:46.982.05-Jan-2021 452.05 7280.16 3494.01 2996.09 78.19 7.00
   13:47:47.182.05-Jan-2021 452.25 7280.30 3494.01 2996.09 78.19 7.00
   13:47:47.382.05-Jan-2021 452.45 7280.30 3494.01 2996.09 78.19 7.00
   13:47:47.582.05-Jan-2021 452.65 7280.00 3494.01 2996.09 78.19 7.00
   13:47:47.782.05-Jan-2021 452.85 7279.67 3494.01 2996.09 78.20 7.00
   13:47:47.982.05-Jan-2021 453.05 7280.12 3494.01 2996.09 78.20 7.00
   13:47:48.183.05-Jan-2021 453.25 7279.74 3494.01 2996.09 78.20 7.00
   13:47:48.383.05-Jan-2021 453.45 7279.74 3494.01 2996.09 78.20 7.00
   13:47:48.583.05-Jan-2021 453.65 7279.63 3494.01 2996.09 78.20 7.00
   13:47:48.783.05-Jan-2021 453.85 7279.64 3494.01 2996.09 78.20 7.00
   13:47:48.983.05-Jan-2021 454.05 7279.15 3494.01 2996.09 78.20 7.00
   13:47:49.183.05-Jan-2021 454.25 7289.21 3494.01 2996.09 78.21 7.00
   13:47:49.383.05-Jan-2021 454.45 7289.21 3494.01 2996.09 78.21 7.00
   13:47:49.583.05-Jan-2021 454.65 7279.11 3494.01 2996.09 78.21 7.00
   13:47:49.783.05-Jan-2021 454.85 7288.52 3494.01 2996.09 78.21 7.00
   13:47:49.984.05-Jan-2021 455.05 7280.85 3494.01 2996.09 78.21 7.00
   13:47:50.184.05-Jan-2021 455.25 7288.87 3494.01 2996.09 78.21 7.00
   13:47:50.384.05-Jan-2021 455.45 7288.87 3494.01 2996.09 78.21 7.00
   13:47:50.584.05-Jan-2021 455.65 7280.16 3494.01 2996.09 78.21 7.00
   13:47:50.784.05-Jan-2021 455.85 7279.53 3494.01 2996.09 78.21 7.00
   13:47:50.984.05-Jan-2021 456.05 7290.29 3494.01 2996.09 78.22 7.00
   13:47:51.184.05-Jan-2021 456.25 7282.60 3494.01 2996.09 78.22 7.00
   13:47:51.384.05-Jan-2021 456.45 7282.60 3494.01 2996.09 78.22 7.00
   13:47:51.584.05-Jan-2021 456.65 7289.44 3494.01 2996.09 78.22 7.00
   13:47:51.785.05-Jan-2021 456.85 7282.74 3494.01 2996.09 78.22 7.00
   13:47:51.985.05-Jan-2021 457.05 7281.36 3494.01 2996.09 78.22 7.00
   13:47:52.185.05-Jan-2021 457.25 7281.57 3494.01 2996.09 78.22 7.00
   13:47:52.385.05-Jan-2021 457.45 7281.57 3494.01 2996.09 78.22 7.00
   13:47:52.585.05-Jan-2021 457.65 7282.92 3494.01 2996.09 78.22 7.00
   13:47:52.785.05-Jan-2021 457.85 7283.56 3494.01 2996.09 78.22 7.00
   13:47:52.985.05-Jan-2021 458.05 7283.14 3494.01 2996.09 78.22 7.00
   13:47:53.185.05-Jan-2021 458.25 7282.75 3494.01 2996.09 78.22 7.00
   13:47:53.385.05-Jan-2021 458.45 7282.75 3494.01 2996.09 78.22 7.00
   13:47:53.586.05-Jan-2021 458.65 7281.93 3494.01 2996.09 78.22 7.00
   13:47:53.786.05-Jan-2021 458.85 7281.62 3494.01 2996.09 78.22 7.00
   13:47:53.986.05-Jan-2021 459.05 7281.22 3494.01 2996.09 78.22 7.00
   13:47:54.186.05-Jan-2021 459.25 7280.60 3494.01 2996.09 78.22 7.00
   13:47:54.386.05-Jan-2021 459.46 7280.60 3494.01 2996.09 78.22 7.00
   13:47:54.586.05-Jan-2021 459.66 7283.50 3494.01 2996.09 78.23 7.00
   13:47:54.786.05-Jan-2021 459.86 7282.82 3494.01 2996.09 78.23 7.00
   13:47:54.986.05-Jan-2021 460.06 7281.87 3494.01 2996.09 78.23 7.00
