~Version Information
 VERS.                  2.0:   CWLS log ASCII Standard -VERSION 2.0
 WRAP.                   NO:   One line per depth step
~Well Information Block
#MNEM.UNIT     VALUE/NAME     DESCRIPTION
#---------     -----------    ---------------------------
 STRT.S             13:40:14 05-Jan-21: START TIME 13:40:14 05-Jan-21
 STOP.S             13:48:27 05-Jan-21: STOP TIME  13:48:27 05-Jan-21
 STEP.S                   0.00: STEP TIME
 NULL.                 -999.25: NULL VALUE
 DFWT.                        :  DIST FWL TEXT
 DFST.                        :  DIST FSL TEXT
 DMF .             Drill Floor:  DRILL MEAS FROM
 STIM.      06.00.00 31-Dec-20:  START TIME
 DATE.      05.58.24 07-Jan-21:  END TIME
 SPUD.               24-Dec-20:  SPUD DATE
 NREF.                    Grid:  NORTH REFERENCE
 HPTY.       Minimum Curvature:  HOLE POS TYPE
 DMOD.             Drill Model:  DRILL MOD DESC
 SVYD.                  Survey:  SURVEY DESC
 ILTD.               Lithology:  INTERP LTH DESC
 FTOP.          Formation Tops:  FORM TOPS DESC
 SON .        AZ-XX-0906699554:  JOB NUMBER
 WELL.                    B09z:  WELL NAME
 PDAT.          Mean Sea Level:  PERMANENT DATUM
 FLD .                     ACG:  FIELD NAME
 CTRY.              Azerbaijan:  COUNTRY NAME
 COMP.     BP Exploration (Caspian Sea) Ltd.:  COMPANY
 UWI .                     N/A:  UNIQUE WELL IDENTIFIER
 API .                     N/A:  API NUMBER
 WTYP.                Deviated:  WELL TYPE
 MDS .        Operator Entered:  MAG DATA SOURCE
 BASE.              Azerbaijan:  LOGGING EQUIPMENT BASE LOCATION
 REGN.                   EESSA:  REGION
 PROV.                    Baku:  PROVINCE
 STAT.                    Baku:  STATE NAME
 SRVC.          Turan Drilling:  CONTRACTOR
 MWDS.                    Baku:  MWD SHOP
 JOBN.        AZ-XX-0906699554:  JOB TICKET NUMB
 RIG .           Central Azeri:  RIG NAME
 DOE .                     N/A:  DOE NUMBER
 DCON.         Sperry Drilling:  DIRECTNL CONTR
 UNIT.                     N/A:  LOGGING EQUIPMENT ID
 CNTY.                        :  COUNTY
 LOC .                        :  LOCATION
 LMF .             Drill Floor:  LOG MEASURED FROM
 TVDS.m                  43.29:  TVDSS CORRECTN
 LATI.deg                40.03:  LATITUDE
 LONG.deg                51.35:  LONGITUDE
 WHNS.m                  -2.76:  WELL HEAD N/S
 WHEW.m                  -7.70:  WELL HEAD E/W
 UTMX.m              530128.28:  UTM X
 UTMY.m             4433192.49:  UTM Y
 DFWL.m                   0.00:  DISTANCE FWL
 DFSL.m                   0.00:  DISTANCE FSL
 SDEP.m                3435.01:  START DEPTH
 TDD .m                3814.01:  TOTAL DEPTH (DRILLER)
 VSDR.deg               352.80:  VERT SEC DIRECT
 GVFD.g                   1.00:  GRAVITY FIELD
 MFLD.nT              50303.00:  MAGNETIC FIELD
 MDIP.deg                59.52:  MAGNETIC DIP
 MDEC.deg                 6.47:  MAGNETIC DECL
 GRDC.deg                 0.23:  GRID CORRECTION
 AZTC.deg                 6.24:  AZM TOTAL CORR
 EPD .m                   0.00:  ELEVATION
 EGL .m                   0.00:  GROUND ELEVATION
 WDMS.m                 128.20:  WD ELEV
 APD .m                  43.29:  DEPTH ABOVE PD
 DEP .m                3421.30:  DEPTH
 AGAP.m                  43.60:  AIR GAP
 VSEW.m                  -7.70:  VERT SEC E/W
 VSNS.m                  -2.76:  VERT SEC N/S
 EKB .m                   0.00:  KB ELEVATION
 EDF .m                  43.29:  DF ELEVATION
 TDL .m                 369.00:  TOTAL DEPTH (LOGGER)
 VSC .                       0:  VS TO CLOSURE
 MAGU.                 1850390:  MAGUTM CHECKSUM
~Parameter Information Block
#MNEM.UNIT       Value        Description
#---------     -----------    ---------------------------
 AV  .mps                 2.80:  Ann Velocity 
 AVMX.mps                 4.67:  Max Ann Veloc 
 AZIF.deg               303.89:  Azm, Final 
 BHAT.        Rotary Steerable:  BHA Type 
 BREV.rev            128542.00:  Rev Bit Total 
 BROT.°/30m               1.50:  Build Rotating 
 BS  .in                  8.50:  Bit Size 
 BSZ .in                  8.50:  Bit Size 
 BTPL.psig              715.00:  Bit Press Loss 
 CABU.                      No:  Customer Abuse 
 COMM.                     t6w:  Run Comments 1 
 TCS .hr                 53.00:  Time Ciculation Ended 
 CV  .mps                 3.85:  Crit Velocity 
 CVMX.mps                 4.75:  Max Crit Veloc 
 DD1 .         Intigam Rahimov:  Direct Drillr 1 
 DDSV.                 iCruise:  DD Service 
 DEFF.%                  98.60:  % Det Eff 
 DLRX.°/30m               2.34:  Dogleg Rot Max 
 DLSO.°/30m               0.00:  Dogleg Oriented 
 DLSX.°/30m               0.00:  Dogleg Str Max 
 DRET.      00.15.00 05-Jan-21:  Drill End Time 
 DRST.      22.00.00 03-Jan-21:  Drill Start Tim 
 DTIM.hr                 17.72:  Time Drilling 
 EDEP.m                3814.01:  End Depth 
 ENG1.         Yevgeniy Ulikov:  Engineer 1 
 ENG2.        Farkhad Khalidov:  Engineer 2 
 ENG3.           Samir Gafarov:  Engineer 3 
 ETIM.      21.00.00 07-Jan-21:  End Time 
 FLOI.gpm               590.00:  Flow In 
 FLON.gpm               580.00:  Flow In Min 
 FLOS.cptm                1.00:  Fluid Loss 
 FLOX.gpm               595.00:  Flow In Max 
 FTRO.     Connectivity, Formation Presure:  FTWD Run Obj 
 HFLO.                      No:  High Flow 
 HPRE.                     Yes:  High Pressure 
 HTEM.                      No:  High Temp 
 HYDO.m                   1.80:  Hydro Offset 
 IFIN.deg                63.76:  Inc, Final 
 IMAX.deg                64.09:  Inc Max 
 IMIN.deg                55.81:  Inc Min 
 IMND.m                3455.62:  Inc Min Depth 
 IMXD.m                3796.03:  Inc Max Depth 
 JARR.                      No:  Jarring 
 LETM.      00.15.00 05-Jan-21:  Log End Time 
 LOST.hr                     0:  Lost Rig Time 
 LSTM.      22.00.00 03-Jan-21:  Log Start Time 
 MDCL.ppm             36000.00:  Mud Chlorides 
 MDES.     Inversion Oil/Synthetic:  Mud Desc 
 DFD .sg                  1.51:  Mud Density 
 MDMN.sg                  1.51:  Dens Mud Min 
 MDMX.sg                  1.51:  Dens Mud Max 
 MOIL.                    55.5:  Run Mud Oil % 
 MOWR.                   70:30:  Run Mud OWR 
 MSND.                     0.1:  Run Mud Sand % 
 MSOL.                   20.77:  Run Mud Solids% 
 DFV .spqt               67.00:  Mud Viscosity 
 MWOD.in                  6.75:  MWD Tool OD 
 MWSI.                      No:  Serv Intrp, MWD 
 OTIM.hr                113.53:  Time Operating 
 PCON.           Look Like New:  Pad Condition 
 PMAX.psia             4830.00:  Press Op, Max 
 PV  .cP                 29.00:  Mud PV 
 RUN .                     300:  Run Number 
 ROPA.m/hr               22.00:  ROP Avg 
 ROPN.m/hr               18.00:  ROP Min 
 ROPX.m/hr               25.00:  ROP Max 
 RPMA.rpm               130.00:  RPM Surface Avg 
 RPMN.rpm                80.00:  RPM Surface Min 
 RPMX.rpm               140.00:  RPM Surface Max 
 RRUN.                    L101:  Rig Run Number 
 RTIM.hr                  9.28:  Time Reaming 
 SAZI.deg               316.55:  Azm, Start 
 SDEP.m                3445.01:  Start Depth 
 SIDD.                      No:  Serv Intrp, DD 
 SINC.deg                55.81:  Inc, Start 
 SPPA.psig             4500.00:  SPP Avg 
 SPPN.psig             4350.00:  SPP Min 
 SPPX.psig             4830.00:  SPP Max 
 STIM.      00.00.00 03-Jan-21:  Start Time 
 SVCS.                 DD, MWD:  Services 
 SVER.                    9.20:  Sperry Version 
 TDAT.m                 369.00:  Tot Depth Attmp 
 TDDF.                      No:  Trip for DD 
 TDLG.m                 369.00:  Tot Depth Loggd 
 TFF .                      No:  Trip for Fail 
 TQAA.f-kp               15.00:  Torque Abs Avg 
 TQAN.f-kp               12.00:  Torque Abs Min 
 TQAX.f-kp               16.00:  Torque Abs Max 
 TRRT.°/30m              -2.10:  Turn Rotating 
 MRT .                    HCIM:  Maximum Recorded Temperature 
 TTMX.degC               92.16:  Max Tool Temp 
 VS01.                90627822:  Virtual Str1 SN 
 VS02.                90550008:  Virtual Str2 SN 
 VS03.                90627816:  Virtual Str3 SN 
 VS04.                90633205:  Virtual Str4 SN 
 VS05.                13033835:  Virtual Str5 SN 
 VS06.                11125125:  Virtual Str6 SN 
 WBMN.klb                 8.00:  WOB Min 
 WITN.            Bruce Cheyne:  Customer Rep 
 WITN.           Faig Mammadov:  Customer Rep 2 
 WOBA.klb                 9.00:  WOB Avg 
 WOBX.klb                12.00:  WOB Max 
 YP  .lhf2               30.00:  Yield Point 
~Curve Information Block
#MNEM.UNIT                 API CODE     Curve Description
#---------               -----------    ---------------------------
 TIME.HHMMSS            00 000 000 000:  GT Time & Date
 GTET.sec               00 000 000 000:  GT Elapsed Test Time
 GTPQH.psia             00 000 000 000:  GT HR Quartz Pressure
 GTDEPTH.m              00 000 000 000:  GT Depth
 GTTVD.m                00 000 000 000:  GT True Vertical Depth
 GTTQ.degC              00 000 000 000:  GT Quartz Temperature
 GTTN.NONE              00 000 000 000:  GT Test Number
#Other Information
#
#WARRANTY: Halliburton will use its best efforts to furnish customers with 
#accurate information and interpretations that are part of, and incident to, the services 
#provided.  However, Halliburton cannot and does not warrant the accuracy 
#or correctness of such information and interpretations.  Under no circumstances should any 
#such information or interpretation be relied upon as the sole basis for any drilling, 
#completion, production, or financial decision or any procedure involving any risk to the 
#safety of any drilling venture, drilling rig or its crew or any other third party.  The 
#Customer has full responsibility for all drilling, completion and production operation.  
#Halliburton makes no representations or warranties, either expressed or 
#implied, including, but not limited to, the implied warranties of merchantability or fitness 
#for a particular purpose, with respect to the services rendered.  In no event will 
#Halliburton be liable for failure to obtain any particular results or for 
#any damages, including, but not limited to, indirect, special or consequential damages, 
#resulting from the use of any information or interpretation provided by Halliburton.
#
~A           TIME            GTET   GTPQH  GTDEPTH  GTTVD  GTTQ  GTTN 
   13:40:14.931.05-Jan-2021   0.00 7309.11 3494.01 2996.09 77.84 7.00
   13:40:15.131.05-Jan-2021   0.20 7309.11 3494.01 2996.09 77.84 7.00
   13:40:15.331.05-Jan-2021   0.40 7311.49 3494.01 2996.09 77.84 7.00
   13:40:15.531.05-Jan-2021   0.60 7310.61 3494.01 2996.09 77.84 7.00
   13:40:15.731.05-Jan-2021   0.80 7310.39 3494.01 2996.09 77.85 7.00
   13:40:15.931.05-Jan-2021   1.00 7311.11 3494.01 2996.09 77.85 7.00
   13:40:16.132.05-Jan-2021   1.20 7317.91 3494.01 2996.09 77.85 7.00
   13:40:16.332.05-Jan-2021   1.40 7311.00 3494.01 2996.09 77.85 7.00
   13:40:16.532.05-Jan-2021   1.60 7309.93 3494.01 2996.09 77.85 7.00
   13:40:16.732.05-Jan-2021   1.80 7310.21 3494.01 2996.09 77.85 7.00
   13:40:16.932.05-Jan-2021   2.00 7311.76 3494.01 2996.09 77.85 7.00
   13:40:17.132.05-Jan-2021   2.20 7311.76 3494.01 2996.09 77.85 7.00
   13:40:17.332.05-Jan-2021   2.40 7312.59 3494.01 2996.09 77.85 7.00
   13:40:17.532.05-Jan-2021   2.60 7313.04 3494.01 2996.09 77.85 7.00
   13:40:17.732.05-Jan-2021   2.80 7312.96 3494.01 2996.09 77.85 7.00
   13:40:17.933.05-Jan-2021   3.00 7312.63 3494.01 2996.09 77.85 7.00
   13:40:18.133.05-Jan-2021   3.20 7312.63 3494.01 2996.09 77.85 7.00
   13:40:18.333.05-Jan-2021   3.40 7310.64 3494.01 2996.09 77.85 7.00
   13:40:18.533.05-Jan-2021   3.60 7310.24 3494.01 2996.09 77.85 7.00
   13:40:18.733.05-Jan-2021   3.80 7309.80 3494.01 2996.09 77.85 7.00
   13:40:18.933.05-Jan-2021   4.00 7318.51 3494.01 2996.09 77.85 7.00
   13:40:19.133.05-Jan-2021   4.20 7318.51 3494.01 2996.09 77.85 7.00
   13:40:19.333.05-Jan-2021   4.40 7309.82 3494.01 2996.09 77.85 7.00
   13:40:19.533.05-Jan-2021   4.60 7309.13 3494.01 2996.09 77.85 7.00
   13:40:19.734.05-Jan-2021   4.80 7310.84 3494.01 2996.09 77.85 7.00
   13:40:19.934.05-Jan-2021   5.00 7310.83 3494.01 2996.09 77.85 7.00
   13:40:20.134.05-Jan-2021   5.20 7310.04 3494.01 2996.09 77.85 7.00
   13:40:20.334.05-Jan-2021   5.40 7310.38 3494.01 2996.09 77.85 7.00
   13:40:20.534.05-Jan-2021   5.60 7310.75 3494.01 2996.09 77.85 7.00
   13:40:20.734.05-Jan-2021   5.80 7311.00 3494.01 2996.09 77.85 7.00
   13:40:20.934.05-Jan-2021   6.00 7310.87 3494.01 2996.09 77.85 7.00
   13:40:21.134.05-Jan-2021   6.20 7310.87 3494.01 2996.09 77.85 7.00
   13:40:21.334.05-Jan-2021   6.40 7316.72 3494.01 2996.09 77.85 7.00
   13:40:21.535.05-Jan-2021   6.60 7314.42 3494.01 2996.09 77.85 7.00
   13:40:21.735.05-Jan-2021   6.80 7311.54 3494.01 2996.09 77.85 7.00
   13:40:21.935.05-Jan-2021   7.00 7312.33 3494.01 2996.09 77.85 7.00
   13:40:22.135.05-Jan-2021   7.20 7312.33 3494.01 2996.09 77.85 7.00
   13:40:22.335.05-Jan-2021   7.40 7319.86 3494.01 2996.09 77.85 7.00
   13:40:22.535.05-Jan-2021   7.60 7312.71 3494.01 2996.09 77.85 7.00
   13:40:22.735.05-Jan-2021   7.80 7313.14 3494.01 2996.09 77.85 7.00
   13:40:22.935.05-Jan-2021   8.00 7313.57 3494.01 2996.09 77.85 7.00
   13:40:23.135.05-Jan-2021   8.20 7318.33 3494.01 2996.09 77.85 7.00
   13:40:23.336.05-Jan-2021   8.40 7316.49 3494.01 2996.09 77.85 7.00
   13:40:23.536.05-Jan-2021   8.60 7314.17 3494.01 2996.09 77.85 7.00
   13:40:23.736.05-Jan-2021   8.80 7315.28 3494.01 2996.09 77.85 7.00
   13:40:23.936.05-Jan-2021   9.00 7315.62 3494.01 2996.09 77.85 7.00
   13:40:24.136.05-Jan-2021   9.21 7315.62 3494.01 2996.09 77.85 7.00
   13:40:24.336.05-Jan-2021   9.41 7318.85 3494.01 2996.09 77.85 7.00
   13:40:24.536.05-Jan-2021   9.61 7323.38 3494.01 2996.09 77.85 7.00
   13:40:24.736.05-Jan-2021   9.81 7322.23 3494.01 2996.09 77.85 7.00
   13:40:24.936.05-Jan-2021  10.01 7319.87 3494.01 2996.09 77.85 7.00
   13:40:25.137.05-Jan-2021  10.21 7319.87 3494.01 2996.09 77.85 7.00
   13:40:25.337.05-Jan-2021  10.41 7321.63 3494.01 2996.09 77.85 7.00
   13:40:25.537.05-Jan-2021  10.61 7321.45 3494.01 2996.09 77.85 7.00
   13:40:25.737.05-Jan-2021  10.81 7328.21 3494.01 2996.09 77.85 7.00
   13:40:25.937.05-Jan-2021  11.01 7322.84 3494.01 2996.09 77.85 7.00
   13:40:26.137.05-Jan-2021  11.21 7322.84 3494.01 2996.09 77.85 7.00
   13:40:26.337.05-Jan-2021  11.41 7322.16 3494.01 2996.09 77.85 7.00
   13:40:26.537.05-Jan-2021  11.61 7323.44 3494.01 2996.09 77.85 7.00
   13:40:26.737.05-Jan-2021  11.81 7323.54 3494.01 2996.09 77.85 7.00
   13:40:26.938.05-Jan-2021  12.01 7324.47 3494.01 2996.09 77.85 7.00
   13:40:27.138.05-Jan-2021  12.21 7324.47 3494.01 2996.09 77.85 7.00
   13:40:27.338.05-Jan-2021  12.41 7324.86 3494.01 2996.09 77.85 7.00
   13:40:27.538.05-Jan-2021  12.61 7324.46 3494.01 2996.09 77.85 7.00
   13:40:27.738.05-Jan-2021  12.81 7324.98 3494.01 2996.09 77.85 7.00
   13:40:27.938.05-Jan-2021  13.01 7324.40 3494.01 2996.09 77.85 7.00
   13:40:28.138.05-Jan-2021  13.21 7324.40 3494.01 2996.09 77.85 7.00
   13:40:28.338.05-Jan-2021  13.41 7324.66 3494.01 2996.09 77.85 7.00
   13:40:28.538.05-Jan-2021  13.61 7331.87 3494.01 2996.09 77.85 7.00
   13:40:28.739.05-Jan-2021  13.81 7323.50 3494.01 2996.09 77.85 7.00
   13:40:28.939.05-Jan-2021  14.01 7323.20 3494.01 2996.09 77.85 7.00
   13:40:29.139.05-Jan-2021  14.21 7323.20 3494.01 2996.09 77.85 7.00
   13:40:29.339.05-Jan-2021  14.41 7323.20 3494.01 2996.09 77.85 7.00
   13:40:29.539.05-Jan-2021  14.61 7323.57 3494.01 2996.09 77.85 7.00
   13:40:29.739.05-Jan-2021  14.81 7322.89 3494.01 2996.09 77.85 7.00
   13:40:29.939.05-Jan-2021  15.01 7323.92 3494.01 2996.09 77.85 7.00
   13:40:30.139.05-Jan-2021  15.21 7323.92 3494.01 2996.09 77.85 7.00
   13:40:30.339.05-Jan-2021  15.41 7325.84 3494.01 2996.09 77.85 7.00
   13:40:30.540.05-Jan-2021  15.61 7326.66 3494.01 2996.09 77.85 7.00
   13:40:30.740.05-Jan-2021  15.81 7324.41 3494.01 2996.09 77.85 7.00
   13:40:30.940.05-Jan-2021  16.01 7323.72 3494.01 2996.09 77.85 7.00
   13:40:31.140.05-Jan-2021  16.21 7323.72 3494.01 2996.09 77.85 7.00
   13:40:31.340.05-Jan-2021  16.41 7326.75 3494.01 2996.09 77.85 7.00
   13:40:31.540.05-Jan-2021  16.61 7323.42 3494.01 2996.09 77.85 7.00
   13:40:31.740.05-Jan-2021  16.81 7331.50 3494.01 2996.09 77.85 7.00
   13:40:31.940.05-Jan-2021  17.01 7323.21 3494.01 2996.09 77.85 7.00
   13:40:32.140.05-Jan-2021  17.21 7323.21 3494.01 2996.09 77.85 7.00
   13:40:32.341.05-Jan-2021  17.41 7324.41 3494.01 2996.09 77.85 7.00
   13:40:32.541.05-Jan-2021  17.61 7329.93 3494.01 2996.09 77.85 7.00
   13:40:32.741.05-Jan-2021  17.81 7328.22 3494.01 2996.09 77.85 7.00
   13:40:32.941.05-Jan-2021  18.01 7325.10 3494.01 2996.09 77.85 7.00
   13:40:33.141.05-Jan-2021  18.21 7325.10 3494.01 2996.09 77.85 7.00
   13:40:33.341.05-Jan-2021  18.41 7333.59 3494.01 2996.09 77.85 7.00
   13:40:33.541.05-Jan-2021  18.61 7327.97 3494.01 2996.09 77.85 7.00
   13:40:33.741.05-Jan-2021  18.81 7327.07 3494.01 2996.09 77.85 7.00
   13:40:33.941.05-Jan-2021  19.01 7333.90 3494.01 2996.09 77.85 7.00
   13:40:34.142.05-Jan-2021  19.21 7333.90 3494.01 2996.09 77.85 7.00
   13:40:34.342.05-Jan-2021  19.41 7328.02 3494.01 2996.09 77.85 7.00
   13:40:34.542.05-Jan-2021  19.61 7328.27 3494.01 2996.09 77.85 7.00
   13:40:34.742.05-Jan-2021  19.81 7329.71 3494.01 2996.09 77.85 7.00
   13:40:34.942.05-Jan-2021  20.01 7329.27 3494.01 2996.09 77.86 7.00
   13:40:35.142.05-Jan-2021  20.21 7329.27 3494.01 2996.09 77.86 7.00
   13:40:35.342.05-Jan-2021  20.41 7330.25 3494.01 2996.09 77.85 7.00
   13:40:35.542.05-Jan-2021  20.61 7329.99 3494.01 2996.09 77.86 7.00
   13:40:35.742.05-Jan-2021  20.81 7330.08 3494.01 2996.09 77.86 7.00
   13:40:35.943.05-Jan-2021  21.01 7330.57 3494.01 2996.09 77.86 7.00
   13:40:36.143.05-Jan-2021  21.21 7330.57 3494.01 2996.09 77.86 7.00
   13:40:36.343.05-Jan-2021  21.41 7332.46 3494.01 2996.09 77.86 7.00
   13:40:36.543.05-Jan-2021  21.61 7332.88 3494.01 2996.09 77.86 7.00
   13:40:36.743.05-Jan-2021  21.81 7340.13 3494.01 2996.09 77.86 7.00
   13:40:36.943.05-Jan-2021  22.01 7332.16 3494.01 2996.09 77.86 7.00
   13:40:37.143.05-Jan-2021  22.21 7332.16 3494.01 2996.09 77.86 7.00
   13:40:37.343.05-Jan-2021  22.41 7331.38 3494.01 2996.09 77.86 7.00
   13:40:37.543.05-Jan-2021  22.61 7331.78 3494.01 2996.09 77.86 7.00
   13:40:37.744.05-Jan-2021  22.81 7331.23 3494.01 2996.09 77.86 7.00
