~Version Information
 VERS.                  2.0:   CWLS log ASCII Standard -VERSION 2.0
 WRAP.                   NO:   One line per depth step
~Well Information Block
#MNEM.UNIT     VALUE/NAME     DESCRIPTION
#---------     -----------    ---------------------------
 STRT.S             05:14:37 05-Jan-21: START TIME 05:14:37 05-Jan-21
 STOP.S             05:24:42 05-Jan-21: STOP TIME  05:24:42 05-Jan-21
 STEP.S                   0.00: STEP TIME
 NULL.                 -999.25: NULL VALUE
 DFWT.                        :  DIST FWL TEXT
 DFST.                        :  DIST FSL TEXT
 DMF .             Drill Floor:  DRILL MEAS FROM
 STIM.      06.00.00 31-Dec-20:  START TIME
 DATE.      05.58.24 07-Jan-21:  END TIME
 SPUD.               24-Dec-20:  SPUD DATE
 NREF.                    Grid:  NORTH REFERENCE
 HPTY.       Minimum Curvature:  HOLE POS TYPE
 DMOD.             Drill Model:  DRILL MOD DESC
 SVYD.                  Survey:  SURVEY DESC
 ILTD.               Lithology:  INTERP LTH DESC
 FTOP.          Formation Tops:  FORM TOPS DESC
 SON .        AZ-XX-0906699554:  JOB NUMBER
 WELL.                    B09z:  WELL NAME
 PDAT.          Mean Sea Level:  PERMANENT DATUM
 FLD .                     ACG:  FIELD NAME
 CTRY.              Azerbaijan:  COUNTRY NAME
 COMP.     BP Exploration (Caspian Sea) Ltd.:  COMPANY
 UWI .                     N/A:  UNIQUE WELL IDENTIFIER
 API .                     N/A:  API NUMBER
 WTYP.                Deviated:  WELL TYPE
 MDS .        Operator Entered:  MAG DATA SOURCE
 BASE.              Azerbaijan:  LOGGING EQUIPMENT BASE LOCATION
 REGN.                   EESSA:  REGION
 PROV.                    Baku:  PROVINCE
 STAT.                    Baku:  STATE NAME
 SRVC.          Turan Drilling:  CONTRACTOR
 MWDS.                    Baku:  MWD SHOP
 JOBN.        AZ-XX-0906699554:  JOB TICKET NUMB
 RIG .           Central Azeri:  RIG NAME
 DOE .                     N/A:  DOE NUMBER
 DCON.         Sperry Drilling:  DIRECTNL CONTR
 UNIT.                     N/A:  LOGGING EQUIPMENT ID
 CNTY.                        :  COUNTY
 LOC .                        :  LOCATION
 LMF .             Drill Floor:  LOG MEASURED FROM
 TVDS.m                  43.29:  TVDSS CORRECTN
 LATI.deg                40.03:  LATITUDE
 LONG.deg                51.35:  LONGITUDE
 WHNS.m                  -2.76:  WELL HEAD N/S
 WHEW.m                  -7.70:  WELL HEAD E/W
 UTMX.m              530128.28:  UTM X
 UTMY.m             4433192.49:  UTM Y
 DFWL.m                   0.00:  DISTANCE FWL
 DFSL.m                   0.00:  DISTANCE FSL
 SDEP.m                3435.01:  START DEPTH
 TDD .m                3814.01:  TOTAL DEPTH (DRILLER)
 VSDR.deg               352.80:  VERT SEC DIRECT
 GVFD.g                   1.00:  GRAVITY FIELD
 MFLD.nT              50303.00:  MAGNETIC FIELD
 MDIP.deg                59.52:  MAGNETIC DIP
 MDEC.deg                 6.47:  MAGNETIC DECL
 GRDC.deg                 0.23:  GRID CORRECTION
 AZTC.deg                 6.24:  AZM TOTAL CORR
 EPD .m                   0.00:  ELEVATION
 EGL .m                   0.00:  GROUND ELEVATION
 WDMS.m                 128.20:  WD ELEV
 APD .m                  43.29:  DEPTH ABOVE PD
 DEP .m                3421.30:  DEPTH
 AGAP.m                  43.60:  AIR GAP
 VSEW.m                  -7.70:  VERT SEC E/W
 VSNS.m                  -2.76:  VERT SEC N/S
 EKB .m                   0.00:  KB ELEVATION
 EDF .m                  43.29:  DF ELEVATION
 TDL .m                 369.00:  TOTAL DEPTH (LOGGER)
 VSC .                       0:  VS TO CLOSURE
 MAGU.                 1850390:  MAGUTM CHECKSUM
~Parameter Information Block
#MNEM.UNIT       Value        Description
#---------     -----------    ---------------------------
 AV  .mps                 2.80:  Ann Velocity 
 AVMX.mps                 4.67:  Max Ann Veloc 
 AZIF.deg               303.89:  Azm, Final 
 BHAT.        Rotary Steerable:  BHA Type 
 BREV.rev            128542.00:  Rev Bit Total 
 BROT.°/30m               1.50:  Build Rotating 
 BS  .in                  8.50:  Bit Size 
 BSZ .in                  8.50:  Bit Size 
 BTPL.psig              715.00:  Bit Press Loss 
 CABU.                      No:  Customer Abuse 
 COMM.                     ¼Ûƒ:  Run Comments 1 
 TCS .hr                 53.00:  Time Ciculation Ended 
 CV  .mps                 3.85:  Crit Velocity 
 CVMX.mps                 4.75:  Max Crit Veloc 
 DD1 .         Intigam Rahimov:  Direct Drillr 1 
 DDSV.                 iCruise:  DD Service 
 DEFF.%                  98.60:  % Det Eff 
 DLRX.°/30m               2.34:  Dogleg Rot Max 
 DLSO.°/30m               0.00:  Dogleg Oriented 
 DLSX.°/30m               0.00:  Dogleg Str Max 
 DRET.      00.15.00 05-Jan-21:  Drill End Time 
 DRST.      22.00.00 03-Jan-21:  Drill Start Tim 
 DTIM.hr                 17.72:  Time Drilling 
 EDEP.m                3814.01:  End Depth 
 ENG1.         Yevgeniy Ulikov:  Engineer 1 
 ENG2.        Farkhad Khalidov:  Engineer 2 
 ENG3.           Samir Gafarov:  Engineer 3 
 ETIM.      21.00.00 07-Jan-21:  End Time 
 FLOI.gpm               590.00:  Flow In 
 FLON.gpm               580.00:  Flow In Min 
 FLOS.cptm                1.00:  Fluid Loss 
 FLOX.gpm               595.00:  Flow In Max 
 FTRO.     Connectivity, Formation Presure:  FTWD Run Obj 
 HFLO.                      No:  High Flow 
 HPRE.                     Yes:  High Pressure 
 HTEM.                      No:  High Temp 
 HYDO.m                   1.80:  Hydro Offset 
 IFIN.deg                63.76:  Inc, Final 
 IMAX.deg                64.09:  Inc Max 
 IMIN.deg                55.81:  Inc Min 
 IMND.m                3455.62:  Inc Min Depth 
 IMXD.m                3796.03:  Inc Max Depth 
 JARR.                      No:  Jarring 
 LETM.      00.15.00 05-Jan-21:  Log End Time 
 LOST.hr                     0:  Lost Rig Time 
 LSTM.      22.00.00 03-Jan-21:  Log Start Time 
 MDCL.ppm             36000.00:  Mud Chlorides 
 MDES.     Inversion Oil/Synthetic:  Mud Desc 
 DFD .sg                  1.51:  Mud Density 
 MDMN.sg                  1.51:  Dens Mud Min 
 MDMX.sg                  1.51:  Dens Mud Max 
 MOIL.                    55.5:  Run Mud Oil % 
 MOWR.                   70:30:  Run Mud OWR 
 MSND.                     0.1:  Run Mud Sand % 
 MSOL.                   20.77:  Run Mud Solids% 
 DFV .spqt               67.00:  Mud Viscosity 
 MWOD.in                  6.75:  MWD Tool OD 
 MWSI.                      No:  Serv Intrp, MWD 
 OTIM.hr                113.53:  Time Operating 
 PCON.           Look Like New:  Pad Condition 
 PMAX.psia             4830.00:  Press Op, Max 
 PV  .cP                 29.00:  Mud PV 
 RUN .                     300:  Run Number 
 ROPA.m/hr               22.00:  ROP Avg 
 ROPN.m/hr               18.00:  ROP Min 
 ROPX.m/hr               25.00:  ROP Max 
 RPMA.rpm               130.00:  RPM Surface Avg 
 RPMN.rpm                80.00:  RPM Surface Min 
 RPMX.rpm               140.00:  RPM Surface Max 
 RRUN.                    L101:  Rig Run Number 
 RTIM.hr                  9.28:  Time Reaming 
 SAZI.deg               316.55:  Azm, Start 
 SDEP.m                3445.01:  Start Depth 
 SIDD.                      No:  Serv Intrp, DD 
 SINC.deg                55.81:  Inc, Start 
 SPPA.psig             4500.00:  SPP Avg 
 SPPN.psig             4350.00:  SPP Min 
 SPPX.psig             4830.00:  SPP Max 
 STIM.      00.00.00 03-Jan-21:  Start Time 
 SVCS.                 DD, MWD:  Services 
 SVER.                    9.20:  Sperry Version 
 TDAT.m                 369.00:  Tot Depth Attmp 
 TDDF.                      No:  Trip for DD 
 TDLG.m                 369.00:  Tot Depth Loggd 
 TFF .                      No:  Trip for Fail 
 TQAA.f-kp               15.00:  Torque Abs Avg 
 TQAN.f-kp               12.00:  Torque Abs Min 
 TQAX.f-kp               16.00:  Torque Abs Max 
 TRRT.°/30m              -2.10:  Turn Rotating 
 MRT .                    HCIM:  Maximum Recorded Temperature 
 TTMX.degC               92.16:  Max Tool Temp 
 VS01.                90627822:  Virtual Str1 SN 
 VS02.                90550008:  Virtual Str2 SN 
 VS03.                90627816:  Virtual Str3 SN 
 VS04.                90633205:  Virtual Str4 SN 
 VS05.                13033835:  Virtual Str5 SN 
 VS06.                11125125:  Virtual Str6 SN 
 WBMN.klb                 8.00:  WOB Min 
 WITN.            Bruce Cheyne:  Customer Rep 
 WITN.           Faig Mammadov:  Customer Rep 2 
 WOBA.klb                 9.00:  WOB Avg 
 WOBX.klb                12.00:  WOB Max 
 YP  .lhf2               30.00:  Yield Point 
~Curve Information Block
#MNEM.UNIT                 API CODE     Curve Description
#---------               -----------    ---------------------------
 TIME.HHMMSS            00 000 000 000:  GT Time & Date
 GTET.sec               00 000 000 000:  GT Elapsed Test Time
 GTPQH.psia             00 000 000 000:  GT HR Quartz Pressure
 GTDEPTH.m              00 000 000 000:  GT Depth
 GTTVD.m                00 000 000 000:  GT True Vertical Depth
 GTTQ.degC              00 000 000 000:  GT Quartz Temperature
 GTTN.NONE              00 000 000 000:  GT Test Number
#Other Information
#
#WARRANTY: Halliburton will use its best efforts to furnish customers with 
#accurate information and interpretations that are part of, and incident to, the services 
#provided.  However, Halliburton cannot and does not warrant the accuracy 
#or correctness of such information and interpretations.  Under no circumstances should any 
#such information or interpretation be relied upon as the sole basis for any drilling, 
#completion, production, or financial decision or any procedure involving any risk to the 
#safety of any drilling venture, drilling rig or its crew or any other third party.  The 
#Customer has full responsibility for all drilling, completion and production operation.  
#Halliburton makes no representations or warranties, either expressed or 
#implied, including, but not limited to, the implied warranties of merchantability or fitness 
#for a particular purpose, with respect to the services rendered.  In no event will 
#Halliburton be liable for failure to obtain any particular results or for 
#any damages, including, but not limited to, indirect, special or consequential damages, 
#resulting from the use of any information or interpretation provided by Halliburton.
#
~A           TIME            GTET   GTPQH  GTDEPTH  GTTVD  GTTQ  GTTN 
# ...
   05:21:31.000.05-Jan-2021 414.00 7528.70 3765.01 3128.52 84.72 1.00
   05:21:31.200.05-Jan-2021 414.20 7528.70 3765.01 3128.52 84.72 1.00
   05:21:31.400.05-Jan-2021 414.40 7532.76 3765.01 3128.52 84.72 1.00
   05:21:31.600.05-Jan-2021 414.60 7528.29 3765.01 3128.52 84.72 1.00
   05:21:31.800.05-Jan-2021 414.80 7539.24 3765.01 3128.52 84.72 1.00
   05:21:32.000.05-Jan-2021 415.00 7531.50 3765.01 3128.52 84.72 1.00
   05:21:32.200.05-Jan-2021 415.20 7531.50 3765.01 3128.52 84.72 1.00
   05:21:32.400.05-Jan-2021 415.40 7531.41 3765.01 3128.52 84.72 1.00
   05:21:32.600.05-Jan-2021 415.60 7540.79 3765.01 3128.52 84.72 1.00
   05:21:32.800.05-Jan-2021 415.80 7530.81 3765.01 3128.52 84.72 1.00
   05:21:33.000.05-Jan-2021 416.00 7527.30 3765.01 3128.52 84.72 1.00
   05:21:33.200.05-Jan-2021 416.20 7527.30 3765.01 3128.52 84.72 1.00
   05:21:33.400.05-Jan-2021 416.40 7539.77 3765.01 3128.52 84.72 1.00
   05:21:33.600.05-Jan-2021 416.60 7533.64 3765.01 3128.52 84.72 1.00
   05:21:33.800.05-Jan-2021 416.80 7528.85 3765.01 3128.52 84.72 1.00
   05:21:34.000.05-Jan-2021 417.00 7536.56 3765.01 3128.52 84.72 1.00
   05:21:34.200.05-Jan-2021 417.20 7536.56 3765.01 3128.52 84.72 1.00
   05:21:34.400.05-Jan-2021 417.40 7529.80 3765.01 3128.52 84.72 1.00
   05:21:34.600.05-Jan-2021 417.60 7530.27 3765.01 3128.52 84.72 1.00
   05:21:34.800.05-Jan-2021 417.80 7532.32 3765.01 3128.52 84.72 1.00
   05:21:35.000.05-Jan-2021 418.00 7534.14 3765.01 3128.52 84.72 1.00
   05:21:35.200.05-Jan-2021 418.20 7534.14 3765.01 3128.52 84.72 1.00
   05:21:35.400.05-Jan-2021 418.40 7530.82 3765.01 3128.52 84.72 1.00
   05:21:35.600.05-Jan-2021 418.60 7531.06 3765.01 3128.52 84.72 1.00
   05:21:35.800.05-Jan-2021 418.80 7532.85 3765.01 3128.52 84.72 1.00
   05:21:36.000.05-Jan-2021 419.00 7531.18 3765.01 3128.52 84.72 1.00
   05:21:36.200.05-Jan-2021 419.20 7531.18 3765.01 3128.52 84.72 1.00
   05:21:36.400.05-Jan-2021 419.40 7529.67 3765.01 3128.52 84.72 1.00
   05:21:36.600.05-Jan-2021 419.60 7531.03 3765.01 3128.52 84.72 1.00
   05:21:36.800.05-Jan-2021 419.80 7531.96 3765.01 3128.52 84.72 1.00
   05:21:37.000.05-Jan-2021 420.00 7540.95 3765.01 3128.52 84.72 1.00
   05:21:37.200.05-Jan-2021 420.20 7540.95 3765.01 3128.52 84.72 1.00
   05:21:37.400.05-Jan-2021 420.40 7529.03 3765.01 3128.52 84.72 1.00
   05:21:37.600.05-Jan-2021 420.60 7532.92 3765.01 3128.52 84.72 1.00
   05:21:37.800.05-Jan-2021 420.80 7534.17 3765.01 3128.52 84.72 1.00
   05:21:38.000.05-Jan-2021 421.00 7531.87 3765.01 3128.52 84.72 1.00
   05:21:38.200.05-Jan-2021 421.20 7531.87 3765.01 3128.52 84.72 1.00
   05:21:38.400.05-Jan-2021 421.40 7532.30 3765.01 3128.52 84.72 1.00
   05:21:38.600.05-Jan-2021 421.60 7531.38 3765.01 3128.52 84.72 1.00
   05:21:38.800.05-Jan-2021 421.80 7530.71 3765.01 3128.52 84.72 1.00
   05:21:39.000.05-Jan-2021 422.00 7529.86 3765.01 3128.52 84.72 1.00
   05:21:39.200.05-Jan-2021 422.20 7529.86 3765.01 3128.52 84.72 1.00
   05:21:39.400.05-Jan-2021 422.40 7530.01 3765.01 3128.52 84.72 1.00
   05:21:39.600.05-Jan-2021 422.60 7542.62 3765.01 3128.52 84.72 1.00
   05:21:39.800.05-Jan-2021 422.80 7527.74 3765.01 3128.52 84.72 1.00
   05:21:40.000.05-Jan-2021 423.00 7531.77 3765.01 3128.52 84.72 1.00
   05:21:40.200.05-Jan-2021 423.20 7531.77 3765.01 3128.52 84.72 1.00
   05:21:40.400.05-Jan-2021 423.40 7530.78 3765.01 3128.52 84.72 1.00
   05:21:40.600.05-Jan-2021 423.60 7530.70 3765.01 3128.52 84.72 1.00
   05:21:40.800.05-Jan-2021 423.80 7530.61 3765.01 3128.52 84.72 1.00
   05:21:41.000.05-Jan-2021 424.00 7541.07 3765.01 3128.52 84.72 1.00
   05:21:41.200.05-Jan-2021 424.20 7541.07 3765.01 3128.52 84.72 1.00
   05:21:41.400.05-Jan-2021 424.40 7528.68 3765.01 3128.52 84.72 1.00
   05:21:41.600.05-Jan-2021 424.60 7530.22 3765.01 3128.52 84.72 1.00
   05:21:41.800.05-Jan-2021 424.80 7548.86 3765.01 3128.52 84.72 1.00
   05:21:42.000.05-Jan-2021 425.00 7527.35 3765.01 3128.52 84.72 1.00
   05:21:42.200.05-Jan-2021 425.20 7527.35 3765.01 3128.52 84.72 1.00
   05:21:42.400.05-Jan-2021 425.40 7535.81 3765.01 3128.52 84.72 1.00
   05:21:42.600.05-Jan-2021 425.60 7541.53 3765.01 3128.52 84.72 1.00
   05:21:42.800.05-Jan-2021 425.80 7531.25 3765.01 3128.52 84.72 1.00
   05:21:43.000.05-Jan-2021 426.00 7531.35 3765.01 3128.52 84.72 1.00
   05:21:43.200.05-Jan-2021 426.20 7531.35 3765.01 3128.52 84.72 1.00
   05:21:43.400.05-Jan-2021 426.40 7534.46 3765.01 3128.52 84.72 1.00
   05:21:43.600.05-Jan-2021 426.60 7532.66 3765.01 3128.52 84.72 1.00
   05:21:43.800.05-Jan-2021 426.80 7532.08 3765.01 3128.52 84.72 1.00
   05:21:44.000.05-Jan-2021 427.00 7531.05 3765.01 3128.52 84.72 1.00
   05:21:44.200.05-Jan-2021 427.20 7531.05 3765.01 3128.52 84.72 1.00
   05:21:44.400.05-Jan-2021 427.40 7532.94 3765.01 3128.52 84.72 1.00
   05:21:44.600.05-Jan-2021 427.60 7531.56 3765.01 3128.52 84.72 1.00
   05:21:44.800.05-Jan-2021 427.80 7530.26 3765.01 3128.52 84.72 1.00
   05:21:45.000.05-Jan-2021 428.00 7530.11 3765.01 3128.52 84.72 1.00
   05:21:45.200.05-Jan-2021 428.20 7530.11 3765.01 3128.52 84.72 1.00
   05:21:45.400.05-Jan-2021 428.40 7540.33 3765.01 3128.52 84.72 1.00
   05:21:45.600.05-Jan-2021 428.60 7532.83 3765.01 3128.52 84.72 1.00
   05:21:45.800.05-Jan-2021 428.80 7527.92 3765.01 3128.52 84.72 1.00
   05:21:46.000.05-Jan-2021 429.00 7531.93 3765.01 3128.52 84.72 1.00
   05:21:46.200.05-Jan-2021 429.20 7531.93 3765.01 3128.52 84.72 1.00
   05:21:46.400.05-Jan-2021 429.40 7531.17 3765.01 3128.52 84.72 1.00
   05:21:46.600.05-Jan-2021 429.60 7528.52 3765.01 3128.52 84.72 1.00
   05:21:46.800.05-Jan-2021 429.80 7531.05 3765.01 3128.52 84.72 1.00
   05:21:47.000.05-Jan-2021 430.00 7531.28 3765.01 3128.52 84.72 1.00
   05:21:47.200.05-Jan-2021 430.20 7531.28 3765.01 3128.52 84.72 1.00
   05:21:47.400.05-Jan-2021 430.40 7528.99 3765.01 3128.52 84.72 1.00
   05:21:47.600.05-Jan-2021 430.60 7529.74 3765.01 3128.52 84.72 1.00
   05:21:47.800.05-Jan-2021 430.80 7529.59 3765.01 3128.52 84.72 1.00
   05:21:48.000.05-Jan-2021 431.00 7541.27 3765.01 3128.52 84.72 1.00
   05:21:48.200.05-Jan-2021 431.20 7541.27 3765.01 3128.52 84.72 1.00
   05:21:48.400.05-Jan-2021 431.40 7529.34 3765.01 3128.52 84.72 1.00
   05:21:48.600.05-Jan-2021 431.60 7540.87 3765.01 3128.52 84.72 1.00
   05:21:48.800.05-Jan-2021 431.80 7529.29 3765.01 3128.52 84.72 1.00
   05:21:49.000.05-Jan-2021 432.00 7529.43 3765.01 3128.52 84.72 1.00
   05:21:49.200.05-Jan-2021 432.20 7529.43 3765.01 3128.52 84.72 1.00
   05:21:49.400.05-Jan-2021 432.40 7543.10 3765.01 3128.52 84.72 1.00
   05:21:49.600.05-Jan-2021 432.60 7531.22 3765.01 3128.52 84.72 1.00
   05:21:49.800.05-Jan-2021 432.80 7528.51 3765.01 3128.52 84.72 1.00
   05:21:50.000.05-Jan-2021 433.00 7530.49 3765.01 3128.52 84.72 1.00
   05:21:50.200.05-Jan-2021 433.20 7530.49 3765.01 3128.52 84.72 1.00
   05:21:50.400.05-Jan-2021 433.40 7541.69 3765.01 3128.52 84.72 1.00
   05:21:50.600.05-Jan-2021 433.60 7530.13 3765.01 3128.52 84.72 1.00
   05:21:50.800.05-Jan-2021 433.80 7529.55 3765.01 3128.52 84.72 1.00
   05:21:51.000.05-Jan-2021 434.00 7538.20 3765.01 3128.52 84.72 1.00
   05:21:51.200.05-Jan-2021 434.20 7538.20 3765.01 3128.52 84.72 1.00
   05:21:51.400.05-Jan-2021 434.40 7530.60 3765.01 3128.52 84.72 1.00
   05:21:51.600.05-Jan-2021 434.60 7530.51 3765.01 3128.52 84.72 1.00
   05:21:51.800.05-Jan-2021 434.80 7534.44 3765.01 3128.52 84.72 1.00
   05:21:52.000.05-Jan-2021 435.00 7532.61 3765.01 3128.52 84.72 1.00
   05:21:52.200.05-Jan-2021 435.20 7532.61 3765.01 3128.52 84.72 1.00
   05:21:52.400.05-Jan-2021 435.40 7530.19 3765.01 3128.52 84.72 1.00
   05:21:52.600.05-Jan-2021 435.60 7531.62 3765.01 3128.52 84.72 1.00
   05:21:52.800.05-Jan-2021 435.80 7531.94 3765.01 3128.52 84.72 1.00
   05:21:53.000.05-Jan-2021 436.00 7530.40 3765.01 3128.52 84.72 1.00
   05:21:53.200.05-Jan-2021 436.20 7530.40 3765.01 3128.52 84.72 1.00
   05:21:53.400.05-Jan-2021 436.40 7529.29 3765.01 3128.52 84.72 1.00
   05:21:53.600.05-Jan-2021 436.60 7531.52 3765.01 3128.52 84.72 1.00
   05:21:53.800.05-Jan-2021 436.80 7542.63 3765.01 3128.52 84.72 1.00
