~Version Information
 VERS.                  2.0:   CWLS log ASCII Standard -VERSION 2.0
 WRAP.                   NO:   One line per depth step
~Well Information Block
#MNEM.UNIT     VALUE/NAME     DESCRIPTION
#---------     -----------    ---------------------------
 STRT.S             08:46:17 05-Jan-21: START TIME 08:46:17 05-Jan-21
 STOP.S             08:54:30 05-Jan-21: STOP TIME  08:54:30 05-Jan-21
 STEP.S                   0.00: STEP TIME
 NULL.                 -999.25: NULL VALUE
 DFWT.                        :  DIST FWL TEXT
 DFST.                        :  DIST FSL TEXT
 DMF .             Drill Floor:  DRILL MEAS FROM
 STIM.      06.00.00 31-Dec-20:  START TIME
 DATE.      05.58.24 07-Jan-21:  END TIME
 SPUD.               24-Dec-20:  SPUD DATE
 NREF.                    Grid:  NORTH REFERENCE
 HPTY.       Minimum Curvature:  HOLE POS TYPE
 DMOD.             Drill Model:  DRILL MOD DESC
 SVYD.                  Survey:  SURVEY DESC
 ILTD.               Lithology:  INTERP LTH DESC
 FTOP.          Formation Tops:  FORM TOPS DESC
 SON .        AZ-XX-0906699554:  JOB NUMBER
 WELL.                    B09z:  WELL NAME
 PDAT.          Mean Sea Level:  PERMANENT DATUM
 FLD .                     ACG:  FIELD NAME
 CTRY.              Azerbaijan:  COUNTRY NAME
 COMP.     BP Exploration (Caspian Sea) Ltd.:  COMPANY
 UWI .                     N/A:  UNIQUE WELL IDENTIFIER
 API .                     N/A:  API NUMBER
 WTYP.                Deviated:  WELL TYPE
 MDS .        Operator Entered:  MAG DATA SOURCE
 BASE.              Azerbaijan:  LOGGING EQUIPMENT BASE LOCATION
 REGN.                   EESSA:  REGION
 PROV.                    Baku:  PROVINCE
 STAT.                    Baku:  STATE NAME
 SRVC.          Turan Drilling:  CONTRACTOR
 MWDS.                    Baku:  MWD SHOP
 JOBN.        AZ-XX-0906699554:  JOB TICKET NUMB
 RIG .           Central Azeri:  RIG NAME
 DOE .                     N/A:  DOE NUMBER
 DCON.         Sperry Drilling:  DIRECTNL CONTR
 UNIT.                     N/A:  LOGGING EQUIPMENT ID
 CNTY.                        :  COUNTY
 LOC .                        :  LOCATION
 LMF .             Drill Floor:  LOG MEASURED FROM
 TVDS.m                  43.29:  TVDSS CORRECTN
 LATI.deg                40.03:  LATITUDE
 LONG.deg                51.35:  LONGITUDE
 WHNS.m                  -2.76:  WELL HEAD N/S
 WHEW.m                  -7.70:  WELL HEAD E/W
 UTMX.m              530128.28:  UTM X
 UTMY.m             4433192.49:  UTM Y
 DFWL.m                   0.00:  DISTANCE FWL
 DFSL.m                   0.00:  DISTANCE FSL
 SDEP.m                3435.01:  START DEPTH
 TDD .m                3814.01:  TOTAL DEPTH (DRILLER)
 VSDR.deg               352.80:  VERT SEC DIRECT
 GVFD.g                   1.00:  GRAVITY FIELD
 MFLD.nT              50303.00:  MAGNETIC FIELD
 MDIP.deg                59.52:  MAGNETIC DIP
 MDEC.deg                 6.47:  MAGNETIC DECL
 GRDC.deg                 0.23:  GRID CORRECTION
 AZTC.deg                 6.24:  AZM TOTAL CORR
 EPD .m                   0.00:  ELEVATION
 EGL .m                   0.00:  GROUND ELEVATION
 WDMS.m                 128.20:  WD ELEV
 APD .m                  43.29:  DEPTH ABOVE PD
 DEP .m                3421.30:  DEPTH
 AGAP.m                  43.60:  AIR GAP
 VSEW.m                  -7.70:  VERT SEC E/W
 VSNS.m                  -2.76:  VERT SEC N/S
 EKB .m                   0.00:  KB ELEVATION
 EDF .m                  43.29:  DF ELEVATION
 TDL .m                 369.00:  TOTAL DEPTH (LOGGER)
 VSC .                       0:  VS TO CLOSURE
 MAGU.                 1850390:  MAGUTM CHECKSUM
~Parameter Information Block
#MNEM.UNIT       Value        Description
#---------     -----------    ---------------------------
 AV  .mps                 2.80:  Ann Velocity 
 AVMX.mps                 4.67:  Max Ann Veloc 
 AZIF.deg               303.89:  Azm, Final 
 BHAT.        Rotary Steerable:  BHA Type 
 BREV.rev            128542.00:  Rev Bit Total 
 BROT.°/30m               1.50:  Build Rotating 
 BS  .in                  8.50:  Bit Size 
 BSZ .in                  8.50:  Bit Size 
 BTPL.psig              715.00:  Bit Press Loss 
 CABU.                      No:  Customer Abuse 
 COMM.                     Œã}:  Run Comments 1 
 TCS .hr                 53.00:  Time Ciculation Ended 
 CV  .mps                 3.85:  Crit Velocity 
 CVMX.mps                 4.75:  Max Crit Veloc 
 DD1 .         Intigam Rahimov:  Direct Drillr 1 
 DDSV.                 iCruise:  DD Service 
 DEFF.%                  98.60:  % Det Eff 
 DLRX.°/30m               2.34:  Dogleg Rot Max 
 DLSO.°/30m               0.00:  Dogleg Oriented 
 DLSX.°/30m               0.00:  Dogleg Str Max 
 DRET.      00.15.00 05-Jan-21:  Drill End Time 
 DRST.      22.00.00 03-Jan-21:  Drill Start Tim 
 DTIM.hr                 17.72:  Time Drilling 
 EDEP.m                3814.01:  End Depth 
 ENG1.         Yevgeniy Ulikov:  Engineer 1 
 ENG2.        Farkhad Khalidov:  Engineer 2 
 ENG3.           Samir Gafarov:  Engineer 3 
 ETIM.      21.00.00 07-Jan-21:  End Time 
 FLOI.gpm               590.00:  Flow In 
 FLON.gpm               580.00:  Flow In Min 
 FLOS.cptm                1.00:  Fluid Loss 
 FLOX.gpm               595.00:  Flow In Max 
 FTRO.     Connectivity, Formation Presure:  FTWD Run Obj 
 HFLO.                      No:  High Flow 
 HPRE.                     Yes:  High Pressure 
 HTEM.                      No:  High Temp 
 HYDO.m                   1.80:  Hydro Offset 
 IFIN.deg                63.76:  Inc, Final 
 IMAX.deg                64.09:  Inc Max 
 IMIN.deg                55.81:  Inc Min 
 IMND.m                3455.62:  Inc Min Depth 
 IMXD.m                3796.03:  Inc Max Depth 
 JARR.                      No:  Jarring 
 LETM.      00.15.00 05-Jan-21:  Log End Time 
 LOST.hr                     0:  Lost Rig Time 
 LSTM.      22.00.00 03-Jan-21:  Log Start Time 
 MDCL.ppm             36000.00:  Mud Chlorides 
 MDES.     Inversion Oil/Synthetic:  Mud Desc 
 DFD .sg                  1.51:  Mud Density 
 MDMN.sg                  1.51:  Dens Mud Min 
 MDMX.sg                  1.51:  Dens Mud Max 
 MOIL.                    55.5:  Run Mud Oil % 
 MOWR.                   70:30:  Run Mud OWR 
 MSND.                     0.1:  Run Mud Sand % 
 MSOL.                   20.77:  Run Mud Solids% 
 DFV .spqt               67.00:  Mud Viscosity 
 MWOD.in                  6.75:  MWD Tool OD 
 MWSI.                      No:  Serv Intrp, MWD 
 OTIM.hr                113.53:  Time Operating 
 PCON.           Look Like New:  Pad Condition 
 PMAX.psia             4830.00:  Press Op, Max 
 PV  .cP                 29.00:  Mud PV 
 RUN .                     300:  Run Number 
 ROPA.m/hr               22.00:  ROP Avg 
 ROPN.m/hr               18.00:  ROP Min 
 ROPX.m/hr               25.00:  ROP Max 
 RPMA.rpm               130.00:  RPM Surface Avg 
 RPMN.rpm                80.00:  RPM Surface Min 
 RPMX.rpm               140.00:  RPM Surface Max 
 RRUN.                    L101:  Rig Run Number 
 RTIM.hr                  9.28:  Time Reaming 
 SAZI.deg               316.55:  Azm, Start 
 SDEP.m                3445.01:  Start Depth 
 SIDD.                      No:  Serv Intrp, DD 
 SINC.deg                55.81:  Inc, Start 
 SPPA.psig             4500.00:  SPP Avg 
 SPPN.psig             4350.00:  SPP Min 
 SPPX.psig             4830.00:  SPP Max 
 STIM.      00.00.00 03-Jan-21:  Start Time 
 SVCS.                 DD, MWD:  Services 
 SVER.                    9.20:  Sperry Version 
 TDAT.m                 369.00:  Tot Depth Attmp 
 TDDF.                      No:  Trip for DD 
 TDLG.m                 369.00:  Tot Depth Loggd 
 TFF .                      No:  Trip for Fail 
 TQAA.f-kp               15.00:  Torque Abs Avg 
 TQAN.f-kp               12.00:  Torque Abs Min 
 TQAX.f-kp               16.00:  Torque Abs Max 
 TRRT.°/30m              -2.10:  Turn Rotating 
 MRT .                    HCIM:  Maximum Recorded Temperature 
 TTMX.degC               92.16:  Max Tool Temp 
 VS01.                90627822:  Virtual Str1 SN 
 VS02.                90550008:  Virtual Str2 SN 
 VS03.                90627816:  Virtual Str3 SN 
 VS04.                90633205:  Virtual Str4 SN 
 VS05.                13033835:  Virtual Str5 SN 
 VS06.                11125125:  Virtual Str6 SN 
 WBMN.klb                 8.00:  WOB Min 
 WITN.            Bruce Cheyne:  Customer Rep 
 WITN.           Faig Mammadov:  Customer Rep 2 
 WOBA.klb                 9.00:  WOB Avg 
 WOBX.klb                12.00:  WOB Max 
 YP  .lhf2               30.00:  Yield Point 
~Curve Information Block
#MNEM.UNIT                 API CODE     Curve Description
#---------               -----------    ---------------------------
 TIME.HHMMSS            00 000 000 000:  GT Time & Date
 GTET.sec               00 000 000 000:  GT Elapsed Test Time
 GTPQH.psia             00 000 000 000:  GT HR Quartz Pressure
 GTDEPTH.m              00 000 000 000:  GT Depth
 GTTVD.m                00 000 000 000:  GT True Vertical Depth
 GTTQ.degC              00 000 000 000:  GT Quartz Temperature
 GTTN.NONE              00 000 000 000:  GT Test Number
#Other Information
#
#WARRANTY: Halliburton will use its best efforts to furnish customers with 
#accurate information and interpretations that are part of, and incident to, the services 
#provided.  However, Halliburton cannot and does not warrant the accuracy 
#or correctness of such information and interpretations.  Under no circumstances should any 
#such information or interpretation be relied upon as the sole basis for any drilling, 
#completion, production, or financial decision or any procedure involving any risk to the 
#safety of any drilling venture, drilling rig or its crew or any other third party.  The 
#Customer has full responsibility for all drilling, completion and production operation.  
#Halliburton makes no representations or warranties, either expressed or 
#implied, including, but not limited to, the implied warranties of merchantability or fitness 
#for a particular purpose, with respect to the services rendered.  In no event will 
#Halliburton be liable for failure to obtain any particular results or for 
#any damages, including, but not limited to, indirect, special or consequential damages, 
#resulting from the use of any information or interpretation provided by Halliburton.
#
~A           TIME            GTET   GTPQH  GTDEPTH  GTTVD  GTTQ  GTTN 
# ...
   08:47:27.023.05-Jan-2021  69.03 4605.42 3625.51 3064.84 80.18 6.00
   08:47:27.223.05-Jan-2021  69.23 4605.42 3625.51 3064.84 80.18 6.00
   08:47:27.424.05-Jan-2021  69.43 4605.53 3625.51 3064.84 80.18 6.00
   08:47:27.624.05-Jan-2021  69.63 4605.50 3625.51 3064.84 80.18 6.00
   08:47:27.824.05-Jan-2021  69.83 4605.45 3625.51 3064.84 80.18 6.00
   08:47:28.024.05-Jan-2021  70.03 4605.49 3625.51 3064.84 80.18 6.00
   08:47:28.224.05-Jan-2021  70.23 4605.49 3625.51 3064.84 80.18 6.00
   08:47:28.424.05-Jan-2021  70.43 4604.98 3625.51 3064.84 80.18 6.00
   08:47:28.624.05-Jan-2021  70.63 4605.62 3625.51 3064.84 80.18 6.00
   08:47:28.824.05-Jan-2021  70.83 4605.68 3625.51 3064.84 80.18 6.00
   08:47:29.024.05-Jan-2021  71.03 4605.73 3625.51 3064.84 80.18 6.00
   08:47:29.224.05-Jan-2021  71.23 4605.50 3625.51 3064.84 80.18 6.00
   08:47:29.424.05-Jan-2021  71.43 4605.58 3625.51 3064.84 80.18 6.00
   08:47:29.624.05-Jan-2021  71.63 4605.45 3625.51 3064.84 80.18 6.00
   08:47:29.824.05-Jan-2021  71.83 4605.54 3625.51 3064.84 80.18 6.00
   08:47:30.025.05-Jan-2021  72.03 4605.57 3625.51 3064.84 80.18 6.00
   08:47:30.225.05-Jan-2021  72.23 4605.57 3625.51 3064.84 80.18 6.00
   08:47:30.425.05-Jan-2021  72.43 4605.51 3625.51 3064.84 80.18 6.00
   08:47:30.625.05-Jan-2021  72.63 4605.54 3625.51 3064.84 80.18 6.00
   08:47:30.825.05-Jan-2021  72.83 4605.51 3625.51 3064.84 80.18 6.00
   08:47:31.025.05-Jan-2021  73.03 4604.84 3625.51 3064.84 80.18 6.00
   08:47:31.225.05-Jan-2021  73.23 4604.84 3625.51 3064.84 80.18 6.00
   08:47:31.425.05-Jan-2021  73.43 4605.59 3625.51 3064.84 80.18 6.00
   08:47:31.625.05-Jan-2021  73.63 4605.22 3625.51 3064.84 80.18 6.00
   08:47:31.825.05-Jan-2021  73.83 4605.69 3625.51 3064.84 80.18 6.00
   08:47:32.025.05-Jan-2021  74.03 4605.77 3625.51 3064.84 80.18 6.00
   08:47:32.225.05-Jan-2021  74.23 4605.77 3625.51 3064.84 80.18 6.00
   08:47:32.425.05-Jan-2021  74.43 4605.56 3625.51 3064.84 80.18 6.00
   08:47:32.625.05-Jan-2021  74.63 4604.92 3625.51 3064.84 80.18 6.00
   08:47:32.826.05-Jan-2021  74.83 4605.75 3625.51 3064.84 80.18 6.00
   08:47:33.026.05-Jan-2021  75.03 4605.70 3625.51 3064.84 80.18 6.00
   08:47:33.226.05-Jan-2021  75.23 4605.76 3625.51 3064.84 80.18 6.00
   08:47:33.426.05-Jan-2021  75.43 4605.56 3625.51 3064.84 80.18 6.00
   08:47:33.626.05-Jan-2021  75.63 4605.58 3625.51 3064.84 80.18 6.00
   08:47:33.826.05-Jan-2021  75.83 4605.02 3625.51 3064.84 80.18 6.00
   08:47:34.026.05-Jan-2021  76.03 4605.70 3625.51 3064.84 80.18 6.00
   08:47:34.226.05-Jan-2021  76.23 4605.70 3625.51 3064.84 80.18 6.00
   08:47:34.426.05-Jan-2021  76.43 4605.82 3625.51 3064.84 80.18 6.00
   08:47:34.626.05-Jan-2021  76.63 4605.01 3625.51 3064.84 80.18 6.00
   08:47:34.826.05-Jan-2021  76.83 4605.59 3625.51 3064.84 80.18 6.00
   08:47:35.026.05-Jan-2021  77.03 4605.62 3625.51 3064.84 80.18 6.00
   08:47:35.226.05-Jan-2021  77.23 4605.62 3625.51 3064.84 80.18 6.00
   08:47:35.427.05-Jan-2021  77.43 4605.78 3625.51 3064.84 80.18 6.00
   08:47:35.627.05-Jan-2021  77.63 4605.64 3625.51 3064.84 80.18 6.00
   08:47:35.827.05-Jan-2021  77.83 4605.55 3625.51 3064.84 80.18 6.00
   08:47:36.027.05-Jan-2021  78.03 4605.50 3625.51 3064.84 80.18 6.00
   08:47:36.227.05-Jan-2021  78.23 4605.50 3625.51 3064.84 80.18 6.00
   08:47:36.427.05-Jan-2021  78.43 4605.60 3625.51 3064.84 80.18 6.00
   08:47:36.627.05-Jan-2021  78.63 4605.62 3625.51 3064.84 80.18 6.00
   08:47:36.827.05-Jan-2021  78.83 4605.57 3625.51 3064.84 80.18 6.00
   08:47:37.027.05-Jan-2021  79.03 4605.59 3625.51 3064.84 80.18 6.00
   08:47:37.227.05-Jan-2021  79.23 4605.59 3625.51 3064.84 80.18 6.00
   08:47:37.427.05-Jan-2021  79.43 4604.64 3625.51 3064.84 80.18 6.00
   08:47:37.627.05-Jan-2021  79.63 4605.94 3625.51 3064.84 80.18 6.00
   08:47:37.827.05-Jan-2021  79.83 4605.75 3625.51 3064.84 80.18 6.00
   08:47:38.027.05-Jan-2021  80.03 4605.73 3625.51 3064.84 80.18 6.00
   08:47:38.228.05-Jan-2021  80.23 4605.64 3625.51 3064.84 80.18 6.00
   08:47:38.428.05-Jan-2021  80.43 4605.54 3625.51 3064.84 80.18 6.00
   08:47:38.628.05-Jan-2021  80.63 4605.58 3625.51 3064.84 80.18 6.00
   08:47:38.828.05-Jan-2021  80.83 4605.61 3625.51 3064.84 80.18 6.00
   08:47:39.028.05-Jan-2021  81.03 4605.62 3625.51 3064.84 80.18 6.00
   08:47:39.228.05-Jan-2021  81.23 4605.62 3625.51 3064.84 80.18 6.00
   08:47:39.428.05-Jan-2021  81.43 4605.55 3625.51 3064.84 80.17 6.00
   08:47:39.628.05-Jan-2021  81.63 4605.60 3625.51 3064.84 80.17 6.00
   08:47:39.828.05-Jan-2021  81.83 4605.64 3625.51 3064.84 80.17 6.00
   08:47:40.028.05-Jan-2021  82.03 4605.03 3625.51 3064.84 80.17 6.00
   08:47:40.228.05-Jan-2021  82.23 4605.03 3625.51 3064.84 80.17 6.00
   08:47:40.428.05-Jan-2021  82.43 4605.60 3625.51 3064.84 80.17 6.00
   08:47:40.628.05-Jan-2021  82.63 4604.73 3625.51 3064.84 80.17 6.00
   08:47:40.829.05-Jan-2021  82.83 4606.18 3625.51 3064.84 80.17 6.00
   08:47:41.029.05-Jan-2021  83.03 4605.75 3625.51 3064.84 80.17 6.00
   08:47:41.229.05-Jan-2021  83.23 4605.75 3625.51 3064.84 80.17 6.00
   08:47:41.429.05-Jan-2021  83.43 4605.65 3625.51 3064.84 80.17 6.00
   08:47:41.629.05-Jan-2021  83.63 4605.63 3625.51 3064.84 80.17 6.00
   08:47:41.829.05-Jan-2021  83.83 4604.98 3625.51 3064.84 80.17 6.00
   08:47:42.029.05-Jan-2021  84.03 4605.77 3625.51 3064.84 80.17 6.00
   08:47:42.229.05-Jan-2021  84.23 4605.77 3625.51 3064.84 80.17 6.00
   08:47:42.429.05-Jan-2021  84.43 4605.77 3625.51 3064.84 80.17 6.00
   08:47:42.629.05-Jan-2021  84.63 4605.63 3625.51 3064.84 80.17 6.00
   08:47:42.829.05-Jan-2021  84.83 4604.70 3625.51 3064.84 80.17 6.00
   08:47:43.029.05-Jan-2021  85.03 4605.93 3625.51 3064.84 80.17 6.00
   08:47:43.229.05-Jan-2021  85.23 4605.93 3625.51 3064.84 80.17 6.00
   08:47:43.429.05-Jan-2021  85.43 4605.73 3625.51 3064.84 80.17 6.00
   08:47:43.630.05-Jan-2021  85.63 4605.78 3625.51 3064.84 80.17 6.00
   08:47:43.830.05-Jan-2021  85.83 4604.95 3625.51 3064.84 80.17 6.00
   08:47:44.030.05-Jan-2021  86.03 4605.77 3625.51 3064.84 80.17 6.00
   08:47:44.230.05-Jan-2021  86.23 4605.77 3625.51 3064.84 80.17 6.00
   08:47:44.430.05-Jan-2021  86.43 4605.84 3625.51 3064.84 80.17 6.00
   08:47:44.630.05-Jan-2021  86.63 4605.62 3625.51 3064.84 80.17 6.00
   08:47:44.830.05-Jan-2021  86.83 4605.57 3625.51 3064.84 80.17 6.00
   08:47:45.030.05-Jan-2021  87.03 4605.57 3625.51 3064.84 80.17 6.00
   08:47:45.230.05-Jan-2021  87.23 4605.59 3625.51 3064.84 80.17 6.00
   08:47:45.430.05-Jan-2021  87.43 4605.60 3625.51 3064.84 80.17 6.00
   08:47:45.630.05-Jan-2021  87.63 4605.60 3625.51 3064.84 80.17 6.00
   08:47:45.830.05-Jan-2021  87.83 4605.62 3625.51 3064.84 80.17 6.00
   08:47:46.030.05-Jan-2021  88.03 4605.60 3625.51 3064.84 80.17 6.00
   08:47:46.231.05-Jan-2021  88.23 4605.60 3625.51 3064.84 80.17 6.00
   08:47:46.431.05-Jan-2021  88.43 4605.63 3625.51 3064.84 80.17 6.00
   08:47:46.631.05-Jan-2021  88.63 4604.94 3625.51 3064.84 80.17 6.00
   08:47:46.831.05-Jan-2021  88.83 4605.65 3625.51 3064.84 80.17 6.00
   08:47:47.031.05-Jan-2021  89.03 4605.76 3625.51 3064.84 80.17 6.00
   08:47:47.231.05-Jan-2021  89.23 4605.76 3625.51 3064.84 80.17 6.00
   08:47:47.431.05-Jan-2021  89.43 4605.46 3625.51 3064.84 80.17 6.00
   08:47:47.631.05-Jan-2021  89.63 4605.61 3625.51 3064.84 80.17 6.00
   08:47:47.831.05-Jan-2021  89.83 4605.61 3625.51 3064.84 80.17 6.00
   08:47:48.031.05-Jan-2021  90.03 4605.61 3625.51 3064.84 80.17 6.00
   08:47:48.231.05-Jan-2021  90.23 4605.61 3625.51 3064.84 80.17 6.00
   08:47:48.431.05-Jan-2021  90.43 4605.51 3625.51 3064.84 80.17 6.00
   08:47:48.631.05-Jan-2021  90.63 4605.62 3625.51 3064.84 80.17 6.00
   08:47:48.831.05-Jan-2021  90.83 4605.60 3625.51 3064.84 80.17 6.00
   08:47:49.032.05-Jan-2021  91.03 4605.65 3625.51 3064.84 80.17 6.00
   08:47:49.232.05-Jan-2021  91.23 4604.93 3625.51 3064.84 80.17 6.00
   08:47:49.432.05-Jan-2021  91.43 4605.68 3625.51 3064.84 80.17 6.00
   08:47:49.632.05-Jan-2021  91.63 4605.66 3625.51 3064.84 80.17 6.00
   08:47:49.832.05-Jan-2021  91.83 4605.40 3625.51 3064.84 80.17 6.00
