~Version Information
 VERS.                  2.0:   CWLS log ASCII Standard -VERSION 2.0
 WRAP.                   NO:   One line per depth step
~Well Information Block
#MNEM.UNIT     VALUE/NAME     DESCRIPTION
#---------     -----------    ---------------------------
 STRT.S             07:28:27 05-Jan-21: START TIME 07:28:27 05-Jan-21
 STOP.S             07:36:40 05-Jan-21: STOP TIME  07:36:40 05-Jan-21
 STEP.S                   0.00: STEP TIME
 NULL.                 -999.25: NULL VALUE
 DFWT.                        :  DIST FWL TEXT
 DFST.                        :  DIST FSL TEXT
 DMF .             Drill Floor:  DRILL MEAS FROM
 STIM.      06.00.00 31-Dec-20:  START TIME
 DATE.      05.58.24 07-Jan-21:  END TIME
 SPUD.               24-Dec-20:  SPUD DATE
 NREF.                    Grid:  NORTH REFERENCE
 HPTY.       Minimum Curvature:  HOLE POS TYPE
 DMOD.             Drill Model:  DRILL MOD DESC
 SVYD.                  Survey:  SURVEY DESC
 ILTD.               Lithology:  INTERP LTH DESC
 FTOP.          Formation Tops:  FORM TOPS DESC
 SON .        AZ-XX-0906699554:  JOB NUMBER
 WELL.                    B09z:  WELL NAME
 PDAT.          Mean Sea Level:  PERMANENT DATUM
 FLD .                     ACG:  FIELD NAME
 CTRY.              Azerbaijan:  COUNTRY NAME
 COMP.     BP Exploration (Caspian Sea) Ltd.:  COMPANY
 UWI .                     N/A:  UNIQUE WELL IDENTIFIER
 API .                     N/A:  API NUMBER
 WTYP.                Deviated:  WELL TYPE
 MDS .        Operator Entered:  MAG DATA SOURCE
 BASE.              Azerbaijan:  LOGGING EQUIPMENT BASE LOCATION
 REGN.                   EESSA:  REGION
 PROV.                    Baku:  PROVINCE
 STAT.                    Baku:  STATE NAME
 SRVC.          Turan Drilling:  CONTRACTOR
 MWDS.                    Baku:  MWD SHOP
 JOBN.        AZ-XX-0906699554:  JOB TICKET NUMB
 RIG .           Central Azeri:  RIG NAME
 DOE .                     N/A:  DOE NUMBER
 DCON.         Sperry Drilling:  DIRECTNL CONTR
 UNIT.                     N/A:  LOGGING EQUIPMENT ID
 CNTY.                        :  COUNTY
 LOC .                        :  LOCATION
 LMF .             Drill Floor:  LOG MEASURED FROM
 TVDS.m                  43.29:  TVDSS CORRECTN
 LATI.deg                40.03:  LATITUDE
 LONG.deg                51.35:  LONGITUDE
 WHNS.m                  -2.76:  WELL HEAD N/S
 WHEW.m                  -7.70:  WELL HEAD E/W
 UTMX.m              530128.28:  UTM X
 UTMY.m             4433192.49:  UTM Y
 DFWL.m                   0.00:  DISTANCE FWL
 DFSL.m                   0.00:  DISTANCE FSL
 SDEP.m                3435.01:  START DEPTH
 TDD .m                3814.01:  TOTAL DEPTH (DRILLER)
 VSDR.deg               352.80:  VERT SEC DIRECT
 GVFD.g                   1.00:  GRAVITY FIELD
 MFLD.nT              50303.00:  MAGNETIC FIELD
 MDIP.deg                59.52:  MAGNETIC DIP
 MDEC.deg                 6.47:  MAGNETIC DECL
 GRDC.deg                 0.23:  GRID CORRECTION
 AZTC.deg                 6.24:  AZM TOTAL CORR
 EPD .m                   0.00:  ELEVATION
 EGL .m                   0.00:  GROUND ELEVATION
 WDMS.m                 128.20:  WD ELEV
 APD .m                  43.29:  DEPTH ABOVE PD
 DEP .m                3421.30:  DEPTH
 AGAP.m                  43.60:  AIR GAP
 VSEW.m                  -7.70:  VERT SEC E/W
 VSNS.m                  -2.76:  VERT SEC N/S
 EKB .m                   0.00:  KB ELEVATION
 EDF .m                  43.29:  DF ELEVATION
 TDL .m                 369.00:  TOTAL DEPTH (LOGGER)
 VSC .                       0:  VS TO CLOSURE
 MAGU.                 1850390:  MAGUTM CHECKSUM
~Parameter Information Block
#MNEM.UNIT       Value        Description
#---------     -----------    ---------------------------
 AV  .mps                 2.80:  Ann Velocity 
 AVMX.mps                 4.67:  Max Ann Veloc 
 AZIF.deg               303.89:  Azm, Final 
 BHAT.        Rotary Steerable:  BHA Type 
 BREV.rev            128542.00:  Rev Bit Total 
 BROT.°/30m               1.50:  Build Rotating 
 BS  .in                  8.50:  Bit Size 
 BSZ .in                  8.50:  Bit Size 
 BTPL.psig              715.00:  Bit Press Loss 
 CABU.                      No:  Customer Abuse 
 COMM.                     ÜNb:  Run Comments 1 
 TCS .hr                 53.00:  Time Ciculation Ended 
 CV  .mps                 3.85:  Crit Velocity 
 CVMX.mps                 4.75:  Max Crit Veloc 
 DD1 .         Intigam Rahimov:  Direct Drillr 1 
 DDSV.                 iCruise:  DD Service 
 DEFF.%                  98.60:  % Det Eff 
 DLRX.°/30m               2.34:  Dogleg Rot Max 
 DLSO.°/30m               0.00:  Dogleg Oriented 
 DLSX.°/30m               0.00:  Dogleg Str Max 
 DRET.      00.15.00 05-Jan-21:  Drill End Time 
 DRST.      22.00.00 03-Jan-21:  Drill Start Tim 
 DTIM.hr                 17.72:  Time Drilling 
 EDEP.m                3814.01:  End Depth 
 ENG1.         Yevgeniy Ulikov:  Engineer 1 
 ENG2.        Farkhad Khalidov:  Engineer 2 
 ENG3.           Samir Gafarov:  Engineer 3 
 ETIM.      21.00.00 07-Jan-21:  End Time 
 FLOI.gpm               590.00:  Flow In 
 FLON.gpm               580.00:  Flow In Min 
 FLOS.cptm                1.00:  Fluid Loss 
 FLOX.gpm               595.00:  Flow In Max 
 FTRO.     Connectivity, Formation Presure:  FTWD Run Obj 
 HFLO.                      No:  High Flow 
 HPRE.                     Yes:  High Pressure 
 HTEM.                      No:  High Temp 
 HYDO.m                   1.80:  Hydro Offset 
 IFIN.deg                63.76:  Inc, Final 
 IMAX.deg                64.09:  Inc Max 
 IMIN.deg                55.81:  Inc Min 
 IMND.m                3455.62:  Inc Min Depth 
 IMXD.m                3796.03:  Inc Max Depth 
 JARR.                      No:  Jarring 
 LETM.      00.15.00 05-Jan-21:  Log End Time 
 LOST.hr                     0:  Lost Rig Time 
 LSTM.      22.00.00 03-Jan-21:  Log Start Time 
 MDCL.ppm             36000.00:  Mud Chlorides 
 MDES.     Inversion Oil/Synthetic:  Mud Desc 
 DFD .sg                  1.51:  Mud Density 
 MDMN.sg                  1.51:  Dens Mud Min 
 MDMX.sg                  1.51:  Dens Mud Max 
 MOIL.                    55.5:  Run Mud Oil % 
 MOWR.                   70:30:  Run Mud OWR 
 MSND.                     0.1:  Run Mud Sand % 
 MSOL.                   20.77:  Run Mud Solids% 
 DFV .spqt               67.00:  Mud Viscosity 
 MWOD.in                  6.75:  MWD Tool OD 
 MWSI.                      No:  Serv Intrp, MWD 
 OTIM.hr                113.53:  Time Operating 
 PCON.           Look Like New:  Pad Condition 
 PMAX.psia             4830.00:  Press Op, Max 
 PV  .cP                 29.00:  Mud PV 
 RUN .                     300:  Run Number 
 ROPA.m/hr               22.00:  ROP Avg 
 ROPN.m/hr               18.00:  ROP Min 
 ROPX.m/hr               25.00:  ROP Max 
 RPMA.rpm               130.00:  RPM Surface Avg 
 RPMN.rpm                80.00:  RPM Surface Min 
 RPMX.rpm               140.00:  RPM Surface Max 
 RRUN.                    L101:  Rig Run Number 
 RTIM.hr                  9.28:  Time Reaming 
 SAZI.deg               316.55:  Azm, Start 
 SDEP.m                3445.01:  Start Depth 
 SIDD.                      No:  Serv Intrp, DD 
 SINC.deg                55.81:  Inc, Start 
 SPPA.psig             4500.00:  SPP Avg 
 SPPN.psig             4350.00:  SPP Min 
 SPPX.psig             4830.00:  SPP Max 
 STIM.      00.00.00 03-Jan-21:  Start Time 
 SVCS.                 DD, MWD:  Services 
 SVER.                    9.20:  Sperry Version 
 TDAT.m                 369.00:  Tot Depth Attmp 
 TDDF.                      No:  Trip for DD 
 TDLG.m                 369.00:  Tot Depth Loggd 
 TFF .                      No:  Trip for Fail 
 TQAA.f-kp               15.00:  Torque Abs Avg 
 TQAN.f-kp               12.00:  Torque Abs Min 
 TQAX.f-kp               16.00:  Torque Abs Max 
 TRRT.°/30m              -2.10:  Turn Rotating 
 MRT .                    HCIM:  Maximum Recorded Temperature 
 TTMX.degC               92.16:  Max Tool Temp 
 VS01.                90627822:  Virtual Str1 SN 
 VS02.                90550008:  Virtual Str2 SN 
 VS03.                90627816:  Virtual Str3 SN 
 VS04.                90633205:  Virtual Str4 SN 
 VS05.                13033835:  Virtual Str5 SN 
 VS06.                11125125:  Virtual Str6 SN 
 WBMN.klb                 8.00:  WOB Min 
 WITN.            Bruce Cheyne:  Customer Rep 
 WITN.           Faig Mammadov:  Customer Rep 2 
 WOBA.klb                 9.00:  WOB Avg 
 WOBX.klb                12.00:  WOB Max 
 YP  .lhf2               30.00:  Yield Point 
~Curve Information Block
#MNEM.UNIT                 API CODE     Curve Description
#---------               -----------    ---------------------------
 TIME.HHMMSS            00 000 000 000:  GT Time & Date
 GTET.sec               00 000 000 000:  GT Elapsed Test Time
 GTPQH.psia             00 000 000 000:  GT HR Quartz Pressure
 GTDEPTH.m              00 000 000 000:  GT Depth
 GTTVD.m                00 000 000 000:  GT True Vertical Depth
 GTTQ.degC              00 000 000 000:  GT Quartz Temperature
 GTTN.NONE              00 000 000 000:  GT Test Number
#Other Information
#
#WARRANTY: Halliburton will use its best efforts to furnish customers with 
#accurate information and interpretations that are part of, and incident to, the services 
#provided.  However, Halliburton cannot and does not warrant the accuracy 
#or correctness of such information and interpretations.  Under no circumstances should any 
#such information or interpretation be relied upon as the sole basis for any drilling, 
#completion, production, or financial decision or any procedure involving any risk to the 
#safety of any drilling venture, drilling rig or its crew or any other third party.  The 
#Customer has full responsibility for all drilling, completion and production operation.  
#Halliburton makes no representations or warranties, either expressed or 
#implied, including, but not limited to, the implied warranties of merchantability or fitness 
#for a particular purpose, with respect to the services rendered.  In no event will 
#Halliburton be liable for failure to obtain any particular results or for 
#any damages, including, but not limited to, indirect, special or consequential damages, 
#resulting from the use of any information or interpretation provided by Halliburton.
#
~A           TIME            GTET   GTPQH  GTDEPTH  GTTVD  GTTQ  GTTN 
# ...
   07:34:58.409.05-Jan-2021 391.15 4413.70 3656.51 3079.56 81.30 4.00
   07:34:58.609.05-Jan-2021 391.35 4413.70 3656.51 3079.56 81.30 4.00
   07:34:58.810.05-Jan-2021 391.55 4413.82 3656.51 3079.56 81.30 4.00
   07:34:59.010.05-Jan-2021 391.75 4413.80 3656.51 3079.56 81.30 4.00
   07:34:59.210.05-Jan-2021 391.95 4413.87 3656.51 3079.56 81.30 4.00
   07:34:59.410.05-Jan-2021 392.15 4413.90 3656.51 3079.56 81.30 4.00
   07:34:59.610.05-Jan-2021 392.35 4413.90 3656.51 3079.56 81.30 4.00
   07:34:59.810.05-Jan-2021 392.55 4413.98 3656.51 3079.56 81.30 4.00
   07:35:00.010.05-Jan-2021 392.75 4413.73 3656.51 3079.56 81.30 4.00
   07:35:00.210.05-Jan-2021 392.95 4413.97 3656.51 3079.56 81.30 4.00
   07:35:00.410.05-Jan-2021 393.15 4413.73 3656.51 3079.56 81.30 4.00
   07:35:00.610.05-Jan-2021 393.35 4413.73 3656.51 3079.56 81.30 4.00
   07:35:00.810.05-Jan-2021 393.55 4413.82 3656.51 3079.56 81.30 4.00
   07:35:01.010.05-Jan-2021 393.75 4413.86 3656.51 3079.56 81.30 4.00
   07:35:01.210.05-Jan-2021 393.95 4414.03 3656.51 3079.56 81.30 4.00
   07:35:01.411.05-Jan-2021 394.15 4413.79 3656.51 3079.56 81.30 4.00
   07:35:01.611.05-Jan-2021 394.35 4413.73 3656.51 3079.56 81.30 4.00
   07:35:01.811.05-Jan-2021 394.55 4414.06 3656.51 3079.56 81.30 4.00
   07:35:02.011.05-Jan-2021 394.75 4413.68 3656.51 3079.56 81.30 4.00
   07:35:02.211.05-Jan-2021 394.95 4413.89 3656.51 3079.56 81.30 4.00
   07:35:02.411.05-Jan-2021 395.15 4413.97 3656.51 3079.56 81.30 4.00
   07:35:02.611.05-Jan-2021 395.35 4413.97 3656.51 3079.56 81.30 4.00
   07:35:02.811.05-Jan-2021 395.55 4414.05 3656.51 3079.56 81.30 4.00
   07:35:03.011.05-Jan-2021 395.75 4413.78 3656.51 3079.56 81.30 4.00
   07:35:03.211.05-Jan-2021 395.95 4413.86 3656.51 3079.56 81.30 4.00
   07:35:03.411.05-Jan-2021 396.15 4413.83 3656.51 3079.56 81.30 4.00
   07:35:03.611.05-Jan-2021 396.35 4413.83 3656.51 3079.56 81.30 4.00
   07:35:03.811.05-Jan-2021 396.55 4413.82 3656.51 3079.56 81.30 4.00
   07:35:04.011.05-Jan-2021 396.75 4413.81 3656.51 3079.56 81.30 4.00
   07:35:04.212.05-Jan-2021 396.95 4414.00 3656.51 3079.56 81.30 4.00
   07:35:04.412.05-Jan-2021 397.15 4413.78 3656.51 3079.56 81.30 4.00
   07:35:04.612.05-Jan-2021 397.35 4413.78 3656.51 3079.56 81.30 4.00
   07:35:04.812.05-Jan-2021 397.55 4413.96 3656.51 3079.56 81.30 4.00
   07:35:05.012.05-Jan-2021 397.75 4413.77 3656.51 3079.56 81.30 4.00
   07:35:05.212.05-Jan-2021 397.95 4413.93 3656.51 3079.56 81.30 4.00
   07:35:05.412.05-Jan-2021 398.15 4413.81 3656.51 3079.56 81.30 4.00
   07:35:05.612.05-Jan-2021 398.35 4413.81 3656.51 3079.56 81.30 4.00
   07:35:05.812.05-Jan-2021 398.55 4413.87 3656.51 3079.56 81.30 4.00
   07:35:06.012.05-Jan-2021 398.75 4413.81 3656.51 3079.56 81.30 4.00
   07:35:06.212.05-Jan-2021 398.95 4414.05 3656.51 3079.56 81.30 4.00
   07:35:06.412.05-Jan-2021 399.15 4413.77 3656.51 3079.56 81.30 4.00
   07:35:06.612.05-Jan-2021 399.35 4413.77 3656.51 3079.56 81.30 4.00
   07:35:06.813.05-Jan-2021 399.55 4413.88 3656.51 3079.56 81.30 4.00
   07:35:07.013.05-Jan-2021 399.75 4413.81 3656.51 3079.56 81.30 4.00
   07:35:07.213.05-Jan-2021 399.95 4413.91 3656.51 3079.56 81.30 4.00
   07:35:07.413.05-Jan-2021 400.15 4413.84 3656.51 3079.56 81.30 4.00
   07:35:07.613.05-Jan-2021 400.35 4413.84 3656.51 3079.56 81.30 4.00
   07:35:07.813.05-Jan-2021 400.55 4413.81 3656.51 3079.56 81.30 4.00
   07:35:08.013.05-Jan-2021 400.75 4413.85 3656.51 3079.56 81.30 4.00
   07:35:08.213.05-Jan-2021 400.95 4413.90 3656.51 3079.56 81.30 4.00
   07:35:08.413.05-Jan-2021 401.15 4413.87 3656.51 3079.56 81.30 4.00
   07:35:08.613.05-Jan-2021 401.35 4413.87 3656.51 3079.56 81.30 4.00
   07:35:08.813.05-Jan-2021 401.55 4413.86 3656.51 3079.56 81.30 4.00
   07:35:09.013.05-Jan-2021 401.75 4413.95 3656.51 3079.56 81.30 4.00
   07:35:09.213.05-Jan-2021 401.95 4413.79 3656.51 3079.56 81.30 4.00
   07:35:09.413.05-Jan-2021 402.15 4413.95 3656.51 3079.56 81.30 4.00
   07:35:09.614.05-Jan-2021 402.35 4413.95 3656.51 3079.56 81.30 4.00
   07:35:09.814.05-Jan-2021 402.55 4413.84 3656.51 3079.56 81.30 4.00
   07:35:10.014.05-Jan-2021 402.75 4413.87 3656.51 3079.56 81.30 4.00
   07:35:10.214.05-Jan-2021 402.95 4413.58 3656.51 3079.56 81.31 4.00
   07:35:10.414.05-Jan-2021 403.15 4414.20 3656.51 3079.56 81.31 4.00
   07:35:10.614.05-Jan-2021 403.35 4414.20 3656.51 3079.56 81.31 4.00
   07:35:10.814.05-Jan-2021 403.55 4413.80 3656.51 3079.56 81.31 4.00
   07:35:11.014.05-Jan-2021 403.75 4413.69 3656.51 3079.56 81.31 4.00
   07:35:11.214.05-Jan-2021 403.95 4414.10 3656.51 3079.56 81.31 4.00
   07:35:11.414.05-Jan-2021 404.15 4413.88 3656.51 3079.56 81.31 4.00
   07:35:11.614.05-Jan-2021 404.35 4413.88 3656.51 3079.56 81.31 4.00
   07:35:11.814.05-Jan-2021 404.55 4413.94 3656.51 3079.56 81.31 4.00
   07:35:12.014.05-Jan-2021 404.75 4413.77 3656.51 3079.56 81.31 4.00
   07:35:12.215.05-Jan-2021 404.95 4413.98 3656.51 3079.56 81.31 4.00
   07:35:12.415.05-Jan-2021 405.15 4413.81 3656.51 3079.56 81.31 4.00
   07:35:12.615.05-Jan-2021 405.35 4413.81 3656.51 3079.56 81.31 4.00
   07:35:12.815.05-Jan-2021 405.55 4413.95 3656.51 3079.56 81.31 4.00
   07:35:13.015.05-Jan-2021 405.75 4413.84 3656.51 3079.56 81.31 4.00
   07:35:13.215.05-Jan-2021 405.95 4413.89 3656.51 3079.56 81.31 4.00
   07:35:13.415.05-Jan-2021 406.15 4413.88 3656.51 3079.56 81.31 4.00
   07:35:13.615.05-Jan-2021 406.35 4413.88 3656.51 3079.56 81.31 4.00
   07:35:13.815.05-Jan-2021 406.55 4413.92 3656.51 3079.56 81.31 4.00
   07:35:14.015.05-Jan-2021 406.75 4413.87 3656.51 3079.56 81.31 4.00
   07:35:14.215.05-Jan-2021 406.95 4413.82 3656.51 3079.56 81.31 4.00
   07:35:14.415.05-Jan-2021 407.15 4413.87 3656.51 3079.56 81.31 4.00
   07:35:14.615.05-Jan-2021 407.35 4413.87 3656.51 3079.56 81.31 4.00
   07:35:14.815.05-Jan-2021 407.55 4414.05 3656.51 3079.56 81.31 4.00
   07:35:15.016.05-Jan-2021 407.75 4413.91 3656.51 3079.56 81.31 4.00
   07:35:15.216.05-Jan-2021 407.95 4413.90 3656.51 3079.56 81.31 4.00
   07:35:15.416.05-Jan-2021 408.15 4413.84 3656.51 3079.56 81.31 4.00
   07:35:15.616.05-Jan-2021 408.35 4413.84 3656.51 3079.56 81.31 4.00
   07:35:15.816.05-Jan-2021 408.55 4413.87 3656.51 3079.56 81.31 4.00
   07:35:16.016.05-Jan-2021 408.75 4413.83 3656.51 3079.56 81.31 4.00
   07:35:16.216.05-Jan-2021 408.95 4413.95 3656.51 3079.56 81.31 4.00
   07:35:16.416.05-Jan-2021 409.15 4413.88 3656.51 3079.56 81.31 4.00
   07:35:16.616.05-Jan-2021 409.35 4413.88 3656.51 3079.56 81.31 4.00
   07:35:16.816.05-Jan-2021 409.55 4413.85 3656.51 3079.56 81.31 4.00
   07:35:17.016.05-Jan-2021 409.75 4413.79 3656.51 3079.56 81.31 4.00
   07:35:17.216.05-Jan-2021 409.95 4413.80 3656.51 3079.56 81.31 4.00
   07:35:17.416.05-Jan-2021 410.15 4413.82 3656.51 3079.56 81.31 4.00
   07:35:17.617.05-Jan-2021 410.35 4413.82 3656.51 3079.56 81.31 4.00
   07:35:17.817.05-Jan-2021 410.55 4413.51 3656.51 3079.56 81.31 4.00
   07:35:18.017.05-Jan-2021 410.75 4414.03 3656.51 3079.56 81.31 4.00
   07:35:18.217.05-Jan-2021 410.95 4413.82 3656.51 3079.56 81.31 4.00
   07:35:18.417.05-Jan-2021 411.15 4413.82 3656.51 3079.56 81.31 4.00
   07:35:18.617.05-Jan-2021 411.35 4413.82 3656.51 3079.56 81.31 4.00
   07:35:18.817.05-Jan-2021 411.55 4414.10 3656.51 3079.56 81.31 4.00
   07:35:19.017.05-Jan-2021 411.75 4413.85 3656.51 3079.56 81.31 4.00
   07:35:19.217.05-Jan-2021 411.95 4413.83 3656.51 3079.56 81.31 4.00
   07:35:19.417.05-Jan-2021 412.15 4413.52 3656.51 3079.56 81.31 4.00
   07:35:19.617.05-Jan-2021 412.35 4413.52 3656.51 3079.56 81.31 4.00
   07:35:19.817.05-Jan-2021 412.55 4413.73 3656.51 3079.56 81.31 4.00
   07:35:20.017.05-Jan-2021 412.75 4413.84 3656.51 3079.56 81.31 4.00
   07:35:20.217.05-Jan-2021 412.95 4413.49 3656.51 3079.56 81.31 4.00
   07:35:20.418.05-Jan-2021 413.15 4414.04 3656.51 3079.56 81.31 4.00
   07:35:20.618.05-Jan-2021 413.35 4414.04 3656.51 3079.56 81.31 4.00
   07:35:20.818.05-Jan-2021 413.55 4413.85 3656.51 3079.56 81.31 4.00
   07:35:21.018.05-Jan-2021 413.75 4413.74 3656.51 3079.56 81.31 4.00
   07:35:21.218.05-Jan-2021 413.95 4413.85 3656.51 3079.56 81.31 4.00
