~Version Information
 VERS.                  2.0:   CWLS log ASCII Standard -VERSION 2.0
 WRAP.                   NO:   One line per depth step
~Well Information Block
#MNEM.UNIT     VALUE/NAME     DESCRIPTION
#---------     -----------    ---------------------------
 STRT.S             13:40:14 05-Jan-21: START TIME 13:40:14 05-Jan-21
 STOP.S             13:48:27 05-Jan-21: STOP TIME  13:48:27 05-Jan-21
 STEP.S                   0.00: STEP TIME
 NULL.                 -999.25: NULL VALUE
 DFWT.                        :  DIST FWL TEXT
 DFST.                        :  DIST FSL TEXT
 DMF .             Drill Floor:  DRILL MEAS FROM
 STIM.      06.00.00 31-Dec-20:  START TIME
 DATE.      05.58.24 07-Jan-21:  END TIME
 SPUD.               24-Dec-20:  SPUD DATE
 NREF.                    Grid:  NORTH REFERENCE
 HPTY.       Minimum Curvature:  HOLE POS TYPE
 DMOD.             Drill Model:  DRILL MOD DESC
 SVYD.                  Survey:  SURVEY DESC
 ILTD.               Lithology:  INTERP LTH DESC
 FTOP.          Formation Tops:  FORM TOPS DESC
 SON .        AZ-XX-0906699554:  JOB NUMBER
 WELL.                    B09z:  WELL NAME
 PDAT.          Mean Sea Level:  PERMANENT DATUM
 FLD .                     ACG:  FIELD NAME
 CTRY.              Azerbaijan:  COUNTRY NAME
 COMP.     BP Exploration (Caspian Sea) Ltd.:  COMPANY
 UWI .                     N/A:  UNIQUE WELL IDENTIFIER
 API .                     N/A:  API NUMBER
 WTYP.                Deviated:  WELL TYPE
 MDS .        Operator Entered:  MAG DATA SOURCE
 BASE.              Azerbaijan:  LOGGING EQUIPMENT BASE LOCATION
 REGN.                   EESSA:  REGION
 PROV.                    Baku:  PROVINCE
 STAT.                    Baku:  STATE NAME
 SRVC.          Turan Drilling:  CONTRACTOR
 MWDS.                    Baku:  MWD SHOP
 JOBN.        AZ-XX-0906699554:  JOB TICKET NUMB
 RIG .           Central Azeri:  RIG NAME
 DOE .                     N/A:  DOE NUMBER
 DCON.         Sperry Drilling:  DIRECTNL CONTR
 UNIT.                     N/A:  LOGGING EQUIPMENT ID
 CNTY.                        :  COUNTY
 LOC .                        :  LOCATION
 LMF .             Drill Floor:  LOG MEASURED FROM
 TVDS.m                  43.29:  TVDSS CORRECTN
 LATI.deg                40.03:  LATITUDE
 LONG.deg                51.35:  LONGITUDE
 WHNS.m                  -2.76:  WELL HEAD N/S
 WHEW.m                  -7.70:  WELL HEAD E/W
 UTMX.m              530128.28:  UTM X
 UTMY.m             4433192.49:  UTM Y
 DFWL.m                   0.00:  DISTANCE FWL
 DFSL.m                   0.00:  DISTANCE FSL
 SDEP.m                3435.01:  START DEPTH
 TDD .m                3814.01:  TOTAL DEPTH (DRILLER)
 VSDR.deg               352.80:  VERT SEC DIRECT
 GVFD.g                   1.00:  GRAVITY FIELD
 MFLD.nT              50303.00:  MAGNETIC FIELD
 MDIP.deg                59.52:  MAGNETIC DIP
 MDEC.deg                 6.47:  MAGNETIC DECL
 GRDC.deg                 0.23:  GRID CORRECTION
 AZTC.deg                 6.24:  AZM TOTAL CORR
 EPD .m                   0.00:  ELEVATION
 EGL .m                   0.00:  GROUND ELEVATION
 WDMS.m                 128.20:  WD ELEV
 APD .m                  43.29:  DEPTH ABOVE PD
 DEP .m                3421.30:  DEPTH
 AGAP.m                  43.60:  AIR GAP
 VSEW.m                  -7.70:  VERT SEC E/W
 VSNS.m                  -2.76:  VERT SEC N/S
 EKB .m                   0.00:  KB ELEVATION
 EDF .m                  43.29:  DF ELEVATION
 TDL .m                 369.00:  TOTAL DEPTH (LOGGER)
 VSC .                       0:  VS TO CLOSURE
 MAGU.                 1850390:  MAGUTM CHECKSUM
~Parameter Information Block
#MNEM.UNIT       Value        Description
#---------     -----------    ---------------------------
 AV  .mps                 2.80:  Ann Velocity 
 AVMX.mps                 4.67:  Max Ann Veloc 
 AZIF.deg               303.89:  Azm, Final 
 BHAT.        Rotary Steerable:  BHA Type 
 BREV.rev            128542.00:  Rev Bit Total 
 BROT.°/30m               1.50:  Build Rotating 
 BS  .in                  8.50:  Bit Size 
 BSZ .in                  8.50:  Bit Size 
 BTPL.psig              715.00:  Bit Press Loss 
 CABU.                      No:  Customer Abuse 
 COMM.                     t6w:  Run Comments 1 
 TCS .hr                 53.00:  Time Ciculation Ended 
 CV  .mps                 3.85:  Crit Velocity 
 CVMX.mps                 4.75:  Max Crit Veloc 
 DD1 .         Intigam Rahimov:  Direct Drillr 1 
 DDSV.                 iCruise:  DD Service 
 DEFF.%                  98.60:  % Det Eff 
 DLRX.°/30m               2.34:  Dogleg Rot Max 
 DLSO.°/30m               0.00:  Dogleg Oriented 
 DLSX.°/30m               0.00:  Dogleg Str Max 
 DRET.      00.15.00 05-Jan-21:  Drill End Time 
 DRST.      22.00.00 03-Jan-21:  Drill Start Tim 
 DTIM.hr                 17.72:  Time Drilling 
 EDEP.m                3814.01:  End Depth 
 ENG1.         Yevgeniy Ulikov:  Engineer 1 
 ENG2.        Farkhad Khalidov:  Engineer 2 
 ENG3.           Samir Gafarov:  Engineer 3 
 ETIM.      21.00.00 07-Jan-21:  End Time 
 FLOI.gpm               590.00:  Flow In 
 FLON.gpm               580.00:  Flow In Min 
 FLOS.cptm                1.00:  Fluid Loss 
 FLOX.gpm               595.00:  Flow In Max 
 FTRO.     Connectivity, Formation Presure:  FTWD Run Obj 
 HFLO.                      No:  High Flow 
 HPRE.                     Yes:  High Pressure 
 HTEM.                      No:  High Temp 
 HYDO.m                   1.80:  Hydro Offset 
 IFIN.deg                63.76:  Inc, Final 
 IMAX.deg                64.09:  Inc Max 
 IMIN.deg                55.81:  Inc Min 
 IMND.m                3455.62:  Inc Min Depth 
 IMXD.m                3796.03:  Inc Max Depth 
 JARR.                      No:  Jarring 
 LETM.      00.15.00 05-Jan-21:  Log End Time 
 LOST.hr                     0:  Lost Rig Time 
 LSTM.      22.00.00 03-Jan-21:  Log Start Time 
 MDCL.ppm             36000.00:  Mud Chlorides 
 MDES.     Inversion Oil/Synthetic:  Mud Desc 
 DFD .sg                  1.51:  Mud Density 
 MDMN.sg                  1.51:  Dens Mud Min 
 MDMX.sg                  1.51:  Dens Mud Max 
 MOIL.                    55.5:  Run Mud Oil % 
 MOWR.                   70:30:  Run Mud OWR 
 MSND.                     0.1:  Run Mud Sand % 
 MSOL.                   20.77:  Run Mud Solids% 
 DFV .spqt               67.00:  Mud Viscosity 
 MWOD.in                  6.75:  MWD Tool OD 
 MWSI.                      No:  Serv Intrp, MWD 
 OTIM.hr                113.53:  Time Operating 
 PCON.           Look Like New:  Pad Condition 
 PMAX.psia             4830.00:  Press Op, Max 
 PV  .cP                 29.00:  Mud PV 
 RUN .                     300:  Run Number 
 ROPA.m/hr               22.00:  ROP Avg 
 ROPN.m/hr               18.00:  ROP Min 
 ROPX.m/hr               25.00:  ROP Max 
 RPMA.rpm               130.00:  RPM Surface Avg 
 RPMN.rpm                80.00:  RPM Surface Min 
 RPMX.rpm               140.00:  RPM Surface Max 
 RRUN.                    L101:  Rig Run Number 
 RTIM.hr                  9.28:  Time Reaming 
 SAZI.deg               316.55:  Azm, Start 
 SDEP.m                3445.01:  Start Depth 
 SIDD.                      No:  Serv Intrp, DD 
 SINC.deg                55.81:  Inc, Start 
 SPPA.psig             4500.00:  SPP Avg 
 SPPN.psig             4350.00:  SPP Min 
 SPPX.psig             4830.00:  SPP Max 
 STIM.      00.00.00 03-Jan-21:  Start Time 
 SVCS.                 DD, MWD:  Services 
 SVER.                    9.20:  Sperry Version 
 TDAT.m                 369.00:  Tot Depth Attmp 
 TDDF.                      No:  Trip for DD 
 TDLG.m                 369.00:  Tot Depth Loggd 
 TFF .                      No:  Trip for Fail 
 TQAA.f-kp               15.00:  Torque Abs Avg 
 TQAN.f-kp               12.00:  Torque Abs Min 
 TQAX.f-kp               16.00:  Torque Abs Max 
 TRRT.°/30m              -2.10:  Turn Rotating 
 MRT .                    HCIM:  Maximum Recorded Temperature 
 TTMX.degC               92.16:  Max Tool Temp 
 VS01.                90627822:  Virtual Str1 SN 
 VS02.                90550008:  Virtual Str2 SN 
 VS03.                90627816:  Virtual Str3 SN 
 VS04.                90633205:  Virtual Str4 SN 
 VS05.                13033835:  Virtual Str5 SN 
 VS06.                11125125:  Virtual Str6 SN 
 WBMN.klb                 8.00:  WOB Min 
 WITN.            Bruce Cheyne:  Customer Rep 
 WITN.           Faig Mammadov:  Customer Rep 2 
 WOBA.klb                 9.00:  WOB Avg 
 WOBX.klb                12.00:  WOB Max 
 YP  .lhf2               30.00:  Yield Point 
~Curve Information Block
#MNEM.UNIT                 API CODE     Curve Description
#---------               -----------    ---------------------------
 TIME.HHMMSS            00 000 000 000:  GT Time & Date
 GTET.sec               00 000 000 000:  GT Elapsed Test Time
 GTPQH.psia             00 000 000 000:  GT HR Quartz Pressure
 GTDEPTH.m              00 000 000 000:  GT Depth
 GTTVD.m                00 000 000 000:  GT True Vertical Depth
 GTTQ.degC              00 000 000 000:  GT Quartz Temperature
 GTTN.NONE              00 000 000 000:  GT Test Number
#Other Information
#
#WARRANTY: Halliburton will use its best efforts to furnish customers with 
#accurate information and interpretations that are part of, and incident to, the services 
#provided.  However, Halliburton cannot and does not warrant the accuracy 
#or correctness of such information and interpretations.  Under no circumstances should any 
#such information or interpretation be relied upon as the sole basis for any drilling, 
#completion, production, or financial decision or any procedure involving any risk to the 
#safety of any drilling venture, drilling rig or its crew or any other third party.  The 
#Customer has full responsibility for all drilling, completion and production operation.  
#Halliburton makes no representations or warranties, either expressed or 
#implied, including, but not limited to, the implied warranties of merchantability or fitness 
#for a particular purpose, with respect to the services rendered.  In no event will 
#Halliburton be liable for failure to obtain any particular results or for 
#any damages, including, but not limited to, indirect, special or consequential damages, 
#resulting from the use of any information or interpretation provided by Halliburton.
#
~A           TIME            GTET   GTPQH  GTDEPTH  GTTVD  GTTQ  GTTN 
# ...
   13:45:14.097.05-Jan-2021 299.17 4884.39 3494.01 2996.09 78.03 7.00
   13:45:14.297.05-Jan-2021 299.37 4884.39 3494.01 2996.09 78.03 7.00
   13:45:14.497.05-Jan-2021 299.57 4884.52 3494.01 2996.09 78.03 7.00
   13:45:14.697.05-Jan-2021 299.77 4884.31 3494.01 2996.09 78.03 7.00
   13:45:14.897.05-Jan-2021 299.97 4884.17 3494.01 2996.09 78.03 7.00
   13:45:15.098.05-Jan-2021 300.17 4883.80 3494.01 2996.09 78.03 7.00
   13:45:15.298.05-Jan-2021 300.37 4883.80 3494.01 2996.09 78.03 7.00
   13:45:15.498.05-Jan-2021 300.57 4883.84 3494.01 2996.09 78.03 7.00
   13:45:15.698.05-Jan-2021 300.77 4883.93 3494.01 2996.09 78.03 7.00
   13:45:15.898.05-Jan-2021 300.97 4884.75 3494.01 2996.09 78.03 7.00
   13:45:16.098.05-Jan-2021 301.17 4884.58 3494.01 2996.09 78.03 7.00
   13:45:16.298.05-Jan-2021 301.37 4884.14 3494.01 2996.09 78.03 7.00
   13:45:16.498.05-Jan-2021 301.57 4884.09 3494.01 2996.09 78.03 7.00
   13:45:16.698.05-Jan-2021 301.77 4883.48 3494.01 2996.09 78.03 7.00
   13:45:16.899.05-Jan-2021 301.97 4884.24 3494.01 2996.09 78.03 7.00
   13:45:17.099.05-Jan-2021 302.17 4884.90 3494.01 2996.09 78.03 7.00
   13:45:17.299.05-Jan-2021 302.37 4884.15 3494.01 2996.09 78.03 7.00
   13:45:17.499.05-Jan-2021 302.57 4883.91 3494.01 2996.09 78.03 7.00
   13:45:17.699.05-Jan-2021 302.77 4884.49 3494.01 2996.09 78.03 7.00
   13:45:17.899.05-Jan-2021 302.97 4884.08 3494.01 2996.09 78.03 7.00
   13:45:18.099.05-Jan-2021 303.17 4883.81 3494.01 2996.09 78.03 7.00
   13:45:18.299.05-Jan-2021 303.37 4883.81 3494.01 2996.09 78.03 7.00
   13:45:18.499.05-Jan-2021 303.57 4884.84 3494.01 2996.09 78.03 7.00
   13:45:18.700.05-Jan-2021 303.77 4884.48 3494.01 2996.09 78.03 7.00
   13:45:18.900.05-Jan-2021 303.97 4884.11 3494.01 2996.09 78.03 7.00
   13:45:19.100.05-Jan-2021 304.17 4884.42 3494.01 2996.09 78.03 7.00
   13:45:19.300.05-Jan-2021 304.37 4884.42 3494.01 2996.09 78.03 7.00
   13:45:19.500.05-Jan-2021 304.57 4883.92 3494.01 2996.09 78.03 7.00
   13:45:19.700.05-Jan-2021 304.77 4884.52 3494.01 2996.09 78.03 7.00
   13:45:19.900.05-Jan-2021 304.97 4884.36 3494.01 2996.09 78.03 7.00
   13:45:20.100.05-Jan-2021 305.17 4883.93 3494.01 2996.09 78.03 7.00
   13:45:20.300.05-Jan-2021 305.37 4884.47 3494.01 2996.09 78.03 7.00
   13:45:20.501.05-Jan-2021 305.57 4884.73 3494.01 2996.09 78.03 7.00
   13:45:20.701.05-Jan-2021 305.77 4883.63 3494.01 2996.09 78.03 7.00
   13:45:20.901.05-Jan-2021 305.97 4884.68 3494.01 2996.09 78.03 7.00
   13:45:21.101.05-Jan-2021 306.17 4884.43 3494.01 2996.09 78.03 7.00
   13:45:21.301.05-Jan-2021 306.37 4884.43 3494.01 2996.09 78.03 7.00
   13:45:21.501.05-Jan-2021 306.57 4884.32 3494.01 2996.09 78.03 7.00
   13:45:21.701.05-Jan-2021 306.77 4883.99 3494.01 2996.09 78.03 7.00
   13:45:21.901.05-Jan-2021 306.97 4884.17 3494.01 2996.09 78.03 7.00
   13:45:22.101.05-Jan-2021 307.17 4884.15 3494.01 2996.09 78.03 7.00
   13:45:22.302.05-Jan-2021 307.37 4884.15 3494.01 2996.09 78.03 7.00
   13:45:22.502.05-Jan-2021 307.57 4883.23 3494.01 2996.09 78.04 7.00
   13:45:22.702.05-Jan-2021 307.77 4884.84 3494.01 2996.09 78.03 7.00
   13:45:22.902.05-Jan-2021 307.97 4884.22 3494.01 2996.09 78.04 7.00
   13:45:23.102.05-Jan-2021 308.17 4883.95 3494.01 2996.09 78.04 7.00
   13:45:23.302.05-Jan-2021 308.37 4875.62 3494.01 2996.09 78.04 7.00
   13:45:23.502.05-Jan-2021 308.57 4789.08 3494.01 2996.09 78.04 7.00
   13:45:23.702.05-Jan-2021 308.77 4770.57 3494.01 2996.09 78.04 7.00
   13:45:23.902.05-Jan-2021 308.97 4765.91 3494.01 2996.09 78.04 7.00
   13:45:24.103.05-Jan-2021 309.17 4766.96 3494.01 2996.09 78.04 7.00
   13:45:24.303.05-Jan-2021 309.37 4766.96 3494.01 2996.09 78.04 7.00
   13:45:24.503.05-Jan-2021 309.57 4763.75 3494.01 2996.09 78.04 7.00
   13:45:24.703.05-Jan-2021 309.77 4772.49 3494.01 2996.09 78.04 7.00
   13:45:24.903.05-Jan-2021 309.97 4767.72 3494.01 2996.09 78.04 7.00
   13:45:25.103.05-Jan-2021 310.17 4766.04 3494.01 2996.09 78.04 7.00
   13:45:25.303.05-Jan-2021 310.37 4766.04 3494.01 2996.09 78.04 7.00
   13:45:25.503.05-Jan-2021 310.57 4766.43 3494.01 2996.09 78.04 7.00
   13:45:25.703.05-Jan-2021 310.77 4769.10 3494.01 2996.09 78.04 7.00
   13:45:25.904.05-Jan-2021 310.97 4766.63 3494.01 2996.09 78.04 7.00
   13:45:26.104.05-Jan-2021 311.17 4766.24 3494.01 2996.09 78.04 7.00
   13:45:26.304.05-Jan-2021 311.37 4766.24 3494.01 2996.09 78.04 7.00
   13:45:26.504.05-Jan-2021 311.57 4761.68 3494.01 2996.09 78.04 7.00
   13:45:26.704.05-Jan-2021 311.77 4765.67 3494.01 2996.09 78.04 7.00
   13:45:26.904.05-Jan-2021 311.97 4763.73 3494.01 2996.09 78.04 7.00
   13:45:27.104.05-Jan-2021 312.17 4764.33 3494.01 2996.09 78.04 7.00
   13:45:27.304.05-Jan-2021 312.37 4768.62 3494.01 2996.09 78.04 7.00
   13:45:27.504.05-Jan-2021 312.57 4765.23 3494.01 2996.09 78.04 7.00
   13:45:27.705.05-Jan-2021 312.77 4765.28 3494.01 2996.09 78.04 7.00
   13:45:27.905.05-Jan-2021 312.97 4771.41 3494.01 2996.09 78.04 7.00
   13:45:28.105.05-Jan-2021 313.17 4775.16 3494.01 2996.09 78.04 7.00
   13:45:28.305.05-Jan-2021 313.37 4775.16 3494.01 2996.09 78.04 7.00
   13:45:28.505.05-Jan-2021 313.57 4767.52 3494.01 2996.09 78.04 7.00
   13:45:28.705.05-Jan-2021 313.77 4778.32 3494.01 2996.09 78.04 7.00
   13:45:28.905.05-Jan-2021 313.97 4784.19 3494.01 2996.09 78.04 7.00
   13:45:29.105.05-Jan-2021 314.17 4795.27 3494.01 2996.09 78.04 7.00
   13:45:29.305.05-Jan-2021 314.37 4795.27 3494.01 2996.09 78.04 7.00
   13:45:29.506.05-Jan-2021 314.57 4767.08 3494.01 2996.09 78.04 7.00
   13:45:29.706.05-Jan-2021 314.77 4763.39 3494.01 2996.09 78.04 7.00
   13:45:29.906.05-Jan-2021 314.97 4767.30 3494.01 2996.09 78.04 7.00
   13:45:30.106.05-Jan-2021 315.17 4769.06 3494.01 2996.09 78.04 7.00
   13:45:30.306.05-Jan-2021 315.38 4769.06 3494.01 2996.09 78.04 7.00
   13:45:30.506.05-Jan-2021 315.58 4775.62 3494.01 2996.09 78.04 7.00
   13:45:30.706.05-Jan-2021 315.78 4774.33 3494.01 2996.09 78.04 7.00
   13:45:30.906.05-Jan-2021 315.98 4766.42 3494.01 2996.09 78.04 7.00
   13:45:31.106.05-Jan-2021 316.18 4773.41 3494.01 2996.09 78.04 7.00
   13:45:31.307.05-Jan-2021 316.38 4773.41 3494.01 2996.09 78.04 7.00
   13:45:31.507.05-Jan-2021 316.58 4774.60 3494.01 2996.09 78.04 7.00
   13:45:31.707.05-Jan-2021 316.78 4775.00 3494.01 2996.09 78.04 7.00
   13:45:31.907.05-Jan-2021 316.98 4774.73 3494.01 2996.09 78.04 7.00
   13:45:32.107.05-Jan-2021 317.18 4768.45 3494.01 2996.09 78.04 7.00
   13:45:32.307.05-Jan-2021 317.38 4776.06 3494.01 2996.09 78.04 7.00
   13:45:32.507.05-Jan-2021 317.58 4769.25 3494.01 2996.09 78.04 7.00
   13:45:32.707.05-Jan-2021 317.78 4774.64 3494.01 2996.09 78.04 7.00
   13:45:32.907.05-Jan-2021 317.98 4773.44 3494.01 2996.09 78.04 7.00
   13:45:33.108.05-Jan-2021 318.18 4770.43 3494.01 2996.09 78.04 7.00
   13:45:33.308.05-Jan-2021 318.38 4770.43 3494.01 2996.09 78.04 7.00
   13:45:33.508.05-Jan-2021 318.58 4774.39 3494.01 2996.09 78.04 7.00
   13:45:33.708.05-Jan-2021 318.78 4860.69 3494.01 2996.09 78.04 7.00
   13:45:33.908.05-Jan-2021 318.98 4882.24 3494.01 2996.09 78.04 7.00
   13:45:34.108.05-Jan-2021 319.18 4883.68 3494.01 2996.09 78.04 7.00
   13:45:34.308.05-Jan-2021 319.38 4883.68 3494.01 2996.09 78.04 7.00
   13:45:34.508.05-Jan-2021 319.58 4883.78 3494.01 2996.09 78.04 7.00
   13:45:34.708.05-Jan-2021 319.78 4883.92 3494.01 2996.09 78.04 7.00
   13:45:34.909.05-Jan-2021 319.98 4883.70 3494.01 2996.09 78.04 7.00
   13:45:35.109.05-Jan-2021 320.18 4883.85 3494.01 2996.09 78.04 7.00
   13:45:35.309.05-Jan-2021 320.38 4883.85 3494.01 2996.09 78.04 7.00
   13:45:35.509.05-Jan-2021 320.58 4882.88 3494.01 2996.09 78.04 7.00
   13:45:35.709.05-Jan-2021 320.78 4884.83 3494.01 2996.09 78.04 7.00
   13:45:35.909.05-Jan-2021 320.98 4883.55 3494.01 2996.09 78.04 7.00
   13:45:36.109.05-Jan-2021 321.18 4883.57 3494.01 2996.09 78.04 7.00
   13:45:36.309.05-Jan-2021 321.38 4883.57 3494.01 2996.09 78.04 7.00
   13:45:36.509.05-Jan-2021 321.58 4884.23 3494.01 2996.09 78.04 7.00
   13:45:36.710.05-Jan-2021 321.78 4883.52 3494.01 2996.09 78.04 7.00
   13:45:36.910.05-Jan-2021 321.98 4884.50 3494.01 2996.09 78.04 7.00
