~Version Information
 VERS.                  2.0:   CWLS log ASCII Standard -VERSION 2.0
 WRAP.                   NO:   One line per depth step
~Well Information Block
#MNEM.UNIT     VALUE/NAME     DESCRIPTION
#---------     -----------    ---------------------------
 STRT.S             07:28:27 05-Jan-21: START TIME 07:28:27 05-Jan-21
 STOP.S             07:36:40 05-Jan-21: STOP TIME  07:36:40 05-Jan-21
 STEP.S                   0.00: STEP TIME
 NULL.                 -999.25: NULL VALUE
 DFWT.                        :  DIST FWL TEXT
 DFST.                        :  DIST FSL TEXT
 DMF .             Drill Floor:  DRILL MEAS FROM
 STIM.      06.00.00 31-Dec-20:  START TIME
 DATE.      05.58.24 07-Jan-21:  END TIME
 SPUD.               24-Dec-20:  SPUD DATE
 NREF.                    Grid:  NORTH REFERENCE
 HPTY.       Minimum Curvature:  HOLE POS TYPE
 DMOD.             Drill Model:  DRILL MOD DESC
 SVYD.                  Survey:  SURVEY DESC
 ILTD.               Lithology:  INTERP LTH DESC
 FTOP.          Formation Tops:  FORM TOPS DESC
 SON .        AZ-XX-0906699554:  JOB NUMBER
 WELL.                    B09z:  WELL NAME
 PDAT.          Mean Sea Level:  PERMANENT DATUM
 FLD .                     ACG:  FIELD NAME
 CTRY.              Azerbaijan:  COUNTRY NAME
 COMP.     BP Exploration (Caspian Sea) Ltd.:  COMPANY
 UWI .                     N/A:  UNIQUE WELL IDENTIFIER
 API .                     N/A:  API NUMBER
 WTYP.                Deviated:  WELL TYPE
 MDS .        Operator Entered:  MAG DATA SOURCE
 BASE.              Azerbaijan:  LOGGING EQUIPMENT BASE LOCATION
 REGN.                   EESSA:  REGION
 PROV.                    Baku:  PROVINCE
 STAT.                    Baku:  STATE NAME
 SRVC.          Turan Drilling:  CONTRACTOR
 MWDS.                    Baku:  MWD SHOP
 JOBN.        AZ-XX-0906699554:  JOB TICKET NUMB
 RIG .           Central Azeri:  RIG NAME
 DOE .                     N/A:  DOE NUMBER
 DCON.         Sperry Drilling:  DIRECTNL CONTR
 UNIT.                     N/A:  LOGGING EQUIPMENT ID
 CNTY.                        :  COUNTY
 LOC .                        :  LOCATION
 LMF .             Drill Floor:  LOG MEASURED FROM
 TVDS.m                  43.29:  TVDSS CORRECTN
 LATI.deg                40.03:  LATITUDE
 LONG.deg                51.35:  LONGITUDE
 WHNS.m                  -2.76:  WELL HEAD N/S
 WHEW.m                  -7.70:  WELL HEAD E/W
 UTMX.m              530128.28:  UTM X
 UTMY.m             4433192.49:  UTM Y
 DFWL.m                   0.00:  DISTANCE FWL
 DFSL.m                   0.00:  DISTANCE FSL
 SDEP.m                3435.01:  START DEPTH
 TDD .m                3814.01:  TOTAL DEPTH (DRILLER)
 VSDR.deg               352.80:  VERT SEC DIRECT
 GVFD.g                   1.00:  GRAVITY FIELD
 MFLD.nT              50303.00:  MAGNETIC FIELD
 MDIP.deg                59.52:  MAGNETIC DIP
 MDEC.deg                 6.47:  MAGNETIC DECL
 GRDC.deg                 0.23:  GRID CORRECTION
 AZTC.deg                 6.24:  AZM TOTAL CORR
 EPD .m                   0.00:  ELEVATION
 EGL .m                   0.00:  GROUND ELEVATION
 WDMS.m                 128.20:  WD ELEV
 APD .m                  43.29:  DEPTH ABOVE PD
 DEP .m                3421.30:  DEPTH
 AGAP.m                  43.60:  AIR GAP
 VSEW.m                  -7.70:  VERT SEC E/W
 VSNS.m                  -2.76:  VERT SEC N/S
 EKB .m                   0.00:  KB ELEVATION
 EDF .m                  43.29:  DF ELEVATION
 TDL .m                 369.00:  TOTAL DEPTH (LOGGER)
 VSC .                       0:  VS TO CLOSURE
 MAGU.                 1850390:  MAGUTM CHECKSUM
~Parameter Information Block
#MNEM.UNIT       Value        Description
#---------     -----------    ---------------------------
 AV  .mps                 2.80:  Ann Velocity 
 AVMX.mps                 4.67:  Max Ann Veloc 
 AZIF.deg               303.89:  Azm, Final 
 BHAT.        Rotary Steerable:  BHA Type 
 BREV.rev            128542.00:  Rev Bit Total 
 BROT.°/30m               1.50:  Build Rotating 
 BS  .in                  8.50:  Bit Size 
 BSZ .in                  8.50:  Bit Size 
 BTPL.psig              715.00:  Bit Press Loss 
 CABU.                      No:  Customer Abuse 
 COMM.                     ÜNb:  Run Comments 1 
 TCS .hr                 53.00:  Time Ciculation Ended 
 CV  .mps                 3.85:  Crit Velocity 
 CVMX.mps                 4.75:  Max Crit Veloc 
 DD1 .         Intigam Rahimov:  Direct Drillr 1 
 DDSV.                 iCruise:  DD Service 
 DEFF.%                  98.60:  % Det Eff 
 DLRX.°/30m               2.34:  Dogleg Rot Max 
 DLSO.°/30m               0.00:  Dogleg Oriented 
 DLSX.°/30m               0.00:  Dogleg Str Max 
 DRET.      00.15.00 05-Jan-21:  Drill End Time 
 DRST.      22.00.00 03-Jan-21:  Drill Start Tim 
 DTIM.hr                 17.72:  Time Drilling 
 EDEP.m                3814.01:  End Depth 
 ENG1.         Yevgeniy Ulikov:  Engineer 1 
 ENG2.        Farkhad Khalidov:  Engineer 2 
 ENG3.           Samir Gafarov:  Engineer 3 
 ETIM.      21.00.00 07-Jan-21:  End Time 
 FLOI.gpm               590.00:  Flow In 
 FLON.gpm               580.00:  Flow In Min 
 FLOS.cptm                1.00:  Fluid Loss 
 FLOX.gpm               595.00:  Flow In Max 
 FTRO.     Connectivity, Formation Presure:  FTWD Run Obj 
 HFLO.                      No:  High Flow 
 HPRE.                     Yes:  High Pressure 
 HTEM.                      No:  High Temp 
 HYDO.m                   1.80:  Hydro Offset 
 IFIN.deg                63.76:  Inc, Final 
 IMAX.deg                64.09:  Inc Max 
 IMIN.deg                55.81:  Inc Min 
 IMND.m                3455.62:  Inc Min Depth 
 IMXD.m                3796.03:  Inc Max Depth 
 JARR.                      No:  Jarring 
 LETM.      00.15.00 05-Jan-21:  Log End Time 
 LOST.hr                     0:  Lost Rig Time 
 LSTM.      22.00.00 03-Jan-21:  Log Start Time 
 MDCL.ppm             36000.00:  Mud Chlorides 
 MDES.     Inversion Oil/Synthetic:  Mud Desc 
 DFD .sg                  1.51:  Mud Density 
 MDMN.sg                  1.51:  Dens Mud Min 
 MDMX.sg                  1.51:  Dens Mud Max 
 MOIL.                    55.5:  Run Mud Oil % 
 MOWR.                   70:30:  Run Mud OWR 
 MSND.                     0.1:  Run Mud Sand % 
 MSOL.                   20.77:  Run Mud Solids% 
 DFV .spqt               67.00:  Mud Viscosity 
 MWOD.in                  6.75:  MWD Tool OD 
 MWSI.                      No:  Serv Intrp, MWD 
 OTIM.hr                113.53:  Time Operating 
 PCON.           Look Like New:  Pad Condition 
 PMAX.psia             4830.00:  Press Op, Max 
 PV  .cP                 29.00:  Mud PV 
 RUN .                     300:  Run Number 
 ROPA.m/hr               22.00:  ROP Avg 
 ROPN.m/hr               18.00:  ROP Min 
 ROPX.m/hr               25.00:  ROP Max 
 RPMA.rpm               130.00:  RPM Surface Avg 
 RPMN.rpm                80.00:  RPM Surface Min 
 RPMX.rpm               140.00:  RPM Surface Max 
 RRUN.                    L101:  Rig Run Number 
 RTIM.hr                  9.28:  Time Reaming 
 SAZI.deg               316.55:  Azm, Start 
 SDEP.m                3445.01:  Start Depth 
 SIDD.                      No:  Serv Intrp, DD 
 SINC.deg                55.81:  Inc, Start 
 SPPA.psig             4500.00:  SPP Avg 
 SPPN.psig             4350.00:  SPP Min 
 SPPX.psig             4830.00:  SPP Max 
 STIM.      00.00.00 03-Jan-21:  Start Time 
 SVCS.                 DD, MWD:  Services 
 SVER.                    9.20:  Sperry Version 
 TDAT.m                 369.00:  Tot Depth Attmp 
 TDDF.                      No:  Trip for DD 
 TDLG.m                 369.00:  Tot Depth Loggd 
 TFF .                      No:  Trip for Fail 
 TQAA.f-kp               15.00:  Torque Abs Avg 
 TQAN.f-kp               12.00:  Torque Abs Min 
 TQAX.f-kp               16.00:  Torque Abs Max 
 TRRT.°/30m              -2.10:  Turn Rotating 
 MRT .                    HCIM:  Maximum Recorded Temperature 
 TTMX.degC               92.16:  Max Tool Temp 
 VS01.                90627822:  Virtual Str1 SN 
 VS02.                90550008:  Virtual Str2 SN 
 VS03.                90627816:  Virtual Str3 SN 
 VS04.                90633205:  Virtual Str4 SN 
 VS05.                13033835:  Virtual Str5 SN 
 VS06.                11125125:  Virtual Str6 SN 
 WBMN.klb                 8.00:  WOB Min 
 WITN.            Bruce Cheyne:  Customer Rep 
 WITN.           Faig Mammadov:  Customer Rep 2 
 WOBA.klb                 9.00:  WOB Avg 
 WOBX.klb                12.00:  WOB Max 
 YP  .lhf2               30.00:  Yield Point 
~Curve Information Block
#MNEM.UNIT                 API CODE     Curve Description
#---------               -----------    ---------------------------
 TIME.HHMMSS            00 000 000 000:  GT Time & Date
 GTET.sec               00 000 000 000:  GT Elapsed Test Time
 GTPQH.psia             00 000 000 000:  GT HR Quartz Pressure
 GTDEPTH.m              00 000 000 000:  GT Depth
 GTTVD.m                00 000 000 000:  GT True Vertical Depth
 GTTQ.degC              00 000 000 000:  GT Quartz Temperature
 GTTN.NONE              00 000 000 000:  GT Test Number
#Other Information
#
#WARRANTY: Halliburton will use its best efforts to furnish customers with 
#accurate information and interpretations that are part of, and incident to, the services 
#provided.  However, Halliburton cannot and does not warrant the accuracy 
#or correctness of such information and interpretations.  Under no circumstances should any 
#such information or interpretation be relied upon as the sole basis for any drilling, 
#completion, production, or financial decision or any procedure involving any risk to the 
#safety of any drilling venture, drilling rig or its crew or any other third party.  The 
#Customer has full responsibility for all drilling, completion and production operation.  
#Halliburton makes no representations or warranties, either expressed or 
#implied, including, but not limited to, the implied warranties of merchantability or fitness 
#for a particular purpose, with respect to the services rendered.  In no event will 
#Halliburton be liable for failure to obtain any particular results or for 
#any damages, including, but not limited to, indirect, special or consequential damages, 
#resulting from the use of any information or interpretation provided by Halliburton.
#
~A           TIME            GTET   GTPQH  GTDEPTH  GTTVD  GTTQ  GTTN 
# ...
   07:31:08.324.05-Jan-2021 161.06 4413.84 3656.51 3079.56 81.10 4.00
   07:31:08.524.05-Jan-2021 161.26 4413.84 3656.51 3079.56 81.10 4.00
   07:31:08.724.05-Jan-2021 161.46 4413.86 3656.51 3079.56 81.10 4.00
   07:31:08.924.05-Jan-2021 161.66 4414.02 3656.51 3079.56 81.10 4.00
   07:31:09.124.05-Jan-2021 161.86 4413.82 3656.51 3079.56 81.10 4.00
   07:31:09.324.05-Jan-2021 162.06 4414.12 3656.51 3079.56 81.10 4.00
   07:31:09.524.05-Jan-2021 162.26 4414.12 3656.51 3079.56 81.10 4.00
   07:31:09.725.05-Jan-2021 162.46 4414.03 3656.51 3079.56 81.11 4.00
   07:31:09.925.05-Jan-2021 162.66 4413.84 3656.51 3079.56 81.11 4.00
   07:31:10.125.05-Jan-2021 162.86 4413.86 3656.51 3079.56 81.11 4.00
   07:31:10.325.05-Jan-2021 163.06 4413.99 3656.51 3079.56 81.11 4.00
   07:31:10.525.05-Jan-2021 163.26 4413.99 3656.51 3079.56 81.11 4.00
   07:31:10.725.05-Jan-2021 163.46 4413.92 3656.51 3079.56 81.11 4.00
   07:31:10.925.05-Jan-2021 163.66 4414.01 3656.51 3079.56 81.11 4.00
   07:31:11.125.05-Jan-2021 163.86 4413.48 3656.51 3079.56 81.11 4.00
   07:31:11.325.05-Jan-2021 164.06 4414.32 3656.51 3079.56 81.11 4.00
   07:31:11.525.05-Jan-2021 164.26 4414.32 3656.51 3079.56 81.11 4.00
   07:31:11.725.05-Jan-2021 164.46 4414.10 3656.51 3079.56 81.11 4.00
   07:31:11.925.05-Jan-2021 164.66 4413.78 3656.51 3079.56 81.11 4.00
   07:31:12.125.05-Jan-2021 164.86 4413.93 3656.51 3079.56 81.11 4.00
   07:31:12.325.05-Jan-2021 165.06 4413.95 3656.51 3079.56 81.11 4.00
   07:31:12.526.05-Jan-2021 165.26 4413.95 3656.51 3079.56 81.11 4.00
   07:31:12.726.05-Jan-2021 165.46 4413.85 3656.51 3079.56 81.11 4.00
   07:31:12.926.05-Jan-2021 165.66 4413.93 3656.51 3079.56 81.11 4.00
   07:31:13.126.05-Jan-2021 165.86 4413.93 3656.51 3079.56 81.11 4.00
   07:31:13.326.05-Jan-2021 166.06 4413.83 3656.51 3079.56 81.11 4.00
   07:31:13.526.05-Jan-2021 166.26 4413.83 3656.51 3079.56 81.11 4.00
   07:31:13.726.05-Jan-2021 166.46 4413.95 3656.51 3079.56 81.11 4.00
   07:31:13.926.05-Jan-2021 166.66 4413.92 3656.51 3079.56 81.11 4.00
   07:31:14.126.05-Jan-2021 166.86 4414.14 3656.51 3079.56 81.11 4.00
   07:31:14.326.05-Jan-2021 167.06 4413.41 3656.51 3079.56 81.11 4.00
   07:31:14.526.05-Jan-2021 167.26 4413.41 3656.51 3079.56 81.11 4.00
   07:31:14.726.05-Jan-2021 167.46 4413.90 3656.51 3079.56 81.11 4.00
   07:31:14.926.05-Jan-2021 167.66 4414.05 3656.51 3079.56 81.11 4.00
   07:31:15.127.05-Jan-2021 167.86 4413.26 3656.51 3079.56 81.11 4.00
   07:31:15.327.05-Jan-2021 168.06 4414.36 3656.51 3079.56 81.11 4.00
   07:31:15.527.05-Jan-2021 168.26 4414.36 3656.51 3079.56 81.11 4.00
   07:31:15.727.05-Jan-2021 168.46 4413.90 3656.51 3079.56 81.11 4.00
   07:31:15.927.05-Jan-2021 168.66 4413.64 3656.51 3079.56 81.11 4.00
   07:31:16.127.05-Jan-2021 168.86 4414.12 3656.51 3079.56 81.11 4.00
   07:31:16.327.05-Jan-2021 169.06 4414.08 3656.51 3079.56 81.11 4.00
   07:31:16.527.05-Jan-2021 169.26 4414.08 3656.51 3079.56 81.11 4.00
   07:31:16.727.05-Jan-2021 169.46 4413.69 3656.51 3079.56 81.11 4.00
   07:31:16.927.05-Jan-2021 169.66 4414.05 3656.51 3079.56 81.11 4.00
   07:31:17.127.05-Jan-2021 169.86 4414.04 3656.51 3079.56 81.11 4.00
   07:31:17.327.05-Jan-2021 170.06 4413.87 3656.51 3079.56 81.11 4.00
   07:31:17.527.05-Jan-2021 170.26 4413.87 3656.51 3079.56 81.11 4.00
   07:31:17.727.05-Jan-2021 170.46 4413.87 3656.51 3079.56 81.11 4.00
   07:31:17.928.05-Jan-2021 170.66 4414.29 3656.51 3079.56 81.11 4.00
   07:31:18.128.05-Jan-2021 170.86 4413.67 3656.51 3079.56 81.11 4.00
   07:31:18.328.05-Jan-2021 171.06 4413.88 3656.51 3079.56 81.11 4.00
   07:31:18.528.05-Jan-2021 171.26 4413.88 3656.51 3079.56 81.11 4.00
   07:31:18.728.05-Jan-2021 171.46 4286.14 3656.51 3079.56 81.11 4.00
   07:31:18.928.05-Jan-2021 171.66 4293.97 3656.51 3079.56 81.11 4.00
   07:31:19.128.05-Jan-2021 171.86 4285.76 3656.51 3079.56 81.11 4.00
   07:31:19.328.05-Jan-2021 172.06 4276.41 3656.51 3079.56 81.12 4.00
   07:31:19.528.05-Jan-2021 172.26 4276.41 3656.51 3079.56 81.12 4.00
   07:31:19.728.05-Jan-2021 172.46 4271.50 3656.51 3079.56 81.12 4.00
   07:31:19.928.05-Jan-2021 172.66 4311.30 3656.51 3079.56 81.12 4.00
   07:31:20.128.05-Jan-2021 172.86 4339.43 3656.51 3079.56 81.12 4.00
   07:31:20.328.05-Jan-2021 173.06 4275.49 3656.51 3079.56 81.12 4.00
   07:31:20.529.05-Jan-2021 173.26 4275.49 3656.51 3079.56 81.12 4.00
   07:31:20.729.05-Jan-2021 173.46 4279.26 3656.51 3079.56 81.12 4.00
   07:31:20.929.05-Jan-2021 173.66 4280.99 3656.51 3079.56 81.12 4.00
   07:31:21.129.05-Jan-2021 173.86 4285.24 3656.51 3079.56 81.12 4.00
   07:31:21.329.05-Jan-2021 174.06 4275.92 3656.51 3079.56 81.12 4.00
   07:31:21.529.05-Jan-2021 174.26 4275.92 3656.51 3079.56 81.12 4.00
   07:31:21.729.05-Jan-2021 174.46 4278.93 3656.51 3079.56 81.12 4.00
   07:31:21.929.05-Jan-2021 174.66 4288.43 3656.51 3079.56 81.12 4.00
   07:31:22.129.05-Jan-2021 174.86 4283.65 3656.51 3079.56 81.12 4.00
   07:31:22.329.05-Jan-2021 175.06 4275.65 3656.51 3079.56 81.12 4.00
   07:31:22.529.05-Jan-2021 175.27 4275.65 3656.51 3079.56 81.12 4.00
   07:31:22.729.05-Jan-2021 175.47 4277.42 3656.51 3079.56 81.12 4.00
   07:31:22.929.05-Jan-2021 175.67 4298.81 3656.51 3079.56 81.12 4.00
   07:31:23.130.05-Jan-2021 175.87 4282.41 3656.51 3079.56 81.12 4.00
   07:31:23.330.05-Jan-2021 176.07 4294.32 3656.51 3079.56 81.12 4.00
   07:31:23.530.05-Jan-2021 176.27 4294.32 3656.51 3079.56 81.12 4.00
   07:31:23.730.05-Jan-2021 176.47 4311.29 3656.51 3079.56 81.12 4.00
   07:31:23.930.05-Jan-2021 176.67 4284.27 3656.51 3079.56 81.12 4.00
   07:31:24.130.05-Jan-2021 176.87 4290.40 3656.51 3079.56 81.12 4.00
   07:31:24.330.05-Jan-2021 177.07 4294.34 3656.51 3079.56 81.12 4.00
   07:31:24.530.05-Jan-2021 177.27 4294.34 3656.51 3079.56 81.12 4.00
   07:31:24.730.05-Jan-2021 177.47 4292.20 3656.51 3079.56 81.12 4.00
   07:31:24.930.05-Jan-2021 177.67 4286.99 3656.51 3079.56 81.12 4.00
   07:31:25.130.05-Jan-2021 177.87 4295.29 3656.51 3079.56 81.12 4.00
   07:31:25.330.05-Jan-2021 178.07 4290.89 3656.51 3079.56 81.12 4.00
   07:31:25.530.05-Jan-2021 178.27 4290.89 3656.51 3079.56 81.12 4.00
   07:31:25.730.05-Jan-2021 178.47 4314.67 3656.51 3079.56 81.12 4.00
   07:31:25.931.05-Jan-2021 178.67 4296.79 3656.51 3079.56 81.12 4.00
   07:31:26.131.05-Jan-2021 178.87 4316.24 3656.51 3079.56 81.12 4.00
   07:31:26.331.05-Jan-2021 179.07 4362.01 3656.51 3079.56 81.12 4.00
   07:31:26.531.05-Jan-2021 179.27 4362.01 3656.51 3079.56 81.12 4.00
   07:31:26.731.05-Jan-2021 179.47 4305.17 3656.51 3079.56 81.12 4.00
   07:31:26.931.05-Jan-2021 179.67 4296.64 3656.51 3079.56 81.12 4.00
   07:31:27.131.05-Jan-2021 179.87 4298.97 3656.51 3079.56 81.12 4.00
   07:31:27.331.05-Jan-2021 180.07 4306.21 3656.51 3079.56 81.12 4.00
   07:31:27.531.05-Jan-2021 180.27 4313.89 3656.51 3079.56 81.12 4.00
   07:31:27.731.05-Jan-2021 180.47 4297.92 3656.51 3079.56 81.12 4.00
   07:31:27.931.05-Jan-2021 180.67 4318.48 3656.51 3079.56 81.12 4.00
   07:31:28.131.05-Jan-2021 180.87 4302.16 3656.51 3079.56 81.12 4.00
   07:31:28.331.05-Jan-2021 181.07 4306.93 3656.51 3079.56 81.12 4.00
   07:31:28.532.05-Jan-2021 181.27 4306.93 3656.51 3079.56 81.12 4.00
   07:31:28.732.05-Jan-2021 181.47 4296.11 3656.51 3079.56 81.12 4.00
   07:31:28.932.05-Jan-2021 181.67 4372.42 3656.51 3079.56 81.12 4.00
   07:31:29.132.05-Jan-2021 181.87 4411.23 3656.51 3079.56 81.12 4.00
   07:31:29.332.05-Jan-2021 182.07 4413.53 3656.51 3079.56 81.12 4.00
   07:31:29.532.05-Jan-2021 182.27 4413.53 3656.51 3079.56 81.12 4.00
   07:31:29.732.05-Jan-2021 182.47 4413.39 3656.51 3079.56 81.12 4.00
   07:31:29.932.05-Jan-2021 182.67 4413.14 3656.51 3079.56 81.12 4.00
   07:31:30.132.05-Jan-2021 182.87 4413.12 3656.51 3079.56 81.12 4.00
   07:31:30.332.05-Jan-2021 183.07 4413.52 3656.51 3079.56 81.12 4.00
   07:31:30.532.05-Jan-2021 183.27 4413.52 3656.51 3079.56 81.12 4.00
   07:31:30.732.05-Jan-2021 183.47 4413.88 3656.51 3079.56 81.12 4.00
   07:31:30.932.05-Jan-2021 183.67 4413.47 3656.51 3079.56 81.12 4.00
   07:31:31.132.05-Jan-2021 183.87 4413.72 3656.51 3079.56 81.12 4.00
