~Version Information
 VERS.                  2.0:   CWLS log ASCII Standard -VERSION 2.0
 WRAP.                   NO:   One line per depth step
~Well Information Block
#MNEM.UNIT     VALUE/NAME     DESCRIPTION
#---------     -----------    ---------------------------
 STRT.S             08:46:17 05-Jan-21: START TIME 08:46:17 05-Jan-21
 STOP.S             08:54:30 05-Jan-21: STOP TIME  08:54:30 05-Jan-21
 STEP.S                   0.00: STEP TIME
 NULL.                 -999.25: NULL VALUE
 DFWT.                        :  DIST FWL TEXT
 DFST.                        :  DIST FSL TEXT
 DMF .             Drill Floor:  DRILL MEAS FROM
 STIM.      06.00.00 31-Dec-20:  START TIME
 DATE.      05.58.24 07-Jan-21:  END TIME
 SPUD.               24-Dec-20:  SPUD DATE
 NREF.                    Grid:  NORTH REFERENCE
 HPTY.       Minimum Curvature:  HOLE POS TYPE
 DMOD.             Drill Model:  DRILL MOD DESC
 SVYD.                  Survey:  SURVEY DESC
 ILTD.               Lithology:  INTERP LTH DESC
 FTOP.          Formation Tops:  FORM TOPS DESC
 SON .        AZ-XX-0906699554:  JOB NUMBER
 WELL.                    B09z:  WELL NAME
 PDAT.          Mean Sea Level:  PERMANENT DATUM
 FLD .                     ACG:  FIELD NAME
 CTRY.              Azerbaijan:  COUNTRY NAME
 COMP.     BP Exploration (Caspian Sea) Ltd.:  COMPANY
 UWI .                     N/A:  UNIQUE WELL IDENTIFIER
 API .                     N/A:  API NUMBER
 WTYP.                Deviated:  WELL TYPE
 MDS .        Operator Entered:  MAG DATA SOURCE
 BASE.              Azerbaijan:  LOGGING EQUIPMENT BASE LOCATION
 REGN.                   EESSA:  REGION
 PROV.                    Baku:  PROVINCE
 STAT.                    Baku:  STATE NAME
 SRVC.          Turan Drilling:  CONTRACTOR
 MWDS.                    Baku:  MWD SHOP
 JOBN.        AZ-XX-0906699554:  JOB TICKET NUMB
 RIG .           Central Azeri:  RIG NAME
 DOE .                     N/A:  DOE NUMBER
 DCON.         Sperry Drilling:  DIRECTNL CONTR
 UNIT.                     N/A:  LOGGING EQUIPMENT ID
 CNTY.                        :  COUNTY
 LOC .                        :  LOCATION
 LMF .             Drill Floor:  LOG MEASURED FROM
 TVDS.m                  43.29:  TVDSS CORRECTN
 LATI.deg                40.03:  LATITUDE
 LONG.deg                51.35:  LONGITUDE
 WHNS.m                  -2.76:  WELL HEAD N/S
 WHEW.m                  -7.70:  WELL HEAD E/W
 UTMX.m              530128.28:  UTM X
 UTMY.m             4433192.49:  UTM Y
 DFWL.m                   0.00:  DISTANCE FWL
 DFSL.m                   0.00:  DISTANCE FSL
 SDEP.m                3435.01:  START DEPTH
 TDD .m                3814.01:  TOTAL DEPTH (DRILLER)
 VSDR.deg               352.80:  VERT SEC DIRECT
 GVFD.g                   1.00:  GRAVITY FIELD
 MFLD.nT              50303.00:  MAGNETIC FIELD
 MDIP.deg                59.52:  MAGNETIC DIP
 MDEC.deg                 6.47:  MAGNETIC DECL
 GRDC.deg                 0.23:  GRID CORRECTION
 AZTC.deg                 6.24:  AZM TOTAL CORR
 EPD .m                   0.00:  ELEVATION
 EGL .m                   0.00:  GROUND ELEVATION
 WDMS.m                 128.20:  WD ELEV
 APD .m                  43.29:  DEPTH ABOVE PD
 DEP .m                3421.30:  DEPTH
 AGAP.m                  43.60:  AIR GAP
 VSEW.m                  -7.70:  VERT SEC E/W
 VSNS.m                  -2.76:  VERT SEC N/S
 EKB .m                   0.00:  KB ELEVATION
 EDF .m                  43.29:  DF ELEVATION
 TDL .m                 369.00:  TOTAL DEPTH (LOGGER)
 VSC .                       0:  VS TO CLOSURE
 MAGU.                 1850390:  MAGUTM CHECKSUM
~Parameter Information Block
#MNEM.UNIT       Value        Description
#---------     -----------    ---------------------------
 AV  .mps                 2.80:  Ann Velocity 
 AVMX.mps                 4.67:  Max Ann Veloc 
 AZIF.deg               303.89:  Azm, Final 
 BHAT.        Rotary Steerable:  BHA Type 
 BREV.rev            128542.00:  Rev Bit Total 
 BROT.°/30m               1.50:  Build Rotating 
 BS  .in                  8.50:  Bit Size 
 BSZ .in                  8.50:  Bit Size 
 BTPL.psig              715.00:  Bit Press Loss 
 CABU.                      No:  Customer Abuse 
 COMM.                     Œã}:  Run Comments 1 
 TCS .hr                 53.00:  Time Ciculation Ended 
 CV  .mps                 3.85:  Crit Velocity 
 CVMX.mps                 4.75:  Max Crit Veloc 
 DD1 .         Intigam Rahimov:  Direct Drillr 1 
 DDSV.                 iCruise:  DD Service 
 DEFF.%                  98.60:  % Det Eff 
 DLRX.°/30m               2.34:  Dogleg Rot Max 
 DLSO.°/30m               0.00:  Dogleg Oriented 
 DLSX.°/30m               0.00:  Dogleg Str Max 
 DRET.      00.15.00 05-Jan-21:  Drill End Time 
 DRST.      22.00.00 03-Jan-21:  Drill Start Tim 
 DTIM.hr                 17.72:  Time Drilling 
 EDEP.m                3814.01:  End Depth 
 ENG1.         Yevgeniy Ulikov:  Engineer 1 
 ENG2.        Farkhad Khalidov:  Engineer 2 
 ENG3.           Samir Gafarov:  Engineer 3 
 ETIM.      21.00.00 07-Jan-21:  End Time 
 FLOI.gpm               590.00:  Flow In 
 FLON.gpm               580.00:  Flow In Min 
 FLOS.cptm                1.00:  Fluid Loss 
 FLOX.gpm               595.00:  Flow In Max 
 FTRO.     Connectivity, Formation Presure:  FTWD Run Obj 
 HFLO.                      No:  High Flow 
 HPRE.                     Yes:  High Pressure 
 HTEM.                      No:  High Temp 
 HYDO.m                   1.80:  Hydro Offset 
 IFIN.deg                63.76:  Inc, Final 
 IMAX.deg                64.09:  Inc Max 
 IMIN.deg                55.81:  Inc Min 
 IMND.m                3455.62:  Inc Min Depth 
 IMXD.m                3796.03:  Inc Max Depth 
 JARR.                      No:  Jarring 
 LETM.      00.15.00 05-Jan-21:  Log End Time 
 LOST.hr                     0:  Lost Rig Time 
 LSTM.      22.00.00 03-Jan-21:  Log Start Time 
 MDCL.ppm             36000.00:  Mud Chlorides 
 MDES.     Inversion Oil/Synthetic:  Mud Desc 
 DFD .sg                  1.51:  Mud Density 
 MDMN.sg                  1.51:  Dens Mud Min 
 MDMX.sg                  1.51:  Dens Mud Max 
 MOIL.                    55.5:  Run Mud Oil % 
 MOWR.                   70:30:  Run Mud OWR 
 MSND.                     0.1:  Run Mud Sand % 
 MSOL.                   20.77:  Run Mud Solids% 
 DFV .spqt               67.00:  Mud Viscosity 
 MWOD.in                  6.75:  MWD Tool OD 
 MWSI.                      No:  Serv Intrp, MWD 
 OTIM.hr                113.53:  Time Operating 
 PCON.           Look Like New:  Pad Condition 
 PMAX.psia             4830.00:  Press Op, Max 
 PV  .cP                 29.00:  Mud PV 
 RUN .                     300:  Run Number 
 ROPA.m/hr               22.00:  ROP Avg 
 ROPN.m/hr               18.00:  ROP Min 
 ROPX.m/hr               25.00:  ROP Max 
 RPMA.rpm               130.00:  RPM Surface Avg 
 RPMN.rpm                80.00:  RPM Surface Min 
 RPMX.rpm               140.00:  RPM Surface Max 
 RRUN.                    L101:  Rig Run Number 
 RTIM.hr                  9.28:  Time Reaming 
 SAZI.deg               316.55:  Azm, Start 
 SDEP.m                3445.01:  Start Depth 
 SIDD.                      No:  Serv Intrp, DD 
 SINC.deg                55.81:  Inc, Start 
 SPPA.psig             4500.00:  SPP Avg 
 SPPN.psig             4350.00:  SPP Min 
 SPPX.psig             4830.00:  SPP Max 
 STIM.      00.00.00 03-Jan-21:  Start Time 
 SVCS.                 DD, MWD:  Services 
 SVER.                    9.20:  Sperry Version 
 TDAT.m                 369.00:  Tot Depth Attmp 
 TDDF.                      No:  Trip for DD 
 TDLG.m                 369.00:  Tot Depth Loggd 
 TFF .                      No:  Trip for Fail 
 TQAA.f-kp               15.00:  Torque Abs Avg 
 TQAN.f-kp               12.00:  Torque Abs Min 
 TQAX.f-kp               16.00:  Torque Abs Max 
 TRRT.°/30m              -2.10:  Turn Rotating 
 MRT .                    HCIM:  Maximum Recorded Temperature 
 TTMX.degC               92.16:  Max Tool Temp 
 VS01.                90627822:  Virtual Str1 SN 
 VS02.                90550008:  Virtual Str2 SN 
 VS03.                90627816:  Virtual Str3 SN 
 VS04.                90633205:  Virtual Str4 SN 
 VS05.                13033835:  Virtual Str5 SN 
 VS06.                11125125:  Virtual Str6 SN 
 WBMN.klb                 8.00:  WOB Min 
 WITN.            Bruce Cheyne:  Customer Rep 
 WITN.           Faig Mammadov:  Customer Rep 2 
 WOBA.klb                 9.00:  WOB Avg 
 WOBX.klb                12.00:  WOB Max 
 YP  .lhf2               30.00:  Yield Point 
~Curve Information Block
#MNEM.UNIT                 API CODE     Curve Description
#---------               -----------    ---------------------------
 TIME.HHMMSS            00 000 000 000:  GT Time & Date
 GTET.sec               00 000 000 000:  GT Elapsed Test Time
 GTPQH.psia             00 000 000 000:  GT HR Quartz Pressure
 GTDEPTH.m              00 000 000 000:  GT Depth
 GTTVD.m                00 000 000 000:  GT True Vertical Depth
 GTTQ.degC              00 000 000 000:  GT Quartz Temperature
 GTTN.NONE              00 000 000 000:  GT Test Number
#Other Information
#
#WARRANTY: Halliburton will use its best efforts to furnish customers with 
#accurate information and interpretations that are part of, and incident to, the services 
#provided.  However, Halliburton cannot and does not warrant the accuracy 
#or correctness of such information and interpretations.  Under no circumstances should any 
#such information or interpretation be relied upon as the sole basis for any drilling, 
#completion, production, or financial decision or any procedure involving any risk to the 
#safety of any drilling venture, drilling rig or its crew or any other third party.  The 
#Customer has full responsibility for all drilling, completion and production operation.  
#Halliburton makes no representations or warranties, either expressed or 
#implied, including, but not limited to, the implied warranties of merchantability or fitness 
#for a particular purpose, with respect to the services rendered.  In no event will 
#Halliburton be liable for failure to obtain any particular results or for 
#any damages, including, but not limited to, indirect, special or consequential damages, 
#resulting from the use of any information or interpretation provided by Halliburton.
#
~A           TIME            GTET   GTPQH  GTDEPTH  GTTVD  GTTQ  GTTN 
# ...
   08:48:13.040.05-Jan-2021 115.04 4605.55 3625.51 3064.84 80.15 6.00
   08:48:13.241.05-Jan-2021 115.24 4605.58 3625.51 3064.84 80.15 6.00
   08:48:13.441.05-Jan-2021 115.44 4605.58 3625.51 3064.84 80.15 6.00
   08:48:13.641.05-Jan-2021 115.64 4605.59 3625.51 3064.84 80.15 6.00
   08:48:13.841.05-Jan-2021 115.84 4605.55 3625.51 3064.84 80.15 6.00
   08:48:14.041.05-Jan-2021 116.04 4604.92 3625.51 3064.84 80.15 6.00
   08:48:14.241.05-Jan-2021 116.24 4604.92 3625.51 3064.84 80.15 6.00
   08:48:14.441.05-Jan-2021 116.44 4605.70 3625.51 3064.84 80.15 6.00
   08:48:14.641.05-Jan-2021 116.64 4605.75 3625.51 3064.84 80.15 6.00
   08:48:14.841.05-Jan-2021 116.84 4605.57 3625.51 3064.84 80.15 6.00
   08:48:15.041.05-Jan-2021 117.04 4605.58 3625.51 3064.84 80.15 6.00
   08:48:15.241.05-Jan-2021 117.24 4605.58 3625.51 3064.84 80.15 6.00
   08:48:15.441.05-Jan-2021 117.44 4605.64 3625.51 3064.84 80.15 6.00
   08:48:15.641.05-Jan-2021 117.64 4605.58 3625.51 3064.84 80.15 6.00
   08:48:15.842.05-Jan-2021 117.84 4605.52 3625.51 3064.84 80.15 6.00
   08:48:16.042.05-Jan-2021 118.04 4605.62 3625.51 3064.84 80.15 6.00
   08:48:16.242.05-Jan-2021 118.24 4605.62 3625.51 3064.84 80.15 6.00
   08:48:16.442.05-Jan-2021 118.44 4605.52 3625.51 3064.84 80.15 6.00
   08:48:16.642.05-Jan-2021 118.64 4605.07 3625.51 3064.84 80.15 6.00
   08:48:16.842.05-Jan-2021 118.84 4605.78 3625.51 3064.84 80.15 6.00
   08:48:17.042.05-Jan-2021 119.04 4605.79 3625.51 3064.84 80.15 6.00
   08:48:17.242.05-Jan-2021 119.24 4605.32 3625.51 3064.84 80.15 6.00
   08:48:17.442.05-Jan-2021 119.44 4605.74 3625.51 3064.84 80.15 6.00
   08:48:17.642.05-Jan-2021 119.64 4605.75 3625.51 3064.84 80.15 6.00
   08:48:17.842.05-Jan-2021 119.84 4605.72 3625.51 3064.84 80.15 6.00
   08:48:18.042.05-Jan-2021 120.04 4605.63 3625.51 3064.84 80.15 6.00
   08:48:18.242.05-Jan-2021 120.24 4605.63 3625.51 3064.84 80.15 6.00
   08:48:18.442.05-Jan-2021 120.44 4605.87 3625.51 3064.84 80.15 6.00
   08:48:18.643.05-Jan-2021 120.64 4605.83 3625.51 3064.84 80.14 6.00
   08:48:18.843.05-Jan-2021 120.84 4605.84 3625.51 3064.84 80.14 6.00
   08:48:19.043.05-Jan-2021 121.04 4605.62 3625.51 3064.84 80.14 6.00
   08:48:19.243.05-Jan-2021 121.24 4605.62 3625.51 3064.84 80.14 6.00
   08:48:19.443.05-Jan-2021 121.45 4604.96 3625.51 3064.84 80.14 6.00
   08:48:19.643.05-Jan-2021 121.65 4605.76 3625.51 3064.84 80.14 6.00
   08:48:19.843.05-Jan-2021 121.85 4605.73 3625.51 3064.84 80.14 6.00
   08:48:20.043.05-Jan-2021 122.05 4605.81 3625.51 3064.84 80.14 6.00
   08:48:20.243.05-Jan-2021 122.25 4605.81 3625.51 3064.84 80.14 6.00
   08:48:20.443.05-Jan-2021 122.45 4605.54 3625.51 3064.84 80.14 6.00
   08:48:20.643.05-Jan-2021 122.65 4605.69 3625.51 3064.84 80.14 6.00
   08:48:20.843.05-Jan-2021 122.85 4605.72 3625.51 3064.84 80.14 6.00
   08:48:21.043.05-Jan-2021 123.05 4605.73 3625.51 3064.84 80.14 6.00
   08:48:21.244.05-Jan-2021 123.25 4605.73 3625.51 3064.84 80.14 6.00
   08:48:21.444.05-Jan-2021 123.45 4605.56 3625.51 3064.84 80.14 6.00
   08:48:21.644.05-Jan-2021 123.65 4605.52 3625.51 3064.84 80.14 6.00
   08:48:21.844.05-Jan-2021 123.85 4605.55 3625.51 3064.84 80.14 6.00
   08:48:22.044.05-Jan-2021 124.05 4605.51 3625.51 3064.84 80.14 6.00
   08:48:22.244.05-Jan-2021 124.25 4605.51 3625.51 3064.84 80.14 6.00
   08:48:22.444.05-Jan-2021 124.45 4605.59 3625.51 3064.84 80.14 6.00
   08:48:22.644.05-Jan-2021 124.65 4605.55 3625.51 3064.84 80.14 6.00
   08:48:22.844.05-Jan-2021 124.85 4605.54 3625.51 3064.84 80.14 6.00
   08:48:23.044.05-Jan-2021 125.05 4604.67 3625.51 3064.84 80.14 6.00
   08:48:23.244.05-Jan-2021 125.25 4604.67 3625.51 3064.84 80.14 6.00
   08:48:23.444.05-Jan-2021 125.45 4605.78 3625.51 3064.84 80.14 6.00
   08:48:23.644.05-Jan-2021 125.65 4605.67 3625.51 3064.84 80.14 6.00
   08:48:23.844.05-Jan-2021 125.85 4605.73 3625.51 3064.84 80.14 6.00
   08:48:24.045.05-Jan-2021 126.05 4605.65 3625.51 3064.84 80.14 6.00
   08:48:24.245.05-Jan-2021 126.25 4605.65 3625.51 3064.84 80.14 6.00
   08:48:24.445.05-Jan-2021 126.45 4605.63 3625.51 3064.84 80.14 6.00
   08:48:24.645.05-Jan-2021 126.65 4605.56 3625.51 3064.84 80.14 6.00
   08:48:24.845.05-Jan-2021 126.85 4605.52 3625.51 3064.84 80.14 6.00
   08:48:25.045.05-Jan-2021 127.05 4605.57 3625.51 3064.84 80.14 6.00
   08:48:25.245.05-Jan-2021 127.25 4605.57 3625.51 3064.84 80.14 6.00
   08:48:25.445.05-Jan-2021 127.45 4605.57 3625.51 3064.84 80.14 6.00
   08:48:25.645.05-Jan-2021 127.65 4605.08 3625.51 3064.84 80.14 6.00
   08:48:25.845.05-Jan-2021 127.85 4605.52 3625.51 3064.84 80.14 6.00
   08:48:26.045.05-Jan-2021 128.05 4605.68 3625.51 3064.84 80.14 6.00
   08:48:26.245.05-Jan-2021 128.25 4605.68 3625.51 3064.84 80.14 6.00
   08:48:26.445.05-Jan-2021 128.45 4606.08 3625.51 3064.84 80.14 6.00
   08:48:26.646.05-Jan-2021 128.65 4605.74 3625.51 3064.84 80.14 6.00
   08:48:26.846.05-Jan-2021 128.85 4605.69 3625.51 3064.84 80.14 6.00
   08:48:27.046.05-Jan-2021 129.05 4605.68 3625.51 3064.84 80.14 6.00
   08:48:27.246.05-Jan-2021 129.25 4605.68 3625.51 3064.84 80.14 6.00
   08:48:27.446.05-Jan-2021 129.45 4604.99 3625.51 3064.84 80.14 6.00
   08:48:27.646.05-Jan-2021 129.65 4605.69 3625.51 3064.84 80.14 6.00
   08:48:27.846.05-Jan-2021 129.85 4605.70 3625.51 3064.84 80.14 6.00
   08:48:28.046.05-Jan-2021 130.05 4605.72 3625.51 3064.84 80.14 6.00
   08:48:28.246.05-Jan-2021 130.25 4605.72 3625.51 3064.84 80.14 6.00
   08:48:28.446.05-Jan-2021 130.45 4604.70 3625.51 3064.84 80.14 6.00
   08:48:28.646.05-Jan-2021 130.65 4605.95 3625.51 3064.84 80.14 6.00
   08:48:28.846.05-Jan-2021 130.85 4605.74 3625.51 3064.84 80.14 6.00
   08:48:29.046.05-Jan-2021 131.05 4605.66 3625.51 3064.84 80.14 6.00
   08:48:29.246.05-Jan-2021 131.25 4605.74 3625.51 3064.84 80.14 6.00
   08:48:29.447.05-Jan-2021 131.45 4604.87 3625.51 3064.84 80.14 6.00
   08:48:29.647.05-Jan-2021 131.65 4605.82 3625.51 3064.84 80.14 6.00
   08:48:29.847.05-Jan-2021 131.85 4605.67 3625.51 3064.84 80.14 6.00
   08:48:30.047.05-Jan-2021 132.05 4605.75 3625.51 3064.84 80.14 6.00
   08:48:30.247.05-Jan-2021 132.25 4605.75 3625.51 3064.84 80.14 6.00
   08:48:30.447.05-Jan-2021 132.45 4605.58 3625.51 3064.84 80.14 6.00
   08:48:30.647.05-Jan-2021 132.65 4605.54 3625.51 3064.84 80.13 6.00
   08:48:30.847.05-Jan-2021 132.85 4605.51 3625.51 3064.84 80.13 6.00
   08:48:31.047.05-Jan-2021 133.05 4605.50 3625.51 3064.84 80.13 6.00
   08:48:31.247.05-Jan-2021 133.25 4605.50 3625.51 3064.84 80.13 6.00
   08:48:31.447.05-Jan-2021 133.45 4605.55 3625.51 3064.84 80.13 6.00
   08:48:31.647.05-Jan-2021 133.65 4605.54 3625.51 3064.84 80.13 6.00
   08:48:31.847.05-Jan-2021 133.85 4605.52 3625.51 3064.84 80.13 6.00
   08:48:32.048.05-Jan-2021 134.05 4605.51 3625.51 3064.84 80.13 6.00
   08:48:32.248.05-Jan-2021 134.25 4605.51 3625.51 3064.84 80.13 6.00
   08:48:32.448.05-Jan-2021 134.45 4605.69 3625.51 3064.84 80.13 6.00
   08:48:32.648.05-Jan-2021 134.65 4605.70 3625.51 3064.84 80.13 6.00
   08:48:32.848.05-Jan-2021 134.85 4605.81 3625.51 3064.84 80.13 6.00
   08:48:33.048.05-Jan-2021 135.05 4605.51 3625.51 3064.84 80.13 6.00
   08:48:33.248.05-Jan-2021 135.25 4605.59 3625.51 3064.84 80.13 6.00
   08:48:33.448.05-Jan-2021 135.45 4605.51 3625.51 3064.84 80.13 6.00
   08:48:33.648.05-Jan-2021 135.65 4605.54 3625.51 3064.84 80.13 6.00
   08:48:33.848.05-Jan-2021 135.85 4605.54 3625.51 3064.84 80.13 6.00
   08:48:34.048.05-Jan-2021 136.05 4605.54 3625.51 3064.84 80.13 6.00
   08:48:34.248.05-Jan-2021 136.25 4605.54 3625.51 3064.84 80.13 6.00
   08:48:34.448.05-Jan-2021 136.45 4605.57 3625.51 3064.84 80.13 6.00
   08:48:34.648.05-Jan-2021 136.65 4605.58 3625.51 3064.84 80.13 6.00
   08:48:34.849.05-Jan-2021 136.85 4604.81 3625.51 3064.84 80.13 6.00
   08:48:35.049.05-Jan-2021 137.05 4605.78 3625.51 3064.84 80.13 6.00
   08:48:35.249.05-Jan-2021 137.25 4605.78 3625.51 3064.84 80.13 6.00
   08:48:35.449.05-Jan-2021 137.45 4605.16 3625.51 3064.84 80.13 6.00
   08:48:35.649.05-Jan-2021 137.65 4605.76 3625.51 3064.84 80.13 6.00
   08:48:35.849.05-Jan-2021 137.85 4605.72 3625.51 3064.84 80.13 6.00
