~Version Information
 VERS.                  2.0:   CWLS log ASCII Standard -VERSION 2.0
 WRAP.                   NO:   One line per depth step
~Well Information Block
#MNEM.UNIT     VALUE/NAME     DESCRIPTION
#---------     -----------    ---------------------------
 STRT.S             13:40:14 05-Jan-21: START TIME 13:40:14 05-Jan-21
 STOP.S             13:48:27 05-Jan-21: STOP TIME  13:48:27 05-Jan-21
 STEP.S                   0.00: STEP TIME
 NULL.                 -999.25: NULL VALUE
 DFWT.                        :  DIST FWL TEXT
 DFST.                        :  DIST FSL TEXT
 DMF .             Drill Floor:  DRILL MEAS FROM
 STIM.      06.00.00 31-Dec-20:  START TIME
 DATE.      05.58.24 07-Jan-21:  END TIME
 SPUD.               24-Dec-20:  SPUD DATE
 NREF.                    Grid:  NORTH REFERENCE
 HPTY.       Minimum Curvature:  HOLE POS TYPE
 DMOD.             Drill Model:  DRILL MOD DESC
 SVYD.                  Survey:  SURVEY DESC
 ILTD.               Lithology:  INTERP LTH DESC
 FTOP.          Formation Tops:  FORM TOPS DESC
 SON .        AZ-XX-0906699554:  JOB NUMBER
 WELL.                    B09z:  WELL NAME
 PDAT.          Mean Sea Level:  PERMANENT DATUM
 FLD .                     ACG:  FIELD NAME
 CTRY.              Azerbaijan:  COUNTRY NAME
 COMP.     BP Exploration (Caspian Sea) Ltd.:  COMPANY
 UWI .                     N/A:  UNIQUE WELL IDENTIFIER
 API .                     N/A:  API NUMBER
 WTYP.                Deviated:  WELL TYPE
 MDS .        Operator Entered:  MAG DATA SOURCE
 BASE.              Azerbaijan:  LOGGING EQUIPMENT BASE LOCATION
 REGN.                   EESSA:  REGION
 PROV.                    Baku:  PROVINCE
 STAT.                    Baku:  STATE NAME
 SRVC.          Turan Drilling:  CONTRACTOR
 MWDS.                    Baku:  MWD SHOP
 JOBN.        AZ-XX-0906699554:  JOB TICKET NUMB
 RIG .           Central Azeri:  RIG NAME
 DOE .                     N/A:  DOE NUMBER
 DCON.         Sperry Drilling:  DIRECTNL CONTR
 UNIT.                     N/A:  LOGGING EQUIPMENT ID
 CNTY.                        :  COUNTY
 LOC .                        :  LOCATION
 LMF .             Drill Floor:  LOG MEASURED FROM
 TVDS.m                  43.29:  TVDSS CORRECTN
 LATI.deg                40.03:  LATITUDE
 LONG.deg                51.35:  LONGITUDE
 WHNS.m                  -2.76:  WELL HEAD N/S
 WHEW.m                  -7.70:  WELL HEAD E/W
 UTMX.m              530128.28:  UTM X
 UTMY.m             4433192.49:  UTM Y
 DFWL.m                   0.00:  DISTANCE FWL
 DFSL.m                   0.00:  DISTANCE FSL
 SDEP.m                3435.01:  START DEPTH
 TDD .m                3814.01:  TOTAL DEPTH (DRILLER)
 VSDR.deg               352.80:  VERT SEC DIRECT
 GVFD.g                   1.00:  GRAVITY FIELD
 MFLD.nT              50303.00:  MAGNETIC FIELD
 MDIP.deg                59.52:  MAGNETIC DIP
 MDEC.deg                 6.47:  MAGNETIC DECL
 GRDC.deg                 0.23:  GRID CORRECTION
 AZTC.deg                 6.24:  AZM TOTAL CORR
 EPD .m                   0.00:  ELEVATION
 EGL .m                   0.00:  GROUND ELEVATION
 WDMS.m                 128.20:  WD ELEV
 APD .m                  43.29:  DEPTH ABOVE PD
 DEP .m                3421.30:  DEPTH
 AGAP.m                  43.60:  AIR GAP
 VSEW.m                  -7.70:  VERT SEC E/W
 VSNS.m                  -2.76:  VERT SEC N/S
 EKB .m                   0.00:  KB ELEVATION
 EDF .m                  43.29:  DF ELEVATION
 TDL .m                 369.00:  TOTAL DEPTH (LOGGER)
 VSC .                       0:  VS TO CLOSURE
 MAGU.                 1850390:  MAGUTM CHECKSUM
~Parameter Information Block
#MNEM.UNIT       Value        Description
#---------     -----------    ---------------------------
 AV  .mps                 2.80:  Ann Velocity 
 AVMX.mps                 4.67:  Max Ann Veloc 
 AZIF.deg               303.89:  Azm, Final 
 BHAT.        Rotary Steerable:  BHA Type 
 BREV.rev            128542.00:  Rev Bit Total 
 BROT.°/30m               1.50:  Build Rotating 
 BS  .in                  8.50:  Bit Size 
 BSZ .in                  8.50:  Bit Size 
 BTPL.psig              715.00:  Bit Press Loss 
 CABU.                      No:  Customer Abuse 
 COMM.                     t6w:  Run Comments 1 
 TCS .hr                 53.00:  Time Ciculation Ended 
 CV  .mps                 3.85:  Crit Velocity 
 CVMX.mps                 4.75:  Max Crit Veloc 
 DD1 .         Intigam Rahimov:  Direct Drillr 1 
 DDSV.                 iCruise:  DD Service 
 DEFF.%                  98.60:  % Det Eff 
 DLRX.°/30m               2.34:  Dogleg Rot Max 
 DLSO.°/30m               0.00:  Dogleg Oriented 
 DLSX.°/30m               0.00:  Dogleg Str Max 
 DRET.      00.15.00 05-Jan-21:  Drill End Time 
 DRST.      22.00.00 03-Jan-21:  Drill Start Tim 
 DTIM.hr                 17.72:  Time Drilling 
 EDEP.m                3814.01:  End Depth 
 ENG1.         Yevgeniy Ulikov:  Engineer 1 
 ENG2.        Farkhad Khalidov:  Engineer 2 
 ENG3.           Samir Gafarov:  Engineer 3 
 ETIM.      21.00.00 07-Jan-21:  End Time 
 FLOI.gpm               590.00:  Flow In 
 FLON.gpm               580.00:  Flow In Min 
 FLOS.cptm                1.00:  Fluid Loss 
 FLOX.gpm               595.00:  Flow In Max 
 FTRO.     Connectivity, Formation Presure:  FTWD Run Obj 
 HFLO.                      No:  High Flow 
 HPRE.                     Yes:  High Pressure 
 HTEM.                      No:  High Temp 
 HYDO.m                   1.80:  Hydro Offset 
 IFIN.deg                63.76:  Inc, Final 
 IMAX.deg                64.09:  Inc Max 
 IMIN.deg                55.81:  Inc Min 
 IMND.m                3455.62:  Inc Min Depth 
 IMXD.m                3796.03:  Inc Max Depth 
 JARR.                      No:  Jarring 
 LETM.      00.15.00 05-Jan-21:  Log End Time 
 LOST.hr                     0:  Lost Rig Time 
 LSTM.      22.00.00 03-Jan-21:  Log Start Time 
 MDCL.ppm             36000.00:  Mud Chlorides 
 MDES.     Inversion Oil/Synthetic:  Mud Desc 
 DFD .sg                  1.51:  Mud Density 
 MDMN.sg                  1.51:  Dens Mud Min 
 MDMX.sg                  1.51:  Dens Mud Max 
 MOIL.                    55.5:  Run Mud Oil % 
 MOWR.                   70:30:  Run Mud OWR 
 MSND.                     0.1:  Run Mud Sand % 
 MSOL.                   20.77:  Run Mud Solids% 
 DFV .spqt               67.00:  Mud Viscosity 
 MWOD.in                  6.75:  MWD Tool OD 
 MWSI.                      No:  Serv Intrp, MWD 
 OTIM.hr                113.53:  Time Operating 
 PCON.           Look Like New:  Pad Condition 
 PMAX.psia             4830.00:  Press Op, Max 
 PV  .cP                 29.00:  Mud PV 
 RUN .                     300:  Run Number 
 ROPA.m/hr               22.00:  ROP Avg 
 ROPN.m/hr               18.00:  ROP Min 
 ROPX.m/hr               25.00:  ROP Max 
 RPMA.rpm               130.00:  RPM Surface Avg 
 RPMN.rpm                80.00:  RPM Surface Min 
 RPMX.rpm               140.00:  RPM Surface Max 
 RRUN.                    L101:  Rig Run Number 
 RTIM.hr                  9.28:  Time Reaming 
 SAZI.deg               316.55:  Azm, Start 
 SDEP.m                3445.01:  Start Depth 
 SIDD.                      No:  Serv Intrp, DD 
 SINC.deg                55.81:  Inc, Start 
 SPPA.psig             4500.00:  SPP Avg 
 SPPN.psig             4350.00:  SPP Min 
 SPPX.psig             4830.00:  SPP Max 
 STIM.      00.00.00 03-Jan-21:  Start Time 
 SVCS.                 DD, MWD:  Services 
 SVER.                    9.20:  Sperry Version 
 TDAT.m                 369.00:  Tot Depth Attmp 
 TDDF.                      No:  Trip for DD 
 TDLG.m                 369.00:  Tot Depth Loggd 
 TFF .                      No:  Trip for Fail 
 TQAA.f-kp               15.00:  Torque Abs Avg 
 TQAN.f-kp               12.00:  Torque Abs Min 
 TQAX.f-kp               16.00:  Torque Abs Max 
 TRRT.°/30m              -2.10:  Turn Rotating 
 MRT .                    HCIM:  Maximum Recorded Temperature 
 TTMX.degC               92.16:  Max Tool Temp 
 VS01.                90627822:  Virtual Str1 SN 
 VS02.                90550008:  Virtual Str2 SN 
 VS03.                90627816:  Virtual Str3 SN 
 VS04.                90633205:  Virtual Str4 SN 
 VS05.                13033835:  Virtual Str5 SN 
 VS06.                11125125:  Virtual Str6 SN 
 WBMN.klb                 8.00:  WOB Min 
 WITN.            Bruce Cheyne:  Customer Rep 
 WITN.           Faig Mammadov:  Customer Rep 2 
 WOBA.klb                 9.00:  WOB Avg 
 WOBX.klb                12.00:  WOB Max 
 YP  .lhf2               30.00:  Yield Point 
~Curve Information Block
#MNEM.UNIT                 API CODE     Curve Description
#---------               -----------    ---------------------------
 TIME.HHMMSS            00 000 000 000:  GT Time & Date
 GTET.sec               00 000 000 000:  GT Elapsed Test Time
 GTPQH.psia             00 000 000 000:  GT HR Quartz Pressure
 GTDEPTH.m              00 000 000 000:  GT Depth
 GTTVD.m                00 000 000 000:  GT True Vertical Depth
 GTTQ.degC              00 000 000 000:  GT Quartz Temperature
 GTTN.NONE              00 000 000 000:  GT Test Number
#Other Information
#
#WARRANTY: Halliburton will use its best efforts to furnish customers with 
#accurate information and interpretations that are part of, and incident to, the services 
#provided.  However, Halliburton cannot and does not warrant the accuracy 
#or correctness of such information and interpretations.  Under no circumstances should any 
#such information or interpretation be relied upon as the sole basis for any drilling, 
#completion, production, or financial decision or any procedure involving any risk to the 
#safety of any drilling venture, drilling rig or its crew or any other third party.  The 
#Customer has full responsibility for all drilling, completion and production operation.  
#Halliburton makes no representations or warranties, either expressed or 
#implied, including, but not limited to, the implied warranties of merchantability or fitness 
#for a particular purpose, with respect to the services rendered.  In no event will 
#Halliburton be liable for failure to obtain any particular results or for 
#any damages, including, but not limited to, indirect, special or consequential damages, 
#resulting from the use of any information or interpretation provided by Halliburton.
#
~A           TIME            GTET   GTPQH  GTDEPTH  GTTVD  GTTQ  GTTN 
# ...
   13:42:56.020.05-Jan-2021 161.09 4883.90 3494.01 2996.09 77.91 7.00
   13:42:56.220.05-Jan-2021 161.29 4883.90 3494.01 2996.09 77.91 7.00
   13:42:56.421.05-Jan-2021 161.49 4884.57 3494.01 2996.09 77.91 7.00
   13:42:56.621.05-Jan-2021 161.69 4883.92 3494.01 2996.09 77.91 7.00
   13:42:56.821.05-Jan-2021 161.89 4884.63 3494.01 2996.09 77.91 7.00
   13:42:57.021.05-Jan-2021 162.09 4883.93 3494.01 2996.09 77.91 7.00
   13:42:57.221.05-Jan-2021 162.29 4883.93 3494.01 2996.09 77.91 7.00
   13:42:57.421.05-Jan-2021 162.49 4884.41 3494.01 2996.09 77.91 7.00
   13:42:57.621.05-Jan-2021 162.69 4883.97 3494.01 2996.09 77.91 7.00
   13:42:57.821.05-Jan-2021 162.89 4884.39 3494.01 2996.09 77.91 7.00
   13:42:58.021.05-Jan-2021 163.09 4884.21 3494.01 2996.09 77.92 7.00
   13:42:58.222.05-Jan-2021 163.29 4884.21 3494.01 2996.09 77.92 7.00
   13:42:58.422.05-Jan-2021 163.49 4883.95 3494.01 2996.09 77.92 7.00
   13:42:58.622.05-Jan-2021 163.69 4884.65 3494.01 2996.09 77.92 7.00
   13:42:58.822.05-Jan-2021 163.89 4883.99 3494.01 2996.09 77.92 7.00
   13:42:59.022.05-Jan-2021 164.09 4884.04 3494.01 2996.09 77.92 7.00
   13:42:59.222.05-Jan-2021 164.29 4884.04 3494.01 2996.09 77.92 7.00
   13:42:59.422.05-Jan-2021 164.49 4884.34 3494.01 2996.09 77.92 7.00
   13:42:59.622.05-Jan-2021 164.69 4883.79 3494.01 2996.09 77.92 7.00
   13:42:59.822.05-Jan-2021 164.89 4884.19 3494.01 2996.09 77.92 7.00
   13:43:00.023.05-Jan-2021 165.09 4884.25 3494.01 2996.09 77.92 7.00
   13:43:00.223.05-Jan-2021 165.29 4883.67 3494.01 2996.09 77.92 7.00
   13:43:00.423.05-Jan-2021 165.49 4884.34 3494.01 2996.09 77.92 7.00
   13:43:00.623.05-Jan-2021 165.69 4884.27 3494.01 2996.09 77.92 7.00
   13:43:00.823.05-Jan-2021 165.89 4884.05 3494.01 2996.09 77.92 7.00
   13:43:01.023.05-Jan-2021 166.09 4884.07 3494.01 2996.09 77.92 7.00
   13:43:01.223.05-Jan-2021 166.29 4884.15 3494.01 2996.09 77.92 7.00
   13:43:01.423.05-Jan-2021 166.49 4883.84 3494.01 2996.09 77.92 7.00
   13:43:01.623.05-Jan-2021 166.69 4884.56 3494.01 2996.09 77.92 7.00
   13:43:01.824.05-Jan-2021 166.89 4883.96 3494.01 2996.09 77.92 7.00
   13:43:02.024.05-Jan-2021 167.09 4884.23 3494.01 2996.09 77.92 7.00
   13:43:02.224.05-Jan-2021 167.29 4884.00 3494.01 2996.09 77.92 7.00
   13:43:02.424.05-Jan-2021 167.49 4884.15 3494.01 2996.09 77.92 7.00
   13:43:02.624.05-Jan-2021 167.69 4884.06 3494.01 2996.09 77.92 7.00
   13:43:02.824.05-Jan-2021 167.89 4884.51 3494.01 2996.09 77.92 7.00
   13:43:03.024.05-Jan-2021 168.09 4884.23 3494.01 2996.09 77.92 7.00
   13:43:03.224.05-Jan-2021 168.29 4884.09 3494.01 2996.09 77.92 7.00
   13:43:03.424.05-Jan-2021 168.49 4884.34 3494.01 2996.09 77.92 7.00
   13:43:03.625.05-Jan-2021 168.69 4884.08 3494.01 2996.09 77.92 7.00
   13:43:03.825.05-Jan-2021 168.89 4884.19 3494.01 2996.09 77.92 7.00
   13:43:04.025.05-Jan-2021 169.09 4883.57 3494.01 2996.09 77.92 7.00
   13:43:04.225.05-Jan-2021 169.29 4883.57 3494.01 2996.09 77.92 7.00
   13:43:04.425.05-Jan-2021 169.49 4883.15 3494.01 2996.09 77.92 7.00
   13:43:04.625.05-Jan-2021 169.69 4884.98 3494.01 2996.09 77.92 7.00
   13:43:04.825.05-Jan-2021 169.89 4883.93 3494.01 2996.09 77.92 7.00
   13:43:05.025.05-Jan-2021 170.09 4884.31 3494.01 2996.09 77.92 7.00
   13:43:05.225.05-Jan-2021 170.29 4878.56 3494.01 2996.09 77.92 7.00
   13:43:05.426.05-Jan-2021 170.49 4781.14 3494.01 2996.09 77.92 7.00
   13:43:05.626.05-Jan-2021 170.69 4757.99 3494.01 2996.09 77.92 7.00
   13:43:05.826.05-Jan-2021 170.89 4769.39 3494.01 2996.09 77.92 7.00
   13:43:06.026.05-Jan-2021 171.09 4760.49 3494.01 2996.09 77.92 7.00
   13:43:06.226.05-Jan-2021 171.30 4760.49 3494.01 2996.09 77.92 7.00
   13:43:06.426.05-Jan-2021 171.50 4787.22 3494.01 2996.09 77.92 7.00
   13:43:06.626.05-Jan-2021 171.70 4753.99 3494.01 2996.09 77.92 7.00
   13:43:06.826.05-Jan-2021 171.90 4761.98 3494.01 2996.09 77.92 7.00
   13:43:07.026.05-Jan-2021 172.10 4757.22 3494.01 2996.09 77.92 7.00
   13:43:07.227.05-Jan-2021 172.30 4757.22 3494.01 2996.09 77.92 7.00
   13:43:07.427.05-Jan-2021 172.50 4765.77 3494.01 2996.09 77.92 7.00
   13:43:07.627.05-Jan-2021 172.70 4754.05 3494.01 2996.09 77.92 7.00
   13:43:07.827.05-Jan-2021 172.90 4764.00 3494.01 2996.09 77.92 7.00
   13:43:08.027.05-Jan-2021 173.10 4755.67 3494.01 2996.09 77.92 7.00
   13:43:08.227.05-Jan-2021 173.30 4755.54 3494.01 2996.09 77.92 7.00
   13:43:08.427.05-Jan-2021 173.50 4760.16 3494.01 2996.09 77.92 7.00
   13:43:08.627.05-Jan-2021 173.70 4753.00 3494.01 2996.09 77.92 7.00
   13:43:08.827.05-Jan-2021 173.90 4766.22 3494.01 2996.09 77.92 7.00
   13:43:09.028.05-Jan-2021 174.10 4752.19 3494.01 2996.09 77.92 7.00
   13:43:09.228.05-Jan-2021 174.30 4752.19 3494.01 2996.09 77.92 7.00
   13:43:09.428.05-Jan-2021 174.50 4756.73 3494.01 2996.09 77.92 7.00
   13:43:09.628.05-Jan-2021 174.70 4748.05 3494.01 2996.09 77.92 7.00
   13:43:09.828.05-Jan-2021 174.90 4779.73 3494.01 2996.09 77.92 7.00
   13:43:10.028.05-Jan-2021 175.10 4768.17 3494.01 2996.09 77.92 7.00
   13:43:10.228.05-Jan-2021 175.30 4768.17 3494.01 2996.09 77.92 7.00
   13:43:10.428.05-Jan-2021 175.50 4754.13 3494.01 2996.09 77.92 7.00
   13:43:10.628.05-Jan-2021 175.70 4758.79 3494.01 2996.09 77.92 7.00
   13:43:10.829.05-Jan-2021 175.90 4750.69 3494.01 2996.09 77.92 7.00
   13:43:11.029.05-Jan-2021 176.10 4761.32 3494.01 2996.09 77.92 7.00
   13:43:11.229.05-Jan-2021 176.30 4761.32 3494.01 2996.09 77.92 7.00
   13:43:11.429.05-Jan-2021 176.50 4756.53 3494.01 2996.09 77.92 7.00
   13:43:11.629.05-Jan-2021 176.70 4766.35 3494.01 2996.09 77.92 7.00
   13:43:11.829.05-Jan-2021 176.90 4763.31 3494.01 2996.09 77.92 7.00
   13:43:12.029.05-Jan-2021 177.10 4756.09 3494.01 2996.09 77.92 7.00
   13:43:12.229.05-Jan-2021 177.30 4756.09 3494.01 2996.09 77.92 7.00
   13:43:12.429.05-Jan-2021 177.50 4758.56 3494.01 2996.09 77.92 7.00
   13:43:12.630.05-Jan-2021 177.70 4768.33 3494.01 2996.09 77.92 7.00
   13:43:12.830.05-Jan-2021 177.90 4763.79 3494.01 2996.09 77.92 7.00
   13:43:13.030.05-Jan-2021 178.10 4769.93 3494.01 2996.09 77.92 7.00
   13:43:13.230.05-Jan-2021 178.30 4769.93 3494.01 2996.09 77.92 7.00
   13:43:13.430.05-Jan-2021 178.50 4756.42 3494.01 2996.09 77.92 7.00
   13:43:13.630.05-Jan-2021 178.70 4765.80 3494.01 2996.09 77.92 7.00
   13:43:13.830.05-Jan-2021 178.90 4760.82 3494.01 2996.09 77.92 7.00
   13:43:14.030.05-Jan-2021 179.10 4756.43 3494.01 2996.09 77.92 7.00
   13:43:14.230.05-Jan-2021 179.30 4756.43 3494.01 2996.09 77.92 7.00
   13:43:14.431.05-Jan-2021 179.50 4754.13 3494.01 2996.09 77.93 7.00
   13:43:14.631.05-Jan-2021 179.70 4769.87 3494.01 2996.09 77.93 7.00
   13:43:14.831.05-Jan-2021 179.90 4764.49 3494.01 2996.09 77.93 7.00
   13:43:15.031.05-Jan-2021 180.10 4760.43 3494.01 2996.09 77.93 7.00
   13:43:15.231.05-Jan-2021 180.30 4772.89 3494.01 2996.09 77.93 7.00
   13:43:15.431.05-Jan-2021 180.50 4757.87 3494.01 2996.09 77.93 7.00
   13:43:15.631.05-Jan-2021 180.70 4814.59 3494.01 2996.09 77.93 7.00
   13:43:15.831.05-Jan-2021 180.90 4878.95 3494.01 2996.09 77.93 7.00
   13:43:16.031.05-Jan-2021 181.10 4883.21 3494.01 2996.09 77.93 7.00
   13:43:16.232.05-Jan-2021 181.30 4883.22 3494.01 2996.09 77.93 7.00
   13:43:16.432.05-Jan-2021 181.50 4883.81 3494.01 2996.09 77.93 7.00
   13:43:16.632.05-Jan-2021 181.70 4883.59 3494.01 2996.09 77.93 7.00
   13:43:16.832.05-Jan-2021 181.90 4883.54 3494.01 2996.09 77.93 7.00
   13:43:17.032.05-Jan-2021 182.10 4883.60 3494.01 2996.09 77.93 7.00
   13:43:17.232.05-Jan-2021 182.30 4883.65 3494.01 2996.09 77.93 7.00
   13:43:17.432.05-Jan-2021 182.50 4883.74 3494.01 2996.09 77.93 7.00
   13:43:17.632.05-Jan-2021 182.70 4883.23 3494.01 2996.09 77.93 7.00
   13:43:17.832.05-Jan-2021 182.90 4884.62 3494.01 2996.09 77.93 7.00
   13:43:18.033.05-Jan-2021 183.10 4883.72 3494.01 2996.09 77.93 7.00
   13:43:18.233.05-Jan-2021 183.30 4883.84 3494.01 2996.09 77.93 7.00
   13:43:18.433.05-Jan-2021 183.50 4883.92 3494.01 2996.09 77.93 7.00
   13:43:18.633.05-Jan-2021 183.70 4884.21 3494.01 2996.09 77.93 7.00
   13:43:18.833.05-Jan-2021 183.90 4883.55 3494.01 2996.09 77.93 7.00
