~Version Information
 VERS.                  2.0:   CWLS log ASCII Standard -VERSION 2.0
 WRAP.                   NO:   One line per depth step
~Well Information Block
#MNEM.UNIT     VALUE/NAME     DESCRIPTION
#---------     -----------    ---------------------------
 STRT.S             07:28:27 05-Jan-21: START TIME 07:28:27 05-Jan-21
 STOP.S             07:36:40 05-Jan-21: STOP TIME  07:36:40 05-Jan-21
 STEP.S                   0.00: STEP TIME
 NULL.                 -999.25: NULL VALUE
 DFWT.                        :  DIST FWL TEXT
 DFST.                        :  DIST FSL TEXT
 DMF .             Drill Floor:  DRILL MEAS FROM
 STIM.      06.00.00 31-Dec-20:  START TIME
 DATE.      05.58.24 07-Jan-21:  END TIME
 SPUD.               24-Dec-20:  SPUD DATE
 NREF.                    Grid:  NORTH REFERENCE
 HPTY.       Minimum Curvature:  HOLE POS TYPE
 DMOD.             Drill Model:  DRILL MOD DESC
 SVYD.                  Survey:  SURVEY DESC
 ILTD.               Lithology:  INTERP LTH DESC
 FTOP.          Formation Tops:  FORM TOPS DESC
 SON .        AZ-XX-0906699554:  JOB NUMBER
 WELL.                    B09z:  WELL NAME
 PDAT.          Mean Sea Level:  PERMANENT DATUM
 FLD .                     ACG:  FIELD NAME
 CTRY.              Azerbaijan:  COUNTRY NAME
 COMP.     BP Exploration (Caspian Sea) Ltd.:  COMPANY
 UWI .                     N/A:  UNIQUE WELL IDENTIFIER
 API .                     N/A:  API NUMBER
 WTYP.                Deviated:  WELL TYPE
 MDS .        Operator Entered:  MAG DATA SOURCE
 BASE.              Azerbaijan:  LOGGING EQUIPMENT BASE LOCATION
 REGN.                   EESSA:  REGION
 PROV.                    Baku:  PROVINCE
 STAT.                    Baku:  STATE NAME
 SRVC.          Turan Drilling:  CONTRACTOR
 MWDS.                    Baku:  MWD SHOP
 JOBN.        AZ-XX-0906699554:  JOB TICKET NUMB
 RIG .           Central Azeri:  RIG NAME
 DOE .                     N/A:  DOE NUMBER
 DCON.         Sperry Drilling:  DIRECTNL CONTR
 UNIT.                     N/A:  LOGGING EQUIPMENT ID
 CNTY.                        :  COUNTY
 LOC .                        :  LOCATION
 LMF .             Drill Floor:  LOG MEASURED FROM
 TVDS.m                  43.29:  TVDSS CORRECTN
 LATI.deg                40.03:  LATITUDE
 LONG.deg                51.35:  LONGITUDE
 WHNS.m                  -2.76:  WELL HEAD N/S
 WHEW.m                  -7.70:  WELL HEAD E/W
 UTMX.m              530128.28:  UTM X
 UTMY.m             4433192.49:  UTM Y
 DFWL.m                   0.00:  DISTANCE FWL
 DFSL.m                   0.00:  DISTANCE FSL
 SDEP.m                3435.01:  START DEPTH
 TDD .m                3814.01:  TOTAL DEPTH (DRILLER)
 VSDR.deg               352.80:  VERT SEC DIRECT
 GVFD.g                   1.00:  GRAVITY FIELD
 MFLD.nT              50303.00:  MAGNETIC FIELD
 MDIP.deg                59.52:  MAGNETIC DIP
 MDEC.deg                 6.47:  MAGNETIC DECL
 GRDC.deg                 0.23:  GRID CORRECTION
 AZTC.deg                 6.24:  AZM TOTAL CORR
 EPD .m                   0.00:  ELEVATION
 EGL .m                   0.00:  GROUND ELEVATION
 WDMS.m                 128.20:  WD ELEV
 APD .m                  43.29:  DEPTH ABOVE PD
 DEP .m                3421.30:  DEPTH
 AGAP.m                  43.60:  AIR GAP
 VSEW.m                  -7.70:  VERT SEC E/W
 VSNS.m                  -2.76:  VERT SEC N/S
 EKB .m                   0.00:  KB ELEVATION
 EDF .m                  43.29:  DF ELEVATION
 TDL .m                 369.00:  TOTAL DEPTH (LOGGER)
 VSC .                       0:  VS TO CLOSURE
 MAGU.                 1850390:  MAGUTM CHECKSUM
~Parameter Information Block
#MNEM.UNIT       Value        Description
#---------     -----------    ---------------------------
 AV  .mps                 2.80:  Ann Velocity 
 AVMX.mps                 4.67:  Max Ann Veloc 
 AZIF.deg               303.89:  Azm, Final 
 BHAT.        Rotary Steerable:  BHA Type 
 BREV.rev            128542.00:  Rev Bit Total 
 BROT.°/30m               1.50:  Build Rotating 
 BS  .in                  8.50:  Bit Size 
 BSZ .in                  8.50:  Bit Size 
 BTPL.psig              715.00:  Bit Press Loss 
 CABU.                      No:  Customer Abuse 
 COMM.                     ÜNb:  Run Comments 1 
 TCS .hr                 53.00:  Time Ciculation Ended 
 CV  .mps                 3.85:  Crit Velocity 
 CVMX.mps                 4.75:  Max Crit Veloc 
 DD1 .         Intigam Rahimov:  Direct Drillr 1 
 DDSV.                 iCruise:  DD Service 
 DEFF.%                  98.60:  % Det Eff 
 DLRX.°/30m               2.34:  Dogleg Rot Max 
 DLSO.°/30m               0.00:  Dogleg Oriented 
 DLSX.°/30m               0.00:  Dogleg Str Max 
 DRET.      00.15.00 05-Jan-21:  Drill End Time 
 DRST.      22.00.00 03-Jan-21:  Drill Start Tim 
 DTIM.hr                 17.72:  Time Drilling 
 EDEP.m                3814.01:  End Depth 
 ENG1.         Yevgeniy Ulikov:  Engineer 1 
 ENG2.        Farkhad Khalidov:  Engineer 2 
 ENG3.           Samir Gafarov:  Engineer 3 
 ETIM.      21.00.00 07-Jan-21:  End Time 
 FLOI.gpm               590.00:  Flow In 
 FLON.gpm               580.00:  Flow In Min 
 FLOS.cptm                1.00:  Fluid Loss 
 FLOX.gpm               595.00:  Flow In Max 
 FTRO.     Connectivity, Formation Presure:  FTWD Run Obj 
 HFLO.                      No:  High Flow 
 HPRE.                     Yes:  High Pressure 
 HTEM.                      No:  High Temp 
 HYDO.m                   1.80:  Hydro Offset 
 IFIN.deg                63.76:  Inc, Final 
 IMAX.deg                64.09:  Inc Max 
 IMIN.deg                55.81:  Inc Min 
 IMND.m                3455.62:  Inc Min Depth 
 IMXD.m                3796.03:  Inc Max Depth 
 JARR.                      No:  Jarring 
 LETM.      00.15.00 05-Jan-21:  Log End Time 
 LOST.hr                     0:  Lost Rig Time 
 LSTM.      22.00.00 03-Jan-21:  Log Start Time 
 MDCL.ppm             36000.00:  Mud Chlorides 
 MDES.     Inversion Oil/Synthetic:  Mud Desc 
 DFD .sg                  1.51:  Mud Density 
 MDMN.sg                  1.51:  Dens Mud Min 
 MDMX.sg                  1.51:  Dens Mud Max 
 MOIL.                    55.5:  Run Mud Oil % 
 MOWR.                   70:30:  Run Mud OWR 
 MSND.                     0.1:  Run Mud Sand % 
 MSOL.                   20.77:  Run Mud Solids% 
 DFV .spqt               67.00:  Mud Viscosity 
 MWOD.in                  6.75:  MWD Tool OD 
 MWSI.                      No:  Serv Intrp, MWD 
 OTIM.hr                113.53:  Time Operating 
 PCON.           Look Like New:  Pad Condition 
 PMAX.psia             4830.00:  Press Op, Max 
 PV  .cP                 29.00:  Mud PV 
 RUN .                     300:  Run Number 
 ROPA.m/hr               22.00:  ROP Avg 
 ROPN.m/hr               18.00:  ROP Min 
 ROPX.m/hr               25.00:  ROP Max 
 RPMA.rpm               130.00:  RPM Surface Avg 
 RPMN.rpm                80.00:  RPM Surface Min 
 RPMX.rpm               140.00:  RPM Surface Max 
 RRUN.                    L101:  Rig Run Number 
 RTIM.hr                  9.28:  Time Reaming 
 SAZI.deg               316.55:  Azm, Start 
 SDEP.m                3445.01:  Start Depth 
 SIDD.                      No:  Serv Intrp, DD 
 SINC.deg                55.81:  Inc, Start 
 SPPA.psig             4500.00:  SPP Avg 
 SPPN.psig             4350.00:  SPP Min 
 SPPX.psig             4830.00:  SPP Max 
 STIM.      00.00.00 03-Jan-21:  Start Time 
 SVCS.                 DD, MWD:  Services 
 SVER.                    9.20:  Sperry Version 
 TDAT.m                 369.00:  Tot Depth Attmp 
 TDDF.                      No:  Trip for DD 
 TDLG.m                 369.00:  Tot Depth Loggd 
 TFF .                      No:  Trip for Fail 
 TQAA.f-kp               15.00:  Torque Abs Avg 
 TQAN.f-kp               12.00:  Torque Abs Min 
 TQAX.f-kp               16.00:  Torque Abs Max 
 TRRT.°/30m              -2.10:  Turn Rotating 
 MRT .                    HCIM:  Maximum Recorded Temperature 
 TTMX.degC               92.16:  Max Tool Temp 
 VS01.                90627822:  Virtual Str1 SN 
 VS02.                90550008:  Virtual Str2 SN 
 VS03.                90627816:  Virtual Str3 SN 
 VS04.                90633205:  Virtual Str4 SN 
 VS05.                13033835:  Virtual Str5 SN 
 VS06.                11125125:  Virtual Str6 SN 
 WBMN.klb                 8.00:  WOB Min 
 WITN.            Bruce Cheyne:  Customer Rep 
 WITN.           Faig Mammadov:  Customer Rep 2 
 WOBA.klb                 9.00:  WOB Avg 
 WOBX.klb                12.00:  WOB Max 
 YP  .lhf2               30.00:  Yield Point 
~Curve Information Block
#MNEM.UNIT                 API CODE     Curve Description
#---------               -----------    ---------------------------
 TIME.HHMMSS            00 000 000 000:  GT Time & Date
 GTET.sec               00 000 000 000:  GT Elapsed Test Time
 GTPQH.psia             00 000 000 000:  GT HR Quartz Pressure
 GTDEPTH.m              00 000 000 000:  GT Depth
 GTTVD.m                00 000 000 000:  GT True Vertical Depth
 GTTQ.degC              00 000 000 000:  GT Quartz Temperature
 GTTN.NONE              00 000 000 000:  GT Test Number
#Other Information
#
#WARRANTY: Halliburton will use its best efforts to furnish customers with 
#accurate information and interpretations that are part of, and incident to, the services 
#provided.  However, Halliburton cannot and does not warrant the accuracy 
#or correctness of such information and interpretations.  Under no circumstances should any 
#such information or interpretation be relied upon as the sole basis for any drilling, 
#completion, production, or financial decision or any procedure involving any risk to the 
#safety of any drilling venture, drilling rig or its crew or any other third party.  The 
#Customer has full responsibility for all drilling, completion and production operation.  
#Halliburton makes no representations or warranties, either expressed or 
#implied, including, but not limited to, the implied warranties of merchantability or fitness 
#for a particular purpose, with respect to the services rendered.  In no event will 
#Halliburton be liable for failure to obtain any particular results or for 
#any damages, including, but not limited to, indirect, special or consequential damages, 
#resulting from the use of any information or interpretation provided by Halliburton.
#
~A           TIME            GTET   GTPQH  GTDEPTH  GTTVD  GTTQ  GTTN 
# ...
   07:28:50.273.05-Jan-2021  23.01 7554.66 3656.51 3079.56 81.01 4.00
   07:28:50.473.05-Jan-2021  23.21 7554.66 3656.51 3079.56 81.01 4.00
   07:28:50.673.05-Jan-2021  23.41 7553.81 3656.51 3079.56 81.01 4.00
   07:28:50.873.05-Jan-2021  23.61 7552.84 3656.51 3079.56 81.01 4.00
   07:28:51.073.05-Jan-2021  23.81 7555.73 3656.51 3079.56 81.01 4.00
   07:28:51.273.05-Jan-2021  24.01 7554.65 3656.51 3079.56 81.01 4.00
   07:28:51.473.05-Jan-2021  24.21 7554.65 3656.51 3079.56 81.01 4.00
   07:28:51.673.05-Jan-2021  24.41 7567.76 3656.51 3079.56 81.01 4.00
   07:28:51.873.05-Jan-2021  24.61 7553.99 3656.51 3079.56 81.01 4.00
   07:28:52.073.05-Jan-2021  24.81 7556.64 3656.51 3079.56 81.01 4.00
   07:28:52.274.05-Jan-2021  25.01 7559.52 3656.51 3079.56 81.01 4.00
   07:28:52.474.05-Jan-2021  25.21 7559.52 3656.51 3079.56 81.01 4.00
   07:28:52.674.05-Jan-2021  25.41 7559.38 3656.51 3079.56 81.01 4.00
   07:28:52.874.05-Jan-2021  25.61 7559.82 3656.51 3079.56 81.01 4.00
   07:28:53.074.05-Jan-2021  25.81 7553.13 3656.51 3079.56 81.01 4.00
   07:28:53.274.05-Jan-2021  26.01 7550.58 3656.51 3079.56 81.01 4.00
   07:28:53.474.05-Jan-2021  26.21 7550.58 3656.51 3079.56 81.01 4.00
   07:28:53.674.05-Jan-2021  26.41 7549.36 3656.51 3079.56 81.01 4.00
   07:28:53.874.05-Jan-2021  26.61 7551.31 3656.51 3079.56 81.01 4.00
   07:28:54.074.05-Jan-2021  26.81 7547.20 3656.51 3079.56 81.01 4.00
   07:28:54.274.05-Jan-2021  27.01 7550.20 3656.51 3079.56 81.01 4.00
   07:28:54.474.05-Jan-2021  27.21 7550.20 3656.51 3079.56 81.01 4.00
   07:28:54.674.05-Jan-2021  27.41 7551.06 3656.51 3079.56 81.01 4.00
   07:28:54.874.05-Jan-2021  27.61 7549.81 3656.51 3079.56 81.01 4.00
   07:28:55.075.05-Jan-2021  27.81 7555.13 3656.51 3079.56 81.01 4.00
   07:28:55.275.05-Jan-2021  28.01 7554.54 3656.51 3079.56 81.01 4.00
   07:28:55.475.05-Jan-2021  28.21 7554.54 3656.51 3079.56 81.01 4.00
   07:28:55.675.05-Jan-2021  28.41 7565.28 3656.51 3079.56 81.01 4.00
   07:28:55.875.05-Jan-2021  28.61 7557.80 3656.51 3079.56 81.01 4.00
   07:28:56.075.05-Jan-2021  28.81 7754.92 3656.51 3079.56 81.01 4.00
   07:28:56.275.05-Jan-2021  29.01 7832.06 3656.51 3079.56 81.01 4.00
   07:28:56.475.05-Jan-2021  29.21 7832.06 3656.51 3079.56 81.01 4.00
   07:28:56.675.05-Jan-2021  29.41 7821.11 3656.51 3079.56 81.01 4.00
   07:28:56.875.05-Jan-2021  29.61 7815.18 3656.51 3079.56 81.01 4.00
   07:28:57.075.05-Jan-2021  29.81 7827.74 3656.51 3079.56 81.01 4.00
   07:28:57.275.05-Jan-2021  30.01 7816.41 3656.51 3079.56 81.01 4.00
   07:28:57.475.05-Jan-2021  30.21 7816.41 3656.51 3079.56 81.01 4.00
   07:28:57.676.05-Jan-2021  30.41 7601.31 3656.51 3079.56 81.01 4.00
   07:28:57.876.05-Jan-2021  30.61 7521.18 3656.51 3079.56 81.02 4.00
   07:28:58.076.05-Jan-2021  30.81 7460.72 3656.51 3079.56 81.02 4.00
   07:28:58.276.05-Jan-2021  31.01 7408.02 3656.51 3079.56 81.02 4.00
   07:28:58.476.05-Jan-2021  31.21 7408.02 3656.51 3079.56 81.02 4.00
   07:28:58.676.05-Jan-2021  31.41 7338.94 3656.51 3079.56 81.02 4.00
   07:28:58.876.05-Jan-2021  31.61 7303.52 3656.51 3079.56 81.02 4.00
   07:28:59.076.05-Jan-2021  31.81 7289.21 3656.51 3079.56 81.02 4.00
   07:28:59.276.05-Jan-2021  32.01 7268.28 3656.51 3079.56 81.02 4.00
   07:28:59.476.05-Jan-2021  32.21 7248.59 3656.51 3079.56 81.02 4.00
   07:28:59.676.05-Jan-2021  32.41 7230.63 3656.51 3079.56 81.02 4.00
   07:28:59.876.05-Jan-2021  32.61 7227.41 3656.51 3079.56 81.02 4.00
   07:29:00.076.05-Jan-2021  32.81 7231.86 3656.51 3079.56 81.02 4.00
   07:29:00.276.05-Jan-2021  33.01 7238.18 3656.51 3079.56 81.02 4.00
   07:29:00.477.05-Jan-2021  33.21 7238.18 3656.51 3079.56 81.02 4.00
   07:29:00.677.05-Jan-2021  33.41 7248.16 3656.51 3079.56 81.02 4.00
   07:29:00.877.05-Jan-2021  33.61 7246.75 3656.51 3079.56 81.02 4.00
   07:29:01.077.05-Jan-2021  33.81 7242.86 3656.51 3079.56 81.02 4.00
   07:29:01.277.05-Jan-2021  34.01 7233.88 3656.51 3079.56 81.02 4.00
   07:29:01.477.05-Jan-2021  34.21 7233.88 3656.51 3079.56 81.02 4.00
   07:29:01.677.05-Jan-2021  34.41 7102.40 3656.51 3079.56 81.02 4.00
   07:29:01.877.05-Jan-2021  34.61 6544.35 3656.51 3079.56 81.02 4.00
   07:29:02.077.05-Jan-2021  34.81 5954.61 3656.51 3079.56 81.02 4.00
   07:29:02.277.05-Jan-2021  35.01 5787.98 3656.51 3079.56 81.02 4.00
   07:29:02.477.05-Jan-2021  35.21 5787.98 3656.51 3079.56 81.02 4.00
   07:29:02.677.05-Jan-2021  35.41 4878.95 3656.51 3079.56 81.01 4.00
   07:29:02.877.05-Jan-2021  35.61 4347.52 3656.51 3079.56 81.01 4.00
   07:29:03.078.05-Jan-2021  35.81 4320.88 3656.51 3079.56 81.01 4.00
   07:29:03.278.05-Jan-2021  36.01 4305.79 3656.51 3079.56 81.01 4.00
   07:29:03.478.05-Jan-2021  36.21 4293.29 3656.51 3079.56 81.01 4.00
   07:29:03.678.05-Jan-2021  36.41 4289.06 3656.51 3079.56 81.01 4.00
   07:29:03.878.05-Jan-2021  36.61 4286.36 3656.51 3079.56 81.01 4.00
   07:29:04.078.05-Jan-2021  36.81 4285.29 3656.51 3079.56 81.01 4.00
   07:29:04.278.05-Jan-2021  37.01 4298.80 3656.51 3079.56 81.00 4.00
   07:29:04.478.05-Jan-2021  37.21 4298.80 3656.51 3079.56 81.00 4.00
   07:29:04.678.05-Jan-2021  37.41 4290.30 3656.51 3079.56 81.00 4.00
   07:29:04.878.05-Jan-2021  37.61 4314.40 3656.51 3079.56 81.00 4.00
   07:29:05.078.05-Jan-2021  37.81 4302.70 3656.51 3079.56 80.99 4.00
   07:29:05.278.05-Jan-2021  38.01 4274.17 3656.51 3079.56 80.99 4.00
   07:29:05.478.05-Jan-2021  38.21 4274.17 3656.51 3079.56 80.99 4.00
   07:29:05.678.05-Jan-2021  38.41 4283.09 3656.51 3079.56 80.99 4.00
   07:29:05.879.05-Jan-2021  38.61 4288.42 3656.51 3079.56 80.98 4.00
   07:29:06.079.05-Jan-2021  38.81 4304.44 3656.51 3079.56 80.98 4.00
   07:29:06.279.05-Jan-2021  39.01 4303.55 3656.51 3079.56 80.98 4.00
   07:29:06.479.05-Jan-2021  39.21 4303.55 3656.51 3079.56 80.98 4.00
   07:29:06.679.05-Jan-2021  39.41 4294.46 3656.51 3079.56 80.97 4.00
   07:29:06.879.05-Jan-2021  39.61 4311.18 3656.51 3079.56 80.97 4.00
   07:29:07.079.05-Jan-2021  39.81 4295.21 3656.51 3079.56 80.97 4.00
   07:29:07.279.05-Jan-2021  40.01 4281.21 3656.51 3079.56 80.97 4.00
   07:29:07.479.05-Jan-2021  40.21 4281.21 3656.51 3079.56 80.97 4.00
   07:29:07.679.05-Jan-2021  40.41 4310.15 3656.51 3079.56 80.96 4.00
   07:29:07.879.05-Jan-2021  40.62 4287.42 3656.51 3079.56 80.96 4.00
   07:29:08.079.05-Jan-2021  40.82 4303.40 3656.51 3079.56 80.96 4.00
   07:29:08.279.05-Jan-2021  41.02 4295.14 3656.51 3079.56 80.96 4.00
   07:29:08.480.05-Jan-2021  41.22 4295.14 3656.51 3079.56 80.96 4.00
   07:29:08.680.05-Jan-2021  41.42 4311.33 3656.51 3079.56 80.95 4.00
   07:29:08.880.05-Jan-2021  41.62 4286.30 3656.51 3079.56 80.95 4.00
   07:29:09.080.05-Jan-2021  41.82 4297.00 3656.51 3079.56 80.95 4.00
   07:29:09.280.05-Jan-2021  42.02 4323.58 3656.51 3079.56 80.95 4.00
   07:29:09.480.05-Jan-2021  42.22 4323.58 3656.51 3079.56 80.95 4.00
   07:29:09.680.05-Jan-2021  42.42 4307.83 3656.51 3079.56 80.95 4.00
   07:29:09.880.05-Jan-2021  42.62 4308.00 3656.51 3079.56 80.94 4.00
   07:29:10.080.05-Jan-2021  42.82 4310.63 3656.51 3079.56 80.94 4.00
   07:29:10.280.05-Jan-2021  43.02 4306.61 3656.51 3079.56 80.94 4.00
   07:29:10.480.05-Jan-2021  43.22 4306.61 3656.51 3079.56 80.94 4.00
   07:29:10.680.05-Jan-2021  43.42 4403.77 3656.51 3079.56 80.94 4.00
   07:29:10.880.05-Jan-2021  43.62 4412.24 3656.51 3079.56 80.94 4.00
   07:29:11.080.05-Jan-2021  43.82 4412.79 3656.51 3079.56 80.94 4.00
   07:29:11.281.05-Jan-2021  44.02 4412.50 3656.51 3079.56 80.94 4.00
   07:29:11.481.05-Jan-2021  44.22 4412.50 3656.51 3079.56 80.94 4.00
   07:29:11.681.05-Jan-2021  44.42 4412.57 3656.51 3079.56 80.94 4.00
   07:29:11.881.05-Jan-2021  44.62 4412.66 3656.51 3079.56 80.94 4.00
   07:29:12.081.05-Jan-2021  44.82 4412.68 3656.51 3079.56 80.94 4.00
   07:29:12.281.05-Jan-2021  45.02 4412.76 3656.51 3079.56 80.93 4.00
   07:29:12.481.05-Jan-2021  45.22 4412.76 3656.51 3079.56 80.93 4.00
   07:29:12.681.05-Jan-2021  45.42 4412.82 3656.51 3079.56 80.93 4.00
   07:29:12.881.05-Jan-2021  45.62 4412.80 3656.51 3079.56 80.93 4.00
   07:29:13.081.05-Jan-2021  45.82 4412.85 3656.51 3079.56 80.93 4.00
