~Version Information
 VERS.                  2.0:   CWLS log ASCII Standard -VERSION 2.0
 WRAP.                   NO:   One line per depth step
~Well Information Block
#MNEM.UNIT     VALUE/NAME     DESCRIPTION
#---------     -----------    ---------------------------
 STRT.S             06:03:00 05-Jan-21: START TIME 06:03:00 05-Jan-21
 STOP.S             06:11:11 05-Jan-21: STOP TIME  06:11:11 05-Jan-21
 STEP.S                   0.00: STEP TIME
 NULL.                 -999.25: NULL VALUE
 DFWT.                        :  DIST FWL TEXT
 DFST.                        :  DIST FSL TEXT
 DMF .             Drill Floor:  DRILL MEAS FROM
 STIM.      06.00.00 31-Dec-20:  START TIME
 DATE.      05.58.24 07-Jan-21:  END TIME
 SPUD.               24-Dec-20:  SPUD DATE
 NREF.                    Grid:  NORTH REFERENCE
 HPTY.       Minimum Curvature:  HOLE POS TYPE
 DMOD.             Drill Model:  DRILL MOD DESC
 SVYD.                  Survey:  SURVEY DESC
 ILTD.               Lithology:  INTERP LTH DESC
 FTOP.          Formation Tops:  FORM TOPS DESC
 SON .        AZ-XX-0906699554:  JOB NUMBER
 WELL.                    B09z:  WELL NAME
 PDAT.          Mean Sea Level:  PERMANENT DATUM
 FLD .                     ACG:  FIELD NAME
 CTRY.              Azerbaijan:  COUNTRY NAME
 COMP.     BP Exploration (Caspian Sea) Ltd.:  COMPANY
 UWI .                     N/A:  UNIQUE WELL IDENTIFIER
 API .                     N/A:  API NUMBER
 WTYP.                Deviated:  WELL TYPE
 MDS .        Operator Entered:  MAG DATA SOURCE
 BASE.              Azerbaijan:  LOGGING EQUIPMENT BASE LOCATION
 REGN.                   EESSA:  REGION
 PROV.                    Baku:  PROVINCE
 STAT.                    Baku:  STATE NAME
 SRVC.          Turan Drilling:  CONTRACTOR
 MWDS.                    Baku:  MWD SHOP
 JOBN.        AZ-XX-0906699554:  JOB TICKET NUMB
 RIG .           Central Azeri:  RIG NAME
 DOE .                     N/A:  DOE NUMBER
 DCON.         Sperry Drilling:  DIRECTNL CONTR
 UNIT.                     N/A:  LOGGING EQUIPMENT ID
 CNTY.                        :  COUNTY
 LOC .                        :  LOCATION
 LMF .             Drill Floor:  LOG MEASURED FROM
 TVDS.m                  43.29:  TVDSS CORRECTN
 LATI.deg                40.03:  LATITUDE
 LONG.deg                51.35:  LONGITUDE
 WHNS.m                  -2.76:  WELL HEAD N/S
 WHEW.m                  -7.70:  WELL HEAD E/W
 UTMX.m              530128.28:  UTM X
 UTMY.m             4433192.49:  UTM Y
 DFWL.m                   0.00:  DISTANCE FWL
 DFSL.m                   0.00:  DISTANCE FSL
 SDEP.m                3435.01:  START DEPTH
 TDD .m                3814.01:  TOTAL DEPTH (DRILLER)
 VSDR.deg               352.80:  VERT SEC DIRECT
 GVFD.g                   1.00:  GRAVITY FIELD
 MFLD.nT              50303.00:  MAGNETIC FIELD
 MDIP.deg                59.52:  MAGNETIC DIP
 MDEC.deg                 6.47:  MAGNETIC DECL
 GRDC.deg                 0.23:  GRID CORRECTION
 AZTC.deg                 6.24:  AZM TOTAL CORR
 EPD .m                   0.00:  ELEVATION
 EGL .m                   0.00:  GROUND ELEVATION
 WDMS.m                 128.20:  WD ELEV
 APD .m                  43.29:  DEPTH ABOVE PD
 DEP .m                3421.30:  DEPTH
 AGAP.m                  43.60:  AIR GAP
 VSEW.m                  -7.70:  VERT SEC E/W
 VSNS.m                  -2.76:  VERT SEC N/S
 EKB .m                   0.00:  KB ELEVATION
 EDF .m                  43.29:  DF ELEVATION
 TDL .m                 369.00:  TOTAL DEPTH (LOGGER)
 VSC .                       0:  VS TO CLOSURE
 MAGU.                 1850390:  MAGUTM CHECKSUM
~Parameter Information Block
#MNEM.UNIT       Value        Description
#---------     -----------    ---------------------------
 AV  .mps                 2.80:  Ann Velocity 
 AVMX.mps                 4.67:  Max Ann Veloc 
 AZIF.deg               303.89:  Azm, Final 
 BHAT.        Rotary Steerable:  BHA Type 
 BREV.rev            128542.00:  Rev Bit Total 
 BROT.°/30m               1.50:  Build Rotating 
 BS  .in                  8.50:  Bit Size 
 BSZ .in                  8.50:  Bit Size 
 BTPL.psig              715.00:  Bit Press Loss 
 CABU.                      No:  Customer Abuse 
 COMM.                     t‘v:  Run Comments 1 
 TCS .hr                 53.00:  Time Ciculation Ended 
 CV  .mps                 3.85:  Crit Velocity 
 CVMX.mps                 4.75:  Max Crit Veloc 
 DD1 .         Intigam Rahimov:  Direct Drillr 1 
 DDSV.                 iCruise:  DD Service 
 DEFF.%                  98.60:  % Det Eff 
 DLRX.°/30m               2.34:  Dogleg Rot Max 
 DLSO.°/30m               0.00:  Dogleg Oriented 
 DLSX.°/30m               0.00:  Dogleg Str Max 
 DRET.      00.15.00 05-Jan-21:  Drill End Time 
 DRST.      22.00.00 03-Jan-21:  Drill Start Tim 
 DTIM.hr                 17.72:  Time Drilling 
 EDEP.m                3814.01:  End Depth 
 ENG1.         Yevgeniy Ulikov:  Engineer 1 
 ENG2.        Farkhad Khalidov:  Engineer 2 
 ENG3.           Samir Gafarov:  Engineer 3 
 ETIM.      21.00.00 07-Jan-21:  End Time 
 FLOI.gpm               590.00:  Flow In 
 FLON.gpm               580.00:  Flow In Min 
 FLOS.cptm                1.00:  Fluid Loss 
 FLOX.gpm               595.00:  Flow In Max 
 FTRO.     Connectivity, Formation Presure:  FTWD Run Obj 
 HFLO.                      No:  High Flow 
 HPRE.                     Yes:  High Pressure 
 HTEM.                      No:  High Temp 
 HYDO.m                   1.80:  Hydro Offset 
 IFIN.deg                63.76:  Inc, Final 
 IMAX.deg                64.09:  Inc Max 
 IMIN.deg                55.81:  Inc Min 
 IMND.m                3455.62:  Inc Min Depth 
 IMXD.m                3796.03:  Inc Max Depth 
 JARR.                      No:  Jarring 
 LETM.      00.15.00 05-Jan-21:  Log End Time 
 LOST.hr                     0:  Lost Rig Time 
 LSTM.      22.00.00 03-Jan-21:  Log Start Time 
 MDCL.ppm             36000.00:  Mud Chlorides 
 MDES.     Inversion Oil/Synthetic:  Mud Desc 
 DFD .sg                  1.51:  Mud Density 
 MDMN.sg                  1.51:  Dens Mud Min 
 MDMX.sg                  1.51:  Dens Mud Max 
 MOIL.                    55.5:  Run Mud Oil % 
 MOWR.                   70:30:  Run Mud OWR 
 MSND.                     0.1:  Run Mud Sand % 
 MSOL.                   20.77:  Run Mud Solids% 
 DFV .spqt               67.00:  Mud Viscosity 
 MWOD.in                  6.75:  MWD Tool OD 
 MWSI.                      No:  Serv Intrp, MWD 
 OTIM.hr                113.53:  Time Operating 
 PCON.           Look Like New:  Pad Condition 
 PMAX.psia             4830.00:  Press Op, Max 
 PV  .cP                 29.00:  Mud PV 
 RUN .                     300:  Run Number 
 ROPA.m/hr               22.00:  ROP Avg 
 ROPN.m/hr               18.00:  ROP Min 
 ROPX.m/hr               25.00:  ROP Max 
 RPMA.rpm               130.00:  RPM Surface Avg 
 RPMN.rpm                80.00:  RPM Surface Min 
 RPMX.rpm               140.00:  RPM Surface Max 
 RRUN.                    L101:  Rig Run Number 
 RTIM.hr                  9.28:  Time Reaming 
 SAZI.deg               316.55:  Azm, Start 
 SDEP.m                3445.01:  Start Depth 
 SIDD.                      No:  Serv Intrp, DD 
 SINC.deg                55.81:  Inc, Start 
 SPPA.psig             4500.00:  SPP Avg 
 SPPN.psig             4350.00:  SPP Min 
 SPPX.psig             4830.00:  SPP Max 
 STIM.      00.00.00 03-Jan-21:  Start Time 
 SVCS.                 DD, MWD:  Services 
 SVER.                    9.20:  Sperry Version 
 TDAT.m                 369.00:  Tot Depth Attmp 
 TDDF.                      No:  Trip for DD 
 TDLG.m                 369.00:  Tot Depth Loggd 
 TFF .                      No:  Trip for Fail 
 TQAA.f-kp               15.00:  Torque Abs Avg 
 TQAN.f-kp               12.00:  Torque Abs Min 
 TQAX.f-kp               16.00:  Torque Abs Max 
 TRRT.°/30m              -2.10:  Turn Rotating 
 MRT .                    HCIM:  Maximum Recorded Temperature 
 TTMX.degC               92.16:  Max Tool Temp 
 VS01.                90627822:  Virtual Str1 SN 
 VS02.                90550008:  Virtual Str2 SN 
 VS03.                90627816:  Virtual Str3 SN 
 VS04.                90633205:  Virtual Str4 SN 
 VS05.                13033835:  Virtual Str5 SN 
 VS06.                11125125:  Virtual Str6 SN 
 WBMN.klb                 8.00:  WOB Min 
 WITN.            Bruce Cheyne:  Customer Rep 
 WITN.           Faig Mammadov:  Customer Rep 2 
 WOBA.klb                 9.00:  WOB Avg 
 WOBX.klb                12.00:  WOB Max 
 YP  .lhf2               30.00:  Yield Point 
~Curve Information Block
#MNEM.UNIT                 API CODE     Curve Description
#---------               -----------    ---------------------------
 TIME.HHMMSS            00 000 000 000:  GT Time & Date
 GTET.sec               00 000 000 000:  GT Elapsed Test Time
 GTPQH.psia             00 000 000 000:  GT HR Quartz Pressure
 GTDEPTH.m              00 000 000 000:  GT Depth
 GTTVD.m                00 000 000 000:  GT True Vertical Depth
 GTTQ.degC              00 000 000 000:  GT Quartz Temperature
 GTTN.NONE              00 000 000 000:  GT Test Number
#Other Information
#
#WARRANTY: Halliburton will use its best efforts to furnish customers with 
#accurate information and interpretations that are part of, and incident to, the services 
#provided.  However, Halliburton cannot and does not warrant the accuracy 
#or correctness of such information and interpretations.  Under no circumstances should any 
#such information or interpretation be relied upon as the sole basis for any drilling, 
#completion, production, or financial decision or any procedure involving any risk to the 
#safety of any drilling venture, drilling rig or its crew or any other third party.  The 
#Customer has full responsibility for all drilling, completion and production operation.  
#Halliburton makes no representations or warranties, either expressed or 
#implied, including, but not limited to, the implied warranties of merchantability or fitness 
#for a particular purpose, with respect to the services rendered.  In no event will 
#Halliburton be liable for failure to obtain any particular results or for 
#any damages, including, but not limited to, indirect, special or consequential damages, 
#resulting from the use of any information or interpretation provided by Halliburton.
#
~A           TIME            GTET   GTPQH  GTDEPTH  GTTVD  GTTQ  GTTN 
   06:03:00.000.05-Jan-2021   0.00 7483.77 3750.01 3121.90 84.46 3.00
   06:03:00.200.05-Jan-2021   0.20 7483.77 3750.01 3121.90 84.46 3.00
   06:03:00.400.05-Jan-2021   0.40 7480.04 3750.01 3121.90 84.46 3.00
   06:03:00.600.05-Jan-2021   0.60 7485.98 3750.01 3121.90 84.46 3.00
   06:03:00.800.05-Jan-2021   0.80 7481.01 3750.01 3121.90 84.46 3.00
   06:03:01.000.05-Jan-2021   1.00 7495.87 3750.01 3121.90 84.46 3.00
   06:03:01.200.05-Jan-2021   1.20 7495.87 3750.01 3121.90 84.46 3.00
   06:03:01.400.05-Jan-2021   1.40 7482.24 3750.01 3121.90 84.46 3.00
   06:03:01.600.05-Jan-2021   1.60 7479.07 3750.01 3121.90 84.46 3.00
   06:03:01.800.05-Jan-2021   1.80 7487.07 3750.01 3121.90 84.46 3.00
   06:03:02.000.05-Jan-2021   2.00 7484.38 3750.01 3121.90 84.46 3.00
   06:03:02.200.05-Jan-2021   2.20 7484.38 3750.01 3121.90 84.46 3.00
   06:03:02.400.05-Jan-2021   2.40 7481.68 3750.01 3121.90 84.46 3.00
   06:03:02.600.05-Jan-2021   2.60 7492.65 3750.01 3121.90 84.46 3.00
   06:03:02.800.05-Jan-2021   2.80 7487.97 3750.01 3121.90 84.46 3.00
   06:03:03.000.05-Jan-2021   3.00 7485.44 3750.01 3121.90 84.46 3.00
   06:03:03.200.05-Jan-2021   3.20 7485.44 3750.01 3121.90 84.46 3.00
   06:03:03.400.05-Jan-2021   3.40 7488.52 3750.01 3121.90 84.46 3.00
   06:03:03.600.05-Jan-2021   3.60 7488.16 3750.01 3121.90 84.46 3.00
   06:03:03.800.05-Jan-2021   3.80 7486.80 3750.01 3121.90 84.46 3.00
   06:03:04.000.05-Jan-2021   4.00 7486.48 3750.01 3121.90 84.46 3.00
   06:03:04.200.05-Jan-2021   4.20 7486.48 3750.01 3121.90 84.46 3.00
   06:03:04.400.05-Jan-2021   4.40 7488.47 3750.01 3121.90 84.46 3.00
   06:03:04.600.05-Jan-2021   4.60 7487.55 3750.01 3121.90 84.46 3.00
   06:03:04.800.05-Jan-2021   4.80 7488.14 3750.01 3121.90 84.46 3.00
   06:03:05.000.05-Jan-2021   5.00 7485.44 3750.01 3121.90 84.46 3.00
   06:03:05.200.05-Jan-2021   5.20 7485.44 3750.01 3121.90 84.46 3.00
   06:03:05.400.05-Jan-2021   5.40 7486.50 3750.01 3121.90 84.46 3.00
   06:03:05.600.05-Jan-2021   5.60 7493.04 3750.01 3121.90 84.46 3.00
   06:03:05.800.05-Jan-2021   5.80 7488.24 3750.01 3121.90 84.45 3.00
   06:03:06.000.05-Jan-2021   6.00 7487.06 3750.01 3121.90 84.46 3.00
   06:03:06.200.05-Jan-2021   6.20 7487.06 3750.01 3121.90 84.46 3.00
   06:03:06.400.05-Jan-2021   6.40 7487.06 3750.01 3121.90 84.46 3.00
   06:03:06.600.05-Jan-2021   6.60 7489.53 3750.01 3121.90 84.45 3.00
   06:03:06.800.05-Jan-2021   6.80 7488.16 3750.01 3121.90 84.45 3.00
   06:03:07.000.05-Jan-2021   7.00 7488.16 3750.01 3121.90 84.45 3.00
   06:03:07.200.05-Jan-2021   7.20 7488.49 3750.01 3121.90 84.45 3.00
   06:03:07.400.05-Jan-2021   7.40 7490.05 3750.01 3121.90 84.45 3.00
   06:03:07.600.05-Jan-2021   7.60 7488.61 3750.01 3121.90 84.45 3.00
   06:03:07.800.05-Jan-2021   7.80 7489.26 3750.01 3121.90 84.45 3.00
   06:03:08.000.05-Jan-2021   8.00 7498.95 3750.01 3121.90 84.45 3.00
   06:03:08.200.05-Jan-2021   8.20 7498.95 3750.01 3121.90 84.45 3.00
   06:03:08.400.05-Jan-2021   8.40 7487.43 3750.01 3121.90 84.45 3.00
   06:03:08.600.05-Jan-2021   8.60 7488.82 3750.01 3121.90 84.45 3.00
   06:03:08.800.05-Jan-2021   8.80 7490.40 3750.01 3121.90 84.45 3.00
   06:03:09.000.05-Jan-2021   9.00 7497.06 3750.01 3121.90 84.45 3.00
   06:03:09.200.05-Jan-2021   9.20 7497.06 3750.01 3121.90 84.45 3.00
   06:03:09.400.05-Jan-2021   9.40 7490.07 3750.01 3121.90 84.45 3.00
   06:03:09.600.05-Jan-2021   9.60 7490.06 3750.01 3121.90 84.45 3.00
   06:03:09.800.05-Jan-2021   9.80 7505.34 3750.01 3121.90 84.45 3.00
   06:03:10.000.05-Jan-2021  10.00 7488.44 3750.01 3121.90 84.45 3.00
   06:03:10.200.05-Jan-2021  10.20 7488.44 3750.01 3121.90 84.45 3.00
   06:03:10.400.05-Jan-2021  10.40 7489.56 3750.01 3121.90 84.45 3.00
   06:03:10.600.05-Jan-2021  10.60 7508.43 3750.01 3121.90 84.45 3.00
   06:03:10.800.05-Jan-2021  10.80 7488.70 3750.01 3121.90 84.45 3.00
   06:03:11.000.05-Jan-2021  11.00 7491.62 3750.01 3121.90 84.45 3.00
   06:03:11.200.05-Jan-2021  11.20 7491.62 3750.01 3121.90 84.45 3.00
   06:03:11.400.05-Jan-2021  11.40 7493.70 3750.01 3121.90 84.45 3.00
   06:03:11.600.05-Jan-2021  11.60 7494.71 3750.01 3121.90 84.45 3.00
   06:03:11.800.05-Jan-2021  11.80 7492.65 3750.01 3121.90 84.45 3.00
   06:03:12.000.05-Jan-2021  12.00 7498.04 3750.01 3121.90 84.45 3.00
   06:03:12.200.05-Jan-2021  12.20 7498.04 3750.01 3121.90 84.45 3.00
   06:03:12.400.05-Jan-2021  12.40 7500.39 3750.01 3121.90 84.45 3.00
   06:03:12.600.05-Jan-2021  12.60 7492.14 3750.01 3121.90 84.45 3.00
   06:03:12.800.05-Jan-2021  12.80 7495.96 3750.01 3121.90 84.45 3.00
   06:03:13.000.05-Jan-2021  13.00 7496.92 3750.01 3121.90 84.45 3.00
   06:03:13.200.05-Jan-2021  13.20 7496.92 3750.01 3121.90 84.45 3.00
   06:03:13.400.05-Jan-2021  13.40 7493.84 3750.01 3121.90 84.45 3.00
   06:03:13.600.05-Jan-2021  13.60 7495.92 3750.01 3121.90 84.45 3.00
   06:03:13.800.05-Jan-2021  13.80 7494.61 3750.01 3121.90 84.45 3.00
   06:03:14.000.05-Jan-2021  14.00 7497.43 3750.01 3121.90 84.45 3.00
   06:03:14.200.05-Jan-2021  14.20 7497.43 3750.01 3121.90 84.45 3.00
   06:03:14.400.05-Jan-2021  14.40 7496.74 3750.01 3121.90 84.45 3.00
   06:03:14.600.05-Jan-2021  14.60 7496.81 3750.01 3121.90 84.45 3.00
   06:03:14.800.05-Jan-2021  14.80 7496.74 3750.01 3121.90 84.45 3.00
   06:03:15.000.05-Jan-2021  15.00 7496.03 3750.01 3121.90 84.45 3.00
   06:03:15.200.05-Jan-2021  15.20 7496.03 3750.01 3121.90 84.45 3.00
   06:03:15.400.05-Jan-2021  15.40 7500.64 3750.01 3121.90 84.45 3.00
   06:03:15.600.05-Jan-2021  15.60 7496.33 3750.01 3121.90 84.45 3.00
   06:03:15.800.05-Jan-2021  15.80 7498.55 3750.01 3121.90 84.45 3.00
   06:03:16.000.05-Jan-2021  16.00 7497.32 3750.01 3121.90 84.45 3.00
   06:03:16.200.05-Jan-2021  16.20 7497.32 3750.01 3121.90 84.45 3.00
   06:03:16.400.05-Jan-2021  16.40 7497.98 3750.01 3121.90 84.45 3.00
   06:03:16.600.05-Jan-2021  16.60 7499.50 3750.01 3121.90 84.45 3.00
   06:03:16.800.05-Jan-2021  16.80 7495.98 3750.01 3121.90 84.45 3.00
   06:03:17.000.05-Jan-2021  17.00 7499.15 3750.01 3121.90 84.45 3.00
   06:03:17.200.05-Jan-2021  17.20 7499.15 3750.01 3121.90 84.45 3.00
   06:03:17.400.05-Jan-2021  17.40 7500.91 3750.01 3121.90 84.45 3.00
   06:03:17.600.05-Jan-2021  17.60 7497.55 3750.01 3121.90 84.45 3.00
   06:03:17.800.05-Jan-2021  17.80 7513.03 3750.01 3121.90 84.45 3.00
   06:03:18.000.05-Jan-2021  18.00 7495.16 3750.01 3121.90 84.45 3.00
   06:03:18.200.05-Jan-2021  18.20 7495.16 3750.01 3121.90 84.45 3.00
   06:03:18.400.05-Jan-2021  18.40 7508.53 3750.01 3121.90 84.45 3.00
   06:03:18.600.05-Jan-2021  18.60 7497.71 3750.01 3121.90 84.45 3.00
   06:03:18.800.05-Jan-2021  18.80 7498.68 3750.01 3121.90 84.45 3.00
   06:03:19.000.05-Jan-2021  19.00 7502.64 3750.01 3121.90 84.45 3.00
   06:03:19.200.05-Jan-2021  19.20 7502.64 3750.01 3121.90 84.45 3.00
   06:03:19.400.05-Jan-2021  19.40 7498.05 3750.01 3121.90 84.45 3.00
   06:03:19.600.05-Jan-2021  19.60 7501.82 3750.01 3121.90 84.45 3.00
   06:03:19.800.05-Jan-2021  19.80 7507.60 3750.01 3121.90 84.45 3.00
   06:03:20.000.05-Jan-2021  20.00 7504.18 3750.01 3121.90 84.45 3.00
   06:03:20.200.05-Jan-2021  20.20 7504.18 3750.01 3121.90 84.45 3.00
   06:03:20.400.05-Jan-2021  20.40 7501.96 3750.01 3121.90 84.45 3.00
   06:03:20.600.05-Jan-2021  20.60 7515.69 3750.01 3121.90 84.45 3.00
   06:03:20.800.05-Jan-2021  20.80 7501.58 3750.01 3121.90 84.45 3.00
   06:03:21.000.05-Jan-2021  21.00 7500.25 3750.01 3121.90 84.45 3.00
   06:03:21.200.05-Jan-2021  21.20 7500.25 3750.01 3121.90 84.45 3.00
   06:03:21.400.05-Jan-2021  21.40 7505.97 3750.01 3121.90 84.45 3.00
   06:03:21.600.05-Jan-2021  21.60 7505.96 3750.01 3121.90 84.45 3.00
   06:03:21.800.05-Jan-2021  21.80 7503.27 3750.01 3121.90 84.45 3.00
   06:03:22.000.05-Jan-2021  22.00 7503.44 3750.01 3121.90 84.45 3.00
   06:03:22.200.05-Jan-2021  22.20 7503.44 3750.01 3121.90 84.45 3.00
   06:03:22.400.05-Jan-2021  22.40 7503.50 3750.01 3121.90 84.45 3.00
   06:03:22.600.05-Jan-2021  22.60 7503.85 3750.01 3121.90 84.45 3.00
   06:03:22.800.05-Jan-2021  22.80 7501.53 3750.01 3121.90 84.45 3.00
