~Version Information
 VERS.                  2.0:   CWLS log ASCII Standard -VERSION 2.0
 WRAP.                   NO:   One line per depth step
~Well Information Block
#MNEM.UNIT     VALUE/NAME     DESCRIPTION
#---------     -----------    ---------------------------
 STRT.S             13:40:14 05-Jan-21: START TIME 13:40:14 05-Jan-21
 STOP.S             13:48:27 05-Jan-21: STOP TIME  13:48:27 05-Jan-21
 STEP.S                   0.00: STEP TIME
 NULL.                 -999.25: NULL VALUE
 DFWT.                        :  DIST FWL TEXT
 DFST.                        :  DIST FSL TEXT
 DMF .             Drill Floor:  DRILL MEAS FROM
 STIM.      06.00.00 31-Dec-20:  START TIME
 DATE.      05.58.24 07-Jan-21:  END TIME
 SPUD.               24-Dec-20:  SPUD DATE
 NREF.                    Grid:  NORTH REFERENCE
 HPTY.       Minimum Curvature:  HOLE POS TYPE
 DMOD.             Drill Model:  DRILL MOD DESC
 SVYD.                  Survey:  SURVEY DESC
 ILTD.               Lithology:  INTERP LTH DESC
 FTOP.          Formation Tops:  FORM TOPS DESC
 SON .        AZ-XX-0906699554:  JOB NUMBER
 WELL.                    B09z:  WELL NAME
 PDAT.          Mean Sea Level:  PERMANENT DATUM
 FLD .                     ACG:  FIELD NAME
 CTRY.              Azerbaijan:  COUNTRY NAME
 COMP.     BP Exploration (Caspian Sea) Ltd.:  COMPANY
 UWI .                     N/A:  UNIQUE WELL IDENTIFIER
 API .                     N/A:  API NUMBER
 WTYP.                Deviated:  WELL TYPE
 MDS .        Operator Entered:  MAG DATA SOURCE
 BASE.              Azerbaijan:  LOGGING EQUIPMENT BASE LOCATION
 REGN.                   EESSA:  REGION
 PROV.                    Baku:  PROVINCE
 STAT.                    Baku:  STATE NAME
 SRVC.          Turan Drilling:  CONTRACTOR
 MWDS.                    Baku:  MWD SHOP
 JOBN.        AZ-XX-0906699554:  JOB TICKET NUMB
 RIG .           Central Azeri:  RIG NAME
 DOE .                     N/A:  DOE NUMBER
 DCON.         Sperry Drilling:  DIRECTNL CONTR
 UNIT.                     N/A:  LOGGING EQUIPMENT ID
 CNTY.                        :  COUNTY
 LOC .                        :  LOCATION
 LMF .             Drill Floor:  LOG MEASURED FROM
 TVDS.m                  43.29:  TVDSS CORRECTN
 LATI.deg                40.03:  LATITUDE
 LONG.deg                51.35:  LONGITUDE
 WHNS.m                  -2.76:  WELL HEAD N/S
 WHEW.m                  -7.70:  WELL HEAD E/W
 UTMX.m              530128.28:  UTM X
 UTMY.m             4433192.49:  UTM Y
 DFWL.m                   0.00:  DISTANCE FWL
 DFSL.m                   0.00:  DISTANCE FSL
 SDEP.m                3435.01:  START DEPTH
 TDD .m                3814.01:  TOTAL DEPTH (DRILLER)
 VSDR.deg               352.80:  VERT SEC DIRECT
 GVFD.g                   1.00:  GRAVITY FIELD
 MFLD.nT              50303.00:  MAGNETIC FIELD
 MDIP.deg                59.52:  MAGNETIC DIP
 MDEC.deg                 6.47:  MAGNETIC DECL
 GRDC.deg                 0.23:  GRID CORRECTION
 AZTC.deg                 6.24:  AZM TOTAL CORR
 EPD .m                   0.00:  ELEVATION
 EGL .m                   0.00:  GROUND ELEVATION
 WDMS.m                 128.20:  WD ELEV
 APD .m                  43.29:  DEPTH ABOVE PD
 DEP .m                3421.30:  DEPTH
 AGAP.m                  43.60:  AIR GAP
 VSEW.m                  -7.70:  VERT SEC E/W
 VSNS.m                  -2.76:  VERT SEC N/S
 EKB .m                   0.00:  KB ELEVATION
 EDF .m                  43.29:  DF ELEVATION
 TDL .m                 369.00:  TOTAL DEPTH (LOGGER)
 VSC .                       0:  VS TO CLOSURE
 MAGU.                 1850390:  MAGUTM CHECKSUM
~Parameter Information Block
#MNEM.UNIT       Value        Description
#---------     -----------    ---------------------------
 AV  .mps                 2.80:  Ann Velocity 
 AVMX.mps                 4.67:  Max Ann Veloc 
 AZIF.deg               303.89:  Azm, Final 
 BHAT.        Rotary Steerable:  BHA Type 
 BREV.rev            128542.00:  Rev Bit Total 
 BROT.°/30m               1.50:  Build Rotating 
 BS  .in                  8.50:  Bit Size 
 BSZ .in                  8.50:  Bit Size 
 BTPL.psig              715.00:  Bit Press Loss 
 CABU.                      No:  Customer Abuse 
 COMM.                     t6w:  Run Comments 1 
 TCS .hr                 53.00:  Time Ciculation Ended 
 CV  .mps                 3.85:  Crit Velocity 
 CVMX.mps                 4.75:  Max Crit Veloc 
 DD1 .         Intigam Rahimov:  Direct Drillr 1 
 DDSV.                 iCruise:  DD Service 
 DEFF.%                  98.60:  % Det Eff 
 DLRX.°/30m               2.34:  Dogleg Rot Max 
 DLSO.°/30m               0.00:  Dogleg Oriented 
 DLSX.°/30m               0.00:  Dogleg Str Max 
 DRET.      00.15.00 05-Jan-21:  Drill End Time 
 DRST.      22.00.00 03-Jan-21:  Drill Start Tim 
 DTIM.hr                 17.72:  Time Drilling 
 EDEP.m                3814.01:  End Depth 
 ENG1.         Yevgeniy Ulikov:  Engineer 1 
 ENG2.        Farkhad Khalidov:  Engineer 2 
 ENG3.           Samir Gafarov:  Engineer 3 
 ETIM.      21.00.00 07-Jan-21:  End Time 
 FLOI.gpm               590.00:  Flow In 
 FLON.gpm               580.00:  Flow In Min 
 FLOS.cptm                1.00:  Fluid Loss 
 FLOX.gpm               595.00:  Flow In Max 
 FTRO.     Connectivity, Formation Presure:  FTWD Run Obj 
 HFLO.                      No:  High Flow 
 HPRE.                     Yes:  High Pressure 
 HTEM.                      No:  High Temp 
 HYDO.m                   1.80:  Hydro Offset 
 IFIN.deg                63.76:  Inc, Final 
 IMAX.deg                64.09:  Inc Max 
 IMIN.deg                55.81:  Inc Min 
 IMND.m                3455.62:  Inc Min Depth 
 IMXD.m                3796.03:  Inc Max Depth 
 JARR.                      No:  Jarring 
 LETM.      00.15.00 05-Jan-21:  Log End Time 
 LOST.hr                     0:  Lost Rig Time 
 LSTM.      22.00.00 03-Jan-21:  Log Start Time 
 MDCL.ppm             36000.00:  Mud Chlorides 
 MDES.     Inversion Oil/Synthetic:  Mud Desc 
 DFD .sg                  1.51:  Mud Density 
 MDMN.sg                  1.51:  Dens Mud Min 
 MDMX.sg                  1.51:  Dens Mud Max 
 MOIL.                    55.5:  Run Mud Oil % 
 MOWR.                   70:30:  Run Mud OWR 
 MSND.                     0.1:  Run Mud Sand % 
 MSOL.                   20.77:  Run Mud Solids% 
 DFV .spqt               67.00:  Mud Viscosity 
 MWOD.in                  6.75:  MWD Tool OD 
 MWSI.                      No:  Serv Intrp, MWD 
 OTIM.hr                113.53:  Time Operating 
 PCON.           Look Like New:  Pad Condition 
 PMAX.psia             4830.00:  Press Op, Max 
 PV  .cP                 29.00:  Mud PV 
 RUN .                     300:  Run Number 
 ROPA.m/hr               22.00:  ROP Avg 
 ROPN.m/hr               18.00:  ROP Min 
 ROPX.m/hr               25.00:  ROP Max 
 RPMA.rpm               130.00:  RPM Surface Avg 
 RPMN.rpm                80.00:  RPM Surface Min 
 RPMX.rpm               140.00:  RPM Surface Max 
 RRUN.                    L101:  Rig Run Number 
 RTIM.hr                  9.28:  Time Reaming 
 SAZI.deg               316.55:  Azm, Start 
 SDEP.m                3445.01:  Start Depth 
 SIDD.                      No:  Serv Intrp, DD 
 SINC.deg                55.81:  Inc, Start 
 SPPA.psig             4500.00:  SPP Avg 
 SPPN.psig             4350.00:  SPP Min 
 SPPX.psig             4830.00:  SPP Max 
 STIM.      00.00.00 03-Jan-21:  Start Time 
 SVCS.                 DD, MWD:  Services 
 SVER.                    9.20:  Sperry Version 
 TDAT.m                 369.00:  Tot Depth Attmp 
 TDDF.                      No:  Trip for DD 
 TDLG.m                 369.00:  Tot Depth Loggd 
 TFF .                      No:  Trip for Fail 
 TQAA.f-kp               15.00:  Torque Abs Avg 
 TQAN.f-kp               12.00:  Torque Abs Min 
 TQAX.f-kp               16.00:  Torque Abs Max 
 TRRT.°/30m              -2.10:  Turn Rotating 
 MRT .                    HCIM:  Maximum Recorded Temperature 
 TTMX.degC               92.16:  Max Tool Temp 
 VS01.                90627822:  Virtual Str1 SN 
 VS02.                90550008:  Virtual Str2 SN 
 VS03.                90627816:  Virtual Str3 SN 
 VS04.                90633205:  Virtual Str4 SN 
 VS05.                13033835:  Virtual Str5 SN 
 VS06.                11125125:  Virtual Str6 SN 
 WBMN.klb                 8.00:  WOB Min 
 WITN.            Bruce Cheyne:  Customer Rep 
 WITN.           Faig Mammadov:  Customer Rep 2 
 WOBA.klb                 9.00:  WOB Avg 
 WOBX.klb                12.00:  WOB Max 
 YP  .lhf2               30.00:  Yield Point 
~Curve Information Block
#MNEM.UNIT                 API CODE     Curve Description
#---------               -----------    ---------------------------
 TIME.HHMMSS            00 000 000 000:  GT Time & Date
 GTET.sec               00 000 000 000:  GT Elapsed Test Time
 GTPQH.psia             00 000 000 000:  GT HR Quartz Pressure
 GTDEPTH.m              00 000 000 000:  GT Depth
 GTTVD.m                00 000 000 000:  GT True Vertical Depth
 GTTQ.degC              00 000 000 000:  GT Quartz Temperature
 GTTN.NONE              00 000 000 000:  GT Test Number
#Other Information
#
#WARRANTY: Halliburton will use its best efforts to furnish customers with 
#accurate information and interpretations that are part of, and incident to, the services 
#provided.  However, Halliburton cannot and does not warrant the accuracy 
#or correctness of such information and interpretations.  Under no circumstances should any 
#such information or interpretation be relied upon as the sole basis for any drilling, 
#completion, production, or financial decision or any procedure involving any risk to the 
#safety of any drilling venture, drilling rig or its crew or any other third party.  The 
#Customer has full responsibility for all drilling, completion and production operation.  
#Halliburton makes no representations or warranties, either expressed or 
#implied, including, but not limited to, the implied warranties of merchantability or fitness 
#for a particular purpose, with respect to the services rendered.  In no event will 
#Halliburton be liable for failure to obtain any particular results or for 
#any damages, including, but not limited to, indirect, special or consequential damages, 
#resulting from the use of any information or interpretation provided by Halliburton.
#
~A           TIME            GTET   GTPQH  GTDEPTH  GTTVD  GTTQ  GTTN 
# ...
   13:46:23.135.05-Jan-2021 368.20 4884.20 3494.01 2996.09 78.08 7.00
   13:46:23.335.05-Jan-2021 368.40 4884.20 3494.01 2996.09 78.08 7.00
   13:46:23.536.05-Jan-2021 368.60 4884.23 3494.01 2996.09 78.08 7.00
   13:46:23.736.05-Jan-2021 368.80 4884.21 3494.01 2996.09 78.08 7.00
   13:46:23.936.05-Jan-2021 369.00 4884.25 3494.01 2996.09 78.09 7.00
   13:46:24.136.05-Jan-2021 369.20 4883.71 3494.01 2996.09 78.09 7.00
   13:46:24.336.05-Jan-2021 369.41 4883.71 3494.01 2996.09 78.09 7.00
   13:46:24.536.05-Jan-2021 369.61 4883.46 3494.01 2996.09 78.09 7.00
   13:46:24.736.05-Jan-2021 369.81 4884.81 3494.01 2996.09 78.09 7.00
   13:46:24.936.05-Jan-2021 370.01 4883.74 3494.01 2996.09 78.09 7.00
   13:46:25.136.05-Jan-2021 370.21 4884.80 3494.01 2996.09 78.09 7.00
   13:46:25.337.05-Jan-2021 370.41 4884.80 3494.01 2996.09 78.09 7.00
   13:46:25.537.05-Jan-2021 370.61 4884.07 3494.01 2996.09 78.09 7.00
   13:46:25.737.05-Jan-2021 370.81 4884.10 3494.01 2996.09 78.09 7.00
   13:46:25.937.05-Jan-2021 371.01 4884.31 3494.01 2996.09 78.09 7.00
   13:46:26.137.05-Jan-2021 371.21 4883.79 3494.01 2996.09 78.09 7.00
   13:46:26.337.05-Jan-2021 371.41 4883.79 3494.01 2996.09 78.09 7.00
   13:46:26.537.05-Jan-2021 371.61 4884.33 3494.01 2996.09 78.09 7.00
   13:46:26.737.05-Jan-2021 371.81 4884.30 3494.01 2996.09 78.09 7.00
   13:46:26.937.05-Jan-2021 372.01 4883.86 3494.01 2996.09 78.09 7.00
   13:46:27.138.05-Jan-2021 372.21 4884.22 3494.01 2996.09 78.09 7.00
   13:46:27.338.05-Jan-2021 372.41 4884.22 3494.01 2996.09 78.09 7.00
   13:46:27.538.05-Jan-2021 372.61 4883.97 3494.01 2996.09 78.09 7.00
   13:46:27.738.05-Jan-2021 372.81 4884.17 3494.01 2996.09 78.09 7.00
   13:46:27.938.05-Jan-2021 373.01 4884.39 3494.01 2996.09 78.09 7.00
   13:46:28.138.05-Jan-2021 373.21 4884.20 3494.01 2996.09 78.09 7.00
   13:46:28.338.05-Jan-2021 373.41 4884.20 3494.01 2996.09 78.09 7.00
   13:46:28.538.05-Jan-2021 373.61 4884.01 3494.01 2996.09 78.09 7.00
   13:46:28.738.05-Jan-2021 373.81 4884.22 3494.01 2996.09 78.09 7.00
   13:46:28.939.05-Jan-2021 374.01 4883.92 3494.01 2996.09 78.09 7.00
   13:46:29.139.05-Jan-2021 374.21 4884.33 3494.01 2996.09 78.09 7.00
   13:46:29.339.05-Jan-2021 374.41 4884.33 3494.01 2996.09 78.09 7.00
   13:46:29.539.05-Jan-2021 374.61 4884.61 3494.01 2996.09 78.09 7.00
   13:46:29.739.05-Jan-2021 374.81 4884.30 3494.01 2996.09 78.09 7.00
   13:46:29.939.05-Jan-2021 375.01 4883.94 3494.01 2996.09 78.09 7.00
   13:46:30.139.05-Jan-2021 375.21 4884.31 3494.01 2996.09 78.09 7.00
   13:46:30.339.05-Jan-2021 375.41 4884.31 3494.01 2996.09 78.09 7.00
   13:46:30.539.05-Jan-2021 375.61 4883.65 3494.01 2996.09 78.09 7.00
   13:46:30.740.05-Jan-2021 375.81 4884.36 3494.01 2996.09 78.09 7.00
   13:46:30.940.05-Jan-2021 376.01 4884.13 3494.01 2996.09 78.09 7.00
   13:46:31.140.05-Jan-2021 376.21 4884.25 3494.01 2996.09 78.09 7.00
   13:46:31.340.05-Jan-2021 376.41 4884.25 3494.01 2996.09 78.09 7.00
   13:46:31.540.05-Jan-2021 376.61 4884.11 3494.01 2996.09 78.09 7.00
   13:46:31.740.05-Jan-2021 376.81 4884.17 3494.01 2996.09 78.09 7.00
   13:46:31.940.05-Jan-2021 377.01 4884.49 3494.01 2996.09 78.09 7.00
   13:46:32.140.05-Jan-2021 377.21 4883.87 3494.01 2996.09 78.09 7.00
   13:46:32.340.05-Jan-2021 377.41 4883.87 3494.01 2996.09 78.09 7.00
   13:46:32.541.05-Jan-2021 377.61 4884.20 3494.01 2996.09 78.09 7.00
   13:46:32.741.05-Jan-2021 377.81 4884.34 3494.01 2996.09 78.09 7.00
   13:46:32.941.05-Jan-2021 378.01 4883.60 3494.01 2996.09 78.09 7.00
   13:46:33.141.05-Jan-2021 378.21 4884.70 3494.01 2996.09 78.09 7.00
   13:46:33.341.05-Jan-2021 378.41 4884.70 3494.01 2996.09 78.09 7.00
   13:46:33.541.05-Jan-2021 378.61 4884.07 3494.01 2996.09 78.09 7.00
   13:46:33.741.05-Jan-2021 378.81 4883.71 3494.01 2996.09 78.09 7.00
   13:46:33.941.05-Jan-2021 379.01 4883.80 3494.01 2996.09 78.09 7.00
   13:46:34.141.05-Jan-2021 379.21 4884.15 3494.01 2996.09 78.09 7.00
   13:46:34.342.05-Jan-2021 379.41 4884.15 3494.01 2996.09 78.09 7.00
   13:46:34.542.05-Jan-2021 379.61 4884.03 3494.01 2996.09 78.09 7.00
   13:46:34.742.05-Jan-2021 379.81 4884.02 3494.01 2996.09 78.09 7.00
   13:46:34.942.05-Jan-2021 380.01 4884.11 3494.01 2996.09 78.09 7.00
   13:46:35.142.05-Jan-2021 380.21 4884.34 3494.01 2996.09 78.09 7.00
   13:46:35.342.05-Jan-2021 380.41 4884.00 3494.01 2996.09 78.09 7.00
   13:46:35.542.05-Jan-2021 380.61 4884.11 3494.01 2996.09 78.09 7.00
   13:46:35.742.05-Jan-2021 380.81 4883.66 3494.01 2996.09 78.09 7.00
   13:46:35.942.05-Jan-2021 381.01 4884.70 3494.01 2996.09 78.09 7.00
   13:46:36.143.05-Jan-2021 381.21 4884.08 3494.01 2996.09 78.09 7.00
   13:46:36.343.05-Jan-2021 381.41 4884.06 3494.01 2996.09 78.09 7.00
   13:46:36.543.05-Jan-2021 381.61 4884.19 3494.01 2996.09 78.10 7.00
   13:46:36.743.05-Jan-2021 381.81 4884.01 3494.01 2996.09 78.10 7.00
   13:46:36.943.05-Jan-2021 382.01 4884.13 3494.01 2996.09 78.10 7.00
   13:46:37.143.05-Jan-2021 382.21 4884.23 3494.01 2996.09 78.10 7.00
   13:46:37.343.05-Jan-2021 382.41 4884.23 3494.01 2996.09 78.10 7.00
   13:46:37.543.05-Jan-2021 382.61 4884.13 3494.01 2996.09 78.10 7.00
   13:46:37.743.05-Jan-2021 382.81 4884.15 3494.01 2996.09 78.10 7.00
   13:46:37.944.05-Jan-2021 383.01 4884.20 3494.01 2996.09 78.10 7.00
   13:46:38.144.05-Jan-2021 383.21 4884.17 3494.01 2996.09 78.10 7.00
   13:46:38.344.05-Jan-2021 383.41 4884.17 3494.01 2996.09 78.10 7.00
   13:46:38.544.05-Jan-2021 383.61 4884.41 3494.01 2996.09 78.10 7.00
   13:46:38.744.05-Jan-2021 383.81 4883.98 3494.01 2996.09 78.10 7.00
   13:46:38.944.05-Jan-2021 384.01 4883.73 3494.01 2996.09 78.10 7.00
   13:46:39.144.05-Jan-2021 384.21 4884.51 3494.01 2996.09 78.10 7.00
   13:46:39.344.05-Jan-2021 384.41 4884.51 3494.01 2996.09 78.10 7.00
   13:46:39.544.05-Jan-2021 384.61 4884.14 3494.01 2996.09 78.10 7.00
   13:46:39.745.05-Jan-2021 384.81 4884.21 3494.01 2996.09 78.10 7.00
   13:46:39.945.05-Jan-2021 385.01 4884.12 3494.01 2996.09 78.10 7.00
   13:46:40.145.05-Jan-2021 385.21 4884.10 3494.01 2996.09 78.10 7.00
   13:46:40.345.05-Jan-2021 385.41 4884.10 3494.01 2996.09 78.10 7.00
   13:46:40.545.05-Jan-2021 385.61 4884.17 3494.01 2996.09 78.10 7.00
   13:46:40.745.05-Jan-2021 385.81 4883.73 3494.01 2996.09 78.10 7.00
   13:46:40.945.05-Jan-2021 386.01 4884.55 3494.01 2996.09 78.10 7.00
   13:46:41.145.05-Jan-2021 386.21 4883.90 3494.01 2996.09 78.10 7.00
   13:46:41.345.05-Jan-2021 386.41 4884.13 3494.01 2996.09 78.10 7.00
   13:46:41.546.05-Jan-2021 386.61 4883.96 3494.01 2996.09 78.10 7.00
   13:46:41.746.05-Jan-2021 386.81 4884.14 3494.01 2996.09 78.10 7.00
   13:46:41.946.05-Jan-2021 387.01 4884.04 3494.01 2996.09 78.10 7.00
   13:46:42.146.05-Jan-2021 387.21 4884.16 3494.01 2996.09 78.10 7.00
   13:46:42.346.05-Jan-2021 387.42 4883.98 3494.01 2996.09 78.10 7.00
   13:46:42.546.05-Jan-2021 387.62 4884.16 3494.01 2996.09 78.10 7.00
   13:46:42.746.05-Jan-2021 387.82 4884.04 3494.01 2996.09 78.10 7.00
   13:46:42.946.05-Jan-2021 388.02 4884.23 3494.01 2996.09 78.10 7.00
   13:46:43.146.05-Jan-2021 388.22 4884.01 3494.01 2996.09 78.10 7.00
   13:46:43.347.05-Jan-2021 388.42 4884.01 3494.01 2996.09 78.10 7.00
   13:46:43.547.05-Jan-2021 388.62 4883.89 3494.01 2996.09 78.10 7.00
   13:46:43.747.05-Jan-2021 388.82 4884.41 3494.01 2996.09 78.10 7.00
   13:46:43.947.05-Jan-2021 389.02 4884.11 3494.01 2996.09 78.10 7.00
   13:46:44.147.05-Jan-2021 389.22 4884.20 3494.01 2996.09 78.10 7.00
   13:46:44.347.05-Jan-2021 389.42 4884.03 3494.01 2996.09 78.10 7.00
   13:46:44.547.05-Jan-2021 389.62 4884.31 3494.01 2996.09 78.10 7.00
   13:46:44.747.05-Jan-2021 389.82 4884.06 3494.01 2996.09 78.10 7.00
   13:46:44.947.05-Jan-2021 390.02 4884.15 3494.01 2996.09 78.10 7.00
   13:46:45.148.05-Jan-2021 390.22 4884.09 3494.01 2996.09 78.10 7.00
   13:46:45.348.05-Jan-2021 390.42 4884.09 3494.01 2996.09 78.10 7.00
   13:46:45.548.05-Jan-2021 390.62 4884.08 3494.01 2996.09 78.10 7.00
   13:46:45.748.05-Jan-2021 390.82 4884.14 3494.01 2996.09 78.10 7.00
   13:46:45.948.05-Jan-2021 391.02 4884.00 3494.01 2996.09 78.10 7.00
