~Version Information
 VERS.                  2.0:   CWLS log ASCII Standard -VERSION 2.0
 WRAP.                   NO:   One line per depth step
~Well Information Block
#MNEM.UNIT     VALUE/NAME     DESCRIPTION
#---------     -----------    ---------------------------
 STRT.S             08:46:17 05-Jan-21: START TIME 08:46:17 05-Jan-21
 STOP.S             08:54:30 05-Jan-21: STOP TIME  08:54:30 05-Jan-21
 STEP.S                   0.00: STEP TIME
 NULL.                 -999.25: NULL VALUE
 DFWT.                        :  DIST FWL TEXT
 DFST.                        :  DIST FSL TEXT
 DMF .             Drill Floor:  DRILL MEAS FROM
 STIM.      06.00.00 31-Dec-20:  START TIME
 DATE.      05.58.24 07-Jan-21:  END TIME
 SPUD.               24-Dec-20:  SPUD DATE
 NREF.                    Grid:  NORTH REFERENCE
 HPTY.       Minimum Curvature:  HOLE POS TYPE
 DMOD.             Drill Model:  DRILL MOD DESC
 SVYD.                  Survey:  SURVEY DESC
 ILTD.               Lithology:  INTERP LTH DESC
 FTOP.          Formation Tops:  FORM TOPS DESC
 SON .        AZ-XX-0906699554:  JOB NUMBER
 WELL.                    B09z:  WELL NAME
 PDAT.          Mean Sea Level:  PERMANENT DATUM
 FLD .                     ACG:  FIELD NAME
 CTRY.              Azerbaijan:  COUNTRY NAME
 COMP.     BP Exploration (Caspian Sea) Ltd.:  COMPANY
 UWI .                     N/A:  UNIQUE WELL IDENTIFIER
 API .                     N/A:  API NUMBER
 WTYP.                Deviated:  WELL TYPE
 MDS .        Operator Entered:  MAG DATA SOURCE
 BASE.              Azerbaijan:  LOGGING EQUIPMENT BASE LOCATION
 REGN.                   EESSA:  REGION
 PROV.                    Baku:  PROVINCE
 STAT.                    Baku:  STATE NAME
 SRVC.          Turan Drilling:  CONTRACTOR
 MWDS.                    Baku:  MWD SHOP
 JOBN.        AZ-XX-0906699554:  JOB TICKET NUMB
 RIG .           Central Azeri:  RIG NAME
 DOE .                     N/A:  DOE NUMBER
 DCON.         Sperry Drilling:  DIRECTNL CONTR
 UNIT.                     N/A:  LOGGING EQUIPMENT ID
 CNTY.                        :  COUNTY
 LOC .                        :  LOCATION
 LMF .             Drill Floor:  LOG MEASURED FROM
 TVDS.m                  43.29:  TVDSS CORRECTN
 LATI.deg                40.03:  LATITUDE
 LONG.deg                51.35:  LONGITUDE
 WHNS.m                  -2.76:  WELL HEAD N/S
 WHEW.m                  -7.70:  WELL HEAD E/W
 UTMX.m              530128.28:  UTM X
 UTMY.m             4433192.49:  UTM Y
 DFWL.m                   0.00:  DISTANCE FWL
 DFSL.m                   0.00:  DISTANCE FSL
 SDEP.m                3435.01:  START DEPTH
 TDD .m                3814.01:  TOTAL DEPTH (DRILLER)
 VSDR.deg               352.80:  VERT SEC DIRECT
 GVFD.g                   1.00:  GRAVITY FIELD
 MFLD.nT              50303.00:  MAGNETIC FIELD
 MDIP.deg                59.52:  MAGNETIC DIP
 MDEC.deg                 6.47:  MAGNETIC DECL
 GRDC.deg                 0.23:  GRID CORRECTION
 AZTC.deg                 6.24:  AZM TOTAL CORR
 EPD .m                   0.00:  ELEVATION
 EGL .m                   0.00:  GROUND ELEVATION
 WDMS.m                 128.20:  WD ELEV
 APD .m                  43.29:  DEPTH ABOVE PD
 DEP .m                3421.30:  DEPTH
 AGAP.m                  43.60:  AIR GAP
 VSEW.m                  -7.70:  VERT SEC E/W
 VSNS.m                  -2.76:  VERT SEC N/S
 EKB .m                   0.00:  KB ELEVATION
 EDF .m                  43.29:  DF ELEVATION
 TDL .m                 369.00:  TOTAL DEPTH (LOGGER)
 VSC .                       0:  VS TO CLOSURE
 MAGU.                 1850390:  MAGUTM CHECKSUM
~Parameter Information Block
#MNEM.UNIT       Value        Description
#---------     -----------    ---------------------------
 AV  .mps                 2.80:  Ann Velocity 
 AVMX.mps                 4.67:  Max Ann Veloc 
 AZIF.deg               303.89:  Azm, Final 
 BHAT.        Rotary Steerable:  BHA Type 
 BREV.rev            128542.00:  Rev Bit Total 
 BROT.°/30m               1.50:  Build Rotating 
 BS  .in                  8.50:  Bit Size 
 BSZ .in                  8.50:  Bit Size 
 BTPL.psig              715.00:  Bit Press Loss 
 CABU.                      No:  Customer Abuse 
 COMM.                     Œã}:  Run Comments 1 
 TCS .hr                 53.00:  Time Ciculation Ended 
 CV  .mps                 3.85:  Crit Velocity 
 CVMX.mps                 4.75:  Max Crit Veloc 
 DD1 .         Intigam Rahimov:  Direct Drillr 1 
 DDSV.                 iCruise:  DD Service 
 DEFF.%                  98.60:  % Det Eff 
 DLRX.°/30m               2.34:  Dogleg Rot Max 
 DLSO.°/30m               0.00:  Dogleg Oriented 
 DLSX.°/30m               0.00:  Dogleg Str Max 
 DRET.      00.15.00 05-Jan-21:  Drill End Time 
 DRST.      22.00.00 03-Jan-21:  Drill Start Tim 
 DTIM.hr                 17.72:  Time Drilling 
 EDEP.m                3814.01:  End Depth 
 ENG1.         Yevgeniy Ulikov:  Engineer 1 
 ENG2.        Farkhad Khalidov:  Engineer 2 
 ENG3.           Samir Gafarov:  Engineer 3 
 ETIM.      21.00.00 07-Jan-21:  End Time 
 FLOI.gpm               590.00:  Flow In 
 FLON.gpm               580.00:  Flow In Min 
 FLOS.cptm                1.00:  Fluid Loss 
 FLOX.gpm               595.00:  Flow In Max 
 FTRO.     Connectivity, Formation Presure:  FTWD Run Obj 
 HFLO.                      No:  High Flow 
 HPRE.                     Yes:  High Pressure 
 HTEM.                      No:  High Temp 
 HYDO.m                   1.80:  Hydro Offset 
 IFIN.deg                63.76:  Inc, Final 
 IMAX.deg                64.09:  Inc Max 
 IMIN.deg                55.81:  Inc Min 
 IMND.m                3455.62:  Inc Min Depth 
 IMXD.m                3796.03:  Inc Max Depth 
 JARR.                      No:  Jarring 
 LETM.      00.15.00 05-Jan-21:  Log End Time 
 LOST.hr                     0:  Lost Rig Time 
 LSTM.      22.00.00 03-Jan-21:  Log Start Time 
 MDCL.ppm             36000.00:  Mud Chlorides 
 MDES.     Inversion Oil/Synthetic:  Mud Desc 
 DFD .sg                  1.51:  Mud Density 
 MDMN.sg                  1.51:  Dens Mud Min 
 MDMX.sg                  1.51:  Dens Mud Max 
 MOIL.                    55.5:  Run Mud Oil % 
 MOWR.                   70:30:  Run Mud OWR 
 MSND.                     0.1:  Run Mud Sand % 
 MSOL.                   20.77:  Run Mud Solids% 
 DFV .spqt               67.00:  Mud Viscosity 
 MWOD.in                  6.75:  MWD Tool OD 
 MWSI.                      No:  Serv Intrp, MWD 
 OTIM.hr                113.53:  Time Operating 
 PCON.           Look Like New:  Pad Condition 
 PMAX.psia             4830.00:  Press Op, Max 
 PV  .cP                 29.00:  Mud PV 
 RUN .                     300:  Run Number 
 ROPA.m/hr               22.00:  ROP Avg 
 ROPN.m/hr               18.00:  ROP Min 
 ROPX.m/hr               25.00:  ROP Max 
 RPMA.rpm               130.00:  RPM Surface Avg 
 RPMN.rpm                80.00:  RPM Surface Min 
 RPMX.rpm               140.00:  RPM Surface Max 
 RRUN.                    L101:  Rig Run Number 
 RTIM.hr                  9.28:  Time Reaming 
 SAZI.deg               316.55:  Azm, Start 
 SDEP.m                3445.01:  Start Depth 
 SIDD.                      No:  Serv Intrp, DD 
 SINC.deg                55.81:  Inc, Start 
 SPPA.psig             4500.00:  SPP Avg 
 SPPN.psig             4350.00:  SPP Min 
 SPPX.psig             4830.00:  SPP Max 
 STIM.      00.00.00 03-Jan-21:  Start Time 
 SVCS.                 DD, MWD:  Services 
 SVER.                    9.20:  Sperry Version 
 TDAT.m                 369.00:  Tot Depth Attmp 
 TDDF.                      No:  Trip for DD 
 TDLG.m                 369.00:  Tot Depth Loggd 
 TFF .                      No:  Trip for Fail 
 TQAA.f-kp               15.00:  Torque Abs Avg 
 TQAN.f-kp               12.00:  Torque Abs Min 
 TQAX.f-kp               16.00:  Torque Abs Max 
 TRRT.°/30m              -2.10:  Turn Rotating 
 MRT .                    HCIM:  Maximum Recorded Temperature 
 TTMX.degC               92.16:  Max Tool Temp 
 VS01.                90627822:  Virtual Str1 SN 
 VS02.                90550008:  Virtual Str2 SN 
 VS03.                90627816:  Virtual Str3 SN 
 VS04.                90633205:  Virtual Str4 SN 
 VS05.                13033835:  Virtual Str5 SN 
 VS06.                11125125:  Virtual Str6 SN 
 WBMN.klb                 8.00:  WOB Min 
 WITN.            Bruce Cheyne:  Customer Rep 
 WITN.           Faig Mammadov:  Customer Rep 2 
 WOBA.klb                 9.00:  WOB Avg 
 WOBX.klb                12.00:  WOB Max 
 YP  .lhf2               30.00:  Yield Point 
~Curve Information Block
#MNEM.UNIT                 API CODE     Curve Description
#---------               -----------    ---------------------------
 TIME.HHMMSS            00 000 000 000:  GT Time & Date
 GTET.sec               00 000 000 000:  GT Elapsed Test Time
 GTPQH.psia             00 000 000 000:  GT HR Quartz Pressure
 GTDEPTH.m              00 000 000 000:  GT Depth
 GTTVD.m                00 000 000 000:  GT True Vertical Depth
 GTTQ.degC              00 000 000 000:  GT Quartz Temperature
 GTTN.NONE              00 000 000 000:  GT Test Number
#Other Information
#
#WARRANTY: Halliburton will use its best efforts to furnish customers with 
#accurate information and interpretations that are part of, and incident to, the services 
#provided.  However, Halliburton cannot and does not warrant the accuracy 
#or correctness of such information and interpretations.  Under no circumstances should any 
#such information or interpretation be relied upon as the sole basis for any drilling, 
#completion, production, or financial decision or any procedure involving any risk to the 
#safety of any drilling venture, drilling rig or its crew or any other third party.  The 
#Customer has full responsibility for all drilling, completion and production operation.  
#Halliburton makes no representations or warranties, either expressed or 
#implied, including, but not limited to, the implied warranties of merchantability or fitness 
#for a particular purpose, with respect to the services rendered.  In no event will 
#Halliburton be liable for failure to obtain any particular results or for 
#any damages, including, but not limited to, indirect, special or consequential damages, 
#resulting from the use of any information or interpretation provided by Halliburton.
#
~A           TIME            GTET   GTPQH  GTDEPTH  GTTVD  GTTQ  GTTN 
# ...
   08:53:58.169.05-Jan-2021 460.17 7394.89 3625.51 3064.84 80.01 6.00
   08:53:58.369.05-Jan-2021 460.37 7394.89 3625.51 3064.84 80.01 6.00
   08:53:58.569.05-Jan-2021 460.57 7394.22 3625.51 3064.84 80.01 6.00
   08:53:58.769.05-Jan-2021 460.77 7393.68 3625.51 3064.84 80.01 6.00
   08:53:58.969.05-Jan-2021 460.97 7393.51 3625.51 3064.84 80.01 6.00
   08:53:59.169.05-Jan-2021 461.17 7393.83 3625.51 3064.84 80.01 6.00
   08:53:59.369.05-Jan-2021 461.37 7393.83 3625.51 3064.84 80.01 6.00
   08:53:59.569.05-Jan-2021 461.57 7393.62 3625.51 3064.84 80.01 6.00
   08:53:59.769.05-Jan-2021 461.77 7393.40 3625.51 3064.84 80.01 6.00
   08:53:59.969.05-Jan-2021 461.97 7393.43 3625.51 3064.84 80.01 6.00
   08:54:00.169.05-Jan-2021 462.17 7409.00 3625.51 3064.84 80.01 6.00
   08:54:00.369.05-Jan-2021 462.37 7409.00 3625.51 3064.84 80.01 6.00
   08:54:00.569.05-Jan-2021 462.57 7395.26 3625.51 3064.84 80.01 6.00
   08:54:00.770.05-Jan-2021 462.77 7404.48 3625.51 3064.84 80.01 6.00
   08:54:00.970.05-Jan-2021 462.97 7391.56 3625.51 3064.84 80.01 6.00
   08:54:01.170.05-Jan-2021 463.17 7396.01 3625.51 3064.84 80.01 6.00
   08:54:01.370.05-Jan-2021 463.37 7396.01 3625.51 3064.84 80.01 6.00
   08:54:01.570.05-Jan-2021 463.57 7394.28 3625.51 3064.84 80.01 6.00
   08:54:01.770.05-Jan-2021 463.77 7409.32 3625.51 3064.84 80.01 6.00
   08:54:01.970.05-Jan-2021 463.97 7385.49 3625.51 3064.84 80.01 6.00
   08:54:02.170.05-Jan-2021 464.17 7395.07 3625.51 3064.84 80.01 6.00
   08:54:02.370.05-Jan-2021 464.37 7395.07 3625.51 3064.84 80.01 6.00
   08:54:02.570.05-Jan-2021 464.57 7404.68 3625.51 3064.84 80.01 6.00
   08:54:02.770.05-Jan-2021 464.77 7391.71 3625.51 3064.84 80.01 6.00
   08:54:02.970.05-Jan-2021 464.97 7394.63 3625.51 3064.84 80.01 6.00
   08:54:03.170.05-Jan-2021 465.17 7396.88 3625.51 3064.84 80.01 6.00
   08:54:03.370.05-Jan-2021 465.37 7396.88 3625.51 3064.84 80.01 6.00
   08:54:03.571.05-Jan-2021 465.57 7395.27 3625.51 3064.84 80.01 6.00
   08:54:03.771.05-Jan-2021 465.77 7403.11 3625.51 3064.84 80.01 6.00
   08:54:03.971.05-Jan-2021 465.97 7396.11 3625.51 3064.84 80.01 6.00
   08:54:04.171.05-Jan-2021 466.17 7397.81 3625.51 3064.84 80.01 6.00
   08:54:04.371.05-Jan-2021 466.37 7397.81 3625.51 3064.84 80.01 6.00
   08:54:04.571.05-Jan-2021 466.57 7395.87 3625.51 3064.84 80.01 6.00
   08:54:04.771.05-Jan-2021 466.77 7396.27 3625.51 3064.84 80.01 6.00
   08:54:04.971.05-Jan-2021 466.97 7395.22 3625.51 3064.84 80.01 6.00
   08:54:05.171.05-Jan-2021 467.17 7395.63 3625.51 3064.84 80.01 6.00
   08:54:05.371.05-Jan-2021 467.37 7395.37 3625.51 3064.84 80.01 6.00
   08:54:05.571.05-Jan-2021 467.57 7395.61 3625.51 3064.84 80.01 6.00
   08:54:05.771.05-Jan-2021 467.77 7395.73 3625.51 3064.84 80.01 6.00
   08:54:05.971.05-Jan-2021 467.97 7395.49 3625.51 3064.84 80.01 6.00
   08:54:06.172.05-Jan-2021 468.17 7395.81 3625.51 3064.84 80.01 6.00
   08:54:06.372.05-Jan-2021 468.37 7395.81 3625.51 3064.84 80.01 6.00
   08:54:06.572.05-Jan-2021 468.57 7407.30 3625.51 3064.84 80.00 6.00
   08:54:06.772.05-Jan-2021 468.77 7391.85 3625.51 3064.84 80.00 6.00
   08:54:06.972.05-Jan-2021 468.97 7396.17 3625.51 3064.84 80.00 6.00
   08:54:07.172.05-Jan-2021 469.17 7394.87 3625.51 3064.84 80.00 6.00
   08:54:07.372.05-Jan-2021 469.37 7394.87 3625.51 3064.84 80.00 6.00
   08:54:07.572.05-Jan-2021 469.57 7394.14 3625.51 3064.84 80.00 6.00
   08:54:07.772.05-Jan-2021 469.77 7393.58 3625.51 3064.84 80.00 6.00
   08:54:07.972.05-Jan-2021 469.97 7393.52 3625.51 3064.84 80.00 6.00
   08:54:08.172.05-Jan-2021 470.17 7393.40 3625.51 3064.84 80.00 6.00
   08:54:08.372.05-Jan-2021 470.37 7393.40 3625.51 3064.84 80.00 6.00
   08:54:08.572.05-Jan-2021 470.57 7392.72 3625.51 3064.84 80.00 6.00
   08:54:08.772.05-Jan-2021 470.77 7393.38 3625.51 3064.84 80.00 6.00
   08:54:08.973.05-Jan-2021 470.97 7393.61 3625.51 3064.84 80.00 6.00
   08:54:09.173.05-Jan-2021 471.17 7403.22 3625.51 3064.84 80.00 6.00
   08:54:09.373.05-Jan-2021 471.37 7390.49 3625.51 3064.84 80.00 6.00
   08:54:09.573.05-Jan-2021 471.58 7393.73 3625.51 3064.84 80.00 6.00
   08:54:09.773.05-Jan-2021 471.78 7410.83 3625.51 3064.84 80.00 6.00
   08:54:09.973.05-Jan-2021 471.98 7386.64 3625.51 3064.84 80.00 6.00
   08:54:10.173.05-Jan-2021 472.18 7395.55 3625.51 3064.84 80.00 6.00
   08:54:10.373.05-Jan-2021 472.38 7395.55 3625.51 3064.84 80.00 6.00
   08:54:10.573.05-Jan-2021 472.58 7394.52 3625.51 3064.84 80.00 6.00
   08:54:10.773.05-Jan-2021 472.78 7409.42 3625.51 3064.84 80.00 6.00
   08:54:10.973.05-Jan-2021 472.98 7386.10 3625.51 3064.84 80.00 6.00
   08:54:11.173.05-Jan-2021 473.18 7394.85 3625.51 3064.84 80.00 6.00
   08:54:11.373.05-Jan-2021 473.38 7394.85 3625.51 3064.84 80.00 6.00
   08:54:11.574.05-Jan-2021 473.58 7396.10 3625.51 3064.84 80.00 6.00
   08:54:11.774.05-Jan-2021 473.78 7399.39 3625.51 3064.84 80.00 6.00
   08:54:11.974.05-Jan-2021 473.98 7394.43 3625.51 3064.84 80.00 6.00
   08:54:12.174.05-Jan-2021 474.18 7398.05 3625.51 3064.84 80.00 6.00
   08:54:12.374.05-Jan-2021 474.38 7398.05 3625.51 3064.84 80.00 6.00
   08:54:12.574.05-Jan-2021 474.58 7402.20 3625.51 3064.84 80.00 6.00
   08:54:12.774.05-Jan-2021 474.78 7396.86 3625.51 3064.84 79.99 6.00
   08:54:12.974.05-Jan-2021 474.98 7398.08 3625.51 3064.84 79.99 6.00
   08:54:13.174.05-Jan-2021 475.18 7396.13 3625.51 3064.84 79.99 6.00
   08:54:13.374.05-Jan-2021 475.38 7395.47 3625.51 3064.84 79.99 6.00
   08:54:13.574.05-Jan-2021 475.58 7396.49 3625.51 3064.84 79.99 6.00
   08:54:13.774.05-Jan-2021 475.78 7395.65 3625.51 3064.84 79.99 6.00
   08:54:13.974.05-Jan-2021 475.98 7395.20 3625.51 3064.84 79.99 6.00
   08:54:14.175.05-Jan-2021 476.18 7395.07 3625.51 3064.84 79.99 6.00
   08:54:14.375.05-Jan-2021 476.38 7395.07 3625.51 3064.84 79.99 6.00
   08:54:14.575.05-Jan-2021 476.58 7395.40 3625.51 3064.84 79.99 6.00
   08:54:14.775.05-Jan-2021 476.78 7395.23 3625.51 3064.84 79.99 6.00
   08:54:14.975.05-Jan-2021 476.98 7395.44 3625.51 3064.84 79.99 6.00
   08:54:15.175.05-Jan-2021 477.18 7395.63 3625.51 3064.84 79.99 6.00
   08:54:15.375.05-Jan-2021 477.38 7395.63 3625.51 3064.84 79.99 6.00
   08:54:15.575.05-Jan-2021 477.58 7391.98 3625.51 3064.84 79.99 6.00
   08:54:15.775.05-Jan-2021 477.78 7396.90 3625.51 3064.84 79.99 6.00
   08:54:15.975.05-Jan-2021 477.98 7394.23 3625.51 3064.84 79.99 6.00
   08:54:16.175.05-Jan-2021 478.18 7396.33 3625.51 3064.84 79.99 6.00
   08:54:16.375.05-Jan-2021 478.38 7396.33 3625.51 3064.84 79.99 6.00
   08:54:16.575.05-Jan-2021 478.58 7394.22 3625.51 3064.84 79.99 6.00
   08:54:16.775.05-Jan-2021 478.78 7394.19 3625.51 3064.84 79.99 6.00
   08:54:16.976.05-Jan-2021 478.98 7394.04 3625.51 3064.84 79.99 6.00
   08:54:17.176.05-Jan-2021 479.18 7393.95 3625.51 3064.84 79.99 6.00
   08:54:17.376.05-Jan-2021 479.38 7393.72 3625.51 3064.84 79.99 6.00
   08:54:17.576.05-Jan-2021 479.58 7393.17 3625.51 3064.84 79.99 6.00
   08:54:17.776.05-Jan-2021 479.78 7393.38 3625.51 3064.84 79.99 6.00
   08:54:17.976.05-Jan-2021 479.98 7402.91 3625.51 3064.84 79.99 6.00
   08:54:18.176.05-Jan-2021 480.18 7391.22 3625.51 3064.84 79.99 6.00
   08:54:18.376.05-Jan-2021 480.38 7391.22 3625.51 3064.84 79.99 6.00
   08:54:18.576.05-Jan-2021 480.58 7411.80 3625.51 3064.84 79.99 6.00
   08:54:18.776.05-Jan-2021 480.78 7386.61 3625.51 3064.84 79.99 6.00
   08:54:18.976.05-Jan-2021 480.98 7396.21 3625.51 3064.84 79.99 6.00
   08:54:19.176.05-Jan-2021 481.18 7394.20 3625.51 3064.84 79.99 6.00
   08:54:19.376.05-Jan-2021 481.38 7394.20 3625.51 3064.84 79.99 6.00
   08:54:19.577.05-Jan-2021 481.58 7409.53 3625.51 3064.84 79.99 6.00
   08:54:19.777.05-Jan-2021 481.78 7386.56 3625.51 3064.84 79.98 6.00
   08:54:19.977.05-Jan-2021 481.98 7395.93 3625.51 3064.84 79.98 6.00
   08:54:20.177.05-Jan-2021 482.18 7393.77 3625.51 3064.84 79.98 6.00
   08:54:20.377.05-Jan-2021 482.38 7393.77 3625.51 3064.84 79.98 6.00
   08:54:20.577.05-Jan-2021 482.58 7400.22 3625.51 3064.84 79.98 6.00
   08:54:20.777.05-Jan-2021 482.78 7395.37 3625.51 3064.84 79.98 6.00
   08:54:20.977.05-Jan-2021 482.98 7398.61 3625.51 3064.84 79.98 6.00
