~Version Information
 VERS.                  2.0:   CWLS log ASCII Standard -VERSION 2.0
 WRAP.                   NO:   One line per depth step
~Well Information Block
#MNEM.UNIT     VALUE/NAME     DESCRIPTION
#---------     -----------    ---------------------------
 STRT.S             13:40:14 05-Jan-21: START TIME 13:40:14 05-Jan-21
 STOP.S             13:48:27 05-Jan-21: STOP TIME  13:48:27 05-Jan-21
 STEP.S                   0.00: STEP TIME
 NULL.                 -999.25: NULL VALUE
 DFWT.                        :  DIST FWL TEXT
 DFST.                        :  DIST FSL TEXT
 DMF .             Drill Floor:  DRILL MEAS FROM
 STIM.      06.00.00 31-Dec-20:  START TIME
 DATE.      05.58.24 07-Jan-21:  END TIME
 SPUD.               24-Dec-20:  SPUD DATE
 NREF.                    Grid:  NORTH REFERENCE
 HPTY.       Minimum Curvature:  HOLE POS TYPE
 DMOD.             Drill Model:  DRILL MOD DESC
 SVYD.                  Survey:  SURVEY DESC
 ILTD.               Lithology:  INTERP LTH DESC
 FTOP.          Formation Tops:  FORM TOPS DESC
 SON .        AZ-XX-0906699554:  JOB NUMBER
 WELL.                    B09z:  WELL NAME
 PDAT.          Mean Sea Level:  PERMANENT DATUM
 FLD .                     ACG:  FIELD NAME
 CTRY.              Azerbaijan:  COUNTRY NAME
 COMP.     BP Exploration (Caspian Sea) Ltd.:  COMPANY
 UWI .                     N/A:  UNIQUE WELL IDENTIFIER
 API .                     N/A:  API NUMBER
 WTYP.                Deviated:  WELL TYPE
 MDS .        Operator Entered:  MAG DATA SOURCE
 BASE.              Azerbaijan:  LOGGING EQUIPMENT BASE LOCATION
 REGN.                   EESSA:  REGION
 PROV.                    Baku:  PROVINCE
 STAT.                    Baku:  STATE NAME
 SRVC.          Turan Drilling:  CONTRACTOR
 MWDS.                    Baku:  MWD SHOP
 JOBN.        AZ-XX-0906699554:  JOB TICKET NUMB
 RIG .           Central Azeri:  RIG NAME
 DOE .                     N/A:  DOE NUMBER
 DCON.         Sperry Drilling:  DIRECTNL CONTR
 UNIT.                     N/A:  LOGGING EQUIPMENT ID
 CNTY.                        :  COUNTY
 LOC .                        :  LOCATION
 LMF .             Drill Floor:  LOG MEASURED FROM
 TVDS.m                  43.29:  TVDSS CORRECTN
 LATI.deg                40.03:  LATITUDE
 LONG.deg                51.35:  LONGITUDE
 WHNS.m                  -2.76:  WELL HEAD N/S
 WHEW.m                  -7.70:  WELL HEAD E/W
 UTMX.m              530128.28:  UTM X
 UTMY.m             4433192.49:  UTM Y
 DFWL.m                   0.00:  DISTANCE FWL
 DFSL.m                   0.00:  DISTANCE FSL
 SDEP.m                3435.01:  START DEPTH
 TDD .m                3814.01:  TOTAL DEPTH (DRILLER)
 VSDR.deg               352.80:  VERT SEC DIRECT
 GVFD.g                   1.00:  GRAVITY FIELD
 MFLD.nT              50303.00:  MAGNETIC FIELD
 MDIP.deg                59.52:  MAGNETIC DIP
 MDEC.deg                 6.47:  MAGNETIC DECL
 GRDC.deg                 0.23:  GRID CORRECTION
 AZTC.deg                 6.24:  AZM TOTAL CORR
 EPD .m                   0.00:  ELEVATION
 EGL .m                   0.00:  GROUND ELEVATION
 WDMS.m                 128.20:  WD ELEV
 APD .m                  43.29:  DEPTH ABOVE PD
 DEP .m                3421.30:  DEPTH
 AGAP.m                  43.60:  AIR GAP
 VSEW.m                  -7.70:  VERT SEC E/W
 VSNS.m                  -2.76:  VERT SEC N/S
 EKB .m                   0.00:  KB ELEVATION
 EDF .m                  43.29:  DF ELEVATION
 TDL .m                 369.00:  TOTAL DEPTH (LOGGER)
 VSC .                       0:  VS TO CLOSURE
 MAGU.                 1850390:  MAGUTM CHECKSUM
~Parameter Information Block
#MNEM.UNIT       Value        Description
#---------     -----------    ---------------------------
 AV  .mps                 2.80:  Ann Velocity 
 AVMX.mps                 4.67:  Max Ann Veloc 
 AZIF.deg               303.89:  Azm, Final 
 BHAT.        Rotary Steerable:  BHA Type 
 BREV.rev            128542.00:  Rev Bit Total 
 BROT.°/30m               1.50:  Build Rotating 
 BS  .in                  8.50:  Bit Size 
 BSZ .in                  8.50:  Bit Size 
 BTPL.psig              715.00:  Bit Press Loss 
 CABU.                      No:  Customer Abuse 
 COMM.                     t6w:  Run Comments 1 
 TCS .hr                 53.00:  Time Ciculation Ended 
 CV  .mps                 3.85:  Crit Velocity 
 CVMX.mps                 4.75:  Max Crit Veloc 
 DD1 .         Intigam Rahimov:  Direct Drillr 1 
 DDSV.                 iCruise:  DD Service 
 DEFF.%                  98.60:  % Det Eff 
 DLRX.°/30m               2.34:  Dogleg Rot Max 
 DLSO.°/30m               0.00:  Dogleg Oriented 
 DLSX.°/30m               0.00:  Dogleg Str Max 
 DRET.      00.15.00 05-Jan-21:  Drill End Time 
 DRST.      22.00.00 03-Jan-21:  Drill Start Tim 
 DTIM.hr                 17.72:  Time Drilling 
 EDEP.m                3814.01:  End Depth 
 ENG1.         Yevgeniy Ulikov:  Engineer 1 
 ENG2.        Farkhad Khalidov:  Engineer 2 
 ENG3.           Samir Gafarov:  Engineer 3 
 ETIM.      21.00.00 07-Jan-21:  End Time 
 FLOI.gpm               590.00:  Flow In 
 FLON.gpm               580.00:  Flow In Min 
 FLOS.cptm                1.00:  Fluid Loss 
 FLOX.gpm               595.00:  Flow In Max 
 FTRO.     Connectivity, Formation Presure:  FTWD Run Obj 
 HFLO.                      No:  High Flow 
 HPRE.                     Yes:  High Pressure 
 HTEM.                      No:  High Temp 
 HYDO.m                   1.80:  Hydro Offset 
 IFIN.deg                63.76:  Inc, Final 
 IMAX.deg                64.09:  Inc Max 
 IMIN.deg                55.81:  Inc Min 
 IMND.m                3455.62:  Inc Min Depth 
 IMXD.m                3796.03:  Inc Max Depth 
 JARR.                      No:  Jarring 
 LETM.      00.15.00 05-Jan-21:  Log End Time 
 LOST.hr                     0:  Lost Rig Time 
 LSTM.      22.00.00 03-Jan-21:  Log Start Time 
 MDCL.ppm             36000.00:  Mud Chlorides 
 MDES.     Inversion Oil/Synthetic:  Mud Desc 
 DFD .sg                  1.51:  Mud Density 
 MDMN.sg                  1.51:  Dens Mud Min 
 MDMX.sg                  1.51:  Dens Mud Max 
 MOIL.                    55.5:  Run Mud Oil % 
 MOWR.                   70:30:  Run Mud OWR 
 MSND.                     0.1:  Run Mud Sand % 
 MSOL.                   20.77:  Run Mud Solids% 
 DFV .spqt               67.00:  Mud Viscosity 
 MWOD.in                  6.75:  MWD Tool OD 
 MWSI.                      No:  Serv Intrp, MWD 
 OTIM.hr                113.53:  Time Operating 
 PCON.           Look Like New:  Pad Condition 
 PMAX.psia             4830.00:  Press Op, Max 
 PV  .cP                 29.00:  Mud PV 
 RUN .                     300:  Run Number 
 ROPA.m/hr               22.00:  ROP Avg 
 ROPN.m/hr               18.00:  ROP Min 
 ROPX.m/hr               25.00:  ROP Max 
 RPMA.rpm               130.00:  RPM Surface Avg 
 RPMN.rpm                80.00:  RPM Surface Min 
 RPMX.rpm               140.00:  RPM Surface Max 
 RRUN.                    L101:  Rig Run Number 
 RTIM.hr                  9.28:  Time Reaming 
 SAZI.deg               316.55:  Azm, Start 
 SDEP.m                3445.01:  Start Depth 
 SIDD.                      No:  Serv Intrp, DD 
 SINC.deg                55.81:  Inc, Start 
 SPPA.psig             4500.00:  SPP Avg 
 SPPN.psig             4350.00:  SPP Min 
 SPPX.psig             4830.00:  SPP Max 
 STIM.      00.00.00 03-Jan-21:  Start Time 
 SVCS.                 DD, MWD:  Services 
 SVER.                    9.20:  Sperry Version 
 TDAT.m                 369.00:  Tot Depth Attmp 
 TDDF.                      No:  Trip for DD 
 TDLG.m                 369.00:  Tot Depth Loggd 
 TFF .                      No:  Trip for Fail 
 TQAA.f-kp               15.00:  Torque Abs Avg 
 TQAN.f-kp               12.00:  Torque Abs Min 
 TQAX.f-kp               16.00:  Torque Abs Max 
 TRRT.°/30m              -2.10:  Turn Rotating 
 MRT .                    HCIM:  Maximum Recorded Temperature 
 TTMX.degC               92.16:  Max Tool Temp 
 VS01.                90627822:  Virtual Str1 SN 
 VS02.                90550008:  Virtual Str2 SN 
 VS03.                90627816:  Virtual Str3 SN 
 VS04.                90633205:  Virtual Str4 SN 
 VS05.                13033835:  Virtual Str5 SN 
 VS06.                11125125:  Virtual Str6 SN 
 WBMN.klb                 8.00:  WOB Min 
 WITN.            Bruce Cheyne:  Customer Rep 
 WITN.           Faig Mammadov:  Customer Rep 2 
 WOBA.klb                 9.00:  WOB Avg 
 WOBX.klb                12.00:  WOB Max 
 YP  .lhf2               30.00:  Yield Point 
~Curve Information Block
#MNEM.UNIT                 API CODE     Curve Description
#---------               -----------    ---------------------------
 TIME.HHMMSS            00 000 000 000:  GT Time & Date
 GTET.sec               00 000 000 000:  GT Elapsed Test Time
 GTPQH.psia             00 000 000 000:  GT HR Quartz Pressure
 GTDEPTH.m              00 000 000 000:  GT Depth
 GTTVD.m                00 000 000 000:  GT True Vertical Depth
 GTTQ.degC              00 000 000 000:  GT Quartz Temperature
 GTTN.NONE              00 000 000 000:  GT Test Number
#Other Information
#
#WARRANTY: Halliburton will use its best efforts to furnish customers with 
#accurate information and interpretations that are part of, and incident to, the services 
#provided.  However, Halliburton cannot and does not warrant the accuracy 
#or correctness of such information and interpretations.  Under no circumstances should any 
#such information or interpretation be relied upon as the sole basis for any drilling, 
#completion, production, or financial decision or any procedure involving any risk to the 
#safety of any drilling venture, drilling rig or its crew or any other third party.  The 
#Customer has full responsibility for all drilling, completion and production operation.  
#Halliburton makes no representations or warranties, either expressed or 
#implied, including, but not limited to, the implied warranties of merchantability or fitness 
#for a particular purpose, with respect to the services rendered.  In no event will 
#Halliburton be liable for failure to obtain any particular results or for 
#any damages, including, but not limited to, indirect, special or consequential damages, 
#resulting from the use of any information or interpretation provided by Halliburton.
#
~A           TIME            GTET   GTPQH  GTDEPTH  GTTVD  GTTQ  GTTN 
# ...
   13:41:46.982.05-Jan-2021  92.05 4883.84 3494.01 2996.09 77.85 7.00
   13:41:47.182.05-Jan-2021  92.25 4883.84 3494.01 2996.09 77.85 7.00
   13:41:47.382.05-Jan-2021  92.45 4884.00 3494.01 2996.09 77.85 7.00
   13:41:47.582.05-Jan-2021  92.65 4884.28 3494.01 2996.09 77.85 7.00
   13:41:47.782.05-Jan-2021  92.85 4883.87 3494.01 2996.09 77.85 7.00
   13:41:47.983.05-Jan-2021  93.05 4884.21 3494.01 2996.09 77.85 7.00
   13:41:48.183.05-Jan-2021  93.25 4884.21 3494.01 2996.09 77.85 7.00
   13:41:48.383.05-Jan-2021  93.45 4883.94 3494.01 2996.09 77.85 7.00
   13:41:48.583.05-Jan-2021  93.65 4884.01 3494.01 2996.09 77.85 7.00
   13:41:48.783.05-Jan-2021  93.85 4884.15 3494.01 2996.09 77.85 7.00
   13:41:48.983.05-Jan-2021  94.05 4884.17 3494.01 2996.09 77.85 7.00
   13:41:49.183.05-Jan-2021  94.25 4884.17 3494.01 2996.09 77.85 7.00
   13:41:49.383.05-Jan-2021  94.45 4884.61 3494.01 2996.09 77.85 7.00
   13:41:49.583.05-Jan-2021  94.65 4883.96 3494.01 2996.09 77.85 7.00
   13:41:49.784.05-Jan-2021  94.85 4884.23 3494.01 2996.09 77.85 7.00
   13:41:49.984.05-Jan-2021  95.05 4884.10 3494.01 2996.09 77.85 7.00
   13:41:50.184.05-Jan-2021  95.25 4884.10 3494.01 2996.09 77.85 7.00
   13:41:50.384.05-Jan-2021  95.45 4883.77 3494.01 2996.09 77.86 7.00
   13:41:50.584.05-Jan-2021  95.65 4884.34 3494.01 2996.09 77.86 7.00
   13:41:50.784.05-Jan-2021  95.85 4884.10 3494.01 2996.09 77.86 7.00
   13:41:50.984.05-Jan-2021  96.05 4884.02 3494.01 2996.09 77.86 7.00
   13:41:51.184.05-Jan-2021  96.25 4884.02 3494.01 2996.09 77.86 7.00
   13:41:51.384.05-Jan-2021  96.45 4884.20 3494.01 2996.09 77.86 7.00
   13:41:51.585.05-Jan-2021  96.65 4884.26 3494.01 2996.09 77.86 7.00
   13:41:51.785.05-Jan-2021  96.85 4884.58 3494.01 2996.09 77.86 7.00
   13:41:51.985.05-Jan-2021  97.05 4884.19 3494.01 2996.09 77.86 7.00
   13:41:52.185.05-Jan-2021  97.25 4884.19 3494.01 2996.09 77.86 7.00
   13:41:52.385.05-Jan-2021  97.45 4884.23 3494.01 2996.09 77.86 7.00
   13:41:52.585.05-Jan-2021  97.65 4883.22 3494.01 2996.09 77.86 7.00
   13:41:52.785.05-Jan-2021  97.85 4884.85 3494.01 2996.09 77.86 7.00
   13:41:52.985.05-Jan-2021  98.05 4883.06 3494.01 2996.09 77.86 7.00
   13:41:53.185.05-Jan-2021  98.25 4883.06 3494.01 2996.09 77.86 7.00
   13:41:53.386.05-Jan-2021  98.45 4884.42 3494.01 2996.09 77.86 7.00
   13:41:53.586.05-Jan-2021  98.65 4883.65 3494.01 2996.09 77.86 7.00
   13:41:53.786.05-Jan-2021  98.85 4883.96 3494.01 2996.09 77.86 7.00
   13:41:53.986.05-Jan-2021  99.05 4885.25 3494.01 2996.09 77.86 7.00
   13:41:54.186.05-Jan-2021  99.26 4885.25 3494.01 2996.09 77.86 7.00
   13:41:54.386.05-Jan-2021  99.46 4884.78 3494.01 2996.09 77.86 7.00
   13:41:54.586.05-Jan-2021  99.66 4884.16 3494.01 2996.09 77.86 7.00
   13:41:54.786.05-Jan-2021  99.86 4884.16 3494.01 2996.09 77.86 7.00
   13:41:54.986.05-Jan-2021 100.06 4884.26 3494.01 2996.09 77.86 7.00
   13:41:55.187.05-Jan-2021 100.26 4883.40 3494.01 2996.09 77.86 7.00
   13:41:55.387.05-Jan-2021 100.46 4884.44 3494.01 2996.09 77.86 7.00
   13:41:55.587.05-Jan-2021 100.66 4884.64 3494.01 2996.09 77.86 7.00
   13:41:55.787.05-Jan-2021 100.86 4884.14 3494.01 2996.09 77.86 7.00
   13:41:55.987.05-Jan-2021 101.06 4884.45 3494.01 2996.09 77.86 7.00
   13:41:56.187.05-Jan-2021 101.26 4883.99 3494.01 2996.09 77.86 7.00
   13:41:56.387.05-Jan-2021 101.46 4884.72 3494.01 2996.09 77.86 7.00
   13:41:56.587.05-Jan-2021 101.66 4883.10 3494.01 2996.09 77.86 7.00
   13:41:56.787.05-Jan-2021 101.86 4884.55 3494.01 2996.09 77.86 7.00
   13:41:56.988.05-Jan-2021 102.06 4884.47 3494.01 2996.09 77.86 7.00
   13:41:57.188.05-Jan-2021 102.26 4884.47 3494.01 2996.09 77.86 7.00
   13:41:57.388.05-Jan-2021 102.46 4884.30 3494.01 2996.09 77.86 7.00
   13:41:57.588.05-Jan-2021 102.66 4883.93 3494.01 2996.09 77.86 7.00
   13:41:57.788.05-Jan-2021 102.86 4884.23 3494.01 2996.09 77.86 7.00
   13:41:57.988.05-Jan-2021 103.06 4884.22 3494.01 2996.09 77.86 7.00
   13:41:58.188.05-Jan-2021 103.26 4884.44 3494.01 2996.09 77.86 7.00
   13:41:58.388.05-Jan-2021 103.46 4884.03 3494.01 2996.09 77.86 7.00
   13:41:58.588.05-Jan-2021 103.66 4883.87 3494.01 2996.09 77.86 7.00
   13:41:58.789.05-Jan-2021 103.86 4883.96 3494.01 2996.09 77.86 7.00
   13:41:58.989.05-Jan-2021 104.06 4883.97 3494.01 2996.09 77.86 7.00
   13:41:59.189.05-Jan-2021 104.26 4883.97 3494.01 2996.09 77.86 7.00
   13:41:59.389.05-Jan-2021 104.46 4883.91 3494.01 2996.09 77.86 7.00
   13:41:59.589.05-Jan-2021 104.66 4884.32 3494.01 2996.09 77.86 7.00
   13:41:59.789.05-Jan-2021 104.86 4883.95 3494.01 2996.09 77.86 7.00
   13:41:59.989.05-Jan-2021 105.06 4883.95 3494.01 2996.09 77.86 7.00
   13:42:00.189.05-Jan-2021 105.26 4884.29 3494.01 2996.09 77.86 7.00
   13:42:00.389.05-Jan-2021 105.46 4883.89 3494.01 2996.09 77.86 7.00
   13:42:00.590.05-Jan-2021 105.66 4884.28 3494.01 2996.09 77.87 7.00
   13:42:00.790.05-Jan-2021 105.86 4884.27 3494.01 2996.09 77.87 7.00
   13:42:00.990.05-Jan-2021 106.06 4883.77 3494.01 2996.09 77.87 7.00
   13:42:01.190.05-Jan-2021 106.26 4883.77 3494.01 2996.09 77.87 7.00
   13:42:01.390.05-Jan-2021 106.46 4884.30 3494.01 2996.09 77.87 7.00
   13:42:01.590.05-Jan-2021 106.66 4884.05 3494.01 2996.09 77.87 7.00
   13:42:01.790.05-Jan-2021 106.86 4884.21 3494.01 2996.09 77.87 7.00
   13:42:01.990.05-Jan-2021 107.06 4883.82 3494.01 2996.09 77.87 7.00
   13:42:02.190.05-Jan-2021 107.26 4883.62 3494.01 2996.09 77.87 7.00
   13:42:02.391.05-Jan-2021 107.46 4884.56 3494.01 2996.09 77.87 7.00
   13:42:02.591.05-Jan-2021 107.66 4884.32 3494.01 2996.09 77.87 7.00
   13:42:02.791.05-Jan-2021 107.86 4884.38 3494.01 2996.09 77.87 7.00
   13:42:02.991.05-Jan-2021 108.06 4884.44 3494.01 2996.09 77.87 7.00
   13:42:03.191.05-Jan-2021 108.26 4884.44 3494.01 2996.09 77.87 7.00
   13:42:03.391.05-Jan-2021 108.46 4884.27 3494.01 2996.09 77.87 7.00
   13:42:03.591.05-Jan-2021 108.66 4884.37 3494.01 2996.09 77.87 7.00
   13:42:03.791.05-Jan-2021 108.86 4883.93 3494.01 2996.09 77.87 7.00
   13:42:03.991.05-Jan-2021 109.06 4883.45 3494.01 2996.09 77.87 7.00
   13:42:04.192.05-Jan-2021 109.26 4883.45 3494.01 2996.09 77.87 7.00
   13:42:04.392.05-Jan-2021 109.46 4883.95 3494.01 2996.09 77.87 7.00
   13:42:04.592.05-Jan-2021 109.66 4883.99 3494.01 2996.09 77.87 7.00
   13:42:04.792.05-Jan-2021 109.86 4884.79 3494.01 2996.09 77.87 7.00
   13:42:04.992.05-Jan-2021 110.06 4882.31 3494.01 2996.09 77.87 7.00
   13:42:05.192.05-Jan-2021 110.26 4882.31 3494.01 2996.09 77.87 7.00
   13:42:05.392.05-Jan-2021 110.46 4883.74 3494.01 2996.09 77.87 7.00
   13:42:05.592.05-Jan-2021 110.66 4884.87 3494.01 2996.09 77.87 7.00
   13:42:05.792.05-Jan-2021 110.86 4884.56 3494.01 2996.09 77.87 7.00
   13:42:05.993.05-Jan-2021 111.06 4883.87 3494.01 2996.09 77.87 7.00
   13:42:06.193.05-Jan-2021 111.26 4883.87 3494.01 2996.09 77.87 7.00
   13:42:06.393.05-Jan-2021 111.46 4883.78 3494.01 2996.09 77.87 7.00
   13:42:06.593.05-Jan-2021 111.66 4884.50 3494.01 2996.09 77.87 7.00
   13:42:06.793.05-Jan-2021 111.86 4883.82 3494.01 2996.09 77.87 7.00
   13:42:06.993.05-Jan-2021 112.06 4884.32 3494.01 2996.09 77.87 7.00
   13:42:07.193.05-Jan-2021 112.26 4884.74 3494.01 2996.09 77.87 7.00
   13:42:07.393.05-Jan-2021 112.46 4883.18 3494.01 2996.09 77.87 7.00
   13:42:07.593.05-Jan-2021 112.66 4884.56 3494.01 2996.09 77.87 7.00
   13:42:07.794.05-Jan-2021 112.86 4884.30 3494.01 2996.09 77.87 7.00
   13:42:07.994.05-Jan-2021 113.06 4884.27 3494.01 2996.09 77.87 7.00
   13:42:08.194.05-Jan-2021 113.26 4884.27 3494.01 2996.09 77.87 7.00
   13:42:08.394.05-Jan-2021 113.46 4882.69 3494.01 2996.09 77.87 7.00
   13:42:08.594.05-Jan-2021 113.66 4884.39 3494.01 2996.09 77.87 7.00
   13:42:08.794.05-Jan-2021 113.86 4884.18 3494.01 2996.09 77.87 7.00
   13:42:08.994.05-Jan-2021 114.06 4884.20 3494.01 2996.09 77.87 7.00
   13:42:09.194.05-Jan-2021 114.26 4884.20 3494.01 2996.09 77.87 7.00
   13:42:09.394.05-Jan-2021 114.46 4883.82 3494.01 2996.09 77.87 7.00
   13:42:09.595.05-Jan-2021 114.66 4884.12 3494.01 2996.09 77.87 7.00
   13:42:09.795.05-Jan-2021 114.86 4884.17 3494.01 2996.09 77.87 7.00
