~Version Information
 VERS.                  2.0:   CWLS log ASCII Standard -VERSION 2.0
 WRAP.                   NO:   One line per depth step
~Well Information Block
#MNEM.UNIT     VALUE/NAME     DESCRIPTION
#---------     -----------    ---------------------------
 STRT.S             08:18:37 05-Jan-21: START TIME 08:18:37 05-Jan-21
 STOP.S             08:26:49 05-Jan-21: STOP TIME  08:26:49 05-Jan-21
 STEP.S                   0.00: STEP TIME
 NULL.                 -999.25: NULL VALUE
 DFWT.                        :  DIST FWL TEXT
 DFST.                        :  DIST FSL TEXT
 DMF .             Drill Floor:  DRILL MEAS FROM
 STIM.      06.00.00 31-Dec-20:  START TIME
 DATE.      05.58.24 07-Jan-21:  END TIME
 SPUD.               24-Dec-20:  SPUD DATE
 NREF.                    Grid:  NORTH REFERENCE
 HPTY.       Minimum Curvature:  HOLE POS TYPE
 DMOD.             Drill Model:  DRILL MOD DESC
 SVYD.                  Survey:  SURVEY DESC
 ILTD.               Lithology:  INTERP LTH DESC
 FTOP.          Formation Tops:  FORM TOPS DESC
 SON .        AZ-XX-0906699554:  JOB NUMBER
 WELL.                    B09z:  WELL NAME
 PDAT.          Mean Sea Level:  PERMANENT DATUM
 FLD .                     ACG:  FIELD NAME
 CTRY.              Azerbaijan:  COUNTRY NAME
 COMP.     BP Exploration (Caspian Sea) Ltd.:  COMPANY
 UWI .                     N/A:  UNIQUE WELL IDENTIFIER
 API .                     N/A:  API NUMBER
 WTYP.                Deviated:  WELL TYPE
 MDS .        Operator Entered:  MAG DATA SOURCE
 BASE.              Azerbaijan:  LOGGING EQUIPMENT BASE LOCATION
 REGN.                   EESSA:  REGION
 PROV.                    Baku:  PROVINCE
 STAT.                    Baku:  STATE NAME
 SRVC.          Turan Drilling:  CONTRACTOR
 MWDS.                    Baku:  MWD SHOP
 JOBN.        AZ-XX-0906699554:  JOB TICKET NUMB
 RIG .           Central Azeri:  RIG NAME
 DOE .                     N/A:  DOE NUMBER
 DCON.         Sperry Drilling:  DIRECTNL CONTR
 UNIT.                     N/A:  LOGGING EQUIPMENT ID
 CNTY.                        :  COUNTY
 LOC .                        :  LOCATION
 LMF .             Drill Floor:  LOG MEASURED FROM
 TVDS.m                  43.29:  TVDSS CORRECTN
 LATI.deg                40.03:  LATITUDE
 LONG.deg                51.35:  LONGITUDE
 WHNS.m                  -2.76:  WELL HEAD N/S
 WHEW.m                  -7.70:  WELL HEAD E/W
 UTMX.m              530128.28:  UTM X
 UTMY.m             4433192.49:  UTM Y
 DFWL.m                   0.00:  DISTANCE FWL
 DFSL.m                   0.00:  DISTANCE FSL
 SDEP.m                3435.01:  START DEPTH
 TDD .m                3814.01:  TOTAL DEPTH (DRILLER)
 VSDR.deg               352.80:  VERT SEC DIRECT
 GVFD.g                   1.00:  GRAVITY FIELD
 MFLD.nT              50303.00:  MAGNETIC FIELD
 MDIP.deg                59.52:  MAGNETIC DIP
 MDEC.deg                 6.47:  MAGNETIC DECL
 GRDC.deg                 0.23:  GRID CORRECTION
 AZTC.deg                 6.24:  AZM TOTAL CORR
 EPD .m                   0.00:  ELEVATION
 EGL .m                   0.00:  GROUND ELEVATION
 WDMS.m                 128.20:  WD ELEV
 APD .m                  43.29:  DEPTH ABOVE PD
 DEP .m                3421.30:  DEPTH
 AGAP.m                  43.60:  AIR GAP
 VSEW.m                  -7.70:  VERT SEC E/W
 VSNS.m                  -2.76:  VERT SEC N/S
 EKB .m                   0.00:  KB ELEVATION
 EDF .m                  43.29:  DF ELEVATION
 TDL .m                 369.00:  TOTAL DEPTH (LOGGER)
 VSC .                       0:  VS TO CLOSURE
 MAGU.                 1850390:  MAGUTM CHECKSUM
~Parameter Information Block
#MNEM.UNIT       Value        Description
#---------     -----------    ---------------------------
 AV  .mps                 2.80:  Ann Velocity 
 AVMX.mps                 4.67:  Max Ann Veloc 
 AZIF.deg               303.89:  Azm, Final 
 BHAT.        Rotary Steerable:  BHA Type 
 BREV.rev            128542.00:  Rev Bit Total 
 BROT.°/30m               1.50:  Build Rotating 
 BS  .in                  8.50:  Bit Size 
 BSZ .in                  8.50:  Bit Size 
 BTPL.psig              715.00:  Bit Press Loss 
 CABU.                      No:  Customer Abuse 
 COMM.                     ¤’i:  Run Comments 1 
 TCS .hr                 53.00:  Time Ciculation Ended 
 CV  .mps                 3.85:  Crit Velocity 
 CVMX.mps                 4.75:  Max Crit Veloc 
 DD1 .         Intigam Rahimov:  Direct Drillr 1 
 DDSV.                 iCruise:  DD Service 
 DEFF.%                  98.60:  % Det Eff 
 DLRX.°/30m               2.34:  Dogleg Rot Max 
 DLSO.°/30m               0.00:  Dogleg Oriented 
 DLSX.°/30m               0.00:  Dogleg Str Max 
 DRET.      00.15.00 05-Jan-21:  Drill End Time 
 DRST.      22.00.00 03-Jan-21:  Drill Start Tim 
 DTIM.hr                 17.72:  Time Drilling 
 EDEP.m                3814.01:  End Depth 
 ENG1.         Yevgeniy Ulikov:  Engineer 1 
 ENG2.        Farkhad Khalidov:  Engineer 2 
 ENG3.           Samir Gafarov:  Engineer 3 
 ETIM.      21.00.00 07-Jan-21:  End Time 
 FLOI.gpm               590.00:  Flow In 
 FLON.gpm               580.00:  Flow In Min 
 FLOS.cptm                1.00:  Fluid Loss 
 FLOX.gpm               595.00:  Flow In Max 
 FTRO.     Connectivity, Formation Presure:  FTWD Run Obj 
 HFLO.                      No:  High Flow 
 HPRE.                     Yes:  High Pressure 
 HTEM.                      No:  High Temp 
 HYDO.m                   1.80:  Hydro Offset 
 IFIN.deg                63.76:  Inc, Final 
 IMAX.deg                64.09:  Inc Max 
 IMIN.deg                55.81:  Inc Min 
 IMND.m                3455.62:  Inc Min Depth 
 IMXD.m                3796.03:  Inc Max Depth 
 JARR.                      No:  Jarring 
 LETM.      00.15.00 05-Jan-21:  Log End Time 
 LOST.hr                     0:  Lost Rig Time 
 LSTM.      22.00.00 03-Jan-21:  Log Start Time 
 MDCL.ppm             36000.00:  Mud Chlorides 
 MDES.     Inversion Oil/Synthetic:  Mud Desc 
 DFD .sg                  1.51:  Mud Density 
 MDMN.sg                  1.51:  Dens Mud Min 
 MDMX.sg                  1.51:  Dens Mud Max 
 MOIL.                    55.5:  Run Mud Oil % 
 MOWR.                   70:30:  Run Mud OWR 
 MSND.                     0.1:  Run Mud Sand % 
 MSOL.                   20.77:  Run Mud Solids% 
 DFV .spqt               67.00:  Mud Viscosity 
 MWOD.in                  6.75:  MWD Tool OD 
 MWSI.                      No:  Serv Intrp, MWD 
 OTIM.hr                113.53:  Time Operating 
 PCON.           Look Like New:  Pad Condition 
 PMAX.psia             4830.00:  Press Op, Max 
 PV  .cP                 29.00:  Mud PV 
 RUN .                     300:  Run Number 
 ROPA.m/hr               22.00:  ROP Avg 
 ROPN.m/hr               18.00:  ROP Min 
 ROPX.m/hr               25.00:  ROP Max 
 RPMA.rpm               130.00:  RPM Surface Avg 
 RPMN.rpm                80.00:  RPM Surface Min 
 RPMX.rpm               140.00:  RPM Surface Max 
 RRUN.                    L101:  Rig Run Number 
 RTIM.hr                  9.28:  Time Reaming 
 SAZI.deg               316.55:  Azm, Start 
 SDEP.m                3445.01:  Start Depth 
 SIDD.                      No:  Serv Intrp, DD 
 SINC.deg                55.81:  Inc, Start 
 SPPA.psig             4500.00:  SPP Avg 
 SPPN.psig             4350.00:  SPP Min 
 SPPX.psig             4830.00:  SPP Max 
 STIM.      00.00.00 03-Jan-21:  Start Time 
 SVCS.                 DD, MWD:  Services 
 SVER.                    9.20:  Sperry Version 
 TDAT.m                 369.00:  Tot Depth Attmp 
 TDDF.                      No:  Trip for DD 
 TDLG.m                 369.00:  Tot Depth Loggd 
 TFF .                      No:  Trip for Fail 
 TQAA.f-kp               15.00:  Torque Abs Avg 
 TQAN.f-kp               12.00:  Torque Abs Min 
 TQAX.f-kp               16.00:  Torque Abs Max 
 TRRT.°/30m              -2.10:  Turn Rotating 
 MRT .                    HCIM:  Maximum Recorded Temperature 
 TTMX.degC               92.16:  Max Tool Temp 
 VS01.                90627822:  Virtual Str1 SN 
 VS02.                90550008:  Virtual Str2 SN 
 VS03.                90627816:  Virtual Str3 SN 
 VS04.                90633205:  Virtual Str4 SN 
 VS05.                13033835:  Virtual Str5 SN 
 VS06.                11125125:  Virtual Str6 SN 
 WBMN.klb                 8.00:  WOB Min 
 WITN.            Bruce Cheyne:  Customer Rep 
 WITN.           Faig Mammadov:  Customer Rep 2 
 WOBA.klb                 9.00:  WOB Avg 
 WOBX.klb                12.00:  WOB Max 
 YP  .lhf2               30.00:  Yield Point 
~Curve Information Block
#MNEM.UNIT                 API CODE     Curve Description
#---------               -----------    ---------------------------
 TIME.HHMMSS            00 000 000 000:  GT Time & Date
 GTET.sec               00 000 000 000:  GT Elapsed Test Time
 GTPQH.psia             00 000 000 000:  GT HR Quartz Pressure
 GTDEPTH.m              00 000 000 000:  GT Depth
 GTTVD.m                00 000 000 000:  GT True Vertical Depth
 GTTQ.degC              00 000 000 000:  GT Quartz Temperature
 GTTN.NONE              00 000 000 000:  GT Test Number
#Other Information
#
#WARRANTY: Halliburton will use its best efforts to furnish customers with 
#accurate information and interpretations that are part of, and incident to, the services 
#provided.  However, Halliburton cannot and does not warrant the accuracy 
#or correctness of such information and interpretations.  Under no circumstances should any 
#such information or interpretation be relied upon as the sole basis for any drilling, 
#completion, production, or financial decision or any procedure involving any risk to the 
#safety of any drilling venture, drilling rig or its crew or any other third party.  The 
#Customer has full responsibility for all drilling, completion and production operation.  
#Halliburton makes no representations or warranties, either expressed or 
#implied, including, but not limited to, the implied warranties of merchantability or fitness 
#for a particular purpose, with respect to the services rendered.  In no event will 
#Halliburton be liable for failure to obtain any particular results or for 
#any damages, including, but not limited to, indirect, special or consequential damages, 
#resulting from the use of any information or interpretation provided by Halliburton.
#
~A           TIME            GTET   GTPQH  GTDEPTH  GTTVD  GTTQ  GTTN 
# ...
   08:21:18.441.05-Jan-2021 161.06 4455.60 3649.01 3076.03 80.40 5.00
   08:21:18.641.05-Jan-2021 161.26 4455.60 3649.01 3076.03 80.40 5.00
   08:21:18.841.05-Jan-2021 161.46 4456.00 3649.01 3076.03 80.40 5.00
   08:21:19.041.05-Jan-2021 161.66 4455.64 3649.01 3076.03 80.40 5.00
   08:21:19.242.05-Jan-2021 161.86 4455.56 3649.01 3076.03 80.40 5.00
   08:21:19.442.05-Jan-2021 162.06 4455.68 3649.01 3076.03 80.40 5.00
   08:21:19.642.05-Jan-2021 162.26 4455.68 3649.01 3076.03 80.40 5.00
   08:21:19.842.05-Jan-2021 162.46 4455.63 3649.01 3076.03 80.40 5.00
   08:21:20.042.05-Jan-2021 162.66 4455.65 3649.01 3076.03 80.40 5.00
   08:21:20.242.05-Jan-2021 162.86 4455.60 3649.01 3076.03 80.40 5.00
   08:21:20.442.05-Jan-2021 163.06 4455.53 3649.01 3076.03 80.40 5.00
   08:21:20.642.05-Jan-2021 163.26 4455.53 3649.01 3076.03 80.40 5.00
   08:21:20.842.05-Jan-2021 163.46 4455.58 3649.01 3076.03 80.40 5.00
   08:21:21.042.05-Jan-2021 163.66 4455.62 3649.01 3076.03 80.40 5.00
   08:21:21.242.05-Jan-2021 163.86 4455.58 3649.01 3076.03 80.40 5.00
   08:21:21.442.05-Jan-2021 164.06 4455.19 3649.01 3076.03 80.40 5.00
   08:21:21.642.05-Jan-2021 164.26 4455.19 3649.01 3076.03 80.40 5.00
   08:21:21.842.05-Jan-2021 164.46 4455.75 3649.01 3076.03 80.40 5.00
   08:21:22.043.05-Jan-2021 164.66 4455.68 3649.01 3076.03 80.40 5.00
   08:21:22.243.05-Jan-2021 164.86 4455.59 3649.01 3076.03 80.40 5.00
   08:21:22.443.05-Jan-2021 165.06 4455.66 3649.01 3076.03 80.40 5.00
   08:21:22.643.05-Jan-2021 165.26 4455.66 3649.01 3076.03 80.40 5.00
   08:21:22.843.05-Jan-2021 165.46 4455.64 3649.01 3076.03 80.40 5.00
   08:21:23.043.05-Jan-2021 165.66 4455.53 3649.01 3076.03 80.40 5.00
   08:21:23.243.05-Jan-2021 165.86 4455.61 3649.01 3076.03 80.40 5.00
   08:21:23.443.05-Jan-2021 166.06 4455.62 3649.01 3076.03 80.40 5.00
   08:21:23.643.05-Jan-2021 166.26 4455.62 3649.01 3076.03 80.40 5.00
   08:21:23.843.05-Jan-2021 166.46 4455.57 3649.01 3076.03 80.40 5.00
   08:21:24.043.05-Jan-2021 166.66 4454.99 3649.01 3076.03 80.40 5.00
   08:21:24.243.05-Jan-2021 166.86 4455.88 3649.01 3076.03 80.40 5.00
   08:21:24.443.05-Jan-2021 167.06 4455.70 3649.01 3076.03 80.40 5.00
   08:21:24.644.05-Jan-2021 167.26 4455.70 3649.01 3076.03 80.40 5.00
   08:21:24.844.05-Jan-2021 167.46 4455.69 3649.01 3076.03 80.40 5.00
   08:21:25.044.05-Jan-2021 167.66 4455.69 3649.01 3076.03 80.40 5.00
   08:21:25.244.05-Jan-2021 167.86 4455.62 3649.01 3076.03 80.40 5.00
   08:21:25.444.05-Jan-2021 168.06 4455.25 3649.01 3076.03 80.41 5.00
   08:21:25.644.05-Jan-2021 168.26 4455.78 3649.01 3076.03 80.41 5.00
   08:21:25.844.05-Jan-2021 168.46 4455.63 3649.01 3076.03 80.41 5.00
   08:21:26.044.05-Jan-2021 168.66 4455.67 3649.01 3076.03 80.41 5.00
   08:21:26.244.05-Jan-2021 168.86 4455.16 3649.01 3076.03 80.41 5.00
   08:21:26.444.05-Jan-2021 169.06 4455.55 3649.01 3076.03 80.41 5.00
   08:21:26.644.05-Jan-2021 169.26 4455.55 3649.01 3076.03 80.41 5.00
   08:21:26.844.05-Jan-2021 169.46 4455.65 3649.01 3076.03 80.41 5.00
   08:21:27.044.05-Jan-2021 169.66 4455.61 3649.01 3076.03 80.41 5.00
   08:21:27.244.05-Jan-2021 169.86 4455.63 3649.01 3076.03 80.41 5.00
   08:21:27.445.05-Jan-2021 170.06 4455.17 3649.01 3076.03 80.41 5.00
   08:21:27.645.05-Jan-2021 170.26 4455.17 3649.01 3076.03 80.41 5.00
   08:21:27.845.05-Jan-2021 170.46 4455.68 3649.01 3076.03 80.41 5.00
   08:21:28.045.05-Jan-2021 170.66 4455.67 3649.01 3076.03 80.41 5.00
   08:21:28.245.05-Jan-2021 170.86 4455.54 3649.01 3076.03 80.41 5.00
   08:21:28.445.05-Jan-2021 171.06 4455.58 3649.01 3076.03 80.41 5.00
   08:21:28.645.05-Jan-2021 171.26 4455.58 3649.01 3076.03 80.41 5.00
   08:21:28.845.05-Jan-2021 171.46 4407.08 3649.01 3076.03 80.41 5.00
   08:21:29.045.05-Jan-2021 171.66 4173.76 3649.01 3076.03 80.41 5.00
   08:21:29.245.05-Jan-2021 171.86 4076.50 3649.01 3076.03 80.41 5.00
   08:21:29.445.05-Jan-2021 172.06 4067.91 3649.01 3076.03 80.41 5.00
   08:21:29.645.05-Jan-2021 172.26 4042.85 3649.01 3076.03 80.41 5.00
   08:21:29.845.05-Jan-2021 172.46 4090.00 3649.01 3076.03 80.41 5.00
   08:21:30.046.05-Jan-2021 172.66 4087.28 3649.01 3076.03 80.41 5.00
   08:21:30.246.05-Jan-2021 172.86 4073.04 3649.01 3076.03 80.41 5.00
   08:21:30.446.05-Jan-2021 173.06 4097.73 3649.01 3076.03 80.41 5.00
   08:21:30.646.05-Jan-2021 173.26 4097.73 3649.01 3076.03 80.41 5.00
   08:21:30.846.05-Jan-2021 173.46 4095.68 3649.01 3076.03 80.41 5.00
   08:21:31.046.05-Jan-2021 173.66 4118.78 3649.01 3076.03 80.41 5.00
   08:21:31.246.05-Jan-2021 173.86 4401.57 3649.01 3076.03 80.41 5.00
   08:21:31.446.05-Jan-2021 174.06 4413.55 3649.01 3076.03 80.41 5.00
   08:21:31.646.05-Jan-2021 174.26 4413.55 3649.01 3076.03 80.41 5.00
   08:21:31.846.05-Jan-2021 174.46 4414.69 3649.01 3076.03 80.41 5.00
   08:21:32.046.05-Jan-2021 174.66 4407.05 3649.01 3076.03 80.41 5.00
   08:21:32.246.05-Jan-2021 174.86 4423.40 3649.01 3076.03 80.41 5.00
   08:21:32.446.05-Jan-2021 175.06 4437.16 3649.01 3076.03 80.41 5.00
   08:21:32.646.05-Jan-2021 175.27 4437.16 3649.01 3076.03 80.41 5.00
   08:21:32.847.05-Jan-2021 175.47 4411.47 3649.01 3076.03 80.41 5.00
   08:21:33.047.05-Jan-2021 175.67 4410.08 3649.01 3076.03 80.41 5.00
   08:21:33.247.05-Jan-2021 175.87 4409.93 3649.01 3076.03 80.41 5.00
   08:21:33.447.05-Jan-2021 176.07 4413.68 3649.01 3076.03 80.41 5.00
   08:21:33.647.05-Jan-2021 176.27 4408.80 3649.01 3076.03 80.41 5.00
   08:21:33.847.05-Jan-2021 176.47 4414.75 3649.01 3076.03 80.41 5.00
   08:21:34.047.05-Jan-2021 176.67 4409.47 3649.01 3076.03 80.41 5.00
   08:21:34.247.05-Jan-2021 176.87 4410.18 3649.01 3076.03 80.41 5.00
   08:21:34.447.05-Jan-2021 177.07 4411.23 3649.01 3076.03 80.41 5.00
   08:21:34.647.05-Jan-2021 177.27 4411.23 3649.01 3076.03 80.41 5.00
   08:21:34.847.05-Jan-2021 177.47 4419.44 3649.01 3076.03 80.41 5.00
   08:21:35.047.05-Jan-2021 177.67 4406.71 3649.01 3076.03 80.41 5.00
   08:21:35.247.05-Jan-2021 177.87 4419.02 3649.01 3076.03 80.41 5.00
   08:21:35.448.05-Jan-2021 178.07 4409.84 3649.01 3076.03 80.41 5.00
   08:21:35.648.05-Jan-2021 178.27 4409.84 3649.01 3076.03 80.41 5.00
   08:21:35.848.05-Jan-2021 178.47 4415.02 3649.01 3076.03 80.41 5.00
   08:21:36.048.05-Jan-2021 178.67 4408.79 3649.01 3076.03 80.41 5.00
   08:21:36.248.05-Jan-2021 178.87 4412.77 3649.01 3076.03 80.41 5.00
   08:21:36.448.05-Jan-2021 179.07 4408.92 3649.01 3076.03 80.41 5.00
   08:21:36.648.05-Jan-2021 179.27 4408.92 3649.01 3076.03 80.41 5.00
   08:21:36.848.05-Jan-2021 179.47 4410.88 3649.01 3076.03 80.41 5.00
   08:21:37.048.05-Jan-2021 179.67 4408.64 3649.01 3076.03 80.41 5.00
   08:21:37.248.05-Jan-2021 179.87 4414.96 3649.01 3076.03 80.41 5.00
   08:21:37.448.05-Jan-2021 180.07 4408.05 3649.01 3076.03 80.41 5.00
   08:21:37.648.05-Jan-2021 180.27 4418.12 3649.01 3076.03 80.41 5.00
   08:21:37.848.05-Jan-2021 180.47 4414.03 3649.01 3076.03 80.41 5.00
   08:21:38.048.05-Jan-2021 180.67 4419.06 3649.01 3076.03 80.41 5.00
   08:21:38.249.05-Jan-2021 180.87 4415.57 3649.01 3076.03 80.41 5.00
   08:21:38.449.05-Jan-2021 181.07 4419.60 3649.01 3076.03 80.41 5.00
   08:21:38.649.05-Jan-2021 181.27 4419.60 3649.01 3076.03 80.41 5.00
   08:21:38.849.05-Jan-2021 181.47 4417.59 3649.01 3076.03 80.41 5.00
   08:21:39.049.05-Jan-2021 181.67 4423.13 3649.01 3076.03 80.41 5.00
   08:21:39.249.05-Jan-2021 181.87 4454.55 3649.01 3076.03 80.41 5.00
   08:21:39.449.05-Jan-2021 182.07 4455.42 3649.01 3076.03 80.41 5.00
   08:21:39.649.05-Jan-2021 182.27 4455.42 3649.01 3076.03 80.41 5.00
   08:21:39.849.05-Jan-2021 182.47 4455.16 3649.01 3076.03 80.41 5.00
   08:21:40.049.05-Jan-2021 182.67 4455.18 3649.01 3076.03 80.41 5.00
   08:21:40.249.05-Jan-2021 182.87 4455.23 3649.01 3076.03 80.41 5.00
   08:21:40.449.05-Jan-2021 183.07 4455.21 3649.01 3076.03 80.41 5.00
   08:21:40.649.05-Jan-2021 183.27 4455.21 3649.01 3076.03 80.41 5.00
   08:21:40.850.05-Jan-2021 183.47 4455.25 3649.01 3076.03 80.41 5.00
   08:21:41.050.05-Jan-2021 183.67 4455.27 3649.01 3076.03 80.41 5.00
   08:21:41.250.05-Jan-2021 183.87 4455.28 3649.01 3076.03 80.41 5.00
