~Version Information
 VERS.                  2.0:   CWLS log ASCII Standard -VERSION 2.0
 WRAP.                   NO:   One line per depth step
~Well Information Block
#MNEM.UNIT     VALUE/NAME     DESCRIPTION
#---------     -----------    ---------------------------
 STRT.S             08:46:17 05-Jan-21: START TIME 08:46:17 05-Jan-21
 STOP.S             08:54:30 05-Jan-21: STOP TIME  08:54:30 05-Jan-21
 STEP.S                   0.00: STEP TIME
 NULL.                 -999.25: NULL VALUE
 DFWT.                        :  DIST FWL TEXT
 DFST.                        :  DIST FSL TEXT
 DMF .             Drill Floor:  DRILL MEAS FROM
 STIM.      06.00.00 31-Dec-20:  START TIME
 DATE.      05.58.24 07-Jan-21:  END TIME
 SPUD.               24-Dec-20:  SPUD DATE
 NREF.                    Grid:  NORTH REFERENCE
 HPTY.       Minimum Curvature:  HOLE POS TYPE
 DMOD.             Drill Model:  DRILL MOD DESC
 SVYD.                  Survey:  SURVEY DESC
 ILTD.               Lithology:  INTERP LTH DESC
 FTOP.          Formation Tops:  FORM TOPS DESC
 SON .        AZ-XX-0906699554:  JOB NUMBER
 WELL.                    B09z:  WELL NAME
 PDAT.          Mean Sea Level:  PERMANENT DATUM
 FLD .                     ACG:  FIELD NAME
 CTRY.              Azerbaijan:  COUNTRY NAME
 COMP.     BP Exploration (Caspian Sea) Ltd.:  COMPANY
 UWI .                     N/A:  UNIQUE WELL IDENTIFIER
 API .                     N/A:  API NUMBER
 WTYP.                Deviated:  WELL TYPE
 MDS .        Operator Entered:  MAG DATA SOURCE
 BASE.              Azerbaijan:  LOGGING EQUIPMENT BASE LOCATION
 REGN.                   EESSA:  REGION
 PROV.                    Baku:  PROVINCE
 STAT.                    Baku:  STATE NAME
 SRVC.          Turan Drilling:  CONTRACTOR
 MWDS.                    Baku:  MWD SHOP
 JOBN.        AZ-XX-0906699554:  JOB TICKET NUMB
 RIG .           Central Azeri:  RIG NAME
 DOE .                     N/A:  DOE NUMBER
 DCON.         Sperry Drilling:  DIRECTNL CONTR
 UNIT.                     N/A:  LOGGING EQUIPMENT ID
 CNTY.                        :  COUNTY
 LOC .                        :  LOCATION
 LMF .             Drill Floor:  LOG MEASURED FROM
 TVDS.m                  43.29:  TVDSS CORRECTN
 LATI.deg                40.03:  LATITUDE
 LONG.deg                51.35:  LONGITUDE
 WHNS.m                  -2.76:  WELL HEAD N/S
 WHEW.m                  -7.70:  WELL HEAD E/W
 UTMX.m              530128.28:  UTM X
 UTMY.m             4433192.49:  UTM Y
 DFWL.m                   0.00:  DISTANCE FWL
 DFSL.m                   0.00:  DISTANCE FSL
 SDEP.m                3435.01:  START DEPTH
 TDD .m                3814.01:  TOTAL DEPTH (DRILLER)
 VSDR.deg               352.80:  VERT SEC DIRECT
 GVFD.g                   1.00:  GRAVITY FIELD
 MFLD.nT              50303.00:  MAGNETIC FIELD
 MDIP.deg                59.52:  MAGNETIC DIP
 MDEC.deg                 6.47:  MAGNETIC DECL
 GRDC.deg                 0.23:  GRID CORRECTION
 AZTC.deg                 6.24:  AZM TOTAL CORR
 EPD .m                   0.00:  ELEVATION
 EGL .m                   0.00:  GROUND ELEVATION
 WDMS.m                 128.20:  WD ELEV
 APD .m                  43.29:  DEPTH ABOVE PD
 DEP .m                3421.30:  DEPTH
 AGAP.m                  43.60:  AIR GAP
 VSEW.m                  -7.70:  VERT SEC E/W
 VSNS.m                  -2.76:  VERT SEC N/S
 EKB .m                   0.00:  KB ELEVATION
 EDF .m                  43.29:  DF ELEVATION
 TDL .m                 369.00:  TOTAL DEPTH (LOGGER)
 VSC .                       0:  VS TO CLOSURE
 MAGU.                 1850390:  MAGUTM CHECKSUM
~Parameter Information Block
#MNEM.UNIT       Value        Description
#---------     -----------    ---------------------------
 AV  .mps                 2.80:  Ann Velocity 
 AVMX.mps                 4.67:  Max Ann Veloc 
 AZIF.deg               303.89:  Azm, Final 
 BHAT.        Rotary Steerable:  BHA Type 
 BREV.rev            128542.00:  Rev Bit Total 
 BROT.°/30m               1.50:  Build Rotating 
 BS  .in                  8.50:  Bit Size 
 BSZ .in                  8.50:  Bit Size 
 BTPL.psig              715.00:  Bit Press Loss 
 CABU.                      No:  Customer Abuse 
 COMM.                     Œã}:  Run Comments 1 
 TCS .hr                 53.00:  Time Ciculation Ended 
 CV  .mps                 3.85:  Crit Velocity 
 CVMX.mps                 4.75:  Max Crit Veloc 
 DD1 .         Intigam Rahimov:  Direct Drillr 1 
 DDSV.                 iCruise:  DD Service 
 DEFF.%                  98.60:  % Det Eff 
 DLRX.°/30m               2.34:  Dogleg Rot Max 
 DLSO.°/30m               0.00:  Dogleg Oriented 
 DLSX.°/30m               0.00:  Dogleg Str Max 
 DRET.      00.15.00 05-Jan-21:  Drill End Time 
 DRST.      22.00.00 03-Jan-21:  Drill Start Tim 
 DTIM.hr                 17.72:  Time Drilling 
 EDEP.m                3814.01:  End Depth 
 ENG1.         Yevgeniy Ulikov:  Engineer 1 
 ENG2.        Farkhad Khalidov:  Engineer 2 
 ENG3.           Samir Gafarov:  Engineer 3 
 ETIM.      21.00.00 07-Jan-21:  End Time 
 FLOI.gpm               590.00:  Flow In 
 FLON.gpm               580.00:  Flow In Min 
 FLOS.cptm                1.00:  Fluid Loss 
 FLOX.gpm               595.00:  Flow In Max 
 FTRO.     Connectivity, Formation Presure:  FTWD Run Obj 
 HFLO.                      No:  High Flow 
 HPRE.                     Yes:  High Pressure 
 HTEM.                      No:  High Temp 
 HYDO.m                   1.80:  Hydro Offset 
 IFIN.deg                63.76:  Inc, Final 
 IMAX.deg                64.09:  Inc Max 
 IMIN.deg                55.81:  Inc Min 
 IMND.m                3455.62:  Inc Min Depth 
 IMXD.m                3796.03:  Inc Max Depth 
 JARR.                      No:  Jarring 
 LETM.      00.15.00 05-Jan-21:  Log End Time 
 LOST.hr                     0:  Lost Rig Time 
 LSTM.      22.00.00 03-Jan-21:  Log Start Time 
 MDCL.ppm             36000.00:  Mud Chlorides 
 MDES.     Inversion Oil/Synthetic:  Mud Desc 
 DFD .sg                  1.51:  Mud Density 
 MDMN.sg                  1.51:  Dens Mud Min 
 MDMX.sg                  1.51:  Dens Mud Max 
 MOIL.                    55.5:  Run Mud Oil % 
 MOWR.                   70:30:  Run Mud OWR 
 MSND.                     0.1:  Run Mud Sand % 
 MSOL.                   20.77:  Run Mud Solids% 
 DFV .spqt               67.00:  Mud Viscosity 
 MWOD.in                  6.75:  MWD Tool OD 
 MWSI.                      No:  Serv Intrp, MWD 
 OTIM.hr                113.53:  Time Operating 
 PCON.           Look Like New:  Pad Condition 
 PMAX.psia             4830.00:  Press Op, Max 
 PV  .cP                 29.00:  Mud PV 
 RUN .                     300:  Run Number 
 ROPA.m/hr               22.00:  ROP Avg 
 ROPN.m/hr               18.00:  ROP Min 
 ROPX.m/hr               25.00:  ROP Max 
 RPMA.rpm               130.00:  RPM Surface Avg 
 RPMN.rpm                80.00:  RPM Surface Min 
 RPMX.rpm               140.00:  RPM Surface Max 
 RRUN.                    L101:  Rig Run Number 
 RTIM.hr                  9.28:  Time Reaming 
 SAZI.deg               316.55:  Azm, Start 
 SDEP.m                3445.01:  Start Depth 
 SIDD.                      No:  Serv Intrp, DD 
 SINC.deg                55.81:  Inc, Start 
 SPPA.psig             4500.00:  SPP Avg 
 SPPN.psig             4350.00:  SPP Min 
 SPPX.psig             4830.00:  SPP Max 
 STIM.      00.00.00 03-Jan-21:  Start Time 
 SVCS.                 DD, MWD:  Services 
 SVER.                    9.20:  Sperry Version 
 TDAT.m                 369.00:  Tot Depth Attmp 
 TDDF.                      No:  Trip for DD 
 TDLG.m                 369.00:  Tot Depth Loggd 
 TFF .                      No:  Trip for Fail 
 TQAA.f-kp               15.00:  Torque Abs Avg 
 TQAN.f-kp               12.00:  Torque Abs Min 
 TQAX.f-kp               16.00:  Torque Abs Max 
 TRRT.°/30m              -2.10:  Turn Rotating 
 MRT .                    HCIM:  Maximum Recorded Temperature 
 TTMX.degC               92.16:  Max Tool Temp 
 VS01.                90627822:  Virtual Str1 SN 
 VS02.                90550008:  Virtual Str2 SN 
 VS03.                90627816:  Virtual Str3 SN 
 VS04.                90633205:  Virtual Str4 SN 
 VS05.                13033835:  Virtual Str5 SN 
 VS06.                11125125:  Virtual Str6 SN 
 WBMN.klb                 8.00:  WOB Min 
 WITN.            Bruce Cheyne:  Customer Rep 
 WITN.           Faig Mammadov:  Customer Rep 2 
 WOBA.klb                 9.00:  WOB Avg 
 WOBX.klb                12.00:  WOB Max 
 YP  .lhf2               30.00:  Yield Point 
~Curve Information Block
#MNEM.UNIT                 API CODE     Curve Description
#---------               -----------    ---------------------------
 TIME.HHMMSS            00 000 000 000:  GT Time & Date
 GTET.sec               00 000 000 000:  GT Elapsed Test Time
 GTPQH.psia             00 000 000 000:  GT HR Quartz Pressure
 GTDEPTH.m              00 000 000 000:  GT Depth
 GTTVD.m                00 000 000 000:  GT True Vertical Depth
 GTTQ.degC              00 000 000 000:  GT Quartz Temperature
 GTTN.NONE              00 000 000 000:  GT Test Number
#Other Information
#
#WARRANTY: Halliburton will use its best efforts to furnish customers with 
#accurate information and interpretations that are part of, and incident to, the services 
#provided.  However, Halliburton cannot and does not warrant the accuracy 
#or correctness of such information and interpretations.  Under no circumstances should any 
#such information or interpretation be relied upon as the sole basis for any drilling, 
#completion, production, or financial decision or any procedure involving any risk to the 
#safety of any drilling venture, drilling rig or its crew or any other third party.  The 
#Customer has full responsibility for all drilling, completion and production operation.  
#Halliburton makes no representations or warranties, either expressed or 
#implied, including, but not limited to, the implied warranties of merchantability or fitness 
#for a particular purpose, with respect to the services rendered.  In no event will 
#Halliburton be liable for failure to obtain any particular results or for 
#any damages, including, but not limited to, indirect, special or consequential damages, 
#resulting from the use of any information or interpretation provided by Halliburton.
#
~A           TIME            GTET   GTPQH  GTDEPTH  GTTVD  GTTQ  GTTN 
# ...
   08:52:26.134.05-Jan-2021 368.14 4605.04 3625.51 3064.84 79.97 6.00
   08:52:26.334.05-Jan-2021 368.34 4605.04 3625.51 3064.84 79.97 6.00
   08:52:26.535.05-Jan-2021 368.54 4604.84 3625.51 3064.84 79.97 6.00
   08:52:26.735.05-Jan-2021 368.74 4605.03 3625.51 3064.84 79.97 6.00
   08:52:26.935.05-Jan-2021 368.94 4605.18 3625.51 3064.84 79.97 6.00
   08:52:27.135.05-Jan-2021 369.14 4605.18 3625.51 3064.84 79.97 6.00
   08:52:27.335.05-Jan-2021 369.34 4605.18 3625.51 3064.84 79.97 6.00
   08:52:27.535.05-Jan-2021 369.54 4605.06 3625.51 3064.84 79.97 6.00
   08:52:27.735.05-Jan-2021 369.74 4605.04 3625.51 3064.84 79.97 6.00
   08:52:27.935.05-Jan-2021 369.94 4605.05 3625.51 3064.84 79.97 6.00
   08:52:28.135.05-Jan-2021 370.14 4605.05 3625.51 3064.84 79.97 6.00
   08:52:28.335.05-Jan-2021 370.34 4605.05 3625.51 3064.84 79.97 6.00
   08:52:28.535.05-Jan-2021 370.54 4605.05 3625.51 3064.84 79.97 6.00
   08:52:28.735.05-Jan-2021 370.74 4605.07 3625.51 3064.84 79.97 6.00
   08:52:28.935.05-Jan-2021 370.94 4605.01 3625.51 3064.84 79.97 6.00
   08:52:29.136.05-Jan-2021 371.14 4604.46 3625.51 3064.84 79.97 6.00
   08:52:29.336.05-Jan-2021 371.34 4605.09 3625.51 3064.84 79.97 6.00
   08:52:29.536.05-Jan-2021 371.54 4604.71 3625.51 3064.84 79.97 6.00
   08:52:29.736.05-Jan-2021 371.74 4605.04 3625.51 3064.84 79.97 6.00
   08:52:29.936.05-Jan-2021 371.94 4605.13 3625.51 3064.84 79.97 6.00
   08:52:30.136.05-Jan-2021 372.14 4605.20 3625.51 3064.84 79.97 6.00
   08:52:30.336.05-Jan-2021 372.34 4605.20 3625.51 3064.84 79.97 6.00
   08:52:30.536.05-Jan-2021 372.54 4605.11 3625.51 3064.84 79.97 6.00
   08:52:30.736.05-Jan-2021 372.74 4604.57 3625.51 3064.84 79.97 6.00
   08:52:30.936.05-Jan-2021 372.94 4605.05 3625.51 3064.84 79.97 6.00
   08:52:31.136.05-Jan-2021 373.14 4605.14 3625.51 3064.84 79.97 6.00
   08:52:31.336.05-Jan-2021 373.34 4605.14 3625.51 3064.84 79.97 6.00
   08:52:31.536.05-Jan-2021 373.54 4605.06 3625.51 3064.84 79.97 6.00
   08:52:31.736.05-Jan-2021 373.74 4604.41 3625.51 3064.84 79.97 6.00
   08:52:31.937.05-Jan-2021 373.94 4605.27 3625.51 3064.84 79.97 6.00
   08:52:32.137.05-Jan-2021 374.14 4605.18 3625.51 3064.84 79.97 6.00
   08:52:32.337.05-Jan-2021 374.34 4605.18 3625.51 3064.84 79.97 6.00
   08:52:32.537.05-Jan-2021 374.54 4605.28 3625.51 3064.84 79.97 6.00
   08:52:32.737.05-Jan-2021 374.74 4604.58 3625.51 3064.84 79.97 6.00
   08:52:32.937.05-Jan-2021 374.94 4605.21 3625.51 3064.84 79.97 6.00
   08:52:33.137.05-Jan-2021 375.14 4605.20 3625.51 3064.84 79.97 6.00
   08:52:33.337.05-Jan-2021 375.34 4605.28 3625.51 3064.84 79.97 6.00
   08:52:33.537.05-Jan-2021 375.54 4605.14 3625.51 3064.84 79.97 6.00
   08:52:33.737.05-Jan-2021 375.74 4605.17 3625.51 3064.84 79.97 6.00
   08:52:33.937.05-Jan-2021 375.94 4605.13 3625.51 3064.84 79.97 6.00
   08:52:34.137.05-Jan-2021 376.14 4605.13 3625.51 3064.84 79.97 6.00
   08:52:34.337.05-Jan-2021 376.34 4605.13 3625.51 3064.84 79.97 6.00
   08:52:34.538.05-Jan-2021 376.54 4605.09 3625.51 3064.84 79.97 6.00
   08:52:34.738.05-Jan-2021 376.74 4605.15 3625.51 3064.84 79.97 6.00
   08:52:34.938.05-Jan-2021 376.94 4605.10 3625.51 3064.84 79.97 6.00
   08:52:35.138.05-Jan-2021 377.14 4605.10 3625.51 3064.84 79.97 6.00
   08:52:35.338.05-Jan-2021 377.34 4605.10 3625.51 3064.84 79.97 6.00
   08:52:35.538.05-Jan-2021 377.54 4604.85 3625.51 3064.84 79.97 6.00
   08:52:35.738.05-Jan-2021 377.74 4605.10 3625.51 3064.84 79.97 6.00
   08:52:35.938.05-Jan-2021 377.94 4605.22 3625.51 3064.84 79.97 6.00
   08:52:36.138.05-Jan-2021 378.14 4605.22 3625.51 3064.84 79.97 6.00
   08:52:36.338.05-Jan-2021 378.34 4605.22 3625.51 3064.84 79.97 6.00
   08:52:36.538.05-Jan-2021 378.54 4605.12 3625.51 3064.84 79.97 6.00
   08:52:36.738.05-Jan-2021 378.74 4605.08 3625.51 3064.84 79.97 6.00
   08:52:36.938.05-Jan-2021 378.94 4605.07 3625.51 3064.84 79.97 6.00
   08:52:37.138.05-Jan-2021 379.14 4605.09 3625.51 3064.84 79.97 6.00
   08:52:37.339.05-Jan-2021 379.34 4605.06 3625.51 3064.84 79.97 6.00
   08:52:37.539.05-Jan-2021 379.54 4605.05 3625.51 3064.84 79.97 6.00
   08:52:37.739.05-Jan-2021 379.74 4605.08 3625.51 3064.84 79.97 6.00
   08:52:37.939.05-Jan-2021 379.94 4605.07 3625.51 3064.84 79.97 6.00
   08:52:38.139.05-Jan-2021 380.14 4604.46 3625.51 3064.84 79.97 6.00
   08:52:38.339.05-Jan-2021 380.34 4604.46 3625.51 3064.84 79.97 6.00
   08:52:38.539.05-Jan-2021 380.54 4604.76 3625.51 3064.84 79.97 6.00
   08:52:38.739.05-Jan-2021 380.74 4605.05 3625.51 3064.84 79.97 6.00
   08:52:38.939.05-Jan-2021 380.94 4605.15 3625.51 3064.84 79.97 6.00
   08:52:39.139.05-Jan-2021 381.14 4605.27 3625.51 3064.84 79.97 6.00
   08:52:39.339.05-Jan-2021 381.34 4605.27 3625.51 3064.84 79.97 6.00
   08:52:39.539.05-Jan-2021 381.54 4605.19 3625.51 3064.84 79.97 6.00
   08:52:39.739.05-Jan-2021 381.74 4604.61 3625.51 3064.84 79.97 6.00
   08:52:39.940.05-Jan-2021 381.94 4605.15 3625.51 3064.84 79.97 6.00
   08:52:40.140.05-Jan-2021 382.14 4605.24 3625.51 3064.84 79.97 6.00
   08:52:40.340.05-Jan-2021 382.34 4605.24 3625.51 3064.84 79.97 6.00
   08:52:40.540.05-Jan-2021 382.54 4605.08 3625.51 3064.84 79.97 6.00
   08:52:40.740.05-Jan-2021 382.74 4604.83 3625.51 3064.84 79.97 6.00
   08:52:40.940.05-Jan-2021 382.94 4604.90 3625.51 3064.84 79.97 6.00
   08:52:41.140.05-Jan-2021 383.14 4605.19 3625.51 3064.84 79.97 6.00
   08:52:41.340.05-Jan-2021 383.34 4605.19 3625.51 3064.84 79.97 6.00
   08:52:41.540.05-Jan-2021 383.54 4605.25 3625.51 3064.84 79.96 6.00
   08:52:41.740.05-Jan-2021 383.74 4604.47 3625.51 3064.84 79.96 6.00
   08:52:41.940.05-Jan-2021 383.94 4605.33 3625.51 3064.84 79.96 6.00
   08:52:42.140.05-Jan-2021 384.14 4605.18 3625.51 3064.84 79.96 6.00
   08:52:42.340.05-Jan-2021 384.34 4605.18 3625.51 3064.84 79.96 6.00
   08:52:42.540.05-Jan-2021 384.54 4605.29 3625.51 3064.84 79.96 6.00
   08:52:42.741.05-Jan-2021 384.74 4605.15 3625.51 3064.84 79.96 6.00
   08:52:42.941.05-Jan-2021 384.94 4605.11 3625.51 3064.84 79.96 6.00
   08:52:43.141.05-Jan-2021 385.14 4605.14 3625.51 3064.84 79.96 6.00
   08:52:43.341.05-Jan-2021 385.34 4605.14 3625.51 3064.84 79.96 6.00
   08:52:43.541.05-Jan-2021 385.54 4605.08 3625.51 3064.84 79.96 6.00
   08:52:43.741.05-Jan-2021 385.74 4605.14 3625.51 3064.84 79.96 6.00
   08:52:43.941.05-Jan-2021 385.94 4605.13 3625.51 3064.84 79.96 6.00
   08:52:44.141.05-Jan-2021 386.14 4605.05 3625.51 3064.84 79.96 6.00
   08:52:44.341.05-Jan-2021 386.34 4605.05 3625.51 3064.84 79.96 6.00
   08:52:44.541.05-Jan-2021 386.54 4604.49 3625.51 3064.84 79.96 6.00
   08:52:44.741.05-Jan-2021 386.74 4605.09 3625.51 3064.84 79.96 6.00
   08:52:44.941.05-Jan-2021 386.94 4605.12 3625.51 3064.84 79.96 6.00
   08:52:45.141.05-Jan-2021 387.14 4605.24 3625.51 3064.84 79.96 6.00
   08:52:45.342.05-Jan-2021 387.34 4605.14 3625.51 3064.84 79.96 6.00
   08:52:45.542.05-Jan-2021 387.54 4605.11 3625.51 3064.84 79.96 6.00
   08:52:45.742.05-Jan-2021 387.74 4605.09 3625.51 3064.84 79.96 6.00
   08:52:45.942.05-Jan-2021 387.94 4605.11 3625.51 3064.84 79.96 6.00
   08:52:46.142.05-Jan-2021 388.14 4605.10 3625.51 3064.84 79.96 6.00
   08:52:46.342.05-Jan-2021 388.34 4605.10 3625.51 3064.84 79.96 6.00
   08:52:46.542.05-Jan-2021 388.54 4605.09 3625.51 3064.84 79.96 6.00
   08:52:46.742.05-Jan-2021 388.74 4605.15 3625.51 3064.84 79.96 6.00
   08:52:46.942.05-Jan-2021 388.94 4605.08 3625.51 3064.84 79.96 6.00
   08:52:47.142.05-Jan-2021 389.14 4604.42 3625.51 3064.84 79.96 6.00
   08:52:47.342.05-Jan-2021 389.34 4604.42 3625.51 3064.84 79.96 6.00
   08:52:47.542.05-Jan-2021 389.54 4605.18 3625.51 3064.84 79.96 6.00
   08:52:47.742.05-Jan-2021 389.74 4604.57 3625.51 3064.84 79.96 6.00
   08:52:47.942.05-Jan-2021 389.94 4605.34 3625.51 3064.84 79.96 6.00
   08:52:48.143.05-Jan-2021 390.14 4605.28 3625.51 3064.84 79.96 6.00
   08:52:48.343.05-Jan-2021 390.34 4605.28 3625.51 3064.84 79.96 6.00
   08:52:48.543.05-Jan-2021 390.54 4605.21 3625.51 3064.84 79.96 6.00
   08:52:48.743.05-Jan-2021 390.75 4604.85 3625.51 3064.84 79.96 6.00
   08:52:48.943.05-Jan-2021 390.95 4604.93 3625.51 3064.84 79.96 6.00
