~Version Information
 VERS.                  2.0:   CWLS log ASCII Standard -VERSION 2.0
 WRAP.                   NO:   One line per depth step
~Well Information Block
#MNEM.UNIT     VALUE/NAME     DESCRIPTION
#---------     -----------    ---------------------------
 STRT.S             08:18:37 05-Jan-21: START TIME 08:18:37 05-Jan-21
 STOP.S             08:26:49 05-Jan-21: STOP TIME  08:26:49 05-Jan-21
 STEP.S                   0.00: STEP TIME
 NULL.                 -999.25: NULL VALUE
 DFWT.                        :  DIST FWL TEXT
 DFST.                        :  DIST FSL TEXT
 DMF .             Drill Floor:  DRILL MEAS FROM
 STIM.      06.00.00 31-Dec-20:  START TIME
 DATE.      05.58.24 07-Jan-21:  END TIME
 SPUD.               24-Dec-20:  SPUD DATE
 NREF.                    Grid:  NORTH REFERENCE
 HPTY.       Minimum Curvature:  HOLE POS TYPE
 DMOD.             Drill Model:  DRILL MOD DESC
 SVYD.                  Survey:  SURVEY DESC
 ILTD.               Lithology:  INTERP LTH DESC
 FTOP.          Formation Tops:  FORM TOPS DESC
 SON .        AZ-XX-0906699554:  JOB NUMBER
 WELL.                    B09z:  WELL NAME
 PDAT.          Mean Sea Level:  PERMANENT DATUM
 FLD .                     ACG:  FIELD NAME
 CTRY.              Azerbaijan:  COUNTRY NAME
 COMP.     BP Exploration (Caspian Sea) Ltd.:  COMPANY
 UWI .                     N/A:  UNIQUE WELL IDENTIFIER
 API .                     N/A:  API NUMBER
 WTYP.                Deviated:  WELL TYPE
 MDS .        Operator Entered:  MAG DATA SOURCE
 BASE.              Azerbaijan:  LOGGING EQUIPMENT BASE LOCATION
 REGN.                   EESSA:  REGION
 PROV.                    Baku:  PROVINCE
 STAT.                    Baku:  STATE NAME
 SRVC.          Turan Drilling:  CONTRACTOR
 MWDS.                    Baku:  MWD SHOP
 JOBN.        AZ-XX-0906699554:  JOB TICKET NUMB
 RIG .           Central Azeri:  RIG NAME
 DOE .                     N/A:  DOE NUMBER
 DCON.         Sperry Drilling:  DIRECTNL CONTR
 UNIT.                     N/A:  LOGGING EQUIPMENT ID
 CNTY.                        :  COUNTY
 LOC .                        :  LOCATION
 LMF .             Drill Floor:  LOG MEASURED FROM
 TVDS.m                  43.29:  TVDSS CORRECTN
 LATI.deg                40.03:  LATITUDE
 LONG.deg                51.35:  LONGITUDE
 WHNS.m                  -2.76:  WELL HEAD N/S
 WHEW.m                  -7.70:  WELL HEAD E/W
 UTMX.m              530128.28:  UTM X
 UTMY.m             4433192.49:  UTM Y
 DFWL.m                   0.00:  DISTANCE FWL
 DFSL.m                   0.00:  DISTANCE FSL
 SDEP.m                3435.01:  START DEPTH
 TDD .m                3814.01:  TOTAL DEPTH (DRILLER)
 VSDR.deg               352.80:  VERT SEC DIRECT
 GVFD.g                   1.00:  GRAVITY FIELD
 MFLD.nT              50303.00:  MAGNETIC FIELD
 MDIP.deg                59.52:  MAGNETIC DIP
 MDEC.deg                 6.47:  MAGNETIC DECL
 GRDC.deg                 0.23:  GRID CORRECTION
 AZTC.deg                 6.24:  AZM TOTAL CORR
 EPD .m                   0.00:  ELEVATION
 EGL .m                   0.00:  GROUND ELEVATION
 WDMS.m                 128.20:  WD ELEV
 APD .m                  43.29:  DEPTH ABOVE PD
 DEP .m                3421.30:  DEPTH
 AGAP.m                  43.60:  AIR GAP
 VSEW.m                  -7.70:  VERT SEC E/W
 VSNS.m                  -2.76:  VERT SEC N/S
 EKB .m                   0.00:  KB ELEVATION
 EDF .m                  43.29:  DF ELEVATION
 TDL .m                 369.00:  TOTAL DEPTH (LOGGER)
 VSC .                       0:  VS TO CLOSURE
 MAGU.                 1850390:  MAGUTM CHECKSUM
~Parameter Information Block
#MNEM.UNIT       Value        Description
#---------     -----------    ---------------------------
 AV  .mps                 2.80:  Ann Velocity 
 AVMX.mps                 4.67:  Max Ann Veloc 
 AZIF.deg               303.89:  Azm, Final 
 BHAT.        Rotary Steerable:  BHA Type 
 BREV.rev            128542.00:  Rev Bit Total 
 BROT.°/30m               1.50:  Build Rotating 
 BS  .in                  8.50:  Bit Size 
 BSZ .in                  8.50:  Bit Size 
 BTPL.psig              715.00:  Bit Press Loss 
 CABU.                      No:  Customer Abuse 
 COMM.                     ¤’i:  Run Comments 1 
 TCS .hr                 53.00:  Time Ciculation Ended 
 CV  .mps                 3.85:  Crit Velocity 
 CVMX.mps                 4.75:  Max Crit Veloc 
 DD1 .         Intigam Rahimov:  Direct Drillr 1 
 DDSV.                 iCruise:  DD Service 
 DEFF.%                  98.60:  % Det Eff 
 DLRX.°/30m               2.34:  Dogleg Rot Max 
 DLSO.°/30m               0.00:  Dogleg Oriented 
 DLSX.°/30m               0.00:  Dogleg Str Max 
 DRET.      00.15.00 05-Jan-21:  Drill End Time 
 DRST.      22.00.00 03-Jan-21:  Drill Start Tim 
 DTIM.hr                 17.72:  Time Drilling 
 EDEP.m                3814.01:  End Depth 
 ENG1.         Yevgeniy Ulikov:  Engineer 1 
 ENG2.        Farkhad Khalidov:  Engineer 2 
 ENG3.           Samir Gafarov:  Engineer 3 
 ETIM.      21.00.00 07-Jan-21:  End Time 
 FLOI.gpm               590.00:  Flow In 
 FLON.gpm               580.00:  Flow In Min 
 FLOS.cptm                1.00:  Fluid Loss 
 FLOX.gpm               595.00:  Flow In Max 
 FTRO.     Connectivity, Formation Presure:  FTWD Run Obj 
 HFLO.                      No:  High Flow 
 HPRE.                     Yes:  High Pressure 
 HTEM.                      No:  High Temp 
 HYDO.m                   1.80:  Hydro Offset 
 IFIN.deg                63.76:  Inc, Final 
 IMAX.deg                64.09:  Inc Max 
 IMIN.deg                55.81:  Inc Min 
 IMND.m                3455.62:  Inc Min Depth 
 IMXD.m                3796.03:  Inc Max Depth 
 JARR.                      No:  Jarring 
 LETM.      00.15.00 05-Jan-21:  Log End Time 
 LOST.hr                     0:  Lost Rig Time 
 LSTM.      22.00.00 03-Jan-21:  Log Start Time 
 MDCL.ppm             36000.00:  Mud Chlorides 
 MDES.     Inversion Oil/Synthetic:  Mud Desc 
 DFD .sg                  1.51:  Mud Density 
 MDMN.sg                  1.51:  Dens Mud Min 
 MDMX.sg                  1.51:  Dens Mud Max 
 MOIL.                    55.5:  Run Mud Oil % 
 MOWR.                   70:30:  Run Mud OWR 
 MSND.                     0.1:  Run Mud Sand % 
 MSOL.                   20.77:  Run Mud Solids% 
 DFV .spqt               67.00:  Mud Viscosity 
 MWOD.in                  6.75:  MWD Tool OD 
 MWSI.                      No:  Serv Intrp, MWD 
 OTIM.hr                113.53:  Time Operating 
 PCON.           Look Like New:  Pad Condition 
 PMAX.psia             4830.00:  Press Op, Max 
 PV  .cP                 29.00:  Mud PV 
 RUN .                     300:  Run Number 
 ROPA.m/hr               22.00:  ROP Avg 
 ROPN.m/hr               18.00:  ROP Min 
 ROPX.m/hr               25.00:  ROP Max 
 RPMA.rpm               130.00:  RPM Surface Avg 
 RPMN.rpm                80.00:  RPM Surface Min 
 RPMX.rpm               140.00:  RPM Surface Max 
 RRUN.                    L101:  Rig Run Number 
 RTIM.hr                  9.28:  Time Reaming 
 SAZI.deg               316.55:  Azm, Start 
 SDEP.m                3445.01:  Start Depth 
 SIDD.                      No:  Serv Intrp, DD 
 SINC.deg                55.81:  Inc, Start 
 SPPA.psig             4500.00:  SPP Avg 
 SPPN.psig             4350.00:  SPP Min 
 SPPX.psig             4830.00:  SPP Max 
 STIM.      00.00.00 03-Jan-21:  Start Time 
 SVCS.                 DD, MWD:  Services 
 SVER.                    9.20:  Sperry Version 
 TDAT.m                 369.00:  Tot Depth Attmp 
 TDDF.                      No:  Trip for DD 
 TDLG.m                 369.00:  Tot Depth Loggd 
 TFF .                      No:  Trip for Fail 
 TQAA.f-kp               15.00:  Torque Abs Avg 
 TQAN.f-kp               12.00:  Torque Abs Min 
 TQAX.f-kp               16.00:  Torque Abs Max 
 TRRT.°/30m              -2.10:  Turn Rotating 
 MRT .                    HCIM:  Maximum Recorded Temperature 
 TTMX.degC               92.16:  Max Tool Temp 
 VS01.                90627822:  Virtual Str1 SN 
 VS02.                90550008:  Virtual Str2 SN 
 VS03.                90627816:  Virtual Str3 SN 
 VS04.                90633205:  Virtual Str4 SN 
 VS05.                13033835:  Virtual Str5 SN 
 VS06.                11125125:  Virtual Str6 SN 
 WBMN.klb                 8.00:  WOB Min 
 WITN.            Bruce Cheyne:  Customer Rep 
 WITN.           Faig Mammadov:  Customer Rep 2 
 WOBA.klb                 9.00:  WOB Avg 
 WOBX.klb                12.00:  WOB Max 
 YP  .lhf2               30.00:  Yield Point 
~Curve Information Block
#MNEM.UNIT                 API CODE     Curve Description
#---------               -----------    ---------------------------
 TIME.HHMMSS            00 000 000 000:  GT Time & Date
 GTET.sec               00 000 000 000:  GT Elapsed Test Time
 GTPQH.psia             00 000 000 000:  GT HR Quartz Pressure
 GTDEPTH.m              00 000 000 000:  GT Depth
 GTTVD.m                00 000 000 000:  GT True Vertical Depth
 GTTQ.degC              00 000 000 000:  GT Quartz Temperature
 GTTN.NONE              00 000 000 000:  GT Test Number
#Other Information
#
#WARRANTY: Halliburton will use its best efforts to furnish customers with 
#accurate information and interpretations that are part of, and incident to, the services 
#provided.  However, Halliburton cannot and does not warrant the accuracy 
#or correctness of such information and interpretations.  Under no circumstances should any 
#such information or interpretation be relied upon as the sole basis for any drilling, 
#completion, production, or financial decision or any procedure involving any risk to the 
#safety of any drilling venture, drilling rig or its crew or any other third party.  The 
#Customer has full responsibility for all drilling, completion and production operation.  
#Halliburton makes no representations or warranties, either expressed or 
#implied, including, but not limited to, the implied warranties of merchantability or fitness 
#for a particular purpose, with respect to the services rendered.  In no event will 
#Halliburton be liable for failure to obtain any particular results or for 
#any damages, including, but not limited to, indirect, special or consequential damages, 
#resulting from the use of any information or interpretation provided by Halliburton.
#
~A           TIME            GTET   GTPQH  GTDEPTH  GTTVD  GTTQ  GTTN 
   08:18:37.381.05-Jan-2021   0.00 7422.44 3649.01 3076.03 80.36 5.00
   08:18:37.582.05-Jan-2021   0.20 7422.45 3649.01 3076.03 80.36 5.00
   08:18:37.782.05-Jan-2021   0.40 7436.75 3649.01 3076.03 80.36 5.00
   08:18:37.982.05-Jan-2021   0.60 7416.52 3649.01 3076.03 80.36 5.00
   08:18:38.182.05-Jan-2021   0.80 7424.79 3649.01 3076.03 80.36 5.00
   08:18:38.382.05-Jan-2021   1.00 7425.10 3649.01 3076.03 80.36 5.00
   08:18:38.582.05-Jan-2021   1.20 7425.10 3649.01 3076.03 80.36 5.00
   08:18:38.782.05-Jan-2021   1.40 7428.97 3649.01 3076.03 80.36 5.00
   08:18:38.982.05-Jan-2021   1.60 7426.97 3649.01 3076.03 80.36 5.00
   08:18:39.182.05-Jan-2021   1.80 7426.41 3649.01 3076.03 80.36 5.00
   08:18:39.382.05-Jan-2021   2.00 7435.46 3649.01 3076.03 80.36 5.00
   08:18:39.582.05-Jan-2021   2.20 7435.46 3649.01 3076.03 80.36 5.00
   08:18:39.782.05-Jan-2021   2.40 7429.02 3649.01 3076.03 80.36 5.00
   08:18:39.982.05-Jan-2021   2.60 7439.14 3649.01 3076.03 80.36 5.00
   08:18:40.182.05-Jan-2021   2.80 7426.27 3649.01 3076.03 80.36 5.00
   08:18:40.383.05-Jan-2021   3.00 7431.58 3649.01 3076.03 80.36 5.00
   08:18:40.583.05-Jan-2021   3.20 7431.58 3649.01 3076.03 80.36 5.00
   08:18:40.783.05-Jan-2021   3.40 7423.39 3649.01 3076.03 80.36 5.00
   08:18:40.983.05-Jan-2021   3.60 7432.27 3649.01 3076.03 80.36 5.00
   08:18:41.183.05-Jan-2021   3.80 7432.06 3649.01 3076.03 80.36 5.00
   08:18:41.383.05-Jan-2021   4.00 7430.94 3649.01 3076.03 80.36 5.00
   08:18:41.583.05-Jan-2021   4.20 7430.94 3649.01 3076.03 80.36 5.00
   08:18:41.783.05-Jan-2021   4.40 7428.18 3649.01 3076.03 80.36 5.00
   08:18:41.983.05-Jan-2021   4.60 7433.84 3649.01 3076.03 80.36 5.00
   08:18:42.183.05-Jan-2021   4.80 7432.85 3649.01 3076.03 80.36 5.00
   08:18:42.383.05-Jan-2021   5.00 7433.18 3649.01 3076.03 80.36 5.00
   08:18:42.583.05-Jan-2021   5.20 7433.18 3649.01 3076.03 80.36 5.00
   08:18:42.783.05-Jan-2021   5.40 7434.33 3649.01 3076.03 80.36 5.00
   08:18:42.984.05-Jan-2021   5.60 7433.89 3649.01 3076.03 80.36 5.00
   08:18:43.184.05-Jan-2021   5.80 7434.68 3649.01 3076.03 80.36 5.00
   08:18:43.384.05-Jan-2021   6.00 7434.27 3649.01 3076.03 80.36 5.00
   08:18:43.584.05-Jan-2021   6.20 7434.27 3649.01 3076.03 80.36 5.00
   08:18:43.784.05-Jan-2021   6.40 7433.78 3649.01 3076.03 80.36 5.00
   08:18:43.984.05-Jan-2021   6.60 7433.48 3649.01 3076.03 80.36 5.00
   08:18:44.184.05-Jan-2021   6.80 7434.19 3649.01 3076.03 80.36 5.00
   08:18:44.384.05-Jan-2021   7.00 7434.25 3649.01 3076.03 80.36 5.00
   08:18:44.584.05-Jan-2021   7.20 7434.25 3649.01 3076.03 80.36 5.00
   08:18:44.784.05-Jan-2021   7.40 7433.22 3649.01 3076.03 80.36 5.00
   08:18:44.984.05-Jan-2021   7.60 7436.49 3649.01 3076.03 80.36 5.00
   08:18:45.184.05-Jan-2021   7.80 7436.01 3649.01 3076.03 80.36 5.00
   08:18:45.384.05-Jan-2021   8.00 7434.72 3649.01 3076.03 80.36 5.00
   08:18:45.584.05-Jan-2021   8.20 7435.21 3649.01 3076.03 80.36 5.00
   08:18:45.785.05-Jan-2021   8.40 7435.24 3649.01 3076.03 80.36 5.00
   08:18:45.985.05-Jan-2021   8.60 7436.16 3649.01 3076.03 80.36 5.00
   08:18:46.185.05-Jan-2021   8.80 7435.24 3649.01 3076.03 80.36 5.00
   08:18:46.385.05-Jan-2021   9.00 7436.23 3649.01 3076.03 80.36 5.00
   08:18:46.585.05-Jan-2021   9.20 7436.23 3649.01 3076.03 80.36 5.00
   08:18:46.785.05-Jan-2021   9.40 7435.24 3649.01 3076.03 80.36 5.00
   08:18:46.985.05-Jan-2021   9.60 7444.34 3649.01 3076.03 80.36 5.00
   08:18:47.185.05-Jan-2021   9.80 7431.87 3649.01 3076.03 80.36 5.00
   08:18:47.385.05-Jan-2021  10.00 7435.43 3649.01 3076.03 80.36 5.00
   08:18:47.585.05-Jan-2021  10.20 7435.43 3649.01 3076.03 80.36 5.00
   08:18:47.785.05-Jan-2021  10.40 7438.59 3649.01 3076.03 80.36 5.00
   08:18:47.985.05-Jan-2021  10.60 7440.33 3649.01 3076.03 80.36 5.00
   08:18:48.185.05-Jan-2021  10.80 7437.26 3649.01 3076.03 80.36 5.00
   08:18:48.386.05-Jan-2021  11.00 7437.25 3649.01 3076.03 80.36 5.00
   08:18:48.586.05-Jan-2021  11.20 7437.25 3649.01 3076.03 80.36 5.00
   08:18:48.786.05-Jan-2021  11.40 7446.64 3649.01 3076.03 80.36 5.00
   08:18:48.986.05-Jan-2021  11.60 7434.69 3649.01 3076.03 80.36 5.00
   08:18:49.186.05-Jan-2021  11.80 7439.02 3649.01 3076.03 80.36 5.00
   08:18:49.386.05-Jan-2021  12.00 7440.65 3649.01 3076.03 80.36 5.00
   08:18:49.586.05-Jan-2021  12.20 7452.53 3649.01 3076.03 80.36 5.00
   08:18:49.786.05-Jan-2021  12.40 7433.14 3649.01 3076.03 80.36 5.00
   08:18:49.986.05-Jan-2021  12.60 7441.10 3649.01 3076.03 80.36 5.00
   08:18:50.186.05-Jan-2021  12.80 7450.21 3649.01 3076.03 80.36 5.00
   08:18:50.386.05-Jan-2021  13.00 7437.09 3649.01 3076.03 80.36 5.00
   08:18:50.586.05-Jan-2021  13.20 7437.09 3649.01 3076.03 80.36 5.00
   08:18:50.786.05-Jan-2021  13.40 7443.52 3649.01 3076.03 80.36 5.00
   08:18:50.986.05-Jan-2021  13.61 7442.26 3649.01 3076.03 80.36 5.00
   08:18:51.187.05-Jan-2021  13.81 7452.96 3649.01 3076.03 80.36 5.00
   08:18:51.387.05-Jan-2021  14.01 7438.95 3649.01 3076.03 80.36 5.00
   08:18:51.587.05-Jan-2021  14.21 7438.95 3649.01 3076.03 80.36 5.00
   08:18:51.787.05-Jan-2021  14.41 7442.55 3649.01 3076.03 80.36 5.00
   08:18:51.987.05-Jan-2021  14.61 7442.30 3649.01 3076.03 80.36 5.00
   08:18:52.187.05-Jan-2021  14.81 7443.29 3649.01 3076.03 80.36 5.00
   08:18:52.387.05-Jan-2021  15.01 7442.92 3649.01 3076.03 80.36 5.00
   08:18:52.587.05-Jan-2021  15.21 7442.92 3649.01 3076.03 80.36 5.00
   08:18:52.787.05-Jan-2021  15.41 7443.14 3649.01 3076.03 80.36 5.00
   08:18:52.987.05-Jan-2021  15.61 7443.39 3649.01 3076.03 80.36 5.00
   08:18:53.187.05-Jan-2021  15.81 7443.86 3649.01 3076.03 80.36 5.00
   08:18:53.387.05-Jan-2021  16.01 7444.27 3649.01 3076.03 80.36 5.00
   08:18:53.587.05-Jan-2021  16.21 7444.05 3649.01 3076.03 80.36 5.00
   08:18:53.788.05-Jan-2021  16.41 7443.94 3649.01 3076.03 80.36 5.00
   08:18:53.988.05-Jan-2021  16.61 7446.37 3649.01 3076.03 80.36 5.00
   08:18:54.188.05-Jan-2021  16.81 7448.19 3649.01 3076.03 80.36 5.00
   08:18:54.388.05-Jan-2021  17.01 7444.64 3649.01 3076.03 80.36 5.00
   08:18:54.588.05-Jan-2021  17.21 7444.64 3649.01 3076.03 80.36 5.00
   08:18:54.788.05-Jan-2021  17.41 7443.95 3649.01 3076.03 80.36 5.00
   08:18:54.988.05-Jan-2021  17.61 7443.91 3649.01 3076.03 80.36 5.00
   08:18:55.188.05-Jan-2021  17.81 7444.90 3649.01 3076.03 80.36 5.00
   08:18:55.388.05-Jan-2021  18.01 7444.15 3649.01 3076.03 80.36 5.00
   08:18:55.588.05-Jan-2021  18.21 7444.15 3649.01 3076.03 80.36 5.00
   08:18:55.788.05-Jan-2021  18.41 7444.20 3649.01 3076.03 80.36 5.00
   08:18:55.988.05-Jan-2021  18.61 7444.57 3649.01 3076.03 80.36 5.00
   08:18:56.188.05-Jan-2021  18.81 7444.38 3649.01 3076.03 80.36 5.00
   08:18:56.388.05-Jan-2021  19.01 7443.55 3649.01 3076.03 80.36 5.00
   08:18:56.589.05-Jan-2021  19.21 7443.55 3649.01 3076.03 80.36 5.00
   08:18:56.789.05-Jan-2021  19.41 7457.49 3649.01 3076.03 80.37 5.00
   08:18:56.989.05-Jan-2021  19.61 7436.32 3649.01 3076.03 80.37 5.00
   08:18:57.189.05-Jan-2021  19.81 7444.47 3649.01 3076.03 80.37 5.00
   08:18:57.389.05-Jan-2021  20.01 7454.64 3649.01 3076.03 80.37 5.00
   08:18:57.589.05-Jan-2021  20.21 7440.75 3649.01 3076.03 80.37 5.00
   08:18:57.789.05-Jan-2021  20.41 7447.34 3649.01 3076.03 80.37 5.00
   08:18:57.989.05-Jan-2021  20.61 7460.62 3649.01 3076.03 80.37 5.00
   08:18:58.189.05-Jan-2021  20.81 7437.96 3649.01 3076.03 80.37 5.00
   08:18:58.389.05-Jan-2021  21.01 7447.36 3649.01 3076.03 80.37 5.00
   08:18:58.589.05-Jan-2021  21.21 7447.36 3649.01 3076.03 80.37 5.00
   08:18:58.789.05-Jan-2021  21.41 7438.03 3649.01 3076.03 80.37 5.00
   08:18:58.989.05-Jan-2021  21.61 7448.78 3649.01 3076.03 80.37 5.00
   08:18:59.190.05-Jan-2021  21.81 7457.88 3649.01 3076.03 80.37 5.00
   08:18:59.390.05-Jan-2021  22.01 7443.48 3649.01 3076.03 80.37 5.00
   08:18:59.590.05-Jan-2021  22.21 7443.48 3649.01 3076.03 80.37 5.00
   08:18:59.790.05-Jan-2021  22.41 7451.06 3649.01 3076.03 80.37 5.00
   08:18:59.990.05-Jan-2021  22.61 7449.40 3649.01 3076.03 80.37 5.00
   08:19:00.190.05-Jan-2021  22.81 7450.37 3649.01 3076.03 80.37 5.00
