~Version Information
 VERS.                  2.0:   CWLS log ASCII Standard -VERSION 2.0
 WRAP.                   NO:   One line per depth step
~Well Information Block
#MNEM.UNIT     VALUE/NAME     DESCRIPTION
#---------     -----------    ---------------------------
 STRT.S             05:14:37 05-Jan-21: START TIME 05:14:37 05-Jan-21
 STOP.S             05:24:42 05-Jan-21: STOP TIME  05:24:42 05-Jan-21
 STEP.S                   0.00: STEP TIME
 NULL.                 -999.25: NULL VALUE
 DFWT.                        :  DIST FWL TEXT
 DFST.                        :  DIST FSL TEXT
 DMF .             Drill Floor:  DRILL MEAS FROM
 STIM.      06.00.00 31-Dec-20:  START TIME
 DATE.      05.58.24 07-Jan-21:  END TIME
 SPUD.               24-Dec-20:  SPUD DATE
 NREF.                    Grid:  NORTH REFERENCE
 HPTY.       Minimum Curvature:  HOLE POS TYPE
 DMOD.             Drill Model:  DRILL MOD DESC
 SVYD.                  Survey:  SURVEY DESC
 ILTD.               Lithology:  INTERP LTH DESC
 FTOP.          Formation Tops:  FORM TOPS DESC
 SON .        AZ-XX-0906699554:  JOB NUMBER
 WELL.                    B09z:  WELL NAME
 PDAT.          Mean Sea Level:  PERMANENT DATUM
 FLD .                     ACG:  FIELD NAME
 CTRY.              Azerbaijan:  COUNTRY NAME
 COMP.     BP Exploration (Caspian Sea) Ltd.:  COMPANY
 UWI .                     N/A:  UNIQUE WELL IDENTIFIER
 API .                     N/A:  API NUMBER
 WTYP.                Deviated:  WELL TYPE
 MDS .        Operator Entered:  MAG DATA SOURCE
 BASE.              Azerbaijan:  LOGGING EQUIPMENT BASE LOCATION
 REGN.                   EESSA:  REGION
 PROV.                    Baku:  PROVINCE
 STAT.                    Baku:  STATE NAME
 SRVC.          Turan Drilling:  CONTRACTOR
 MWDS.                    Baku:  MWD SHOP
 JOBN.        AZ-XX-0906699554:  JOB TICKET NUMB
 RIG .           Central Azeri:  RIG NAME
 DOE .                     N/A:  DOE NUMBER
 DCON.         Sperry Drilling:  DIRECTNL CONTR
 UNIT.                     N/A:  LOGGING EQUIPMENT ID
 CNTY.                        :  COUNTY
 LOC .                        :  LOCATION
 LMF .             Drill Floor:  LOG MEASURED FROM
 TVDS.m                  43.29:  TVDSS CORRECTN
 LATI.deg                40.03:  LATITUDE
 LONG.deg                51.35:  LONGITUDE
 WHNS.m                  -2.76:  WELL HEAD N/S
 WHEW.m                  -7.70:  WELL HEAD E/W
 UTMX.m              530128.28:  UTM X
 UTMY.m             4433192.49:  UTM Y
 DFWL.m                   0.00:  DISTANCE FWL
 DFSL.m                   0.00:  DISTANCE FSL
 SDEP.m                3435.01:  START DEPTH
 TDD .m                3814.01:  TOTAL DEPTH (DRILLER)
 VSDR.deg               352.80:  VERT SEC DIRECT
 GVFD.g                   1.00:  GRAVITY FIELD
 MFLD.nT              50303.00:  MAGNETIC FIELD
 MDIP.deg                59.52:  MAGNETIC DIP
 MDEC.deg                 6.47:  MAGNETIC DECL
 GRDC.deg                 0.23:  GRID CORRECTION
 AZTC.deg                 6.24:  AZM TOTAL CORR
 EPD .m                   0.00:  ELEVATION
 EGL .m                   0.00:  GROUND ELEVATION
 WDMS.m                 128.20:  WD ELEV
 APD .m                  43.29:  DEPTH ABOVE PD
 DEP .m                3421.30:  DEPTH
 AGAP.m                  43.60:  AIR GAP
 VSEW.m                  -7.70:  VERT SEC E/W
 VSNS.m                  -2.76:  VERT SEC N/S
 EKB .m                   0.00:  KB ELEVATION
 EDF .m                  43.29:  DF ELEVATION
 TDL .m                 369.00:  TOTAL DEPTH (LOGGER)
 VSC .                       0:  VS TO CLOSURE
 MAGU.                 1850390:  MAGUTM CHECKSUM
~Parameter Information Block
#MNEM.UNIT       Value        Description
#---------     -----------    ---------------------------
 AV  .mps                 2.80:  Ann Velocity 
 AVMX.mps                 4.67:  Max Ann Veloc 
 AZIF.deg               303.89:  Azm, Final 
 BHAT.        Rotary Steerable:  BHA Type 
 BREV.rev            128542.00:  Rev Bit Total 
 BROT.°/30m               1.50:  Build Rotating 
 BS  .in                  8.50:  Bit Size 
 BSZ .in                  8.50:  Bit Size 
 BTPL.psig              715.00:  Bit Press Loss 
 CABU.                      No:  Customer Abuse 
 COMM.                     ¼Ûƒ:  Run Comments 1 
 TCS .hr                 53.00:  Time Ciculation Ended 
 CV  .mps                 3.85:  Crit Velocity 
 CVMX.mps                 4.75:  Max Crit Veloc 
 DD1 .         Intigam Rahimov:  Direct Drillr 1 
 DDSV.                 iCruise:  DD Service 
 DEFF.%                  98.60:  % Det Eff 
 DLRX.°/30m               2.34:  Dogleg Rot Max 
 DLSO.°/30m               0.00:  Dogleg Oriented 
 DLSX.°/30m               0.00:  Dogleg Str Max 
 DRET.      00.15.00 05-Jan-21:  Drill End Time 
 DRST.      22.00.00 03-Jan-21:  Drill Start Tim 
 DTIM.hr                 17.72:  Time Drilling 
 EDEP.m                3814.01:  End Depth 
 ENG1.         Yevgeniy Ulikov:  Engineer 1 
 ENG2.        Farkhad Khalidov:  Engineer 2 
 ENG3.           Samir Gafarov:  Engineer 3 
 ETIM.      21.00.00 07-Jan-21:  End Time 
 FLOI.gpm               590.00:  Flow In 
 FLON.gpm               580.00:  Flow In Min 
 FLOS.cptm                1.00:  Fluid Loss 
 FLOX.gpm               595.00:  Flow In Max 
 FTRO.     Connectivity, Formation Presure:  FTWD Run Obj 
 HFLO.                      No:  High Flow 
 HPRE.                     Yes:  High Pressure 
 HTEM.                      No:  High Temp 
 HYDO.m                   1.80:  Hydro Offset 
 IFIN.deg                63.76:  Inc, Final 
 IMAX.deg                64.09:  Inc Max 
 IMIN.deg                55.81:  Inc Min 
 IMND.m                3455.62:  Inc Min Depth 
 IMXD.m                3796.03:  Inc Max Depth 
 JARR.                      No:  Jarring 
 LETM.      00.15.00 05-Jan-21:  Log End Time 
 LOST.hr                     0:  Lost Rig Time 
 LSTM.      22.00.00 03-Jan-21:  Log Start Time 
 MDCL.ppm             36000.00:  Mud Chlorides 
 MDES.     Inversion Oil/Synthetic:  Mud Desc 
 DFD .sg                  1.51:  Mud Density 
 MDMN.sg                  1.51:  Dens Mud Min 
 MDMX.sg                  1.51:  Dens Mud Max 
 MOIL.                    55.5:  Run Mud Oil % 
 MOWR.                   70:30:  Run Mud OWR 
 MSND.                     0.1:  Run Mud Sand % 
 MSOL.                   20.77:  Run Mud Solids% 
 DFV .spqt               67.00:  Mud Viscosity 
 MWOD.in                  6.75:  MWD Tool OD 
 MWSI.                      No:  Serv Intrp, MWD 
 OTIM.hr                113.53:  Time Operating 
 PCON.           Look Like New:  Pad Condition 
 PMAX.psia             4830.00:  Press Op, Max 
 PV  .cP                 29.00:  Mud PV 
 RUN .                     300:  Run Number 
 ROPA.m/hr               22.00:  ROP Avg 
 ROPN.m/hr               18.00:  ROP Min 
 ROPX.m/hr               25.00:  ROP Max 
 RPMA.rpm               130.00:  RPM Surface Avg 
 RPMN.rpm                80.00:  RPM Surface Min 
 RPMX.rpm               140.00:  RPM Surface Max 
 RRUN.                    L101:  Rig Run Number 
 RTIM.hr                  9.28:  Time Reaming 
 SAZI.deg               316.55:  Azm, Start 
 SDEP.m                3445.01:  Start Depth 
 SIDD.                      No:  Serv Intrp, DD 
 SINC.deg                55.81:  Inc, Start 
 SPPA.psig             4500.00:  SPP Avg 
 SPPN.psig             4350.00:  SPP Min 
 SPPX.psig             4830.00:  SPP Max 
 STIM.      00.00.00 03-Jan-21:  Start Time 
 SVCS.                 DD, MWD:  Services 
 SVER.                    9.20:  Sperry Version 
 TDAT.m                 369.00:  Tot Depth Attmp 
 TDDF.                      No:  Trip for DD 
 TDLG.m                 369.00:  Tot Depth Loggd 
 TFF .                      No:  Trip for Fail 
 TQAA.f-kp               15.00:  Torque Abs Avg 
 TQAN.f-kp               12.00:  Torque Abs Min 
 TQAX.f-kp               16.00:  Torque Abs Max 
 TRRT.°/30m              -2.10:  Turn Rotating 
 MRT .                    HCIM:  Maximum Recorded Temperature 
 TTMX.degC               92.16:  Max Tool Temp 
 VS01.                90627822:  Virtual Str1 SN 
 VS02.                90550008:  Virtual Str2 SN 
 VS03.                90627816:  Virtual Str3 SN 
 VS04.                90633205:  Virtual Str4 SN 
 VS05.                13033835:  Virtual Str5 SN 
 VS06.                11125125:  Virtual Str6 SN 
 WBMN.klb                 8.00:  WOB Min 
 WITN.            Bruce Cheyne:  Customer Rep 
 WITN.           Faig Mammadov:  Customer Rep 2 
 WOBA.klb                 9.00:  WOB Avg 
 WOBX.klb                12.00:  WOB Max 
 YP  .lhf2               30.00:  Yield Point 
~Curve Information Block
#MNEM.UNIT                 API CODE     Curve Description
#---------               -----------    ---------------------------
 TIME.HHMMSS            00 000 000 000:  GT Time & Date
 GTET.sec               00 000 000 000:  GT Elapsed Test Time
 GTPQH.psia             00 000 000 000:  GT HR Quartz Pressure
 GTDEPTH.m              00 000 000 000:  GT Depth
 GTTVD.m                00 000 000 000:  GT True Vertical Depth
 GTTQ.degC              00 000 000 000:  GT Quartz Temperature
 GTTN.NONE              00 000 000 000:  GT Test Number
#Other Information
#
#WARRANTY: Halliburton will use its best efforts to furnish customers with 
#accurate information and interpretations that are part of, and incident to, the services 
#provided.  However, Halliburton cannot and does not warrant the accuracy 
#or correctness of such information and interpretations.  Under no circumstances should any 
#such information or interpretation be relied upon as the sole basis for any drilling, 
#completion, production, or financial decision or any procedure involving any risk to the 
#safety of any drilling venture, drilling rig or its crew or any other third party.  The 
#Customer has full responsibility for all drilling, completion and production operation.  
#Halliburton makes no representations or warranties, either expressed or 
#implied, including, but not limited to, the implied warranties of merchantability or fitness 
#for a particular purpose, with respect to the services rendered.  In no event will 
#Halliburton be liable for failure to obtain any particular results or for 
#any damages, including, but not limited to, indirect, special or consequential damages, 
#resulting from the use of any information or interpretation provided by Halliburton.
#
~A           TIME            GTET   GTPQH  GTDEPTH  GTTVD  GTTQ  GTTN 
# ...
   05:24:12.000.05-Jan-2021 575.00 7529.96 3765.01 3128.52 84.69 1.00
   05:24:12.200.05-Jan-2021 575.20 7529.96 3765.01 3128.52 84.69 1.00
   05:24:12.400.05-Jan-2021 575.40 7536.96 3765.01 3128.52 84.69 1.00
   05:24:12.600.05-Jan-2021 575.60 7535.01 3765.01 3128.52 84.69 1.00
   05:24:12.800.05-Jan-2021 575.80 7528.36 3765.01 3128.52 84.69 1.00
   05:24:13.000.05-Jan-2021 576.00 7539.82 3765.01 3128.52 84.69 1.00
   05:24:13.200.05-Jan-2021 576.20 7539.82 3765.01 3128.52 84.69 1.00
   05:24:13.400.05-Jan-2021 576.40 7530.22 3765.01 3128.52 84.69 1.00
   05:24:13.600.05-Jan-2021 576.60 7540.96 3765.01 3128.52 84.69 1.00
   05:24:13.800.05-Jan-2021 576.80 7533.41 3765.01 3128.52 84.69 1.00
   05:24:14.000.05-Jan-2021 577.00 7528.10 3765.01 3128.52 84.69 1.00
   05:24:14.200.05-Jan-2021 577.20 7528.10 3765.01 3128.52 84.69 1.00
   05:24:14.400.05-Jan-2021 577.40 7531.62 3765.01 3128.52 84.69 1.00
   05:24:14.600.05-Jan-2021 577.60 7537.70 3765.01 3128.52 84.69 1.00
   05:24:14.800.05-Jan-2021 577.80 7533.70 3765.01 3128.52 84.69 1.00
   05:24:15.000.05-Jan-2021 578.00 7528.04 3765.01 3128.52 84.69 1.00
   05:24:15.200.05-Jan-2021 578.20 7528.04 3765.01 3128.52 84.69 1.00
   05:24:15.400.05-Jan-2021 578.40 7537.59 3765.01 3128.52 84.69 1.00
   05:24:15.600.05-Jan-2021 578.60 7530.62 3765.01 3128.52 84.69 1.00
   05:24:15.800.05-Jan-2021 578.80 7530.01 3765.01 3128.52 84.69 1.00
   05:24:16.000.05-Jan-2021 579.00 7535.69 3765.01 3128.52 84.69 1.00
   05:24:16.200.05-Jan-2021 579.20 7535.69 3765.01 3128.52 84.69 1.00
   05:24:16.400.05-Jan-2021 579.40 7532.26 3765.01 3128.52 84.69 1.00
   05:24:16.600.05-Jan-2021 579.60 7529.74 3765.01 3128.52 84.69 1.00
   05:24:16.800.05-Jan-2021 579.80 7532.40 3765.01 3128.52 84.69 1.00
   05:24:17.000.05-Jan-2021 580.00 7531.92 3765.01 3128.52 84.69 1.00
   05:24:17.200.05-Jan-2021 580.20 7531.92 3765.01 3128.52 84.69 1.00
   05:24:17.400.05-Jan-2021 580.40 7530.00 3765.01 3128.52 84.69 1.00
   05:24:17.600.05-Jan-2021 580.60 7529.89 3765.01 3128.52 84.69 1.00
   05:24:17.800.05-Jan-2021 580.80 7530.49 3765.01 3128.52 84.69 1.00
   05:24:18.000.05-Jan-2021 581.00 7546.51 3765.01 3128.52 84.69 1.00
   05:24:18.200.05-Jan-2021 581.20 7546.51 3765.01 3128.52 84.69 1.00
   05:24:18.400.05-Jan-2021 581.40 7530.04 3765.01 3128.52 84.69 1.00
   05:24:18.600.05-Jan-2021 581.60 7529.03 3765.01 3128.52 84.69 1.00
   05:24:18.800.05-Jan-2021 581.80 7533.86 3765.01 3128.52 84.69 1.00
   05:24:19.000.05-Jan-2021 582.00 7531.94 3765.01 3128.52 84.69 1.00
   05:24:19.200.05-Jan-2021 582.20 7531.94 3765.01 3128.52 84.69 1.00
   05:24:19.400.05-Jan-2021 582.40 7529.29 3765.01 3128.52 84.69 1.00
   05:24:19.600.05-Jan-2021 582.60 7531.60 3765.01 3128.52 84.69 1.00
   05:24:19.800.05-Jan-2021 582.80 7531.26 3765.01 3128.52 84.69 1.00
   05:24:20.000.05-Jan-2021 583.00 7528.92 3765.01 3128.52 84.69 1.00
   05:24:20.200.05-Jan-2021 583.20 7528.92 3765.01 3128.52 84.69 1.00
   05:24:20.400.05-Jan-2021 583.40 7529.39 3765.01 3128.52 84.69 1.00
   05:24:20.600.05-Jan-2021 583.60 7529.83 3765.01 3128.52 84.69 1.00
   05:24:20.800.05-Jan-2021 583.80 7535.20 3765.01 3128.52 84.69 1.00
   05:24:21.000.05-Jan-2021 584.00 7535.05 3765.01 3128.52 84.69 1.00
   05:24:21.200.05-Jan-2021 584.20 7535.05 3765.01 3128.52 84.69 1.00
   05:24:21.400.05-Jan-2021 584.40 7541.77 3765.01 3128.52 84.69 1.00
   05:24:21.600.05-Jan-2021 584.60 7530.50 3765.01 3128.52 84.69 1.00
   05:24:21.800.05-Jan-2021 584.80 7530.22 3765.01 3128.52 84.69 1.00
   05:24:22.000.05-Jan-2021 585.00 7532.91 3765.01 3128.52 84.69 1.00
   05:24:22.200.05-Jan-2021 585.20 7532.91 3765.01 3128.52 84.69 1.00
   05:24:22.400.05-Jan-2021 585.40 7529.44 3765.01 3128.52 84.69 1.00
   05:24:22.600.05-Jan-2021 585.60 7529.37 3765.01 3128.52 84.69 1.00
   05:24:22.800.05-Jan-2021 585.80 7532.83 3765.01 3128.52 84.69 1.00
   05:24:23.000.05-Jan-2021 586.00 7542.44 3765.01 3128.52 84.69 1.00
   05:24:23.200.05-Jan-2021 586.20 7542.44 3765.01 3128.52 84.69 1.00
   05:24:23.400.05-Jan-2021 586.40 7529.64 3765.01 3128.52 84.69 1.00
   05:24:23.600.05-Jan-2021 586.60 7531.37 3765.01 3128.52 84.69 1.00
   05:24:23.800.05-Jan-2021 586.80 7545.70 3765.01 3128.52 84.69 1.00
   05:24:24.000.05-Jan-2021 587.00 7532.88 3765.01 3128.52 84.69 1.00
   05:24:24.200.05-Jan-2021 587.20 7532.88 3765.01 3128.52 84.69 1.00
   05:24:24.400.05-Jan-2021 587.40 7533.69 3765.01 3128.52 84.69 1.00
   05:24:24.600.05-Jan-2021 587.60 7534.53 3765.01 3128.52 84.69 1.00
   05:24:24.800.05-Jan-2021 587.80 7532.88 3765.01 3128.52 84.69 1.00
   05:24:25.000.05-Jan-2021 588.00 7530.68 3765.01 3128.52 84.69 1.00
   05:24:25.200.05-Jan-2021 588.20 7530.68 3765.01 3128.52 84.69 1.00
   05:24:25.400.05-Jan-2021 588.40 7532.38 3765.01 3128.52 84.69 1.00
   05:24:25.600.05-Jan-2021 588.60 7532.10 3765.01 3128.52 84.69 1.00
   05:24:25.800.05-Jan-2021 588.80 7530.50 3765.01 3128.52 84.69 1.00
   05:24:26.000.05-Jan-2021 589.00 7530.03 3765.01 3128.52 84.69 1.00
   05:24:26.200.05-Jan-2021 589.20 7530.03 3765.01 3128.52 84.69 1.00
   05:24:26.400.05-Jan-2021 589.40 7531.63 3765.01 3128.52 84.69 1.00
   05:24:26.600.05-Jan-2021 589.60 7538.32 3765.01 3128.52 84.69 1.00
   05:24:26.800.05-Jan-2021 589.80 7534.49 3765.01 3128.52 84.69 1.00
   05:24:27.000.05-Jan-2021 590.00 7528.77 3765.01 3128.52 84.69 1.00
   05:24:27.200.05-Jan-2021 590.20 7528.77 3765.01 3128.52 84.69 1.00
   05:24:27.400.05-Jan-2021 590.40 7535.27 3765.01 3128.52 84.69 1.00
   05:24:27.600.05-Jan-2021 590.60 7530.89 3765.01 3128.52 84.69 1.00
   05:24:27.800.05-Jan-2021 590.80 7529.81 3765.01 3128.52 84.69 1.00
   05:24:28.000.05-Jan-2021 591.00 7530.60 3765.01 3128.52 84.69 1.00
   05:24:28.200.05-Jan-2021 591.20 7530.60 3765.01 3128.52 84.69 1.00
   05:24:28.400.05-Jan-2021 591.40 7528.69 3765.01 3128.52 84.69 1.00
   05:24:28.600.05-Jan-2021 591.60 7529.83 3765.01 3128.52 84.69 1.00
   05:24:28.800.05-Jan-2021 591.80 7529.02 3765.01 3128.52 84.69 1.00
   05:24:29.000.05-Jan-2021 592.00 7529.50 3765.01 3128.52 84.69 1.00
   05:24:29.200.05-Jan-2021 592.20 7529.50 3765.01 3128.52 84.69 1.00
   05:24:29.400.05-Jan-2021 592.40 7532.59 3765.01 3128.52 84.69 1.00
   05:24:29.600.05-Jan-2021 592.60 7529.55 3765.01 3128.52 84.69 1.00
   05:24:29.800.05-Jan-2021 592.80 7544.93 3765.01 3128.52 84.69 1.00
   05:24:30.000.05-Jan-2021 593.00 7524.80 3765.01 3128.52 84.69 1.00
   05:24:30.200.05-Jan-2021 593.20 7524.80 3765.01 3128.52 84.69 1.00
   05:24:30.400.05-Jan-2021 593.40 7531.18 3765.01 3128.52 84.69 1.00
   05:24:30.600.05-Jan-2021 593.60 7542.44 3765.01 3128.52 84.69 1.00
   05:24:30.800.05-Jan-2021 593.80 7532.64 3765.01 3128.52 84.69 1.00
   05:24:31.000.05-Jan-2021 594.00 7528.25 3765.01 3128.52 84.69 1.00
   05:24:31.200.05-Jan-2021 594.20 7528.25 3765.01 3128.52 84.69 1.00
   05:24:31.400.05-Jan-2021 594.40 7549.04 3765.01 3128.52 84.69 1.00
   05:24:31.600.05-Jan-2021 594.60 7526.63 3765.01 3128.52 84.69 1.00
   05:24:31.800.05-Jan-2021 594.80 7529.06 3765.01 3128.52 84.69 1.00
   05:24:32.000.05-Jan-2021 595.00 7538.72 3765.01 3128.52 84.69 1.00
   05:24:32.200.05-Jan-2021 595.20 7538.72 3765.01 3128.52 84.69 1.00
   05:24:32.400.05-Jan-2021 595.40 7531.55 3765.01 3128.52 84.69 1.00
   05:24:32.600.05-Jan-2021 595.60 7530.22 3765.01 3128.52 84.69 1.00
   05:24:32.800.05-Jan-2021 595.80 7534.73 3765.01 3128.52 84.69 1.00
   05:24:33.000.05-Jan-2021 596.00 7532.46 3765.01 3128.52 84.69 1.00
   05:24:33.200.05-Jan-2021 596.20 7532.46 3765.01 3128.52 84.69 1.00
   05:24:33.400.05-Jan-2021 596.40 7531.69 3765.01 3128.52 84.69 1.00
   05:24:33.600.05-Jan-2021 596.60 7531.19 3765.01 3128.52 84.69 1.00
   05:24:33.800.05-Jan-2021 596.80 7532.74 3765.01 3128.52 84.69 1.00
   05:24:34.000.05-Jan-2021 597.00 7530.71 3765.01 3128.52 84.69 1.00
   05:24:34.200.05-Jan-2021 597.20 7530.71 3765.01 3128.52 84.69 1.00
   05:24:34.400.05-Jan-2021 597.40 7529.96 3765.01 3128.52 84.69 1.00
   05:24:34.600.05-Jan-2021 597.60 7532.58 3765.01 3128.52 84.69 1.00
   05:24:34.800.05-Jan-2021 597.80 7529.40 3765.01 3128.52 84.69 1.00
