~Version Information
 VERS.                  2.0:   CWLS log ASCII Standard -VERSION 2.0
 WRAP.                   NO:   One line per depth step
~Well Information Block
#MNEM.UNIT     VALUE/NAME     DESCRIPTION
#---------     -----------    ---------------------------
 STRT.S             05:14:37 05-Jan-21: START TIME 05:14:37 05-Jan-21
 STOP.S             05:24:42 05-Jan-21: STOP TIME  05:24:42 05-Jan-21
 STEP.S                   0.00: STEP TIME
 NULL.                 -999.25: NULL VALUE
 DFWT.                        :  DIST FWL TEXT
 DFST.                        :  DIST FSL TEXT
 DMF .             Drill Floor:  DRILL MEAS FROM
 STIM.      06.00.00 31-Dec-20:  START TIME
 DATE.      05.58.24 07-Jan-21:  END TIME
 SPUD.               24-Dec-20:  SPUD DATE
 NREF.                    Grid:  NORTH REFERENCE
 HPTY.       Minimum Curvature:  HOLE POS TYPE
 DMOD.             Drill Model:  DRILL MOD DESC
 SVYD.                  Survey:  SURVEY DESC
 ILTD.               Lithology:  INTERP LTH DESC
 FTOP.          Formation Tops:  FORM TOPS DESC
 SON .        AZ-XX-0906699554:  JOB NUMBER
 WELL.                    B09z:  WELL NAME
 PDAT.          Mean Sea Level:  PERMANENT DATUM
 FLD .                     ACG:  FIELD NAME
 CTRY.              Azerbaijan:  COUNTRY NAME
 COMP.     BP Exploration (Caspian Sea) Ltd.:  COMPANY
 UWI .                     N/A:  UNIQUE WELL IDENTIFIER
 API .                     N/A:  API NUMBER
 WTYP.                Deviated:  WELL TYPE
 MDS .        Operator Entered:  MAG DATA SOURCE
 BASE.              Azerbaijan:  LOGGING EQUIPMENT BASE LOCATION
 REGN.                   EESSA:  REGION
 PROV.                    Baku:  PROVINCE
 STAT.                    Baku:  STATE NAME
 SRVC.          Turan Drilling:  CONTRACTOR
 MWDS.                    Baku:  MWD SHOP
 JOBN.        AZ-XX-0906699554:  JOB TICKET NUMB
 RIG .           Central Azeri:  RIG NAME
 DOE .                     N/A:  DOE NUMBER
 DCON.         Sperry Drilling:  DIRECTNL CONTR
 UNIT.                     N/A:  LOGGING EQUIPMENT ID
 CNTY.                        :  COUNTY
 LOC .                        :  LOCATION
 LMF .             Drill Floor:  LOG MEASURED FROM
 TVDS.m                  43.29:  TVDSS CORRECTN
 LATI.deg                40.03:  LATITUDE
 LONG.deg                51.35:  LONGITUDE
 WHNS.m                  -2.76:  WELL HEAD N/S
 WHEW.m                  -7.70:  WELL HEAD E/W
 UTMX.m              530128.28:  UTM X
 UTMY.m             4433192.49:  UTM Y
 DFWL.m                   0.00:  DISTANCE FWL
 DFSL.m                   0.00:  DISTANCE FSL
 SDEP.m                3435.01:  START DEPTH
 TDD .m                3814.01:  TOTAL DEPTH (DRILLER)
 VSDR.deg               352.80:  VERT SEC DIRECT
 GVFD.g                   1.00:  GRAVITY FIELD
 MFLD.nT              50303.00:  MAGNETIC FIELD
 MDIP.deg                59.52:  MAGNETIC DIP
 MDEC.deg                 6.47:  MAGNETIC DECL
 GRDC.deg                 0.23:  GRID CORRECTION
 AZTC.deg                 6.24:  AZM TOTAL CORR
 EPD .m                   0.00:  ELEVATION
 EGL .m                   0.00:  GROUND ELEVATION
 WDMS.m                 128.20:  WD ELEV
 APD .m                  43.29:  DEPTH ABOVE PD
 DEP .m                3421.30:  DEPTH
 AGAP.m                  43.60:  AIR GAP
 VSEW.m                  -7.70:  VERT SEC E/W
 VSNS.m                  -2.76:  VERT SEC N/S
 EKB .m                   0.00:  KB ELEVATION
 EDF .m                  43.29:  DF ELEVATION
 TDL .m                 369.00:  TOTAL DEPTH (LOGGER)
 VSC .                       0:  VS TO CLOSURE
 MAGU.                 1850390:  MAGUTM CHECKSUM
~Parameter Information Block
#MNEM.UNIT       Value        Description
#---------     -----------    ---------------------------
 AV  .mps                 2.80:  Ann Velocity 
 AVMX.mps                 4.67:  Max Ann Veloc 
 AZIF.deg               303.89:  Azm, Final 
 BHAT.        Rotary Steerable:  BHA Type 
 BREV.rev            128542.00:  Rev Bit Total 
 BROT.°/30m               1.50:  Build Rotating 
 BS  .in                  8.50:  Bit Size 
 BSZ .in                  8.50:  Bit Size 
 BTPL.psig              715.00:  Bit Press Loss 
 CABU.                      No:  Customer Abuse 
 COMM.                     ¼Ûƒ:  Run Comments 1 
 TCS .hr                 53.00:  Time Ciculation Ended 
 CV  .mps                 3.85:  Crit Velocity 
 CVMX.mps                 4.75:  Max Crit Veloc 
 DD1 .         Intigam Rahimov:  Direct Drillr 1 
 DDSV.                 iCruise:  DD Service 
 DEFF.%                  98.60:  % Det Eff 
 DLRX.°/30m               2.34:  Dogleg Rot Max 
 DLSO.°/30m               0.00:  Dogleg Oriented 
 DLSX.°/30m               0.00:  Dogleg Str Max 
 DRET.      00.15.00 05-Jan-21:  Drill End Time 
 DRST.      22.00.00 03-Jan-21:  Drill Start Tim 
 DTIM.hr                 17.72:  Time Drilling 
 EDEP.m                3814.01:  End Depth 
 ENG1.         Yevgeniy Ulikov:  Engineer 1 
 ENG2.        Farkhad Khalidov:  Engineer 2 
 ENG3.           Samir Gafarov:  Engineer 3 
 ETIM.      21.00.00 07-Jan-21:  End Time 
 FLOI.gpm               590.00:  Flow In 
 FLON.gpm               580.00:  Flow In Min 
 FLOS.cptm                1.00:  Fluid Loss 
 FLOX.gpm               595.00:  Flow In Max 
 FTRO.     Connectivity, Formation Presure:  FTWD Run Obj 
 HFLO.                      No:  High Flow 
 HPRE.                     Yes:  High Pressure 
 HTEM.                      No:  High Temp 
 HYDO.m                   1.80:  Hydro Offset 
 IFIN.deg                63.76:  Inc, Final 
 IMAX.deg                64.09:  Inc Max 
 IMIN.deg                55.81:  Inc Min 
 IMND.m                3455.62:  Inc Min Depth 
 IMXD.m                3796.03:  Inc Max Depth 
 JARR.                      No:  Jarring 
 LETM.      00.15.00 05-Jan-21:  Log End Time 
 LOST.hr                     0:  Lost Rig Time 
 LSTM.      22.00.00 03-Jan-21:  Log Start Time 
 MDCL.ppm             36000.00:  Mud Chlorides 
 MDES.     Inversion Oil/Synthetic:  Mud Desc 
 DFD .sg                  1.51:  Mud Density 
 MDMN.sg                  1.51:  Dens Mud Min 
 MDMX.sg                  1.51:  Dens Mud Max 
 MOIL.                    55.5:  Run Mud Oil % 
 MOWR.                   70:30:  Run Mud OWR 
 MSND.                     0.1:  Run Mud Sand % 
 MSOL.                   20.77:  Run Mud Solids% 
 DFV .spqt               67.00:  Mud Viscosity 
 MWOD.in                  6.75:  MWD Tool OD 
 MWSI.                      No:  Serv Intrp, MWD 
 OTIM.hr                113.53:  Time Operating 
 PCON.           Look Like New:  Pad Condition 
 PMAX.psia             4830.00:  Press Op, Max 
 PV  .cP                 29.00:  Mud PV 
 RUN .                     300:  Run Number 
 ROPA.m/hr               22.00:  ROP Avg 
 ROPN.m/hr               18.00:  ROP Min 
 ROPX.m/hr               25.00:  ROP Max 
 RPMA.rpm               130.00:  RPM Surface Avg 
 RPMN.rpm                80.00:  RPM Surface Min 
 RPMX.rpm               140.00:  RPM Surface Max 
 RRUN.                    L101:  Rig Run Number 
 RTIM.hr                  9.28:  Time Reaming 
 SAZI.deg               316.55:  Azm, Start 
 SDEP.m                3445.01:  Start Depth 
 SIDD.                      No:  Serv Intrp, DD 
 SINC.deg                55.81:  Inc, Start 
 SPPA.psig             4500.00:  SPP Avg 
 SPPN.psig             4350.00:  SPP Min 
 SPPX.psig             4830.00:  SPP Max 
 STIM.      00.00.00 03-Jan-21:  Start Time 
 SVCS.                 DD, MWD:  Services 
 SVER.                    9.20:  Sperry Version 
 TDAT.m                 369.00:  Tot Depth Attmp 
 TDDF.                      No:  Trip for DD 
 TDLG.m                 369.00:  Tot Depth Loggd 
 TFF .                      No:  Trip for Fail 
 TQAA.f-kp               15.00:  Torque Abs Avg 
 TQAN.f-kp               12.00:  Torque Abs Min 
 TQAX.f-kp               16.00:  Torque Abs Max 
 TRRT.°/30m              -2.10:  Turn Rotating 
 MRT .                    HCIM:  Maximum Recorded Temperature 
 TTMX.degC               92.16:  Max Tool Temp 
 VS01.                90627822:  Virtual Str1 SN 
 VS02.                90550008:  Virtual Str2 SN 
 VS03.                90627816:  Virtual Str3 SN 
 VS04.                90633205:  Virtual Str4 SN 
 VS05.                13033835:  Virtual Str5 SN 
 VS06.                11125125:  Virtual Str6 SN 
 WBMN.klb                 8.00:  WOB Min 
 WITN.            Bruce Cheyne:  Customer Rep 
 WITN.           Faig Mammadov:  Customer Rep 2 
 WOBA.klb                 9.00:  WOB Avg 
 WOBX.klb                12.00:  WOB Max 
 YP  .lhf2               30.00:  Yield Point 
~Curve Information Block
#MNEM.UNIT                 API CODE     Curve Description
#---------               -----------    ---------------------------
 TIME.HHMMSS            00 000 000 000:  GT Time & Date
 GTET.sec               00 000 000 000:  GT Elapsed Test Time
 GTPQH.psia             00 000 000 000:  GT HR Quartz Pressure
 GTDEPTH.m              00 000 000 000:  GT Depth
 GTTVD.m                00 000 000 000:  GT True Vertical Depth
 GTTQ.degC              00 000 000 000:  GT Quartz Temperature
 GTTN.NONE              00 000 000 000:  GT Test Number
#Other Information
#
#WARRANTY: Halliburton will use its best efforts to furnish customers with 
#accurate information and interpretations that are part of, and incident to, the services 
#provided.  However, Halliburton cannot and does not warrant the accuracy 
#or correctness of such information and interpretations.  Under no circumstances should any 
#such information or interpretation be relied upon as the sole basis for any drilling, 
#completion, production, or financial decision or any procedure involving any risk to the 
#safety of any drilling venture, drilling rig or its crew or any other third party.  The 
#Customer has full responsibility for all drilling, completion and production operation.  
#Halliburton makes no representations or warranties, either expressed or 
#implied, including, but not limited to, the implied warranties of merchantability or fitness 
#for a particular purpose, with respect to the services rendered.  In no event will 
#Halliburton be liable for failure to obtain any particular results or for 
#any damages, including, but not limited to, indirect, special or consequential damages, 
#resulting from the use of any information or interpretation provided by Halliburton.
#
~A           TIME            GTET   GTPQH  GTDEPTH  GTTVD  GTTQ  GTTN 
# ...
   05:15:23.000.05-Jan-2021  46.00 7526.57 3765.01 3128.52 84.87 1.00
   05:15:23.200.05-Jan-2021  46.20 7526.57 3765.01 3128.52 84.87 1.00
   05:15:23.400.05-Jan-2021  46.40 7525.95 3765.01 3128.52 84.87 1.00
   05:15:23.600.05-Jan-2021  46.60 7526.96 3765.01 3128.52 84.87 1.00
   05:15:23.800.05-Jan-2021  46.80 7526.58 3765.01 3128.52 84.87 1.00
   05:15:24.000.05-Jan-2021  47.00 7527.40 3765.01 3128.52 84.87 1.00
   05:15:24.200.05-Jan-2021  47.20 7527.40 3765.01 3128.52 84.87 1.00
   05:15:24.400.05-Jan-2021  47.40 7524.18 3765.01 3128.52 84.86 1.00
   05:15:24.600.05-Jan-2021  47.60 7525.24 3765.01 3128.52 84.87 1.00
   05:15:24.800.05-Jan-2021  47.80 7527.59 3765.01 3128.52 84.86 1.00
   05:15:25.000.05-Jan-2021  48.00 7526.32 3765.01 3128.52 84.86 1.00
   05:15:25.200.05-Jan-2021  48.20 7526.32 3765.01 3128.52 84.86 1.00
   05:15:25.400.05-Jan-2021  48.40 7533.12 3765.01 3128.52 84.86 1.00
   05:15:25.600.05-Jan-2021  48.60 7530.42 3765.01 3128.52 84.86 1.00
   05:15:25.800.05-Jan-2021  48.80 7524.01 3765.01 3128.52 84.86 1.00
   05:15:26.000.05-Jan-2021  49.00 7532.76 3765.01 3128.52 84.86 1.00
   05:15:26.200.05-Jan-2021  49.20 7532.76 3765.01 3128.52 84.86 1.00
   05:15:26.400.05-Jan-2021  49.40 7524.27 3765.01 3128.52 84.86 1.00
   05:15:26.600.05-Jan-2021  49.60 7537.17 3765.01 3128.52 84.86 1.00
   05:15:26.800.05-Jan-2021  49.80 7526.94 3765.01 3128.52 84.86 1.00
   05:15:27.000.05-Jan-2021  50.00 7527.16 3765.01 3128.52 84.86 1.00
   05:15:27.200.05-Jan-2021  50.20 7527.16 3765.01 3128.52 84.86 1.00
   05:15:27.400.05-Jan-2021  50.40 7530.20 3765.01 3128.52 84.86 1.00
   05:15:27.600.05-Jan-2021  50.60 7533.46 3765.01 3128.52 84.86 1.00
   05:15:27.800.05-Jan-2021  50.80 7529.61 3765.01 3128.52 84.86 1.00
   05:15:28.000.05-Jan-2021  51.00 7523.72 3765.01 3128.52 84.86 1.00
   05:15:28.200.05-Jan-2021  51.20 7523.72 3765.01 3128.52 84.86 1.00
   05:15:28.400.05-Jan-2021  51.40 7530.36 3765.01 3128.52 84.86 1.00
   05:15:28.600.05-Jan-2021  51.60 7538.78 3765.01 3128.52 84.86 1.00
   05:15:28.800.05-Jan-2021  51.80 7526.85 3765.01 3128.52 84.86 1.00
   05:15:29.000.05-Jan-2021  52.00 7526.97 3765.01 3128.52 84.86 1.00
   05:15:29.200.05-Jan-2021  52.20 7526.97 3765.01 3128.52 84.86 1.00
   05:15:29.400.05-Jan-2021  52.40 7530.70 3765.01 3128.52 84.86 1.00
   05:15:29.600.05-Jan-2021  52.60 7528.01 3765.01 3128.52 84.86 1.00
   05:15:29.800.05-Jan-2021  52.80 7527.07 3765.01 3128.52 84.86 1.00
   05:15:30.000.05-Jan-2021  53.00 7528.44 3765.01 3128.52 84.86 1.00
   05:15:30.200.05-Jan-2021  53.20 7528.44 3765.01 3128.52 84.86 1.00
   05:15:30.400.05-Jan-2021  53.40 7527.96 3765.01 3128.52 84.86 1.00
   05:15:30.600.05-Jan-2021  53.60 7525.40 3765.01 3128.52 84.86 1.00
   05:15:30.800.05-Jan-2021  53.80 7527.35 3765.01 3128.52 84.86 1.00
   05:15:31.000.05-Jan-2021  54.00 7527.21 3765.01 3128.52 84.86 1.00
   05:15:31.200.05-Jan-2021  54.20 7527.21 3765.01 3128.52 84.86 1.00
   05:15:31.400.05-Jan-2021  54.40 7528.53 3765.01 3128.52 84.86 1.00
   05:15:31.600.05-Jan-2021  54.60 7537.30 3765.01 3128.52 84.86 1.00
   05:15:31.800.05-Jan-2021  54.80 7524.79 3765.01 3128.52 84.86 1.00
   05:15:32.000.05-Jan-2021  55.00 7526.33 3765.01 3128.52 84.86 1.00
   05:15:32.200.05-Jan-2021  55.20 7526.33 3765.01 3128.52 84.86 1.00
   05:15:32.400.05-Jan-2021  55.40 7528.74 3765.01 3128.52 84.86 1.00
   05:15:32.600.05-Jan-2021  55.60 7526.81 3765.01 3128.52 84.86 1.00
   05:15:32.800.05-Jan-2021  55.80 7527.11 3765.01 3128.52 84.86 1.00
   05:15:33.000.05-Jan-2021  56.00 7524.67 3765.01 3128.52 84.86 1.00
   05:15:33.200.05-Jan-2021  56.20 7524.67 3765.01 3128.52 84.86 1.00
   05:15:33.400.05-Jan-2021  56.40 7525.88 3765.01 3128.52 84.86 1.00
   05:15:33.600.05-Jan-2021  56.60 7524.66 3765.01 3128.52 84.86 1.00
   05:15:33.800.05-Jan-2021  56.80 7524.60 3765.01 3128.52 84.86 1.00
   05:15:34.000.05-Jan-2021  57.00 7525.28 3765.01 3128.52 84.86 1.00
   05:15:34.200.05-Jan-2021  57.20 7525.28 3765.01 3128.52 84.86 1.00
   05:15:34.400.05-Jan-2021  57.40 7521.37 3765.01 3128.52 84.86 1.00
   05:15:34.600.05-Jan-2021  57.60 7523.65 3765.01 3128.52 84.86 1.00
   05:15:34.800.05-Jan-2021  57.80 7531.88 3765.01 3128.52 84.86 1.00
   05:15:35.000.05-Jan-2021  58.00 7534.45 3765.01 3128.52 84.86 1.00
   05:15:35.200.05-Jan-2021  58.20 7534.45 3765.01 3128.52 84.86 1.00
   05:15:35.400.05-Jan-2021  58.40 7525.71 3765.01 3128.52 84.86 1.00
   05:15:35.600.05-Jan-2021  58.60 7535.02 3765.01 3128.52 84.86 1.00
   05:15:35.800.05-Jan-2021  58.80 7531.57 3765.01 3128.52 84.86 1.00
   05:15:36.000.05-Jan-2021  59.00 7525.04 3765.01 3128.52 84.86 1.00
   05:15:36.200.05-Jan-2021  59.20 7525.04 3765.01 3128.52 84.86 1.00
   05:15:36.400.05-Jan-2021  59.40 7531.73 3765.01 3128.52 84.86 1.00
   05:15:36.600.05-Jan-2021  59.60 7536.56 3765.01 3128.52 84.86 1.00
   05:15:36.800.05-Jan-2021  59.80 7525.19 3765.01 3128.52 84.86 1.00
   05:15:37.000.05-Jan-2021  60.00 7526.63 3765.01 3128.52 84.86 1.00
   05:15:37.200.05-Jan-2021  60.20 7526.63 3765.01 3128.52 84.86 1.00
   05:15:37.400.05-Jan-2021  60.40 7540.52 3765.01 3128.52 84.86 1.00
   05:15:37.600.05-Jan-2021  60.60 7527.76 3765.01 3128.52 84.86 1.00
   05:15:37.800.05-Jan-2021  60.80 7527.17 3765.01 3128.52 84.86 1.00
   05:15:38.000.05-Jan-2021  61.00 7531.50 3765.01 3128.52 84.86 1.00
   05:15:38.200.05-Jan-2021  61.20 7531.50 3765.01 3128.52 84.86 1.00
   05:15:38.400.05-Jan-2021  61.40 7530.32 3765.01 3128.52 84.86 1.00
   05:15:38.600.05-Jan-2021  61.60 7528.09 3765.01 3128.52 84.86 1.00
   05:15:38.800.05-Jan-2021  61.80 7530.98 3765.01 3128.52 84.85 1.00
   05:15:39.000.05-Jan-2021  62.00 7529.68 3765.01 3128.52 84.85 1.00
   05:15:39.200.05-Jan-2021  62.20 7529.68 3765.01 3128.52 84.85 1.00
   05:15:39.400.05-Jan-2021  62.40 7527.07 3765.01 3128.52 84.85 1.00
   05:15:39.600.05-Jan-2021  62.60 7529.40 3765.01 3128.52 84.85 1.00
   05:15:39.800.05-Jan-2021  62.80 7529.08 3765.01 3128.52 84.85 1.00
   05:15:40.000.05-Jan-2021  63.00 7530.15 3765.01 3128.52 84.85 1.00
   05:15:40.200.05-Jan-2021  63.20 7530.15 3765.01 3128.52 84.85 1.00
   05:15:40.400.05-Jan-2021  63.40 7532.23 3765.01 3128.52 84.85 1.00
   05:15:40.600.05-Jan-2021  63.60 7526.81 3765.01 3128.52 84.85 1.00
   05:15:40.800.05-Jan-2021  63.80 7529.53 3765.01 3128.52 84.85 1.00
   05:15:41.000.05-Jan-2021  64.00 7532.86 3765.01 3128.52 84.85 1.00
   05:15:41.200.05-Jan-2021  64.20 7532.86 3765.01 3128.52 84.85 1.00
   05:15:41.400.05-Jan-2021  64.40 7529.86 3765.01 3128.52 84.85 1.00
   05:15:41.600.05-Jan-2021  64.60 7529.34 3765.01 3128.52 84.85 1.00
   05:15:41.800.05-Jan-2021  64.80 7528.23 3765.01 3128.52 84.85 1.00
   05:15:42.000.05-Jan-2021  65.00 7527.35 3765.01 3128.52 84.85 1.00
   05:15:42.200.05-Jan-2021  65.20 7527.35 3765.01 3128.52 84.85 1.00
   05:15:42.400.05-Jan-2021  65.40 7527.63 3765.01 3128.52 84.85 1.00
   05:15:42.600.05-Jan-2021  65.60 7527.03 3765.01 3128.52 84.85 1.00
   05:15:42.800.05-Jan-2021  65.80 7537.19 3765.01 3128.52 84.85 1.00
   05:15:43.000.05-Jan-2021  66.00 7529.94 3765.01 3128.52 84.85 1.00
   05:15:43.200.05-Jan-2021  66.20 7529.94 3765.01 3128.52 84.85 1.00
   05:15:43.400.05-Jan-2021  66.40 7540.63 3765.01 3128.52 84.85 1.00
   05:15:43.600.05-Jan-2021  66.60 7524.33 3765.01 3128.52 84.85 1.00
   05:15:43.800.05-Jan-2021  66.80 7529.86 3765.01 3128.52 84.85 1.00
   05:15:44.000.05-Jan-2021  67.00 7529.37 3765.01 3128.52 84.85 1.00
   05:15:44.200.05-Jan-2021  67.20 7529.37 3765.01 3128.52 84.85 1.00
   05:15:44.400.05-Jan-2021  67.40 7525.27 3765.01 3128.52 84.85 1.00
   05:15:44.600.05-Jan-2021  67.60 7526.99 3765.01 3128.52 84.85 1.00
   05:15:44.800.05-Jan-2021  67.80 7530.01 3765.01 3128.52 84.85 1.00
   05:15:45.000.05-Jan-2021  68.00 7530.24 3765.01 3128.52 84.85 1.00
   05:15:45.200.05-Jan-2021  68.20 7530.24 3765.01 3128.52 84.85 1.00
   05:15:45.400.05-Jan-2021  68.40 7522.78 3765.01 3128.52 84.85 1.00
   05:15:45.600.05-Jan-2021  68.60 7529.05 3765.01 3128.52 84.85 1.00
   05:15:45.800.05-Jan-2021  68.80 7527.41 3765.01 3128.52 84.85 1.00
