~Version Information
 VERS.                  2.0:   CWLS log ASCII Standard -VERSION 2.0
 WRAP.                   NO:   One line per depth step
~Well Information Block
#MNEM.UNIT     VALUE/NAME     DESCRIPTION
#---------     -----------    ---------------------------
 STRT.S             05:14:37 05-Jan-21: START TIME 05:14:37 05-Jan-21
 STOP.S             05:24:42 05-Jan-21: STOP TIME  05:24:42 05-Jan-21
 STEP.S                   0.00: STEP TIME
 NULL.                 -999.25: NULL VALUE
 DFWT.                        :  DIST FWL TEXT
 DFST.                        :  DIST FSL TEXT
 DMF .             Drill Floor:  DRILL MEAS FROM
 STIM.      06.00.00 31-Dec-20:  START TIME
 DATE.      05.58.24 07-Jan-21:  END TIME
 SPUD.               24-Dec-20:  SPUD DATE
 NREF.                    Grid:  NORTH REFERENCE
 HPTY.       Minimum Curvature:  HOLE POS TYPE
 DMOD.             Drill Model:  DRILL MOD DESC
 SVYD.                  Survey:  SURVEY DESC
 ILTD.               Lithology:  INTERP LTH DESC
 FTOP.          Formation Tops:  FORM TOPS DESC
 SON .        AZ-XX-0906699554:  JOB NUMBER
 WELL.                    B09z:  WELL NAME
 PDAT.          Mean Sea Level:  PERMANENT DATUM
 FLD .                     ACG:  FIELD NAME
 CTRY.              Azerbaijan:  COUNTRY NAME
 COMP.     BP Exploration (Caspian Sea) Ltd.:  COMPANY
 UWI .                     N/A:  UNIQUE WELL IDENTIFIER
 API .                     N/A:  API NUMBER
 WTYP.                Deviated:  WELL TYPE
 MDS .        Operator Entered:  MAG DATA SOURCE
 BASE.              Azerbaijan:  LOGGING EQUIPMENT BASE LOCATION
 REGN.                   EESSA:  REGION
 PROV.                    Baku:  PROVINCE
 STAT.                    Baku:  STATE NAME
 SRVC.          Turan Drilling:  CONTRACTOR
 MWDS.                    Baku:  MWD SHOP
 JOBN.        AZ-XX-0906699554:  JOB TICKET NUMB
 RIG .           Central Azeri:  RIG NAME
 DOE .                     N/A:  DOE NUMBER
 DCON.         Sperry Drilling:  DIRECTNL CONTR
 UNIT.                     N/A:  LOGGING EQUIPMENT ID
 CNTY.                        :  COUNTY
 LOC .                        :  LOCATION
 LMF .             Drill Floor:  LOG MEASURED FROM
 TVDS.m                  43.29:  TVDSS CORRECTN
 LATI.deg                40.03:  LATITUDE
 LONG.deg                51.35:  LONGITUDE
 WHNS.m                  -2.76:  WELL HEAD N/S
 WHEW.m                  -7.70:  WELL HEAD E/W
 UTMX.m              530128.28:  UTM X
 UTMY.m             4433192.49:  UTM Y
 DFWL.m                   0.00:  DISTANCE FWL
 DFSL.m                   0.00:  DISTANCE FSL
 SDEP.m                3435.01:  START DEPTH
 TDD .m                3814.01:  TOTAL DEPTH (DRILLER)
 VSDR.deg               352.80:  VERT SEC DIRECT
 GVFD.g                   1.00:  GRAVITY FIELD
 MFLD.nT              50303.00:  MAGNETIC FIELD
 MDIP.deg                59.52:  MAGNETIC DIP
 MDEC.deg                 6.47:  MAGNETIC DECL
 GRDC.deg                 0.23:  GRID CORRECTION
 AZTC.deg                 6.24:  AZM TOTAL CORR
 EPD .m                   0.00:  ELEVATION
 EGL .m                   0.00:  GROUND ELEVATION
 WDMS.m                 128.20:  WD ELEV
 APD .m                  43.29:  DEPTH ABOVE PD
 DEP .m                3421.30:  DEPTH
 AGAP.m                  43.60:  AIR GAP
 VSEW.m                  -7.70:  VERT SEC E/W
 VSNS.m                  -2.76:  VERT SEC N/S
 EKB .m                   0.00:  KB ELEVATION
 EDF .m                  43.29:  DF ELEVATION
 TDL .m                 369.00:  TOTAL DEPTH (LOGGER)
 VSC .                       0:  VS TO CLOSURE
 MAGU.                 1850390:  MAGUTM CHECKSUM
~Parameter Information Block
#MNEM.UNIT       Value        Description
#---------     -----------    ---------------------------
 AV  .mps                 2.80:  Ann Velocity 
 AVMX.mps                 4.67:  Max Ann Veloc 
 AZIF.deg               303.89:  Azm, Final 
 BHAT.        Rotary Steerable:  BHA Type 
 BREV.rev            128542.00:  Rev Bit Total 
 BROT.°/30m               1.50:  Build Rotating 
 BS  .in                  8.50:  Bit Size 
 BSZ .in                  8.50:  Bit Size 
 BTPL.psig              715.00:  Bit Press Loss 
 CABU.                      No:  Customer Abuse 
 COMM.                     ¼Ûƒ:  Run Comments 1 
 TCS .hr                 53.00:  Time Ciculation Ended 
 CV  .mps                 3.85:  Crit Velocity 
 CVMX.mps                 4.75:  Max Crit Veloc 
 DD1 .         Intigam Rahimov:  Direct Drillr 1 
 DDSV.                 iCruise:  DD Service 
 DEFF.%                  98.60:  % Det Eff 
 DLRX.°/30m               2.34:  Dogleg Rot Max 
 DLSO.°/30m               0.00:  Dogleg Oriented 
 DLSX.°/30m               0.00:  Dogleg Str Max 
 DRET.      00.15.00 05-Jan-21:  Drill End Time 
 DRST.      22.00.00 03-Jan-21:  Drill Start Tim 
 DTIM.hr                 17.72:  Time Drilling 
 EDEP.m                3814.01:  End Depth 
 ENG1.         Yevgeniy Ulikov:  Engineer 1 
 ENG2.        Farkhad Khalidov:  Engineer 2 
 ENG3.           Samir Gafarov:  Engineer 3 
 ETIM.      21.00.00 07-Jan-21:  End Time 
 FLOI.gpm               590.00:  Flow In 
 FLON.gpm               580.00:  Flow In Min 
 FLOS.cptm                1.00:  Fluid Loss 
 FLOX.gpm               595.00:  Flow In Max 
 FTRO.     Connectivity, Formation Presure:  FTWD Run Obj 
 HFLO.                      No:  High Flow 
 HPRE.                     Yes:  High Pressure 
 HTEM.                      No:  High Temp 
 HYDO.m                   1.80:  Hydro Offset 
 IFIN.deg                63.76:  Inc, Final 
 IMAX.deg                64.09:  Inc Max 
 IMIN.deg                55.81:  Inc Min 
 IMND.m                3455.62:  Inc Min Depth 
 IMXD.m                3796.03:  Inc Max Depth 
 JARR.                      No:  Jarring 
 LETM.      00.15.00 05-Jan-21:  Log End Time 
 LOST.hr                     0:  Lost Rig Time 
 LSTM.      22.00.00 03-Jan-21:  Log Start Time 
 MDCL.ppm             36000.00:  Mud Chlorides 
 MDES.     Inversion Oil/Synthetic:  Mud Desc 
 DFD .sg                  1.51:  Mud Density 
 MDMN.sg                  1.51:  Dens Mud Min 
 MDMX.sg                  1.51:  Dens Mud Max 
 MOIL.                    55.5:  Run Mud Oil % 
 MOWR.                   70:30:  Run Mud OWR 
 MSND.                     0.1:  Run Mud Sand % 
 MSOL.                   20.77:  Run Mud Solids% 
 DFV .spqt               67.00:  Mud Viscosity 
 MWOD.in                  6.75:  MWD Tool OD 
 MWSI.                      No:  Serv Intrp, MWD 
 OTIM.hr                113.53:  Time Operating 
 PCON.           Look Like New:  Pad Condition 
 PMAX.psia             4830.00:  Press Op, Max 
 PV  .cP                 29.00:  Mud PV 
 RUN .                     300:  Run Number 
 ROPA.m/hr               22.00:  ROP Avg 
 ROPN.m/hr               18.00:  ROP Min 
 ROPX.m/hr               25.00:  ROP Max 
 RPMA.rpm               130.00:  RPM Surface Avg 
 RPMN.rpm                80.00:  RPM Surface Min 
 RPMX.rpm               140.00:  RPM Surface Max 
 RRUN.                    L101:  Rig Run Number 
 RTIM.hr                  9.28:  Time Reaming 
 SAZI.deg               316.55:  Azm, Start 
 SDEP.m                3445.01:  Start Depth 
 SIDD.                      No:  Serv Intrp, DD 
 SINC.deg                55.81:  Inc, Start 
 SPPA.psig             4500.00:  SPP Avg 
 SPPN.psig             4350.00:  SPP Min 
 SPPX.psig             4830.00:  SPP Max 
 STIM.      00.00.00 03-Jan-21:  Start Time 
 SVCS.                 DD, MWD:  Services 
 SVER.                    9.20:  Sperry Version 
 TDAT.m                 369.00:  Tot Depth Attmp 
 TDDF.                      No:  Trip for DD 
 TDLG.m                 369.00:  Tot Depth Loggd 
 TFF .                      No:  Trip for Fail 
 TQAA.f-kp               15.00:  Torque Abs Avg 
 TQAN.f-kp               12.00:  Torque Abs Min 
 TQAX.f-kp               16.00:  Torque Abs Max 
 TRRT.°/30m              -2.10:  Turn Rotating 
 MRT .                    HCIM:  Maximum Recorded Temperature 
 TTMX.degC               92.16:  Max Tool Temp 
 VS01.                90627822:  Virtual Str1 SN 
 VS02.                90550008:  Virtual Str2 SN 
 VS03.                90627816:  Virtual Str3 SN 
 VS04.                90633205:  Virtual Str4 SN 
 VS05.                13033835:  Virtual Str5 SN 
 VS06.                11125125:  Virtual Str6 SN 
 WBMN.klb                 8.00:  WOB Min 
 WITN.            Bruce Cheyne:  Customer Rep 
 WITN.           Faig Mammadov:  Customer Rep 2 
 WOBA.klb                 9.00:  WOB Avg 
 WOBX.klb                12.00:  WOB Max 
 YP  .lhf2               30.00:  Yield Point 
~Curve Information Block
#MNEM.UNIT                 API CODE     Curve Description
#---------               -----------    ---------------------------
 TIME.HHMMSS            00 000 000 000:  GT Time & Date
 GTET.sec               00 000 000 000:  GT Elapsed Test Time
 GTPQH.psia             00 000 000 000:  GT HR Quartz Pressure
 GTDEPTH.m              00 000 000 000:  GT Depth
 GTTVD.m                00 000 000 000:  GT True Vertical Depth
 GTTQ.degC              00 000 000 000:  GT Quartz Temperature
 GTTN.NONE              00 000 000 000:  GT Test Number
#Other Information
#
#WARRANTY: Halliburton will use its best efforts to furnish customers with 
#accurate information and interpretations that are part of, and incident to, the services 
#provided.  However, Halliburton cannot and does not warrant the accuracy 
#or correctness of such information and interpretations.  Under no circumstances should any 
#such information or interpretation be relied upon as the sole basis for any drilling, 
#completion, production, or financial decision or any procedure involving any risk to the 
#safety of any drilling venture, drilling rig or its crew or any other third party.  The 
#Customer has full responsibility for all drilling, completion and production operation.  
#Halliburton makes no representations or warranties, either expressed or 
#implied, including, but not limited to, the implied warranties of merchantability or fitness 
#for a particular purpose, with respect to the services rendered.  In no event will 
#Halliburton be liable for failure to obtain any particular results or for 
#any damages, including, but not limited to, indirect, special or consequential damages, 
#resulting from the use of any information or interpretation provided by Halliburton.
#
~A           TIME            GTET   GTPQH  GTDEPTH  GTTVD  GTTQ  GTTN 
# ...
   05:19:36.000.05-Jan-2021 299.00 7530.11 3765.01 3128.52 84.75 1.00
   05:19:36.200.05-Jan-2021 299.20 7530.11 3765.01 3128.52 84.75 1.00
   05:19:36.400.05-Jan-2021 299.40 7543.89 3765.01 3128.52 84.75 1.00
   05:19:36.600.05-Jan-2021 299.60 7530.42 3765.01 3128.52 84.75 1.00
   05:19:36.800.05-Jan-2021 299.80 7532.12 3765.01 3128.52 84.75 1.00
   05:19:37.000.05-Jan-2021 300.00 7530.45 3765.01 3128.52 84.75 1.00
   05:19:37.200.05-Jan-2021 300.20 7530.45 3765.01 3128.52 84.75 1.00
   05:19:37.400.05-Jan-2021 300.40 7532.67 3765.01 3128.52 84.75 1.00
   05:19:37.600.05-Jan-2021 300.60 7533.58 3765.01 3128.52 84.75 1.00
   05:19:37.800.05-Jan-2021 300.80 7531.87 3765.01 3128.52 84.75 1.00
   05:19:38.000.05-Jan-2021 301.00 7532.12 3765.01 3128.52 84.75 1.00
   05:19:38.200.05-Jan-2021 301.20 7532.12 3765.01 3128.52 84.75 1.00
   05:19:38.400.05-Jan-2021 301.40 7533.23 3765.01 3128.52 84.75 1.00
   05:19:38.600.05-Jan-2021 301.60 7531.72 3765.01 3128.52 84.75 1.00
   05:19:38.800.05-Jan-2021 301.80 7531.38 3765.01 3128.52 84.75 1.00
   05:19:39.000.05-Jan-2021 302.00 7530.21 3765.01 3128.52 84.75 1.00
   05:19:39.200.05-Jan-2021 302.20 7530.21 3765.01 3128.52 84.75 1.00
   05:19:39.400.05-Jan-2021 302.40 7531.90 3765.01 3128.52 84.75 1.00
   05:19:39.600.05-Jan-2021 302.60 7531.32 3765.01 3128.52 84.75 1.00
   05:19:39.800.05-Jan-2021 302.80 7529.52 3765.01 3128.52 84.75 1.00
   05:19:40.000.05-Jan-2021 303.00 7533.30 3765.01 3128.52 84.75 1.00
   05:19:40.200.05-Jan-2021 303.20 7533.30 3765.01 3128.52 84.75 1.00
   05:19:40.400.05-Jan-2021 303.40 7531.42 3765.01 3128.52 84.75 1.00
   05:19:40.600.05-Jan-2021 303.60 7530.07 3765.01 3128.52 84.75 1.00
   05:19:40.800.05-Jan-2021 303.80 7529.32 3765.01 3128.52 84.75 1.00
   05:19:41.000.05-Jan-2021 304.00 7532.46 3765.01 3128.52 84.75 1.00
   05:19:41.200.05-Jan-2021 304.20 7532.46 3765.01 3128.52 84.75 1.00
   05:19:41.400.05-Jan-2021 304.40 7529.56 3765.01 3128.52 84.75 1.00
   05:19:41.600.05-Jan-2021 304.60 7528.93 3765.01 3128.52 84.75 1.00
   05:19:41.800.05-Jan-2021 304.80 7530.36 3765.01 3128.52 84.75 1.00
   05:19:42.000.05-Jan-2021 305.00 7535.19 3765.01 3128.52 84.75 1.00
   05:19:42.200.05-Jan-2021 305.20 7535.19 3765.01 3128.52 84.75 1.00
   05:19:42.400.05-Jan-2021 305.40 7527.81 3765.01 3128.52 84.75 1.00
   05:19:42.600.05-Jan-2021 305.60 7537.70 3765.01 3128.52 84.75 1.00
   05:19:42.800.05-Jan-2021 305.80 7534.58 3765.01 3128.52 84.75 1.00
   05:19:43.000.05-Jan-2021 306.00 7528.20 3765.01 3128.52 84.75 1.00
   05:19:43.200.05-Jan-2021 306.20 7528.20 3765.01 3128.52 84.75 1.00
   05:19:43.400.05-Jan-2021 306.40 7542.34 3765.01 3128.52 84.75 1.00
   05:19:43.600.05-Jan-2021 306.60 7528.77 3765.01 3128.52 84.75 1.00
   05:19:43.800.05-Jan-2021 306.80 7528.66 3765.01 3128.52 84.75 1.00
   05:19:44.000.05-Jan-2021 307.00 7530.75 3765.01 3128.52 84.75 1.00
   05:19:44.200.05-Jan-2021 307.20 7530.75 3765.01 3128.52 84.75 1.00
   05:19:44.400.05-Jan-2021 307.40 7532.81 3765.01 3128.52 84.74 1.00
   05:19:44.600.05-Jan-2021 307.60 7528.98 3765.01 3128.52 84.75 1.00
   05:19:44.800.05-Jan-2021 307.80 7541.21 3765.01 3128.52 84.74 1.00
   05:19:45.000.05-Jan-2021 308.00 7532.34 3765.01 3128.52 84.74 1.00
   05:19:45.200.05-Jan-2021 308.20 7532.34 3765.01 3128.52 84.74 1.00
   05:19:45.400.05-Jan-2021 308.40 7530.94 3765.01 3128.52 84.74 1.00
   05:19:45.600.05-Jan-2021 308.60 7533.21 3765.01 3128.52 84.74 1.00
   05:19:45.800.05-Jan-2021 308.80 7529.96 3765.01 3128.52 84.74 1.00
   05:19:46.000.05-Jan-2021 309.00 7531.51 3765.01 3128.52 84.74 1.00
   05:19:46.200.05-Jan-2021 309.20 7531.51 3765.01 3128.52 84.74 1.00
   05:19:46.400.05-Jan-2021 309.40 7530.58 3765.01 3128.52 84.74 1.00
   05:19:46.600.05-Jan-2021 309.60 7530.40 3765.01 3128.52 84.74 1.00
   05:19:46.800.05-Jan-2021 309.80 7530.82 3765.01 3128.52 84.74 1.00
   05:19:47.000.05-Jan-2021 310.00 7528.96 3765.01 3128.52 84.74 1.00
   05:19:47.200.05-Jan-2021 310.20 7528.96 3765.01 3128.52 84.74 1.00
   05:19:47.400.05-Jan-2021 310.40 7529.28 3765.01 3128.52 84.74 1.00
   05:19:47.600.05-Jan-2021 310.60 7537.29 3765.01 3128.52 84.74 1.00
   05:19:47.800.05-Jan-2021 310.80 7533.73 3765.01 3128.52 84.74 1.00
   05:19:48.000.05-Jan-2021 311.00 7528.19 3765.01 3128.52 84.74 1.00
   05:19:48.200.05-Jan-2021 311.20 7528.19 3765.01 3128.52 84.74 1.00
   05:19:48.400.05-Jan-2021 311.40 7532.81 3765.01 3128.52 84.74 1.00
   05:19:48.600.05-Jan-2021 311.60 7531.16 3765.01 3128.52 84.74 1.00
   05:19:48.800.05-Jan-2021 311.80 7529.62 3765.01 3128.52 84.74 1.00
   05:19:49.000.05-Jan-2021 312.00 7529.33 3765.01 3128.52 84.74 1.00
   05:19:49.200.05-Jan-2021 312.20 7529.33 3765.01 3128.52 84.74 1.00
   05:19:49.400.05-Jan-2021 312.40 7531.85 3765.01 3128.52 84.74 1.00
   05:19:49.600.05-Jan-2021 312.60 7528.51 3765.01 3128.52 84.74 1.00
   05:19:49.800.05-Jan-2021 312.80 7529.83 3765.01 3128.52 84.74 1.00
   05:19:50.000.05-Jan-2021 313.00 7528.54 3765.01 3128.52 84.74 1.00
   05:19:50.200.05-Jan-2021 313.20 7528.54 3765.01 3128.52 84.74 1.00
   05:19:50.400.05-Jan-2021 313.40 7527.85 3765.01 3128.52 84.74 1.00
   05:19:50.600.05-Jan-2021 313.60 7529.34 3765.01 3128.52 84.74 1.00
   05:19:50.800.05-Jan-2021 313.80 7543.22 3765.01 3128.52 84.74 1.00
   05:19:51.000.05-Jan-2021 314.00 7527.22 3765.01 3128.52 84.74 1.00
   05:19:51.200.05-Jan-2021 314.20 7526.86 3765.01 3128.52 84.74 1.00
   05:19:51.400.05-Jan-2021 314.40 7528.44 3765.01 3128.52 84.74 1.00
   05:19:51.600.05-Jan-2021 314.60 7540.26 3765.01 3128.52 84.74 1.00
   05:19:51.800.05-Jan-2021 314.80 7532.43 3765.01 3128.52 84.74 1.00
   05:19:52.000.05-Jan-2021 315.00 7527.52 3765.01 3128.52 84.74 1.00
   05:19:52.200.05-Jan-2021 315.20 7526.93 3765.01 3128.52 84.74 1.00
   05:19:52.400.05-Jan-2021 315.40 7548.25 3765.01 3128.52 84.74 1.00
   05:19:52.600.05-Jan-2021 315.60 7524.84 3765.01 3128.52 84.74 1.00
   05:19:52.800.05-Jan-2021 315.80 7529.79 3765.01 3128.52 84.74 1.00
   05:19:53.000.05-Jan-2021 316.00 7536.19 3765.01 3128.52 84.74 1.00
   05:19:53.200.05-Jan-2021 316.20 7538.27 3765.01 3128.52 84.74 1.00
   05:19:53.400.05-Jan-2021 316.40 7529.83 3765.01 3128.52 84.74 1.00
   05:19:53.600.05-Jan-2021 316.60 7530.90 3765.01 3128.52 84.74 1.00
   05:19:53.800.05-Jan-2021 316.80 7534.01 3765.01 3128.52 84.74 1.00
   05:19:54.000.05-Jan-2021 317.00 7533.48 3765.01 3128.52 84.74 1.00
   05:19:54.200.05-Jan-2021 317.20 7533.48 3765.01 3128.52 84.74 1.00
   05:19:54.400.05-Jan-2021 317.40 7532.13 3765.01 3128.52 84.74 1.00
   05:19:54.600.05-Jan-2021 317.60 7530.51 3765.01 3128.52 84.74 1.00
   05:19:54.800.05-Jan-2021 317.80 7532.94 3765.01 3128.52 84.74 1.00
   05:19:55.000.05-Jan-2021 318.00 7531.88 3765.01 3128.52 84.74 1.00
   05:19:55.200.05-Jan-2021 318.20 7531.88 3765.01 3128.52 84.74 1.00
   05:19:55.400.05-Jan-2021 318.40 7529.11 3765.01 3128.52 84.74 1.00
   05:19:55.600.05-Jan-2021 318.60 7529.42 3765.01 3128.52 84.74 1.00
   05:19:55.800.05-Jan-2021 318.80 7545.14 3765.01 3128.52 84.74 1.00
   05:19:56.000.05-Jan-2021 319.00 7525.38 3765.01 3128.52 84.74 1.00
   05:19:56.200.05-Jan-2021 319.20 7525.38 3765.01 3128.52 84.74 1.00
   05:19:56.400.05-Jan-2021 319.40 7527.74 3765.01 3128.52 84.74 1.00
   05:19:56.600.05-Jan-2021 319.60 7533.04 3765.01 3128.52 84.74 1.00
   05:19:56.800.05-Jan-2021 319.80 7529.77 3765.01 3128.52 84.74 1.00
   05:19:57.000.05-Jan-2021 320.00 7530.57 3765.01 3128.52 84.74 1.00
   05:19:57.200.05-Jan-2021 320.20 7530.57 3765.01 3128.52 84.74 1.00
   05:19:57.400.05-Jan-2021 320.40 7530.44 3765.01 3128.52 84.74 1.00
   05:19:57.600.05-Jan-2021 320.60 7530.35 3765.01 3128.52 84.74 1.00
   05:19:57.800.05-Jan-2021 320.80 7529.38 3765.01 3128.52 84.74 1.00
   05:19:58.000.05-Jan-2021 321.00 7528.14 3765.01 3128.52 84.74 1.00
   05:19:58.200.05-Jan-2021 321.20 7528.14 3765.01 3128.52 84.74 1.00
   05:19:58.400.05-Jan-2021 321.40 7529.04 3765.01 3128.52 84.74 1.00
   05:19:58.600.05-Jan-2021 321.60 7534.90 3765.01 3128.52 84.74 1.00
   05:19:58.800.05-Jan-2021 321.80 7532.05 3765.01 3128.52 84.74 1.00
