~Version Information
 VERS.                  2.0:   CWLS log ASCII Standard -VERSION 2.0
 WRAP.                   NO:   One line per depth step
~Well Information Block
#MNEM.UNIT     VALUE/NAME     DESCRIPTION
#---------     -----------    ---------------------------
 STRT.S             08:18:37 05-Jan-21: START TIME 08:18:37 05-Jan-21
 STOP.S             08:26:49 05-Jan-21: STOP TIME  08:26:49 05-Jan-21
 STEP.S                   0.00: STEP TIME
 NULL.                 -999.25: NULL VALUE
 DFWT.                        :  DIST FWL TEXT
 DFST.                        :  DIST FSL TEXT
 DMF .             Drill Floor:  DRILL MEAS FROM
 STIM.      06.00.00 31-Dec-20:  START TIME
 DATE.      05.58.24 07-Jan-21:  END TIME
 SPUD.               24-Dec-20:  SPUD DATE
 NREF.                    Grid:  NORTH REFERENCE
 HPTY.       Minimum Curvature:  HOLE POS TYPE
 DMOD.             Drill Model:  DRILL MOD DESC
 SVYD.                  Survey:  SURVEY DESC
 ILTD.               Lithology:  INTERP LTH DESC
 FTOP.          Formation Tops:  FORM TOPS DESC
 SON .        AZ-XX-0906699554:  JOB NUMBER
 WELL.                    B09z:  WELL NAME
 PDAT.          Mean Sea Level:  PERMANENT DATUM
 FLD .                     ACG:  FIELD NAME
 CTRY.              Azerbaijan:  COUNTRY NAME
 COMP.     BP Exploration (Caspian Sea) Ltd.:  COMPANY
 UWI .                     N/A:  UNIQUE WELL IDENTIFIER
 API .                     N/A:  API NUMBER
 WTYP.                Deviated:  WELL TYPE
 MDS .        Operator Entered:  MAG DATA SOURCE
 BASE.              Azerbaijan:  LOGGING EQUIPMENT BASE LOCATION
 REGN.                   EESSA:  REGION
 PROV.                    Baku:  PROVINCE
 STAT.                    Baku:  STATE NAME
 SRVC.          Turan Drilling:  CONTRACTOR
 MWDS.                    Baku:  MWD SHOP
 JOBN.        AZ-XX-0906699554:  JOB TICKET NUMB
 RIG .           Central Azeri:  RIG NAME
 DOE .                     N/A:  DOE NUMBER
 DCON.         Sperry Drilling:  DIRECTNL CONTR
 UNIT.                     N/A:  LOGGING EQUIPMENT ID
 CNTY.                        :  COUNTY
 LOC .                        :  LOCATION
 LMF .             Drill Floor:  LOG MEASURED FROM
 TVDS.m                  43.29:  TVDSS CORRECTN
 LATI.deg                40.03:  LATITUDE
 LONG.deg                51.35:  LONGITUDE
 WHNS.m                  -2.76:  WELL HEAD N/S
 WHEW.m                  -7.70:  WELL HEAD E/W
 UTMX.m              530128.28:  UTM X
 UTMY.m             4433192.49:  UTM Y
 DFWL.m                   0.00:  DISTANCE FWL
 DFSL.m                   0.00:  DISTANCE FSL
 SDEP.m                3435.01:  START DEPTH
 TDD .m                3814.01:  TOTAL DEPTH (DRILLER)
 VSDR.deg               352.80:  VERT SEC DIRECT
 GVFD.g                   1.00:  GRAVITY FIELD
 MFLD.nT              50303.00:  MAGNETIC FIELD
 MDIP.deg                59.52:  MAGNETIC DIP
 MDEC.deg                 6.47:  MAGNETIC DECL
 GRDC.deg                 0.23:  GRID CORRECTION
 AZTC.deg                 6.24:  AZM TOTAL CORR
 EPD .m                   0.00:  ELEVATION
 EGL .m                   0.00:  GROUND ELEVATION
 WDMS.m                 128.20:  WD ELEV
 APD .m                  43.29:  DEPTH ABOVE PD
 DEP .m                3421.30:  DEPTH
 AGAP.m                  43.60:  AIR GAP
 VSEW.m                  -7.70:  VERT SEC E/W
 VSNS.m                  -2.76:  VERT SEC N/S
 EKB .m                   0.00:  KB ELEVATION
 EDF .m                  43.29:  DF ELEVATION
 TDL .m                 369.00:  TOTAL DEPTH (LOGGER)
 VSC .                       0:  VS TO CLOSURE
 MAGU.                 1850390:  MAGUTM CHECKSUM
~Parameter Information Block
#MNEM.UNIT       Value        Description
#---------     -----------    ---------------------------
 AV  .mps                 2.80:  Ann Velocity 
 AVMX.mps                 4.67:  Max Ann Veloc 
 AZIF.deg               303.89:  Azm, Final 
 BHAT.        Rotary Steerable:  BHA Type 
 BREV.rev            128542.00:  Rev Bit Total 
 BROT.°/30m               1.50:  Build Rotating 
 BS  .in                  8.50:  Bit Size 
 BSZ .in                  8.50:  Bit Size 
 BTPL.psig              715.00:  Bit Press Loss 
 CABU.                      No:  Customer Abuse 
 COMM.                     ¤’i:  Run Comments 1 
 TCS .hr                 53.00:  Time Ciculation Ended 
 CV  .mps                 3.85:  Crit Velocity 
 CVMX.mps                 4.75:  Max Crit Veloc 
 DD1 .         Intigam Rahimov:  Direct Drillr 1 
 DDSV.                 iCruise:  DD Service 
 DEFF.%                  98.60:  % Det Eff 
 DLRX.°/30m               2.34:  Dogleg Rot Max 
 DLSO.°/30m               0.00:  Dogleg Oriented 
 DLSX.°/30m               0.00:  Dogleg Str Max 
 DRET.      00.15.00 05-Jan-21:  Drill End Time 
 DRST.      22.00.00 03-Jan-21:  Drill Start Tim 
 DTIM.hr                 17.72:  Time Drilling 
 EDEP.m                3814.01:  End Depth 
 ENG1.         Yevgeniy Ulikov:  Engineer 1 
 ENG2.        Farkhad Khalidov:  Engineer 2 
 ENG3.           Samir Gafarov:  Engineer 3 
 ETIM.      21.00.00 07-Jan-21:  End Time 
 FLOI.gpm               590.00:  Flow In 
 FLON.gpm               580.00:  Flow In Min 
 FLOS.cptm                1.00:  Fluid Loss 
 FLOX.gpm               595.00:  Flow In Max 
 FTRO.     Connectivity, Formation Presure:  FTWD Run Obj 
 HFLO.                      No:  High Flow 
 HPRE.                     Yes:  High Pressure 
 HTEM.                      No:  High Temp 
 HYDO.m                   1.80:  Hydro Offset 
 IFIN.deg                63.76:  Inc, Final 
 IMAX.deg                64.09:  Inc Max 
 IMIN.deg                55.81:  Inc Min 
 IMND.m                3455.62:  Inc Min Depth 
 IMXD.m                3796.03:  Inc Max Depth 
 JARR.                      No:  Jarring 
 LETM.      00.15.00 05-Jan-21:  Log End Time 
 LOST.hr                     0:  Lost Rig Time 
 LSTM.      22.00.00 03-Jan-21:  Log Start Time 
 MDCL.ppm             36000.00:  Mud Chlorides 
 MDES.     Inversion Oil/Synthetic:  Mud Desc 
 DFD .sg                  1.51:  Mud Density 
 MDMN.sg                  1.51:  Dens Mud Min 
 MDMX.sg                  1.51:  Dens Mud Max 
 MOIL.                    55.5:  Run Mud Oil % 
 MOWR.                   70:30:  Run Mud OWR 
 MSND.                     0.1:  Run Mud Sand % 
 MSOL.                   20.77:  Run Mud Solids% 
 DFV .spqt               67.00:  Mud Viscosity 
 MWOD.in                  6.75:  MWD Tool OD 
 MWSI.                      No:  Serv Intrp, MWD 
 OTIM.hr                113.53:  Time Operating 
 PCON.           Look Like New:  Pad Condition 
 PMAX.psia             4830.00:  Press Op, Max 
 PV  .cP                 29.00:  Mud PV 
 RUN .                     300:  Run Number 
 ROPA.m/hr               22.00:  ROP Avg 
 ROPN.m/hr               18.00:  ROP Min 
 ROPX.m/hr               25.00:  ROP Max 
 RPMA.rpm               130.00:  RPM Surface Avg 
 RPMN.rpm                80.00:  RPM Surface Min 
 RPMX.rpm               140.00:  RPM Surface Max 
 RRUN.                    L101:  Rig Run Number 
 RTIM.hr                  9.28:  Time Reaming 
 SAZI.deg               316.55:  Azm, Start 
 SDEP.m                3445.01:  Start Depth 
 SIDD.                      No:  Serv Intrp, DD 
 SINC.deg                55.81:  Inc, Start 
 SPPA.psig             4500.00:  SPP Avg 
 SPPN.psig             4350.00:  SPP Min 
 SPPX.psig             4830.00:  SPP Max 
 STIM.      00.00.00 03-Jan-21:  Start Time 
 SVCS.                 DD, MWD:  Services 
 SVER.                    9.20:  Sperry Version 
 TDAT.m                 369.00:  Tot Depth Attmp 
 TDDF.                      No:  Trip for DD 
 TDLG.m                 369.00:  Tot Depth Loggd 
 TFF .                      No:  Trip for Fail 
 TQAA.f-kp               15.00:  Torque Abs Avg 
 TQAN.f-kp               12.00:  Torque Abs Min 
 TQAX.f-kp               16.00:  Torque Abs Max 
 TRRT.°/30m              -2.10:  Turn Rotating 
 MRT .                    HCIM:  Maximum Recorded Temperature 
 TTMX.degC               92.16:  Max Tool Temp 
 VS01.                90627822:  Virtual Str1 SN 
 VS02.                90550008:  Virtual Str2 SN 
 VS03.                90627816:  Virtual Str3 SN 
 VS04.                90633205:  Virtual Str4 SN 
 VS05.                13033835:  Virtual Str5 SN 
 VS06.                11125125:  Virtual Str6 SN 
 WBMN.klb                 8.00:  WOB Min 
 WITN.            Bruce Cheyne:  Customer Rep 
 WITN.           Faig Mammadov:  Customer Rep 2 
 WOBA.klb                 9.00:  WOB Avg 
 WOBX.klb                12.00:  WOB Max 
 YP  .lhf2               30.00:  Yield Point 
~Curve Information Block
#MNEM.UNIT                 API CODE     Curve Description
#---------               -----------    ---------------------------
 TIME.HHMMSS            00 000 000 000:  GT Time & Date
 GTET.sec               00 000 000 000:  GT Elapsed Test Time
 GTPQH.psia             00 000 000 000:  GT HR Quartz Pressure
 GTDEPTH.m              00 000 000 000:  GT Depth
 GTTVD.m                00 000 000 000:  GT True Vertical Depth
 GTTQ.degC              00 000 000 000:  GT Quartz Temperature
 GTTN.NONE              00 000 000 000:  GT Test Number
#Other Information
#
#WARRANTY: Halliburton will use its best efforts to furnish customers with 
#accurate information and interpretations that are part of, and incident to, the services 
#provided.  However, Halliburton cannot and does not warrant the accuracy 
#or correctness of such information and interpretations.  Under no circumstances should any 
#such information or interpretation be relied upon as the sole basis for any drilling, 
#completion, production, or financial decision or any procedure involving any risk to the 
#safety of any drilling venture, drilling rig or its crew or any other third party.  The 
#Customer has full responsibility for all drilling, completion and production operation.  
#Halliburton makes no representations or warranties, either expressed or 
#implied, including, but not limited to, the implied warranties of merchantability or fitness 
#for a particular purpose, with respect to the services rendered.  In no event will 
#Halliburton be liable for failure to obtain any particular results or for 
#any damages, including, but not limited to, indirect, special or consequential damages, 
#resulting from the use of any information or interpretation provided by Halliburton.
#
~A           TIME            GTET   GTPQH  GTDEPTH  GTTVD  GTTQ  GTTN 
# ...
   08:26:17.552.05-Jan-2021 460.17 7460.07 3649.01 3076.03 80.65 5.00
   08:26:17.752.05-Jan-2021 460.37 7459.19 3649.01 3076.03 80.65 5.00
   08:26:17.952.05-Jan-2021 460.57 7458.88 3649.01 3076.03 80.65 5.00
   08:26:18.152.05-Jan-2021 460.77 7458.26 3649.01 3076.03 80.65 5.00
   08:26:18.353.05-Jan-2021 460.97 7458.14 3649.01 3076.03 80.65 5.00
   08:26:18.553.05-Jan-2021 461.17 7457.91 3649.01 3076.03 80.65 5.00
   08:26:18.753.05-Jan-2021 461.37 7457.91 3649.01 3076.03 80.65 5.00
   08:26:18.953.05-Jan-2021 461.57 7457.86 3649.01 3076.03 80.65 5.00
   08:26:19.153.05-Jan-2021 461.77 7463.53 3649.01 3076.03 80.65 5.00
   08:26:19.353.05-Jan-2021 461.97 7458.06 3649.01 3076.03 80.65 5.00
   08:26:19.553.05-Jan-2021 462.17 7463.67 3649.01 3076.03 80.65 5.00
   08:26:19.753.05-Jan-2021 462.37 7463.67 3649.01 3076.03 80.65 5.00
   08:26:19.953.05-Jan-2021 462.57 7459.55 3649.01 3076.03 80.65 5.00
   08:26:20.153.05-Jan-2021 462.77 7459.50 3649.01 3076.03 80.65 5.00
   08:26:20.353.05-Jan-2021 462.97 7469.41 3649.01 3076.03 80.65 5.00
   08:26:20.553.05-Jan-2021 463.17 7453.68 3649.01 3076.03 80.65 5.00
   08:26:20.753.05-Jan-2021 463.37 7453.68 3649.01 3076.03 80.65 5.00
   08:26:20.953.05-Jan-2021 463.57 7466.82 3649.01 3076.03 80.65 5.00
   08:26:21.154.05-Jan-2021 463.77 7455.19 3649.01 3076.03 80.65 5.00
   08:26:21.354.05-Jan-2021 463.97 7464.17 3649.01 3076.03 80.65 5.00
   08:26:21.554.05-Jan-2021 464.17 7462.87 3649.01 3076.03 80.65 5.00
   08:26:21.754.05-Jan-2021 464.37 7462.87 3649.01 3076.03 80.65 5.00
   08:26:21.954.05-Jan-2021 464.57 7461.50 3649.01 3076.03 80.65 5.00
   08:26:22.154.05-Jan-2021 464.77 7459.99 3649.01 3076.03 80.65 5.00
   08:26:22.354.05-Jan-2021 464.97 7459.58 3649.01 3076.03 80.65 5.00
   08:26:22.554.05-Jan-2021 465.17 7459.73 3649.01 3076.03 80.65 5.00
   08:26:22.754.05-Jan-2021 465.37 7459.73 3649.01 3076.03 80.65 5.00
   08:26:22.954.05-Jan-2021 465.57 7460.53 3649.01 3076.03 80.65 5.00
   08:26:23.154.05-Jan-2021 465.77 7459.95 3649.01 3076.03 80.65 5.00
   08:26:23.354.05-Jan-2021 465.97 7459.32 3649.01 3076.03 80.65 5.00
   08:26:23.554.05-Jan-2021 466.17 7459.40 3649.01 3076.03 80.65 5.00
   08:26:23.755.05-Jan-2021 466.37 7459.40 3649.01 3076.03 80.65 5.00
   08:26:23.955.05-Jan-2021 466.57 7458.87 3649.01 3076.03 80.65 5.00
   08:26:24.155.05-Jan-2021 466.77 7458.89 3649.01 3076.03 80.65 5.00
   08:26:24.355.05-Jan-2021 466.97 7463.84 3649.01 3076.03 80.65 5.00
   08:26:24.555.05-Jan-2021 467.17 7457.96 3649.01 3076.03 80.65 5.00
   08:26:24.755.05-Jan-2021 467.37 7457.96 3649.01 3076.03 80.65 5.00
   08:26:24.955.05-Jan-2021 467.57 7459.48 3649.01 3076.03 80.65 5.00
   08:26:25.155.05-Jan-2021 467.77 7458.68 3649.01 3076.03 80.65 5.00
   08:26:25.355.05-Jan-2021 467.97 7458.68 3649.01 3076.03 80.65 5.00
   08:26:25.555.05-Jan-2021 468.17 7459.12 3649.01 3076.03 80.65 5.00
   08:26:25.755.05-Jan-2021 468.37 7458.09 3649.01 3076.03 80.65 5.00
   08:26:25.955.05-Jan-2021 468.57 7458.39 3649.01 3076.03 80.65 5.00
   08:26:26.155.05-Jan-2021 468.77 7458.17 3649.01 3076.03 80.65 5.00
   08:26:26.355.05-Jan-2021 468.97 7458.41 3649.01 3076.03 80.65 5.00
   08:26:26.556.05-Jan-2021 469.17 7458.31 3649.01 3076.03 80.65 5.00
   08:26:26.756.05-Jan-2021 469.37 7458.31 3649.01 3076.03 80.65 5.00
   08:26:26.956.05-Jan-2021 469.57 7468.56 3649.01 3076.03 80.65 5.00
   08:26:27.156.05-Jan-2021 469.77 7452.21 3649.01 3076.03 80.65 5.00
   08:26:27.356.05-Jan-2021 469.97 7460.15 3649.01 3076.03 80.65 5.00
   08:26:27.556.05-Jan-2021 470.17 7470.57 3649.01 3076.03 80.65 5.00
   08:26:27.756.05-Jan-2021 470.37 7470.57 3649.01 3076.03 80.65 5.00
   08:26:27.956.05-Jan-2021 470.57 7459.07 3649.01 3076.03 80.65 5.00
   08:26:28.156.05-Jan-2021 470.77 7459.06 3649.01 3076.03 80.65 5.00
   08:26:28.356.05-Jan-2021 470.97 7463.44 3649.01 3076.03 80.65 5.00
   08:26:28.556.05-Jan-2021 471.17 7458.67 3649.01 3076.03 80.65 5.00
   08:26:28.756.05-Jan-2021 471.37 7458.67 3649.01 3076.03 80.65 5.00
   08:26:28.956.05-Jan-2021 471.58 7453.62 3649.01 3076.03 80.65 5.00
   08:26:29.157.05-Jan-2021 471.78 7461.01 3649.01 3076.03 80.65 5.00
   08:26:29.357.05-Jan-2021 471.98 7458.80 3649.01 3076.03 80.65 5.00
   08:26:29.557.05-Jan-2021 472.18 7458.81 3649.01 3076.03 80.65 5.00
   08:26:29.757.05-Jan-2021 472.38 7470.23 3649.01 3076.03 80.65 5.00
   08:26:29.957.05-Jan-2021 472.58 7454.50 3649.01 3076.03 80.65 5.00
   08:26:30.157.05-Jan-2021 472.78 7461.31 3649.01 3076.03 80.65 5.00
   08:26:30.357.05-Jan-2021 472.98 7458.82 3649.01 3076.03 80.65 5.00
   08:26:30.557.05-Jan-2021 473.18 7458.26 3649.01 3076.03 80.65 5.00
   08:26:30.757.05-Jan-2021 473.38 7458.26 3649.01 3076.03 80.65 5.00
   08:26:30.957.05-Jan-2021 473.58 7459.26 3649.01 3076.03 80.65 5.00
   08:26:31.157.05-Jan-2021 473.78 7458.93 3649.01 3076.03 80.65 5.00
   08:26:31.357.05-Jan-2021 473.98 7458.22 3649.01 3076.03 80.65 5.00
   08:26:31.557.05-Jan-2021 474.18 7458.07 3649.01 3076.03 80.65 5.00
   08:26:31.757.05-Jan-2021 474.38 7458.07 3649.01 3076.03 80.65 5.00
   08:26:31.958.05-Jan-2021 474.58 7458.19 3649.01 3076.03 80.65 5.00
   08:26:32.158.05-Jan-2021 474.78 7457.61 3649.01 3076.03 80.65 5.00
   08:26:32.358.05-Jan-2021 474.98 7457.53 3649.01 3076.03 80.65 5.00
   08:26:32.558.05-Jan-2021 475.18 7461.12 3649.01 3076.03 80.64 5.00
   08:26:32.758.05-Jan-2021 475.38 7461.12 3649.01 3076.03 80.64 5.00
   08:26:32.958.05-Jan-2021 475.58 7459.01 3649.01 3076.03 80.64 5.00
   08:26:33.158.05-Jan-2021 475.78 7458.36 3649.01 3076.03 80.64 5.00
   08:26:33.358.05-Jan-2021 475.98 7457.01 3649.01 3076.03 80.64 5.00
   08:26:33.558.05-Jan-2021 476.18 7457.77 3649.01 3076.03 80.64 5.00
   08:26:33.758.05-Jan-2021 476.38 7456.74 3649.01 3076.03 80.64 5.00
   08:26:33.958.05-Jan-2021 476.58 7457.04 3649.01 3076.03 80.64 5.00
   08:26:34.158.05-Jan-2021 476.78 7455.31 3649.01 3076.03 80.64 5.00
   08:26:34.358.05-Jan-2021 476.98 7454.71 3649.01 3076.03 80.64 5.00
   08:26:34.559.05-Jan-2021 477.18 7454.91 3649.01 3076.03 80.64 5.00
   08:26:34.759.05-Jan-2021 477.38 7454.91 3649.01 3076.03 80.64 5.00
   08:26:34.959.05-Jan-2021 477.58 7453.83 3649.01 3076.03 80.64 5.00
   08:26:35.159.05-Jan-2021 477.78 7454.07 3649.01 3076.03 80.64 5.00
   08:26:35.359.05-Jan-2021 477.98 7467.89 3649.01 3076.03 80.64 5.00
   08:26:35.559.05-Jan-2021 478.18 7446.70 3649.01 3076.03 80.64 5.00
   08:26:35.759.05-Jan-2021 478.38 7446.70 3649.01 3076.03 80.64 5.00
   08:26:35.959.05-Jan-2021 478.58 7463.27 3649.01 3076.03 80.64 5.00
   08:26:36.159.05-Jan-2021 478.78 7449.96 3649.01 3076.03 80.64 5.00
   08:26:36.359.05-Jan-2021 478.98 7456.86 3649.01 3076.03 80.64 5.00
   08:26:36.559.05-Jan-2021 479.18 7457.39 3649.01 3076.03 80.64 5.00
   08:26:36.759.05-Jan-2021 479.38 7457.39 3649.01 3076.03 80.64 5.00
   08:26:36.959.05-Jan-2021 479.58 7455.08 3649.01 3076.03 80.64 5.00
   08:26:37.160.05-Jan-2021 479.78 7457.91 3649.01 3076.03 80.64 5.00
   08:26:37.360.05-Jan-2021 479.98 7461.79 3649.01 3076.03 80.64 5.00
   08:26:37.560.05-Jan-2021 480.18 7454.91 3649.01 3076.03 80.64 5.00
   08:26:37.760.05-Jan-2021 480.38 7457.41 3649.01 3076.03 80.64 5.00
   08:26:37.960.05-Jan-2021 480.58 7469.87 3649.01 3076.03 80.64 5.00
   08:26:38.160.05-Jan-2021 480.78 7448.69 3649.01 3076.03 80.64 5.00
   08:26:38.360.05-Jan-2021 480.98 7456.94 3649.01 3076.03 80.64 5.00
   08:26:38.560.05-Jan-2021 481.18 7456.85 3649.01 3076.03 80.64 5.00
   08:26:38.760.05-Jan-2021 481.38 7456.85 3649.01 3076.03 80.64 5.00
   08:26:38.960.05-Jan-2021 481.58 7457.62 3649.01 3076.03 80.64 5.00
   08:26:39.160.05-Jan-2021 481.78 7456.86 3649.01 3076.03 80.64 5.00
   08:26:39.360.05-Jan-2021 481.98 7455.63 3649.01 3076.03 80.64 5.00
   08:26:39.560.05-Jan-2021 482.18 7455.94 3649.01 3076.03 80.64 5.00
   08:26:39.760.05-Jan-2021 482.38 7455.94 3649.01 3076.03 80.64 5.00
   08:26:39.961.05-Jan-2021 482.58 7456.32 3649.01 3076.03 80.64 5.00
   08:26:40.161.05-Jan-2021 482.78 7455.76 3649.01 3076.03 80.64 5.00
   08:26:40.361.05-Jan-2021 482.98 7455.61 3649.01 3076.03 80.64 5.00
