~Version Information
 VERS.                  2.0:   CWLS log ASCII Standard -VERSION 2.0
 WRAP.                   NO:   One line per depth step
~Well Information Block
#MNEM.UNIT     VALUE/NAME     DESCRIPTION
#---------     -----------    ---------------------------
 STRT.S             08:46:17 05-Jan-21: START TIME 08:46:17 05-Jan-21
 STOP.S             08:54:30 05-Jan-21: STOP TIME  08:54:30 05-Jan-21
 STEP.S                   0.00: STEP TIME
 NULL.                 -999.25: NULL VALUE
 DFWT.                        :  DIST FWL TEXT
 DFST.                        :  DIST FSL TEXT
 DMF .             Drill Floor:  DRILL MEAS FROM
 STIM.      06.00.00 31-Dec-20:  START TIME
 DATE.      05.58.24 07-Jan-21:  END TIME
 SPUD.               24-Dec-20:  SPUD DATE
 NREF.                    Grid:  NORTH REFERENCE
 HPTY.       Minimum Curvature:  HOLE POS TYPE
 DMOD.             Drill Model:  DRILL MOD DESC
 SVYD.                  Survey:  SURVEY DESC
 ILTD.               Lithology:  INTERP LTH DESC
 FTOP.          Formation Tops:  FORM TOPS DESC
 SON .        AZ-XX-0906699554:  JOB NUMBER
 WELL.                    B09z:  WELL NAME
 PDAT.          Mean Sea Level:  PERMANENT DATUM
 FLD .                     ACG:  FIELD NAME
 CTRY.              Azerbaijan:  COUNTRY NAME
 COMP.     BP Exploration (Caspian Sea) Ltd.:  COMPANY
 UWI .                     N/A:  UNIQUE WELL IDENTIFIER
 API .                     N/A:  API NUMBER
 WTYP.                Deviated:  WELL TYPE
 MDS .        Operator Entered:  MAG DATA SOURCE
 BASE.              Azerbaijan:  LOGGING EQUIPMENT BASE LOCATION
 REGN.                   EESSA:  REGION
 PROV.                    Baku:  PROVINCE
 STAT.                    Baku:  STATE NAME
 SRVC.          Turan Drilling:  CONTRACTOR
 MWDS.                    Baku:  MWD SHOP
 JOBN.        AZ-XX-0906699554:  JOB TICKET NUMB
 RIG .           Central Azeri:  RIG NAME
 DOE .                     N/A:  DOE NUMBER
 DCON.         Sperry Drilling:  DIRECTNL CONTR
 UNIT.                     N/A:  LOGGING EQUIPMENT ID
 CNTY.                        :  COUNTY
 LOC .                        :  LOCATION
 LMF .             Drill Floor:  LOG MEASURED FROM
 TVDS.m                  43.29:  TVDSS CORRECTN
 LATI.deg                40.03:  LATITUDE
 LONG.deg                51.35:  LONGITUDE
 WHNS.m                  -2.76:  WELL HEAD N/S
 WHEW.m                  -7.70:  WELL HEAD E/W
 UTMX.m              530128.28:  UTM X
 UTMY.m             4433192.49:  UTM Y
 DFWL.m                   0.00:  DISTANCE FWL
 DFSL.m                   0.00:  DISTANCE FSL
 SDEP.m                3435.01:  START DEPTH
 TDD .m                3814.01:  TOTAL DEPTH (DRILLER)
 VSDR.deg               352.80:  VERT SEC DIRECT
 GVFD.g                   1.00:  GRAVITY FIELD
 MFLD.nT              50303.00:  MAGNETIC FIELD
 MDIP.deg                59.52:  MAGNETIC DIP
 MDEC.deg                 6.47:  MAGNETIC DECL
 GRDC.deg                 0.23:  GRID CORRECTION
 AZTC.deg                 6.24:  AZM TOTAL CORR
 EPD .m                   0.00:  ELEVATION
 EGL .m                   0.00:  GROUND ELEVATION
 WDMS.m                 128.20:  WD ELEV
 APD .m                  43.29:  DEPTH ABOVE PD
 DEP .m                3421.30:  DEPTH
 AGAP.m                  43.60:  AIR GAP
 VSEW.m                  -7.70:  VERT SEC E/W
 VSNS.m                  -2.76:  VERT SEC N/S
 EKB .m                   0.00:  KB ELEVATION
 EDF .m                  43.29:  DF ELEVATION
 TDL .m                 369.00:  TOTAL DEPTH (LOGGER)
 VSC .                       0:  VS TO CLOSURE
 MAGU.                 1850390:  MAGUTM CHECKSUM
~Parameter Information Block
#MNEM.UNIT       Value        Description
#---------     -----------    ---------------------------
 AV  .mps                 2.80:  Ann Velocity 
 AVMX.mps                 4.67:  Max Ann Veloc 
 AZIF.deg               303.89:  Azm, Final 
 BHAT.        Rotary Steerable:  BHA Type 
 BREV.rev            128542.00:  Rev Bit Total 
 BROT.°/30m               1.50:  Build Rotating 
 BS  .in                  8.50:  Bit Size 
 BSZ .in                  8.50:  Bit Size 
 BTPL.psig              715.00:  Bit Press Loss 
 CABU.                      No:  Customer Abuse 
 COMM.                     Œã}:  Run Comments 1 
 TCS .hr                 53.00:  Time Ciculation Ended 
 CV  .mps                 3.85:  Crit Velocity 
 CVMX.mps                 4.75:  Max Crit Veloc 
 DD1 .         Intigam Rahimov:  Direct Drillr 1 
 DDSV.                 iCruise:  DD Service 
 DEFF.%                  98.60:  % Det Eff 
 DLRX.°/30m               2.34:  Dogleg Rot Max 
 DLSO.°/30m               0.00:  Dogleg Oriented 
 DLSX.°/30m               0.00:  Dogleg Str Max 
 DRET.      00.15.00 05-Jan-21:  Drill End Time 
 DRST.      22.00.00 03-Jan-21:  Drill Start Tim 
 DTIM.hr                 17.72:  Time Drilling 
 EDEP.m                3814.01:  End Depth 
 ENG1.         Yevgeniy Ulikov:  Engineer 1 
 ENG2.        Farkhad Khalidov:  Engineer 2 
 ENG3.           Samir Gafarov:  Engineer 3 
 ETIM.      21.00.00 07-Jan-21:  End Time 
 FLOI.gpm               590.00:  Flow In 
 FLON.gpm               580.00:  Flow In Min 
 FLOS.cptm                1.00:  Fluid Loss 
 FLOX.gpm               595.00:  Flow In Max 
 FTRO.     Connectivity, Formation Presure:  FTWD Run Obj 
 HFLO.                      No:  High Flow 
 HPRE.                     Yes:  High Pressure 
 HTEM.                      No:  High Temp 
 HYDO.m                   1.80:  Hydro Offset 
 IFIN.deg                63.76:  Inc, Final 
 IMAX.deg                64.09:  Inc Max 
 IMIN.deg                55.81:  Inc Min 
 IMND.m                3455.62:  Inc Min Depth 
 IMXD.m                3796.03:  Inc Max Depth 
 JARR.                      No:  Jarring 
 LETM.      00.15.00 05-Jan-21:  Log End Time 
 LOST.hr                     0:  Lost Rig Time 
 LSTM.      22.00.00 03-Jan-21:  Log Start Time 
 MDCL.ppm             36000.00:  Mud Chlorides 
 MDES.     Inversion Oil/Synthetic:  Mud Desc 
 DFD .sg                  1.51:  Mud Density 
 MDMN.sg                  1.51:  Dens Mud Min 
 MDMX.sg                  1.51:  Dens Mud Max 
 MOIL.                    55.5:  Run Mud Oil % 
 MOWR.                   70:30:  Run Mud OWR 
 MSND.                     0.1:  Run Mud Sand % 
 MSOL.                   20.77:  Run Mud Solids% 
 DFV .spqt               67.00:  Mud Viscosity 
 MWOD.in                  6.75:  MWD Tool OD 
 MWSI.                      No:  Serv Intrp, MWD 
 OTIM.hr                113.53:  Time Operating 
 PCON.           Look Like New:  Pad Condition 
 PMAX.psia             4830.00:  Press Op, Max 
 PV  .cP                 29.00:  Mud PV 
 RUN .                     300:  Run Number 
 ROPA.m/hr               22.00:  ROP Avg 
 ROPN.m/hr               18.00:  ROP Min 
 ROPX.m/hr               25.00:  ROP Max 
 RPMA.rpm               130.00:  RPM Surface Avg 
 RPMN.rpm                80.00:  RPM Surface Min 
 RPMX.rpm               140.00:  RPM Surface Max 
 RRUN.                    L101:  Rig Run Number 
 RTIM.hr                  9.28:  Time Reaming 
 SAZI.deg               316.55:  Azm, Start 
 SDEP.m                3445.01:  Start Depth 
 SIDD.                      No:  Serv Intrp, DD 
 SINC.deg                55.81:  Inc, Start 
 SPPA.psig             4500.00:  SPP Avg 
 SPPN.psig             4350.00:  SPP Min 
 SPPX.psig             4830.00:  SPP Max 
 STIM.      00.00.00 03-Jan-21:  Start Time 
 SVCS.                 DD, MWD:  Services 
 SVER.                    9.20:  Sperry Version 
 TDAT.m                 369.00:  Tot Depth Attmp 
 TDDF.                      No:  Trip for DD 
 TDLG.m                 369.00:  Tot Depth Loggd 
 TFF .                      No:  Trip for Fail 
 TQAA.f-kp               15.00:  Torque Abs Avg 
 TQAN.f-kp               12.00:  Torque Abs Min 
 TQAX.f-kp               16.00:  Torque Abs Max 
 TRRT.°/30m              -2.10:  Turn Rotating 
 MRT .                    HCIM:  Maximum Recorded Temperature 
 TTMX.degC               92.16:  Max Tool Temp 
 VS01.                90627822:  Virtual Str1 SN 
 VS02.                90550008:  Virtual Str2 SN 
 VS03.                90627816:  Virtual Str3 SN 
 VS04.                90633205:  Virtual Str4 SN 
 VS05.                13033835:  Virtual Str5 SN 
 VS06.                11125125:  Virtual Str6 SN 
 WBMN.klb                 8.00:  WOB Min 
 WITN.            Bruce Cheyne:  Customer Rep 
 WITN.           Faig Mammadov:  Customer Rep 2 
 WOBA.klb                 9.00:  WOB Avg 
 WOBX.klb                12.00:  WOB Max 
 YP  .lhf2               30.00:  Yield Point 
~Curve Information Block
#MNEM.UNIT                 API CODE     Curve Description
#---------               -----------    ---------------------------
 TIME.HHMMSS            00 000 000 000:  GT Time & Date
 GTET.sec               00 000 000 000:  GT Elapsed Test Time
 GTPQH.psia             00 000 000 000:  GT HR Quartz Pressure
 GTDEPTH.m              00 000 000 000:  GT Depth
 GTTVD.m                00 000 000 000:  GT True Vertical Depth
 GTTQ.degC              00 000 000 000:  GT Quartz Temperature
 GTTN.NONE              00 000 000 000:  GT Test Number
#Other Information
#
#WARRANTY: Halliburton will use its best efforts to furnish customers with 
#accurate information and interpretations that are part of, and incident to, the services 
#provided.  However, Halliburton cannot and does not warrant the accuracy 
#or correctness of such information and interpretations.  Under no circumstances should any 
#such information or interpretation be relied upon as the sole basis for any drilling, 
#completion, production, or financial decision or any procedure involving any risk to the 
#safety of any drilling venture, drilling rig or its crew or any other third party.  The 
#Customer has full responsibility for all drilling, completion and production operation.  
#Halliburton makes no representations or warranties, either expressed or 
#implied, including, but not limited to, the implied warranties of merchantability or fitness 
#for a particular purpose, with respect to the services rendered.  In no event will 
#Halliburton be liable for failure to obtain any particular results or for 
#any damages, including, but not limited to, indirect, special or consequential damages, 
#resulting from the use of any information or interpretation provided by Halliburton.
#
~A           TIME            GTET   GTPQH  GTDEPTH  GTTVD  GTTQ  GTTN 
# ...
   08:53:35.160.05-Jan-2021 437.16 4605.19 3625.51 3064.84 79.94 6.00
   08:53:35.360.05-Jan-2021 437.36 4605.19 3625.51 3064.84 79.94 6.00
   08:53:35.560.05-Jan-2021 437.56 4604.91 3625.51 3064.84 79.94 6.00
   08:53:35.760.05-Jan-2021 437.76 4605.25 3625.51 3064.84 79.94 6.00
   08:53:35.960.05-Jan-2021 437.96 4605.28 3625.51 3064.84 79.94 6.00
   08:53:36.160.05-Jan-2021 438.16 4605.39 3625.51 3064.84 79.94 6.00
   08:53:36.360.05-Jan-2021 438.36 4605.39 3625.51 3064.84 79.94 6.00
   08:53:36.561.05-Jan-2021 438.56 4605.36 3625.51 3064.84 79.94 6.00
   08:53:36.761.05-Jan-2021 438.76 4605.22 3625.51 3064.84 79.94 6.00
   08:53:36.961.05-Jan-2021 438.96 4605.33 3625.51 3064.84 79.94 6.00
   08:53:37.161.05-Jan-2021 439.16 4605.37 3625.51 3064.84 79.94 6.00
   08:53:37.361.05-Jan-2021 439.36 4605.20 3625.51 3064.84 79.94 6.00
   08:53:37.561.05-Jan-2021 439.56 4605.20 3625.51 3064.84 79.94 6.00
   08:53:37.761.05-Jan-2021 439.76 4605.18 3625.51 3064.84 79.94 6.00
   08:53:37.961.05-Jan-2021 439.96 4605.24 3625.51 3064.84 79.94 6.00
   08:53:38.161.05-Jan-2021 440.16 4605.15 3625.51 3064.84 79.94 6.00
   08:53:38.361.05-Jan-2021 440.36 4605.15 3625.51 3064.84 79.94 6.00
   08:53:38.561.05-Jan-2021 440.56 4605.16 3625.51 3064.84 79.94 6.00
   08:53:38.761.05-Jan-2021 440.76 4605.14 3625.51 3064.84 79.94 6.00
   08:53:38.961.05-Jan-2021 440.96 4605.23 3625.51 3064.84 79.94 6.00
   08:53:39.162.05-Jan-2021 441.16 4604.55 3625.51 3064.84 79.94 6.00
   08:53:39.362.05-Jan-2021 441.36 4604.55 3625.51 3064.84 79.94 6.00
   08:53:39.562.05-Jan-2021 441.56 4605.28 3625.51 3064.84 79.94 6.00
   08:53:39.762.05-Jan-2021 441.76 4605.32 3625.51 3064.84 79.94 6.00
   08:53:39.962.05-Jan-2021 441.96 4605.23 3625.51 3064.84 79.94 6.00
   08:53:40.162.05-Jan-2021 442.16 4605.17 3625.51 3064.84 79.94 6.00
   08:53:40.362.05-Jan-2021 442.36 4605.17 3625.51 3064.84 79.94 6.00
   08:53:40.562.05-Jan-2021 442.56 4605.18 3625.51 3064.84 79.94 6.00
   08:53:40.762.05-Jan-2021 442.76 4605.18 3625.51 3064.84 79.94 6.00
   08:53:40.962.05-Jan-2021 442.96 4605.14 3625.51 3064.84 79.94 6.00
   08:53:41.162.05-Jan-2021 443.16 4605.16 3625.51 3064.84 79.94 6.00
   08:53:41.362.05-Jan-2021 443.36 4605.16 3625.51 3064.84 79.94 6.00
   08:53:41.562.05-Jan-2021 443.56 4605.20 3625.51 3064.84 79.94 6.00
   08:53:41.762.05-Jan-2021 443.76 4604.58 3625.51 3064.84 79.94 6.00
   08:53:41.963.05-Jan-2021 443.96 4605.23 3625.51 3064.84 79.94 6.00
   08:53:42.163.05-Jan-2021 444.16 4605.14 3625.51 3064.84 79.94 6.00
   08:53:42.363.05-Jan-2021 444.36 4605.14 3625.51 3064.84 79.94 6.00
   08:53:42.563.05-Jan-2021 444.57 4605.50 3625.51 3064.84 79.94 6.00
   08:53:42.763.05-Jan-2021 444.77 4605.28 3625.51 3064.84 79.94 6.00
   08:53:42.963.05-Jan-2021 444.97 4605.26 3625.51 3064.84 79.94 6.00
   08:53:43.163.05-Jan-2021 445.17 4605.24 3625.51 3064.84 79.94 6.00
   08:53:43.363.05-Jan-2021 445.37 4605.24 3625.51 3064.84 79.94 6.00
   08:53:43.563.05-Jan-2021 445.57 4604.89 3625.51 3064.84 79.94 6.00
   08:53:43.763.05-Jan-2021 445.77 4605.21 3625.51 3064.84 79.94 6.00
   08:53:43.963.05-Jan-2021 445.97 4605.29 3625.51 3064.84 79.93 6.00
   08:53:44.163.05-Jan-2021 446.17 4605.32 3625.51 3064.84 79.93 6.00
   08:53:44.363.05-Jan-2021 446.37 4605.32 3625.51 3064.84 79.93 6.00
   08:53:44.564.05-Jan-2021 446.57 4604.59 3625.51 3064.84 79.93 6.00
   08:53:44.764.05-Jan-2021 446.77 4605.26 3625.51 3064.84 79.93 6.00
   08:53:44.964.05-Jan-2021 446.97 4605.24 3625.51 3064.84 79.93 6.00
   08:53:45.164.05-Jan-2021 447.17 4605.34 3625.51 3064.84 79.93 6.00
   08:53:45.364.05-Jan-2021 447.37 4605.31 3625.51 3064.84 79.93 6.00
   08:53:45.564.05-Jan-2021 447.57 4604.73 3625.51 3064.84 79.93 6.00
   08:53:45.764.05-Jan-2021 447.77 4605.19 3625.51 3064.84 79.93 6.00
   08:53:45.964.05-Jan-2021 447.97 4605.29 3625.51 3064.84 79.93 6.00
   08:53:46.164.05-Jan-2021 448.17 4605.42 3625.51 3064.84 79.93 6.00
   08:53:46.364.05-Jan-2021 448.37 4605.42 3625.51 3064.84 79.93 6.00
   08:53:46.564.05-Jan-2021 448.57 4605.21 3625.51 3064.84 79.93 6.00
   08:53:46.764.05-Jan-2021 448.77 4600.48 3625.51 3064.84 79.93 6.00
   08:53:46.964.05-Jan-2021 448.97 4582.01 3625.51 3064.84 79.93 6.00
   08:53:47.164.05-Jan-2021 449.17 5325.98 3625.51 3064.84 79.93 6.00
   08:53:47.365.05-Jan-2021 449.37 5325.98 3625.51 3064.84 79.93 6.00
   08:53:47.565.05-Jan-2021 449.57 7387.27 3625.51 3064.84 79.93 6.00
   08:53:47.765.05-Jan-2021 449.77 7386.30 3625.51 3064.84 79.93 6.00
   08:53:47.965.05-Jan-2021 449.97 7386.17 3625.51 3064.84 79.93 6.00
   08:53:48.165.05-Jan-2021 450.17 7386.37 3625.51 3064.84 79.94 6.00
   08:53:48.365.05-Jan-2021 450.37 7386.37 3625.51 3064.84 79.94 6.00
   08:53:48.565.05-Jan-2021 450.57 7387.62 3625.51 3064.84 79.94 6.00
   08:53:48.765.05-Jan-2021 450.77 7390.23 3625.51 3064.84 79.94 6.00
   08:53:48.965.05-Jan-2021 450.97 7388.61 3625.51 3064.84 79.94 6.00
   08:53:49.165.05-Jan-2021 451.17 7388.66 3625.51 3064.84 79.94 6.00
   08:53:49.365.05-Jan-2021 451.37 7389.87 3625.51 3064.84 79.94 6.00
   08:53:49.565.05-Jan-2021 451.57 7389.36 3625.51 3064.84 79.95 6.00
   08:53:49.765.05-Jan-2021 451.77 7389.79 3625.51 3064.84 79.95 6.00
   08:53:49.966.05-Jan-2021 451.97 7390.17 3625.51 3064.84 79.95 6.00
   08:53:50.166.05-Jan-2021 452.17 7390.51 3625.51 3064.84 79.95 6.00
   08:53:50.366.05-Jan-2021 452.37 7390.51 3625.51 3064.84 79.95 6.00
   08:53:50.566.05-Jan-2021 452.57 7390.96 3625.51 3064.84 79.96 6.00
   08:53:50.766.05-Jan-2021 452.77 7391.49 3625.51 3064.84 79.96 6.00
   08:53:50.966.05-Jan-2021 452.97 7403.19 3625.51 3064.84 79.96 6.00
   08:53:51.166.05-Jan-2021 453.17 7389.39 3625.51 3064.84 79.97 6.00
   08:53:51.366.05-Jan-2021 453.37 7389.39 3625.51 3064.84 79.97 6.00
   08:53:51.566.05-Jan-2021 453.57 7399.28 3625.51 3064.84 79.97 6.00
   08:53:51.766.05-Jan-2021 453.77 7394.22 3625.51 3064.84 79.97 6.00
   08:53:51.966.05-Jan-2021 453.97 7396.36 3625.51 3064.84 79.97 6.00
   08:53:52.166.05-Jan-2021 454.17 7392.91 3625.51 3064.84 79.98 6.00
   08:53:52.366.05-Jan-2021 454.37 7392.91 3625.51 3064.84 79.98 6.00
   08:53:52.566.05-Jan-2021 454.57 7408.51 3625.51 3064.84 79.98 6.00
   08:53:52.767.05-Jan-2021 454.77 7385.25 3625.51 3064.84 79.98 6.00
   08:53:52.967.05-Jan-2021 454.97 7394.64 3625.51 3064.84 79.98 6.00
   08:53:53.167.05-Jan-2021 455.17 7392.57 3625.51 3064.84 79.99 6.00
   08:53:53.367.05-Jan-2021 455.37 7394.10 3625.51 3064.84 79.99 6.00
   08:53:53.567.05-Jan-2021 455.57 7393.88 3625.51 3064.84 79.99 6.00
   08:53:53.767.05-Jan-2021 455.77 7401.36 3625.51 3064.84 79.99 6.00
   08:53:53.967.05-Jan-2021 455.97 7394.76 3625.51 3064.84 79.99 6.00
   08:53:54.167.05-Jan-2021 456.17 7396.58 3625.51 3064.84 79.99 6.00
   08:53:54.367.05-Jan-2021 456.37 7396.58 3625.51 3064.84 79.99 6.00
   08:53:54.567.05-Jan-2021 456.57 7397.28 3625.51 3064.84 80.00 6.00
   08:53:54.767.05-Jan-2021 456.77 7400.51 3625.51 3064.84 80.00 6.00
   08:53:54.967.05-Jan-2021 456.97 7395.29 3625.51 3064.84 80.00 6.00
   08:53:55.167.05-Jan-2021 457.17 7398.82 3625.51 3064.84 80.00 6.00
   08:53:55.368.05-Jan-2021 457.37 7398.82 3625.51 3064.84 80.00 6.00
   08:53:55.568.05-Jan-2021 457.57 7395.26 3625.51 3064.84 80.00 6.00
   08:53:55.768.05-Jan-2021 457.77 7395.99 3625.51 3064.84 80.00 6.00
   08:53:55.968.05-Jan-2021 457.97 7395.28 3625.51 3064.84 80.00 6.00
   08:53:56.168.05-Jan-2021 458.17 7395.06 3625.51 3064.84 80.01 6.00
   08:53:56.368.05-Jan-2021 458.37 7395.06 3625.51 3064.84 80.01 6.00
   08:53:56.568.05-Jan-2021 458.57 7395.33 3625.51 3064.84 80.01 6.00
   08:53:56.768.05-Jan-2021 458.77 7395.27 3625.51 3064.84 80.01 6.00
   08:53:56.968.05-Jan-2021 458.97 7395.49 3625.51 3064.84 80.01 6.00
   08:53:57.168.05-Jan-2021 459.17 7395.59 3625.51 3064.84 80.01 6.00
   08:53:57.368.05-Jan-2021 459.37 7395.71 3625.51 3064.84 80.01 6.00
   08:53:57.568.05-Jan-2021 459.57 7402.50 3625.51 3064.84 80.01 6.00
   08:53:57.768.05-Jan-2021 459.77 7395.16 3625.51 3064.84 80.01 6.00
   08:53:57.968.05-Jan-2021 459.97 7397.26 3625.51 3064.84 80.01 6.00
