~Version Information
 VERS.                  2.0:   CWLS log ASCII Standard -VERSION 2.0
 WRAP.                   NO:   One line per depth step
~Well Information Block
#MNEM.UNIT     VALUE/NAME     DESCRIPTION
#---------     -----------    ---------------------------
 STRT.S             14:32:26 05-Jan-21: START TIME 14:32:26 05-Jan-21
 STOP.S             14:40:38 05-Jan-21: STOP TIME  14:40:38 05-Jan-21
 STEP.S                   0.00: STEP TIME
 NULL.                 -999.25: NULL VALUE
 DFWT.                        :  DIST FWL TEXT
 DFST.                        :  DIST FSL TEXT
 DMF .             Drill Floor:  DRILL MEAS FROM
 STIM.      06.00.00 31-Dec-20:  START TIME
 DATE.      05.58.24 07-Jan-21:  END TIME
 SPUD.               24-Dec-20:  SPUD DATE
 NREF.                    Grid:  NORTH REFERENCE
 HPTY.       Minimum Curvature:  HOLE POS TYPE
 DMOD.             Drill Model:  DRILL MOD DESC
 SVYD.                  Survey:  SURVEY DESC
 ILTD.               Lithology:  INTERP LTH DESC
 FTOP.          Formation Tops:  FORM TOPS DESC
 SON .        AZ-XX-0906699554:  JOB NUMBER
 WELL.                    B09z:  WELL NAME
 PDAT.          Mean Sea Level:  PERMANENT DATUM
 FLD .                     ACG:  FIELD NAME
 CTRY.              Azerbaijan:  COUNTRY NAME
 COMP.     BP Exploration (Caspian Sea) Ltd.:  COMPANY
 UWI .                     N/A:  UNIQUE WELL IDENTIFIER
 API .                     N/A:  API NUMBER
 WTYP.                Deviated:  WELL TYPE
 MDS .        Operator Entered:  MAG DATA SOURCE
 BASE.              Azerbaijan:  LOGGING EQUIPMENT BASE LOCATION
 REGN.                   EESSA:  REGION
 PROV.                    Baku:  PROVINCE
 STAT.                    Baku:  STATE NAME
 SRVC.          Turan Drilling:  CONTRACTOR
 MWDS.                    Baku:  MWD SHOP
 JOBN.        AZ-XX-0906699554:  JOB TICKET NUMB
 RIG .           Central Azeri:  RIG NAME
 DOE .                     N/A:  DOE NUMBER
 DCON.         Sperry Drilling:  DIRECTNL CONTR
 UNIT.                     N/A:  LOGGING EQUIPMENT ID
 CNTY.                        :  COUNTY
 LOC .                        :  LOCATION
 LMF .             Drill Floor:  LOG MEASURED FROM
 TVDS.m                  43.29:  TVDSS CORRECTN
 LATI.deg                40.03:  LATITUDE
 LONG.deg                51.35:  LONGITUDE
 WHNS.m                  -2.76:  WELL HEAD N/S
 WHEW.m                  -7.70:  WELL HEAD E/W
 UTMX.m              530128.28:  UTM X
 UTMY.m             4433192.49:  UTM Y
 DFWL.m                   0.00:  DISTANCE FWL
 DFSL.m                   0.00:  DISTANCE FSL
 SDEP.m                3435.01:  START DEPTH
 TDD .m                3814.01:  TOTAL DEPTH (DRILLER)
 VSDR.deg               352.80:  VERT SEC DIRECT
 GVFD.g                   1.00:  GRAVITY FIELD
 MFLD.nT              50303.00:  MAGNETIC FIELD
 MDIP.deg                59.52:  MAGNETIC DIP
 MDEC.deg                 6.47:  MAGNETIC DECL
 GRDC.deg                 0.23:  GRID CORRECTION
 AZTC.deg                 6.24:  AZM TOTAL CORR
 EPD .m                   0.00:  ELEVATION
 EGL .m                   0.00:  GROUND ELEVATION
 WDMS.m                 128.20:  WD ELEV
 APD .m                  43.29:  DEPTH ABOVE PD
 DEP .m                3421.30:  DEPTH
 AGAP.m                  43.60:  AIR GAP
 VSEW.m                  -7.70:  VERT SEC E/W
 VSNS.m                  -2.76:  VERT SEC N/S
 EKB .m                   0.00:  KB ELEVATION
 EDF .m                  43.29:  DF ELEVATION
 TDL .m                 369.00:  TOTAL DEPTH (LOGGER)
 VSC .                       0:  VS TO CLOSURE
 MAGU.                 1850390:  MAGUTM CHECKSUM
~Parameter Information Block
#MNEM.UNIT       Value        Description
#---------     -----------    ---------------------------
 AV  .mps                 2.80:  Ann Velocity 
 AVMX.mps                 4.67:  Max Ann Veloc 
 AZIF.deg               303.89:  Azm, Final 
 BHAT.        Rotary Steerable:  BHA Type 
 BREV.rev            128542.00:  Rev Bit Total 
 BROT.°/30m               1.50:  Build Rotating 
 BS  .in                  8.50:  Bit Size 
 BSZ .in                  8.50:  Bit Size 
 BTPL.psig              715.00:  Bit Press Loss 
 CABU.                      No:  Customer Abuse 
 COMM.                     œ¬Z:  Run Comments 1 
 TCS .hr                 53.00:  Time Ciculation Ended 
 CV  .mps                 3.85:  Crit Velocity 
 CVMX.mps                 4.75:  Max Crit Veloc 
 DD1 .         Intigam Rahimov:  Direct Drillr 1 
 DDSV.                 iCruise:  DD Service 
 DEFF.%                  98.60:  % Det Eff 
 DLRX.°/30m               2.34:  Dogleg Rot Max 
 DLSO.°/30m               0.00:  Dogleg Oriented 
 DLSX.°/30m               0.00:  Dogleg Str Max 
 DRET.      00.15.00 05-Jan-21:  Drill End Time 
 DRST.      22.00.00 03-Jan-21:  Drill Start Tim 
 DTIM.hr                 17.72:  Time Drilling 
 EDEP.m                3814.01:  End Depth 
 ENG1.         Yevgeniy Ulikov:  Engineer 1 
 ENG2.        Farkhad Khalidov:  Engineer 2 
 ENG3.           Samir Gafarov:  Engineer 3 
 ETIM.      21.00.00 07-Jan-21:  End Time 
 FLOI.gpm               590.00:  Flow In 
 FLON.gpm               580.00:  Flow In Min 
 FLOS.cptm                1.00:  Fluid Loss 
 FLOX.gpm               595.00:  Flow In Max 
 FTRO.     Connectivity, Formation Presure:  FTWD Run Obj 
 HFLO.                      No:  High Flow 
 HPRE.                     Yes:  High Pressure 
 HTEM.                      No:  High Temp 
 HYDO.m                   1.80:  Hydro Offset 
 IFIN.deg                63.76:  Inc, Final 
 IMAX.deg                64.09:  Inc Max 
 IMIN.deg                55.81:  Inc Min 
 IMND.m                3455.62:  Inc Min Depth 
 IMXD.m                3796.03:  Inc Max Depth 
 JARR.                      No:  Jarring 
 LETM.      00.15.00 05-Jan-21:  Log End Time 
 LOST.hr                     0:  Lost Rig Time 
 LSTM.      22.00.00 03-Jan-21:  Log Start Time 
 MDCL.ppm             36000.00:  Mud Chlorides 
 MDES.     Inversion Oil/Synthetic:  Mud Desc 
 DFD .sg                  1.51:  Mud Density 
 MDMN.sg                  1.51:  Dens Mud Min 
 MDMX.sg                  1.51:  Dens Mud Max 
 MOIL.                    55.5:  Run Mud Oil % 
 MOWR.                   70:30:  Run Mud OWR 
 MSND.                     0.1:  Run Mud Sand % 
 MSOL.                   20.77:  Run Mud Solids% 
 DFV .spqt               67.00:  Mud Viscosity 
 MWOD.in                  6.75:  MWD Tool OD 
 MWSI.                      No:  Serv Intrp, MWD 
 OTIM.hr                113.53:  Time Operating 
 PCON.           Look Like New:  Pad Condition 
 PMAX.psia             4830.00:  Press Op, Max 
 PV  .cP                 29.00:  Mud PV 
 RUN .                     300:  Run Number 
 ROPA.m/hr               22.00:  ROP Avg 
 ROPN.m/hr               18.00:  ROP Min 
 ROPX.m/hr               25.00:  ROP Max 
 RPMA.rpm               130.00:  RPM Surface Avg 
 RPMN.rpm                80.00:  RPM Surface Min 
 RPMX.rpm               140.00:  RPM Surface Max 
 RRUN.                    L101:  Rig Run Number 
 RTIM.hr                  9.28:  Time Reaming 
 SAZI.deg               316.55:  Azm, Start 
 SDEP.m                3445.01:  Start Depth 
 SIDD.                      No:  Serv Intrp, DD 
 SINC.deg                55.81:  Inc, Start 
 SPPA.psig             4500.00:  SPP Avg 
 SPPN.psig             4350.00:  SPP Min 
 SPPX.psig             4830.00:  SPP Max 
 STIM.      00.00.00 03-Jan-21:  Start Time 
 SVCS.                 DD, MWD:  Services 
 SVER.                    9.20:  Sperry Version 
 TDAT.m                 369.00:  Tot Depth Attmp 
 TDDF.                      No:  Trip for DD 
 TDLG.m                 369.00:  Tot Depth Loggd 
 TFF .                      No:  Trip for Fail 
 TQAA.f-kp               15.00:  Torque Abs Avg 
 TQAN.f-kp               12.00:  Torque Abs Min 
 TQAX.f-kp               16.00:  Torque Abs Max 
 TRRT.°/30m              -2.10:  Turn Rotating 
 MRT .                    HCIM:  Maximum Recorded Temperature 
 TTMX.degC               92.16:  Max Tool Temp 
 VS01.                90627822:  Virtual Str1 SN 
 VS02.                90550008:  Virtual Str2 SN 
 VS03.                90627816:  Virtual Str3 SN 
 VS04.                90633205:  Virtual Str4 SN 
 VS05.                13033835:  Virtual Str5 SN 
 VS06.                11125125:  Virtual Str6 SN 
 WBMN.klb                 8.00:  WOB Min 
 WITN.            Bruce Cheyne:  Customer Rep 
 WITN.           Faig Mammadov:  Customer Rep 2 
 WOBA.klb                 9.00:  WOB Avg 
 WOBX.klb                12.00:  WOB Max 
 YP  .lhf2               30.00:  Yield Point 
~Curve Information Block
#MNEM.UNIT                 API CODE     Curve Description
#---------               -----------    ---------------------------
 TIME.HHMMSS            00 000 000 000:  GT Time & Date
 GTET.sec               00 000 000 000:  GT Elapsed Test Time
 GTPQH.psia             00 000 000 000:  GT HR Quartz Pressure
 GTDEPTH.m              00 000 000 000:  GT Depth
 GTTVD.m                00 000 000 000:  GT True Vertical Depth
 GTTQ.degC              00 000 000 000:  GT Quartz Temperature
 GTTN.NONE              00 000 000 000:  GT Test Number
#Other Information
#
#WARRANTY: Halliburton will use its best efforts to furnish customers with 
#accurate information and interpretations that are part of, and incident to, the services 
#provided.  However, Halliburton cannot and does not warrant the accuracy 
#or correctness of such information and interpretations.  Under no circumstances should any 
#such information or interpretation be relied upon as the sole basis for any drilling, 
#completion, production, or financial decision or any procedure involving any risk to the 
#safety of any drilling venture, drilling rig or its crew or any other third party.  The 
#Customer has full responsibility for all drilling, completion and production operation.  
#Halliburton makes no representations or warranties, either expressed or 
#implied, including, but not limited to, the implied warranties of merchantability or fitness 
#for a particular purpose, with respect to the services rendered.  In no event will 
#Halliburton be liable for failure to obtain any particular results or for 
#any damages, including, but not limited to, indirect, special or consequential damages, 
#resulting from the use of any information or interpretation provided by Halliburton.
#
~A           TIME            GTET   GTPQH  GTDEPTH  GTTVD  GTTQ  GTTN 
   14:32:26.000.05-Jan-2021   0.00 7145.53 3453.01 2973.12 77.51 8.00
   14:32:26.200.05-Jan-2021   0.20 7144.81 3453.01 2973.12 77.51 8.00
   14:32:26.400.05-Jan-2021   0.40 7145.00 3453.01 2973.12 77.51 8.00
   14:32:26.600.05-Jan-2021   0.60 7145.88 3453.01 2973.12 77.51 8.00
   14:32:26.800.05-Jan-2021   0.80 7145.98 3453.01 2973.12 77.51 8.00
   14:32:27.000.05-Jan-2021   1.00 7146.33 3453.01 2973.12 77.51 8.00
   14:32:27.200.05-Jan-2021   1.20 7146.98 3453.01 2973.12 77.51 8.00
   14:32:27.400.05-Jan-2021   1.40 7147.20 3453.01 2973.12 77.51 8.00
   14:32:27.600.05-Jan-2021   1.60 7147.84 3453.01 2973.12 77.51 8.00
   14:32:27.800.05-Jan-2021   1.80 7152.43 3453.01 2973.12 77.51 8.00
   14:32:28.000.05-Jan-2021   2.00 7146.72 3453.01 2973.12 77.51 8.00
   14:32:28.200.05-Jan-2021   2.20 7146.72 3453.01 2973.12 77.51 8.00
   14:32:28.400.05-Jan-2021   2.40 7153.77 3453.01 2973.12 77.51 8.00
   14:32:28.600.05-Jan-2021   2.60 7147.52 3453.01 2973.12 77.51 8.00
   14:32:28.800.05-Jan-2021   2.80 7148.86 3453.01 2973.12 77.51 8.00
   14:32:29.000.05-Jan-2021   3.00 7147.05 3453.01 2973.12 77.51 8.00
   14:32:29.200.05-Jan-2021   3.20 7147.05 3453.01 2973.12 77.51 8.00
   14:32:29.400.05-Jan-2021   3.40 7143.58 3453.01 2973.12 77.51 8.00
   14:32:29.600.05-Jan-2021   3.60 7149.27 3453.01 2973.12 77.51 8.00
   14:32:29.800.05-Jan-2021   3.80 7149.58 3453.01 2973.12 77.51 8.00
   14:32:30.000.05-Jan-2021   4.00 7161.10 3453.01 2973.12 77.51 8.00
   14:32:30.200.05-Jan-2021   4.20 7161.10 3453.01 2973.12 77.51 8.00
   14:32:30.400.05-Jan-2021   4.40 7150.85 3453.01 2973.12 77.51 8.00
   14:32:30.600.05-Jan-2021   4.60 7151.09 3453.01 2973.12 77.51 8.00
   14:32:30.800.05-Jan-2021   4.80 7152.80 3453.01 2973.12 77.51 8.00
   14:32:31.000.05-Jan-2021   5.00 7159.14 3453.01 2973.12 77.51 8.00
   14:32:31.200.05-Jan-2021   5.20 7159.14 3453.01 2973.12 77.51 8.00
   14:32:31.400.05-Jan-2021   5.40 7153.17 3453.01 2973.12 77.51 8.00
   14:32:31.600.05-Jan-2021   5.60 7152.64 3453.01 2973.12 77.51 8.00
   14:32:31.800.05-Jan-2021   5.80 7154.57 3453.01 2973.12 77.51 8.00
   14:32:32.000.05-Jan-2021   6.00 7152.97 3453.01 2973.12 77.51 8.00
   14:32:32.200.05-Jan-2021   6.20 7152.97 3453.01 2973.12 77.51 8.00
   14:32:32.400.05-Jan-2021   6.40 7152.97 3453.01 2973.12 77.51 8.00
   14:32:32.600.05-Jan-2021   6.60 7164.15 3453.01 2973.12 77.51 8.00
   14:32:32.800.05-Jan-2021   6.80 7148.56 3453.01 2973.12 77.51 8.00
   14:32:33.000.05-Jan-2021   7.00 7154.18 3453.01 2973.12 77.51 8.00
   14:32:33.200.05-Jan-2021   7.20 7154.18 3453.01 2973.12 77.51 8.00
   14:32:33.400.05-Jan-2021   7.40 7155.70 3453.01 2973.12 77.51 8.00
   14:32:33.600.05-Jan-2021   7.60 7154.90 3453.01 2973.12 77.51 8.00
   14:32:33.800.05-Jan-2021   7.80 7154.68 3453.01 2973.12 77.51 8.00
   14:32:34.000.05-Jan-2021   8.00 7155.36 3453.01 2973.12 77.51 8.00
   14:32:34.200.05-Jan-2021   8.20 7155.36 3453.01 2973.12 77.51 8.00
   14:32:34.400.05-Jan-2021   8.40 7155.59 3453.01 2973.12 77.51 8.00
   14:32:34.600.05-Jan-2021   8.60 7155.09 3453.01 2973.12 77.51 8.00
   14:32:34.800.05-Jan-2021   8.80 7154.20 3453.01 2973.12 77.51 8.00
   14:32:35.000.05-Jan-2021   9.00 7154.91 3453.01 2973.12 77.51 8.00
   14:32:35.200.05-Jan-2021   9.20 7154.91 3453.01 2973.12 77.51 8.00
   14:32:35.400.05-Jan-2021   9.40 7155.49 3453.01 2973.12 77.51 8.00
   14:32:35.600.05-Jan-2021   9.60 7159.96 3453.01 2973.12 77.51 8.00
   14:32:35.800.05-Jan-2021   9.80 7154.84 3453.01 2973.12 77.51 8.00
   14:32:36.000.05-Jan-2021  10.00 7155.71 3453.01 2973.12 77.51 8.00
   14:32:36.200.05-Jan-2021  10.20 7155.71 3453.01 2973.12 77.51 8.00
   14:32:36.400.05-Jan-2021  10.40 7155.94 3453.01 2973.12 77.51 8.00
   14:32:36.600.05-Jan-2021  10.60 7155.53 3453.01 2973.12 77.51 8.00
   14:32:36.800.05-Jan-2021  10.80 7156.08 3453.01 2973.12 77.51 8.00
   14:32:37.000.05-Jan-2021  11.00 7156.37 3453.01 2973.12 77.51 8.00
   14:32:37.200.05-Jan-2021  11.20 7156.37 3453.01 2973.12 77.51 8.00
   14:32:37.400.05-Jan-2021  11.40 7156.26 3453.01 2973.12 77.51 8.00
   14:32:37.600.05-Jan-2021  11.60 7157.23 3453.01 2973.12 77.51 8.00
   14:32:37.800.05-Jan-2021  11.80 7157.37 3453.01 2973.12 77.51 8.00
   14:32:38.000.05-Jan-2021  12.00 7164.44 3453.01 2973.12 77.51 8.00
   14:32:38.200.05-Jan-2021  12.20 7164.44 3453.01 2973.12 77.51 8.00
   14:32:38.400.05-Jan-2021  12.40 7158.32 3453.01 2973.12 77.51 8.00
   14:32:38.600.05-Jan-2021  12.60 7158.15 3453.01 2973.12 77.51 8.00
   14:32:38.800.05-Jan-2021  12.80 7165.42 3453.01 2973.12 77.51 8.00
   14:32:39.000.05-Jan-2021  13.00 7158.42 3453.01 2973.12 77.51 8.00
   14:32:39.200.05-Jan-2021  13.20 7159.28 3453.01 2973.12 77.51 8.00
   14:32:39.400.05-Jan-2021  13.40 7159.46 3453.01 2973.12 77.51 8.00
   14:32:39.600.05-Jan-2021  13.60 7160.04 3453.01 2973.12 77.51 8.00
   14:32:39.800.05-Jan-2021  13.80 7166.42 3453.01 2973.12 77.51 8.00
   14:32:40.000.05-Jan-2021  14.00 7157.78 3453.01 2973.12 77.51 8.00
   14:32:40.200.05-Jan-2021  14.20 7157.78 3453.01 2973.12 77.51 8.00
   14:32:40.400.05-Jan-2021  14.40 7160.13 3453.01 2973.12 77.51 8.00
   14:32:40.600.05-Jan-2021  14.60 7170.85 3453.01 2973.12 77.51 8.00
   14:32:40.800.05-Jan-2021  14.80 7156.47 3453.01 2973.12 77.51 8.00
   14:32:41.000.05-Jan-2021  15.00 7160.94 3453.01 2973.12 77.51 8.00
   14:32:41.200.05-Jan-2021  15.20 7160.94 3453.01 2973.12 77.51 8.00
   14:32:41.400.05-Jan-2021  15.40 7160.44 3453.01 2973.12 77.51 8.00
   14:32:41.600.05-Jan-2021  15.60 7162.20 3453.01 2973.12 77.51 8.00
   14:32:41.800.05-Jan-2021  15.80 7161.18 3453.01 2973.12 77.51 8.00
   14:32:42.000.05-Jan-2021  16.00 7162.42 3453.01 2973.12 77.51 8.00
   14:32:42.200.05-Jan-2021  16.20 7162.42 3453.01 2973.12 77.51 8.00
   14:32:42.400.05-Jan-2021  16.40 7156.45 3453.01 2973.12 77.51 8.00
   14:32:42.600.05-Jan-2021  16.60 7162.61 3453.01 2973.12 77.51 8.00
   14:32:42.800.05-Jan-2021  16.80 7162.10 3453.01 2973.12 77.51 8.00
   14:32:43.000.05-Jan-2021  17.00 7163.29 3453.01 2973.12 77.51 8.00
   14:32:43.200.05-Jan-2021  17.20 7163.29 3453.01 2973.12 77.51 8.00
   14:32:43.400.05-Jan-2021  17.40 7162.42 3453.01 2973.12 77.51 8.00
   14:32:43.600.05-Jan-2021  17.60 7162.62 3453.01 2973.12 77.51 8.00
   14:32:43.800.05-Jan-2021  17.80 7162.83 3453.01 2973.12 77.51 8.00
   14:32:44.000.05-Jan-2021  18.00 7162.96 3453.01 2973.12 77.51 8.00
   14:32:44.200.05-Jan-2021  18.20 7162.96 3453.01 2973.12 77.51 8.00
   14:32:44.400.05-Jan-2021  18.40 7162.43 3453.01 2973.12 77.51 8.00
   14:32:44.600.05-Jan-2021  18.60 7162.36 3453.01 2973.12 77.51 8.00
   14:32:44.800.05-Jan-2021  18.80 7162.47 3453.01 2973.12 77.51 8.00
   14:32:45.000.05-Jan-2021  19.00 7163.19 3453.01 2973.12 77.51 8.00
   14:32:45.200.05-Jan-2021  19.20 7163.19 3453.01 2973.12 77.51 8.00
   14:32:45.400.05-Jan-2021  19.40 7161.32 3453.01 2973.12 77.51 8.00
   14:32:45.600.05-Jan-2021  19.60 7162.43 3453.01 2973.12 77.51 8.00
   14:32:45.800.05-Jan-2021  19.80 7162.67 3453.01 2973.12 77.51 8.00
   14:32:46.000.05-Jan-2021  20.00 7164.10 3453.01 2973.12 77.51 8.00
   14:32:46.200.05-Jan-2021  20.20 7164.10 3453.01 2973.12 77.51 8.00
   14:32:46.400.05-Jan-2021  20.40 7163.83 3453.01 2973.12 77.51 8.00
   14:32:46.600.05-Jan-2021  20.60 7164.13 3453.01 2973.12 77.51 8.00
   14:32:46.800.05-Jan-2021  20.80 7163.89 3453.01 2973.12 77.51 8.00
   14:32:47.000.05-Jan-2021  21.00 7163.83 3453.01 2973.12 77.51 8.00
   14:32:47.200.05-Jan-2021  21.20 7163.83 3453.01 2973.12 77.51 8.00
   14:32:47.400.05-Jan-2021  21.40 7164.33 3453.01 2973.12 77.51 8.00
   14:32:47.600.05-Jan-2021  21.60 7163.80 3453.01 2973.12 77.51 8.00
   14:32:47.800.05-Jan-2021  21.80 7171.21 3453.01 2973.12 77.51 8.00
   14:32:48.000.05-Jan-2021  22.00 7162.13 3453.01 2973.12 77.51 8.00
   14:32:48.200.05-Jan-2021  22.20 7162.13 3453.01 2973.12 77.51 8.00
   14:32:48.400.05-Jan-2021  22.40 7168.99 3453.01 2973.12 77.51 8.00
   14:32:48.600.05-Jan-2021  22.60 7165.39 3453.01 2973.12 77.51 8.00
   14:32:48.800.05-Jan-2021  22.80 7164.89 3453.01 2973.12 77.51 8.00
