~Version Information
 VERS.                  2.0:   CWLS log ASCII Standard -VERSION 2.0
 WRAP.                   NO:   One line per depth step
~Well Information Block
#MNEM.UNIT     VALUE/NAME     DESCRIPTION
#---------     -----------    ---------------------------
 STRT.S             01:27:57 11-Nov-20: START TIME 01:27:57 11-Nov-20
 STOP.S             01:34:34 11-Nov-20: STOP TIME  01:34:34 11-Nov-20
 STEP.S                   0.00: STEP TIME
 NULL.                 -999.25: NULL VALUE
 DFWT.                        :  DIST FWL TEXT
 DFST.                        :  DIST FSL TEXT
 DMF .             Drill Floor:  DRILL MEAS FROM
 STIM.      04.54.24 22-Sep-20:  START TIME
 DATE.      04.54.24 21-Nov-20:  END TIME
 SPUD.               21-Nov-20:  SPUD DATE
 NREF.                    Grid:  NORTH REFERENCE
 HPTY.       Minimum Curvature:  HOLE POS TYPE
 DMOD.             Drill Model:  DRILL MOD DESC
 SVYD.                  Survey:  SURVEY DESC
 ILTD.               Lithology:  INTERP LTH DESC
 FTOP.          Formation Tops:  FORM TOPS DESC
 SON .        AZ-XX-0906571587:  JOB NUMBER
 COMP.     BP Exploration (Caspian Sea) Ltd:  COMPANY
 UWI .                     N/A:  UNIQUE WELL IDENTIFIER
 API .                     N/A:  API NUMBER
 BASE.              Azerbaijan:  LOGGING EQUIPMENT BASE LOCATION
 REGN.                   EESSA:  REGION
 PROV.                    Baku:  PROVINCE
 STAT.                    Baku:  STATE NAME
 CTRY.              Azerbaijan:  COUNTRY NAME
 FLD .                     ACG:  FIELD NAME
 SRVC.     TURAN Drilling & Engineering:  CONTRACTOR
 WELL.                     J27:  WELL NAME
 RIG .             West Chirag:  RIG NAME
 DOE .                     N/A:  DOE NUMBER
 DCON.         Sperry Drilling:  DIRECTNL CONTR
 PDAT.          Mean Sea Level:  PERMANENT DATUM
 WTYP.                Deviated:  WELL TYPE
 MWDS.                    Baku:  MWD SHOP
 JOBN.        AZ-XX-0906571587:  JOB TICKET NUMB
 UNIT.                     N/A:  LOGGING EQUIPMENT ID
 MDS .        Operator Entered:  MAG DATA SOURCE
 CNTY.                        :  COUNTY
 LOC .                        :  LOCATION
 LMF .             Drill Floor:  LOG MEASURED FROM
 TVDS.m                  43.00:  TVDSS CORRECTN
 LATI.deg                40.13:  LATITUDE
 LONG.deg                51.22:  LONGITUDE
 WHNS.m                   7.72:  WELL HEAD N/S
 WHEW.m                 -14.24:  WELL HEAD E/W
 UTMX.m              519005.06:  UTM X
 UTMY.m             4443793.85:  UTM Y
 DFWL.m                   0.00:  DISTANCE FWL
 DFSL.m                   0.00:  DISTANCE FSL
 SDEP.m                 347.00:  START DEPTH
 TDD .m                 581.00:  TOTAL DEPTH (DRILLER)
 VSDR.deg               159.72:  VERT SEC DIRECT
 GVFD.g                   1.00:  GRAVITY FIELD
 MFLD.nT              50313.00:  MAGNETIC FIELD
 MDIP.deg                59.58:  MAGNETIC DIP
 MDEC.deg                 6.45:  MAGNETIC DECL
 GRDC.deg                 0.15:  GRID CORRECTION
 AZTC.deg                 6.30:  AZM TOTAL CORR
 EPD .m                   0.00:  ELEVATION
 EGL .m                   0.00:  GROUND ELEVATION
 WDMS.m                 169.80:  WD ELEV
 APD .m                  43.00:  DEPTH ABOVE PD
 AGAP.m                  43.00:  AIR GAP
 VSEW.m                 -14.24:  VERT SEC E/W
 VSNS.m                   7.72:  VERT SEC N/S
 DEP .m                 342.45:  DEPTH
 EKB .m                   0.00:  KB ELEVATION
 EDF .m                  43.00:  DF ELEVATION
 TDL .m                1313.00:  TOTAL DEPTH (LOGGER)
 VSC .                       0:  VS TO CLOSURE
 MAGU.                 1851396:  MAGUTM CHECKSUM
~Parameter Information Block
#MNEM.UNIT       Value        Description
#---------     -----------    ---------------------------
 AV  .mps                 0.65:  Ann Velocity 
 AVMX.mps                 0.75:  Max Ann Veloc 
 AZIF.deg               115.08:  Azm, Final 
 BHAT.        Rotary Steerable:  BHA Type 
 BROT.∞/30m               1.50:  Build Rotating 
 BS  .in                 12.25:  Bit Size 
 BSZ .in                 12.25:  Bit Size 
 BTPL.psig              700.00:  Bit Press Loss 
 CABU.                     Yes:  Customer Abuse 
 COMM.                     ÏSu:  Run Comments 1 
 TCS .hr                121.00:  Time Ciculation Ended 
 CV  .mps                 1.83:  Crit Velocity 
 CVMX.mps                 1.83:  Max Crit Veloc 
 DD1 .          Rashad Habibov:  Direct Drillr 1 
 DD2 .         Rasim Ibrahimov:  Direct Drillr 2 
 DDSV.                 iCruise:  DD Service 
 DEFF.%                 100.00:  % Det Eff 
 DLRX.∞/30m               3.60:  Dogleg Rot Max 
 DLSO.∞/30m               3.10:  Dogleg Oriented 
 DLSX.∞/30m               3.60:  Dogleg Str Max 
 DRET.      13.41.20 12-Nov-20:  Drill End Time 
 DRST.      13.41.20 07-Nov-20:  Drill Start Tim 
 DTIM.hr                 54.16:  Time Drilling 
 EDEP.m                4762.01:  End Depth 
 ENG1.           Amrah Tahirov:  Engineer 1 
 ENG2.      Bakhtiyar Jabbarli:  Engineer 2 
 ENG3.          Ruslan Safarov:  Engineer 3 
 ETIM.      13.41.20 14-Nov-20:  End Time 
 FLOI.gpm              1200.00:  Flow In 
 FLON.gpm              1100.00:  Flow In Min 
 FLOS.cptm                0.00:  Fluid Loss 
 FLOX.gpm              1200.00:  Flow In Max 
 HFLO.                      No:  High Flow 
 HPRE.                      No:  High Pressure 
 HTEM.                      No:  High Temp 
 HYDO.m                   2.00:  Hydro Offset 
 IFIN.deg                66.14:  Inc, Final 
 IMAX.deg                69.03:  Inc Max 
 IMIN.deg                64.64:  Inc Min 
 IMND.m                4450.16:  Inc Min Depth 
 IMXD.m                3996.00:  Inc Max Depth 
 JARR.                     Yes:  Jarring 
 LETM.      13.41.20 14-Nov-20:  Log End Time 
 LOST.hr                     0:  Lost Rig Time 
 LSTM.      13.41.20 06-Nov-20:  Log Start Time 
 MDCL.ppm             42500.00:  Mud Chlorides 
 MDES.     Inversion Oil/Synthetic:  Mud Desc 
 DFD .sg                  1.45:  Mud Density 
 MDMN.sg                  1.45:  Dens Mud Min 
 MDMX.sg                  1.45:  Dens Mud Max 
 MOIL.                      70:  Run Mud Oil % 
 MOWR.                   70:30:  Run Mud OWR 
 MSND.                       0:  Run Mud Sand % 
 MSOL.                    19.3:  Run Mud Solids% 
 DFV .spqt               77.00:  Mud Viscosity 
 MWOD.in                  8.00:  MWD Tool OD 
 MWSI.                      No:  Serv Intrp, MWD 
 OTIM.hr                201.88:  Time Operating 
 PCON.           Look Like New:  Pad Condition 
 PMAX.psia             9250.94:  Press Op, Max 
 PV  .cP                 29.00:  Mud PV 
 RUN .                     800:  Run Number 
 ROPA.m/hr               28.00:  ROP Avg 
 ROPN.m/hr               25.00:  ROP Min 
 ROPX.m/hr               30.00:  ROP Max 
 RPMA.rpm               160.00:  RPM Surface Avg 
 RPMN.rpm               160.00:  RPM Surface Min 
 RPMX.rpm               160.00:  RPM Surface Max 
 RRUN.                    0800:  Rig Run Number 
 RTIM.hr                 12.00:  Time Reaming 
 SAZI.deg               169.33:  Azm, Start 
 SDEP.m                3449.01:  Start Depth 
 SIDD.                      No:  Serv Intrp, DD 
 SINC.deg                68.01:  Inc, Start 
 SPPA.psig             4900.00:  SPP Avg 
 SPPN.psig             4800.00:  SPP Min 
 SPPX.psig             5050.00:  SPP Max 
 STIM.      13.41.20 06-Nov-20:  Start Time 
 SVCS.                 DD, MWD:  Services 
 SVER.                    9.20:  Sperry Version 
 TDAT.m                4762.01:  Tot Depth Attmp 
 TDDF.                      No:  Trip for DD 
 TDLG.m                1313.00:  Tot Depth Loggd 
 TFF .                      No:  Trip for Fail 
 TQAA.f-kp               13.00:  Torque Abs Avg 
 TQAN.f-kp               13.00:  Torque Abs Min 
 TQAX.f-kp               13.00:  Torque Abs Max 
 TRRT.∞/30m               1.70:  Turn Rotating 
 MRT .                  EWR-M5:  Maximum Recorded Temperature 
 TTMX.degC               86.00:  Max Tool Temp 
 VS01.                90622122:  Virtual Str1 SN 
 VS02.                90577298:  Virtual Str2 SN 
 VS03.                90563623:  Virtual Str3 SN 
 VS04.                90617559:  Virtual Str4 SN 
 VS05.                11339492:  Virtual Str5 SN 
 VS06.                12385033:  Virtual Str6 SN 
 WBMN.klb                 0.00:  WOB Min 
 WOBA.klb                22.00:  WOB Avg 
 WOBX.klb                26.00:  WOB Max 
 YP  .lhf2               30.00:  Yield Point 
~Curve Information Block
#MNEM.UNIT                 API CODE     Curve Description
#---------               -----------    ---------------------------
 TIME.HHMMSS            00 000 000 000:  GT Time & Date
 GTDEPTH.m              00 000 000 000:  GT Depth
 GTPQH.psia             00 000 000 000:  GT HR Quartz Pressure
 GTTQ.degC              00 000 000 000:  GT Quartz Temperature
 GTTN.NONE              00 000 000 000:  GT Test Number
 GTET.sec               00 000 000 000:  GT Elapsed Test Time
 GTTVD.m                00 000 000 000:  GT True Vertical Depth
#Other Information
#
#WARRANTY: Halliburton will use its best efforts to furnish customers with 
#accurate information and interpretations that are part of, and incident to, the services 
#provided.  However, Halliburton cannot and does not warrant the accuracy 
#or correctness of such information and interpretations.  Under no circumstances should any 
#such information or interpretation be relied upon as the sole basis for any drilling, 
#completion, production, or financial decision or any procedure involving any risk to the 
#safety of any drilling venture, drilling rig or its crew or any other third party.  The 
#Customer has full responsibility for all drilling, completion and production operation.  
#Halliburton makes no representations or warranties, either expressed or 
#implied, including, but not limited to, the implied warranties of merchantability or fitness 
#for a particular purpose, with respect to the services rendered.  In no event will 
#Halliburton be liable for failure to obtain any particular results or for 
#any damages, including, but not limited to, indirect, special or consequential damages, 
#resulting from the use of any information or interpretation provided by Halliburton.
#
~A           TIME           GTDEPTH  GTPQH  GTTQ  GTTN  GTET   GTTVD  
   01:27:57.000.11-Nov-2020 4560.01 5067.61 77.68 7.00   0.00 2403.77
   01:27:57.200.11-Nov-2020 4560.01 5067.61 77.68 7.00   0.20 2403.77
   01:27:57.400.11-Nov-2020 4560.01 5068.95 77.68 7.00   0.40 2403.77
   01:27:57.600.11-Nov-2020 4560.01 5074.02 77.68 7.00   0.60 2403.77
   01:27:57.800.11-Nov-2020 4560.01 5070.73 77.68 7.00   0.80 2403.77
   01:27:58.000.11-Nov-2020 4560.01 5073.12 77.68 7.00   1.00 2403.77
   01:27:58.200.11-Nov-2020 4560.01 5073.12 77.68 7.00   1.20 2403.77
   01:27:58.400.11-Nov-2020 4560.01 5073.65 77.68 7.00   1.40 2403.77
   01:27:58.600.11-Nov-2020 4560.01 5076.86 77.68 7.00   1.60 2403.77
   01:27:58.800.11-Nov-2020 4560.01 5072.49 77.68 7.00   1.80 2403.77
   01:27:59.000.11-Nov-2020 4560.01 5072.80 77.68 7.00   2.00 2403.77
   01:27:59.200.11-Nov-2020 4560.01 5071.57 77.68 7.00   2.20 2403.77
   01:27:59.400.11-Nov-2020 4560.01 5070.33 77.68 7.00   2.40 2403.77
   01:27:59.600.11-Nov-2020 4560.01 5069.51 77.68 7.00   2.60 2403.77
   01:27:59.800.11-Nov-2020 4560.01 5071.16 77.68 7.00   2.80 2403.77
   01:28:00.000.11-Nov-2020 4560.01 5069.61 77.68 7.00   3.00 2403.77
   01:28:00.200.11-Nov-2020 4560.01 5069.61 77.68 7.00   3.20 2403.77
   01:28:00.400.11-Nov-2020 4560.01 5072.42 77.68 7.00   3.40 2403.77
   01:28:00.600.11-Nov-2020 4560.01 5070.39 77.68 7.00   3.60 2403.77
   01:28:00.800.11-Nov-2020 4560.01 5070.28 77.68 7.00   3.80 2403.77
   01:28:01.000.11-Nov-2020 4560.01 5070.08 77.68 7.00   4.00 2403.77
   01:28:01.200.11-Nov-2020 4560.01 5070.08 77.68 7.00   4.20 2403.77
   01:28:01.400.11-Nov-2020 4560.01 5070.66 77.68 7.00   4.40 2403.77
   01:28:01.600.11-Nov-2020 4560.01 5071.57 77.68 7.00   4.60 2403.77
   01:28:01.800.11-Nov-2020 4560.01 5071.92 77.68 7.00   4.80 2403.77
   01:28:02.000.11-Nov-2020 4560.01 5070.80 77.68 7.00   5.00 2403.77
   01:28:02.200.11-Nov-2020 4560.01 5070.80 77.68 7.00   5.20 2403.77
   01:28:02.400.11-Nov-2020 4560.01 5071.49 77.68 7.00   5.40 2403.77
   01:28:02.600.11-Nov-2020 4560.01 5071.01 77.68 7.00   5.60 2403.77
   01:28:02.800.11-Nov-2020 4560.01 5071.25 77.68 7.00   5.80 2403.77
   01:28:03.000.11-Nov-2020 4560.01 5071.71 77.68 7.00   6.00 2403.77
   01:28:03.200.11-Nov-2020 4560.01 5071.71 77.68 7.00   6.20 2403.77
   01:28:03.400.11-Nov-2020 4560.01 5070.21 77.68 7.00   6.40 2403.77
   01:28:03.600.11-Nov-2020 4560.01 5070.90 77.68 7.00   6.60 2403.77
   01:28:03.800.11-Nov-2020 4560.01 5071.69 77.68 7.00   6.80 2403.77
   01:28:04.000.11-Nov-2020 4560.01 5072.50 77.68 7.00   7.00 2403.77
   01:28:04.200.11-Nov-2020 4560.01 5072.50 77.68 7.00   7.20 2403.77
   01:28:04.400.11-Nov-2020 4560.01 5073.55 77.67 7.00   7.40 2403.77
   01:28:04.600.11-Nov-2020 4560.01 5073.91 77.67 7.00   7.60 2403.77
   01:28:04.800.11-Nov-2020 4560.01 5074.09 77.67 7.00   7.80 2403.77
   01:28:05.000.11-Nov-2020 4560.01 5074.56 77.67 7.00   8.00 2403.77
   01:28:05.200.11-Nov-2020 4560.01 5074.56 77.67 7.00   8.20 2403.77
   01:28:05.400.11-Nov-2020 4560.01 5074.58 77.67 7.00   8.40 2403.77
   01:28:05.600.11-Nov-2020 4560.01 5077.67 77.67 7.00   8.60 2403.77
   01:28:05.800.11-Nov-2020 4560.01 5075.01 77.67 7.00   8.80 2403.77
   01:28:06.000.11-Nov-2020 4560.01 5073.59 77.67 7.00   9.00 2403.77
   01:28:06.200.11-Nov-2020 4560.01 5072.62 77.67 7.00   9.20 2403.77
   01:28:06.400.11-Nov-2020 4560.01 5072.70 77.67 7.00   9.40 2403.77
   01:28:06.600.11-Nov-2020 4560.01 5074.61 77.67 7.00   9.60 2403.77
   01:28:06.800.11-Nov-2020 4560.01 5071.98 77.67 7.00   9.80 2403.77
   01:28:07.000.11-Nov-2020 4560.01 5069.99 77.67 7.00  10.00 2403.77
   01:28:07.200.11-Nov-2020 4560.01 5069.99 77.67 7.00  10.20 2403.77
   01:28:07.400.11-Nov-2020 4560.01 5069.99 77.67 7.00  10.40 2403.77
   01:28:07.600.11-Nov-2020 4560.01 5067.09 77.67 7.00  10.60 2403.77
   01:28:07.800.11-Nov-2020 4560.01 5066.73 77.67 7.00  10.80 2403.77
   01:28:08.000.11-Nov-2020 4560.01 5065.82 77.67 7.00  11.00 2403.77
   01:28:08.200.11-Nov-2020 4560.01 5065.82 77.67 7.00  11.20 2403.77
   01:28:08.400.11-Nov-2020 4560.01 5069.09 77.67 7.00  11.40 2403.77
   01:28:08.600.11-Nov-2020 4560.01 5064.69 77.67 7.00  11.60 2403.77
   01:28:08.800.11-Nov-2020 4560.01 5068.10 77.67 7.00  11.80 2403.77
   01:28:09.000.11-Nov-2020 4560.01 5064.50 77.67 7.00  12.00 2403.77
   01:28:09.200.11-Nov-2020 4560.01 5064.50 77.67 7.00  12.20 2403.77
   01:28:09.400.11-Nov-2020 4560.01 5065.17 77.67 7.00  12.40 2403.77
   01:28:09.600.11-Nov-2020 4560.01 5065.31 77.67 7.00  12.60 2403.77
   01:28:09.800.11-Nov-2020 4560.01 5065.50 77.67 7.00  12.80 2403.77
   01:28:10.000.11-Nov-2020 4560.01 5068.84 77.67 7.00  13.00 2403.77
   01:28:10.200.11-Nov-2020 4560.01 5065.58 77.67 7.00  13.20 2403.77
   01:28:10.400.11-Nov-2020 4560.01 5065.22 77.67 7.00  13.40 2403.77
   01:28:10.600.11-Nov-2020 4560.01 5064.49 77.67 7.00  13.60 2403.77
   01:28:10.800.11-Nov-2020 4560.01 5066.57 77.67 7.00  13.80 2403.77
   01:28:11.000.11-Nov-2020 4560.01 5065.07 77.67 7.00  14.00 2403.77
   01:28:11.200.11-Nov-2020 4560.01 5065.03 77.67 7.00  14.20 2403.77
   01:28:11.400.11-Nov-2020 4560.01 5065.67 77.67 7.00  14.40 2403.77
   01:28:11.600.11-Nov-2020 4560.01 5065.39 77.67 7.00  14.60 2403.77
   01:28:11.800.11-Nov-2020 4560.01 5065.36 77.67 7.00  14.80 2403.77
   01:28:12.000.11-Nov-2020 4560.01 5065.37 77.67 7.00  15.00 2403.77
   01:28:12.200.11-Nov-2020 4560.01 5065.37 77.67 7.00  15.20 2403.77
   01:28:12.400.11-Nov-2020 4560.01 5065.59 77.67 7.00  15.40 2403.77
   01:28:12.600.11-Nov-2020 4560.01 5065.82 77.67 7.00  15.60 2403.77
   01:28:12.800.11-Nov-2020 4560.01 5067.99 77.67 7.00  15.80 2403.77
   01:28:13.000.11-Nov-2020 4560.01 5064.23 77.67 7.00  16.00 2403.77
   01:28:13.200.11-Nov-2020 4560.01 5064.23 77.67 7.00  16.20 2403.77
   01:28:13.400.11-Nov-2020 4560.01 5064.00 77.67 7.00  16.40 2403.77
   01:28:13.600.11-Nov-2020 4560.01 5065.18 77.66 7.00  16.60 2403.77
   01:28:13.800.11-Nov-2020 4560.01 5063.35 77.66 7.00  16.80 2403.77
   01:28:14.000.11-Nov-2020 4560.01 5063.74 77.66 7.00  17.00 2403.77
   01:28:14.200.11-Nov-2020 4560.01 5063.74 77.66 7.00  17.20 2403.77
   01:28:14.400.11-Nov-2020 4560.01 5063.08 77.66 7.00  17.40 2403.77
   01:28:14.600.11-Nov-2020 4560.01 5062.89 77.66 7.00  17.60 2403.77
   01:28:14.800.11-Nov-2020 4560.01 5062.38 77.66 7.00  17.80 2403.77
   01:28:15.000.11-Nov-2020 4560.01 5061.90 77.66 7.00  18.00 2403.77
   01:28:15.200.11-Nov-2020 4560.01 5061.90 77.66 7.00  18.20 2403.77
   01:28:15.400.11-Nov-2020 4560.01 5064.39 77.66 7.00  18.40 2403.77
   01:28:15.600.11-Nov-2020 4560.01 5062.10 77.66 7.00  18.60 2403.77
   01:28:15.800.11-Nov-2020 4560.01 5060.81 77.66 7.00  18.80 2403.77
   01:28:16.000.11-Nov-2020 4560.01 5063.95 77.66 7.00  19.00 2403.77
   01:28:16.200.11-Nov-2020 4560.01 5063.95 77.66 7.00  19.20 2403.77
   01:28:16.400.11-Nov-2020 4560.01 5061.18 77.66 7.00  19.40 2403.77
   01:28:16.600.11-Nov-2020 4560.01 5061.24 77.66 7.00  19.60 2403.77
   01:28:16.800.11-Nov-2020 4560.01 5066.94 77.66 7.00  19.80 2403.77
   01:28:17.000.11-Nov-2020 4560.01 5061.06 77.66 7.00  20.00 2403.77
   01:28:17.200.11-Nov-2020 4560.01 5061.06 77.66 7.00  20.20 2403.77
   01:28:17.400.11-Nov-2020 4560.01 5062.41 77.66 7.00  20.40 2403.77
   01:28:17.600.11-Nov-2020 4560.01 5063.12 77.66 7.00  20.60 2403.77
   01:28:17.800.11-Nov-2020 4560.01 5068.20 77.66 7.00  20.80 2403.77
   01:28:18.000.11-Nov-2020 4560.01 5063.78 77.66 7.00  21.00 2403.77
   01:28:18.200.11-Nov-2020 4560.01 5063.78 77.66 7.00  21.20 2403.77
   01:28:18.400.11-Nov-2020 4560.01 5068.03 77.66 7.00  21.40 2403.77
   01:28:18.600.11-Nov-2020 4560.01 5063.75 77.66 7.00  21.60 2403.77
   01:28:18.800.11-Nov-2020 4560.01 5064.65 77.66 7.00  21.80 2403.77
   01:28:19.000.11-Nov-2020 4560.01 5064.16 77.66 7.00  22.00 2403.77
   01:28:19.200.11-Nov-2020 4560.01 5064.50 77.66 7.00  22.20 2403.77
   01:28:19.400.11-Nov-2020 4560.01 5065.83 77.66 7.00  22.40 2403.77
   01:28:19.600.11-Nov-2020 4560.01 5065.01 77.66 7.00  22.60 2403.77
   01:28:19.800.11-Nov-2020 4560.01 5064.56 77.66 7.00  22.80 2403.77
