~Version Information
 VERS.                  2.0:   CWLS log ASCII Standard -VERSION 2.0
 WRAP.                   NO:   One line per depth step
~Well Information Block
#MNEM.UNIT     VALUE/NAME     DESCRIPTION
#---------     -----------    ---------------------------
 STRT.S             06:45:19 11-Nov-20: START TIME 06:45:19 11-Nov-20
 STOP.S             06:51:53 11-Nov-20: STOP TIME  06:51:53 11-Nov-20
 STEP.S                   0.00: STEP TIME
 NULL.                 -999.25: NULL VALUE
 DFWT.                        :  DIST FWL TEXT
 DFST.                        :  DIST FSL TEXT
 DMF .             Drill Floor:  DRILL MEAS FROM
 STIM.      04.54.24 22-Sep-20:  START TIME
 DATE.      04.54.24 21-Nov-20:  END TIME
 SPUD.               21-Nov-20:  SPUD DATE
 NREF.                    Grid:  NORTH REFERENCE
 HPTY.       Minimum Curvature:  HOLE POS TYPE
 DMOD.             Drill Model:  DRILL MOD DESC
 SVYD.                  Survey:  SURVEY DESC
 ILTD.               Lithology:  INTERP LTH DESC
 FTOP.          Formation Tops:  FORM TOPS DESC
 SON .        AZ-XX-0906571587:  JOB NUMBER
 COMP.     BP Exploration (Caspian Sea) Ltd:  COMPANY
 UWI .                     N/A:  UNIQUE WELL IDENTIFIER
 API .                     N/A:  API NUMBER
 BASE.              Azerbaijan:  LOGGING EQUIPMENT BASE LOCATION
 REGN.                   EESSA:  REGION
 PROV.                    Baku:  PROVINCE
 STAT.                    Baku:  STATE NAME
 CTRY.              Azerbaijan:  COUNTRY NAME
 FLD .                     ACG:  FIELD NAME
 SRVC.     TURAN Drilling & Engineering:  CONTRACTOR
 WELL.                     J27:  WELL NAME
 RIG .             West Chirag:  RIG NAME
 DOE .                     N/A:  DOE NUMBER
 DCON.         Sperry Drilling:  DIRECTNL CONTR
 PDAT.          Mean Sea Level:  PERMANENT DATUM
 WTYP.                Deviated:  WELL TYPE
 MWDS.                    Baku:  MWD SHOP
 JOBN.        AZ-XX-0906571587:  JOB TICKET NUMB
 UNIT.                     N/A:  LOGGING EQUIPMENT ID
 MDS .        Operator Entered:  MAG DATA SOURCE
 CNTY.                        :  COUNTY
 LOC .                        :  LOCATION
 LMF .             Drill Floor:  LOG MEASURED FROM
 TVDS.m                  43.00:  TVDSS CORRECTN
 LATI.deg                40.13:  LATITUDE
 LONG.deg                51.22:  LONGITUDE
 WHNS.m                   7.72:  WELL HEAD N/S
 WHEW.m                 -14.24:  WELL HEAD E/W
 UTMX.m              519005.06:  UTM X
 UTMY.m             4443793.85:  UTM Y
 DFWL.m                   0.00:  DISTANCE FWL
 DFSL.m                   0.00:  DISTANCE FSL
 SDEP.m                 347.00:  START DEPTH
 TDD .m                 581.00:  TOTAL DEPTH (DRILLER)
 VSDR.deg               159.72:  VERT SEC DIRECT
 GVFD.g                   1.00:  GRAVITY FIELD
 MFLD.nT              50313.00:  MAGNETIC FIELD
 MDIP.deg                59.58:  MAGNETIC DIP
 MDEC.deg                 6.45:  MAGNETIC DECL
 GRDC.deg                 0.15:  GRID CORRECTION
 AZTC.deg                 6.30:  AZM TOTAL CORR
 EPD .m                   0.00:  ELEVATION
 EGL .m                   0.00:  GROUND ELEVATION
 WDMS.m                 169.80:  WD ELEV
 APD .m                  43.00:  DEPTH ABOVE PD
 AGAP.m                  43.00:  AIR GAP
 VSEW.m                 -14.24:  VERT SEC E/W
 VSNS.m                   7.72:  VERT SEC N/S
 DEP .m                 342.45:  DEPTH
 EKB .m                   0.00:  KB ELEVATION
 EDF .m                  43.00:  DF ELEVATION
 TDL .m                1313.00:  TOTAL DEPTH (LOGGER)
 VSC .                       0:  VS TO CLOSURE
 MAGU.                 1851396:  MAGUTM CHECKSUM
~Parameter Information Block
#MNEM.UNIT       Value        Description
#---------     -----------    ---------------------------
 AV  .mps                 0.65:  Ann Velocity 
 AVMX.mps                 0.75:  Max Ann Veloc 
 AZIF.deg               115.08:  Azm, Final 
 BHAT.        Rotary Steerable:  BHA Type 
 BROT.°/30m               1.50:  Build Rotating 
 BS  .in                 12.25:  Bit Size 
 BSZ .in                 12.25:  Bit Size 
 BTPL.psig              700.00:  Bit Press Loss 
 CABU.                     Yes:  Customer Abuse 
 COMM.                     LNw:  Run Comments 1 
 TCS .hr                121.00:  Time Ciculation Ended 
 CV  .mps                 1.83:  Crit Velocity 
 CVMX.mps                 1.83:  Max Crit Veloc 
 DD1 .          Rashad Habibov:  Direct Drillr 1 
 DD2 .         Rasim Ibrahimov:  Direct Drillr 2 
 DDSV.                 iCruise:  DD Service 
 DEFF.%                 100.00:  % Det Eff 
 DLRX.°/30m               3.60:  Dogleg Rot Max 
 DLSO.°/30m               3.10:  Dogleg Oriented 
 DLSX.°/30m               3.60:  Dogleg Str Max 
 DRET.      13.41.20 12-Nov-20:  Drill End Time 
 DRST.      13.41.20 07-Nov-20:  Drill Start Tim 
 DTIM.hr                 54.16:  Time Drilling 
 EDEP.m                4762.01:  End Depth 
 ENG1.           Amrah Tahirov:  Engineer 1 
 ENG2.      Bakhtiyar Jabbarli:  Engineer 2 
 ENG3.          Ruslan Safarov:  Engineer 3 
 ETIM.      13.41.20 14-Nov-20:  End Time 
 FLOI.gpm              1200.00:  Flow In 
 FLON.gpm              1100.00:  Flow In Min 
 FLOS.cptm                0.00:  Fluid Loss 
 FLOX.gpm              1200.00:  Flow In Max 
 HFLO.                      No:  High Flow 
 HPRE.                      No:  High Pressure 
 HTEM.                      No:  High Temp 
 HYDO.m                   2.00:  Hydro Offset 
 IFIN.deg                66.14:  Inc, Final 
 IMAX.deg                69.03:  Inc Max 
 IMIN.deg                64.64:  Inc Min 
 IMND.m                4450.16:  Inc Min Depth 
 IMXD.m                3996.00:  Inc Max Depth 
 JARR.                     Yes:  Jarring 
 LETM.      13.41.20 14-Nov-20:  Log End Time 
 LOST.hr                     0:  Lost Rig Time 
 LSTM.      13.41.20 06-Nov-20:  Log Start Time 
 MDCL.ppm             42500.00:  Mud Chlorides 
 MDES.     Inversion Oil/Synthetic:  Mud Desc 
 DFD .sg                  1.45:  Mud Density 
 MDMN.sg                  1.45:  Dens Mud Min 
 MDMX.sg                  1.45:  Dens Mud Max 
 MOIL.                      70:  Run Mud Oil % 
 MOWR.                   70:30:  Run Mud OWR 
 MSND.                       0:  Run Mud Sand % 
 MSOL.                    19.3:  Run Mud Solids% 
 DFV .spqt               77.00:  Mud Viscosity 
 MWOD.in                  8.00:  MWD Tool OD 
 MWSI.                      No:  Serv Intrp, MWD 
 OTIM.hr                201.88:  Time Operating 
 PCON.           Look Like New:  Pad Condition 
 PMAX.psia             9250.94:  Press Op, Max 
 PV  .cP                 29.00:  Mud PV 
 RUN .                     800:  Run Number 
 ROPA.m/hr               28.00:  ROP Avg 
 ROPN.m/hr               25.00:  ROP Min 
 ROPX.m/hr               30.00:  ROP Max 
 RPMA.rpm               160.00:  RPM Surface Avg 
 RPMN.rpm               160.00:  RPM Surface Min 
 RPMX.rpm               160.00:  RPM Surface Max 
 RRUN.                    0800:  Rig Run Number 
 RTIM.hr                 12.00:  Time Reaming 
 SAZI.deg               169.33:  Azm, Start 
 SDEP.m                3449.01:  Start Depth 
 SIDD.                      No:  Serv Intrp, DD 
 SINC.deg                68.01:  Inc, Start 
 SPPA.psig             4900.00:  SPP Avg 
 SPPN.psig             4800.00:  SPP Min 
 SPPX.psig             5050.00:  SPP Max 
 STIM.      13.41.20 06-Nov-20:  Start Time 
 SVCS.                 DD, MWD:  Services 
 SVER.                    9.20:  Sperry Version 
 TDAT.m                4762.01:  Tot Depth Attmp 
 TDDF.                      No:  Trip for DD 
 TDLG.m                1313.00:  Tot Depth Loggd 
 TFF .                      No:  Trip for Fail 
 TQAA.f-kp               13.00:  Torque Abs Avg 
 TQAN.f-kp               13.00:  Torque Abs Min 
 TQAX.f-kp               13.00:  Torque Abs Max 
 TRRT.°/30m               1.70:  Turn Rotating 
 MRT .                  EWR-M5:  Maximum Recorded Temperature 
 TTMX.degC               86.00:  Max Tool Temp 
 VS01.                90622122:  Virtual Str1 SN 
 VS02.                90577298:  Virtual Str2 SN 
 VS03.                90563623:  Virtual Str3 SN 
 VS04.                90617559:  Virtual Str4 SN 
 VS05.                11339492:  Virtual Str5 SN 
 VS06.                12385033:  Virtual Str6 SN 
 WBMN.klb                 0.00:  WOB Min 
 WOBA.klb                22.00:  WOB Avg 
 WOBX.klb                26.00:  WOB Max 
 YP  .lhf2               30.00:  Yield Point 
~Curve Information Block
#MNEM.UNIT                 API CODE     Curve Description
#---------               -----------    ---------------------------
 TIME.HHMMSS            00 000 000 000:  GT Time & Date
 GTDEPTH.m              00 000 000 000:  GT Depth
 GTPQH.psia             00 000 000 000:  GT HR Quartz Pressure
 GTTQ.degC              00 000 000 000:  GT Quartz Temperature
 GTTN.NONE              00 000 000 000:  GT Test Number
 GTET.sec               00 000 000 000:  GT Elapsed Test Time
 GTTVD.m                00 000 000 000:  GT True Vertical Depth
#Other Information
#
#WARRANTY: Halliburton will use its best efforts to furnish customers with 
#accurate information and interpretations that are part of, and incident to, the services 
#provided.  However, Halliburton cannot and does not warrant the accuracy 
#or correctness of such information and interpretations.  Under no circumstances should any 
#such information or interpretation be relied upon as the sole basis for any drilling, 
#completion, production, or financial decision or any procedure involving any risk to the 
#safety of any drilling venture, drilling rig or its crew or any other third party.  The 
#Customer has full responsibility for all drilling, completion and production operation.  
#Halliburton makes no representations or warranties, either expressed or 
#implied, including, but not limited to, the implied warranties of merchantability or fitness 
#for a particular purpose, with respect to the services rendered.  In no event will 
#Halliburton be liable for failure to obtain any particular results or for 
#any damages, including, but not limited to, indirect, special or consequential damages, 
#resulting from the use of any information or interpretation provided by Halliburton.
#
~A           TIME           GTDEPTH  GTPQH  GTTQ  GTTN  GTET   GTTVD  
# ...
   06:50:18.483.11-Nov-2020 4617.01 4135.58 79.13 8.00 299.09 2426.59
   06:50:18.684.11-Nov-2020 4617.01 4135.58 79.13 8.00 299.29 2426.59
   06:50:18.884.11-Nov-2020 4617.01 4135.61 79.13 8.00 299.49 2426.59
   06:50:19.084.11-Nov-2020 4617.01 4135.56 79.13 8.00 299.69 2426.59
   06:50:19.284.11-Nov-2020 4617.01 4135.58 79.13 8.00 299.89 2426.59
   06:50:19.484.11-Nov-2020 4617.01 4135.51 79.13 8.00 300.09 2426.59
   06:50:19.684.11-Nov-2020 4617.01 4135.63 79.13 8.00 300.29 2426.59
   06:50:19.884.11-Nov-2020 4617.01 4135.69 79.13 8.00 300.49 2426.59
   06:50:20.084.11-Nov-2020 4617.01 4135.57 79.13 8.00 300.69 2426.59
   06:50:20.284.11-Nov-2020 4617.01 4135.61 79.13 8.00 300.89 2426.59
   06:50:20.484.11-Nov-2020 4617.01 4135.59 79.13 8.00 301.09 2426.59
   06:50:20.684.11-Nov-2020 4617.01 4135.59 79.13 8.00 301.29 2426.59
   06:50:20.884.11-Nov-2020 4617.01 4135.57 79.12 8.00 301.49 2426.59
   06:50:21.084.11-Nov-2020 4617.01 4135.57 79.12 8.00 301.69 2426.59
   06:50:21.284.11-Nov-2020 4617.01 4135.56 79.12 8.00 301.89 2426.59
   06:50:21.484.11-Nov-2020 4617.01 4135.59 79.12 8.00 302.09 2426.59
   06:50:21.684.11-Nov-2020 4617.01 4135.59 79.12 8.00 302.29 2426.59
   06:50:21.885.11-Nov-2020 4617.01 4135.37 79.12 8.00 302.49 2426.59
   06:50:22.085.11-Nov-2020 4617.01 4135.51 79.12 8.00 302.70 2426.59
   06:50:22.285.11-Nov-2020 4617.01 4135.58 79.12 8.00 302.90 2426.59
   06:50:22.485.11-Nov-2020 4617.01 4135.70 79.12 8.00 303.10 2426.59
   06:50:22.685.11-Nov-2020 4617.01 4135.70 79.12 8.00 303.30 2426.59
   06:50:22.885.11-Nov-2020 4617.01 4135.60 79.12 8.00 303.50 2426.59
   06:50:23.085.11-Nov-2020 4617.01 4135.57 79.12 8.00 303.70 2426.59
   06:50:23.285.11-Nov-2020 4617.01 4135.55 79.12 8.00 303.90 2426.59
   06:50:23.485.11-Nov-2020 4617.01 4135.50 79.11 8.00 304.10 2426.59
   06:50:23.685.11-Nov-2020 4617.01 4135.60 79.11 8.00 304.30 2426.59
   06:50:23.885.11-Nov-2020 4617.01 4135.61 79.11 8.00 304.50 2426.59
   06:50:24.085.11-Nov-2020 4617.01 4135.55 79.11 8.00 304.70 2426.59
   06:50:24.285.11-Nov-2020 4617.01 4135.81 79.11 8.00 304.90 2426.59
   06:50:24.485.11-Nov-2020 4617.01 4135.46 79.11 8.00 305.10 2426.59
   06:50:24.685.11-Nov-2020 4617.01 4135.46 79.11 8.00 305.30 2426.59
   06:50:24.885.11-Nov-2020 4617.01 4135.50 79.11 8.00 305.50 2426.59
   06:50:25.086.11-Nov-2020 4617.01 4135.67 79.11 8.00 305.70 2426.59
   06:50:25.286.11-Nov-2020 4617.01 4135.60 79.11 8.00 305.90 2426.59
   06:50:25.486.11-Nov-2020 4617.01 4135.61 79.11 8.00 306.10 2426.59
   06:50:25.686.11-Nov-2020 4617.01 4135.61 79.11 8.00 306.30 2426.59
   06:50:25.886.11-Nov-2020 4617.01 4135.34 79.10 8.00 306.50 2426.59
   06:50:26.086.11-Nov-2020 4617.01 4135.57 79.10 8.00 306.70 2426.59
   06:50:26.286.11-Nov-2020 4617.01 4135.45 79.10 8.00 306.90 2426.59
   06:50:26.486.11-Nov-2020 4617.01 4135.67 79.10 8.00 307.10 2426.59
   06:50:26.686.11-Nov-2020 4617.01 4135.67 79.10 8.00 307.30 2426.59
   06:50:26.886.11-Nov-2020 4617.01 4135.58 79.10 8.00 307.50 2426.59
   06:50:27.086.11-Nov-2020 4617.01 4135.61 79.10 8.00 307.70 2426.59
   06:50:27.286.11-Nov-2020 4617.01 4135.47 79.10 8.00 307.90 2426.59
   06:50:27.486.11-Nov-2020 4617.01 4135.68 79.10 8.00 308.10 2426.59
   06:50:27.686.11-Nov-2020 4617.01 4135.58 79.10 8.00 308.30 2426.59
   06:50:27.886.11-Nov-2020 4617.01 4135.64 79.10 8.00 308.50 2426.59
   06:50:28.086.11-Nov-2020 4617.01 4135.63 79.10 8.00 308.70 2426.59
   06:50:28.287.11-Nov-2020 4617.01 4135.61 79.09 8.00 308.90 2426.59
   06:50:28.487.11-Nov-2020 4617.01 4135.63 79.09 8.00 309.10 2426.59
   06:50:28.687.11-Nov-2020 4617.01 4135.63 79.09 8.00 309.30 2426.59
   06:50:28.887.11-Nov-2020 4617.01 4135.55 79.09 8.00 309.50 2426.59
   06:50:29.087.11-Nov-2020 4617.01 4135.58 79.09 8.00 309.70 2426.59
   06:50:29.287.11-Nov-2020 4617.01 4135.58 79.09 8.00 309.90 2426.59
   06:50:29.487.11-Nov-2020 4617.01 4135.59 79.09 8.00 310.10 2426.59
   06:50:29.687.11-Nov-2020 4617.01 4135.59 79.09 8.00 310.30 2426.59
   06:50:29.887.11-Nov-2020 4617.01 4135.62 79.09 8.00 310.50 2426.59
   06:50:30.087.11-Nov-2020 4617.01 4135.54 79.09 8.00 310.70 2426.59
   06:50:30.287.11-Nov-2020 4617.01 4135.64 79.09 8.00 310.90 2426.59
   06:50:30.487.11-Nov-2020 4617.01 4135.59 79.09 8.00 311.10 2426.59
   06:50:30.687.11-Nov-2020 4617.01 4135.59 79.09 8.00 311.30 2426.59
   06:50:30.887.11-Nov-2020 4617.01 4135.65 79.08 8.00 311.50 2426.59
   06:50:31.087.11-Nov-2020 4617.01 4135.55 79.08 8.00 311.70 2426.59
   06:50:31.288.11-Nov-2020 4617.01 4135.62 79.08 8.00 311.90 2426.59
   06:50:31.488.11-Nov-2020 4617.01 4135.49 79.08 8.00 312.10 2426.59
   06:50:31.688.11-Nov-2020 4617.01 4135.49 79.08 8.00 312.30 2426.59
   06:50:31.888.11-Nov-2020 4617.01 4135.55 79.08 8.00 312.50 2426.59
   06:50:32.088.11-Nov-2020 4617.01 4135.59 79.08 8.00 312.70 2426.59
   06:50:32.288.11-Nov-2020 4617.01 4135.61 79.08 8.00 312.90 2426.59
   06:50:32.488.11-Nov-2020 4617.01 4135.55 79.08 8.00 313.10 2426.59
   06:50:32.688.11-Nov-2020 4617.01 4135.55 79.08 8.00 313.30 2426.59
   06:50:32.888.11-Nov-2020 4617.01 4135.66 79.08 8.00 313.50 2426.59
   06:50:33.088.11-Nov-2020 4617.01 4135.58 79.08 8.00 313.70 2426.59
   06:50:33.288.11-Nov-2020 4617.01 4135.78 79.07 8.00 313.90 2426.59
   06:50:33.488.11-Nov-2020 4617.01 4135.44 79.07 8.00 314.10 2426.59
   06:50:33.688.11-Nov-2020 4617.01 4135.44 79.07 8.00 314.30 2426.59
   06:50:33.888.11-Nov-2020 4617.01 4135.72 79.07 8.00 314.50 2426.59
   06:50:34.088.11-Nov-2020 4617.01 4135.39 79.07 8.00 314.70 2426.59
   06:50:34.288.11-Nov-2020 4617.01 4135.52 79.07 8.00 314.90 2426.59
   06:50:34.489.11-Nov-2020 4617.01 4135.66 79.07 8.00 315.10 2426.59
   06:50:34.689.11-Nov-2020 4617.01 4135.66 79.07 8.00 315.30 2426.59
   06:50:34.889.11-Nov-2020 4617.01 4135.55 79.07 8.00 315.50 2426.59
   06:50:35.089.11-Nov-2020 4617.01 4135.50 79.07 8.00 315.70 2426.59
   06:50:35.289.11-Nov-2020 4617.01 4135.69 79.07 8.00 315.90 2426.59
   06:50:35.489.11-Nov-2020 4617.01 4135.59 79.07 8.00 316.10 2426.59
   06:50:35.689.11-Nov-2020 4617.01 4135.76 79.07 8.00 316.30 2426.59
   06:50:35.889.11-Nov-2020 4617.01 4135.46 79.06 8.00 316.50 2426.59
   06:50:36.089.11-Nov-2020 4617.01 4135.59 79.06 8.00 316.70 2426.59
   06:50:36.289.11-Nov-2020 4617.01 4135.54 79.06 8.00 316.90 2426.59
   06:50:36.489.11-Nov-2020 4617.01 4135.67 79.06 8.00 317.10 2426.59
   06:50:36.689.11-Nov-2020 4617.01 4135.67 79.06 8.00 317.30 2426.59
   06:50:36.889.11-Nov-2020 4617.01 4135.60 79.06 8.00 317.50 2426.59
   06:50:37.089.11-Nov-2020 4617.01 4135.58 79.06 8.00 317.70 2426.59
   06:50:37.289.11-Nov-2020 4617.01 4135.65 79.06 8.00 317.90 2426.59
   06:50:37.489.11-Nov-2020 4617.01 4135.57 79.06 8.00 318.10 2426.59
   06:50:37.690.11-Nov-2020 4617.01 4135.57 79.06 8.00 318.30 2426.59
   06:50:37.890.11-Nov-2020 4617.01 4135.61 79.06 8.00 318.50 2426.59
   06:50:38.090.11-Nov-2020 4617.01 4135.57 79.06 8.00 318.70 2426.59
   06:50:38.290.11-Nov-2020 4617.01 4135.64 79.05 8.00 318.90 2426.59
   06:50:38.490.11-Nov-2020 4617.01 4135.62 79.05 8.00 319.10 2426.59
   06:50:38.690.11-Nov-2020 4617.01 4135.62 79.05 8.00 319.30 2426.59
   06:50:38.890.11-Nov-2020 4617.01 4135.55 79.05 8.00 319.50 2426.59
   06:50:39.090.11-Nov-2020 4617.01 4135.59 79.05 8.00 319.70 2426.59
   06:50:39.290.11-Nov-2020 4617.01 4135.55 79.05 8.00 319.90 2426.59
   06:50:39.490.11-Nov-2020 4617.01 4135.61 79.05 8.00 320.10 2426.59
   06:50:39.690.11-Nov-2020 4617.01 4135.61 79.05 8.00 320.30 2426.59
   06:50:39.890.11-Nov-2020 4617.01 4135.58 79.05 8.00 320.50 2426.59
   06:50:40.090.11-Nov-2020 4617.01 4135.55 79.05 8.00 320.70 2426.59
   06:50:40.290.11-Nov-2020 4617.01 4135.60 79.05 8.00 320.90 2426.59
   06:50:40.490.11-Nov-2020 4617.01 4135.58 79.05 8.00 321.10 2426.59
   06:50:40.690.11-Nov-2020 4617.01 4135.58 79.05 8.00 321.30 2426.59
   06:50:40.891.11-Nov-2020 4617.01 4135.64 79.04 8.00 321.50 2426.59
   06:50:41.091.11-Nov-2020 4617.01 4135.65 79.04 8.00 321.70 2426.59
   06:50:41.291.11-Nov-2020 4617.01 4135.58 79.04 8.00 321.90 2426.59
