~Version Information
 VERS.                  2.0:   CWLS log ASCII Standard -VERSION 2.0
 WRAP.                   NO:   One line per depth step
~Well Information Block
#MNEM.UNIT     VALUE/NAME     DESCRIPTION
#---------     -----------    ---------------------------
 STRT.S             12:15:13 08-Nov-20: START TIME 12:15:13 08-Nov-20
 STOP.S             12:21:45 08-Nov-20: STOP TIME  12:21:45 08-Nov-20
 STEP.S                   0.00: STEP TIME
 NULL.                 -999.25: NULL VALUE
 DFWT.                        :  DIST FWL TEXT
 DFST.                        :  DIST FSL TEXT
 DMF .             Drill Floor:  DRILL MEAS FROM
 STIM.      04.54.24 22-Sep-20:  START TIME
 DATE.      04.54.24 21-Nov-20:  END TIME
 SPUD.               21-Nov-20:  SPUD DATE
 NREF.                    Grid:  NORTH REFERENCE
 HPTY.       Minimum Curvature:  HOLE POS TYPE
 DMOD.             Drill Model:  DRILL MOD DESC
 SVYD.                  Survey:  SURVEY DESC
 ILTD.               Lithology:  INTERP LTH DESC
 FTOP.          Formation Tops:  FORM TOPS DESC
 SON .        AZ-XX-0906571587:  JOB NUMBER
 COMP.     BP Exploration (Caspian Sea) Ltd:  COMPANY
 UWI .                     N/A:  UNIQUE WELL IDENTIFIER
 API .                     N/A:  API NUMBER
 BASE.              Azerbaijan:  LOGGING EQUIPMENT BASE LOCATION
 REGN.                   EESSA:  REGION
 PROV.                    Baku:  PROVINCE
 STAT.                    Baku:  STATE NAME
 CTRY.              Azerbaijan:  COUNTRY NAME
 FLD .                     ACG:  FIELD NAME
 SRVC.     TURAN Drilling & Engineering:  CONTRACTOR
 WELL.                     J27:  WELL NAME
 RIG .             West Chirag:  RIG NAME
 DOE .                     N/A:  DOE NUMBER
 DCON.         Sperry Drilling:  DIRECTNL CONTR
 PDAT.          Mean Sea Level:  PERMANENT DATUM
 WTYP.                Deviated:  WELL TYPE
 MWDS.                    Baku:  MWD SHOP
 JOBN.        AZ-XX-0906571587:  JOB TICKET NUMB
 UNIT.                     N/A:  LOGGING EQUIPMENT ID
 MDS .        Operator Entered:  MAG DATA SOURCE
 CNTY.                        :  COUNTY
 LOC .                        :  LOCATION
 LMF .             Drill Floor:  LOG MEASURED FROM
 TVDS.m                  43.00:  TVDSS CORRECTN
 LATI.deg                40.13:  LATITUDE
 LONG.deg                51.22:  LONGITUDE
 WHNS.m                   7.72:  WELL HEAD N/S
 WHEW.m                 -14.24:  WELL HEAD E/W
 UTMX.m              519005.06:  UTM X
 UTMY.m             4443793.85:  UTM Y
 DFWL.m                   0.00:  DISTANCE FWL
 DFSL.m                   0.00:  DISTANCE FSL
 SDEP.m                 347.00:  START DEPTH
 TDD .m                 581.00:  TOTAL DEPTH (DRILLER)
 VSDR.deg               159.72:  VERT SEC DIRECT
 GVFD.g                   1.00:  GRAVITY FIELD
 MFLD.nT              50313.00:  MAGNETIC FIELD
 MDIP.deg                59.58:  MAGNETIC DIP
 MDEC.deg                 6.45:  MAGNETIC DECL
 GRDC.deg                 0.15:  GRID CORRECTION
 AZTC.deg                 6.30:  AZM TOTAL CORR
 EPD .m                   0.00:  ELEVATION
 EGL .m                   0.00:  GROUND ELEVATION
 WDMS.m                 169.80:  WD ELEV
 APD .m                  43.00:  DEPTH ABOVE PD
 AGAP.m                  43.00:  AIR GAP
 VSEW.m                 -14.24:  VERT SEC E/W
 VSNS.m                   7.72:  VERT SEC N/S
 DEP .m                 342.45:  DEPTH
 EKB .m                   0.00:  KB ELEVATION
 EDF .m                  43.00:  DF ELEVATION
 TDL .m                1313.00:  TOTAL DEPTH (LOGGER)
 VSC .                       0:  VS TO CLOSURE
 MAGU.                 1851396:  MAGUTM CHECKSUM
~Parameter Information Block
#MNEM.UNIT       Value        Description
#---------     -----------    ---------------------------
 AV  .mps                 0.65:  Ann Velocity 
 AVMX.mps                 0.75:  Max Ann Veloc 
 AZIF.deg               115.08:  Azm, Final 
 BHAT.        Rotary Steerable:  BHA Type 
 BROT.°/30m               1.50:  Build Rotating 
 BS  .in                 12.25:  Bit Size 
 BSZ .in                 12.25:  Bit Size 
 BTPL.psig              700.00:  Bit Press Loss 
 CABU.                     Yes:  Customer Abuse 
 COMM.                     „*[:  Run Comments 1 
 TCS .hr                121.00:  Time Ciculation Ended 
 CV  .mps                 1.83:  Crit Velocity 
 CVMX.mps                 1.83:  Max Crit Veloc 
 DD1 .          Rashad Habibov:  Direct Drillr 1 
 DD2 .         Rasim Ibrahimov:  Direct Drillr 2 
 DDSV.                 iCruise:  DD Service 
 DEFF.%                 100.00:  % Det Eff 
 DLRX.°/30m               3.60:  Dogleg Rot Max 
 DLSO.°/30m               3.10:  Dogleg Oriented 
 DLSX.°/30m               3.60:  Dogleg Str Max 
 DRET.      13.41.20 12-Nov-20:  Drill End Time 
 DRST.      13.41.20 07-Nov-20:  Drill Start Tim 
 DTIM.hr                 54.16:  Time Drilling 
 EDEP.m                4762.01:  End Depth 
 ENG1.           Amrah Tahirov:  Engineer 1 
 ENG2.      Bakhtiyar Jabbarli:  Engineer 2 
 ENG3.          Ruslan Safarov:  Engineer 3 
 ETIM.      13.41.20 14-Nov-20:  End Time 
 FLOI.gpm              1200.00:  Flow In 
 FLON.gpm              1100.00:  Flow In Min 
 FLOS.cptm                0.00:  Fluid Loss 
 FLOX.gpm              1200.00:  Flow In Max 
 HFLO.                      No:  High Flow 
 HPRE.                      No:  High Pressure 
 HTEM.                      No:  High Temp 
 HYDO.m                   2.00:  Hydro Offset 
 IFIN.deg                66.14:  Inc, Final 
 IMAX.deg                69.03:  Inc Max 
 IMIN.deg                64.64:  Inc Min 
 IMND.m                4450.16:  Inc Min Depth 
 IMXD.m                3996.00:  Inc Max Depth 
 JARR.                     Yes:  Jarring 
 LETM.      13.41.20 14-Nov-20:  Log End Time 
 LOST.hr                     0:  Lost Rig Time 
 LSTM.      13.41.20 06-Nov-20:  Log Start Time 
 MDCL.ppm             42500.00:  Mud Chlorides 
 MDES.     Inversion Oil/Synthetic:  Mud Desc 
 DFD .sg                  1.45:  Mud Density 
 MDMN.sg                  1.45:  Dens Mud Min 
 MDMX.sg                  1.45:  Dens Mud Max 
 MOIL.                      70:  Run Mud Oil % 
 MOWR.                   70:30:  Run Mud OWR 
 MSND.                       0:  Run Mud Sand % 
 MSOL.                    19.3:  Run Mud Solids% 
 DFV .spqt               77.00:  Mud Viscosity 
 MWOD.in                  8.00:  MWD Tool OD 
 MWSI.                      No:  Serv Intrp, MWD 
 OTIM.hr                201.88:  Time Operating 
 PCON.           Look Like New:  Pad Condition 
 PMAX.psia             9250.94:  Press Op, Max 
 PV  .cP                 29.00:  Mud PV 
 RUN .                     800:  Run Number 
 ROPA.m/hr               28.00:  ROP Avg 
 ROPN.m/hr               25.00:  ROP Min 
 ROPX.m/hr               30.00:  ROP Max 
 RPMA.rpm               160.00:  RPM Surface Avg 
 RPMN.rpm               160.00:  RPM Surface Min 
 RPMX.rpm               160.00:  RPM Surface Max 
 RRUN.                    0800:  Rig Run Number 
 RTIM.hr                 12.00:  Time Reaming 
 SAZI.deg               169.33:  Azm, Start 
 SDEP.m                3449.01:  Start Depth 
 SIDD.                      No:  Serv Intrp, DD 
 SINC.deg                68.01:  Inc, Start 
 SPPA.psig             4900.00:  SPP Avg 
 SPPN.psig             4800.00:  SPP Min 
 SPPX.psig             5050.00:  SPP Max 
 STIM.      13.41.20 06-Nov-20:  Start Time 
 SVCS.                 DD, MWD:  Services 
 SVER.                    9.20:  Sperry Version 
 TDAT.m                4762.01:  Tot Depth Attmp 
 TDDF.                      No:  Trip for DD 
 TDLG.m                1313.00:  Tot Depth Loggd 
 TFF .                      No:  Trip for Fail 
 TQAA.f-kp               13.00:  Torque Abs Avg 
 TQAN.f-kp               13.00:  Torque Abs Min 
 TQAX.f-kp               13.00:  Torque Abs Max 
 TRRT.°/30m               1.70:  Turn Rotating 
 MRT .                  EWR-M5:  Maximum Recorded Temperature 
 TTMX.degC               86.00:  Max Tool Temp 
 VS01.                90622122:  Virtual Str1 SN 
 VS02.                90577298:  Virtual Str2 SN 
 VS03.                90563623:  Virtual Str3 SN 
 VS04.                90617559:  Virtual Str4 SN 
 VS05.                11339492:  Virtual Str5 SN 
 VS06.                12385033:  Virtual Str6 SN 
 WBMN.klb                 0.00:  WOB Min 
 WOBA.klb                22.00:  WOB Avg 
 WOBX.klb                26.00:  WOB Max 
 YP  .lhf2               30.00:  Yield Point 
~Curve Information Block
#MNEM.UNIT                 API CODE     Curve Description
#---------               -----------    ---------------------------
 TIME.HHMMSS            00 000 000 000:  GT Time & Date
 GTDEPTH.m              00 000 000 000:  GT Depth
 GTPQH.psia             00 000 000 000:  GT HR Quartz Pressure
 GTTQ.degC              00 000 000 000:  GT Quartz Temperature
 GTTN.NONE              00 000 000 000:  GT Test Number
 GTET.sec               00 000 000 000:  GT Elapsed Test Time
 GTTVD.m                00 000 000 000:  GT True Vertical Depth
#Other Information
#
#WARRANTY: Halliburton will use its best efforts to furnish customers with 
#accurate information and interpretations that are part of, and incident to, the services 
#provided.  However, Halliburton cannot and does not warrant the accuracy 
#or correctness of such information and interpretations.  Under no circumstances should any 
#such information or interpretation be relied upon as the sole basis for any drilling, 
#completion, production, or financial decision or any procedure involving any risk to the 
#safety of any drilling venture, drilling rig or its crew or any other third party.  The 
#Customer has full responsibility for all drilling, completion and production operation.  
#Halliburton makes no representations or warranties, either expressed or 
#implied, including, but not limited to, the implied warranties of merchantability or fitness 
#for a particular purpose, with respect to the services rendered.  In no event will 
#Halliburton be liable for failure to obtain any particular results or for 
#any damages, including, but not limited to, indirect, special or consequential damages, 
#resulting from the use of any information or interpretation provided by Halliburton.
#
~A           TIME           GTDEPTH  GTPQH  GTTQ  GTTN  GTET   GTTVD  
# ...
   12:17:08.000.08-Nov-2020 3568.06 3289.78 70.53 2.00 115.00 2028.53
   12:17:08.200.08-Nov-2020 3568.06 3289.78 70.53 2.00 115.20 2028.53
   12:17:08.400.08-Nov-2020 3568.06 3289.73 70.53 2.00 115.40 2028.53
   12:17:08.600.08-Nov-2020 3568.06 3289.76 70.53 2.00 115.60 2028.53
   12:17:08.800.08-Nov-2020 3568.06 3289.72 70.53 2.00 115.80 2028.53
   12:17:09.000.08-Nov-2020 3568.06 3289.71 70.53 2.00 116.00 2028.53
   12:17:09.200.08-Nov-2020 3568.06 3289.71 70.53 2.00 116.20 2028.53
   12:17:09.400.08-Nov-2020 3568.06 3289.71 70.52 2.00 116.40 2028.53
   12:17:09.600.08-Nov-2020 3568.06 3289.71 70.52 2.00 116.60 2028.53
   12:17:09.800.08-Nov-2020 3568.06 3289.71 70.52 2.00 116.80 2028.53
   12:17:10.000.08-Nov-2020 3568.06 3289.72 70.52 2.00 117.00 2028.53
   12:17:10.200.08-Nov-2020 3568.06 3289.72 70.52 2.00 117.20 2028.53
   12:17:10.400.08-Nov-2020 3568.06 3289.74 70.52 2.00 117.40 2028.53
   12:17:10.600.08-Nov-2020 3568.06 3289.72 70.52 2.00 117.60 2028.53
   12:17:10.800.08-Nov-2020 3568.06 3289.74 70.52 2.00 117.80 2028.53
   12:17:11.000.08-Nov-2020 3568.06 3289.77 70.52 2.00 118.00 2028.53
   12:17:11.200.08-Nov-2020 3568.06 3289.77 70.52 2.00 118.20 2028.53
   12:17:11.400.08-Nov-2020 3568.06 3289.75 70.52 2.00 118.40 2028.53
   12:17:11.600.08-Nov-2020 3568.06 3289.71 70.51 2.00 118.60 2028.53
   12:17:11.800.08-Nov-2020 3568.06 3289.74 70.51 2.00 118.80 2028.53
   12:17:12.000.08-Nov-2020 3568.06 3289.80 70.51 2.00 119.00 2028.53
   12:17:12.200.08-Nov-2020 3568.06 3289.80 70.51 2.00 119.20 2028.53
   12:17:12.400.08-Nov-2020 3568.06 3289.73 70.51 2.00 119.40 2028.53
   12:17:12.600.08-Nov-2020 3568.06 3289.75 70.51 2.00 119.60 2028.53
   12:17:12.800.08-Nov-2020 3568.06 3289.71 70.51 2.00 119.80 2028.53
   12:17:13.000.08-Nov-2020 3568.06 3289.78 70.51 2.00 120.00 2028.53
   12:17:13.200.08-Nov-2020 3568.06 3289.78 70.51 2.00 120.20 2028.53
   12:17:13.400.08-Nov-2020 3568.06 3289.74 70.51 2.00 120.40 2028.53
   12:17:13.600.08-Nov-2020 3568.06 3289.74 70.51 2.00 120.60 2028.53
   12:17:13.800.08-Nov-2020 3568.06 3289.73 70.50 2.00 120.80 2028.53
   12:17:14.000.08-Nov-2020 3568.06 3289.77 70.50 2.00 121.00 2028.53
   12:17:14.200.08-Nov-2020 3568.06 3289.77 70.50 2.00 121.20 2028.53
   12:17:14.400.08-Nov-2020 3568.06 3289.75 70.50 2.00 121.40 2028.53
   12:17:14.600.08-Nov-2020 3568.06 3289.73 70.50 2.00 121.60 2028.53
   12:17:14.800.08-Nov-2020 3568.06 3289.73 70.50 2.00 121.80 2028.53
   12:17:15.000.08-Nov-2020 3568.06 3289.72 70.50 2.00 122.00 2028.53
   12:17:15.200.08-Nov-2020 3568.06 3289.72 70.50 2.00 122.20 2028.53
   12:17:15.400.08-Nov-2020 3568.06 3289.71 70.50 2.00 122.40 2028.53
   12:17:15.600.08-Nov-2020 3568.06 3289.71 70.50 2.00 122.60 2028.53
   12:17:15.800.08-Nov-2020 3568.06 3289.71 70.50 2.00 122.80 2028.53
   12:17:16.000.08-Nov-2020 3568.06 3289.70 70.49 2.00 123.00 2028.53
   12:17:16.200.08-Nov-2020 3568.06 3289.70 70.49 2.00 123.20 2028.53
   12:17:16.400.08-Nov-2020 3568.06 3289.70 70.49 2.00 123.40 2028.53
   12:17:16.600.08-Nov-2020 3568.06 3289.73 70.49 2.00 123.60 2028.53
   12:17:16.800.08-Nov-2020 3568.06 3289.73 70.49 2.00 123.80 2028.53
   12:17:17.000.08-Nov-2020 3568.06 3289.71 70.49 2.00 124.00 2028.53
   12:17:17.200.08-Nov-2020 3568.06 3289.71 70.49 2.00 124.20 2028.53
   12:17:17.400.08-Nov-2020 3568.06 3289.74 70.49 2.00 124.40 2028.53
   12:17:17.600.08-Nov-2020 3568.06 3289.70 70.49 2.00 124.60 2028.53
   12:17:17.800.08-Nov-2020 3568.06 3289.72 70.49 2.00 124.80 2028.53
   12:17:18.000.08-Nov-2020 3568.06 3289.70 70.49 2.00 125.00 2028.53
   12:17:18.200.08-Nov-2020 3568.06 3289.70 70.49 2.00 125.20 2028.53
   12:17:18.400.08-Nov-2020 3568.06 3289.70 70.48 2.00 125.40 2028.53
   12:17:18.600.08-Nov-2020 3568.06 3289.69 70.48 2.00 125.60 2028.53
   12:17:18.800.08-Nov-2020 3568.06 3289.70 70.48 2.00 125.80 2028.53
   12:17:19.000.08-Nov-2020 3568.06 3289.68 70.48 2.00 126.00 2028.53
   12:17:19.200.08-Nov-2020 3568.06 3289.68 70.48 2.00 126.20 2028.53
   12:17:19.400.08-Nov-2020 3568.06 3289.77 70.48 2.00 126.40 2028.53
   12:17:19.600.08-Nov-2020 3568.06 3289.71 70.48 2.00 126.60 2028.53
   12:17:19.800.08-Nov-2020 3568.06 3289.71 70.48 2.00 126.80 2028.53
   12:17:20.000.08-Nov-2020 3568.06 3289.77 70.48 2.00 127.00 2028.53
   12:17:20.200.08-Nov-2020 3568.06 3289.77 70.48 2.00 127.20 2028.53
   12:17:20.400.08-Nov-2020 3568.06 3289.72 70.48 2.00 127.40 2028.53
   12:17:20.600.08-Nov-2020 3568.06 3289.78 70.47 2.00 127.60 2028.53
   12:17:20.800.08-Nov-2020 3568.06 3289.73 70.47 2.00 127.80 2028.53
   12:17:21.000.08-Nov-2020 3568.06 3289.70 70.47 2.00 128.00 2028.53
   12:17:21.200.08-Nov-2020 3568.06 3289.70 70.47 2.00 128.20 2028.53
   12:17:21.400.08-Nov-2020 3568.06 3289.73 70.47 2.00 128.40 2028.53
   12:17:21.600.08-Nov-2020 3568.06 3289.72 70.47 2.00 128.60 2028.53
   12:17:21.800.08-Nov-2020 3568.06 3289.74 70.47 2.00 128.80 2028.53
   12:17:22.000.08-Nov-2020 3568.06 3289.73 70.47 2.00 129.00 2028.53
   12:17:22.200.08-Nov-2020 3568.06 3289.73 70.47 2.00 129.20 2028.53
   12:17:22.400.08-Nov-2020 3568.06 3289.74 70.47 2.00 129.40 2028.53
   12:17:22.600.08-Nov-2020 3568.06 3289.69 70.47 2.00 129.60 2028.53
   12:17:22.800.08-Nov-2020 3568.06 3289.72 70.46 2.00 129.80 2028.53
   12:17:23.000.08-Nov-2020 3568.06 3289.77 70.46 2.00 130.00 2028.53
   12:17:23.200.08-Nov-2020 3568.06 3289.77 70.46 2.00 130.20 2028.53
   12:17:23.400.08-Nov-2020 3568.06 3289.72 70.46 2.00 130.40 2028.53
   12:17:23.600.08-Nov-2020 3568.06 3289.73 70.46 2.00 130.60 2028.53
   12:17:23.800.08-Nov-2020 3568.06 3289.71 70.46 2.00 130.80 2028.53
   12:17:24.000.08-Nov-2020 3568.06 3289.69 70.46 2.00 131.00 2028.53
   12:17:24.200.08-Nov-2020 3568.06 3289.69 70.46 2.00 131.20 2028.53
   12:17:24.400.08-Nov-2020 3568.06 3289.70 70.46 2.00 131.40 2028.53
   12:17:24.600.08-Nov-2020 3568.06 3289.70 70.46 2.00 131.60 2028.53
   12:17:24.800.08-Nov-2020 3568.06 3289.69 70.46 2.00 131.80 2028.53
   12:17:25.000.08-Nov-2020 3568.06 3289.68 70.45 2.00 132.00 2028.53
   12:17:25.200.08-Nov-2020 3568.06 3289.68 70.45 2.00 132.20 2028.53
   12:17:25.400.08-Nov-2020 3568.06 3289.69 70.45 2.00 132.40 2028.53
   12:17:25.600.08-Nov-2020 3568.06 3289.66 70.45 2.00 132.60 2028.53
   12:17:25.800.08-Nov-2020 3568.06 3289.75 70.45 2.00 132.80 2028.53
   12:17:26.000.08-Nov-2020 3568.06 3289.73 70.45 2.00 133.00 2028.53
   12:17:26.200.08-Nov-2020 3568.06 3289.73 70.45 2.00 133.20 2028.53
   12:17:26.400.08-Nov-2020 3568.06 3289.71 70.45 2.00 133.40 2028.53
   12:17:26.600.08-Nov-2020 3568.06 3289.68 70.45 2.00 133.60 2028.53
   12:17:26.800.08-Nov-2020 3568.06 3289.70 70.45 2.00 133.80 2028.53
   12:17:27.000.08-Nov-2020 3568.06 3289.68 70.45 2.00 134.00 2028.53
   12:17:27.200.08-Nov-2020 3568.06 3289.68 70.45 2.00 134.20 2028.53
   12:17:27.400.08-Nov-2020 3568.06 3289.69 70.44 2.00 134.40 2028.53
   12:17:27.600.08-Nov-2020 3568.06 3289.67 70.44 2.00 134.60 2028.53
   12:17:27.800.08-Nov-2020 3568.06 3289.67 70.44 2.00 134.80 2028.53
   12:17:28.000.08-Nov-2020 3568.06 3289.67 70.44 2.00 135.00 2028.53
   12:17:28.200.08-Nov-2020 3568.06 3289.67 70.44 2.00 135.20 2028.53
   12:17:28.400.08-Nov-2020 3568.06 3289.71 70.44 2.00 135.40 2028.53
   12:17:28.600.08-Nov-2020 3568.06 3289.73 70.44 2.00 135.60 2028.53
   12:17:28.800.08-Nov-2020 3568.06 3289.72 70.44 2.00 135.80 2028.53
   12:17:29.000.08-Nov-2020 3568.06 3289.69 70.44 2.00 136.00 2028.53
   12:17:29.200.08-Nov-2020 3568.06 3289.69 70.44 2.00 136.20 2028.53
   12:17:29.400.08-Nov-2020 3568.06 3289.71 70.44 2.00 136.40 2028.53
   12:17:29.600.08-Nov-2020 3568.06 3289.67 70.43 2.00 136.60 2028.53
   12:17:29.800.08-Nov-2020 3568.06 3289.76 70.43 2.00 136.80 2028.53
   12:17:30.000.08-Nov-2020 3568.06 3289.71 70.43 2.00 137.00 2028.53
   12:17:30.200.08-Nov-2020 3568.06 3289.70 70.43 2.00 137.20 2028.53
   12:17:30.400.08-Nov-2020 3568.06 3289.72 70.43 2.00 137.40 2028.53
   12:17:30.600.08-Nov-2020 3568.06 3289.68 70.43 2.00 137.60 2028.53
   12:17:30.800.08-Nov-2020 3568.06 3289.74 70.43 2.00 137.80 2028.53
