~Version Information
 VERS.                  2.0:   CWLS log ASCII Standard -VERSION 2.0
 WRAP.                   NO:   One line per depth step
~Well Information Block
#MNEM.UNIT     VALUE/NAME     DESCRIPTION
#---------     -----------    ---------------------------
 STRT.S             01:27:57 11-Nov-20: START TIME 01:27:57 11-Nov-20
 STOP.S             01:34:34 11-Nov-20: STOP TIME  01:34:34 11-Nov-20
 STEP.S                   0.00: STEP TIME
 NULL.                 -999.25: NULL VALUE
 DFWT.                        :  DIST FWL TEXT
 DFST.                        :  DIST FSL TEXT
 DMF .             Drill Floor:  DRILL MEAS FROM
 STIM.      04.54.24 22-Sep-20:  START TIME
 DATE.      04.54.24 21-Nov-20:  END TIME
 SPUD.               21-Nov-20:  SPUD DATE
 NREF.                    Grid:  NORTH REFERENCE
 HPTY.       Minimum Curvature:  HOLE POS TYPE
 DMOD.             Drill Model:  DRILL MOD DESC
 SVYD.                  Survey:  SURVEY DESC
 ILTD.               Lithology:  INTERP LTH DESC
 FTOP.          Formation Tops:  FORM TOPS DESC
 SON .        AZ-XX-0906571587:  JOB NUMBER
 COMP.     BP Exploration (Caspian Sea) Ltd:  COMPANY
 UWI .                     N/A:  UNIQUE WELL IDENTIFIER
 API .                     N/A:  API NUMBER
 BASE.              Azerbaijan:  LOGGING EQUIPMENT BASE LOCATION
 REGN.                   EESSA:  REGION
 PROV.                    Baku:  PROVINCE
 STAT.                    Baku:  STATE NAME
 CTRY.              Azerbaijan:  COUNTRY NAME
 FLD .                     ACG:  FIELD NAME
 SRVC.     TURAN Drilling & Engineering:  CONTRACTOR
 WELL.                     J27:  WELL NAME
 RIG .             West Chirag:  RIG NAME
 DOE .                     N/A:  DOE NUMBER
 DCON.         Sperry Drilling:  DIRECTNL CONTR
 PDAT.          Mean Sea Level:  PERMANENT DATUM
 WTYP.                Deviated:  WELL TYPE
 MWDS.                    Baku:  MWD SHOP
 JOBN.        AZ-XX-0906571587:  JOB TICKET NUMB
 UNIT.                     N/A:  LOGGING EQUIPMENT ID
 MDS .        Operator Entered:  MAG DATA SOURCE
 CNTY.                        :  COUNTY
 LOC .                        :  LOCATION
 LMF .             Drill Floor:  LOG MEASURED FROM
 TVDS.m                  43.00:  TVDSS CORRECTN
 LATI.deg                40.13:  LATITUDE
 LONG.deg                51.22:  LONGITUDE
 WHNS.m                   7.72:  WELL HEAD N/S
 WHEW.m                 -14.24:  WELL HEAD E/W
 UTMX.m              519005.06:  UTM X
 UTMY.m             4443793.85:  UTM Y
 DFWL.m                   0.00:  DISTANCE FWL
 DFSL.m                   0.00:  DISTANCE FSL
 SDEP.m                 347.00:  START DEPTH
 TDD .m                 581.00:  TOTAL DEPTH (DRILLER)
 VSDR.deg               159.72:  VERT SEC DIRECT
 GVFD.g                   1.00:  GRAVITY FIELD
 MFLD.nT              50313.00:  MAGNETIC FIELD
 MDIP.deg                59.58:  MAGNETIC DIP
 MDEC.deg                 6.45:  MAGNETIC DECL
 GRDC.deg                 0.15:  GRID CORRECTION
 AZTC.deg                 6.30:  AZM TOTAL CORR
 EPD .m                   0.00:  ELEVATION
 EGL .m                   0.00:  GROUND ELEVATION
 WDMS.m                 169.80:  WD ELEV
 APD .m                  43.00:  DEPTH ABOVE PD
 AGAP.m                  43.00:  AIR GAP
 VSEW.m                 -14.24:  VERT SEC E/W
 VSNS.m                   7.72:  VERT SEC N/S
 DEP .m                 342.45:  DEPTH
 EKB .m                   0.00:  KB ELEVATION
 EDF .m                  43.00:  DF ELEVATION
 TDL .m                1313.00:  TOTAL DEPTH (LOGGER)
 VSC .                       0:  VS TO CLOSURE
 MAGU.                 1851396:  MAGUTM CHECKSUM
~Parameter Information Block
#MNEM.UNIT       Value        Description
#---------     -----------    ---------------------------
 AV  .mps                 0.65:  Ann Velocity 
 AVMX.mps                 0.75:  Max Ann Veloc 
 AZIF.deg               115.08:  Azm, Final 
 BHAT.        Rotary Steerable:  BHA Type 
 BROT.∞/30m               1.50:  Build Rotating 
 BS  .in                 12.25:  Bit Size 
 BSZ .in                 12.25:  Bit Size 
 BTPL.psig              700.00:  Bit Press Loss 
 CABU.                     Yes:  Customer Abuse 
 COMM.                     ÏSu:  Run Comments 1 
 TCS .hr                121.00:  Time Ciculation Ended 
 CV  .mps                 1.83:  Crit Velocity 
 CVMX.mps                 1.83:  Max Crit Veloc 
 DD1 .          Rashad Habibov:  Direct Drillr 1 
 DD2 .         Rasim Ibrahimov:  Direct Drillr 2 
 DDSV.                 iCruise:  DD Service 
 DEFF.%                 100.00:  % Det Eff 
 DLRX.∞/30m               3.60:  Dogleg Rot Max 
 DLSO.∞/30m               3.10:  Dogleg Oriented 
 DLSX.∞/30m               3.60:  Dogleg Str Max 
 DRET.      13.41.20 12-Nov-20:  Drill End Time 
 DRST.      13.41.20 07-Nov-20:  Drill Start Tim 
 DTIM.hr                 54.16:  Time Drilling 
 EDEP.m                4762.01:  End Depth 
 ENG1.           Amrah Tahirov:  Engineer 1 
 ENG2.      Bakhtiyar Jabbarli:  Engineer 2 
 ENG3.          Ruslan Safarov:  Engineer 3 
 ETIM.      13.41.20 14-Nov-20:  End Time 
 FLOI.gpm              1200.00:  Flow In 
 FLON.gpm              1100.00:  Flow In Min 
 FLOS.cptm                0.00:  Fluid Loss 
 FLOX.gpm              1200.00:  Flow In Max 
 HFLO.                      No:  High Flow 
 HPRE.                      No:  High Pressure 
 HTEM.                      No:  High Temp 
 HYDO.m                   2.00:  Hydro Offset 
 IFIN.deg                66.14:  Inc, Final 
 IMAX.deg                69.03:  Inc Max 
 IMIN.deg                64.64:  Inc Min 
 IMND.m                4450.16:  Inc Min Depth 
 IMXD.m                3996.00:  Inc Max Depth 
 JARR.                     Yes:  Jarring 
 LETM.      13.41.20 14-Nov-20:  Log End Time 
 LOST.hr                     0:  Lost Rig Time 
 LSTM.      13.41.20 06-Nov-20:  Log Start Time 
 MDCL.ppm             42500.00:  Mud Chlorides 
 MDES.     Inversion Oil/Synthetic:  Mud Desc 
 DFD .sg                  1.45:  Mud Density 
 MDMN.sg                  1.45:  Dens Mud Min 
 MDMX.sg                  1.45:  Dens Mud Max 
 MOIL.                      70:  Run Mud Oil % 
 MOWR.                   70:30:  Run Mud OWR 
 MSND.                       0:  Run Mud Sand % 
 MSOL.                    19.3:  Run Mud Solids% 
 DFV .spqt               77.00:  Mud Viscosity 
 MWOD.in                  8.00:  MWD Tool OD 
 MWSI.                      No:  Serv Intrp, MWD 
 OTIM.hr                201.88:  Time Operating 
 PCON.           Look Like New:  Pad Condition 
 PMAX.psia             9250.94:  Press Op, Max 
 PV  .cP                 29.00:  Mud PV 
 RUN .                     800:  Run Number 
 ROPA.m/hr               28.00:  ROP Avg 
 ROPN.m/hr               25.00:  ROP Min 
 ROPX.m/hr               30.00:  ROP Max 
 RPMA.rpm               160.00:  RPM Surface Avg 
 RPMN.rpm               160.00:  RPM Surface Min 
 RPMX.rpm               160.00:  RPM Surface Max 
 RRUN.                    0800:  Rig Run Number 
 RTIM.hr                 12.00:  Time Reaming 
 SAZI.deg               169.33:  Azm, Start 
 SDEP.m                3449.01:  Start Depth 
 SIDD.                      No:  Serv Intrp, DD 
 SINC.deg                68.01:  Inc, Start 
 SPPA.psig             4900.00:  SPP Avg 
 SPPN.psig             4800.00:  SPP Min 
 SPPX.psig             5050.00:  SPP Max 
 STIM.      13.41.20 06-Nov-20:  Start Time 
 SVCS.                 DD, MWD:  Services 
 SVER.                    9.20:  Sperry Version 
 TDAT.m                4762.01:  Tot Depth Attmp 
 TDDF.                      No:  Trip for DD 
 TDLG.m                1313.00:  Tot Depth Loggd 
 TFF .                      No:  Trip for Fail 
 TQAA.f-kp               13.00:  Torque Abs Avg 
 TQAN.f-kp               13.00:  Torque Abs Min 
 TQAX.f-kp               13.00:  Torque Abs Max 
 TRRT.∞/30m               1.70:  Turn Rotating 
 MRT .                  EWR-M5:  Maximum Recorded Temperature 
 TTMX.degC               86.00:  Max Tool Temp 
 VS01.                90622122:  Virtual Str1 SN 
 VS02.                90577298:  Virtual Str2 SN 
 VS03.                90563623:  Virtual Str3 SN 
 VS04.                90617559:  Virtual Str4 SN 
 VS05.                11339492:  Virtual Str5 SN 
 VS06.                12385033:  Virtual Str6 SN 
 WBMN.klb                 0.00:  WOB Min 
 WOBA.klb                22.00:  WOB Avg 
 WOBX.klb                26.00:  WOB Max 
 YP  .lhf2               30.00:  Yield Point 
~Curve Information Block
#MNEM.UNIT                 API CODE     Curve Description
#---------               -----------    ---------------------------
 TIME.HHMMSS            00 000 000 000:  GT Time & Date
 GTDEPTH.m              00 000 000 000:  GT Depth
 GTPQH.psia             00 000 000 000:  GT HR Quartz Pressure
 GTTQ.degC              00 000 000 000:  GT Quartz Temperature
 GTTN.NONE              00 000 000 000:  GT Test Number
 GTET.sec               00 000 000 000:  GT Elapsed Test Time
 GTTVD.m                00 000 000 000:  GT True Vertical Depth
#Other Information
#
#WARRANTY: Halliburton will use its best efforts to furnish customers with 
#accurate information and interpretations that are part of, and incident to, the services 
#provided.  However, Halliburton cannot and does not warrant the accuracy 
#or correctness of such information and interpretations.  Under no circumstances should any 
#such information or interpretation be relied upon as the sole basis for any drilling, 
#completion, production, or financial decision or any procedure involving any risk to the 
#safety of any drilling venture, drilling rig or its crew or any other third party.  The 
#Customer has full responsibility for all drilling, completion and production operation.  
#Halliburton makes no representations or warranties, either expressed or 
#implied, including, but not limited to, the implied warranties of merchantability or fitness 
#for a particular purpose, with respect to the services rendered.  In no event will 
#Halliburton be liable for failure to obtain any particular results or for 
#any damages, including, but not limited to, indirect, special or consequential damages, 
#resulting from the use of any information or interpretation provided by Halliburton.
#
~A           TIME           GTDEPTH  GTPQH  GTTQ  GTTN  GTET   GTTVD  
# ...
   01:32:10.000.11-Nov-2020 4560.01 4025.69 77.39 7.00 253.00 2403.77
   01:32:10.200.11-Nov-2020 4560.01 4025.67 77.39 7.00 253.20 2403.77
   01:32:10.400.11-Nov-2020 4560.01 4025.70 77.39 7.00 253.40 2403.77
   01:32:10.600.11-Nov-2020 4560.01 4025.68 77.39 7.00 253.60 2403.77
   01:32:10.800.11-Nov-2020 4560.01 4025.68 77.39 7.00 253.80 2403.77
   01:32:11.000.11-Nov-2020 4560.01 4025.64 77.38 7.00 254.00 2403.77
   01:32:11.200.11-Nov-2020 4560.01 4025.64 77.38 7.00 254.20 2403.77
   01:32:11.400.11-Nov-2020 4560.01 4025.68 77.38 7.00 254.40 2403.77
   01:32:11.600.11-Nov-2020 4560.01 4025.69 77.38 7.00 254.60 2403.77
   01:32:11.800.11-Nov-2020 4560.01 4025.68 77.38 7.00 254.80 2403.77
   01:32:12.000.11-Nov-2020 4560.01 4025.69 77.38 7.00 255.00 2403.77
   01:32:12.200.11-Nov-2020 4560.01 4025.69 77.38 7.00 255.20 2403.77
   01:32:12.400.11-Nov-2020 4560.01 4025.69 77.38 7.00 255.40 2403.77
   01:32:12.600.11-Nov-2020 4560.01 4025.68 77.38 7.00 255.60 2403.77
   01:32:12.800.11-Nov-2020 4560.01 4025.68 77.38 7.00 255.80 2403.77
   01:32:13.000.11-Nov-2020 4560.01 4025.68 77.38 7.00 256.00 2403.77
   01:32:13.200.11-Nov-2020 4560.01 4025.80 77.38 7.00 256.20 2403.77
   01:32:13.400.11-Nov-2020 4560.01 4025.57 77.38 7.00 256.40 2403.77
   01:32:13.600.11-Nov-2020 4560.01 4025.67 77.38 7.00 256.60 2403.77
   01:32:13.800.11-Nov-2020 4560.01 4025.71 77.38 7.00 256.80 2403.77
   01:32:14.000.11-Nov-2020 4560.01 4025.65 77.38 7.00 257.00 2403.77
   01:32:14.200.11-Nov-2020 4560.01 4025.63 77.38 7.00 257.20 2403.77
   01:32:14.400.11-Nov-2020 4560.01 4025.70 77.38 7.00 257.40 2403.77
   01:32:14.600.11-Nov-2020 4560.01 4025.69 77.38 7.00 257.60 2403.77
   01:32:14.800.11-Nov-2020 4560.01 4025.69 77.38 7.00 257.80 2403.77
   01:32:15.000.11-Nov-2020 4560.01 4025.69 77.38 7.00 258.00 2403.77
   01:32:15.200.11-Nov-2020 4560.01 4025.66 77.38 7.00 258.20 2403.77
   01:32:15.400.11-Nov-2020 4560.01 4025.70 77.38 7.00 258.40 2403.77
   01:32:15.600.11-Nov-2020 4560.01 4025.73 77.38 7.00 258.60 2403.77
   01:32:15.800.11-Nov-2020 4560.01 4025.67 77.38 7.00 258.80 2403.77
   01:32:16.000.11-Nov-2020 4560.01 4025.67 77.38 7.00 259.00 2403.77
   01:32:16.200.11-Nov-2020 4560.01 4025.70 77.38 7.00 259.20 2403.77
   01:32:16.400.11-Nov-2020 4560.01 4025.70 77.38 7.00 259.40 2403.77
   01:32:16.600.11-Nov-2020 4560.01 4025.68 77.38 7.00 259.60 2403.77
   01:32:16.800.11-Nov-2020 4560.01 4025.69 77.38 7.00 259.80 2403.77
   01:32:17.000.11-Nov-2020 4560.01 4025.65 77.38 7.00 260.00 2403.77
   01:32:17.200.11-Nov-2020 4560.01 4025.65 77.38 7.00 260.20 2403.77
   01:32:17.400.11-Nov-2020 4560.01 4025.71 77.38 7.00 260.40 2403.77
   01:32:17.600.11-Nov-2020 4560.01 4025.70 77.38 7.00 260.60 2403.77
   01:32:17.800.11-Nov-2020 4560.01 4025.68 77.38 7.00 260.80 2403.77
   01:32:18.000.11-Nov-2020 4560.01 4025.70 77.38 7.00 261.00 2403.77
   01:32:18.200.11-Nov-2020 4560.01 4025.70 77.38 7.00 261.20 2403.77
   01:32:18.400.11-Nov-2020 4560.01 4025.68 77.38 7.00 261.40 2403.77
   01:32:18.600.11-Nov-2020 4560.01 4025.69 77.38 7.00 261.60 2403.77
   01:32:18.800.11-Nov-2020 4560.01 4025.68 77.38 7.00 261.80 2403.77
   01:32:19.000.11-Nov-2020 4560.01 4025.47 77.37 7.00 262.00 2403.77
   01:32:19.200.11-Nov-2020 4560.01 4025.47 77.37 7.00 262.20 2403.77
   01:32:19.400.11-Nov-2020 4560.01 4022.98 77.37 7.00 262.40 2403.77
   01:32:19.600.11-Nov-2020 4560.01 4022.95 77.37 7.00 262.60 2403.77
   01:32:19.800.11-Nov-2020 4560.01 4023.13 77.37 7.00 262.80 2403.77
   01:32:20.000.11-Nov-2020 4560.01 4023.06 77.37 7.00 263.00 2403.77
   01:32:20.200.11-Nov-2020 4560.01 4023.06 77.37 7.00 263.20 2403.77
   01:32:20.400.11-Nov-2020 4560.01 4023.08 77.37 7.00 263.40 2403.77
   01:32:20.600.11-Nov-2020 4560.01 4023.05 77.37 7.00 263.60 2403.77
   01:32:20.800.11-Nov-2020 4560.01 4023.08 77.37 7.00 263.80 2403.77
   01:32:21.000.11-Nov-2020 4560.01 4023.08 77.37 7.00 264.00 2403.77
   01:32:21.200.11-Nov-2020 4560.01 4023.07 77.37 7.00 264.20 2403.77
   01:32:21.400.11-Nov-2020 4560.01 4023.07 77.37 7.00 264.40 2403.77
   01:32:21.600.11-Nov-2020 4560.01 4023.08 77.37 7.00 264.60 2403.77
   01:32:21.800.11-Nov-2020 4560.01 4023.10 77.37 7.00 264.80 2403.77
   01:32:22.000.11-Nov-2020 4560.01 4023.13 77.37 7.00 265.00 2403.77
   01:32:22.200.11-Nov-2020 4560.01 4023.18 77.37 7.00 265.20 2403.77
   01:32:22.400.11-Nov-2020 4560.01 4023.10 77.37 7.00 265.40 2403.77
   01:32:22.600.11-Nov-2020 4560.01 4023.12 77.37 7.00 265.60 2403.77
   01:32:22.800.11-Nov-2020 4560.01 4023.14 77.37 7.00 265.80 2403.77
   01:32:23.000.11-Nov-2020 4560.01 4023.18 77.37 7.00 266.00 2403.77
   01:32:23.200.11-Nov-2020 4560.01 4023.09 77.37 7.00 266.20 2403.77
   01:32:23.400.11-Nov-2020 4560.01 4023.16 77.37 7.00 266.40 2403.77
   01:32:23.600.11-Nov-2020 4560.01 4023.19 77.37 7.00 266.60 2403.77
   01:32:23.800.11-Nov-2020 4560.01 4023.11 77.37 7.00 266.80 2403.77
   01:32:24.000.11-Nov-2020 4560.01 4023.28 77.37 7.00 267.00 2403.77
   01:32:24.200.11-Nov-2020 4560.01 4023.23 77.37 7.00 267.20 2403.77
   01:32:24.400.11-Nov-2020 4560.01 4023.16 77.37 7.00 267.40 2403.77
   01:32:24.600.11-Nov-2020 4560.01 4023.27 77.37 7.00 267.60 2403.77
   01:32:24.800.11-Nov-2020 4560.01 4023.21 77.37 7.00 267.80 2403.77
   01:32:25.000.11-Nov-2020 4560.01 4023.24 77.37 7.00 268.00 2403.77
   01:32:25.200.11-Nov-2020 4560.01 4023.59 77.37 7.00 268.20 2403.77
   01:32:25.400.11-Nov-2020 4560.01 4026.10 77.37 7.00 268.40 2403.77
   01:32:25.600.11-Nov-2020 4560.01 4023.39 77.37 7.00 268.60 2403.77
   01:32:25.800.11-Nov-2020 4560.01 4023.17 77.37 7.00 268.80 2403.77
   01:32:26.000.11-Nov-2020 4560.01 4023.08 77.37 7.00 269.00 2403.77
   01:32:26.200.11-Nov-2020 4560.01 4023.08 77.37 7.00 269.20 2403.77
   01:32:26.400.11-Nov-2020 4560.01 4025.14 77.37 7.00 269.40 2403.77
   01:32:26.600.11-Nov-2020 4560.01 4025.14 77.36 7.00 269.60 2403.77
   01:32:26.800.11-Nov-2020 4560.01 4022.93 77.36 7.00 269.80 2403.77
   01:32:27.000.11-Nov-2020 4560.01 4022.81 77.36 7.00 270.00 2403.77
   01:32:27.200.11-Nov-2020 4560.01 4022.81 77.36 7.00 270.20 2403.77
   01:32:27.400.11-Nov-2020 4560.01 4022.73 77.36 7.00 270.40 2403.77
   01:32:27.600.11-Nov-2020 4560.01 4024.10 77.36 7.00 270.60 2403.77
   01:32:27.800.11-Nov-2020 4560.01 4025.86 77.36 7.00 270.80 2403.77
   01:32:28.000.11-Nov-2020 4560.01 4025.79 77.36 7.00 271.00 2403.77
   01:32:28.200.11-Nov-2020 4560.01 4025.79 77.36 7.00 271.20 2403.77
   01:32:28.400.11-Nov-2020 4560.01 4025.83 77.36 7.00 271.40 2403.77
   01:32:28.600.11-Nov-2020 4560.01 4025.67 77.36 7.00 271.60 2403.77
   01:32:28.800.11-Nov-2020 4560.01 4025.69 77.36 7.00 271.80 2403.77
   01:32:29.000.11-Nov-2020 4560.01 4025.69 77.36 7.00 272.00 2403.77
   01:32:29.200.11-Nov-2020 4560.01 4025.71 77.36 7.00 272.20 2403.77
   01:32:29.400.11-Nov-2020 4560.01 4025.65 77.36 7.00 272.40 2403.77
   01:32:29.600.11-Nov-2020 4560.01 4025.71 77.36 7.00 272.60 2403.77
   01:32:29.800.11-Nov-2020 4560.01 4025.70 77.36 7.00 272.80 2403.77
   01:32:30.000.11-Nov-2020 4560.01 4025.69 77.36 7.00 273.00 2403.77
   01:32:30.200.11-Nov-2020 4560.01 4025.70 77.36 7.00 273.20 2403.77
   01:32:30.400.11-Nov-2020 4560.01 4025.68 77.36 7.00 273.40 2403.77
   01:32:30.600.11-Nov-2020 4560.01 4025.68 77.36 7.00 273.60 2403.77
   01:32:30.800.11-Nov-2020 4560.01 4025.69 77.36 7.00 273.80 2403.77
   01:32:31.000.11-Nov-2020 4560.01 4025.77 77.36 7.00 274.00 2403.77
   01:32:31.200.11-Nov-2020 4560.01 4025.77 77.36 7.00 274.20 2403.77
   01:32:31.400.11-Nov-2020 4560.01 4025.68 77.36 7.00 274.40 2403.77
   01:32:31.600.11-Nov-2020 4560.01 4025.67 77.36 7.00 274.60 2403.77
   01:32:31.800.11-Nov-2020 4560.01 4025.76 77.36 7.00 274.80 2403.77
   01:32:32.000.11-Nov-2020 4560.01 4025.69 77.36 7.00 275.00 2403.77
   01:32:32.200.11-Nov-2020 4560.01 4025.69 77.36 7.00 275.20 2403.77
   01:32:32.400.11-Nov-2020 4560.01 4025.72 77.36 7.00 275.40 2403.77
   01:32:32.600.11-Nov-2020 4560.01 4025.74 77.36 7.00 275.60 2403.77
   01:32:32.800.11-Nov-2020 4560.01 4025.67 77.36 7.00 275.80 2403.77
