~Version Information
 VERS.                  2.0:   CWLS log ASCII Standard -VERSION 2.0
 WRAP.                   NO:   One line per depth step
~Well Information Block
#MNEM.UNIT     VALUE/NAME     DESCRIPTION
#---------     -----------    ---------------------------
 STRT.S             21:54:12 08-Nov-20: START TIME 21:54:12 08-Nov-20
 STOP.S             22:00:43 08-Nov-20: STOP TIME  22:00:43 08-Nov-20
 STEP.S                   0.00: STEP TIME
 NULL.                 -999.25: NULL VALUE
 DFWT.                        :  DIST FWL TEXT
 DFST.                        :  DIST FSL TEXT
 DMF .             Drill Floor:  DRILL MEAS FROM
 STIM.      04.54.24 22-Sep-20:  START TIME
 DATE.      04.54.24 21-Nov-20:  END TIME
 SPUD.               21-Nov-20:  SPUD DATE
 NREF.                    Grid:  NORTH REFERENCE
 HPTY.       Minimum Curvature:  HOLE POS TYPE
 DMOD.             Drill Model:  DRILL MOD DESC
 SVYD.                  Survey:  SURVEY DESC
 ILTD.               Lithology:  INTERP LTH DESC
 FTOP.          Formation Tops:  FORM TOPS DESC
 SON .        AZ-XX-0906571587:  JOB NUMBER
 COMP.     BP Exploration (Caspian Sea) Ltd:  COMPANY
 UWI .                     N/A:  UNIQUE WELL IDENTIFIER
 API .                     N/A:  API NUMBER
 BASE.              Azerbaijan:  LOGGING EQUIPMENT BASE LOCATION
 REGN.                   EESSA:  REGION
 PROV.                    Baku:  PROVINCE
 STAT.                    Baku:  STATE NAME
 CTRY.              Azerbaijan:  COUNTRY NAME
 FLD .                     ACG:  FIELD NAME
 SRVC.     TURAN Drilling & Engineering:  CONTRACTOR
 WELL.                     J27:  WELL NAME
 RIG .             West Chirag:  RIG NAME
 DOE .                     N/A:  DOE NUMBER
 DCON.         Sperry Drilling:  DIRECTNL CONTR
 PDAT.          Mean Sea Level:  PERMANENT DATUM
 WTYP.                Deviated:  WELL TYPE
 MWDS.                    Baku:  MWD SHOP
 JOBN.        AZ-XX-0906571587:  JOB TICKET NUMB
 UNIT.                     N/A:  LOGGING EQUIPMENT ID
 MDS .        Operator Entered:  MAG DATA SOURCE
 CNTY.                        :  COUNTY
 LOC .                        :  LOCATION
 LMF .             Drill Floor:  LOG MEASURED FROM
 TVDS.m                  43.00:  TVDSS CORRECTN
 LATI.deg                40.13:  LATITUDE
 LONG.deg                51.22:  LONGITUDE
 WHNS.m                   7.72:  WELL HEAD N/S
 WHEW.m                 -14.24:  WELL HEAD E/W
 UTMX.m              519005.06:  UTM X
 UTMY.m             4443793.85:  UTM Y
 DFWL.m                   0.00:  DISTANCE FWL
 DFSL.m                   0.00:  DISTANCE FSL
 SDEP.m                 347.00:  START DEPTH
 TDD .m                 581.00:  TOTAL DEPTH (DRILLER)
 VSDR.deg               159.72:  VERT SEC DIRECT
 GVFD.g                   1.00:  GRAVITY FIELD
 MFLD.nT              50313.00:  MAGNETIC FIELD
 MDIP.deg                59.58:  MAGNETIC DIP
 MDEC.deg                 6.45:  MAGNETIC DECL
 GRDC.deg                 0.15:  GRID CORRECTION
 AZTC.deg                 6.30:  AZM TOTAL CORR
 EPD .m                   0.00:  ELEVATION
 EGL .m                   0.00:  GROUND ELEVATION
 WDMS.m                 169.80:  WD ELEV
 APD .m                  43.00:  DEPTH ABOVE PD
 AGAP.m                  43.00:  AIR GAP
 VSEW.m                 -14.24:  VERT SEC E/W
 VSNS.m                   7.72:  VERT SEC N/S
 DEP .m                 342.45:  DEPTH
 EKB .m                   0.00:  KB ELEVATION
 EDF .m                  43.00:  DF ELEVATION
 TDL .m                1313.00:  TOTAL DEPTH (LOGGER)
 VSC .                       0:  VS TO CLOSURE
 MAGU.                 1851396:  MAGUTM CHECKSUM
~Parameter Information Block
#MNEM.UNIT       Value        Description
#---------     -----------    ---------------------------
 AV  .mps                 0.65:  Ann Velocity 
 AVMX.mps                 0.75:  Max Ann Veloc 
 AZIF.deg               115.08:  Azm, Final 
 BHAT.        Rotary Steerable:  BHA Type 
 BROT.∞/30m               1.50:  Build Rotating 
 BS  .in                 12.25:  Bit Size 
 BSZ .in                 12.25:  Bit Size 
 BTPL.psig              700.00:  Bit Press Loss 
 CABU.                     Yes:  Customer Abuse 
 COMM.                     „J:  Run Comments 1 
 TCS .hr                121.00:  Time Ciculation Ended 
 CV  .mps                 1.83:  Crit Velocity 
 CVMX.mps                 1.83:  Max Crit Veloc 
 DD1 .          Rashad Habibov:  Direct Drillr 1 
 DD2 .         Rasim Ibrahimov:  Direct Drillr 2 
 DDSV.                 iCruise:  DD Service 
 DEFF.%                 100.00:  % Det Eff 
 DLRX.∞/30m               3.60:  Dogleg Rot Max 
 DLSO.∞/30m               3.10:  Dogleg Oriented 
 DLSX.∞/30m               3.60:  Dogleg Str Max 
 DRET.      13.41.20 12-Nov-20:  Drill End Time 
 DRST.      13.41.20 07-Nov-20:  Drill Start Tim 
 DTIM.hr                 54.16:  Time Drilling 
 EDEP.m                4762.01:  End Depth 
 ENG1.           Amrah Tahirov:  Engineer 1 
 ENG2.      Bakhtiyar Jabbarli:  Engineer 2 
 ENG3.          Ruslan Safarov:  Engineer 3 
 ETIM.      13.41.20 14-Nov-20:  End Time 
 FLOI.gpm              1200.00:  Flow In 
 FLON.gpm              1100.00:  Flow In Min 
 FLOS.cptm                0.00:  Fluid Loss 
 FLOX.gpm              1200.00:  Flow In Max 
 HFLO.                      No:  High Flow 
 HPRE.                      No:  High Pressure 
 HTEM.                      No:  High Temp 
 HYDO.m                   2.00:  Hydro Offset 
 IFIN.deg                66.14:  Inc, Final 
 IMAX.deg                69.03:  Inc Max 
 IMIN.deg                64.64:  Inc Min 
 IMND.m                4450.16:  Inc Min Depth 
 IMXD.m                3996.00:  Inc Max Depth 
 JARR.                     Yes:  Jarring 
 LETM.      13.41.20 14-Nov-20:  Log End Time 
 LOST.hr                     0:  Lost Rig Time 
 LSTM.      13.41.20 06-Nov-20:  Log Start Time 
 MDCL.ppm             42500.00:  Mud Chlorides 
 MDES.     Inversion Oil/Synthetic:  Mud Desc 
 DFD .sg                  1.45:  Mud Density 
 MDMN.sg                  1.45:  Dens Mud Min 
 MDMX.sg                  1.45:  Dens Mud Max 
 MOIL.                      70:  Run Mud Oil % 
 MOWR.                   70:30:  Run Mud OWR 
 MSND.                       0:  Run Mud Sand % 
 MSOL.                    19.3:  Run Mud Solids% 
 DFV .spqt               77.00:  Mud Viscosity 
 MWOD.in                  8.00:  MWD Tool OD 
 MWSI.                      No:  Serv Intrp, MWD 
 OTIM.hr                201.88:  Time Operating 
 PCON.           Look Like New:  Pad Condition 
 PMAX.psia             9250.94:  Press Op, Max 
 PV  .cP                 29.00:  Mud PV 
 RUN .                     800:  Run Number 
 ROPA.m/hr               28.00:  ROP Avg 
 ROPN.m/hr               25.00:  ROP Min 
 ROPX.m/hr               30.00:  ROP Max 
 RPMA.rpm               160.00:  RPM Surface Avg 
 RPMN.rpm               160.00:  RPM Surface Min 
 RPMX.rpm               160.00:  RPM Surface Max 
 RRUN.                    0800:  Rig Run Number 
 RTIM.hr                 12.00:  Time Reaming 
 SAZI.deg               169.33:  Azm, Start 
 SDEP.m                3449.01:  Start Depth 
 SIDD.                      No:  Serv Intrp, DD 
 SINC.deg                68.01:  Inc, Start 
 SPPA.psig             4900.00:  SPP Avg 
 SPPN.psig             4800.00:  SPP Min 
 SPPX.psig             5050.00:  SPP Max 
 STIM.      13.41.20 06-Nov-20:  Start Time 
 SVCS.                 DD, MWD:  Services 
 SVER.                    9.20:  Sperry Version 
 TDAT.m                4762.01:  Tot Depth Attmp 
 TDDF.                      No:  Trip for DD 
 TDLG.m                1313.00:  Tot Depth Loggd 
 TFF .                      No:  Trip for Fail 
 TQAA.f-kp               13.00:  Torque Abs Avg 
 TQAN.f-kp               13.00:  Torque Abs Min 
 TQAX.f-kp               13.00:  Torque Abs Max 
 TRRT.∞/30m               1.70:  Turn Rotating 
 MRT .                  EWR-M5:  Maximum Recorded Temperature 
 TTMX.degC               86.00:  Max Tool Temp 
 VS01.                90622122:  Virtual Str1 SN 
 VS02.                90577298:  Virtual Str2 SN 
 VS03.                90563623:  Virtual Str3 SN 
 VS04.                90617559:  Virtual Str4 SN 
 VS05.                11339492:  Virtual Str5 SN 
 VS06.                12385033:  Virtual Str6 SN 
 WBMN.klb                 0.00:  WOB Min 
 WOBA.klb                22.00:  WOB Avg 
 WOBX.klb                26.00:  WOB Max 
 YP  .lhf2               30.00:  Yield Point 
~Curve Information Block
#MNEM.UNIT                 API CODE     Curve Description
#---------               -----------    ---------------------------
 TIME.HHMMSS            00 000 000 000:  GT Time & Date
 GTDEPTH.m              00 000 000 000:  GT Depth
 GTPQH.psia             00 000 000 000:  GT HR Quartz Pressure
 GTTQ.degC              00 000 000 000:  GT Quartz Temperature
 GTTN.NONE              00 000 000 000:  GT Test Number
 GTET.sec               00 000 000 000:  GT Elapsed Test Time
 GTTVD.m                00 000 000 000:  GT True Vertical Depth
#Other Information
#
#WARRANTY: Halliburton will use its best efforts to furnish customers with 
#accurate information and interpretations that are part of, and incident to, the services 
#provided.  However, Halliburton cannot and does not warrant the accuracy 
#or correctness of such information and interpretations.  Under no circumstances should any 
#such information or interpretation be relied upon as the sole basis for any drilling, 
#completion, production, or financial decision or any procedure involving any risk to the 
#safety of any drilling venture, drilling rig or its crew or any other third party.  The 
#Customer has full responsibility for all drilling, completion and production operation.  
#Halliburton makes no representations or warranties, either expressed or 
#implied, including, but not limited to, the implied warranties of merchantability or fitness 
#for a particular purpose, with respect to the services rendered.  In no event will 
#Halliburton be liable for failure to obtain any particular results or for 
#any damages, including, but not limited to, indirect, special or consequential damages, 
#resulting from the use of any information or interpretation provided by Halliburton.
#
~A           TIME           GTDEPTH  GTPQH  GTTQ  GTTN  GTET   GTTVD  
# ...
   21:59:57.729.08-Nov-2020 3686.01 3544.17 71.13 4.00 345.08 2071.13
   21:59:57.930.08-Nov-2020 3686.01 3544.17 71.13 4.00 345.28 2071.13
   21:59:58.130.08-Nov-2020 3686.01 3544.17 71.13 4.00 345.48 2071.13
   21:59:58.330.08-Nov-2020 3686.01 3544.15 71.12 4.00 345.68 2071.13
   21:59:58.530.08-Nov-2020 3686.01 3544.20 71.12 4.00 345.88 2071.13
   21:59:58.730.08-Nov-2020 3686.01 3544.18 71.12 4.00 346.08 2071.13
   21:59:58.930.08-Nov-2020 3686.01 3544.18 71.12 4.00 346.28 2071.13
   21:59:59.130.08-Nov-2020 3686.01 3544.19 71.12 4.00 346.48 2071.13
   21:59:59.330.08-Nov-2020 3686.01 3544.14 71.12 4.00 346.68 2071.13
   21:59:59.530.08-Nov-2020 3686.01 3544.20 71.12 4.00 346.88 2071.13
   21:59:59.730.08-Nov-2020 3686.01 3544.20 71.12 4.00 347.08 2071.13
   21:59:59.930.08-Nov-2020 3686.01 3544.20 71.12 4.00 347.28 2071.13
   22:00:00.130.08-Nov-2020 3686.01 3544.18 71.12 4.00 347.48 2071.13
   22:00:00.330.08-Nov-2020 3686.01 3544.17 71.12 4.00 347.68 2071.13
   22:00:00.530.08-Nov-2020 3686.01 3544.16 71.11 4.00 347.88 2071.13
   22:00:00.730.08-Nov-2020 3686.01 3544.14 71.11 4.00 348.08 2071.13
   22:00:00.930.08-Nov-2020 3686.01 3544.14 71.11 4.00 348.28 2071.13
   22:00:01.130.08-Nov-2020 3686.01 3544.12 71.11 4.00 348.48 2071.13
   22:00:01.330.08-Nov-2020 3686.01 3544.12 71.11 4.00 348.68 2071.13
   22:00:01.530.08-Nov-2020 3686.01 3544.11 71.11 4.00 348.88 2071.13
   22:00:01.730.08-Nov-2020 3686.01 3544.10 71.11 4.00 349.08 2071.13
   22:00:01.930.08-Nov-2020 3686.01 3544.10 71.11 4.00 349.28 2071.13
   22:00:02.130.08-Nov-2020 3686.01 3544.03 71.11 4.00 349.48 2071.13
   22:00:02.331.08-Nov-2020 3686.01 3544.23 71.11 4.00 349.68 2071.13
   22:00:02.531.08-Nov-2020 3686.01 3544.17 71.10 4.00 349.88 2071.13
   22:00:02.731.08-Nov-2020 3686.01 3544.17 71.10 4.00 350.08 2071.13
   22:00:02.931.08-Nov-2020 3686.01 3544.17 71.10 4.00 350.28 2071.13
   22:00:03.131.08-Nov-2020 3686.01 3544.12 71.10 4.00 350.48 2071.13
   22:00:03.331.08-Nov-2020 3686.01 3544.14 71.10 4.00 350.68 2071.13
   22:00:03.531.08-Nov-2020 3686.01 3544.11 71.10 4.00 350.88 2071.13
   22:00:03.731.08-Nov-2020 3686.01 3544.12 71.10 4.00 351.08 2071.13
   22:00:03.931.08-Nov-2020 3686.01 3544.10 71.10 4.00 351.28 2071.13
   22:00:04.131.08-Nov-2020 3686.01 3544.10 71.10 4.00 351.48 2071.13
   22:00:04.331.08-Nov-2020 3686.01 3544.10 71.10 4.00 351.68 2071.13
   22:00:04.531.08-Nov-2020 3686.01 3544.09 71.10 4.00 351.88 2071.13
   22:00:04.731.08-Nov-2020 3686.01 3544.07 71.09 4.00 352.08 2071.13
   22:00:04.931.08-Nov-2020 3686.01 3544.07 71.09 4.00 352.28 2071.13
   22:00:05.131.08-Nov-2020 3686.01 3544.17 71.09 4.00 352.48 2071.13
   22:00:05.331.08-Nov-2020 3686.01 3544.15 71.09 4.00 352.68 2071.13
   22:00:05.531.08-Nov-2020 3686.01 3544.20 71.09 4.00 352.88 2071.13
   22:00:05.731.08-Nov-2020 3686.01 3544.18 71.09 4.00 353.08 2071.13
   22:00:05.931.08-Nov-2020 3686.01 3544.18 71.09 4.00 353.28 2071.13
   22:00:06.131.08-Nov-2020 3686.01 3544.11 71.09 4.00 353.48 2071.13
   22:00:06.331.08-Nov-2020 3686.01 3544.23 71.09 4.00 353.68 2071.13
   22:00:06.531.08-Nov-2020 3686.01 3544.17 71.09 4.00 353.88 2071.13
   22:00:06.731.08-Nov-2020 3686.01 3544.17 71.09 4.00 354.08 2071.13
   22:00:06.932.08-Nov-2020 3686.01 3544.17 71.09 4.00 354.28 2071.13
   22:00:07.132.08-Nov-2020 3686.01 3544.10 71.08 4.00 354.48 2071.13
   22:00:07.332.08-Nov-2020 3686.01 3544.21 71.08 4.00 354.68 2071.13
   22:00:07.532.08-Nov-2020 3686.01 3544.18 71.08 4.00 354.88 2071.13
   22:00:07.732.08-Nov-2020 3686.01 3544.18 71.08 4.00 355.08 2071.13
   22:00:07.932.08-Nov-2020 3686.01 3544.18 71.08 4.00 355.28 2071.13
   22:00:08.132.08-Nov-2020 3686.01 3544.17 71.08 4.00 355.48 2071.13
   22:00:08.332.08-Nov-2020 3686.01 3544.13 71.08 4.00 355.68 2071.13
   22:00:08.532.08-Nov-2020 3686.01 3544.21 71.08 4.00 355.88 2071.13
   22:00:08.732.08-Nov-2020 3686.01 3544.19 71.08 4.00 356.08 2071.13
   22:00:08.932.08-Nov-2020 3686.01 3544.19 71.08 4.00 356.28 2071.13
   22:00:09.132.08-Nov-2020 3686.01 3544.18 71.07 4.00 356.48 2071.13
   22:00:09.332.08-Nov-2020 3686.01 3544.16 71.07 4.00 356.68 2071.13
   22:00:09.532.08-Nov-2020 3686.01 3544.14 71.07 4.00 356.88 2071.13
   22:00:09.732.08-Nov-2020 3686.01 3544.13 71.07 4.00 357.08 2071.13
   22:00:09.932.08-Nov-2020 3686.01 3544.13 71.07 4.00 357.28 2071.13
   22:00:10.132.08-Nov-2020 3686.01 3544.13 71.07 4.00 357.48 2071.13
   22:00:10.332.08-Nov-2020 3686.01 3544.12 71.07 4.00 357.68 2071.13
   22:00:10.532.08-Nov-2020 3686.01 3544.11 71.07 4.00 357.88 2071.13
   22:00:10.732.08-Nov-2020 3686.01 3544.12 71.07 4.00 358.08 2071.13
   22:00:10.932.08-Nov-2020 3686.01 3544.12 71.07 4.00 358.28 2071.13
   22:00:11.132.08-Nov-2020 3686.01 3544.10 71.06 4.00 358.48 2071.13
   22:00:11.333.08-Nov-2020 3686.01 3544.19 71.06 4.00 358.68 2071.13
   22:00:11.533.08-Nov-2020 3686.01 3544.18 71.06 4.00 358.88 2071.13
   22:00:11.733.08-Nov-2020 3686.01 3544.16 71.06 4.00 359.08 2071.13
   22:00:11.933.08-Nov-2020 3686.01 3544.16 71.06 4.00 359.28 2071.13
   22:00:12.133.08-Nov-2020 3686.01 3544.13 71.06 4.00 359.48 2071.13
   22:00:12.333.08-Nov-2020 3686.01 3544.13 71.06 4.00 359.68 2071.13
   22:00:12.533.08-Nov-2020 3686.01 3544.11 71.06 4.00 359.88 2071.13
   22:00:12.733.08-Nov-2020 3686.01 3544.11 71.06 4.00 360.08 2071.13
   22:00:12.933.08-Nov-2020 3686.01 3544.11 71.06 4.00 360.28 2071.13
   22:00:13.133.08-Nov-2020 3686.01 3544.10 71.06 4.00 360.48 2071.13
   22:00:13.333.08-Nov-2020 3686.01 3544.10 71.05 4.00 360.68 2071.13
   22:00:13.533.08-Nov-2020 3686.01 3544.07 71.05 4.00 360.88 2071.13
   22:00:13.733.08-Nov-2020 3686.01 3544.46 71.05 4.00 361.08 2071.13
   22:00:13.933.08-Nov-2020 3686.01 3544.46 71.05 4.00 361.28 2071.13
   22:00:14.133.08-Nov-2020 3686.01 3500.98 71.05 4.00 361.48 2071.13
   22:00:14.333.08-Nov-2020 3686.01 3524.77 71.05 4.00 361.68 2071.13
   22:00:14.533.08-Nov-2020 3686.01 3535.35 71.05 4.00 361.88 2071.13
   22:00:14.733.08-Nov-2020 3686.01 3528.67 71.05 4.00 362.08 2071.13
   22:00:14.933.08-Nov-2020 3686.01 3528.67 71.05 4.00 362.28 2071.13
   22:00:15.133.08-Nov-2020 3686.01 3543.92 71.05 4.00 362.48 2071.13
   22:00:15.333.08-Nov-2020 3686.01 3544.20 71.04 4.00 362.68 2071.13
   22:00:15.533.08-Nov-2020 3686.01 3544.55 71.04 4.00 362.88 2071.13
   22:00:15.733.08-Nov-2020 3686.01 3545.32 71.04 4.00 363.08 2071.13
   22:00:15.934.08-Nov-2020 3686.01 3545.32 71.04 4.00 363.28 2071.13
   22:00:16.134.08-Nov-2020 3686.01 3998.23 71.04 4.00 363.48 2071.13
   22:00:16.334.08-Nov-2020 3686.01 4249.35 71.04 4.00 363.68 2071.13
   22:00:16.534.08-Nov-2020 3686.01 4394.56 71.04 4.00 363.88 2071.13
   22:00:16.734.08-Nov-2020 3686.01 4396.42 71.04 4.00 364.08 2071.13
   22:00:16.934.08-Nov-2020 3686.01 4396.42 71.04 4.00 364.28 2071.13
   22:00:17.134.08-Nov-2020 3686.01 4395.54 71.04 4.00 364.48 2071.13
   22:00:17.334.08-Nov-2020 3686.01 4400.88 71.04 4.00 364.68 2071.13
   22:00:17.534.08-Nov-2020 3686.01 4396.27 71.03 4.00 364.88 2071.13
   22:00:17.734.08-Nov-2020 3686.01 4397.64 71.03 4.00 365.08 2071.13
   22:00:17.934.08-Nov-2020 3686.01 4397.64 71.03 4.00 365.28 2071.13
   22:00:18.134.08-Nov-2020 3686.01 4398.87 71.03 4.00 365.48 2071.13
   22:00:18.334.08-Nov-2020 3686.01 4397.92 71.03 4.00 365.68 2071.13
   22:00:18.534.08-Nov-2020 3686.01 4398.02 71.03 4.00 365.88 2071.13
   22:00:18.734.08-Nov-2020 3686.01 4397.04 71.03 4.00 366.08 2071.13
   22:00:18.934.08-Nov-2020 3686.01 4397.04 71.03 4.00 366.28 2071.13
   22:00:19.134.08-Nov-2020 3686.01 4397.27 71.03 4.00 366.48 2071.13
   22:00:19.334.08-Nov-2020 3686.01 4397.43 71.03 4.00 366.68 2071.13
   22:00:19.534.08-Nov-2020 3686.01 4397.42 71.03 4.00 366.88 2071.13
   22:00:19.734.08-Nov-2020 3686.01 4397.66 71.03 4.00 367.08 2071.13
   22:00:19.934.08-Nov-2020 3686.01 4397.88 71.03 4.00 367.28 2071.13
   22:00:20.134.08-Nov-2020 3686.01 4401.32 71.03 4.00 367.48 2071.13
   22:00:20.335.08-Nov-2020 3686.01 4399.97 71.03 4.00 367.68 2071.13
   22:00:20.535.08-Nov-2020 3686.01 4398.38 71.03 4.00 367.88 2071.13
