~Version Information
 VERS.                  2.0:   CWLS log ASCII Standard -VERSION 2.0
 WRAP.                   NO:   One line per depth step
~Well Information Block
#MNEM.UNIT     VALUE/NAME     DESCRIPTION
#---------     -----------    ---------------------------
 STRT.S             21:54:12 08-Nov-20: START TIME 21:54:12 08-Nov-20
 STOP.S             22:00:43 08-Nov-20: STOP TIME  22:00:43 08-Nov-20
 STEP.S                   0.00: STEP TIME
 NULL.                 -999.25: NULL VALUE
 DFWT.                        :  DIST FWL TEXT
 DFST.                        :  DIST FSL TEXT
 DMF .             Drill Floor:  DRILL MEAS FROM
 STIM.      04.54.24 22-Sep-20:  START TIME
 DATE.      04.54.24 21-Nov-20:  END TIME
 SPUD.               21-Nov-20:  SPUD DATE
 NREF.                    Grid:  NORTH REFERENCE
 HPTY.       Minimum Curvature:  HOLE POS TYPE
 DMOD.             Drill Model:  DRILL MOD DESC
 SVYD.                  Survey:  SURVEY DESC
 ILTD.               Lithology:  INTERP LTH DESC
 FTOP.          Formation Tops:  FORM TOPS DESC
 SON .        AZ-XX-0906571587:  JOB NUMBER
 COMP.     BP Exploration (Caspian Sea) Ltd:  COMPANY
 UWI .                     N/A:  UNIQUE WELL IDENTIFIER
 API .                     N/A:  API NUMBER
 BASE.              Azerbaijan:  LOGGING EQUIPMENT BASE LOCATION
 REGN.                   EESSA:  REGION
 PROV.                    Baku:  PROVINCE
 STAT.                    Baku:  STATE NAME
 CTRY.              Azerbaijan:  COUNTRY NAME
 FLD .                     ACG:  FIELD NAME
 SRVC.     TURAN Drilling & Engineering:  CONTRACTOR
 WELL.                     J27:  WELL NAME
 RIG .             West Chirag:  RIG NAME
 DOE .                     N/A:  DOE NUMBER
 DCON.         Sperry Drilling:  DIRECTNL CONTR
 PDAT.          Mean Sea Level:  PERMANENT DATUM
 WTYP.                Deviated:  WELL TYPE
 MWDS.                    Baku:  MWD SHOP
 JOBN.        AZ-XX-0906571587:  JOB TICKET NUMB
 UNIT.                     N/A:  LOGGING EQUIPMENT ID
 MDS .        Operator Entered:  MAG DATA SOURCE
 CNTY.                        :  COUNTY
 LOC .                        :  LOCATION
 LMF .             Drill Floor:  LOG MEASURED FROM
 TVDS.m                  43.00:  TVDSS CORRECTN
 LATI.deg                40.13:  LATITUDE
 LONG.deg                51.22:  LONGITUDE
 WHNS.m                   7.72:  WELL HEAD N/S
 WHEW.m                 -14.24:  WELL HEAD E/W
 UTMX.m              519005.06:  UTM X
 UTMY.m             4443793.85:  UTM Y
 DFWL.m                   0.00:  DISTANCE FWL
 DFSL.m                   0.00:  DISTANCE FSL
 SDEP.m                 347.00:  START DEPTH
 TDD .m                 581.00:  TOTAL DEPTH (DRILLER)
 VSDR.deg               159.72:  VERT SEC DIRECT
 GVFD.g                   1.00:  GRAVITY FIELD
 MFLD.nT              50313.00:  MAGNETIC FIELD
 MDIP.deg                59.58:  MAGNETIC DIP
 MDEC.deg                 6.45:  MAGNETIC DECL
 GRDC.deg                 0.15:  GRID CORRECTION
 AZTC.deg                 6.30:  AZM TOTAL CORR
 EPD .m                   0.00:  ELEVATION
 EGL .m                   0.00:  GROUND ELEVATION
 WDMS.m                 169.80:  WD ELEV
 APD .m                  43.00:  DEPTH ABOVE PD
 AGAP.m                  43.00:  AIR GAP
 VSEW.m                 -14.24:  VERT SEC E/W
 VSNS.m                   7.72:  VERT SEC N/S
 DEP .m                 342.45:  DEPTH
 EKB .m                   0.00:  KB ELEVATION
 EDF .m                  43.00:  DF ELEVATION
 TDL .m                1313.00:  TOTAL DEPTH (LOGGER)
 VSC .                       0:  VS TO CLOSURE
 MAGU.                 1851396:  MAGUTM CHECKSUM
~Parameter Information Block
#MNEM.UNIT       Value        Description
#---------     -----------    ---------------------------
 AV  .mps                 0.65:  Ann Velocity 
 AVMX.mps                 0.75:  Max Ann Veloc 
 AZIF.deg               115.08:  Azm, Final 
 BHAT.        Rotary Steerable:  BHA Type 
 BROT.∞/30m               1.50:  Build Rotating 
 BS  .in                 12.25:  Bit Size 
 BSZ .in                 12.25:  Bit Size 
 BTPL.psig              700.00:  Bit Press Loss 
 CABU.                     Yes:  Customer Abuse 
 COMM.                     „J:  Run Comments 1 
 TCS .hr                121.00:  Time Ciculation Ended 
 CV  .mps                 1.83:  Crit Velocity 
 CVMX.mps                 1.83:  Max Crit Veloc 
 DD1 .          Rashad Habibov:  Direct Drillr 1 
 DD2 .         Rasim Ibrahimov:  Direct Drillr 2 
 DDSV.                 iCruise:  DD Service 
 DEFF.%                 100.00:  % Det Eff 
 DLRX.∞/30m               3.60:  Dogleg Rot Max 
 DLSO.∞/30m               3.10:  Dogleg Oriented 
 DLSX.∞/30m               3.60:  Dogleg Str Max 
 DRET.      13.41.20 12-Nov-20:  Drill End Time 
 DRST.      13.41.20 07-Nov-20:  Drill Start Tim 
 DTIM.hr                 54.16:  Time Drilling 
 EDEP.m                4762.01:  End Depth 
 ENG1.           Amrah Tahirov:  Engineer 1 
 ENG2.      Bakhtiyar Jabbarli:  Engineer 2 
 ENG3.          Ruslan Safarov:  Engineer 3 
 ETIM.      13.41.20 14-Nov-20:  End Time 
 FLOI.gpm              1200.00:  Flow In 
 FLON.gpm              1100.00:  Flow In Min 
 FLOS.cptm                0.00:  Fluid Loss 
 FLOX.gpm              1200.00:  Flow In Max 
 HFLO.                      No:  High Flow 
 HPRE.                      No:  High Pressure 
 HTEM.                      No:  High Temp 
 HYDO.m                   2.00:  Hydro Offset 
 IFIN.deg                66.14:  Inc, Final 
 IMAX.deg                69.03:  Inc Max 
 IMIN.deg                64.64:  Inc Min 
 IMND.m                4450.16:  Inc Min Depth 
 IMXD.m                3996.00:  Inc Max Depth 
 JARR.                     Yes:  Jarring 
 LETM.      13.41.20 14-Nov-20:  Log End Time 
 LOST.hr                     0:  Lost Rig Time 
 LSTM.      13.41.20 06-Nov-20:  Log Start Time 
 MDCL.ppm             42500.00:  Mud Chlorides 
 MDES.     Inversion Oil/Synthetic:  Mud Desc 
 DFD .sg                  1.45:  Mud Density 
 MDMN.sg                  1.45:  Dens Mud Min 
 MDMX.sg                  1.45:  Dens Mud Max 
 MOIL.                      70:  Run Mud Oil % 
 MOWR.                   70:30:  Run Mud OWR 
 MSND.                       0:  Run Mud Sand % 
 MSOL.                    19.3:  Run Mud Solids% 
 DFV .spqt               77.00:  Mud Viscosity 
 MWOD.in                  8.00:  MWD Tool OD 
 MWSI.                      No:  Serv Intrp, MWD 
 OTIM.hr                201.88:  Time Operating 
 PCON.           Look Like New:  Pad Condition 
 PMAX.psia             9250.94:  Press Op, Max 
 PV  .cP                 29.00:  Mud PV 
 RUN .                     800:  Run Number 
 ROPA.m/hr               28.00:  ROP Avg 
 ROPN.m/hr               25.00:  ROP Min 
 ROPX.m/hr               30.00:  ROP Max 
 RPMA.rpm               160.00:  RPM Surface Avg 
 RPMN.rpm               160.00:  RPM Surface Min 
 RPMX.rpm               160.00:  RPM Surface Max 
 RRUN.                    0800:  Rig Run Number 
 RTIM.hr                 12.00:  Time Reaming 
 SAZI.deg               169.33:  Azm, Start 
 SDEP.m                3449.01:  Start Depth 
 SIDD.                      No:  Serv Intrp, DD 
 SINC.deg                68.01:  Inc, Start 
 SPPA.psig             4900.00:  SPP Avg 
 SPPN.psig             4800.00:  SPP Min 
 SPPX.psig             5050.00:  SPP Max 
 STIM.      13.41.20 06-Nov-20:  Start Time 
 SVCS.                 DD, MWD:  Services 
 SVER.                    9.20:  Sperry Version 
 TDAT.m                4762.01:  Tot Depth Attmp 
 TDDF.                      No:  Trip for DD 
 TDLG.m                1313.00:  Tot Depth Loggd 
 TFF .                      No:  Trip for Fail 
 TQAA.f-kp               13.00:  Torque Abs Avg 
 TQAN.f-kp               13.00:  Torque Abs Min 
 TQAX.f-kp               13.00:  Torque Abs Max 
 TRRT.∞/30m               1.70:  Turn Rotating 
 MRT .                  EWR-M5:  Maximum Recorded Temperature 
 TTMX.degC               86.00:  Max Tool Temp 
 VS01.                90622122:  Virtual Str1 SN 
 VS02.                90577298:  Virtual Str2 SN 
 VS03.                90563623:  Virtual Str3 SN 
 VS04.                90617559:  Virtual Str4 SN 
 VS05.                11339492:  Virtual Str5 SN 
 VS06.                12385033:  Virtual Str6 SN 
 WBMN.klb                 0.00:  WOB Min 
 WOBA.klb                22.00:  WOB Avg 
 WOBX.klb                26.00:  WOB Max 
 YP  .lhf2               30.00:  Yield Point 
~Curve Information Block
#MNEM.UNIT                 API CODE     Curve Description
#---------               -----------    ---------------------------
 TIME.HHMMSS            00 000 000 000:  GT Time & Date
 GTDEPTH.m              00 000 000 000:  GT Depth
 GTPQH.psia             00 000 000 000:  GT HR Quartz Pressure
 GTTQ.degC              00 000 000 000:  GT Quartz Temperature
 GTTN.NONE              00 000 000 000:  GT Test Number
 GTET.sec               00 000 000 000:  GT Elapsed Test Time
 GTTVD.m                00 000 000 000:  GT True Vertical Depth
#Other Information
#
#WARRANTY: Halliburton will use its best efforts to furnish customers with 
#accurate information and interpretations that are part of, and incident to, the services 
#provided.  However, Halliburton cannot and does not warrant the accuracy 
#or correctness of such information and interpretations.  Under no circumstances should any 
#such information or interpretation be relied upon as the sole basis for any drilling, 
#completion, production, or financial decision or any procedure involving any risk to the 
#safety of any drilling venture, drilling rig or its crew or any other third party.  The 
#Customer has full responsibility for all drilling, completion and production operation.  
#Halliburton makes no representations or warranties, either expressed or 
#implied, including, but not limited to, the implied warranties of merchantability or fitness 
#for a particular purpose, with respect to the services rendered.  In no event will 
#Halliburton be liable for failure to obtain any particular results or for 
#any damages, including, but not limited to, indirect, special or consequential damages, 
#resulting from the use of any information or interpretation provided by Halliburton.
#
~A           TIME           GTDEPTH  GTPQH  GTTQ  GTTN  GTET   GTTVD  
# ...
   21:57:39.699.08-Nov-2020 3686.01 3544.15 71.77 4.00 207.05 2071.13
   21:57:39.899.08-Nov-2020 3686.01 3544.14 71.77 4.00 207.25 2071.13
   21:57:40.099.08-Nov-2020 3686.01 3544.12 71.77 4.00 207.45 2071.13
   21:57:40.299.08-Nov-2020 3686.01 3544.10 71.77 4.00 207.65 2071.13
   21:57:40.499.08-Nov-2020 3686.01 3544.11 71.77 4.00 207.85 2071.13
   21:57:40.699.08-Nov-2020 3686.01 3544.09 71.77 4.00 208.05 2071.13
   21:57:40.899.08-Nov-2020 3686.01 3544.09 71.77 4.00 208.25 2071.13
   21:57:41.099.08-Nov-2020 3686.01 3544.07 71.76 4.00 208.45 2071.13
   21:57:41.299.08-Nov-2020 3686.01 3544.09 71.76 4.00 208.65 2071.13
   21:57:41.499.08-Nov-2020 3686.01 3544.06 71.76 4.00 208.85 2071.13
   21:57:41.699.08-Nov-2020 3686.01 3544.01 71.76 4.00 209.05 2071.13
   21:57:41.899.08-Nov-2020 3686.01 3544.01 71.76 4.00 209.25 2071.13
   21:57:42.099.08-Nov-2020 3686.01 3544.12 71.76 4.00 209.45 2071.13
   21:57:42.299.08-Nov-2020 3686.01 3544.16 71.76 4.00 209.65 2071.13
   21:57:42.500.08-Nov-2020 3686.01 3544.18 71.76 4.00 209.85 2071.13
   21:57:42.700.08-Nov-2020 3686.01 3544.15 71.76 4.00 210.05 2071.13
   21:57:42.900.08-Nov-2020 3686.01 3544.15 71.76 4.00 210.25 2071.13
   21:57:43.100.08-Nov-2020 3686.01 3544.14 71.76 4.00 210.45 2071.13
   21:57:43.300.08-Nov-2020 3686.01 3544.14 71.75 4.00 210.65 2071.13
   21:57:43.500.08-Nov-2020 3686.01 3544.17 71.75 4.00 210.85 2071.13
   21:57:43.700.08-Nov-2020 3686.01 3544.13 71.75 4.00 211.05 2071.13
   21:57:43.900.08-Nov-2020 3686.01 3544.15 71.75 4.00 211.25 2071.13
   21:57:44.100.08-Nov-2020 3686.01 3544.15 71.75 4.00 211.45 2071.13
   21:57:44.300.08-Nov-2020 3686.01 3544.13 71.75 4.00 211.65 2071.13
   21:57:44.500.08-Nov-2020 3686.01 3544.19 71.75 4.00 211.85 2071.13
   21:57:44.700.08-Nov-2020 3686.01 3544.15 71.75 4.00 212.05 2071.13
   21:57:44.900.08-Nov-2020 3686.01 3544.15 71.75 4.00 212.25 2071.13
   21:57:45.100.08-Nov-2020 3686.01 3544.16 71.75 4.00 212.45 2071.13
   21:57:45.300.08-Nov-2020 3686.01 3544.11 71.75 4.00 212.65 2071.13
   21:57:45.500.08-Nov-2020 3686.01 3544.19 71.74 4.00 212.85 2071.13
   21:57:45.700.08-Nov-2020 3686.01 3544.17 71.74 4.00 213.05 2071.13
   21:57:45.900.08-Nov-2020 3686.01 3544.17 71.74 4.00 213.25 2071.13
   21:57:46.100.08-Nov-2020 3686.01 3544.15 71.74 4.00 213.45 2071.13
   21:57:46.300.08-Nov-2020 3686.01 3544.14 71.74 4.00 213.65 2071.13
   21:57:46.500.08-Nov-2020 3686.01 3544.12 71.74 4.00 213.85 2071.13
   21:57:46.700.08-Nov-2020 3686.01 3544.12 71.74 4.00 214.05 2071.13
   21:57:46.900.08-Nov-2020 3686.01 3544.12 71.74 4.00 214.25 2071.13
   21:57:47.101.08-Nov-2020 3686.01 3544.09 71.74 4.00 214.45 2071.13
   21:57:47.301.08-Nov-2020 3686.01 3544.10 71.74 4.00 214.65 2071.13
   21:57:47.501.08-Nov-2020 3686.01 3544.10 71.74 4.00 214.85 2071.13
   21:57:47.701.08-Nov-2020 3686.01 3544.09 71.73 4.00 215.05 2071.13
   21:57:47.901.08-Nov-2020 3686.01 3544.09 71.73 4.00 215.25 2071.13
   21:57:48.101.08-Nov-2020 3686.01 3544.03 71.73 4.00 215.45 2071.13
   21:57:48.301.08-Nov-2020 3686.01 3544.22 71.73 4.00 215.65 2071.13
   21:57:48.501.08-Nov-2020 3686.01 3544.14 71.73 4.00 215.85 2071.13
   21:57:48.701.08-Nov-2020 3686.01 3544.16 71.73 4.00 216.05 2071.13
   21:57:48.901.08-Nov-2020 3686.01 3544.16 71.73 4.00 216.25 2071.13
   21:57:49.101.08-Nov-2020 3686.01 3544.10 71.73 4.00 216.45 2071.13
   21:57:49.301.08-Nov-2020 3686.01 3544.11 71.73 4.00 216.65 2071.13
   21:57:49.501.08-Nov-2020 3686.01 3544.09 71.73 4.00 216.85 2071.13
   21:57:49.701.08-Nov-2020 3686.01 3544.09 71.72 4.00 217.05 2071.13
   21:57:49.901.08-Nov-2020 3686.01 3544.09 71.72 4.00 217.25 2071.13
   21:57:50.101.08-Nov-2020 3686.01 3544.08 71.72 4.00 217.45 2071.13
   21:57:50.301.08-Nov-2020 3686.01 3544.09 71.72 4.00 217.65 2071.13
   21:57:50.501.08-Nov-2020 3686.01 3544.07 71.72 4.00 217.85 2071.13
   21:57:50.701.08-Nov-2020 3686.01 3544.07 71.72 4.00 218.05 2071.13
   21:57:50.901.08-Nov-2020 3686.01 3544.07 71.72 4.00 218.25 2071.13
   21:57:51.101.08-Nov-2020 3686.01 3544.15 71.72 4.00 218.45 2071.13
   21:57:51.301.08-Nov-2020 3686.01 3544.15 71.72 4.00 218.65 2071.13
   21:57:51.502.08-Nov-2020 3686.01 3544.17 71.72 4.00 218.85 2071.13
   21:57:51.702.08-Nov-2020 3686.01 3544.17 71.72 4.00 219.05 2071.13
   21:57:51.902.08-Nov-2020 3686.01 3544.17 71.72 4.00 219.25 2071.13
   21:57:52.102.08-Nov-2020 3686.01 3544.09 71.71 4.00 219.45 2071.13
   21:57:52.302.08-Nov-2020 3686.01 3544.23 71.71 4.00 219.65 2071.13
   21:57:52.502.08-Nov-2020 3686.01 3544.15 71.71 4.00 219.85 2071.13
   21:57:52.702.08-Nov-2020 3686.01 3544.15 71.71 4.00 220.05 2071.13
   21:57:52.902.08-Nov-2020 3686.01 3544.16 71.71 4.00 220.25 2071.13
   21:57:53.102.08-Nov-2020 3686.01 3544.08 71.71 4.00 220.45 2071.13
   21:57:53.302.08-Nov-2020 3686.01 3544.19 71.71 4.00 220.65 2071.13
   21:57:53.502.08-Nov-2020 3686.01 3544.16 71.71 4.00 220.85 2071.13
   21:57:53.702.08-Nov-2020 3686.01 3544.15 71.71 4.00 221.05 2071.13
   21:57:53.902.08-Nov-2020 3686.01 3544.15 71.71 4.00 221.25 2071.13
   21:57:54.102.08-Nov-2020 3686.01 3544.15 71.70 4.00 221.45 2071.13
   21:57:54.302.08-Nov-2020 3686.01 3544.11 71.70 4.00 221.65 2071.13
   21:57:54.502.08-Nov-2020 3686.01 3544.21 71.70 4.00 221.85 2071.13
   21:57:54.702.08-Nov-2020 3686.01 3544.17 71.70 4.00 222.05 2071.13
   21:57:54.902.08-Nov-2020 3686.01 3544.17 71.70 4.00 222.25 2071.13
   21:57:55.102.08-Nov-2020 3686.01 3544.16 71.70 4.00 222.45 2071.13
   21:57:55.302.08-Nov-2020 3686.01 3544.15 71.70 4.00 222.65 2071.13
   21:57:55.502.08-Nov-2020 3686.01 3544.14 71.70 4.00 222.85 2071.13
   21:57:55.702.08-Nov-2020 3686.01 3544.11 71.70 4.00 223.05 2071.13
   21:57:55.902.08-Nov-2020 3686.01 3544.12 71.70 4.00 223.25 2071.13
   21:57:56.103.08-Nov-2020 3686.01 3544.18 71.70 4.00 223.45 2071.13
   21:57:56.303.08-Nov-2020 3686.01 3544.13 71.69 4.00 223.65 2071.13
   21:57:56.503.08-Nov-2020 3686.01 3544.10 71.69 4.00 223.85 2071.13
   21:57:56.703.08-Nov-2020 3686.01 3544.12 71.69 4.00 224.05 2071.13
   21:57:56.903.08-Nov-2020 3686.01 3544.12 71.69 4.00 224.25 2071.13
   21:57:57.103.08-Nov-2020 3686.01 3544.10 71.69 4.00 224.45 2071.13
   21:57:57.303.08-Nov-2020 3686.01 3544.16 71.69 4.00 224.65 2071.13
   21:57:57.503.08-Nov-2020 3686.01 3544.16 71.69 4.00 224.85 2071.13
   21:57:57.703.08-Nov-2020 3686.01 3544.13 71.69 4.00 225.05 2071.13
   21:57:57.903.08-Nov-2020 3686.01 3544.13 71.69 4.00 225.25 2071.13
   21:57:58.103.08-Nov-2020 3686.01 3544.12 71.69 4.00 225.45 2071.13
   21:57:58.303.08-Nov-2020 3686.01 3544.12 71.68 4.00 225.65 2071.13
   21:57:58.503.08-Nov-2020 3686.01 3544.11 71.68 4.00 225.85 2071.13
   21:57:58.703.08-Nov-2020 3686.01 3544.10 71.68 4.00 226.05 2071.13
   21:57:58.903.08-Nov-2020 3686.01 3544.10 71.68 4.00 226.25 2071.13
   21:57:59.103.08-Nov-2020 3686.01 3544.09 71.68 4.00 226.45 2071.13
   21:57:59.303.08-Nov-2020 3686.01 3544.10 71.68 4.00 226.65 2071.13
   21:57:59.503.08-Nov-2020 3686.01 3544.07 71.68 4.00 226.85 2071.13
   21:57:59.703.08-Nov-2020 3686.01 3544.08 71.68 4.00 227.05 2071.13
   21:57:59.903.08-Nov-2020 3686.01 3544.15 71.68 4.00 227.25 2071.13
   21:58:00.103.08-Nov-2020 3686.01 3544.16 71.68 4.00 227.45 2071.13
   21:58:00.303.08-Nov-2020 3686.01 3544.15 71.68 4.00 227.65 2071.13
   21:58:00.504.08-Nov-2020 3686.01 3544.18 71.67 4.00 227.85 2071.13
   21:58:00.704.08-Nov-2020 3686.01 3544.16 71.67 4.00 228.05 2071.13
   21:58:00.904.08-Nov-2020 3686.01 3544.16 71.67 4.00 228.25 2071.13
   21:58:01.104.08-Nov-2020 3686.01 3544.11 71.67 4.00 228.45 2071.13
   21:58:01.304.08-Nov-2020 3686.01 3544.20 71.67 4.00 228.65 2071.13
   21:58:01.504.08-Nov-2020 3686.01 3544.16 71.67 4.00 228.85 2071.13
   21:58:01.704.08-Nov-2020 3686.01 3544.16 71.67 4.00 229.05 2071.13
   21:58:01.904.08-Nov-2020 3686.01 3544.16 71.67 4.00 229.25 2071.13
   21:58:02.104.08-Nov-2020 3686.01 3544.09 71.67 4.00 229.45 2071.13
   21:58:02.304.08-Nov-2020 3686.01 3544.20 71.67 4.00 229.65 2071.13
   21:58:02.504.08-Nov-2020 3686.01 3544.16 71.67 4.00 229.85 2071.13
