~Version Information
 VERS.                  2.0:   CWLS log ASCII Standard -VERSION 2.0
 WRAP.                   NO:   One line per depth step
~Well Information Block
#MNEM.UNIT     VALUE/NAME     DESCRIPTION
#---------     -----------    ---------------------------
 STRT.S             22:31:45 10-Nov-20: START TIME 22:31:45 10-Nov-20
 STOP.S             22:38:18 10-Nov-20: STOP TIME  22:38:18 10-Nov-20
 STEP.S                   0.00: STEP TIME
 NULL.                 -999.25: NULL VALUE
 DFWT.                        :  DIST FWL TEXT
 DFST.                        :  DIST FSL TEXT
 DMF .             Drill Floor:  DRILL MEAS FROM
 STIM.      04.54.24 22-Sep-20:  START TIME
 DATE.      04.54.24 21-Nov-20:  END TIME
 SPUD.               21-Nov-20:  SPUD DATE
 NREF.                    Grid:  NORTH REFERENCE
 HPTY.       Minimum Curvature:  HOLE POS TYPE
 DMOD.             Drill Model:  DRILL MOD DESC
 SVYD.                  Survey:  SURVEY DESC
 ILTD.               Lithology:  INTERP LTH DESC
 FTOP.          Formation Tops:  FORM TOPS DESC
 SON .        AZ-XX-0906571587:  JOB NUMBER
 COMP.     BP Exploration (Caspian Sea) Ltd:  COMPANY
 UWI .                     N/A:  UNIQUE WELL IDENTIFIER
 API .                     N/A:  API NUMBER
 BASE.              Azerbaijan:  LOGGING EQUIPMENT BASE LOCATION
 REGN.                   EESSA:  REGION
 PROV.                    Baku:  PROVINCE
 STAT.                    Baku:  STATE NAME
 CTRY.              Azerbaijan:  COUNTRY NAME
 FLD .                     ACG:  FIELD NAME
 SRVC.     TURAN Drilling & Engineering:  CONTRACTOR
 WELL.                     J27:  WELL NAME
 RIG .             West Chirag:  RIG NAME
 DOE .                     N/A:  DOE NUMBER
 DCON.         Sperry Drilling:  DIRECTNL CONTR
 PDAT.          Mean Sea Level:  PERMANENT DATUM
 WTYP.                Deviated:  WELL TYPE
 MWDS.                    Baku:  MWD SHOP
 JOBN.        AZ-XX-0906571587:  JOB TICKET NUMB
 UNIT.                     N/A:  LOGGING EQUIPMENT ID
 MDS .        Operator Entered:  MAG DATA SOURCE
 CNTY.                        :  COUNTY
 LOC .                        :  LOCATION
 LMF .             Drill Floor:  LOG MEASURED FROM
 TVDS.m                  43.00:  TVDSS CORRECTN
 LATI.deg                40.13:  LATITUDE
 LONG.deg                51.22:  LONGITUDE
 WHNS.m                   7.72:  WELL HEAD N/S
 WHEW.m                 -14.24:  WELL HEAD E/W
 UTMX.m              519005.06:  UTM X
 UTMY.m             4443793.85:  UTM Y
 DFWL.m                   0.00:  DISTANCE FWL
 DFSL.m                   0.00:  DISTANCE FSL
 SDEP.m                 347.00:  START DEPTH
 TDD .m                 581.00:  TOTAL DEPTH (DRILLER)
 VSDR.deg               159.72:  VERT SEC DIRECT
 GVFD.g                   1.00:  GRAVITY FIELD
 MFLD.nT              50313.00:  MAGNETIC FIELD
 MDIP.deg                59.58:  MAGNETIC DIP
 MDEC.deg                 6.45:  MAGNETIC DECL
 GRDC.deg                 0.15:  GRID CORRECTION
 AZTC.deg                 6.30:  AZM TOTAL CORR
 EPD .m                   0.00:  ELEVATION
 EGL .m                   0.00:  GROUND ELEVATION
 WDMS.m                 169.80:  WD ELEV
 APD .m                  43.00:  DEPTH ABOVE PD
 AGAP.m                  43.00:  AIR GAP
 VSEW.m                 -14.24:  VERT SEC E/W
 VSNS.m                   7.72:  VERT SEC N/S
 DEP .m                 342.45:  DEPTH
 EKB .m                   0.00:  KB ELEVATION
 EDF .m                  43.00:  DF ELEVATION
 TDL .m                1313.00:  TOTAL DEPTH (LOGGER)
 VSC .                       0:  VS TO CLOSURE
 MAGU.                 1851396:  MAGUTM CHECKSUM
~Parameter Information Block
#MNEM.UNIT       Value        Description
#---------     -----------    ---------------------------
 AV  .mps                 0.65:  Ann Velocity 
 AVMX.mps                 0.75:  Max Ann Veloc 
 AZIF.deg               115.08:  Azm, Final 
 BHAT.        Rotary Steerable:  BHA Type 
 BROT.°/30m               1.50:  Build Rotating 
 BS  .in                 12.25:  Bit Size 
 BSZ .in                 12.25:  Bit Size 
 BTPL.psig              700.00:  Bit Press Loss 
 CABU.                     Yes:  Customer Abuse 
 COMM.                     ”Õ`:  Run Comments 1 
 TCS .hr                121.00:  Time Ciculation Ended 
 CV  .mps                 1.83:  Crit Velocity 
 CVMX.mps                 1.83:  Max Crit Veloc 
 DD1 .          Rashad Habibov:  Direct Drillr 1 
 DD2 .         Rasim Ibrahimov:  Direct Drillr 2 
 DDSV.                 iCruise:  DD Service 
 DEFF.%                 100.00:  % Det Eff 
 DLRX.°/30m               3.60:  Dogleg Rot Max 
 DLSO.°/30m               3.10:  Dogleg Oriented 
 DLSX.°/30m               3.60:  Dogleg Str Max 
 DRET.      13.41.20 12-Nov-20:  Drill End Time 
 DRST.      13.41.20 07-Nov-20:  Drill Start Tim 
 DTIM.hr                 54.16:  Time Drilling 
 EDEP.m                4762.01:  End Depth 
 ENG1.           Amrah Tahirov:  Engineer 1 
 ENG2.      Bakhtiyar Jabbarli:  Engineer 2 
 ENG3.          Ruslan Safarov:  Engineer 3 
 ETIM.      13.41.20 14-Nov-20:  End Time 
 FLOI.gpm              1200.00:  Flow In 
 FLON.gpm              1100.00:  Flow In Min 
 FLOS.cptm                0.00:  Fluid Loss 
 FLOX.gpm              1200.00:  Flow In Max 
 HFLO.                      No:  High Flow 
 HPRE.                      No:  High Pressure 
 HTEM.                      No:  High Temp 
 HYDO.m                   2.00:  Hydro Offset 
 IFIN.deg                66.14:  Inc, Final 
 IMAX.deg                69.03:  Inc Max 
 IMIN.deg                64.64:  Inc Min 
 IMND.m                4450.16:  Inc Min Depth 
 IMXD.m                3996.00:  Inc Max Depth 
 JARR.                     Yes:  Jarring 
 LETM.      13.41.20 14-Nov-20:  Log End Time 
 LOST.hr                     0:  Lost Rig Time 
 LSTM.      13.41.20 06-Nov-20:  Log Start Time 
 MDCL.ppm             42500.00:  Mud Chlorides 
 MDES.     Inversion Oil/Synthetic:  Mud Desc 
 DFD .sg                  1.45:  Mud Density 
 MDMN.sg                  1.45:  Dens Mud Min 
 MDMX.sg                  1.45:  Dens Mud Max 
 MOIL.                      70:  Run Mud Oil % 
 MOWR.                   70:30:  Run Mud OWR 
 MSND.                       0:  Run Mud Sand % 
 MSOL.                    19.3:  Run Mud Solids% 
 DFV .spqt               77.00:  Mud Viscosity 
 MWOD.in                  8.00:  MWD Tool OD 
 MWSI.                      No:  Serv Intrp, MWD 
 OTIM.hr                201.88:  Time Operating 
 PCON.           Look Like New:  Pad Condition 
 PMAX.psia             9250.94:  Press Op, Max 
 PV  .cP                 29.00:  Mud PV 
 RUN .                     800:  Run Number 
 ROPA.m/hr               28.00:  ROP Avg 
 ROPN.m/hr               25.00:  ROP Min 
 ROPX.m/hr               30.00:  ROP Max 
 RPMA.rpm               160.00:  RPM Surface Avg 
 RPMN.rpm               160.00:  RPM Surface Min 
 RPMX.rpm               160.00:  RPM Surface Max 
 RRUN.                    0800:  Rig Run Number 
 RTIM.hr                 12.00:  Time Reaming 
 SAZI.deg               169.33:  Azm, Start 
 SDEP.m                3449.01:  Start Depth 
 SIDD.                      No:  Serv Intrp, DD 
 SINC.deg                68.01:  Inc, Start 
 SPPA.psig             4900.00:  SPP Avg 
 SPPN.psig             4800.00:  SPP Min 
 SPPX.psig             5050.00:  SPP Max 
 STIM.      13.41.20 06-Nov-20:  Start Time 
 SVCS.                 DD, MWD:  Services 
 SVER.                    9.20:  Sperry Version 
 TDAT.m                4762.01:  Tot Depth Attmp 
 TDDF.                      No:  Trip for DD 
 TDLG.m                1313.00:  Tot Depth Loggd 
 TFF .                      No:  Trip for Fail 
 TQAA.f-kp               13.00:  Torque Abs Avg 
 TQAN.f-kp               13.00:  Torque Abs Min 
 TQAX.f-kp               13.00:  Torque Abs Max 
 TRRT.°/30m               1.70:  Turn Rotating 
 MRT .                  EWR-M5:  Maximum Recorded Temperature 
 TTMX.degC               86.00:  Max Tool Temp 
 VS01.                90622122:  Virtual Str1 SN 
 VS02.                90577298:  Virtual Str2 SN 
 VS03.                90563623:  Virtual Str3 SN 
 VS04.                90617559:  Virtual Str4 SN 
 VS05.                11339492:  Virtual Str5 SN 
 VS06.                12385033:  Virtual Str6 SN 
 WBMN.klb                 0.00:  WOB Min 
 WOBA.klb                22.00:  WOB Avg 
 WOBX.klb                26.00:  WOB Max 
 YP  .lhf2               30.00:  Yield Point 
~Curve Information Block
#MNEM.UNIT                 API CODE     Curve Description
#---------               -----------    ---------------------------
 TIME.HHMMSS            00 000 000 000:  GT Time & Date
 GTDEPTH.m              00 000 000 000:  GT Depth
 GTPQH.psia             00 000 000 000:  GT HR Quartz Pressure
 GTTQ.degC              00 000 000 000:  GT Quartz Temperature
 GTTN.NONE              00 000 000 000:  GT Test Number
 GTET.sec               00 000 000 000:  GT Elapsed Test Time
 GTTVD.m                00 000 000 000:  GT True Vertical Depth
#Other Information
#
#WARRANTY: Halliburton will use its best efforts to furnish customers with 
#accurate information and interpretations that are part of, and incident to, the services 
#provided.  However, Halliburton cannot and does not warrant the accuracy 
#or correctness of such information and interpretations.  Under no circumstances should any 
#such information or interpretation be relied upon as the sole basis for any drilling, 
#completion, production, or financial decision or any procedure involving any risk to the 
#safety of any drilling venture, drilling rig or its crew or any other third party.  The 
#Customer has full responsibility for all drilling, completion and production operation.  
#Halliburton makes no representations or warranties, either expressed or 
#implied, including, but not limited to, the implied warranties of merchantability or fitness 
#for a particular purpose, with respect to the services rendered.  In no event will 
#Halliburton be liable for failure to obtain any particular results or for 
#any damages, including, but not limited to, indirect, special or consequential damages, 
#resulting from the use of any information or interpretation provided by Halliburton.
#
~A           TIME           GTDEPTH  GTPQH  GTTQ  GTTN  GTET   GTTVD  
# ...
   22:35:12.790.10-Nov-2020 4535.01 4060.93 82.17 6.00 207.03 2393.67
   22:35:12.990.10-Nov-2020 4535.01 4060.93 82.17 6.00 207.23 2393.67
   22:35:13.190.10-Nov-2020 4535.01 4060.89 82.17 6.00 207.43 2393.67
   22:35:13.390.10-Nov-2020 4535.01 4061.01 82.17 6.00 207.63 2393.67
   22:35:13.590.10-Nov-2020 4535.01 4060.99 82.17 6.00 207.83 2393.67
   22:35:13.790.10-Nov-2020 4535.01 4060.94 82.17 6.00 208.03 2393.67
   22:35:13.990.10-Nov-2020 4535.01 4060.94 82.17 6.00 208.23 2393.67
   22:35:14.190.10-Nov-2020 4535.01 4060.93 82.17 6.00 208.43 2393.67
   22:35:14.390.10-Nov-2020 4535.01 4061.00 82.17 6.00 208.63 2393.67
   22:35:14.590.10-Nov-2020 4535.01 4061.02 82.16 6.00 208.83 2393.67
   22:35:14.790.10-Nov-2020 4535.01 4061.02 82.16 6.00 209.03 2393.67
   22:35:14.990.10-Nov-2020 4535.01 4061.02 82.16 6.00 209.23 2393.67
   22:35:15.190.10-Nov-2020 4535.01 4060.91 82.16 6.00 209.43 2393.67
   22:35:15.390.10-Nov-2020 4535.01 4061.00 82.16 6.00 209.63 2393.67
   22:35:15.590.10-Nov-2020 4535.01 4060.98 82.16 6.00 209.83 2393.67
   22:35:15.790.10-Nov-2020 4535.01 4061.09 82.16 6.00 210.03 2393.67
   22:35:15.990.10-Nov-2020 4535.01 4061.09 82.16 6.00 210.23 2393.67
   22:35:16.190.10-Nov-2020 4535.01 4060.96 82.16 6.00 210.43 2393.67
   22:35:16.390.10-Nov-2020 4535.01 4060.90 82.15 6.00 210.63 2393.67
   22:35:16.590.10-Nov-2020 4535.01 4061.00 82.15 6.00 210.83 2393.67
   22:35:16.790.10-Nov-2020 4535.01 4060.87 82.15 6.00 211.03 2393.67
   22:35:16.990.10-Nov-2020 4535.01 4060.96 82.15 6.00 211.23 2393.67
   22:35:17.190.10-Nov-2020 4535.01 4060.96 82.15 6.00 211.43 2393.67
   22:35:17.390.10-Nov-2020 4535.01 4060.97 82.15 6.00 211.63 2393.67
   22:35:17.590.10-Nov-2020 4535.01 4060.99 82.15 6.00 211.83 2393.67
   22:35:17.790.10-Nov-2020 4535.01 4060.93 82.15 6.00 212.03 2393.67
   22:35:17.990.10-Nov-2020 4535.01 4060.93 82.15 6.00 212.23 2393.67
   22:35:18.190.10-Nov-2020 4535.01 4060.95 82.15 6.00 212.43 2393.67
   22:35:18.390.10-Nov-2020 4535.01 4061.08 82.14 6.00 212.63 2393.67
   22:35:18.590.10-Nov-2020 4535.01 4061.06 82.14 6.00 212.83 2393.67
   22:35:18.790.10-Nov-2020 4535.01 4060.88 82.14 6.00 213.03 2393.67
   22:35:18.991.10-Nov-2020 4535.01 4060.88 82.14 6.00 213.23 2393.67
   22:35:19.191.10-Nov-2020 4535.01 4060.95 82.14 6.00 213.43 2393.67
   22:35:19.391.10-Nov-2020 4535.01 4060.92 82.14 6.00 213.63 2393.67
   22:35:19.591.10-Nov-2020 4535.01 4060.96 82.14 6.00 213.83 2393.67
   22:35:19.791.10-Nov-2020 4535.01 4061.02 82.14 6.00 214.03 2393.67
   22:35:19.991.10-Nov-2020 4535.01 4061.04 82.14 6.00 214.23 2393.67
   22:35:20.191.10-Nov-2020 4535.01 4061.01 82.13 6.00 214.43 2393.67
   22:35:20.391.10-Nov-2020 4535.01 4060.96 82.13 6.00 214.63 2393.67
   22:35:20.591.10-Nov-2020 4535.01 4061.03 82.13 6.00 214.83 2393.67
   22:35:20.791.10-Nov-2020 4535.01 4061.01 82.13 6.00 215.03 2393.67
   22:35:20.991.10-Nov-2020 4535.01 4061.10 82.13 6.00 215.23 2393.67
   22:35:21.191.10-Nov-2020 4535.01 4061.08 82.13 6.00 215.43 2393.67
   22:35:21.391.10-Nov-2020 4535.01 4061.08 82.13 6.00 215.63 2393.67
   22:35:21.591.10-Nov-2020 4535.01 4060.98 82.13 6.00 215.83 2393.67
   22:35:21.791.10-Nov-2020 4535.01 4061.08 82.13 6.00 216.03 2393.67
   22:35:21.991.10-Nov-2020 4535.01 4061.08 82.13 6.00 216.23 2393.67
   22:35:22.191.10-Nov-2020 4535.01 4060.87 82.12 6.00 216.43 2393.67
   22:35:22.391.10-Nov-2020 4535.01 4061.05 82.12 6.00 216.63 2393.67
   22:35:22.591.10-Nov-2020 4535.01 4061.01 82.12 6.00 216.83 2393.67
   22:35:22.791.10-Nov-2020 4535.01 4060.92 82.12 6.00 217.03 2393.67
   22:35:22.991.10-Nov-2020 4535.01 4060.92 82.12 6.00 217.23 2393.67
   22:35:23.191.10-Nov-2020 4535.01 4060.96 82.12 6.00 217.43 2393.67
   22:35:23.391.10-Nov-2020 4535.01 4061.04 82.12 6.00 217.63 2393.67
   22:35:23.591.10-Nov-2020 4535.01 4061.02 82.12 6.00 217.83 2393.67
   22:35:23.791.10-Nov-2020 4535.01 4061.01 82.12 6.00 218.03 2393.67
   22:35:23.991.10-Nov-2020 4535.01 4060.96 82.11 6.00 218.23 2393.67
   22:35:24.191.10-Nov-2020 4535.01 4061.00 82.11 6.00 218.43 2393.67
   22:35:24.391.10-Nov-2020 4535.01 4060.99 82.11 6.00 218.63 2393.67
   22:35:24.591.10-Nov-2020 4535.01 4060.96 82.11 6.00 218.83 2393.67
   22:35:24.791.10-Nov-2020 4535.01 4061.08 82.11 6.00 219.03 2393.67
   22:35:24.991.10-Nov-2020 4535.01 4060.97 82.11 6.00 219.23 2393.67
   22:35:25.191.10-Nov-2020 4535.01 4060.92 82.11 6.00 219.43 2393.67
   22:35:25.391.10-Nov-2020 4535.01 4060.99 82.11 6.00 219.63 2393.67
   22:35:25.591.10-Nov-2020 4535.01 4060.94 82.11 6.00 219.83 2393.67
   22:35:25.791.10-Nov-2020 4535.01 4060.86 82.11 6.00 220.03 2393.67
   22:35:25.991.10-Nov-2020 4535.01 4060.86 82.11 6.00 220.23 2393.67
   22:35:26.191.10-Nov-2020 4535.01 4060.95 82.10 6.00 220.43 2393.67
   22:35:26.392.10-Nov-2020 4535.01 4060.97 82.10 6.00 220.63 2393.67
   22:35:26.592.10-Nov-2020 4535.01 4060.98 82.10 6.00 220.83 2393.67
   22:35:26.792.10-Nov-2020 4535.01 4060.96 82.10 6.00 221.03 2393.67
   22:35:26.992.10-Nov-2020 4535.01 4060.96 82.10 6.00 221.23 2393.67
   22:35:27.192.10-Nov-2020 4535.01 4061.14 82.10 6.00 221.43 2393.67
   22:35:27.392.10-Nov-2020 4535.01 4061.02 82.10 6.00 221.63 2393.67
   22:35:27.592.10-Nov-2020 4535.01 4060.99 82.10 6.00 221.83 2393.67
   22:35:27.792.10-Nov-2020 4535.01 4061.04 82.10 6.00 222.03 2393.67
   22:35:27.992.10-Nov-2020 4535.01 4061.04 82.10 6.00 222.23 2393.67
   22:35:28.192.10-Nov-2020 4535.01 4060.81 82.09 6.00 222.43 2393.67
   22:35:28.392.10-Nov-2020 4535.01 4060.98 82.09 6.00 222.63 2393.67
   22:35:28.592.10-Nov-2020 4535.01 4060.97 82.09 6.00 222.83 2393.67
   22:35:28.792.10-Nov-2020 4535.01 4061.03 82.09 6.00 223.03 2393.67
   22:35:28.992.10-Nov-2020 4535.01 4061.03 82.09 6.00 223.23 2393.67
   22:35:29.192.10-Nov-2020 4535.01 4060.99 82.09 6.00 223.43 2393.67
   22:35:29.392.10-Nov-2020 4535.01 4060.91 82.09 6.00 223.63 2393.67
   22:35:29.592.10-Nov-2020 4535.01 4061.14 82.09 6.00 223.83 2393.67
   22:35:29.792.10-Nov-2020 4535.01 4061.10 82.08 6.00 224.03 2393.67
   22:35:29.992.10-Nov-2020 4535.01 4061.07 82.08 6.00 224.23 2393.67
   22:35:30.192.10-Nov-2020 4535.01 4060.99 82.08 6.00 224.43 2393.67
   22:35:30.392.10-Nov-2020 4535.01 4061.07 82.08 6.00 224.63 2393.67
   22:35:30.592.10-Nov-2020 4535.01 4061.17 82.08 6.00 224.83 2393.67
   22:35:30.792.10-Nov-2020 4535.01 4060.89 82.08 6.00 225.03 2393.67
   22:35:30.992.10-Nov-2020 4535.01 4060.89 82.08 6.00 225.23 2393.67
   22:35:31.192.10-Nov-2020 4535.01 4060.92 82.08 6.00 225.43 2393.67
   22:35:31.392.10-Nov-2020 4535.01 4061.07 82.08 6.00 225.63 2393.67
   22:35:31.592.10-Nov-2020 4535.01 4060.92 82.08 6.00 225.83 2393.67
   22:35:31.792.10-Nov-2020 4535.01 4060.99 82.07 6.00 226.03 2393.67
   22:35:31.992.10-Nov-2020 4535.01 4060.99 82.07 6.00 226.23 2393.67
   22:35:32.192.10-Nov-2020 4535.01 4061.01 82.07 6.00 226.43 2393.67
   22:35:32.392.10-Nov-2020 4535.01 4061.06 82.07 6.00 226.63 2393.67
   22:35:32.592.10-Nov-2020 4535.01 4060.99 82.07 6.00 226.83 2393.67
   22:35:32.792.10-Nov-2020 4535.01 4060.97 82.07 6.00 227.03 2393.67
   22:35:32.992.10-Nov-2020 4535.01 4060.97 82.07 6.00 227.23 2393.67
   22:35:33.192.10-Nov-2020 4535.01 4061.02 82.07 6.00 227.43 2393.67
   22:35:33.392.10-Nov-2020 4535.01 4060.93 82.07 6.00 227.63 2393.67
   22:35:33.592.10-Nov-2020 4535.01 4061.11 82.06 6.00 227.83 2393.67
   22:35:33.793.10-Nov-2020 4535.01 4060.94 82.06 6.00 228.03 2393.67
   22:35:33.993.10-Nov-2020 4535.01 4060.94 82.06 6.00 228.23 2393.67
   22:35:34.193.10-Nov-2020 4535.01 4060.87 82.06 6.00 228.43 2393.67
   22:35:34.393.10-Nov-2020 4535.01 4061.03 82.06 6.00 228.63 2393.67
   22:35:34.593.10-Nov-2020 4535.01 4060.90 82.06 6.00 228.83 2393.67
   22:35:34.793.10-Nov-2020 4535.01 4060.96 82.06 6.00 229.03 2393.67
   22:35:34.993.10-Nov-2020 4535.01 4061.00 82.06 6.00 229.23 2393.67
   22:35:35.193.10-Nov-2020 4535.01 4060.96 82.06 6.00 229.43 2393.67
   22:35:35.393.10-Nov-2020 4535.01 4060.97 82.06 6.00 229.63 2393.67
   22:35:35.593.10-Nov-2020 4535.01 4060.96 82.05 6.00 229.83 2393.67
