~Version Information
 VERS.                  2.0:   CWLS log ASCII Standard -VERSION 2.0
 WRAP.                   NO:   One line per depth step
~Well Information Block
#MNEM.UNIT     VALUE/NAME     DESCRIPTION
#---------     -----------    ---------------------------
 STRT.S             22:31:45 10-Nov-20: START TIME 22:31:45 10-Nov-20
 STOP.S             22:38:18 10-Nov-20: STOP TIME  22:38:18 10-Nov-20
 STEP.S                   0.00: STEP TIME
 NULL.                 -999.25: NULL VALUE
 DFWT.                        :  DIST FWL TEXT
 DFST.                        :  DIST FSL TEXT
 DMF .             Drill Floor:  DRILL MEAS FROM
 STIM.      04.54.24 22-Sep-20:  START TIME
 DATE.      04.54.24 21-Nov-20:  END TIME
 SPUD.               21-Nov-20:  SPUD DATE
 NREF.                    Grid:  NORTH REFERENCE
 HPTY.       Minimum Curvature:  HOLE POS TYPE
 DMOD.             Drill Model:  DRILL MOD DESC
 SVYD.                  Survey:  SURVEY DESC
 ILTD.               Lithology:  INTERP LTH DESC
 FTOP.          Formation Tops:  FORM TOPS DESC
 SON .        AZ-XX-0906571587:  JOB NUMBER
 COMP.     BP Exploration (Caspian Sea) Ltd:  COMPANY
 UWI .                     N/A:  UNIQUE WELL IDENTIFIER
 API .                     N/A:  API NUMBER
 BASE.              Azerbaijan:  LOGGING EQUIPMENT BASE LOCATION
 REGN.                   EESSA:  REGION
 PROV.                    Baku:  PROVINCE
 STAT.                    Baku:  STATE NAME
 CTRY.              Azerbaijan:  COUNTRY NAME
 FLD .                     ACG:  FIELD NAME
 SRVC.     TURAN Drilling & Engineering:  CONTRACTOR
 WELL.                     J27:  WELL NAME
 RIG .             West Chirag:  RIG NAME
 DOE .                     N/A:  DOE NUMBER
 DCON.         Sperry Drilling:  DIRECTNL CONTR
 PDAT.          Mean Sea Level:  PERMANENT DATUM
 WTYP.                Deviated:  WELL TYPE
 MWDS.                    Baku:  MWD SHOP
 JOBN.        AZ-XX-0906571587:  JOB TICKET NUMB
 UNIT.                     N/A:  LOGGING EQUIPMENT ID
 MDS .        Operator Entered:  MAG DATA SOURCE
 CNTY.                        :  COUNTY
 LOC .                        :  LOCATION
 LMF .             Drill Floor:  LOG MEASURED FROM
 TVDS.m                  43.00:  TVDSS CORRECTN
 LATI.deg                40.13:  LATITUDE
 LONG.deg                51.22:  LONGITUDE
 WHNS.m                   7.72:  WELL HEAD N/S
 WHEW.m                 -14.24:  WELL HEAD E/W
 UTMX.m              519005.06:  UTM X
 UTMY.m             4443793.85:  UTM Y
 DFWL.m                   0.00:  DISTANCE FWL
 DFSL.m                   0.00:  DISTANCE FSL
 SDEP.m                 347.00:  START DEPTH
 TDD .m                 581.00:  TOTAL DEPTH (DRILLER)
 VSDR.deg               159.72:  VERT SEC DIRECT
 GVFD.g                   1.00:  GRAVITY FIELD
 MFLD.nT              50313.00:  MAGNETIC FIELD
 MDIP.deg                59.58:  MAGNETIC DIP
 MDEC.deg                 6.45:  MAGNETIC DECL
 GRDC.deg                 0.15:  GRID CORRECTION
 AZTC.deg                 6.30:  AZM TOTAL CORR
 EPD .m                   0.00:  ELEVATION
 EGL .m                   0.00:  GROUND ELEVATION
 WDMS.m                 169.80:  WD ELEV
 APD .m                  43.00:  DEPTH ABOVE PD
 AGAP.m                  43.00:  AIR GAP
 VSEW.m                 -14.24:  VERT SEC E/W
 VSNS.m                   7.72:  VERT SEC N/S
 DEP .m                 342.45:  DEPTH
 EKB .m                   0.00:  KB ELEVATION
 EDF .m                  43.00:  DF ELEVATION
 TDL .m                1313.00:  TOTAL DEPTH (LOGGER)
 VSC .                       0:  VS TO CLOSURE
 MAGU.                 1851396:  MAGUTM CHECKSUM
~Parameter Information Block
#MNEM.UNIT       Value        Description
#---------     -----------    ---------------------------
 AV  .mps                 0.65:  Ann Velocity 
 AVMX.mps                 0.75:  Max Ann Veloc 
 AZIF.deg               115.08:  Azm, Final 
 BHAT.        Rotary Steerable:  BHA Type 
 BROT.°/30m               1.50:  Build Rotating 
 BS  .in                 12.25:  Bit Size 
 BSZ .in                 12.25:  Bit Size 
 BTPL.psig              700.00:  Bit Press Loss 
 CABU.                     Yes:  Customer Abuse 
 COMM.                     ”Õ`:  Run Comments 1 
 TCS .hr                121.00:  Time Ciculation Ended 
 CV  .mps                 1.83:  Crit Velocity 
 CVMX.mps                 1.83:  Max Crit Veloc 
 DD1 .          Rashad Habibov:  Direct Drillr 1 
 DD2 .         Rasim Ibrahimov:  Direct Drillr 2 
 DDSV.                 iCruise:  DD Service 
 DEFF.%                 100.00:  % Det Eff 
 DLRX.°/30m               3.60:  Dogleg Rot Max 
 DLSO.°/30m               3.10:  Dogleg Oriented 
 DLSX.°/30m               3.60:  Dogleg Str Max 
 DRET.      13.41.20 12-Nov-20:  Drill End Time 
 DRST.      13.41.20 07-Nov-20:  Drill Start Tim 
 DTIM.hr                 54.16:  Time Drilling 
 EDEP.m                4762.01:  End Depth 
 ENG1.           Amrah Tahirov:  Engineer 1 
 ENG2.      Bakhtiyar Jabbarli:  Engineer 2 
 ENG3.          Ruslan Safarov:  Engineer 3 
 ETIM.      13.41.20 14-Nov-20:  End Time 
 FLOI.gpm              1200.00:  Flow In 
 FLON.gpm              1100.00:  Flow In Min 
 FLOS.cptm                0.00:  Fluid Loss 
 FLOX.gpm              1200.00:  Flow In Max 
 HFLO.                      No:  High Flow 
 HPRE.                      No:  High Pressure 
 HTEM.                      No:  High Temp 
 HYDO.m                   2.00:  Hydro Offset 
 IFIN.deg                66.14:  Inc, Final 
 IMAX.deg                69.03:  Inc Max 
 IMIN.deg                64.64:  Inc Min 
 IMND.m                4450.16:  Inc Min Depth 
 IMXD.m                3996.00:  Inc Max Depth 
 JARR.                     Yes:  Jarring 
 LETM.      13.41.20 14-Nov-20:  Log End Time 
 LOST.hr                     0:  Lost Rig Time 
 LSTM.      13.41.20 06-Nov-20:  Log Start Time 
 MDCL.ppm             42500.00:  Mud Chlorides 
 MDES.     Inversion Oil/Synthetic:  Mud Desc 
 DFD .sg                  1.45:  Mud Density 
 MDMN.sg                  1.45:  Dens Mud Min 
 MDMX.sg                  1.45:  Dens Mud Max 
 MOIL.                      70:  Run Mud Oil % 
 MOWR.                   70:30:  Run Mud OWR 
 MSND.                       0:  Run Mud Sand % 
 MSOL.                    19.3:  Run Mud Solids% 
 DFV .spqt               77.00:  Mud Viscosity 
 MWOD.in                  8.00:  MWD Tool OD 
 MWSI.                      No:  Serv Intrp, MWD 
 OTIM.hr                201.88:  Time Operating 
 PCON.           Look Like New:  Pad Condition 
 PMAX.psia             9250.94:  Press Op, Max 
 PV  .cP                 29.00:  Mud PV 
 RUN .                     800:  Run Number 
 ROPA.m/hr               28.00:  ROP Avg 
 ROPN.m/hr               25.00:  ROP Min 
 ROPX.m/hr               30.00:  ROP Max 
 RPMA.rpm               160.00:  RPM Surface Avg 
 RPMN.rpm               160.00:  RPM Surface Min 
 RPMX.rpm               160.00:  RPM Surface Max 
 RRUN.                    0800:  Rig Run Number 
 RTIM.hr                 12.00:  Time Reaming 
 SAZI.deg               169.33:  Azm, Start 
 SDEP.m                3449.01:  Start Depth 
 SIDD.                      No:  Serv Intrp, DD 
 SINC.deg                68.01:  Inc, Start 
 SPPA.psig             4900.00:  SPP Avg 
 SPPN.psig             4800.00:  SPP Min 
 SPPX.psig             5050.00:  SPP Max 
 STIM.      13.41.20 06-Nov-20:  Start Time 
 SVCS.                 DD, MWD:  Services 
 SVER.                    9.20:  Sperry Version 
 TDAT.m                4762.01:  Tot Depth Attmp 
 TDDF.                      No:  Trip for DD 
 TDLG.m                1313.00:  Tot Depth Loggd 
 TFF .                      No:  Trip for Fail 
 TQAA.f-kp               13.00:  Torque Abs Avg 
 TQAN.f-kp               13.00:  Torque Abs Min 
 TQAX.f-kp               13.00:  Torque Abs Max 
 TRRT.°/30m               1.70:  Turn Rotating 
 MRT .                  EWR-M5:  Maximum Recorded Temperature 
 TTMX.degC               86.00:  Max Tool Temp 
 VS01.                90622122:  Virtual Str1 SN 
 VS02.                90577298:  Virtual Str2 SN 
 VS03.                90563623:  Virtual Str3 SN 
 VS04.                90617559:  Virtual Str4 SN 
 VS05.                11339492:  Virtual Str5 SN 
 VS06.                12385033:  Virtual Str6 SN 
 WBMN.klb                 0.00:  WOB Min 
 WOBA.klb                22.00:  WOB Avg 
 WOBX.klb                26.00:  WOB Max 
 YP  .lhf2               30.00:  Yield Point 
~Curve Information Block
#MNEM.UNIT                 API CODE     Curve Description
#---------               -----------    ---------------------------
 TIME.HHMMSS            00 000 000 000:  GT Time & Date
 GTDEPTH.m              00 000 000 000:  GT Depth
 GTPQH.psia             00 000 000 000:  GT HR Quartz Pressure
 GTTQ.degC              00 000 000 000:  GT Quartz Temperature
 GTTN.NONE              00 000 000 000:  GT Test Number
 GTET.sec               00 000 000 000:  GT Elapsed Test Time
 GTTVD.m                00 000 000 000:  GT True Vertical Depth
#Other Information
#
#WARRANTY: Halliburton will use its best efforts to furnish customers with 
#accurate information and interpretations that are part of, and incident to, the services 
#provided.  However, Halliburton cannot and does not warrant the accuracy 
#or correctness of such information and interpretations.  Under no circumstances should any 
#such information or interpretation be relied upon as the sole basis for any drilling, 
#completion, production, or financial decision or any procedure involving any risk to the 
#safety of any drilling venture, drilling rig or its crew or any other third party.  The 
#Customer has full responsibility for all drilling, completion and production operation.  
#Halliburton makes no representations or warranties, either expressed or 
#implied, including, but not limited to, the implied warranties of merchantability or fitness 
#for a particular purpose, with respect to the services rendered.  In no event will 
#Halliburton be liable for failure to obtain any particular results or for 
#any damages, including, but not limited to, indirect, special or consequential damages, 
#resulting from the use of any information or interpretation provided by Halliburton.
#
~A           TIME           GTDEPTH  GTPQH  GTTQ  GTTN  GTET   GTTVD  
# ...
   22:34:03.780.10-Nov-2020 4535.01 4061.06 82.54 6.00 138.02 2393.67
   22:34:03.980.10-Nov-2020 4535.01 4061.06 82.54 6.00 138.22 2393.67
   22:34:04.180.10-Nov-2020 4535.01 4061.11 82.54 6.00 138.42 2393.67
   22:34:04.380.10-Nov-2020 4535.01 4061.04 82.54 6.00 138.62 2393.67
   22:34:04.580.10-Nov-2020 4535.01 4061.03 82.53 6.00 138.82 2393.67
   22:34:04.780.10-Nov-2020 4535.01 4061.03 82.53 6.00 139.02 2393.67
   22:34:04.981.10-Nov-2020 4535.01 4061.07 82.53 6.00 139.22 2393.67
   22:34:05.181.10-Nov-2020 4535.01 4060.98 82.53 6.00 139.42 2393.67
   22:34:05.381.10-Nov-2020 4535.01 4061.23 82.53 6.00 139.62 2393.67
   22:34:05.581.10-Nov-2020 4535.01 4060.99 82.53 6.00 139.82 2393.67
   22:34:05.781.10-Nov-2020 4535.01 4061.02 82.53 6.00 140.02 2393.67
   22:34:05.981.10-Nov-2020 4535.01 4061.02 82.53 6.00 140.22 2393.67
   22:34:06.181.10-Nov-2020 4535.01 4061.09 82.53 6.00 140.42 2393.67
   22:34:06.381.10-Nov-2020 4535.01 4060.99 82.53 6.00 140.62 2393.67
   22:34:06.581.10-Nov-2020 4535.01 4061.04 82.52 6.00 140.82 2393.67
   22:34:06.781.10-Nov-2020 4535.01 4061.07 82.52 6.00 141.02 2393.67
   22:34:06.981.10-Nov-2020 4535.01 4061.02 82.52 6.00 141.22 2393.67
   22:34:07.181.10-Nov-2020 4535.01 4061.05 82.52 6.00 141.42 2393.67
   22:34:07.381.10-Nov-2020 4535.01 4061.01 82.52 6.00 141.62 2393.67
   22:34:07.581.10-Nov-2020 4535.01 4061.01 82.52 6.00 141.82 2393.67
   22:34:07.781.10-Nov-2020 4535.01 4061.12 82.52 6.00 142.02 2393.67
   22:34:07.981.10-Nov-2020 4535.01 4061.12 82.52 6.00 142.22 2393.67
   22:34:08.181.10-Nov-2020 4535.01 4061.03 82.52 6.00 142.42 2393.67
   22:34:08.381.10-Nov-2020 4535.01 4061.13 82.51 6.00 142.62 2393.67
   22:34:08.581.10-Nov-2020 4535.01 4060.90 82.51 6.00 142.82 2393.67
   22:34:08.781.10-Nov-2020 4535.01 4060.99 82.51 6.00 143.02 2393.67
   22:34:08.981.10-Nov-2020 4535.01 4060.87 82.51 6.00 143.22 2393.67
   22:34:09.181.10-Nov-2020 4535.01 4061.13 82.51 6.00 143.42 2393.67
   22:34:09.381.10-Nov-2020 4535.01 4061.06 82.51 6.00 143.62 2393.67
   22:34:09.581.10-Nov-2020 4535.01 4061.07 82.51 6.00 143.82 2393.67
   22:34:09.781.10-Nov-2020 4535.01 4061.13 82.51 6.00 144.02 2393.67
   22:34:09.981.10-Nov-2020 4535.01 4060.94 82.51 6.00 144.22 2393.67
   22:34:10.181.10-Nov-2020 4535.01 4061.11 82.50 6.00 144.42 2393.67
   22:34:10.381.10-Nov-2020 4535.01 4061.14 82.50 6.00 144.62 2393.67
   22:34:10.581.10-Nov-2020 4535.01 4061.18 82.50 6.00 144.82 2393.67
   22:34:10.781.10-Nov-2020 4535.01 4061.06 82.50 6.00 145.02 2393.67
   22:34:10.981.10-Nov-2020 4535.01 4061.06 82.50 6.00 145.22 2393.67
   22:34:11.181.10-Nov-2020 4535.01 4061.10 82.50 6.00 145.42 2393.67
   22:34:11.381.10-Nov-2020 4535.01 4061.12 82.50 6.00 145.62 2393.67
   22:34:11.581.10-Nov-2020 4535.01 4060.96 82.50 6.00 145.82 2393.67
   22:34:11.781.10-Nov-2020 4535.01 4061.07 82.50 6.00 146.02 2393.67
   22:34:11.981.10-Nov-2020 4535.01 4061.08 82.50 6.00 146.22 2393.67
   22:34:12.181.10-Nov-2020 4535.01 4061.02 82.49 6.00 146.42 2393.67
   22:34:12.382.10-Nov-2020 4535.01 4061.04 82.49 6.00 146.62 2393.67
   22:34:12.582.10-Nov-2020 4535.01 4061.04 82.49 6.00 146.82 2393.67
   22:34:12.782.10-Nov-2020 4535.01 4061.08 82.49 6.00 147.02 2393.67
   22:34:12.982.10-Nov-2020 4535.01 4061.08 82.49 6.00 147.22 2393.67
   22:34:13.182.10-Nov-2020 4535.01 4061.03 82.49 6.00 147.42 2393.67
   22:34:13.382.10-Nov-2020 4535.01 4061.05 82.49 6.00 147.62 2393.67
   22:34:13.582.10-Nov-2020 4535.01 4061.01 82.49 6.00 147.82 2393.67
   22:34:13.782.10-Nov-2020 4535.01 4061.05 82.49 6.00 148.02 2393.67
   22:34:13.982.10-Nov-2020 4535.01 4061.05 82.49 6.00 148.22 2393.67
   22:34:14.182.10-Nov-2020 4535.01 4061.04 82.48 6.00 148.42 2393.67
   22:34:14.382.10-Nov-2020 4535.01 4061.21 82.48 6.00 148.62 2393.67
   22:34:14.582.10-Nov-2020 4535.01 4060.97 82.48 6.00 148.82 2393.67
   22:34:14.782.10-Nov-2020 4535.01 4060.94 82.48 6.00 149.02 2393.67
   22:34:14.982.10-Nov-2020 4535.01 4060.94 82.48 6.00 149.22 2393.67
   22:34:15.182.10-Nov-2020 4535.01 4061.01 82.48 6.00 149.42 2393.67
   22:34:15.382.10-Nov-2020 4535.01 4060.95 82.48 6.00 149.62 2393.67
   22:34:15.582.10-Nov-2020 4535.01 4061.07 82.48 6.00 149.82 2393.67
   22:34:15.782.10-Nov-2020 4535.01 4061.01 82.47 6.00 150.02 2393.67
   22:34:15.982.10-Nov-2020 4535.01 4061.07 82.47 6.00 150.22 2393.67
   22:34:16.182.10-Nov-2020 4535.01 4061.01 82.47 6.00 150.42 2393.67
   22:34:16.382.10-Nov-2020 4535.01 4061.01 82.47 6.00 150.62 2393.67
   22:34:16.582.10-Nov-2020 4535.01 4061.02 82.47 6.00 150.82 2393.67
   22:34:16.782.10-Nov-2020 4535.01 4061.23 82.47 6.00 151.02 2393.67
   22:34:16.982.10-Nov-2020 4535.01 4061.03 82.47 6.00 151.22 2393.67
   22:34:17.182.10-Nov-2020 4535.01 4025.52 82.47 6.00 151.42 2393.67
   22:34:17.382.10-Nov-2020 4535.01 3967.47 82.47 6.00 151.62 2393.67
   22:34:17.582.10-Nov-2020 4535.01 3963.90 82.47 6.00 151.82 2393.67
   22:34:17.782.10-Nov-2020 4535.01 3964.17 82.46 6.00 152.02 2393.67
   22:34:17.982.10-Nov-2020 4535.01 3964.17 82.46 6.00 152.22 2393.67
   22:34:18.182.10-Nov-2020 4535.01 3965.27 82.46 6.00 152.42 2393.67
   22:34:18.382.10-Nov-2020 4535.01 3965.52 82.46 6.00 152.62 2393.67
   22:34:18.582.10-Nov-2020 4535.01 3965.23 82.46 6.00 152.82 2393.67
   22:34:18.782.10-Nov-2020 4535.01 3965.82 82.46 6.00 153.02 2393.67
   22:34:18.982.10-Nov-2020 4535.01 3965.82 82.46 6.00 153.22 2393.67
   22:34:19.182.10-Nov-2020 4535.01 3966.42 82.46 6.00 153.42 2393.67
   22:34:19.382.10-Nov-2020 4535.01 3967.94 82.46 6.00 153.62 2393.67
   22:34:19.582.10-Nov-2020 4535.01 3965.22 82.45 6.00 153.82 2393.67
   22:34:19.783.10-Nov-2020 4535.01 3967.40 82.45 6.00 154.02 2393.67
   22:34:19.983.10-Nov-2020 4535.01 3967.05 82.45 6.00 154.22 2393.67
   22:34:20.183.10-Nov-2020 4535.01 3967.44 82.45 6.00 154.42 2393.67
   22:34:20.383.10-Nov-2020 4535.01 3966.56 82.45 6.00 154.62 2393.67
   22:34:20.583.10-Nov-2020 4535.01 3967.56 82.45 6.00 154.82 2393.67
   22:34:20.783.10-Nov-2020 4535.01 3967.48 82.45 6.00 155.02 2393.67
   22:34:20.983.10-Nov-2020 4535.01 3967.52 82.45 6.00 155.22 2393.67
   22:34:21.183.10-Nov-2020 4535.01 3967.57 82.45 6.00 155.42 2393.67
   22:34:21.383.10-Nov-2020 4535.01 3966.95 82.44 6.00 155.62 2393.67
   22:34:21.583.10-Nov-2020 4535.01 3967.23 82.44 6.00 155.82 2393.67
   22:34:21.783.10-Nov-2020 4535.01 3968.45 82.44 6.00 156.02 2393.67
   22:34:21.983.10-Nov-2020 4535.01 3968.45 82.44 6.00 156.22 2393.67
   22:34:22.183.10-Nov-2020 4535.01 3968.40 82.44 6.00 156.42 2393.67
   22:34:22.383.10-Nov-2020 4535.01 3968.31 82.44 6.00 156.62 2393.67
   22:34:22.583.10-Nov-2020 4535.01 3968.21 82.44 6.00 156.82 2393.67
   22:34:22.783.10-Nov-2020 4535.01 3969.26 82.44 6.00 157.02 2393.67
   22:34:22.983.10-Nov-2020 4535.01 3969.26 82.44 6.00 157.22 2393.67
   22:34:23.183.10-Nov-2020 4535.01 3970.83 82.43 6.00 157.42 2393.67
   22:34:23.383.10-Nov-2020 4535.01 3968.30 82.43 6.00 157.62 2393.67
   22:34:23.583.10-Nov-2020 4535.01 3969.62 82.43 6.00 157.82 2393.67
   22:34:23.783.10-Nov-2020 4535.01 3969.73 82.43 6.00 158.02 2393.67
   22:34:23.983.10-Nov-2020 4535.01 3969.73 82.43 6.00 158.22 2393.67
   22:34:24.183.10-Nov-2020 4535.01 3969.69 82.43 6.00 158.42 2393.67
   22:34:24.383.10-Nov-2020 4535.01 3969.78 82.43 6.00 158.62 2393.67
   22:34:24.583.10-Nov-2020 4535.01 3970.54 82.43 6.00 158.82 2393.67
   22:34:24.783.10-Nov-2020 4535.01 3970.64 82.43 6.00 159.02 2393.67
   22:34:24.983.10-Nov-2020 4535.01 3970.74 82.42 6.00 159.22 2393.67
   22:34:25.183.10-Nov-2020 4535.01 3970.91 82.42 6.00 159.42 2393.67
   22:34:25.383.10-Nov-2020 4535.01 3971.13 82.42 6.00 159.62 2393.67
   22:34:25.583.10-Nov-2020 4535.01 3971.01 82.42 6.00 159.82 2393.67
   22:34:25.783.10-Nov-2020 4535.01 3972.08 82.42 6.00 160.02 2393.67
   22:34:25.983.10-Nov-2020 4535.01 3970.88 82.42 6.00 160.22 2393.67
   22:34:26.183.10-Nov-2020 4535.01 3971.65 82.42 6.00 160.42 2393.67
   22:34:26.383.10-Nov-2020 4535.01 3971.49 82.42 6.00 160.62 2393.67
   22:34:26.583.10-Nov-2020 4535.01 3971.18 82.42 6.00 160.82 2393.67
