~Version Information
 VERS.                  2.0:   CWLS log ASCII Standard -VERSION 2.0
 WRAP.                   NO:   One line per depth step
~Well Information Block
#MNEM.UNIT     VALUE/NAME     DESCRIPTION
#---------     -----------    ---------------------------
 STRT.S             13:56:13 08-Nov-20: START TIME 13:56:13 08-Nov-20
 STOP.S             14:02:43 08-Nov-20: STOP TIME  14:02:43 08-Nov-20
 STEP.S                   0.00: STEP TIME
 NULL.                 -999.25: NULL VALUE
 DFWT.                        :  DIST FWL TEXT
 DFST.                        :  DIST FSL TEXT
 DMF .             Drill Floor:  DRILL MEAS FROM
 STIM.      04.54.24 22-Sep-20:  START TIME
 DATE.      04.54.24 21-Nov-20:  END TIME
 SPUD.               21-Nov-20:  SPUD DATE
 NREF.                    Grid:  NORTH REFERENCE
 HPTY.       Minimum Curvature:  HOLE POS TYPE
 DMOD.             Drill Model:  DRILL MOD DESC
 SVYD.                  Survey:  SURVEY DESC
 ILTD.               Lithology:  INTERP LTH DESC
 FTOP.          Formation Tops:  FORM TOPS DESC
 SON .        AZ-XX-0906571587:  JOB NUMBER
 COMP.     BP Exploration (Caspian Sea) Ltd:  COMPANY
 UWI .                     N/A:  UNIQUE WELL IDENTIFIER
 API .                     N/A:  API NUMBER
 BASE.              Azerbaijan:  LOGGING EQUIPMENT BASE LOCATION
 REGN.                   EESSA:  REGION
 PROV.                    Baku:  PROVINCE
 STAT.                    Baku:  STATE NAME
 CTRY.              Azerbaijan:  COUNTRY NAME
 FLD .                     ACG:  FIELD NAME
 SRVC.     TURAN Drilling & Engineering:  CONTRACTOR
 WELL.                     J27:  WELL NAME
 RIG .             West Chirag:  RIG NAME
 DOE .                     N/A:  DOE NUMBER
 DCON.         Sperry Drilling:  DIRECTNL CONTR
 PDAT.          Mean Sea Level:  PERMANENT DATUM
 WTYP.                Deviated:  WELL TYPE
 MWDS.                    Baku:  MWD SHOP
 JOBN.        AZ-XX-0906571587:  JOB TICKET NUMB
 UNIT.                     N/A:  LOGGING EQUIPMENT ID
 MDS .        Operator Entered:  MAG DATA SOURCE
 CNTY.                        :  COUNTY
 LOC .                        :  LOCATION
 LMF .             Drill Floor:  LOG MEASURED FROM
 TVDS.m                  43.00:  TVDSS CORRECTN
 LATI.deg                40.13:  LATITUDE
 LONG.deg                51.22:  LONGITUDE
 WHNS.m                   7.72:  WELL HEAD N/S
 WHEW.m                 -14.24:  WELL HEAD E/W
 UTMX.m              519005.06:  UTM X
 UTMY.m             4443793.85:  UTM Y
 DFWL.m                   0.00:  DISTANCE FWL
 DFSL.m                   0.00:  DISTANCE FSL
 SDEP.m                 347.00:  START DEPTH
 TDD .m                 581.00:  TOTAL DEPTH (DRILLER)
 VSDR.deg               159.72:  VERT SEC DIRECT
 GVFD.g                   1.00:  GRAVITY FIELD
 MFLD.nT              50313.00:  MAGNETIC FIELD
 MDIP.deg                59.58:  MAGNETIC DIP
 MDEC.deg                 6.45:  MAGNETIC DECL
 GRDC.deg                 0.15:  GRID CORRECTION
 AZTC.deg                 6.30:  AZM TOTAL CORR
 EPD .m                   0.00:  ELEVATION
 EGL .m                   0.00:  GROUND ELEVATION
 WDMS.m                 169.80:  WD ELEV
 APD .m                  43.00:  DEPTH ABOVE PD
 AGAP.m                  43.00:  AIR GAP
 VSEW.m                 -14.24:  VERT SEC E/W
 VSNS.m                   7.72:  VERT SEC N/S
 DEP .m                 342.45:  DEPTH
 EKB .m                   0.00:  KB ELEVATION
 EDF .m                  43.00:  DF ELEVATION
 TDL .m                1313.00:  TOTAL DEPTH (LOGGER)
 VSC .                       0:  VS TO CLOSURE
 MAGU.                 1851396:  MAGUTM CHECKSUM
~Parameter Information Block
#MNEM.UNIT       Value        Description
#---------     -----------    ---------------------------
 AV  .mps                 0.65:  Ann Velocity 
 AVMX.mps                 0.75:  Max Ann Veloc 
 AZIF.deg               115.08:  Azm, Final 
 BHAT.        Rotary Steerable:  BHA Type 
 BROT.°/30m               1.50:  Build Rotating 
 BS  .in                 12.25:  Bit Size 
 BSZ .in                 12.25:  Bit Size 
 BTPL.psig              700.00:  Bit Press Loss 
 CABU.                     Yes:  Customer Abuse 
 COMM.                     ì¹^:  Run Comments 1 
 TCS .hr                121.00:  Time Ciculation Ended 
 CV  .mps                 1.83:  Crit Velocity 
 CVMX.mps                 1.83:  Max Crit Veloc 
 DD1 .          Rashad Habibov:  Direct Drillr 1 
 DD2 .         Rasim Ibrahimov:  Direct Drillr 2 
 DDSV.                 iCruise:  DD Service 
 DEFF.%                 100.00:  % Det Eff 
 DLRX.°/30m               3.60:  Dogleg Rot Max 
 DLSO.°/30m               3.10:  Dogleg Oriented 
 DLSX.°/30m               3.60:  Dogleg Str Max 
 DRET.      13.41.20 12-Nov-20:  Drill End Time 
 DRST.      13.41.20 07-Nov-20:  Drill Start Tim 
 DTIM.hr                 54.16:  Time Drilling 
 EDEP.m                4762.01:  End Depth 
 ENG1.           Amrah Tahirov:  Engineer 1 
 ENG2.      Bakhtiyar Jabbarli:  Engineer 2 
 ENG3.          Ruslan Safarov:  Engineer 3 
 ETIM.      13.41.20 14-Nov-20:  End Time 
 FLOI.gpm              1200.00:  Flow In 
 FLON.gpm              1100.00:  Flow In Min 
 FLOS.cptm                0.00:  Fluid Loss 
 FLOX.gpm              1200.00:  Flow In Max 
 HFLO.                      No:  High Flow 
 HPRE.                      No:  High Pressure 
 HTEM.                      No:  High Temp 
 HYDO.m                   2.00:  Hydro Offset 
 IFIN.deg                66.14:  Inc, Final 
 IMAX.deg                69.03:  Inc Max 
 IMIN.deg                64.64:  Inc Min 
 IMND.m                4450.16:  Inc Min Depth 
 IMXD.m                3996.00:  Inc Max Depth 
 JARR.                     Yes:  Jarring 
 LETM.      13.41.20 14-Nov-20:  Log End Time 
 LOST.hr                     0:  Lost Rig Time 
 LSTM.      13.41.20 06-Nov-20:  Log Start Time 
 MDCL.ppm             42500.00:  Mud Chlorides 
 MDES.     Inversion Oil/Synthetic:  Mud Desc 
 DFD .sg                  1.45:  Mud Density 
 MDMN.sg                  1.45:  Dens Mud Min 
 MDMX.sg                  1.45:  Dens Mud Max 
 MOIL.                      70:  Run Mud Oil % 
 MOWR.                   70:30:  Run Mud OWR 
 MSND.                       0:  Run Mud Sand % 
 MSOL.                    19.3:  Run Mud Solids% 
 DFV .spqt               77.00:  Mud Viscosity 
 MWOD.in                  8.00:  MWD Tool OD 
 MWSI.                      No:  Serv Intrp, MWD 
 OTIM.hr                201.88:  Time Operating 
 PCON.           Look Like New:  Pad Condition 
 PMAX.psia             9250.94:  Press Op, Max 
 PV  .cP                 29.00:  Mud PV 
 RUN .                     800:  Run Number 
 ROPA.m/hr               28.00:  ROP Avg 
 ROPN.m/hr               25.00:  ROP Min 
 ROPX.m/hr               30.00:  ROP Max 
 RPMA.rpm               160.00:  RPM Surface Avg 
 RPMN.rpm               160.00:  RPM Surface Min 
 RPMX.rpm               160.00:  RPM Surface Max 
 RRUN.                    0800:  Rig Run Number 
 RTIM.hr                 12.00:  Time Reaming 
 SAZI.deg               169.33:  Azm, Start 
 SDEP.m                3449.01:  Start Depth 
 SIDD.                      No:  Serv Intrp, DD 
 SINC.deg                68.01:  Inc, Start 
 SPPA.psig             4900.00:  SPP Avg 
 SPPN.psig             4800.00:  SPP Min 
 SPPX.psig             5050.00:  SPP Max 
 STIM.      13.41.20 06-Nov-20:  Start Time 
 SVCS.                 DD, MWD:  Services 
 SVER.                    9.20:  Sperry Version 
 TDAT.m                4762.01:  Tot Depth Attmp 
 TDDF.                      No:  Trip for DD 
 TDLG.m                1313.00:  Tot Depth Loggd 
 TFF .                      No:  Trip for Fail 
 TQAA.f-kp               13.00:  Torque Abs Avg 
 TQAN.f-kp               13.00:  Torque Abs Min 
 TQAX.f-kp               13.00:  Torque Abs Max 
 TRRT.°/30m               1.70:  Turn Rotating 
 MRT .                  EWR-M5:  Maximum Recorded Temperature 
 TTMX.degC               86.00:  Max Tool Temp 
 VS01.                90622122:  Virtual Str1 SN 
 VS02.                90577298:  Virtual Str2 SN 
 VS03.                90563623:  Virtual Str3 SN 
 VS04.                90617559:  Virtual Str4 SN 
 VS05.                11339492:  Virtual Str5 SN 
 VS06.                12385033:  Virtual Str6 SN 
 WBMN.klb                 0.00:  WOB Min 
 WOBA.klb                22.00:  WOB Avg 
 WOBX.klb                26.00:  WOB Max 
 YP  .lhf2               30.00:  Yield Point 
~Curve Information Block
#MNEM.UNIT                 API CODE     Curve Description
#---------               -----------    ---------------------------
 TIME.HHMMSS            00 000 000 000:  GT Time & Date
 GTDEPTH.m              00 000 000 000:  GT Depth
 GTPQH.psia             00 000 000 000:  GT HR Quartz Pressure
 GTTQ.degC              00 000 000 000:  GT Quartz Temperature
 GTTN.NONE              00 000 000 000:  GT Test Number
 GTET.sec               00 000 000 000:  GT Elapsed Test Time
 GTTVD.m                00 000 000 000:  GT True Vertical Depth
#Other Information
#
#WARRANTY: Halliburton will use its best efforts to furnish customers with 
#accurate information and interpretations that are part of, and incident to, the services 
#provided.  However, Halliburton cannot and does not warrant the accuracy 
#or correctness of such information and interpretations.  Under no circumstances should any 
#such information or interpretation be relied upon as the sole basis for any drilling, 
#completion, production, or financial decision or any procedure involving any risk to the 
#safety of any drilling venture, drilling rig or its crew or any other third party.  The 
#Customer has full responsibility for all drilling, completion and production operation.  
#Halliburton makes no representations or warranties, either expressed or 
#implied, including, but not limited to, the implied warranties of merchantability or fitness 
#for a particular purpose, with respect to the services rendered.  In no event will 
#Halliburton be liable for failure to obtain any particular results or for 
#any damages, including, but not limited to, indirect, special or consequential damages, 
#resulting from the use of any information or interpretation provided by Halliburton.
#
~A           TIME           GTDEPTH  GTPQH  GTTQ  GTTN  GTET   GTTVD  
# ...
   14:01:34.863.08-Nov-2020 3585.71 3292.58 70.46 3.00 321.69 2034.99
   14:01:35.063.08-Nov-2020 3585.71 3292.56 70.45 3.00 321.89 2034.99
   14:01:35.263.08-Nov-2020 3585.71 3292.56 70.45 3.00 322.09 2034.99
   14:01:35.463.08-Nov-2020 3585.71 3292.55 70.45 3.00 322.29 2034.99
   14:01:35.663.08-Nov-2020 3585.71 3292.55 70.45 3.00 322.49 2034.99
   14:01:35.862.08-Nov-2020 3585.71 3292.55 70.45 3.00 322.69 2034.99
   14:01:36.062.08-Nov-2020 3585.71 3292.55 70.45 3.00 322.89 2034.99
   14:01:36.262.08-Nov-2020 3585.71 3292.51 70.45 3.00 323.09 2034.99
   14:01:36.462.08-Nov-2020 3585.71 3292.59 70.45 3.00 323.29 2034.99
   14:01:36.662.08-Nov-2020 3585.71 3292.63 70.45 3.00 323.49 2034.99
   14:01:36.861.08-Nov-2020 3585.71 3292.60 70.45 3.00 323.69 2034.99
   14:01:37.061.08-Nov-2020 3585.71 3292.60 70.45 3.00 323.89 2034.99
   14:01:37.261.08-Nov-2020 3585.71 3292.59 70.44 3.00 324.09 2034.99
   14:01:37.461.08-Nov-2020 3585.71 3292.57 70.44 3.00 324.29 2034.99
   14:01:37.661.08-Nov-2020 3585.71 3292.57 70.44 3.00 324.49 2034.99
   14:01:37.860.08-Nov-2020 3585.71 3292.54 70.44 3.00 324.69 2034.99
   14:01:38.060.08-Nov-2020 3585.71 3292.54 70.44 3.00 324.89 2034.99
   14:01:38.260.08-Nov-2020 3585.71 3292.54 70.44 3.00 325.09 2034.99
   14:01:38.460.08-Nov-2020 3585.71 3292.54 70.44 3.00 325.29 2034.99
   14:01:38.660.08-Nov-2020 3585.71 3292.52 70.44 3.00 325.49 2034.99
   14:01:38.859.08-Nov-2020 3585.71 3292.50 70.43 3.00 325.69 2034.99
   14:01:39.059.08-Nov-2020 3585.71 3292.50 70.43 3.00 325.89 2034.99
   14:01:39.259.08-Nov-2020 3585.71 3292.63 70.43 3.00 326.09 2034.99
   14:01:39.459.08-Nov-2020 3585.71 3292.56 70.43 3.00 326.29 2034.99
   14:01:39.659.08-Nov-2020 3585.71 3292.67 70.43 3.00 326.49 2034.99
   14:01:39.858.08-Nov-2020 3585.71 3292.64 70.43 3.00 326.69 2034.99
   14:01:40.058.08-Nov-2020 3585.71 3292.64 70.43 3.00 326.89 2034.99
   14:01:40.258.08-Nov-2020 3585.71 3292.59 70.43 3.00 327.08 2034.99
   14:01:40.458.08-Nov-2020 3585.71 3292.63 70.43 3.00 327.28 2034.99
   14:01:40.658.08-Nov-2020 3585.71 3292.63 70.43 3.00 327.48 2034.99
   14:01:40.857.08-Nov-2020 3585.71 3292.61 70.42 3.00 327.68 2034.99
   14:01:41.057.08-Nov-2020 3585.71 3292.61 70.42 3.00 327.88 2034.99
   14:01:41.257.08-Nov-2020 3585.71 3292.61 70.42 3.00 328.08 2034.99
   14:01:41.457.08-Nov-2020 3585.71 3292.57 70.42 3.00 328.28 2034.99
   14:01:41.657.08-Nov-2020 3585.71 3292.64 70.42 3.00 328.48 2034.99
   14:01:41.857.08-Nov-2020 3585.71 3292.64 70.42 3.00 328.68 2034.99
   14:01:42.056.08-Nov-2020 3585.71 3292.64 70.42 3.00 328.88 2034.99
   14:01:42.256.08-Nov-2020 3585.71 3292.62 70.42 3.00 329.08 2034.99
   14:01:42.456.08-Nov-2020 3585.71 3292.57 70.42 3.00 329.28 2034.99
   14:01:42.656.08-Nov-2020 3585.71 3292.68 70.41 3.00 329.48 2034.99
   14:01:42.856.08-Nov-2020 3585.71 3292.61 70.41 3.00 329.68 2034.99
   14:01:43.055.08-Nov-2020 3585.71 3292.61 70.41 3.00 329.88 2034.99
   14:01:43.255.08-Nov-2020 3585.71 3292.62 70.41 3.00 330.08 2034.99
   14:01:43.455.08-Nov-2020 3585.71 3292.58 70.41 3.00 330.28 2034.99
   14:01:43.655.08-Nov-2020 3585.71 3292.58 70.41 3.00 330.48 2034.99
   14:01:43.855.08-Nov-2020 3585.71 3292.56 70.41 3.00 330.68 2034.99
   14:01:44.054.08-Nov-2020 3585.71 3292.56 70.41 3.00 330.88 2034.99
   14:01:44.254.08-Nov-2020 3585.71 3292.55 70.41 3.00 331.08 2034.99
   14:01:44.454.08-Nov-2020 3585.71 3292.54 70.41 3.00 331.28 2034.99
   14:01:44.654.08-Nov-2020 3585.71 3292.53 70.40 3.00 331.48 2034.99
   14:01:44.854.08-Nov-2020 3585.71 3292.54 70.40 3.00 331.68 2034.99
   14:01:45.053.08-Nov-2020 3585.71 3292.54 70.40 3.00 331.88 2034.99
   14:01:45.253.08-Nov-2020 3585.71 3292.52 70.40 3.00 332.08 2034.99
   14:01:45.453.08-Nov-2020 3585.71 3292.63 70.40 3.00 332.28 2034.99
   14:01:45.653.08-Nov-2020 3585.71 3292.61 70.40 3.00 332.48 2034.99
   14:01:45.853.08-Nov-2020 3585.71 3292.57 70.40 3.00 332.68 2034.99
   14:01:46.052.08-Nov-2020 3585.71 3292.57 70.40 3.00 332.88 2034.99
   14:01:46.252.08-Nov-2020 3585.71 3292.57 70.40 3.00 333.08 2034.99
   14:01:46.452.08-Nov-2020 3585.71 3292.55 70.40 3.00 333.28 2034.99
   14:01:46.652.08-Nov-2020 3585.71 3292.54 70.39 3.00 333.48 2034.99
   14:01:46.852.08-Nov-2020 3585.71 3292.52 70.39 3.00 333.68 2034.99
   14:01:47.052.08-Nov-2020 3585.71 3292.53 70.39 3.00 333.88 2034.99
   14:01:47.251.08-Nov-2020 3585.71 3292.52 70.39 3.00 334.08 2034.99
   14:01:47.451.08-Nov-2020 3585.71 3292.51 70.39 3.00 334.28 2034.99
   14:01:47.651.08-Nov-2020 3585.71 3292.48 70.39 3.00 334.48 2034.99
   14:01:47.851.08-Nov-2020 3585.71 3292.58 70.39 3.00 334.68 2034.99
   14:01:48.051.08-Nov-2020 3585.71 3292.58 70.39 3.00 334.88 2034.99
   14:01:48.250.08-Nov-2020 3585.71 3292.51 70.39 3.00 335.08 2034.99
   14:01:48.450.08-Nov-2020 3585.71 3292.68 70.39 3.00 335.28 2034.99
   14:01:48.650.08-Nov-2020 3585.71 3292.63 70.38 3.00 335.48 2034.99
   14:01:48.850.08-Nov-2020 3585.71 3292.60 70.38 3.00 335.68 2034.99
   14:01:49.050.08-Nov-2020 3585.71 3292.60 70.38 3.00 335.88 2034.99
   14:01:49.249.08-Nov-2020 3585.71 3292.54 70.38 3.00 336.08 2034.99
   14:01:49.449.08-Nov-2020 3585.71 3292.64 70.38 3.00 336.28 2034.99
   14:01:49.649.08-Nov-2020 3585.71 3292.63 70.38 3.00 336.48 2034.99
   14:01:49.849.08-Nov-2020 3585.71 3292.58 70.38 3.00 336.68 2034.99
   14:01:50.049.08-Nov-2020 3585.71 3292.58 70.38 3.00 336.88 2034.99
   14:01:50.248.08-Nov-2020 3585.71 3292.52 70.38 3.00 337.08 2034.99
   14:01:50.448.08-Nov-2020 3585.71 3292.66 70.37 3.00 337.28 2034.99
   14:01:50.648.08-Nov-2020 3585.71 3292.63 70.37 3.00 337.47 2034.99
   14:01:50.848.08-Nov-2020 3585.71 3292.61 70.37 3.00 337.67 2034.99
   14:01:51.048.08-Nov-2020 3585.71 3292.61 70.37 3.00 337.87 2034.99
   14:01:51.247.08-Nov-2020 3585.71 3292.53 70.37 3.00 338.07 2034.99
   14:01:51.447.08-Nov-2020 3585.71 3292.66 70.37 3.00 338.27 2034.99
   14:01:51.647.08-Nov-2020 3585.71 3292.62 70.37 3.00 338.47 2034.99
   14:01:51.847.08-Nov-2020 3585.71 3292.59 70.37 3.00 338.67 2034.99
   14:01:52.047.08-Nov-2020 3585.71 3292.59 70.37 3.00 338.87 2034.99
   14:01:52.247.08-Nov-2020 3585.71 3292.57 70.37 3.00 339.07 2034.99
   14:01:52.446.08-Nov-2020 3585.71 3292.57 70.36 3.00 339.27 2034.99
   14:01:52.646.08-Nov-2020 3585.71 3292.56 70.36 3.00 339.47 2034.99
   14:01:52.846.08-Nov-2020 3585.71 3292.56 70.36 3.00 339.67 2034.99
   14:01:53.046.08-Nov-2020 3585.71 3292.56 70.36 3.00 339.87 2034.99
   14:01:53.246.08-Nov-2020 3585.71 3292.54 70.36 3.00 340.07 2034.99
   14:01:53.445.08-Nov-2020 3585.71 3292.52 70.36 3.00 340.27 2034.99
   14:01:53.645.08-Nov-2020 3585.71 3292.53 70.36 3.00 340.47 2034.99
   14:01:53.845.08-Nov-2020 3585.71 3292.51 70.36 3.00 340.67 2034.99
   14:01:54.045.08-Nov-2020 3585.71 3292.51 70.36 3.00 340.87 2034.99
   14:01:54.245.08-Nov-2020 3585.71 3292.66 70.35 3.00 341.07 2034.99
   14:01:54.444.08-Nov-2020 3585.71 3292.60 70.35 3.00 341.27 2034.99
   14:01:54.644.08-Nov-2020 3585.71 3292.58 70.35 3.00 341.47 2034.99
   14:01:54.844.08-Nov-2020 3585.71 3292.59 70.35 3.00 341.67 2034.99
   14:01:55.044.08-Nov-2020 3585.71 3292.59 70.35 3.00 341.87 2034.99
   14:01:55.244.08-Nov-2020 3585.71 3292.56 70.35 3.00 342.07 2034.99
   14:01:55.443.08-Nov-2020 3585.71 3292.54 70.35 3.00 342.27 2034.99
   14:01:55.643.08-Nov-2020 3585.71 3292.52 70.35 3.00 342.47 2034.99
   14:01:55.843.08-Nov-2020 3585.71 3292.52 70.35 3.00 342.67 2034.99
   14:01:56.043.08-Nov-2020 3585.71 3292.52 70.35 3.00 342.87 2034.99
   14:01:56.243.08-Nov-2020 3585.71 3292.51 70.34 3.00 343.07 2034.99
   14:01:56.442.08-Nov-2020 3585.71 3292.51 70.34 3.00 343.27 2034.99
   14:01:56.642.08-Nov-2020 3585.71 3292.50 70.34 3.00 343.47 2034.99
   14:01:56.842.08-Nov-2020 3585.71 3292.60 70.34 3.00 343.67 2034.99
   14:01:57.042.08-Nov-2020 3585.71 3292.60 70.34 3.00 343.87 2034.99
   14:01:57.242.08-Nov-2020 3585.71 3292.53 70.34 3.00 344.07 2034.99
   14:01:57.442.08-Nov-2020 3585.71 3292.68 70.34 3.00 344.27 2034.99
   14:01:57.641.08-Nov-2020 3585.71 3292.60 70.34 3.00 344.47 2034.99
