~Version Information
 VERS.                  2.0:   CWLS log ASCII Standard -VERSION 2.0
 WRAP.                   NO:   One line per depth step
~Well Information Block
#MNEM.UNIT     VALUE/NAME     DESCRIPTION
#---------     -----------    ---------------------------
 STRT.S             01:27:57 11-Nov-20: START TIME 01:27:57 11-Nov-20
 STOP.S             01:34:34 11-Nov-20: STOP TIME  01:34:34 11-Nov-20
 STEP.S                   0.00: STEP TIME
 NULL.                 -999.25: NULL VALUE
 DFWT.                        :  DIST FWL TEXT
 DFST.                        :  DIST FSL TEXT
 DMF .             Drill Floor:  DRILL MEAS FROM
 STIM.      04.54.24 22-Sep-20:  START TIME
 DATE.      04.54.24 21-Nov-20:  END TIME
 SPUD.               21-Nov-20:  SPUD DATE
 NREF.                    Grid:  NORTH REFERENCE
 HPTY.       Minimum Curvature:  HOLE POS TYPE
 DMOD.             Drill Model:  DRILL MOD DESC
 SVYD.                  Survey:  SURVEY DESC
 ILTD.               Lithology:  INTERP LTH DESC
 FTOP.          Formation Tops:  FORM TOPS DESC
 SON .        AZ-XX-0906571587:  JOB NUMBER
 COMP.     BP Exploration (Caspian Sea) Ltd:  COMPANY
 UWI .                     N/A:  UNIQUE WELL IDENTIFIER
 API .                     N/A:  API NUMBER
 BASE.              Azerbaijan:  LOGGING EQUIPMENT BASE LOCATION
 REGN.                   EESSA:  REGION
 PROV.                    Baku:  PROVINCE
 STAT.                    Baku:  STATE NAME
 CTRY.              Azerbaijan:  COUNTRY NAME
 FLD .                     ACG:  FIELD NAME
 SRVC.     TURAN Drilling & Engineering:  CONTRACTOR
 WELL.                     J27:  WELL NAME
 RIG .             West Chirag:  RIG NAME
 DOE .                     N/A:  DOE NUMBER
 DCON.         Sperry Drilling:  DIRECTNL CONTR
 PDAT.          Mean Sea Level:  PERMANENT DATUM
 WTYP.                Deviated:  WELL TYPE
 MWDS.                    Baku:  MWD SHOP
 JOBN.        AZ-XX-0906571587:  JOB TICKET NUMB
 UNIT.                     N/A:  LOGGING EQUIPMENT ID
 MDS .        Operator Entered:  MAG DATA SOURCE
 CNTY.                        :  COUNTY
 LOC .                        :  LOCATION
 LMF .             Drill Floor:  LOG MEASURED FROM
 TVDS.m                  43.00:  TVDSS CORRECTN
 LATI.deg                40.13:  LATITUDE
 LONG.deg                51.22:  LONGITUDE
 WHNS.m                   7.72:  WELL HEAD N/S
 WHEW.m                 -14.24:  WELL HEAD E/W
 UTMX.m              519005.06:  UTM X
 UTMY.m             4443793.85:  UTM Y
 DFWL.m                   0.00:  DISTANCE FWL
 DFSL.m                   0.00:  DISTANCE FSL
 SDEP.m                 347.00:  START DEPTH
 TDD .m                 581.00:  TOTAL DEPTH (DRILLER)
 VSDR.deg               159.72:  VERT SEC DIRECT
 GVFD.g                   1.00:  GRAVITY FIELD
 MFLD.nT              50313.00:  MAGNETIC FIELD
 MDIP.deg                59.58:  MAGNETIC DIP
 MDEC.deg                 6.45:  MAGNETIC DECL
 GRDC.deg                 0.15:  GRID CORRECTION
 AZTC.deg                 6.30:  AZM TOTAL CORR
 EPD .m                   0.00:  ELEVATION
 EGL .m                   0.00:  GROUND ELEVATION
 WDMS.m                 169.80:  WD ELEV
 APD .m                  43.00:  DEPTH ABOVE PD
 AGAP.m                  43.00:  AIR GAP
 VSEW.m                 -14.24:  VERT SEC E/W
 VSNS.m                   7.72:  VERT SEC N/S
 DEP .m                 342.45:  DEPTH
 EKB .m                   0.00:  KB ELEVATION
 EDF .m                  43.00:  DF ELEVATION
 TDL .m                1313.00:  TOTAL DEPTH (LOGGER)
 VSC .                       0:  VS TO CLOSURE
 MAGU.                 1851396:  MAGUTM CHECKSUM
~Parameter Information Block
#MNEM.UNIT       Value        Description
#---------     -----------    ---------------------------
 AV  .mps                 0.65:  Ann Velocity 
 AVMX.mps                 0.75:  Max Ann Veloc 
 AZIF.deg               115.08:  Azm, Final 
 BHAT.        Rotary Steerable:  BHA Type 
 BROT.∞/30m               1.50:  Build Rotating 
 BS  .in                 12.25:  Bit Size 
 BSZ .in                 12.25:  Bit Size 
 BTPL.psig              700.00:  Bit Press Loss 
 CABU.                     Yes:  Customer Abuse 
 COMM.                     ÏSu:  Run Comments 1 
 TCS .hr                121.00:  Time Ciculation Ended 
 CV  .mps                 1.83:  Crit Velocity 
 CVMX.mps                 1.83:  Max Crit Veloc 
 DD1 .          Rashad Habibov:  Direct Drillr 1 
 DD2 .         Rasim Ibrahimov:  Direct Drillr 2 
 DDSV.                 iCruise:  DD Service 
 DEFF.%                 100.00:  % Det Eff 
 DLRX.∞/30m               3.60:  Dogleg Rot Max 
 DLSO.∞/30m               3.10:  Dogleg Oriented 
 DLSX.∞/30m               3.60:  Dogleg Str Max 
 DRET.      13.41.20 12-Nov-20:  Drill End Time 
 DRST.      13.41.20 07-Nov-20:  Drill Start Tim 
 DTIM.hr                 54.16:  Time Drilling 
 EDEP.m                4762.01:  End Depth 
 ENG1.           Amrah Tahirov:  Engineer 1 
 ENG2.      Bakhtiyar Jabbarli:  Engineer 2 
 ENG3.          Ruslan Safarov:  Engineer 3 
 ETIM.      13.41.20 14-Nov-20:  End Time 
 FLOI.gpm              1200.00:  Flow In 
 FLON.gpm              1100.00:  Flow In Min 
 FLOS.cptm                0.00:  Fluid Loss 
 FLOX.gpm              1200.00:  Flow In Max 
 HFLO.                      No:  High Flow 
 HPRE.                      No:  High Pressure 
 HTEM.                      No:  High Temp 
 HYDO.m                   2.00:  Hydro Offset 
 IFIN.deg                66.14:  Inc, Final 
 IMAX.deg                69.03:  Inc Max 
 IMIN.deg                64.64:  Inc Min 
 IMND.m                4450.16:  Inc Min Depth 
 IMXD.m                3996.00:  Inc Max Depth 
 JARR.                     Yes:  Jarring 
 LETM.      13.41.20 14-Nov-20:  Log End Time 
 LOST.hr                     0:  Lost Rig Time 
 LSTM.      13.41.20 06-Nov-20:  Log Start Time 
 MDCL.ppm             42500.00:  Mud Chlorides 
 MDES.     Inversion Oil/Synthetic:  Mud Desc 
 DFD .sg                  1.45:  Mud Density 
 MDMN.sg                  1.45:  Dens Mud Min 
 MDMX.sg                  1.45:  Dens Mud Max 
 MOIL.                      70:  Run Mud Oil % 
 MOWR.                   70:30:  Run Mud OWR 
 MSND.                       0:  Run Mud Sand % 
 MSOL.                    19.3:  Run Mud Solids% 
 DFV .spqt               77.00:  Mud Viscosity 
 MWOD.in                  8.00:  MWD Tool OD 
 MWSI.                      No:  Serv Intrp, MWD 
 OTIM.hr                201.88:  Time Operating 
 PCON.           Look Like New:  Pad Condition 
 PMAX.psia             9250.94:  Press Op, Max 
 PV  .cP                 29.00:  Mud PV 
 RUN .                     800:  Run Number 
 ROPA.m/hr               28.00:  ROP Avg 
 ROPN.m/hr               25.00:  ROP Min 
 ROPX.m/hr               30.00:  ROP Max 
 RPMA.rpm               160.00:  RPM Surface Avg 
 RPMN.rpm               160.00:  RPM Surface Min 
 RPMX.rpm               160.00:  RPM Surface Max 
 RRUN.                    0800:  Rig Run Number 
 RTIM.hr                 12.00:  Time Reaming 
 SAZI.deg               169.33:  Azm, Start 
 SDEP.m                3449.01:  Start Depth 
 SIDD.                      No:  Serv Intrp, DD 
 SINC.deg                68.01:  Inc, Start 
 SPPA.psig             4900.00:  SPP Avg 
 SPPN.psig             4800.00:  SPP Min 
 SPPX.psig             5050.00:  SPP Max 
 STIM.      13.41.20 06-Nov-20:  Start Time 
 SVCS.                 DD, MWD:  Services 
 SVER.                    9.20:  Sperry Version 
 TDAT.m                4762.01:  Tot Depth Attmp 
 TDDF.                      No:  Trip for DD 
 TDLG.m                1313.00:  Tot Depth Loggd 
 TFF .                      No:  Trip for Fail 
 TQAA.f-kp               13.00:  Torque Abs Avg 
 TQAN.f-kp               13.00:  Torque Abs Min 
 TQAX.f-kp               13.00:  Torque Abs Max 
 TRRT.∞/30m               1.70:  Turn Rotating 
 MRT .                  EWR-M5:  Maximum Recorded Temperature 
 TTMX.degC               86.00:  Max Tool Temp 
 VS01.                90622122:  Virtual Str1 SN 
 VS02.                90577298:  Virtual Str2 SN 
 VS03.                90563623:  Virtual Str3 SN 
 VS04.                90617559:  Virtual Str4 SN 
 VS05.                11339492:  Virtual Str5 SN 
 VS06.                12385033:  Virtual Str6 SN 
 WBMN.klb                 0.00:  WOB Min 
 WOBA.klb                22.00:  WOB Avg 
 WOBX.klb                26.00:  WOB Max 
 YP  .lhf2               30.00:  Yield Point 
~Curve Information Block
#MNEM.UNIT                 API CODE     Curve Description
#---------               -----------    ---------------------------
 TIME.HHMMSS            00 000 000 000:  GT Time & Date
 GTDEPTH.m              00 000 000 000:  GT Depth
 GTPQH.psia             00 000 000 000:  GT HR Quartz Pressure
 GTTQ.degC              00 000 000 000:  GT Quartz Temperature
 GTTN.NONE              00 000 000 000:  GT Test Number
 GTET.sec               00 000 000 000:  GT Elapsed Test Time
 GTTVD.m                00 000 000 000:  GT True Vertical Depth
#Other Information
#
#WARRANTY: Halliburton will use its best efforts to furnish customers with 
#accurate information and interpretations that are part of, and incident to, the services 
#provided.  However, Halliburton cannot and does not warrant the accuracy 
#or correctness of such information and interpretations.  Under no circumstances should any 
#such information or interpretation be relied upon as the sole basis for any drilling, 
#completion, production, or financial decision or any procedure involving any risk to the 
#safety of any drilling venture, drilling rig or its crew or any other third party.  The 
#Customer has full responsibility for all drilling, completion and production operation.  
#Halliburton makes no representations or warranties, either expressed or 
#implied, including, but not limited to, the implied warranties of merchantability or fitness 
#for a particular purpose, with respect to the services rendered.  In no event will 
#Halliburton be liable for failure to obtain any particular results or for 
#any damages, including, but not limited to, indirect, special or consequential damages, 
#resulting from the use of any information or interpretation provided by Halliburton.
#
~A           TIME           GTDEPTH  GTPQH  GTTQ  GTTN  GTET   GTTVD  
# ...
   01:28:43.000.11-Nov-2020 4560.01 5129.70 77.63 7.00  46.00 2403.77
   01:28:43.200.11-Nov-2020 4560.01 5129.70 77.63 7.00  46.20 2403.77
   01:28:43.400.11-Nov-2020 4560.01 5130.63 77.63 7.00  46.40 2403.77
   01:28:43.600.11-Nov-2020 4560.01 5134.27 77.63 7.00  46.60 2403.77
   01:28:43.800.11-Nov-2020 4560.01 5130.27 77.63 7.00  46.80 2403.77
   01:28:44.000.11-Nov-2020 4560.01 5131.44 77.63 7.00  47.00 2403.77
   01:28:44.200.11-Nov-2020 4560.01 5131.44 77.63 7.00  47.20 2403.77
   01:28:44.400.11-Nov-2020 4560.01 5130.88 77.63 7.00  47.40 2403.77
   01:28:44.600.11-Nov-2020 4560.01 5131.16 77.63 7.00  47.60 2403.77
   01:28:44.800.11-Nov-2020 4560.01 5130.83 77.63 7.00  47.80 2403.77
   01:28:45.000.11-Nov-2020 4560.01 5130.53 77.63 7.00  48.00 2403.77
   01:28:45.200.11-Nov-2020 4560.01 5130.53 77.63 7.00  48.20 2403.77
   01:28:45.400.11-Nov-2020 4560.01 5214.52 77.63 7.00  48.40 2403.77
   01:28:45.600.11-Nov-2020 4560.01 5137.82 77.63 7.00  48.60 2403.77
   01:28:45.800.11-Nov-2020 4560.01 5075.04 77.63 7.00  48.80 2403.77
   01:28:46.000.11-Nov-2020 4560.01 5076.15 77.63 7.00  49.00 2403.77
   01:28:46.200.11-Nov-2020 4560.01 5076.49 77.63 7.00  49.20 2403.77
   01:28:46.400.11-Nov-2020 4560.01 5076.11 77.63 7.00  49.40 2403.77
   01:28:46.600.11-Nov-2020 4560.01 5076.30 77.63 7.00  49.60 2403.77
   01:28:46.800.11-Nov-2020 4560.01 5076.85 77.63 7.00  49.80 2403.77
   01:28:47.000.11-Nov-2020 4560.01 5076.52 77.63 7.00  50.00 2403.77
   01:28:47.200.11-Nov-2020 4560.01 5076.52 77.63 7.00  50.20 2403.77
   01:28:47.400.11-Nov-2020 4560.01 5073.50 77.63 7.00  50.40 2403.77
   01:28:47.600.11-Nov-2020 4560.01 5020.66 77.63 7.00  50.60 2403.77
   01:28:47.800.11-Nov-2020 4560.01 4856.64 77.63 7.00  50.80 2403.77
   01:28:48.000.11-Nov-2020 4560.01 4639.65 77.63 7.00  51.00 2403.77
   01:28:48.200.11-Nov-2020 4560.01 4639.65 77.63 7.00  51.20 2403.77
   01:28:48.400.11-Nov-2020 4560.01 4011.57 77.63 7.00  51.40 2403.77
   01:28:48.600.11-Nov-2020 4560.01 4004.97 77.63 7.00  51.60 2403.77
   01:28:48.800.11-Nov-2020 4560.01 4013.27 77.63 7.00  51.80 2403.77
   01:28:49.000.11-Nov-2020 4560.01 4014.23 77.63 7.00  52.00 2403.77
   01:28:49.200.11-Nov-2020 4560.01 4014.23 77.63 7.00  52.20 2403.77
   01:28:49.400.11-Nov-2020 4560.01 4015.20 77.62 7.00  52.40 2403.77
   01:28:49.600.11-Nov-2020 4560.01 4015.60 77.62 7.00  52.60 2403.77
   01:28:49.800.11-Nov-2020 4560.01 4015.74 77.62 7.00  52.80 2403.77
   01:28:50.000.11-Nov-2020 4560.01 4016.14 77.62 7.00  53.00 2403.77
   01:28:50.200.11-Nov-2020 4560.01 4016.14 77.62 7.00  53.20 2403.77
   01:28:50.400.11-Nov-2020 4560.01 4016.60 77.62 7.00  53.40 2403.77
   01:28:50.600.11-Nov-2020 4560.01 4016.68 77.62 7.00  53.60 2403.77
   01:28:50.800.11-Nov-2020 4560.01 4017.06 77.62 7.00  53.80 2403.77
   01:28:51.000.11-Nov-2020 4560.01 4017.35 77.62 7.00  54.00 2403.77
   01:28:51.200.11-Nov-2020 4560.01 4017.35 77.62 7.00  54.20 2403.77
   01:28:51.400.11-Nov-2020 4560.01 4017.55 77.62 7.00  54.40 2403.77
   01:28:51.600.11-Nov-2020 4560.01 4017.92 77.62 7.00  54.60 2403.77
   01:28:51.800.11-Nov-2020 4560.01 4017.99 77.62 7.00  54.80 2403.77
   01:28:52.000.11-Nov-2020 4560.01 4018.50 77.62 7.00  55.00 2403.77
   01:28:52.200.11-Nov-2020 4560.01 4018.50 77.62 7.00  55.20 2403.77
   01:28:52.400.11-Nov-2020 4560.01 4018.89 77.61 7.00  55.40 2403.77
   01:28:52.600.11-Nov-2020 4560.01 4018.79 77.61 7.00  55.60 2403.77
   01:28:52.800.11-Nov-2020 4560.01 4019.27 77.61 7.00  55.80 2403.77
   01:28:53.000.11-Nov-2020 4560.01 4019.68 77.61 7.00  56.00 2403.77
   01:28:53.200.11-Nov-2020 4560.01 4019.98 77.61 7.00  56.20 2403.77
   01:28:53.400.11-Nov-2020 4560.01 4020.32 77.61 7.00  56.40 2403.77
   01:28:53.600.11-Nov-2020 4560.01 4020.43 77.61 7.00  56.60 2403.77
   01:28:53.800.11-Nov-2020 4560.01 4020.58 77.61 7.00  56.80 2403.77
   01:28:54.000.11-Nov-2020 4560.01 4020.58 77.61 7.00  57.00 2403.77
   01:28:54.200.11-Nov-2020 4560.01 4020.80 77.61 7.00  57.20 2403.77
   01:28:54.400.11-Nov-2020 4560.01 4020.77 77.61 7.00  57.40 2403.77
   01:28:54.600.11-Nov-2020 4560.01 4020.83 77.61 7.00  57.60 2403.77
   01:28:54.800.11-Nov-2020 4560.01 4021.00 77.61 7.00  57.80 2403.77
   01:28:55.000.11-Nov-2020 4560.01 4021.10 77.61 7.00  58.00 2403.77
   01:28:55.200.11-Nov-2020 4560.01 4021.20 77.61 7.00  58.20 2403.77
   01:28:55.400.11-Nov-2020 4560.01 4021.27 77.61 7.00  58.40 2403.77
   01:28:55.600.11-Nov-2020 4560.01 4021.34 77.61 7.00  58.60 2403.77
   01:28:55.800.11-Nov-2020 4560.01 4021.51 77.60 7.00  58.80 2403.77
   01:28:56.000.11-Nov-2020 4560.01 4025.37 77.60 7.00  59.00 2403.77
   01:28:56.200.11-Nov-2020 4560.01 4025.37 77.60 7.00  59.20 2403.77
   01:28:56.400.11-Nov-2020 4560.01 4025.42 77.60 7.00  59.40 2403.77
   01:28:56.600.11-Nov-2020 4560.01 4025.47 77.60 7.00  59.60 2403.77
   01:28:56.800.11-Nov-2020 4560.01 4025.52 77.60 7.00  59.80 2403.77
   01:28:57.000.11-Nov-2020 4560.01 4025.53 77.60 7.00  60.00 2403.77
   01:28:57.200.11-Nov-2020 4560.01 4025.53 77.60 7.00  60.20 2403.77
   01:28:57.400.11-Nov-2020 4560.01 4025.56 77.60 7.00  60.40 2403.77
   01:28:57.600.11-Nov-2020 4560.01 4025.57 77.60 7.00  60.60 2403.77
   01:28:57.800.11-Nov-2020 4560.01 4025.59 77.60 7.00  60.80 2403.77
   01:28:58.000.11-Nov-2020 4560.01 4025.62 77.60 7.00  61.00 2403.77
   01:28:58.200.11-Nov-2020 4560.01 4025.63 77.60 7.00  61.20 2403.77
   01:28:58.400.11-Nov-2020 4560.01 4025.65 77.60 7.00  61.40 2403.77
   01:28:58.600.11-Nov-2020 4560.01 4025.72 77.60 7.00  61.60 2403.77
   01:28:58.800.11-Nov-2020 4560.01 4025.64 77.60 7.00  61.80 2403.77
   01:28:59.000.11-Nov-2020 4560.01 4025.52 77.60 7.00  62.00 2403.77
   01:28:59.200.11-Nov-2020 4560.01 4025.52 77.60 7.00  62.20 2403.77
   01:28:59.400.11-Nov-2020 4560.01 4025.51 77.60 7.00  62.40 2403.77
   01:28:59.600.11-Nov-2020 4560.01 4025.56 77.60 7.00  62.60 2403.77
   01:28:59.800.11-Nov-2020 4560.01 4025.57 77.60 7.00  62.80 2403.77
   01:29:00.000.11-Nov-2020 4560.01 4025.60 77.60 7.00  63.00 2403.77
   01:29:00.200.11-Nov-2020 4560.01 4025.60 77.60 7.00  63.20 2403.77
   01:29:00.400.11-Nov-2020 4560.01 4025.62 77.60 7.00  63.40 2403.77
   01:29:00.600.11-Nov-2020 4560.01 4025.56 77.60 7.00  63.60 2403.77
   01:29:00.800.11-Nov-2020 4560.01 4025.56 77.60 7.00  63.80 2403.77
   01:29:01.000.11-Nov-2020 4560.01 4025.69 77.60 7.00  64.00 2403.77
   01:29:01.200.11-Nov-2020 4560.01 4025.69 77.60 7.00  64.20 2403.77
   01:29:01.400.11-Nov-2020 4560.01 4025.57 77.60 7.00  64.40 2403.77
   01:29:01.600.11-Nov-2020 4560.01 4025.60 77.59 7.00  64.60 2403.77
   01:29:01.800.11-Nov-2020 4560.01 4025.70 77.59 7.00  64.80 2403.77
   01:29:02.000.11-Nov-2020 4560.01 4025.52 77.59 7.00  65.00 2403.77
   01:29:02.200.11-Nov-2020 4560.01 4025.52 77.59 7.00  65.20 2403.77
   01:29:02.400.11-Nov-2020 4560.01 4025.57 77.59 7.00  65.40 2403.77
   01:29:02.600.11-Nov-2020 4560.01 4025.67 77.59 7.00  65.60 2403.77
   01:29:02.800.11-Nov-2020 4560.01 4025.62 77.59 7.00  65.80 2403.77
   01:29:03.000.11-Nov-2020 4560.01 4025.63 77.59 7.00  66.00 2403.77
   01:29:03.200.11-Nov-2020 4560.01 4025.63 77.59 7.00  66.20 2403.77
   01:29:03.400.11-Nov-2020 4560.01 4025.69 77.59 7.00  66.40 2403.77
   01:29:03.600.11-Nov-2020 4560.01 4025.71 77.59 7.00  66.60 2403.77
   01:29:03.800.11-Nov-2020 4560.01 4025.70 77.59 7.00  66.80 2403.77
   01:29:04.000.11-Nov-2020 4560.01 4025.70 77.59 7.00  67.00 2403.77
   01:29:04.200.11-Nov-2020 4560.01 4025.70 77.59 7.00  67.20 2403.77
   01:29:04.400.11-Nov-2020 4560.01 4025.74 77.59 7.00  67.40 2403.77
   01:29:04.600.11-Nov-2020 4560.01 4025.80 77.59 7.00  67.60 2403.77
   01:29:04.800.11-Nov-2020 4560.01 4025.62 77.59 7.00  67.80 2403.77
   01:29:05.000.11-Nov-2020 4560.01 4025.63 77.59 7.00  68.00 2403.77
   01:29:05.200.11-Nov-2020 4560.01 4025.63 77.59 7.00  68.20 2403.77
   01:29:05.400.11-Nov-2020 4560.01 4025.67 77.59 7.00  68.40 2403.77
   01:29:05.600.11-Nov-2020 4560.01 4025.65 77.59 7.00  68.60 2403.77
   01:29:05.800.11-Nov-2020 4560.01 4025.68 77.59 7.00  68.80 2403.77
