~Version Information
 VERS.                  2.0:   CWLS log ASCII Standard -VERSION 2.0
 WRAP.                   NO:   One line per depth step
~Well Information Block
#MNEM.UNIT     VALUE/NAME     DESCRIPTION
#---------     -----------    ---------------------------
 STRT.S             21:54:12 08-Nov-20: START TIME 21:54:12 08-Nov-20
 STOP.S             22:00:43 08-Nov-20: STOP TIME  22:00:43 08-Nov-20
 STEP.S                   0.00: STEP TIME
 NULL.                 -999.25: NULL VALUE
 DFWT.                        :  DIST FWL TEXT
 DFST.                        :  DIST FSL TEXT
 DMF .             Drill Floor:  DRILL MEAS FROM
 STIM.      04.54.24 22-Sep-20:  START TIME
 DATE.      04.54.24 21-Nov-20:  END TIME
 SPUD.               21-Nov-20:  SPUD DATE
 NREF.                    Grid:  NORTH REFERENCE
 HPTY.       Minimum Curvature:  HOLE POS TYPE
 DMOD.             Drill Model:  DRILL MOD DESC
 SVYD.                  Survey:  SURVEY DESC
 ILTD.               Lithology:  INTERP LTH DESC
 FTOP.          Formation Tops:  FORM TOPS DESC
 SON .        AZ-XX-0906571587:  JOB NUMBER
 COMP.     BP Exploration (Caspian Sea) Ltd:  COMPANY
 UWI .                     N/A:  UNIQUE WELL IDENTIFIER
 API .                     N/A:  API NUMBER
 BASE.              Azerbaijan:  LOGGING EQUIPMENT BASE LOCATION
 REGN.                   EESSA:  REGION
 PROV.                    Baku:  PROVINCE
 STAT.                    Baku:  STATE NAME
 CTRY.              Azerbaijan:  COUNTRY NAME
 FLD .                     ACG:  FIELD NAME
 SRVC.     TURAN Drilling & Engineering:  CONTRACTOR
 WELL.                     J27:  WELL NAME
 RIG .             West Chirag:  RIG NAME
 DOE .                     N/A:  DOE NUMBER
 DCON.         Sperry Drilling:  DIRECTNL CONTR
 PDAT.          Mean Sea Level:  PERMANENT DATUM
 WTYP.                Deviated:  WELL TYPE
 MWDS.                    Baku:  MWD SHOP
 JOBN.        AZ-XX-0906571587:  JOB TICKET NUMB
 UNIT.                     N/A:  LOGGING EQUIPMENT ID
 MDS .        Operator Entered:  MAG DATA SOURCE
 CNTY.                        :  COUNTY
 LOC .                        :  LOCATION
 LMF .             Drill Floor:  LOG MEASURED FROM
 TVDS.m                  43.00:  TVDSS CORRECTN
 LATI.deg                40.13:  LATITUDE
 LONG.deg                51.22:  LONGITUDE
 WHNS.m                   7.72:  WELL HEAD N/S
 WHEW.m                 -14.24:  WELL HEAD E/W
 UTMX.m              519005.06:  UTM X
 UTMY.m             4443793.85:  UTM Y
 DFWL.m                   0.00:  DISTANCE FWL
 DFSL.m                   0.00:  DISTANCE FSL
 SDEP.m                 347.00:  START DEPTH
 TDD .m                 581.00:  TOTAL DEPTH (DRILLER)
 VSDR.deg               159.72:  VERT SEC DIRECT
 GVFD.g                   1.00:  GRAVITY FIELD
 MFLD.nT              50313.00:  MAGNETIC FIELD
 MDIP.deg                59.58:  MAGNETIC DIP
 MDEC.deg                 6.45:  MAGNETIC DECL
 GRDC.deg                 0.15:  GRID CORRECTION
 AZTC.deg                 6.30:  AZM TOTAL CORR
 EPD .m                   0.00:  ELEVATION
 EGL .m                   0.00:  GROUND ELEVATION
 WDMS.m                 169.80:  WD ELEV
 APD .m                  43.00:  DEPTH ABOVE PD
 AGAP.m                  43.00:  AIR GAP
 VSEW.m                 -14.24:  VERT SEC E/W
 VSNS.m                   7.72:  VERT SEC N/S
 DEP .m                 342.45:  DEPTH
 EKB .m                   0.00:  KB ELEVATION
 EDF .m                  43.00:  DF ELEVATION
 TDL .m                1313.00:  TOTAL DEPTH (LOGGER)
 VSC .                       0:  VS TO CLOSURE
 MAGU.                 1851396:  MAGUTM CHECKSUM
~Parameter Information Block
#MNEM.UNIT       Value        Description
#---------     -----------    ---------------------------
 AV  .mps                 0.65:  Ann Velocity 
 AVMX.mps                 0.75:  Max Ann Veloc 
 AZIF.deg               115.08:  Azm, Final 
 BHAT.        Rotary Steerable:  BHA Type 
 BROT.∞/30m               1.50:  Build Rotating 
 BS  .in                 12.25:  Bit Size 
 BSZ .in                 12.25:  Bit Size 
 BTPL.psig              700.00:  Bit Press Loss 
 CABU.                     Yes:  Customer Abuse 
 COMM.                     „J:  Run Comments 1 
 TCS .hr                121.00:  Time Ciculation Ended 
 CV  .mps                 1.83:  Crit Velocity 
 CVMX.mps                 1.83:  Max Crit Veloc 
 DD1 .          Rashad Habibov:  Direct Drillr 1 
 DD2 .         Rasim Ibrahimov:  Direct Drillr 2 
 DDSV.                 iCruise:  DD Service 
 DEFF.%                 100.00:  % Det Eff 
 DLRX.∞/30m               3.60:  Dogleg Rot Max 
 DLSO.∞/30m               3.10:  Dogleg Oriented 
 DLSX.∞/30m               3.60:  Dogleg Str Max 
 DRET.      13.41.20 12-Nov-20:  Drill End Time 
 DRST.      13.41.20 07-Nov-20:  Drill Start Tim 
 DTIM.hr                 54.16:  Time Drilling 
 EDEP.m                4762.01:  End Depth 
 ENG1.           Amrah Tahirov:  Engineer 1 
 ENG2.      Bakhtiyar Jabbarli:  Engineer 2 
 ENG3.          Ruslan Safarov:  Engineer 3 
 ETIM.      13.41.20 14-Nov-20:  End Time 
 FLOI.gpm              1200.00:  Flow In 
 FLON.gpm              1100.00:  Flow In Min 
 FLOS.cptm                0.00:  Fluid Loss 
 FLOX.gpm              1200.00:  Flow In Max 
 HFLO.                      No:  High Flow 
 HPRE.                      No:  High Pressure 
 HTEM.                      No:  High Temp 
 HYDO.m                   2.00:  Hydro Offset 
 IFIN.deg                66.14:  Inc, Final 
 IMAX.deg                69.03:  Inc Max 
 IMIN.deg                64.64:  Inc Min 
 IMND.m                4450.16:  Inc Min Depth 
 IMXD.m                3996.00:  Inc Max Depth 
 JARR.                     Yes:  Jarring 
 LETM.      13.41.20 14-Nov-20:  Log End Time 
 LOST.hr                     0:  Lost Rig Time 
 LSTM.      13.41.20 06-Nov-20:  Log Start Time 
 MDCL.ppm             42500.00:  Mud Chlorides 
 MDES.     Inversion Oil/Synthetic:  Mud Desc 
 DFD .sg                  1.45:  Mud Density 
 MDMN.sg                  1.45:  Dens Mud Min 
 MDMX.sg                  1.45:  Dens Mud Max 
 MOIL.                      70:  Run Mud Oil % 
 MOWR.                   70:30:  Run Mud OWR 
 MSND.                       0:  Run Mud Sand % 
 MSOL.                    19.3:  Run Mud Solids% 
 DFV .spqt               77.00:  Mud Viscosity 
 MWOD.in                  8.00:  MWD Tool OD 
 MWSI.                      No:  Serv Intrp, MWD 
 OTIM.hr                201.88:  Time Operating 
 PCON.           Look Like New:  Pad Condition 
 PMAX.psia             9250.94:  Press Op, Max 
 PV  .cP                 29.00:  Mud PV 
 RUN .                     800:  Run Number 
 ROPA.m/hr               28.00:  ROP Avg 
 ROPN.m/hr               25.00:  ROP Min 
 ROPX.m/hr               30.00:  ROP Max 
 RPMA.rpm               160.00:  RPM Surface Avg 
 RPMN.rpm               160.00:  RPM Surface Min 
 RPMX.rpm               160.00:  RPM Surface Max 
 RRUN.                    0800:  Rig Run Number 
 RTIM.hr                 12.00:  Time Reaming 
 SAZI.deg               169.33:  Azm, Start 
 SDEP.m                3449.01:  Start Depth 
 SIDD.                      No:  Serv Intrp, DD 
 SINC.deg                68.01:  Inc, Start 
 SPPA.psig             4900.00:  SPP Avg 
 SPPN.psig             4800.00:  SPP Min 
 SPPX.psig             5050.00:  SPP Max 
 STIM.      13.41.20 06-Nov-20:  Start Time 
 SVCS.                 DD, MWD:  Services 
 SVER.                    9.20:  Sperry Version 
 TDAT.m                4762.01:  Tot Depth Attmp 
 TDDF.                      No:  Trip for DD 
 TDLG.m                1313.00:  Tot Depth Loggd 
 TFF .                      No:  Trip for Fail 
 TQAA.f-kp               13.00:  Torque Abs Avg 
 TQAN.f-kp               13.00:  Torque Abs Min 
 TQAX.f-kp               13.00:  Torque Abs Max 
 TRRT.∞/30m               1.70:  Turn Rotating 
 MRT .                  EWR-M5:  Maximum Recorded Temperature 
 TTMX.degC               86.00:  Max Tool Temp 
 VS01.                90622122:  Virtual Str1 SN 
 VS02.                90577298:  Virtual Str2 SN 
 VS03.                90563623:  Virtual Str3 SN 
 VS04.                90617559:  Virtual Str4 SN 
 VS05.                11339492:  Virtual Str5 SN 
 VS06.                12385033:  Virtual Str6 SN 
 WBMN.klb                 0.00:  WOB Min 
 WOBA.klb                22.00:  WOB Avg 
 WOBX.klb                26.00:  WOB Max 
 YP  .lhf2               30.00:  Yield Point 
~Curve Information Block
#MNEM.UNIT                 API CODE     Curve Description
#---------               -----------    ---------------------------
 TIME.HHMMSS            00 000 000 000:  GT Time & Date
 GTDEPTH.m              00 000 000 000:  GT Depth
 GTPQH.psia             00 000 000 000:  GT HR Quartz Pressure
 GTTQ.degC              00 000 000 000:  GT Quartz Temperature
 GTTN.NONE              00 000 000 000:  GT Test Number
 GTET.sec               00 000 000 000:  GT Elapsed Test Time
 GTTVD.m                00 000 000 000:  GT True Vertical Depth
#Other Information
#
#WARRANTY: Halliburton will use its best efforts to furnish customers with 
#accurate information and interpretations that are part of, and incident to, the services 
#provided.  However, Halliburton cannot and does not warrant the accuracy 
#or correctness of such information and interpretations.  Under no circumstances should any 
#such information or interpretation be relied upon as the sole basis for any drilling, 
#completion, production, or financial decision or any procedure involving any risk to the 
#safety of any drilling venture, drilling rig or its crew or any other third party.  The 
#Customer has full responsibility for all drilling, completion and production operation.  
#Halliburton makes no representations or warranties, either expressed or 
#implied, including, but not limited to, the implied warranties of merchantability or fitness 
#for a particular purpose, with respect to the services rendered.  In no event will 
#Halliburton be liable for failure to obtain any particular results or for 
#any damages, including, but not limited to, indirect, special or consequential damages, 
#resulting from the use of any information or interpretation provided by Halliburton.
#
~A           TIME           GTDEPTH  GTPQH  GTTQ  GTTN  GTET   GTTVD  
# ...
   21:58:48.714.08-Nov-2020 3686.01 3544.14 71.45 4.00 276.06 2071.13
   21:58:48.914.08-Nov-2020 3686.01 3544.14 71.45 4.00 276.26 2071.13
   21:58:49.114.08-Nov-2020 3686.01 3544.15 71.45 4.00 276.46 2071.13
   21:58:49.314.08-Nov-2020 3686.01 3544.12 71.45 4.00 276.66 2071.13
   21:58:49.514.08-Nov-2020 3686.01 3544.13 71.45 4.00 276.86 2071.13
   21:58:49.714.08-Nov-2020 3686.01 3544.11 71.45 4.00 277.06 2071.13
   21:58:49.914.08-Nov-2020 3686.01 3544.11 71.45 4.00 277.26 2071.13
   21:58:50.115.08-Nov-2020 3686.01 3544.10 71.44 4.00 277.46 2071.13
   21:58:50.315.08-Nov-2020 3686.01 3544.09 71.44 4.00 277.66 2071.13
   21:58:50.515.08-Nov-2020 3686.01 3544.08 71.44 4.00 277.86 2071.13
   21:58:50.715.08-Nov-2020 3686.01 3544.17 71.44 4.00 278.06 2071.13
   21:58:50.915.08-Nov-2020 3686.01 3544.17 71.44 4.00 278.26 2071.13
   21:58:51.115.08-Nov-2020 3686.01 3544.14 71.44 4.00 278.46 2071.13
   21:58:51.315.08-Nov-2020 3686.01 3544.16 71.44 4.00 278.66 2071.13
   21:58:51.515.08-Nov-2020 3686.01 3544.15 71.44 4.00 278.86 2071.13
   21:58:51.715.08-Nov-2020 3686.01 3544.13 71.44 4.00 279.06 2071.13
   21:58:51.915.08-Nov-2020 3686.01 3544.13 71.44 4.00 279.26 2071.13
   21:58:52.115.08-Nov-2020 3686.01 3544.12 71.43 4.00 279.46 2071.13
   21:58:52.315.08-Nov-2020 3686.01 3544.11 71.43 4.00 279.66 2071.13
   21:58:52.515.08-Nov-2020 3686.01 3544.09 71.43 4.00 279.86 2071.13
   21:58:52.715.08-Nov-2020 3686.01 3544.09 71.43 4.00 280.06 2071.13
   21:58:52.915.08-Nov-2020 3686.01 3544.09 71.43 4.00 280.26 2071.13
   21:58:53.115.08-Nov-2020 3686.01 3544.09 71.43 4.00 280.46 2071.13
   21:58:53.315.08-Nov-2020 3686.01 3544.16 71.43 4.00 280.66 2071.13
   21:58:53.515.08-Nov-2020 3686.01 3544.08 71.43 4.00 280.86 2071.13
   21:58:53.715.08-Nov-2020 3686.01 3544.20 71.43 4.00 281.06 2071.13
   21:58:53.915.08-Nov-2020 3686.01 3544.18 71.43 4.00 281.26 2071.13
   21:58:54.115.08-Nov-2020 3686.01 3544.16 71.43 4.00 281.46 2071.13
   21:58:54.315.08-Nov-2020 3686.01 3544.17 71.42 4.00 281.66 2071.13
   21:58:54.515.08-Nov-2020 3686.01 3544.13 71.42 4.00 281.86 2071.13
   21:58:54.716.08-Nov-2020 3686.01 3544.18 71.42 4.00 282.06 2071.13
   21:58:54.916.08-Nov-2020 3686.01 3544.18 71.42 4.00 282.26 2071.13
   21:58:55.116.08-Nov-2020 3686.01 3544.16 71.42 4.00 282.46 2071.13
   21:58:55.316.08-Nov-2020 3686.01 3544.16 71.42 4.00 282.66 2071.13
   21:58:55.516.08-Nov-2020 3686.01 3544.14 71.42 4.00 282.86 2071.13
   21:58:55.716.08-Nov-2020 3686.01 3544.17 71.42 4.00 283.06 2071.13
   21:58:55.916.08-Nov-2020 3686.01 3544.16 71.42 4.00 283.26 2071.13
   21:58:56.116.08-Nov-2020 3686.01 3544.18 71.42 4.00 283.46 2071.13
   21:58:56.316.08-Nov-2020 3686.01 3544.20 71.42 4.00 283.66 2071.13
   21:58:56.516.08-Nov-2020 3686.01 3544.11 71.41 4.00 283.86 2071.13
   21:58:56.716.08-Nov-2020 3686.01 3544.21 71.41 4.00 284.06 2071.13
   21:58:56.916.08-Nov-2020 3686.01 3544.21 71.41 4.00 284.26 2071.13
   21:58:57.116.08-Nov-2020 3686.01 3544.18 71.41 4.00 284.46 2071.13
   21:58:57.316.08-Nov-2020 3686.01 3544.19 71.41 4.00 284.66 2071.13
   21:58:57.516.08-Nov-2020 3686.01 3544.17 71.41 4.00 284.86 2071.13
   21:58:57.716.08-Nov-2020 3686.01 3544.15 71.41 4.00 285.06 2071.13
   21:58:57.916.08-Nov-2020 3686.01 3544.15 71.41 4.00 285.26 2071.13
   21:58:58.116.08-Nov-2020 3686.01 3544.13 71.41 4.00 285.46 2071.13
   21:58:58.316.08-Nov-2020 3686.01 3544.13 71.41 4.00 285.66 2071.13
   21:58:58.516.08-Nov-2020 3686.01 3544.13 71.41 4.00 285.86 2071.13
   21:58:58.716.08-Nov-2020 3686.01 3544.11 71.40 4.00 286.06 2071.13
   21:58:58.916.08-Nov-2020 3686.01 3544.11 71.40 4.00 286.26 2071.13
   21:58:59.117.08-Nov-2020 3686.01 3544.10 71.40 4.00 286.46 2071.13
   21:58:59.317.08-Nov-2020 3686.01 3544.11 71.40 4.00 286.66 2071.13
   21:58:59.517.08-Nov-2020 3686.01 3544.11 71.40 4.00 286.86 2071.13
   21:58:59.717.08-Nov-2020 3686.01 3544.17 71.40 4.00 287.06 2071.13
   21:58:59.917.08-Nov-2020 3686.01 3544.15 71.40 4.00 287.26 2071.13
   21:59:00.117.08-Nov-2020 3686.01 3544.14 71.40 4.00 287.46 2071.13
   21:59:00.317.08-Nov-2020 3686.01 3544.16 71.40 4.00 287.66 2071.13
   21:59:00.517.08-Nov-2020 3686.01 3544.12 71.40 4.00 287.86 2071.13
   21:59:00.717.08-Nov-2020 3686.01 3544.13 71.39 4.00 288.06 2071.13
   21:59:00.917.08-Nov-2020 3686.01 3544.13 71.39 4.00 288.26 2071.13
   21:59:01.117.08-Nov-2020 3686.01 3544.10 71.39 4.00 288.46 2071.13
   21:59:01.317.08-Nov-2020 3686.01 3544.11 71.39 4.00 288.66 2071.13
   21:59:01.517.08-Nov-2020 3686.01 3544.09 71.39 4.00 288.86 2071.13
   21:59:01.717.08-Nov-2020 3686.01 3544.08 71.39 4.00 289.06 2071.13
   21:59:01.917.08-Nov-2020 3686.01 3544.08 71.39 4.00 289.26 2071.13
   21:59:02.117.08-Nov-2020 3686.01 3544.19 71.39 4.00 289.46 2071.13
   21:59:02.317.08-Nov-2020 3686.01 3544.14 71.39 4.00 289.66 2071.13
   21:59:02.517.08-Nov-2020 3686.01 3544.09 71.39 4.00 289.86 2071.13
   21:59:02.717.08-Nov-2020 3686.01 3544.24 71.39 4.00 290.06 2071.13
   21:59:02.917.08-Nov-2020 3686.01 3544.16 71.38 4.00 290.26 2071.13
   21:59:03.117.08-Nov-2020 3686.01 3544.16 71.38 4.00 290.46 2071.13
   21:59:03.317.08-Nov-2020 3686.01 3544.18 71.38 4.00 290.66 2071.13
   21:59:03.517.08-Nov-2020 3686.01 3544.13 71.38 4.00 290.86 2071.13
   21:59:03.718.08-Nov-2020 3686.01 3544.18 71.38 4.00 291.06 2071.13
   21:59:03.918.08-Nov-2020 3686.01 3544.18 71.38 4.00 291.26 2071.13
   21:59:04.118.08-Nov-2020 3686.01 3544.14 71.38 4.00 291.46 2071.13
   21:59:04.318.08-Nov-2020 3686.01 3544.17 71.38 4.00 291.66 2071.13
   21:59:04.518.08-Nov-2020 3686.01 3544.12 71.38 4.00 291.86 2071.13
   21:59:04.718.08-Nov-2020 3686.01 3544.18 71.38 4.00 292.06 2071.13
   21:59:04.918.08-Nov-2020 3686.01 3544.18 71.38 4.00 292.26 2071.13
   21:59:05.118.08-Nov-2020 3686.01 3544.15 71.37 4.00 292.46 2071.13
   21:59:05.318.08-Nov-2020 3686.01 3544.17 71.37 4.00 292.66 2071.13
   21:59:05.518.08-Nov-2020 3686.01 3544.09 71.37 4.00 292.86 2071.13
   21:59:05.718.08-Nov-2020 3686.01 3544.23 71.37 4.00 293.06 2071.13
   21:59:05.918.08-Nov-2020 3686.01 3544.23 71.37 4.00 293.26 2071.13
   21:59:06.118.08-Nov-2020 3686.01 3544.18 71.37 4.00 293.47 2071.13
   21:59:06.318.08-Nov-2020 3686.01 3544.17 71.37 4.00 293.67 2071.13
   21:59:06.518.08-Nov-2020 3686.01 3544.14 71.37 4.00 293.87 2071.13
   21:59:06.718.08-Nov-2020 3686.01 3544.15 71.37 4.00 294.07 2071.13
   21:59:06.918.08-Nov-2020 3686.01 3544.15 71.37 4.00 294.27 2071.13
   21:59:07.118.08-Nov-2020 3686.01 3544.13 71.36 4.00 294.47 2071.13
   21:59:07.318.08-Nov-2020 3686.01 3544.13 71.36 4.00 294.67 2071.13
   21:59:07.518.08-Nov-2020 3686.01 3544.12 71.36 4.00 294.87 2071.13
   21:59:07.718.08-Nov-2020 3686.01 3544.11 71.36 4.00 295.07 2071.13
   21:59:07.918.08-Nov-2020 3686.01 3544.11 71.36 4.00 295.27 2071.13
   21:59:08.118.08-Nov-2020 3686.01 3544.10 71.36 4.00 295.47 2071.13
   21:59:08.319.08-Nov-2020 3686.01 3544.04 71.36 4.00 295.67 2071.13
   21:59:08.519.08-Nov-2020 3686.01 3544.18 71.36 4.00 295.87 2071.13
   21:59:08.719.08-Nov-2020 3686.01 3544.15 71.36 4.00 296.07 2071.13
   21:59:08.919.08-Nov-2020 3686.01 3544.15 71.36 4.00 296.27 2071.13
   21:59:09.119.08-Nov-2020 3686.01 3544.14 71.36 4.00 296.47 2071.13
   21:59:09.319.08-Nov-2020 3686.01 3544.13 71.35 4.00 296.67 2071.13
   21:59:09.519.08-Nov-2020 3686.01 3544.12 71.35 4.00 296.87 2071.13
   21:59:09.719.08-Nov-2020 3686.01 3544.11 71.35 4.00 297.07 2071.13
   21:59:09.919.08-Nov-2020 3686.01 3544.10 71.35 4.00 297.27 2071.13
   21:59:10.119.08-Nov-2020 3686.01 3544.10 71.35 4.00 297.47 2071.13
   21:59:10.319.08-Nov-2020 3686.01 3544.09 71.35 4.00 297.67 2071.13
   21:59:10.519.08-Nov-2020 3686.01 3544.09 71.35 4.00 297.87 2071.13
   21:59:10.719.08-Nov-2020 3686.01 3544.08 71.35 4.00 298.07 2071.13
   21:59:10.919.08-Nov-2020 3686.01 3544.08 71.35 4.00 298.27 2071.13
   21:59:11.119.08-Nov-2020 3686.01 3544.20 71.35 4.00 298.47 2071.13
   21:59:11.319.08-Nov-2020 3686.01 3544.14 71.35 4.00 298.67 2071.13
   21:59:11.519.08-Nov-2020 3686.01 3544.16 71.34 4.00 298.87 2071.13
