~Version Information
 VERS.                  2.0:   CWLS log ASCII Standard -VERSION 2.0
 WRAP.                   NO:   One line per depth step
~Well Information Block
#MNEM.UNIT     VALUE/NAME     DESCRIPTION
#---------     -----------    ---------------------------
 STRT.S             12:15:13 08-Nov-20: START TIME 12:15:13 08-Nov-20
 STOP.S             12:21:45 08-Nov-20: STOP TIME  12:21:45 08-Nov-20
 STEP.S                   0.00: STEP TIME
 NULL.                 -999.25: NULL VALUE
 DFWT.                        :  DIST FWL TEXT
 DFST.                        :  DIST FSL TEXT
 DMF .             Drill Floor:  DRILL MEAS FROM
 STIM.      04.54.24 22-Sep-20:  START TIME
 DATE.      04.54.24 21-Nov-20:  END TIME
 SPUD.               21-Nov-20:  SPUD DATE
 NREF.                    Grid:  NORTH REFERENCE
 HPTY.       Minimum Curvature:  HOLE POS TYPE
 DMOD.             Drill Model:  DRILL MOD DESC
 SVYD.                  Survey:  SURVEY DESC
 ILTD.               Lithology:  INTERP LTH DESC
 FTOP.          Formation Tops:  FORM TOPS DESC
 SON .        AZ-XX-0906571587:  JOB NUMBER
 COMP.     BP Exploration (Caspian Sea) Ltd:  COMPANY
 UWI .                     N/A:  UNIQUE WELL IDENTIFIER
 API .                     N/A:  API NUMBER
 BASE.              Azerbaijan:  LOGGING EQUIPMENT BASE LOCATION
 REGN.                   EESSA:  REGION
 PROV.                    Baku:  PROVINCE
 STAT.                    Baku:  STATE NAME
 CTRY.              Azerbaijan:  COUNTRY NAME
 FLD .                     ACG:  FIELD NAME
 SRVC.     TURAN Drilling & Engineering:  CONTRACTOR
 WELL.                     J27:  WELL NAME
 RIG .             West Chirag:  RIG NAME
 DOE .                     N/A:  DOE NUMBER
 DCON.         Sperry Drilling:  DIRECTNL CONTR
 PDAT.          Mean Sea Level:  PERMANENT DATUM
 WTYP.                Deviated:  WELL TYPE
 MWDS.                    Baku:  MWD SHOP
 JOBN.        AZ-XX-0906571587:  JOB TICKET NUMB
 UNIT.                     N/A:  LOGGING EQUIPMENT ID
 MDS .        Operator Entered:  MAG DATA SOURCE
 CNTY.                        :  COUNTY
 LOC .                        :  LOCATION
 LMF .             Drill Floor:  LOG MEASURED FROM
 TVDS.m                  43.00:  TVDSS CORRECTN
 LATI.deg                40.13:  LATITUDE
 LONG.deg                51.22:  LONGITUDE
 WHNS.m                   7.72:  WELL HEAD N/S
 WHEW.m                 -14.24:  WELL HEAD E/W
 UTMX.m              519005.06:  UTM X
 UTMY.m             4443793.85:  UTM Y
 DFWL.m                   0.00:  DISTANCE FWL
 DFSL.m                   0.00:  DISTANCE FSL
 SDEP.m                 347.00:  START DEPTH
 TDD .m                 581.00:  TOTAL DEPTH (DRILLER)
 VSDR.deg               159.72:  VERT SEC DIRECT
 GVFD.g                   1.00:  GRAVITY FIELD
 MFLD.nT              50313.00:  MAGNETIC FIELD
 MDIP.deg                59.58:  MAGNETIC DIP
 MDEC.deg                 6.45:  MAGNETIC DECL
 GRDC.deg                 0.15:  GRID CORRECTION
 AZTC.deg                 6.30:  AZM TOTAL CORR
 EPD .m                   0.00:  ELEVATION
 EGL .m                   0.00:  GROUND ELEVATION
 WDMS.m                 169.80:  WD ELEV
 APD .m                  43.00:  DEPTH ABOVE PD
 AGAP.m                  43.00:  AIR GAP
 VSEW.m                 -14.24:  VERT SEC E/W
 VSNS.m                   7.72:  VERT SEC N/S
 DEP .m                 342.45:  DEPTH
 EKB .m                   0.00:  KB ELEVATION
 EDF .m                  43.00:  DF ELEVATION
 TDL .m                1313.00:  TOTAL DEPTH (LOGGER)
 VSC .                       0:  VS TO CLOSURE
 MAGU.                 1851396:  MAGUTM CHECKSUM
~Parameter Information Block
#MNEM.UNIT       Value        Description
#---------     -----------    ---------------------------
 AV  .mps                 0.65:  Ann Velocity 
 AVMX.mps                 0.75:  Max Ann Veloc 
 AZIF.deg               115.08:  Azm, Final 
 BHAT.        Rotary Steerable:  BHA Type 
 BROT.°/30m               1.50:  Build Rotating 
 BS  .in                 12.25:  Bit Size 
 BSZ .in                 12.25:  Bit Size 
 BTPL.psig              700.00:  Bit Press Loss 
 CABU.                     Yes:  Customer Abuse 
 COMM.                     „*[:  Run Comments 1 
 TCS .hr                121.00:  Time Ciculation Ended 
 CV  .mps                 1.83:  Crit Velocity 
 CVMX.mps                 1.83:  Max Crit Veloc 
 DD1 .          Rashad Habibov:  Direct Drillr 1 
 DD2 .         Rasim Ibrahimov:  Direct Drillr 2 
 DDSV.                 iCruise:  DD Service 
 DEFF.%                 100.00:  % Det Eff 
 DLRX.°/30m               3.60:  Dogleg Rot Max 
 DLSO.°/30m               3.10:  Dogleg Oriented 
 DLSX.°/30m               3.60:  Dogleg Str Max 
 DRET.      13.41.20 12-Nov-20:  Drill End Time 
 DRST.      13.41.20 07-Nov-20:  Drill Start Tim 
 DTIM.hr                 54.16:  Time Drilling 
 EDEP.m                4762.01:  End Depth 
 ENG1.           Amrah Tahirov:  Engineer 1 
 ENG2.      Bakhtiyar Jabbarli:  Engineer 2 
 ENG3.          Ruslan Safarov:  Engineer 3 
 ETIM.      13.41.20 14-Nov-20:  End Time 
 FLOI.gpm              1200.00:  Flow In 
 FLON.gpm              1100.00:  Flow In Min 
 FLOS.cptm                0.00:  Fluid Loss 
 FLOX.gpm              1200.00:  Flow In Max 
 HFLO.                      No:  High Flow 
 HPRE.                      No:  High Pressure 
 HTEM.                      No:  High Temp 
 HYDO.m                   2.00:  Hydro Offset 
 IFIN.deg                66.14:  Inc, Final 
 IMAX.deg                69.03:  Inc Max 
 IMIN.deg                64.64:  Inc Min 
 IMND.m                4450.16:  Inc Min Depth 
 IMXD.m                3996.00:  Inc Max Depth 
 JARR.                     Yes:  Jarring 
 LETM.      13.41.20 14-Nov-20:  Log End Time 
 LOST.hr                     0:  Lost Rig Time 
 LSTM.      13.41.20 06-Nov-20:  Log Start Time 
 MDCL.ppm             42500.00:  Mud Chlorides 
 MDES.     Inversion Oil/Synthetic:  Mud Desc 
 DFD .sg                  1.45:  Mud Density 
 MDMN.sg                  1.45:  Dens Mud Min 
 MDMX.sg                  1.45:  Dens Mud Max 
 MOIL.                      70:  Run Mud Oil % 
 MOWR.                   70:30:  Run Mud OWR 
 MSND.                       0:  Run Mud Sand % 
 MSOL.                    19.3:  Run Mud Solids% 
 DFV .spqt               77.00:  Mud Viscosity 
 MWOD.in                  8.00:  MWD Tool OD 
 MWSI.                      No:  Serv Intrp, MWD 
 OTIM.hr                201.88:  Time Operating 
 PCON.           Look Like New:  Pad Condition 
 PMAX.psia             9250.94:  Press Op, Max 
 PV  .cP                 29.00:  Mud PV 
 RUN .                     800:  Run Number 
 ROPA.m/hr               28.00:  ROP Avg 
 ROPN.m/hr               25.00:  ROP Min 
 ROPX.m/hr               30.00:  ROP Max 
 RPMA.rpm               160.00:  RPM Surface Avg 
 RPMN.rpm               160.00:  RPM Surface Min 
 RPMX.rpm               160.00:  RPM Surface Max 
 RRUN.                    0800:  Rig Run Number 
 RTIM.hr                 12.00:  Time Reaming 
 SAZI.deg               169.33:  Azm, Start 
 SDEP.m                3449.01:  Start Depth 
 SIDD.                      No:  Serv Intrp, DD 
 SINC.deg                68.01:  Inc, Start 
 SPPA.psig             4900.00:  SPP Avg 
 SPPN.psig             4800.00:  SPP Min 
 SPPX.psig             5050.00:  SPP Max 
 STIM.      13.41.20 06-Nov-20:  Start Time 
 SVCS.                 DD, MWD:  Services 
 SVER.                    9.20:  Sperry Version 
 TDAT.m                4762.01:  Tot Depth Attmp 
 TDDF.                      No:  Trip for DD 
 TDLG.m                1313.00:  Tot Depth Loggd 
 TFF .                      No:  Trip for Fail 
 TQAA.f-kp               13.00:  Torque Abs Avg 
 TQAN.f-kp               13.00:  Torque Abs Min 
 TQAX.f-kp               13.00:  Torque Abs Max 
 TRRT.°/30m               1.70:  Turn Rotating 
 MRT .                  EWR-M5:  Maximum Recorded Temperature 
 TTMX.degC               86.00:  Max Tool Temp 
 VS01.                90622122:  Virtual Str1 SN 
 VS02.                90577298:  Virtual Str2 SN 
 VS03.                90563623:  Virtual Str3 SN 
 VS04.                90617559:  Virtual Str4 SN 
 VS05.                11339492:  Virtual Str5 SN 
 VS06.                12385033:  Virtual Str6 SN 
 WBMN.klb                 0.00:  WOB Min 
 WOBA.klb                22.00:  WOB Avg 
 WOBX.klb                26.00:  WOB Max 
 YP  .lhf2               30.00:  Yield Point 
~Curve Information Block
#MNEM.UNIT                 API CODE     Curve Description
#---------               -----------    ---------------------------
 TIME.HHMMSS            00 000 000 000:  GT Time & Date
 GTDEPTH.m              00 000 000 000:  GT Depth
 GTPQH.psia             00 000 000 000:  GT HR Quartz Pressure
 GTTQ.degC              00 000 000 000:  GT Quartz Temperature
 GTTN.NONE              00 000 000 000:  GT Test Number
 GTET.sec               00 000 000 000:  GT Elapsed Test Time
 GTTVD.m                00 000 000 000:  GT True Vertical Depth
#Other Information
#
#WARRANTY: Halliburton will use its best efforts to furnish customers with 
#accurate information and interpretations that are part of, and incident to, the services 
#provided.  However, Halliburton cannot and does not warrant the accuracy 
#or correctness of such information and interpretations.  Under no circumstances should any 
#such information or interpretation be relied upon as the sole basis for any drilling, 
#completion, production, or financial decision or any procedure involving any risk to the 
#safety of any drilling venture, drilling rig or its crew or any other third party.  The 
#Customer has full responsibility for all drilling, completion and production operation.  
#Halliburton makes no representations or warranties, either expressed or 
#implied, including, but not limited to, the implied warranties of merchantability or fitness 
#for a particular purpose, with respect to the services rendered.  In no event will 
#Halliburton be liable for failure to obtain any particular results or for 
#any damages, including, but not limited to, indirect, special or consequential damages, 
#resulting from the use of any information or interpretation provided by Halliburton.
#
~A           TIME           GTDEPTH  GTPQH  GTTQ  GTTN  GTET   GTTVD  
# ...
   12:19:26.000.08-Nov-2020 3568.06 3289.73 69.93 2.00 253.00 2028.53
   12:19:26.200.08-Nov-2020 3568.06 3289.73 69.93 2.00 253.20 2028.53
   12:19:26.400.08-Nov-2020 3568.06 3289.78 69.93 2.00 253.40 2028.53
   12:19:26.600.08-Nov-2020 3568.06 3289.77 69.92 2.00 253.60 2028.53
   12:19:26.800.08-Nov-2020 3568.06 3289.77 69.92 2.00 253.80 2028.53
   12:19:27.000.08-Nov-2020 3568.06 3289.74 69.92 2.00 254.00 2028.53
   12:19:27.200.08-Nov-2020 3568.06 3289.74 69.92 2.00 254.20 2028.53
   12:19:27.400.08-Nov-2020 3568.06 3289.78 69.92 2.00 254.40 2028.53
   12:19:27.600.08-Nov-2020 3568.06 3289.77 69.92 2.00 254.60 2028.53
   12:19:27.800.08-Nov-2020 3568.06 3289.79 69.92 2.00 254.80 2028.53
   12:19:28.000.08-Nov-2020 3568.06 3289.76 69.92 2.00 255.00 2028.53
   12:19:28.200.08-Nov-2020 3568.06 3289.76 69.92 2.00 255.20 2028.53
   12:19:28.400.08-Nov-2020 3568.06 3289.76 69.92 2.00 255.40 2028.53
   12:19:28.600.08-Nov-2020 3568.06 3289.74 69.92 2.00 255.60 2028.53
   12:19:28.800.08-Nov-2020 3568.06 3289.75 69.92 2.00 255.80 2028.53
   12:19:29.000.08-Nov-2020 3568.06 3289.74 69.91 2.00 256.00 2028.53
   12:19:29.200.08-Nov-2020 3568.06 3289.74 69.91 2.00 256.20 2028.53
   12:19:29.400.08-Nov-2020 3568.06 3289.73 69.91 2.00 256.40 2028.53
   12:19:29.600.08-Nov-2020 3568.06 3289.73 69.91 2.00 256.60 2028.53
   12:19:29.800.08-Nov-2020 3568.06 3289.67 69.91 2.00 256.80 2028.53
   12:19:30.000.08-Nov-2020 3568.06 3289.78 69.91 2.00 257.00 2028.53
   12:19:30.200.08-Nov-2020 3568.06 3289.78 69.91 2.00 257.20 2028.53
   12:19:30.400.08-Nov-2020 3568.06 3289.76 69.91 2.00 257.40 2028.53
   12:19:30.600.08-Nov-2020 3568.06 3289.77 69.91 2.00 257.60 2028.53
   12:19:30.800.08-Nov-2020 3568.06 3288.19 69.91 2.00 257.80 2028.53
   12:19:31.000.08-Nov-2020 3568.06 3288.02 69.91 2.00 258.00 2028.53
   12:19:31.200.08-Nov-2020 3568.06 3288.02 69.90 2.00 258.20 2028.53
   12:19:31.400.08-Nov-2020 3568.06 3287.98 69.90 2.00 258.40 2028.53
   12:19:31.600.08-Nov-2020 3568.06 3287.97 69.90 2.00 258.60 2028.53
   12:19:31.800.08-Nov-2020 3568.06 3287.96 69.90 2.00 258.80 2028.53
   12:19:32.000.08-Nov-2020 3568.06 3287.95 69.90 2.00 259.00 2028.53
   12:19:32.200.08-Nov-2020 3568.06 3287.95 69.90 2.00 259.20 2028.53
   12:19:32.400.08-Nov-2020 3568.06 3287.86 69.90 2.00 259.40 2028.53
   12:19:32.600.08-Nov-2020 3568.06 3288.05 69.90 2.00 259.60 2028.53
   12:19:32.800.08-Nov-2020 3568.06 3287.99 69.90 2.00 259.80 2028.53
   12:19:33.000.08-Nov-2020 3568.06 3287.91 69.90 2.00 260.00 2028.53
   12:19:33.200.08-Nov-2020 3568.06 3287.91 69.90 2.00 260.20 2028.53
   12:19:33.400.08-Nov-2020 3568.06 3287.98 69.90 2.00 260.40 2028.53
   12:19:33.600.08-Nov-2020 3568.06 3287.99 69.89 2.00 260.60 2028.53
   12:19:33.800.08-Nov-2020 3568.06 3287.97 69.89 2.00 260.80 2028.53
   12:19:34.000.08-Nov-2020 3568.06 3287.97 69.89 2.00 261.00 2028.53
   12:19:34.200.08-Nov-2020 3568.06 3287.97 69.89 2.00 261.20 2028.53
   12:19:34.400.08-Nov-2020 3568.06 3288.00 69.89 2.00 261.40 2028.53
   12:19:34.600.08-Nov-2020 3568.06 3288.00 69.89 2.00 261.60 2028.53
   12:19:34.800.08-Nov-2020 3568.06 3287.98 69.89 2.00 261.80 2028.53
   12:19:35.000.08-Nov-2020 3568.06 3287.98 69.89 2.00 262.00 2028.53
   12:19:35.200.08-Nov-2020 3568.06 3287.98 69.89 2.00 262.20 2028.53
   12:19:35.400.08-Nov-2020 3568.06 3288.03 69.89 2.00 262.40 2028.53
   12:19:35.600.08-Nov-2020 3568.06 3288.01 69.89 2.00 262.60 2028.53
   12:19:35.800.08-Nov-2020 3568.06 3288.03 69.88 2.00 262.80 2028.53
   12:19:36.000.08-Nov-2020 3568.06 3287.92 69.88 2.00 263.00 2028.53
   12:19:36.200.08-Nov-2020 3568.06 3287.92 69.88 2.00 263.20 2028.53
   12:19:36.400.08-Nov-2020 3568.06 3288.05 69.88 2.00 263.40 2028.53
   12:19:36.600.08-Nov-2020 3568.06 3288.03 69.88 2.00 263.60 2028.53
   12:19:36.800.08-Nov-2020 3568.06 3288.04 69.88 2.00 263.80 2028.53
   12:19:37.000.08-Nov-2020 3568.06 3288.02 69.88 2.00 264.00 2028.53
   12:19:37.200.08-Nov-2020 3568.06 3288.02 69.88 2.00 264.20 2028.53
   12:19:37.400.08-Nov-2020 3568.06 3288.04 69.88 2.00 264.40 2028.53
   12:19:37.600.08-Nov-2020 3568.06 3288.04 69.88 2.00 264.60 2028.53
   12:19:37.800.08-Nov-2020 3568.06 3288.04 69.88 2.00 264.80 2028.53
   12:19:38.000.08-Nov-2020 3568.06 3288.02 69.88 2.00 265.00 2028.53
   12:19:38.200.08-Nov-2020 3568.06 3288.02 69.88 2.00 265.20 2028.53
   12:19:38.400.08-Nov-2020 3568.06 3288.04 69.87 2.00 265.40 2028.53
   12:19:38.600.08-Nov-2020 3568.06 3288.04 69.87 2.00 265.60 2028.53
   12:19:38.800.08-Nov-2020 3568.06 3287.96 69.87 2.00 265.80 2028.53
   12:19:39.000.08-Nov-2020 3568.06 3288.10 69.87 2.00 266.00 2028.53
   12:19:39.200.08-Nov-2020 3568.06 3288.10 69.87 2.00 266.20 2028.53
   12:19:39.400.08-Nov-2020 3568.06 3289.68 69.87 2.00 266.40 2028.53
   12:19:39.600.08-Nov-2020 3568.06 3289.73 69.87 2.00 266.60 2028.53
   12:19:39.800.08-Nov-2020 3568.06 3289.73 69.87 2.00 266.80 2028.53
   12:19:40.000.08-Nov-2020 3568.06 3289.73 69.87 2.00 267.00 2028.53
   12:19:40.200.08-Nov-2020 3568.06 3289.73 69.87 2.00 267.20 2028.53
   12:19:40.400.08-Nov-2020 3568.06 3289.72 69.86 2.00 267.40 2028.53
   12:19:40.600.08-Nov-2020 3568.06 3289.72 69.86 2.00 267.60 2028.53
   12:19:40.800.08-Nov-2020 3568.06 3289.72 69.86 2.00 267.80 2028.53
   12:19:41.000.08-Nov-2020 3568.06 3289.70 69.86 2.00 268.00 2028.53
   12:19:41.200.08-Nov-2020 3568.06 3289.70 69.86 2.00 268.20 2028.53
   12:19:41.400.08-Nov-2020 3568.06 3289.79 69.86 2.00 268.40 2028.53
   12:19:41.600.08-Nov-2020 3568.06 3289.79 69.86 2.00 268.60 2028.53
   12:19:41.800.08-Nov-2020 3568.06 3289.71 69.86 2.00 268.80 2028.53
   12:19:42.000.08-Nov-2020 3568.06 3289.84 69.86 2.00 269.00 2028.53
   12:19:42.200.08-Nov-2020 3568.06 3289.84 69.86 2.00 269.20 2028.53
   12:19:42.400.08-Nov-2020 3568.06 3289.77 69.86 2.00 269.40 2028.53
   12:19:42.600.08-Nov-2020 3568.06 3289.77 69.86 2.00 269.60 2028.53
   12:19:42.800.08-Nov-2020 3568.06 3289.73 69.85 2.00 269.80 2028.53
   12:19:43.000.08-Nov-2020 3568.06 3289.80 69.85 2.00 270.00 2028.53
   12:19:43.200.08-Nov-2020 3568.06 3289.80 69.85 2.00 270.20 2028.53
   12:19:43.400.08-Nov-2020 3568.06 3289.77 69.85 2.00 270.40 2028.53
   12:19:43.600.08-Nov-2020 3568.06 3289.75 69.85 2.00 270.60 2028.53
   12:19:43.800.08-Nov-2020 3568.06 3289.72 69.85 2.00 270.80 2028.53
   12:19:44.000.08-Nov-2020 3568.06 3289.80 69.85 2.00 271.00 2028.53
   12:19:44.200.08-Nov-2020 3568.06 3289.80 69.85 2.00 271.20 2028.53
   12:19:44.400.08-Nov-2020 3568.06 3289.76 69.85 2.00 271.40 2028.53
   12:19:44.600.08-Nov-2020 3568.06 3289.77 69.85 2.00 271.60 2028.53
   12:19:44.800.08-Nov-2020 3568.06 3289.74 69.85 2.00 271.80 2028.53
   12:19:45.000.08-Nov-2020 3568.06 3289.74 69.84 2.00 272.00 2028.53
   12:19:45.200.08-Nov-2020 3568.06 3289.74 69.84 2.00 272.20 2028.53
   12:19:45.400.08-Nov-2020 3568.06 3289.77 69.84 2.00 272.40 2028.53
   12:19:45.600.08-Nov-2020 3568.06 3289.75 69.84 2.00 272.60 2028.53
   12:19:45.800.08-Nov-2020 3568.06 3289.77 69.84 2.00 272.80 2028.53
   12:19:46.000.08-Nov-2020 3568.06 3289.73 69.84 2.00 273.00 2028.53
   12:19:46.200.08-Nov-2020 3568.06 3289.73 69.84 2.00 273.20 2028.53
   12:19:46.400.08-Nov-2020 3568.06 3289.74 69.84 2.00 273.40 2028.53
   12:19:46.600.08-Nov-2020 3568.06 3289.72 69.84 2.00 273.60 2028.53
   12:19:46.800.08-Nov-2020 3568.06 3289.73 69.84 2.00 273.80 2028.53
   12:19:47.000.08-Nov-2020 3568.06 3289.72 69.84 2.00 274.00 2028.53
   12:19:47.200.08-Nov-2020 3568.06 3289.72 69.84 2.00 274.20 2028.53
   12:19:47.400.08-Nov-2020 3568.06 3289.72 69.83 2.00 274.40 2028.53
   12:19:47.600.08-Nov-2020 3568.06 3289.71 69.83 2.00 274.60 2028.53
   12:19:47.800.08-Nov-2020 3568.06 3289.68 69.83 2.00 274.80 2028.53
   12:19:48.000.08-Nov-2020 3568.06 3289.79 69.83 2.00 275.00 2028.53
   12:19:48.200.08-Nov-2020 3568.06 3289.79 69.83 2.00 275.20 2028.53
   12:19:48.400.08-Nov-2020 3568.06 3289.74 69.83 2.00 275.40 2028.53
   12:19:48.600.08-Nov-2020 3568.06 3289.75 69.83 2.00 275.60 2028.53
   12:19:48.800.08-Nov-2020 3568.06 3289.74 69.83 2.00 275.80 2028.53
