~Version Information
 VERS.                  2.0:   CWLS log ASCII Standard -VERSION 2.0
 WRAP.                   NO:   One line per depth step
~Well Information Block
#MNEM.UNIT     VALUE/NAME     DESCRIPTION
#---------     -----------    ---------------------------
 STRT.S             09:21:26 08-Nov-20: START TIME 09:21:26 08-Nov-20
 STOP.S             09:27:58 08-Nov-20: STOP TIME  09:27:58 08-Nov-20
 STEP.S                   0.00: STEP TIME
 NULL.                 -999.25: NULL VALUE
 DFWT.                        :  DIST FWL TEXT
 DFST.                        :  DIST FSL TEXT
 DMF .             Drill Floor:  DRILL MEAS FROM
 STIM.      04.54.24 22-Sep-20:  START TIME
 DATE.      04.54.24 21-Nov-20:  END TIME
 SPUD.               21-Nov-20:  SPUD DATE
 NREF.                    Grid:  NORTH REFERENCE
 HPTY.       Minimum Curvature:  HOLE POS TYPE
 DMOD.             Drill Model:  DRILL MOD DESC
 SVYD.                  Survey:  SURVEY DESC
 ILTD.               Lithology:  INTERP LTH DESC
 FTOP.          Formation Tops:  FORM TOPS DESC
 SON .        AZ-XX-0906571587:  JOB NUMBER
 COMP.     BP Exploration (Caspian Sea) Ltd:  COMPANY
 UWI .                     N/A:  UNIQUE WELL IDENTIFIER
 API .                     N/A:  API NUMBER
 BASE.              Azerbaijan:  LOGGING EQUIPMENT BASE LOCATION
 REGN.                   EESSA:  REGION
 PROV.                    Baku:  PROVINCE
 STAT.                    Baku:  STATE NAME
 CTRY.              Azerbaijan:  COUNTRY NAME
 FLD .                     ACG:  FIELD NAME
 SRVC.     TURAN Drilling & Engineering:  CONTRACTOR
 WELL.                     J27:  WELL NAME
 RIG .             West Chirag:  RIG NAME
 DOE .                     N/A:  DOE NUMBER
 DCON.         Sperry Drilling:  DIRECTNL CONTR
 PDAT.          Mean Sea Level:  PERMANENT DATUM
 WTYP.                Deviated:  WELL TYPE
 MWDS.                    Baku:  MWD SHOP
 JOBN.        AZ-XX-0906571587:  JOB TICKET NUMB
 UNIT.                     N/A:  LOGGING EQUIPMENT ID
 MDS .        Operator Entered:  MAG DATA SOURCE
 CNTY.                        :  COUNTY
 LOC .                        :  LOCATION
 LMF .             Drill Floor:  LOG MEASURED FROM
 TVDS.m                  43.00:  TVDSS CORRECTN
 LATI.deg                40.13:  LATITUDE
 LONG.deg                51.22:  LONGITUDE
 WHNS.m                   7.72:  WELL HEAD N/S
 WHEW.m                 -14.24:  WELL HEAD E/W
 UTMX.m              519005.06:  UTM X
 UTMY.m             4443793.85:  UTM Y
 DFWL.m                   0.00:  DISTANCE FWL
 DFSL.m                   0.00:  DISTANCE FSL
 SDEP.m                 347.00:  START DEPTH
 TDD .m                 581.00:  TOTAL DEPTH (DRILLER)
 VSDR.deg               159.72:  VERT SEC DIRECT
 GVFD.g                   1.00:  GRAVITY FIELD
 MFLD.nT              50313.00:  MAGNETIC FIELD
 MDIP.deg                59.58:  MAGNETIC DIP
 MDEC.deg                 6.45:  MAGNETIC DECL
 GRDC.deg                 0.15:  GRID CORRECTION
 AZTC.deg                 6.30:  AZM TOTAL CORR
 EPD .m                   0.00:  ELEVATION
 EGL .m                   0.00:  GROUND ELEVATION
 WDMS.m                 169.80:  WD ELEV
 APD .m                  43.00:  DEPTH ABOVE PD
 AGAP.m                  43.00:  AIR GAP
 VSEW.m                 -14.24:  VERT SEC E/W
 VSNS.m                   7.72:  VERT SEC N/S
 DEP .m                 342.45:  DEPTH
 EKB .m                   0.00:  KB ELEVATION
 EDF .m                  43.00:  DF ELEVATION
 TDL .m                1313.00:  TOTAL DEPTH (LOGGER)
 VSC .                       0:  VS TO CLOSURE
 MAGU.                 1851396:  MAGUTM CHECKSUM
~Parameter Information Block
#MNEM.UNIT       Value        Description
#---------     -----------    ---------------------------
 AV  .mps                 0.65:  Ann Velocity 
 AVMX.mps                 0.75:  Max Ann Veloc 
 AZIF.deg               115.08:  Azm, Final 
 BHAT.        Rotary Steerable:  BHA Type 
 BROT.°/30m               1.50:  Build Rotating 
 BS  .in                 12.25:  Bit Size 
 BSZ .in                 12.25:  Bit Size 
 BTPL.psig              700.00:  Bit Press Loss 
 CABU.                     Yes:  Customer Abuse 
 COMM.                     <
V:  Run Comments 1 
 TCS .hr                121.00:  Time Ciculation Ended 
 CV  .mps                 1.83:  Crit Velocity 
 CVMX.mps                 1.83:  Max Crit Veloc 
 DD1 .          Rashad Habibov:  Direct Drillr 1 
 DD2 .         Rasim Ibrahimov:  Direct Drillr 2 
 DDSV.                 iCruise:  DD Service 
 DEFF.%                 100.00:  % Det Eff 
 DLRX.°/30m               3.60:  Dogleg Rot Max 
 DLSO.°/30m               3.10:  Dogleg Oriented 
 DLSX.°/30m               3.60:  Dogleg Str Max 
 DRET.      13.41.20 12-Nov-20:  Drill End Time 
 DRST.      13.41.20 07-Nov-20:  Drill Start Tim 
 DTIM.hr                 54.16:  Time Drilling 
 EDEP.m                4762.01:  End Depth 
 ENG1.           Amrah Tahirov:  Engineer 1 
 ENG2.      Bakhtiyar Jabbarli:  Engineer 2 
 ENG3.          Ruslan Safarov:  Engineer 3 
 ETIM.      13.41.20 14-Nov-20:  End Time 
 FLOI.gpm              1200.00:  Flow In 
 FLON.gpm              1100.00:  Flow In Min 
 FLOS.cptm                0.00:  Fluid Loss 
 FLOX.gpm              1200.00:  Flow In Max 
 HFLO.                      No:  High Flow 
 HPRE.                      No:  High Pressure 
 HTEM.                      No:  High Temp 
 HYDO.m                   2.00:  Hydro Offset 
 IFIN.deg                66.14:  Inc, Final 
 IMAX.deg                69.03:  Inc Max 
 IMIN.deg                64.64:  Inc Min 
 IMND.m                4450.16:  Inc Min Depth 
 IMXD.m                3996.00:  Inc Max Depth 
 JARR.                     Yes:  Jarring 
 LETM.      13.41.20 14-Nov-20:  Log End Time 
 LOST.hr                     0:  Lost Rig Time 
 LSTM.      13.41.20 06-Nov-20:  Log Start Time 
 MDCL.ppm             42500.00:  Mud Chlorides 
 MDES.     Inversion Oil/Synthetic:  Mud Desc 
 DFD .sg                  1.45:  Mud Density 
 MDMN.sg                  1.45:  Dens Mud Min 
 MDMX.sg                  1.45:  Dens Mud Max 
 MOIL.                      70:  Run Mud Oil % 
 MOWR.                   70:30:  Run Mud OWR 
 MSND.                       0:  Run Mud Sand % 
 MSOL.                    19.3:  Run Mud Solids% 
 DFV .spqt               77.00:  Mud Viscosity 
 MWOD.in                  8.00:  MWD Tool OD 
 MWSI.                      No:  Serv Intrp, MWD 
 OTIM.hr                201.88:  Time Operating 
 PCON.           Look Like New:  Pad Condition 
 PMAX.psia             9250.94:  Press Op, Max 
 PV  .cP                 29.00:  Mud PV 
 RUN .                     800:  Run Number 
 ROPA.m/hr               28.00:  ROP Avg 
 ROPN.m/hr               25.00:  ROP Min 
 ROPX.m/hr               30.00:  ROP Max 
 RPMA.rpm               160.00:  RPM Surface Avg 
 RPMN.rpm               160.00:  RPM Surface Min 
 RPMX.rpm               160.00:  RPM Surface Max 
 RRUN.                    0800:  Rig Run Number 
 RTIM.hr                 12.00:  Time Reaming 
 SAZI.deg               169.33:  Azm, Start 
 SDEP.m                3449.01:  Start Depth 
 SIDD.                      No:  Serv Intrp, DD 
 SINC.deg                68.01:  Inc, Start 
 SPPA.psig             4900.00:  SPP Avg 
 SPPN.psig             4800.00:  SPP Min 
 SPPX.psig             5050.00:  SPP Max 
 STIM.      13.41.20 06-Nov-20:  Start Time 
 SVCS.                 DD, MWD:  Services 
 SVER.                    9.20:  Sperry Version 
 TDAT.m                4762.01:  Tot Depth Attmp 
 TDDF.                      No:  Trip for DD 
 TDLG.m                1313.00:  Tot Depth Loggd 
 TFF .                      No:  Trip for Fail 
 TQAA.f-kp               13.00:  Torque Abs Avg 
 TQAN.f-kp               13.00:  Torque Abs Min 
 TQAX.f-kp               13.00:  Torque Abs Max 
 TRRT.°/30m               1.70:  Turn Rotating 
 MRT .                  EWR-M5:  Maximum Recorded Temperature 
 TTMX.degC               86.00:  Max Tool Temp 
 VS01.                90622122:  Virtual Str1 SN 
 VS02.                90577298:  Virtual Str2 SN 
 VS03.                90563623:  Virtual Str3 SN 
 VS04.                90617559:  Virtual Str4 SN 
 VS05.                11339492:  Virtual Str5 SN 
 VS06.                12385033:  Virtual Str6 SN 
 WBMN.klb                 0.00:  WOB Min 
 WOBA.klb                22.00:  WOB Avg 
 WOBX.klb                26.00:  WOB Max 
 YP  .lhf2               30.00:  Yield Point 
~Curve Information Block
#MNEM.UNIT                 API CODE     Curve Description
#---------               -----------    ---------------------------
 TIME.HHMMSS            00 000 000 000:  GT Time & Date
 GTDEPTH.m              00 000 000 000:  GT Depth
 GTPQH.psia             00 000 000 000:  GT HR Quartz Pressure
 GTTQ.degC              00 000 000 000:  GT Quartz Temperature
 GTTN.NONE              00 000 000 000:  GT Test Number
 GTET.sec               00 000 000 000:  GT Elapsed Test Time
 GTTVD.m                00 000 000 000:  GT True Vertical Depth
#Other Information
#
#WARRANTY: Halliburton will use its best efforts to furnish customers with 
#accurate information and interpretations that are part of, and incident to, the services 
#provided.  However, Halliburton cannot and does not warrant the accuracy 
#or correctness of such information and interpretations.  Under no circumstances should any 
#such information or interpretation be relied upon as the sole basis for any drilling, 
#completion, production, or financial decision or any procedure involving any risk to the 
#safety of any drilling venture, drilling rig or its crew or any other third party.  The 
#Customer has full responsibility for all drilling, completion and production operation.  
#Halliburton makes no representations or warranties, either expressed or 
#implied, including, but not limited to, the implied warranties of merchantability or fitness 
#for a particular purpose, with respect to the services rendered.  In no event will 
#Halliburton be liable for failure to obtain any particular results or for 
#any damages, including, but not limited to, indirect, special or consequential damages, 
#resulting from the use of any information or interpretation provided by Halliburton.
#
~A           TIME           GTDEPTH  GTPQH  GTTQ  GTTN  GTET   GTTVD  
# ...
   09:27:34.240.08-Nov-2020 3525.51 4305.31 69.75 1.00 368.06 2012.77
   09:27:34.440.08-Nov-2020 3525.51 4305.31 69.75 1.00 368.26 2012.77
   09:27:34.640.08-Nov-2020 3525.51 4310.83 69.75 1.00 368.46 2012.77
   09:27:34.840.08-Nov-2020 3525.51 4310.60 69.75 1.00 368.66 2012.77
   09:27:35.040.08-Nov-2020 3525.51 4306.09 69.75 1.00 368.86 2012.77
   09:27:35.240.08-Nov-2020 3525.51 4305.32 69.75 1.00 369.06 2012.77
   09:27:35.440.08-Nov-2020 3525.51 4305.32 69.75 1.00 369.26 2012.77
   09:27:35.640.08-Nov-2020 3525.51 4305.94 69.75 1.00 369.46 2012.77
   09:27:35.840.08-Nov-2020 3525.51 4311.55 69.75 1.00 369.66 2012.77
   09:27:36.040.08-Nov-2020 3525.51 4305.09 69.75 1.00 369.86 2012.77
   09:27:36.240.08-Nov-2020 3525.51 4305.02 69.75 1.00 370.06 2012.77
   09:27:36.440.08-Nov-2020 3525.51 4305.02 69.75 1.00 370.26 2012.77
   09:27:36.640.08-Nov-2020 3525.51 4306.93 69.75 1.00 370.46 2012.77
   09:27:36.840.08-Nov-2020 3525.51 4309.74 69.75 1.00 370.66 2012.77
   09:27:37.040.08-Nov-2020 3525.51 4310.42 69.75 1.00 370.86 2012.77
   09:27:37.240.08-Nov-2020 3525.51 4307.40 69.75 1.00 371.06 2012.77
   09:27:37.440.08-Nov-2020 3525.51 4307.40 69.75 1.00 371.26 2012.77
   09:27:37.640.08-Nov-2020 3525.51 4312.35 69.75 1.00 371.46 2012.77
   09:27:37.840.08-Nov-2020 3525.51 4310.92 69.75 1.00 371.66 2012.77
   09:27:38.040.08-Nov-2020 3525.51 4307.88 69.75 1.00 371.86 2012.77
   09:27:38.241.08-Nov-2020 3525.51 4307.83 69.75 1.00 372.06 2012.77
   09:27:38.441.08-Nov-2020 3525.51 4307.83 69.75 1.00 372.26 2012.77
   09:27:38.641.08-Nov-2020 3525.51 4306.46 69.75 1.00 372.46 2012.77
   09:27:38.841.08-Nov-2020 3525.51 4305.41 69.75 1.00 372.66 2012.77
   09:27:39.041.08-Nov-2020 3525.51 4305.10 69.75 1.00 372.86 2012.77
   09:27:39.241.08-Nov-2020 3525.51 4305.78 69.75 1.00 373.06 2012.77
   09:27:39.441.08-Nov-2020 3525.51 4305.78 69.75 1.00 373.26 2012.77
   09:27:39.641.08-Nov-2020 3525.51 4306.95 69.75 1.00 373.46 2012.77
   09:27:39.841.08-Nov-2020 3525.51 4307.06 69.75 1.00 373.66 2012.77
   09:27:40.041.08-Nov-2020 3525.51 4307.46 69.75 1.00 373.86 2012.77
   09:27:40.241.08-Nov-2020 3525.51 4308.17 69.75 1.00 374.06 2012.77
   09:27:40.441.08-Nov-2020 3525.51 4308.17 69.75 1.00 374.26 2012.77
   09:27:40.641.08-Nov-2020 3525.51 4311.70 69.75 1.00 374.46 2012.77
   09:27:40.841.08-Nov-2020 3525.51 4308.21 69.75 1.00 374.66 2012.77
   09:27:41.041.08-Nov-2020 3525.51 4307.24 69.75 1.00 374.86 2012.77
   09:27:41.241.08-Nov-2020 3525.51 4306.90 69.75 1.00 375.06 2012.77
   09:27:41.441.08-Nov-2020 3525.51 4306.90 69.75 1.00 375.26 2012.77
   09:27:41.641.08-Nov-2020 3525.51 4305.71 69.75 1.00 375.46 2012.77
   09:27:41.841.08-Nov-2020 3525.51 4304.99 69.74 1.00 375.66 2012.77
   09:27:42.041.08-Nov-2020 3525.51 4304.69 69.74 1.00 375.86 2012.77
   09:27:42.241.08-Nov-2020 3525.51 4305.49 69.74 1.00 376.06 2012.77
   09:27:42.441.08-Nov-2020 3525.51 4305.49 69.74 1.00 376.26 2012.77
   09:27:42.641.08-Nov-2020 3525.51 4306.96 69.74 1.00 376.46 2012.77
   09:27:42.841.08-Nov-2020 3525.51 4306.49 69.74 1.00 376.66 2012.77
   09:27:43.041.08-Nov-2020 3525.51 4308.81 69.74 1.00 376.86 2012.77
   09:27:43.241.08-Nov-2020 3525.51 4309.32 69.74 1.00 377.06 2012.77
   09:27:43.441.08-Nov-2020 3525.51 4309.32 69.74 1.00 377.26 2012.77
   09:27:43.641.08-Nov-2020 3525.51 4312.79 69.74 1.00 377.46 2012.77
   09:27:43.841.08-Nov-2020 3525.51 4308.32 69.74 1.00 377.66 2012.77
   09:27:44.042.08-Nov-2020 3525.51 4305.67 69.74 1.00 377.86 2012.77
   09:27:44.242.08-Nov-2020 3525.51 4304.89 69.74 1.00 378.06 2012.77
   09:27:44.442.08-Nov-2020 3525.51 4304.89 69.74 1.00 378.26 2012.77
   09:27:44.642.08-Nov-2020 3525.51 4308.67 69.74 1.00 378.46 2012.77
   09:27:44.842.08-Nov-2020 3525.51 4305.33 69.74 1.00 378.66 2012.77
   09:27:45.042.08-Nov-2020 3525.51 4306.42 69.74 1.00 378.86 2012.77
   09:27:45.242.08-Nov-2020 3525.51 4306.08 69.74 1.00 379.06 2012.77
   09:27:45.442.08-Nov-2020 3525.51 4306.08 69.74 1.00 379.26 2012.77
   09:27:45.642.08-Nov-2020 3525.51 4307.29 69.74 1.00 379.46 2012.77
   09:27:45.842.08-Nov-2020 3525.51 4307.74 69.74 1.00 379.66 2012.77
   09:27:46.042.08-Nov-2020 3525.51 4307.78 69.74 1.00 379.86 2012.77
   09:27:46.242.08-Nov-2020 3525.51 4314.61 69.74 1.00 380.06 2012.77
   09:27:46.442.08-Nov-2020 3525.51 4314.61 69.74 1.00 380.26 2012.77
   09:27:46.642.08-Nov-2020 3525.51 4308.46 69.73 1.00 380.46 2012.77
   09:27:46.842.08-Nov-2020 3525.51 4307.58 69.73 1.00 380.66 2012.77
   09:27:47.042.08-Nov-2020 3525.51 4307.73 69.73 1.00 380.86 2012.77
   09:27:47.242.08-Nov-2020 3525.51 4307.70 69.73 1.00 381.06 2012.77
   09:27:47.442.08-Nov-2020 3525.51 4307.70 69.73 1.00 381.26 2012.77
   09:27:47.642.08-Nov-2020 3525.51 4305.69 69.73 1.00 381.46 2012.77
   09:27:47.842.08-Nov-2020 3525.51 4305.49 69.73 1.00 381.66 2012.77
   09:27:48.042.08-Nov-2020 3525.51 4306.36 69.73 1.00 381.86 2012.77
   09:27:48.242.08-Nov-2020 3525.51 4307.13 69.73 1.00 382.06 2012.77
   09:27:48.442.08-Nov-2020 3525.51 4307.13 69.73 1.00 382.26 2012.77
   09:27:48.642.08-Nov-2020 3525.51 4308.17 69.73 1.00 382.46 2012.77
   09:27:48.842.08-Nov-2020 3525.51 4308.44 69.73 1.00 382.66 2012.77
   09:27:49.042.08-Nov-2020 3525.51 4312.06 69.73 1.00 382.86 2012.77
   09:27:49.242.08-Nov-2020 3525.51 4312.24 69.73 1.00 383.06 2012.77
   09:27:49.442.08-Nov-2020 3525.51 4312.24 69.73 1.00 383.26 2012.77
   09:27:49.642.08-Nov-2020 3525.51 4308.70 69.73 1.00 383.46 2012.77
   09:27:49.842.08-Nov-2020 3525.51 4309.07 69.73 1.00 383.66 2012.77
   09:27:50.043.08-Nov-2020 3525.51 4307.76 69.73 1.00 383.86 2012.77
   09:27:50.243.08-Nov-2020 3525.51 4306.81 69.73 1.00 384.06 2012.77
   09:27:50.443.08-Nov-2020 3525.51 4306.81 69.73 1.00 384.27 2012.77
   09:27:50.643.08-Nov-2020 3525.51 4305.84 69.72 1.00 384.47 2012.77
   09:27:50.843.08-Nov-2020 3525.51 4305.29 69.72 1.00 384.67 2012.77
   09:27:51.043.08-Nov-2020 3525.51 4305.37 69.72 1.00 384.87 2012.77
   09:27:51.243.08-Nov-2020 3525.51 4306.25 69.72 1.00 385.07 2012.77
   09:27:51.443.08-Nov-2020 3525.51 4306.25 69.72 1.00 385.27 2012.77
   09:27:51.643.08-Nov-2020 3525.51 4310.02 69.72 1.00 385.47 2012.77
   09:27:51.843.08-Nov-2020 3525.51 4308.56 69.72 1.00 385.67 2012.77
   09:27:52.043.08-Nov-2020 3525.51 4305.65 69.72 1.00 385.87 2012.77
   09:27:52.243.08-Nov-2020 3525.51 4309.97 69.72 1.00 386.07 2012.77
   09:27:52.443.08-Nov-2020 3525.51 4309.97 69.72 1.00 386.27 2012.77
   09:27:52.643.08-Nov-2020 3525.51 4305.81 69.72 1.00 386.47 2012.77
   09:27:52.843.08-Nov-2020 3525.51 4304.94 69.72 1.00 386.67 2012.77
   09:27:53.043.08-Nov-2020 3525.51 4313.00 69.72 1.00 386.87 2012.77
   09:27:53.243.08-Nov-2020 3525.51 4305.47 69.72 1.00 387.07 2012.77
   09:27:53.443.08-Nov-2020 3525.51 4305.47 69.72 1.00 387.27 2012.77
   09:27:53.643.08-Nov-2020 3525.51 4304.70 69.72 1.00 387.47 2012.77
   09:27:53.843.08-Nov-2020 3525.51 4304.85 69.72 1.00 387.67 2012.77
   09:27:54.043.08-Nov-2020 3525.51 4309.14 69.72 1.00 387.87 2012.77
   09:27:54.243.08-Nov-2020 3525.51 4309.45 69.72 1.00 388.07 2012.77
   09:27:54.443.08-Nov-2020 3525.51 4309.45 69.72 1.00 388.27 2012.77
   09:27:54.643.08-Nov-2020 3525.51 4306.66 69.71 1.00 388.47 2012.77
   09:27:54.843.08-Nov-2020 3525.51 4312.19 69.71 1.00 388.67 2012.77
   09:27:55.043.08-Nov-2020 3525.51 4307.87 69.71 1.00 388.87 2012.77
   09:27:55.243.08-Nov-2020 3525.51 4308.04 69.71 1.00 389.07 2012.77
   09:27:55.443.08-Nov-2020 3525.51 4308.04 69.71 1.00 389.27 2012.77
   09:27:55.643.08-Nov-2020 3525.51 4307.95 69.71 1.00 389.47 2012.77
   09:27:55.844.08-Nov-2020 3525.51 4307.37 69.71 1.00 389.67 2012.77
   09:27:56.044.08-Nov-2020 3525.51 4306.67 69.71 1.00 389.87 2012.77
   09:27:56.244.08-Nov-2020 3525.51 4305.53 69.71 1.00 390.07 2012.77
   09:27:56.444.08-Nov-2020 3525.51 4305.53 69.71 1.00 390.27 2012.77
   09:27:56.644.08-Nov-2020 3525.51 4305.03 69.71 1.00 390.47 2012.77
   09:27:56.844.08-Nov-2020 3525.51 4305.67 69.71 1.00 390.67 2012.77
   09:27:57.044.08-Nov-2020 3525.51 4305.98 69.71 1.00 390.87 2012.77
