~Version Information
 VERS.                  2.0:   CWLS log ASCII Standard -VERSION 2.0
 WRAP.                   NO:   One line per depth step
~Well Information Block
#MNEM.UNIT     VALUE/NAME     DESCRIPTION
#---------     -----------    ---------------------------
 STRT.S             13:56:13 08-Nov-20: START TIME 13:56:13 08-Nov-20
 STOP.S             14:02:43 08-Nov-20: STOP TIME  14:02:43 08-Nov-20
 STEP.S                   0.00: STEP TIME
 NULL.                 -999.25: NULL VALUE
 DFWT.                        :  DIST FWL TEXT
 DFST.                        :  DIST FSL TEXT
 DMF .             Drill Floor:  DRILL MEAS FROM
 STIM.      04.54.24 22-Sep-20:  START TIME
 DATE.      04.54.24 21-Nov-20:  END TIME
 SPUD.               21-Nov-20:  SPUD DATE
 NREF.                    Grid:  NORTH REFERENCE
 HPTY.       Minimum Curvature:  HOLE POS TYPE
 DMOD.             Drill Model:  DRILL MOD DESC
 SVYD.                  Survey:  SURVEY DESC
 ILTD.               Lithology:  INTERP LTH DESC
 FTOP.          Formation Tops:  FORM TOPS DESC
 SON .        AZ-XX-0906571587:  JOB NUMBER
 COMP.     BP Exploration (Caspian Sea) Ltd:  COMPANY
 UWI .                     N/A:  UNIQUE WELL IDENTIFIER
 API .                     N/A:  API NUMBER
 BASE.              Azerbaijan:  LOGGING EQUIPMENT BASE LOCATION
 REGN.                   EESSA:  REGION
 PROV.                    Baku:  PROVINCE
 STAT.                    Baku:  STATE NAME
 CTRY.              Azerbaijan:  COUNTRY NAME
 FLD .                     ACG:  FIELD NAME
 SRVC.     TURAN Drilling & Engineering:  CONTRACTOR
 WELL.                     J27:  WELL NAME
 RIG .             West Chirag:  RIG NAME
 DOE .                     N/A:  DOE NUMBER
 DCON.         Sperry Drilling:  DIRECTNL CONTR
 PDAT.          Mean Sea Level:  PERMANENT DATUM
 WTYP.                Deviated:  WELL TYPE
 MWDS.                    Baku:  MWD SHOP
 JOBN.        AZ-XX-0906571587:  JOB TICKET NUMB
 UNIT.                     N/A:  LOGGING EQUIPMENT ID
 MDS .        Operator Entered:  MAG DATA SOURCE
 CNTY.                        :  COUNTY
 LOC .                        :  LOCATION
 LMF .             Drill Floor:  LOG MEASURED FROM
 TVDS.m                  43.00:  TVDSS CORRECTN
 LATI.deg                40.13:  LATITUDE
 LONG.deg                51.22:  LONGITUDE
 WHNS.m                   7.72:  WELL HEAD N/S
 WHEW.m                 -14.24:  WELL HEAD E/W
 UTMX.m              519005.06:  UTM X
 UTMY.m             4443793.85:  UTM Y
 DFWL.m                   0.00:  DISTANCE FWL
 DFSL.m                   0.00:  DISTANCE FSL
 SDEP.m                 347.00:  START DEPTH
 TDD .m                 581.00:  TOTAL DEPTH (DRILLER)
 VSDR.deg               159.72:  VERT SEC DIRECT
 GVFD.g                   1.00:  GRAVITY FIELD
 MFLD.nT              50313.00:  MAGNETIC FIELD
 MDIP.deg                59.58:  MAGNETIC DIP
 MDEC.deg                 6.45:  MAGNETIC DECL
 GRDC.deg                 0.15:  GRID CORRECTION
 AZTC.deg                 6.30:  AZM TOTAL CORR
 EPD .m                   0.00:  ELEVATION
 EGL .m                   0.00:  GROUND ELEVATION
 WDMS.m                 169.80:  WD ELEV
 APD .m                  43.00:  DEPTH ABOVE PD
 AGAP.m                  43.00:  AIR GAP
 VSEW.m                 -14.24:  VERT SEC E/W
 VSNS.m                   7.72:  VERT SEC N/S
 DEP .m                 342.45:  DEPTH
 EKB .m                   0.00:  KB ELEVATION
 EDF .m                  43.00:  DF ELEVATION
 TDL .m                1313.00:  TOTAL DEPTH (LOGGER)
 VSC .                       0:  VS TO CLOSURE
 MAGU.                 1851396:  MAGUTM CHECKSUM
~Parameter Information Block
#MNEM.UNIT       Value        Description
#---------     -----------    ---------------------------
 AV  .mps                 0.65:  Ann Velocity 
 AVMX.mps                 0.75:  Max Ann Veloc 
 AZIF.deg               115.08:  Azm, Final 
 BHAT.        Rotary Steerable:  BHA Type 
 BROT.°/30m               1.50:  Build Rotating 
 BS  .in                 12.25:  Bit Size 
 BSZ .in                 12.25:  Bit Size 
 BTPL.psig              700.00:  Bit Press Loss 
 CABU.                     Yes:  Customer Abuse 
 COMM.                     ì¹^:  Run Comments 1 
 TCS .hr                121.00:  Time Ciculation Ended 
 CV  .mps                 1.83:  Crit Velocity 
 CVMX.mps                 1.83:  Max Crit Veloc 
 DD1 .          Rashad Habibov:  Direct Drillr 1 
 DD2 .         Rasim Ibrahimov:  Direct Drillr 2 
 DDSV.                 iCruise:  DD Service 
 DEFF.%                 100.00:  % Det Eff 
 DLRX.°/30m               3.60:  Dogleg Rot Max 
 DLSO.°/30m               3.10:  Dogleg Oriented 
 DLSX.°/30m               3.60:  Dogleg Str Max 
 DRET.      13.41.20 12-Nov-20:  Drill End Time 
 DRST.      13.41.20 07-Nov-20:  Drill Start Tim 
 DTIM.hr                 54.16:  Time Drilling 
 EDEP.m                4762.01:  End Depth 
 ENG1.           Amrah Tahirov:  Engineer 1 
 ENG2.      Bakhtiyar Jabbarli:  Engineer 2 
 ENG3.          Ruslan Safarov:  Engineer 3 
 ETIM.      13.41.20 14-Nov-20:  End Time 
 FLOI.gpm              1200.00:  Flow In 
 FLON.gpm              1100.00:  Flow In Min 
 FLOS.cptm                0.00:  Fluid Loss 
 FLOX.gpm              1200.00:  Flow In Max 
 HFLO.                      No:  High Flow 
 HPRE.                      No:  High Pressure 
 HTEM.                      No:  High Temp 
 HYDO.m                   2.00:  Hydro Offset 
 IFIN.deg                66.14:  Inc, Final 
 IMAX.deg                69.03:  Inc Max 
 IMIN.deg                64.64:  Inc Min 
 IMND.m                4450.16:  Inc Min Depth 
 IMXD.m                3996.00:  Inc Max Depth 
 JARR.                     Yes:  Jarring 
 LETM.      13.41.20 14-Nov-20:  Log End Time 
 LOST.hr                     0:  Lost Rig Time 
 LSTM.      13.41.20 06-Nov-20:  Log Start Time 
 MDCL.ppm             42500.00:  Mud Chlorides 
 MDES.     Inversion Oil/Synthetic:  Mud Desc 
 DFD .sg                  1.45:  Mud Density 
 MDMN.sg                  1.45:  Dens Mud Min 
 MDMX.sg                  1.45:  Dens Mud Max 
 MOIL.                      70:  Run Mud Oil % 
 MOWR.                   70:30:  Run Mud OWR 
 MSND.                       0:  Run Mud Sand % 
 MSOL.                    19.3:  Run Mud Solids% 
 DFV .spqt               77.00:  Mud Viscosity 
 MWOD.in                  8.00:  MWD Tool OD 
 MWSI.                      No:  Serv Intrp, MWD 
 OTIM.hr                201.88:  Time Operating 
 PCON.           Look Like New:  Pad Condition 
 PMAX.psia             9250.94:  Press Op, Max 
 PV  .cP                 29.00:  Mud PV 
 RUN .                     800:  Run Number 
 ROPA.m/hr               28.00:  ROP Avg 
 ROPN.m/hr               25.00:  ROP Min 
 ROPX.m/hr               30.00:  ROP Max 
 RPMA.rpm               160.00:  RPM Surface Avg 
 RPMN.rpm               160.00:  RPM Surface Min 
 RPMX.rpm               160.00:  RPM Surface Max 
 RRUN.                    0800:  Rig Run Number 
 RTIM.hr                 12.00:  Time Reaming 
 SAZI.deg               169.33:  Azm, Start 
 SDEP.m                3449.01:  Start Depth 
 SIDD.                      No:  Serv Intrp, DD 
 SINC.deg                68.01:  Inc, Start 
 SPPA.psig             4900.00:  SPP Avg 
 SPPN.psig             4800.00:  SPP Min 
 SPPX.psig             5050.00:  SPP Max 
 STIM.      13.41.20 06-Nov-20:  Start Time 
 SVCS.                 DD, MWD:  Services 
 SVER.                    9.20:  Sperry Version 
 TDAT.m                4762.01:  Tot Depth Attmp 
 TDDF.                      No:  Trip for DD 
 TDLG.m                1313.00:  Tot Depth Loggd 
 TFF .                      No:  Trip for Fail 
 TQAA.f-kp               13.00:  Torque Abs Avg 
 TQAN.f-kp               13.00:  Torque Abs Min 
 TQAX.f-kp               13.00:  Torque Abs Max 
 TRRT.°/30m               1.70:  Turn Rotating 
 MRT .                  EWR-M5:  Maximum Recorded Temperature 
 TTMX.degC               86.00:  Max Tool Temp 
 VS01.                90622122:  Virtual Str1 SN 
 VS02.                90577298:  Virtual Str2 SN 
 VS03.                90563623:  Virtual Str3 SN 
 VS04.                90617559:  Virtual Str4 SN 
 VS05.                11339492:  Virtual Str5 SN 
 VS06.                12385033:  Virtual Str6 SN 
 WBMN.klb                 0.00:  WOB Min 
 WOBA.klb                22.00:  WOB Avg 
 WOBX.klb                26.00:  WOB Max 
 YP  .lhf2               30.00:  Yield Point 
~Curve Information Block
#MNEM.UNIT                 API CODE     Curve Description
#---------               -----------    ---------------------------
 TIME.HHMMSS            00 000 000 000:  GT Time & Date
 GTDEPTH.m              00 000 000 000:  GT Depth
 GTPQH.psia             00 000 000 000:  GT HR Quartz Pressure
 GTTQ.degC              00 000 000 000:  GT Quartz Temperature
 GTTN.NONE              00 000 000 000:  GT Test Number
 GTET.sec               00 000 000 000:  GT Elapsed Test Time
 GTTVD.m                00 000 000 000:  GT True Vertical Depth
#Other Information
#
#WARRANTY: Halliburton will use its best efforts to furnish customers with 
#accurate information and interpretations that are part of, and incident to, the services 
#provided.  However, Halliburton cannot and does not warrant the accuracy 
#or correctness of such information and interpretations.  Under no circumstances should any 
#such information or interpretation be relied upon as the sole basis for any drilling, 
#completion, production, or financial decision or any procedure involving any risk to the 
#safety of any drilling venture, drilling rig or its crew or any other third party.  The 
#Customer has full responsibility for all drilling, completion and production operation.  
#Halliburton makes no representations or warranties, either expressed or 
#implied, including, but not limited to, the implied warranties of merchantability or fitness 
#for a particular purpose, with respect to the services rendered.  In no event will 
#Halliburton be liable for failure to obtain any particular results or for 
#any damages, including, but not limited to, indirect, special or consequential damages, 
#resulting from the use of any information or interpretation provided by Halliburton.
#
~A           TIME           GTDEPTH  GTPQH  GTTQ  GTTN  GTET   GTTVD  
# ...
   13:56:36.151.08-Nov-2020 3585.71 4355.63 72.06 3.00  22.98 2034.99
   13:56:36.351.08-Nov-2020 3585.71 4355.63 72.06 3.00  23.18 2034.99
   13:56:36.551.08-Nov-2020 3585.71 4363.31 72.05 3.00  23.38 2034.99
   13:56:36.750.08-Nov-2020 3585.71 4356.51 72.05 3.00  23.58 2034.99
   13:56:36.950.08-Nov-2020 3585.71 4359.63 72.05 3.00  23.78 2034.99
   13:56:37.150.08-Nov-2020 3585.71 4358.18 72.05 3.00  23.98 2034.99
   13:56:37.350.08-Nov-2020 3585.71 4358.18 72.05 3.00  24.18 2034.99
   13:56:37.550.08-Nov-2020 3585.71 4359.24 72.05 3.00  24.38 2034.99
   13:56:37.749.08-Nov-2020 3585.71 4359.89 72.05 3.00  24.58 2034.99
   13:56:37.949.08-Nov-2020 3585.71 4360.11 72.05 3.00  24.78 2034.99
   13:56:38.149.08-Nov-2020 3585.71 4360.28 72.04 3.00  24.98 2034.99
   13:56:38.349.08-Nov-2020 3585.71 4360.28 72.04 3.00  25.18 2034.99
   13:56:38.549.08-Nov-2020 3585.71 4359.51 72.04 3.00  25.38 2034.99
   13:56:38.749.08-Nov-2020 3585.71 4359.09 72.04 3.00  25.58 2034.99
   13:56:38.948.08-Nov-2020 3585.71 4359.09 72.04 3.00  25.78 2034.99
   13:56:39.148.08-Nov-2020 3585.71 4362.94 72.04 3.00  25.97 2034.99
   13:56:39.348.08-Nov-2020 3585.71 4362.94 72.04 3.00  26.17 2034.99
   13:56:39.548.08-Nov-2020 3585.71 4360.07 72.04 3.00  26.37 2034.99
   13:56:39.748.08-Nov-2020 3585.71 4365.11 72.04 3.00  26.57 2034.99
   13:56:39.947.08-Nov-2020 3585.71 4357.80 72.03 3.00  26.77 2034.99
   13:56:40.147.08-Nov-2020 3585.71 4360.39 72.03 3.00  26.97 2034.99
   13:56:40.347.08-Nov-2020 3585.71 4360.39 72.03 3.00  27.17 2034.99
   13:56:40.547.08-Nov-2020 3585.71 4361.39 72.03 3.00  27.37 2034.99
   13:56:40.747.08-Nov-2020 3585.71 4360.74 72.03 3.00  27.57 2034.99
   13:56:40.946.08-Nov-2020 3585.71 4365.90 72.03 3.00  27.77 2034.99
   13:56:41.146.08-Nov-2020 3585.71 4358.36 72.03 3.00  27.97 2034.99
   13:56:41.346.08-Nov-2020 3585.71 4358.36 72.03 3.00  28.17 2034.99
   13:56:41.546.08-Nov-2020 3585.71 4359.07 72.03 3.00  28.37 2034.99
   13:56:41.746.08-Nov-2020 3585.71 4359.61 72.02 3.00  28.57 2034.99
   13:56:41.945.08-Nov-2020 3585.71 4363.81 72.02 3.00  28.77 2034.99
   13:56:42.145.08-Nov-2020 3585.71 4360.86 72.02 3.00  28.97 2034.99
   13:56:42.345.08-Nov-2020 3585.71 4360.86 72.02 3.00  29.17 2034.99
   13:56:42.545.08-Nov-2020 3585.71 4360.22 72.02 3.00  29.37 2034.99
   13:56:42.745.08-Nov-2020 3585.71 4360.42 72.02 3.00  29.57 2034.99
   13:56:42.944.08-Nov-2020 3585.71 4360.72 72.02 3.00  29.77 2034.99
   13:56:43.144.08-Nov-2020 3585.71 4360.66 72.02 3.00  29.97 2034.99
   13:56:43.344.08-Nov-2020 3585.71 4361.05 72.02 3.00  30.17 2034.99
   13:56:43.544.08-Nov-2020 3585.71 4360.92 72.01 3.00  30.37 2034.99
   13:56:43.744.08-Nov-2020 3585.71 4360.38 72.01 3.00  30.57 2034.99
   13:56:43.944.08-Nov-2020 3585.71 4359.89 72.01 3.00  30.77 2034.99
   13:56:44.143.08-Nov-2020 3585.71 4359.86 72.01 3.00  30.97 2034.99
   13:56:44.343.08-Nov-2020 3585.71 4359.86 72.01 3.00  31.17 2034.99
   13:56:44.543.08-Nov-2020 3585.71 4359.95 72.01 3.00  31.37 2034.99
   13:56:44.743.08-Nov-2020 3585.71 4365.86 72.01 3.00  31.57 2034.99
   13:56:44.943.08-Nov-2020 3585.71 4358.30 72.01 3.00  31.77 2034.99
   13:56:45.142.08-Nov-2020 3585.71 4360.95 72.01 3.00  31.97 2034.99
   13:56:45.342.08-Nov-2020 3585.71 4360.95 72.01 3.00  32.17 2034.99
   13:56:45.542.08-Nov-2020 3585.71 4359.47 72.00 3.00  32.37 2034.99
   13:56:45.742.08-Nov-2020 3585.71 4359.07 72.00 3.00  32.57 2034.99
   13:56:45.942.08-Nov-2020 3585.71 4359.68 72.00 3.00  32.77 2034.99
   13:56:46.141.08-Nov-2020 3585.71 4359.37 72.00 3.00  32.97 2034.99
   13:56:46.341.08-Nov-2020 3585.71 4359.37 72.00 3.00  33.17 2034.99
   13:56:46.541.08-Nov-2020 3585.71 4358.33 72.00 3.00  33.37 2034.99
   13:56:46.741.08-Nov-2020 3585.71 4358.02 72.00 3.00  33.57 2034.99
   13:56:46.941.08-Nov-2020 3585.71 4357.74 72.00 3.00  33.77 2034.99
   13:56:47.140.08-Nov-2020 3585.71 4357.26 71.99 3.00  33.97 2034.99
   13:56:47.340.08-Nov-2020 3585.71 4320.64 71.99 3.00  34.17 2034.99
   13:56:47.540.08-Nov-2020 3585.71 4252.33 71.99 3.00  34.37 2034.99
   13:56:47.740.08-Nov-2020 3585.71 4273.30 71.99 3.00  34.57 2034.99
   13:56:47.940.08-Nov-2020 3585.71 4383.43 71.99 3.00  34.77 2034.99
   13:56:48.139.08-Nov-2020 3585.71 4450.53 71.99 3.00  34.97 2034.99
   13:56:48.339.08-Nov-2020 3585.71 4450.53 71.99 3.00  35.17 2034.99
   13:56:48.539.08-Nov-2020 3585.71 4456.94 71.99 3.00  35.37 2034.99
   13:56:48.739.08-Nov-2020 3585.71 4458.72 71.99 3.00  35.57 2034.99
   13:56:48.939.08-Nov-2020 3585.71 4458.08 71.98 3.00  35.77 2034.99
   13:56:49.139.08-Nov-2020 3585.71 4467.04 71.98 3.00  35.97 2034.99
   13:56:49.338.08-Nov-2020 3585.71 4467.04 71.98 3.00  36.17 2034.99
   13:56:49.538.08-Nov-2020 3585.71 4458.84 71.98 3.00  36.36 2034.99
   13:56:49.738.08-Nov-2020 3585.71 4456.63 71.98 3.00  36.56 2034.99
   13:56:49.938.08-Nov-2020 3585.71 4464.00 71.98 3.00  36.76 2034.99
   13:56:50.138.08-Nov-2020 3585.71 4475.20 71.98 3.00  36.96 2034.99
   13:56:50.337.08-Nov-2020 3585.71 4475.20 71.98 3.00  37.16 2034.99
   13:56:50.537.08-Nov-2020 3585.71 4434.03 71.98 3.00  37.36 2034.99
   13:56:50.737.08-Nov-2020 3585.71 4427.63 71.98 3.00  37.56 2034.99
   13:56:50.937.08-Nov-2020 3585.71 4424.28 71.97 3.00  37.76 2034.99
   13:56:51.137.08-Nov-2020 3585.71 4419.93 71.97 3.00  37.96 2034.99
   13:56:51.336.08-Nov-2020 3585.71 4418.55 71.97 3.00  38.16 2034.99
   13:56:51.536.08-Nov-2020 3585.71 4417.86 71.97 3.00  38.36 2034.99
   13:56:51.736.08-Nov-2020 3585.71 4417.73 71.97 3.00  38.56 2034.99
   13:56:51.936.08-Nov-2020 3585.71 4417.23 71.97 3.00  38.76 2034.99
   13:56:52.136.08-Nov-2020 3585.71 4416.27 71.97 3.00  38.96 2034.99
   13:56:52.335.08-Nov-2020 3585.71 4416.27 71.97 3.00  39.16 2034.99
   13:56:52.535.08-Nov-2020 3585.71 4415.90 71.97 3.00  39.36 2034.99
   13:56:52.735.08-Nov-2020 3585.71 4416.31 71.96 3.00  39.56 2034.99
   13:56:52.935.08-Nov-2020 3585.71 4421.50 71.96 3.00  39.76 2034.99
   13:56:53.135.08-Nov-2020 3585.71 4419.79 71.96 3.00  39.96 2034.99
   13:56:53.334.08-Nov-2020 3585.71 4419.79 71.96 3.00  40.16 2034.99
   13:56:53.534.08-Nov-2020 3585.71 4419.75 71.96 3.00  40.36 2034.99
   13:56:53.734.08-Nov-2020 3585.71 4420.64 71.96 3.00  40.56 2034.99
   13:56:53.934.08-Nov-2020 3585.71 4420.02 71.96 3.00  40.76 2034.99
   13:56:54.134.08-Nov-2020 3585.71 4420.37 71.96 3.00  40.96 2034.99
   13:56:54.334.08-Nov-2020 3585.71 4420.37 71.96 3.00  41.16 2034.99
   13:56:54.533.08-Nov-2020 3585.71 4419.78 71.96 3.00  41.36 2034.99
   13:56:54.733.08-Nov-2020 3585.71 4419.30 71.95 3.00  41.56 2034.99
   13:56:54.933.08-Nov-2020 3585.71 4418.78 71.95 3.00  41.76 2034.99
   13:56:55.133.08-Nov-2020 3585.71 4418.52 71.95 3.00  41.96 2034.99
   13:56:55.333.08-Nov-2020 3585.71 4420.96 71.95 3.00  42.16 2034.99
   13:56:55.532.08-Nov-2020 3585.71 4419.45 71.95 3.00  42.36 2034.99
   13:56:55.732.08-Nov-2020 3585.71 4420.59 71.95 3.00  42.56 2034.99
   13:56:55.932.08-Nov-2020 3585.71 4561.46 71.95 3.00  42.76 2034.99
   13:56:56.132.08-Nov-2020 3585.71 4381.30 71.95 3.00  42.96 2034.99
   13:56:56.332.08-Nov-2020 3585.71 4381.30 71.95 3.00  43.16 2034.99
   13:56:56.531.08-Nov-2020 3585.71 4379.50 71.94 3.00  43.36 2034.99
   13:56:56.731.08-Nov-2020 3585.71 4378.49 71.94 3.00  43.56 2034.99
   13:56:56.931.08-Nov-2020 3585.71 4378.61 71.94 3.00  43.76 2034.99
   13:56:57.131.08-Nov-2020 3585.71 4382.29 71.94 3.00  43.96 2034.99
   13:56:57.331.08-Nov-2020 3585.71 4379.23 71.94 3.00  44.16 2034.99
   13:56:57.530.08-Nov-2020 3585.71 4378.72 71.94 3.00  44.36 2034.99
   13:56:57.730.08-Nov-2020 3585.71 4377.96 71.94 3.00  44.56 2034.99
   13:56:57.930.08-Nov-2020 3585.71 4378.36 71.94 3.00  44.76 2034.99
   13:56:58.130.08-Nov-2020 3585.71 4377.90 71.94 3.00  44.96 2034.99
   13:56:58.330.08-Nov-2020 3585.71 4292.28 71.93 3.00  45.16 2034.99
   13:56:58.529.08-Nov-2020 3585.71 4104.83 71.93 3.00  45.36 2034.99
   13:56:58.729.08-Nov-2020 3585.71 3860.73 71.93 3.00  45.56 2034.99
   13:56:58.929.08-Nov-2020 3585.71 3632.16 71.93 3.00  45.76 2034.99
