~Version Information
 VERS.                  2.0:   CWLS log ASCII Standard -VERSION 2.0
 WRAP.                   NO:   One line per depth step
~Well Information Block
#MNEM.UNIT     VALUE/NAME     DESCRIPTION
#---------     -----------    ---------------------------
 STRT.S             18:53:27 10-Nov-20: START TIME 18:53:27 10-Nov-20
 STOP.S             19:00:00 10-Nov-20: STOP TIME  19:00:00 10-Nov-20
 STEP.S                   0.00: STEP TIME
 NULL.                 -999.25: NULL VALUE
 DFWT.                        :  DIST FWL TEXT
 DFST.                        :  DIST FSL TEXT
 DMF .             Drill Floor:  DRILL MEAS FROM
 STIM.      04.54.24 22-Sep-20:  START TIME
 DATE.      04.54.24 21-Nov-20:  END TIME
 SPUD.               21-Nov-20:  SPUD DATE
 NREF.                    Grid:  NORTH REFERENCE
 HPTY.       Minimum Curvature:  HOLE POS TYPE
 DMOD.             Drill Model:  DRILL MOD DESC
 SVYD.                  Survey:  SURVEY DESC
 ILTD.               Lithology:  INTERP LTH DESC
 FTOP.          Formation Tops:  FORM TOPS DESC
 SON .        AZ-XX-0906571587:  JOB NUMBER
 COMP.     BP Exploration (Caspian Sea) Ltd:  COMPANY
 UWI .                     N/A:  UNIQUE WELL IDENTIFIER
 API .                     N/A:  API NUMBER
 BASE.              Azerbaijan:  LOGGING EQUIPMENT BASE LOCATION
 REGN.                   EESSA:  REGION
 PROV.                    Baku:  PROVINCE
 STAT.                    Baku:  STATE NAME
 CTRY.              Azerbaijan:  COUNTRY NAME
 FLD .                     ACG:  FIELD NAME
 SRVC.     TURAN Drilling & Engineering:  CONTRACTOR
 WELL.                     J27:  WELL NAME
 RIG .             West Chirag:  RIG NAME
 DOE .                     N/A:  DOE NUMBER
 DCON.         Sperry Drilling:  DIRECTNL CONTR
 PDAT.          Mean Sea Level:  PERMANENT DATUM
 WTYP.                Deviated:  WELL TYPE
 MWDS.                    Baku:  MWD SHOP
 JOBN.        AZ-XX-0906571587:  JOB TICKET NUMB
 UNIT.                     N/A:  LOGGING EQUIPMENT ID
 MDS .        Operator Entered:  MAG DATA SOURCE
 CNTY.                        :  COUNTY
 LOC .                        :  LOCATION
 LMF .             Drill Floor:  LOG MEASURED FROM
 TVDS.m                  43.00:  TVDSS CORRECTN
 LATI.deg                40.13:  LATITUDE
 LONG.deg                51.22:  LONGITUDE
 WHNS.m                   7.72:  WELL HEAD N/S
 WHEW.m                 -14.24:  WELL HEAD E/W
 UTMX.m              519005.06:  UTM X
 UTMY.m             4443793.85:  UTM Y
 DFWL.m                   0.00:  DISTANCE FWL
 DFSL.m                   0.00:  DISTANCE FSL
 SDEP.m                 347.00:  START DEPTH
 TDD .m                 581.00:  TOTAL DEPTH (DRILLER)
 VSDR.deg               159.72:  VERT SEC DIRECT
 GVFD.g                   1.00:  GRAVITY FIELD
 MFLD.nT              50313.00:  MAGNETIC FIELD
 MDIP.deg                59.58:  MAGNETIC DIP
 MDEC.deg                 6.45:  MAGNETIC DECL
 GRDC.deg                 0.15:  GRID CORRECTION
 AZTC.deg                 6.30:  AZM TOTAL CORR
 EPD .m                   0.00:  ELEVATION
 EGL .m                   0.00:  GROUND ELEVATION
 WDMS.m                 169.80:  WD ELEV
 APD .m                  43.00:  DEPTH ABOVE PD
 AGAP.m                  43.00:  AIR GAP
 VSEW.m                 -14.24:  VERT SEC E/W
 VSNS.m                   7.72:  VERT SEC N/S
 DEP .m                 342.45:  DEPTH
 EKB .m                   0.00:  KB ELEVATION
 EDF .m                  43.00:  DF ELEVATION
 TDL .m                1313.00:  TOTAL DEPTH (LOGGER)
 VSC .                       0:  VS TO CLOSURE
 MAGU.                 1851396:  MAGUTM CHECKSUM
~Parameter Information Block
#MNEM.UNIT       Value        Description
#---------     -----------    ---------------------------
 AV  .mps                 0.65:  Ann Velocity 
 AVMX.mps                 0.75:  Max Ann Veloc 
 AZIF.deg               115.08:  Azm, Final 
 BHAT.        Rotary Steerable:  BHA Type 
 BROT.°/30m               1.50:  Build Rotating 
 BS  .in                 12.25:  Bit Size 
 BSZ .in                 12.25:  Bit Size 
 BTPL.psig              700.00:  Bit Press Loss 
 CABU.                     Yes:  Customer Abuse 
 COMM.                     ”Ú:  Run Comments 1 
 TCS .hr                121.00:  Time Ciculation Ended 
 CV  .mps                 1.83:  Crit Velocity 
 CVMX.mps                 1.83:  Max Crit Veloc 
 DD1 .          Rashad Habibov:  Direct Drillr 1 
 DD2 .         Rasim Ibrahimov:  Direct Drillr 2 
 DDSV.                 iCruise:  DD Service 
 DEFF.%                 100.00:  % Det Eff 
 DLRX.°/30m               3.60:  Dogleg Rot Max 
 DLSO.°/30m               3.10:  Dogleg Oriented 
 DLSX.°/30m               3.60:  Dogleg Str Max 
 DRET.      13.41.20 12-Nov-20:  Drill End Time 
 DRST.      13.41.20 07-Nov-20:  Drill Start Tim 
 DTIM.hr                 54.16:  Time Drilling 
 EDEP.m                4762.01:  End Depth 
 ENG1.           Amrah Tahirov:  Engineer 1 
 ENG2.      Bakhtiyar Jabbarli:  Engineer 2 
 ENG3.          Ruslan Safarov:  Engineer 3 
 ETIM.      13.41.20 14-Nov-20:  End Time 
 FLOI.gpm              1200.00:  Flow In 
 FLON.gpm              1100.00:  Flow In Min 
 FLOS.cptm                0.00:  Fluid Loss 
 FLOX.gpm              1200.00:  Flow In Max 
 HFLO.                      No:  High Flow 
 HPRE.                      No:  High Pressure 
 HTEM.                      No:  High Temp 
 HYDO.m                   2.00:  Hydro Offset 
 IFIN.deg                66.14:  Inc, Final 
 IMAX.deg                69.03:  Inc Max 
 IMIN.deg                64.64:  Inc Min 
 IMND.m                4450.16:  Inc Min Depth 
 IMXD.m                3996.00:  Inc Max Depth 
 JARR.                     Yes:  Jarring 
 LETM.      13.41.20 14-Nov-20:  Log End Time 
 LOST.hr                     0:  Lost Rig Time 
 LSTM.      13.41.20 06-Nov-20:  Log Start Time 
 MDCL.ppm             42500.00:  Mud Chlorides 
 MDES.     Inversion Oil/Synthetic:  Mud Desc 
 DFD .sg                  1.45:  Mud Density 
 MDMN.sg                  1.45:  Dens Mud Min 
 MDMX.sg                  1.45:  Dens Mud Max 
 MOIL.                      70:  Run Mud Oil % 
 MOWR.                   70:30:  Run Mud OWR 
 MSND.                       0:  Run Mud Sand % 
 MSOL.                    19.3:  Run Mud Solids% 
 DFV .spqt               77.00:  Mud Viscosity 
 MWOD.in                  8.00:  MWD Tool OD 
 MWSI.                      No:  Serv Intrp, MWD 
 OTIM.hr                201.88:  Time Operating 
 PCON.           Look Like New:  Pad Condition 
 PMAX.psia             9250.94:  Press Op, Max 
 PV  .cP                 29.00:  Mud PV 
 RUN .                     800:  Run Number 
 ROPA.m/hr               28.00:  ROP Avg 
 ROPN.m/hr               25.00:  ROP Min 
 ROPX.m/hr               30.00:  ROP Max 
 RPMA.rpm               160.00:  RPM Surface Avg 
 RPMN.rpm               160.00:  RPM Surface Min 
 RPMX.rpm               160.00:  RPM Surface Max 
 RRUN.                    0800:  Rig Run Number 
 RTIM.hr                 12.00:  Time Reaming 
 SAZI.deg               169.33:  Azm, Start 
 SDEP.m                3449.01:  Start Depth 
 SIDD.                      No:  Serv Intrp, DD 
 SINC.deg                68.01:  Inc, Start 
 SPPA.psig             4900.00:  SPP Avg 
 SPPN.psig             4800.00:  SPP Min 
 SPPX.psig             5050.00:  SPP Max 
 STIM.      13.41.20 06-Nov-20:  Start Time 
 SVCS.                 DD, MWD:  Services 
 SVER.                    9.20:  Sperry Version 
 TDAT.m                4762.01:  Tot Depth Attmp 
 TDDF.                      No:  Trip for DD 
 TDLG.m                1313.00:  Tot Depth Loggd 
 TFF .                      No:  Trip for Fail 
 TQAA.f-kp               13.00:  Torque Abs Avg 
 TQAN.f-kp               13.00:  Torque Abs Min 
 TQAX.f-kp               13.00:  Torque Abs Max 
 TRRT.°/30m               1.70:  Turn Rotating 
 MRT .                  EWR-M5:  Maximum Recorded Temperature 
 TTMX.degC               86.00:  Max Tool Temp 
 VS01.                90622122:  Virtual Str1 SN 
 VS02.                90577298:  Virtual Str2 SN 
 VS03.                90563623:  Virtual Str3 SN 
 VS04.                90617559:  Virtual Str4 SN 
 VS05.                11339492:  Virtual Str5 SN 
 VS06.                12385033:  Virtual Str6 SN 
 WBMN.klb                 0.00:  WOB Min 
 WOBA.klb                22.00:  WOB Avg 
 WOBX.klb                26.00:  WOB Max 
 YP  .lhf2               30.00:  Yield Point 
~Curve Information Block
#MNEM.UNIT                 API CODE     Curve Description
#---------               -----------    ---------------------------
 TIME.HHMMSS            00 000 000 000:  GT Time & Date
 GTDEPTH.m              00 000 000 000:  GT Depth
 GTPQH.psia             00 000 000 000:  GT HR Quartz Pressure
 GTTQ.degC              00 000 000 000:  GT Quartz Temperature
 GTTN.NONE              00 000 000 000:  GT Test Number
 GTET.sec               00 000 000 000:  GT Elapsed Test Time
 GTTVD.m                00 000 000 000:  GT True Vertical Depth
#Other Information
#
#WARRANTY: Halliburton will use its best efforts to furnish customers with 
#accurate information and interpretations that are part of, and incident to, the services 
#provided.  However, Halliburton cannot and does not warrant the accuracy 
#or correctness of such information and interpretations.  Under no circumstances should any 
#such information or interpretation be relied upon as the sole basis for any drilling, 
#completion, production, or financial decision or any procedure involving any risk to the 
#safety of any drilling venture, drilling rig or its crew or any other third party.  The 
#Customer has full responsibility for all drilling, completion and production operation.  
#Halliburton makes no representations or warranties, either expressed or 
#implied, including, but not limited to, the implied warranties of merchantability or fitness 
#for a particular purpose, with respect to the services rendered.  In no event will 
#Halliburton be liable for failure to obtain any particular results or for 
#any damages, including, but not limited to, indirect, special or consequential damages, 
#resulting from the use of any information or interpretation provided by Halliburton.
#
~A           TIME           GTDEPTH  GTPQH  GTTQ  GTTN  GTET   GTTVD  
# ...
   18:58:26.579.10-Nov-2020 4475.51 4013.73 80.00 5.00 299.08 2369.25
   18:58:26.779.10-Nov-2020 4475.51 4013.73 80.00 5.00 299.28 2369.25
   18:58:26.979.10-Nov-2020 4475.51 4013.80 80.00 5.00 299.48 2369.25
   18:58:27.179.10-Nov-2020 4475.51 4013.85 80.00 5.00 299.68 2369.25
   18:58:27.379.10-Nov-2020 4475.51 4013.87 80.00 5.00 299.88 2369.25
   18:58:27.579.10-Nov-2020 4475.51 4013.88 80.00 5.00 300.08 2369.25
   18:58:27.779.10-Nov-2020 4475.51 4013.88 80.00 5.00 300.28 2369.25
   18:58:27.979.10-Nov-2020 4475.51 4013.93 80.00 5.00 300.48 2369.25
   18:58:28.179.10-Nov-2020 4475.51 4014.01 80.00 5.00 300.68 2369.25
   18:58:28.379.10-Nov-2020 4475.51 4014.19 80.00 5.00 300.88 2369.25
   18:58:28.579.10-Nov-2020 4475.51 4014.10 80.00 5.00 301.08 2369.25
   18:58:28.779.10-Nov-2020 4475.51 4014.10 80.00 5.00 301.28 2369.25
   18:58:28.979.10-Nov-2020 4475.51 4014.16 80.00 5.00 301.48 2369.25
   18:58:29.179.10-Nov-2020 4475.51 4014.08 80.00 5.00 301.68 2369.25
   18:58:29.379.10-Nov-2020 4475.51 4014.05 80.00 5.00 301.88 2369.25
   18:58:29.579.10-Nov-2020 4475.51 4014.23 80.00 5.00 302.08 2369.25
   18:58:29.779.10-Nov-2020 4475.51 4014.23 80.00 5.00 302.28 2369.25
   18:58:29.980.10-Nov-2020 4475.51 4014.24 80.00 5.00 302.48 2369.25
   18:58:30.180.10-Nov-2020 4475.51 4014.23 80.00 5.00 302.68 2369.25
   18:58:30.380.10-Nov-2020 4475.51 4014.33 79.99 5.00 302.88 2369.25
   18:58:30.580.10-Nov-2020 4475.51 4014.34 79.99 5.00 303.08 2369.25
   18:58:30.780.10-Nov-2020 4475.51 4014.34 79.99 5.00 303.28 2369.25
   18:58:30.980.10-Nov-2020 4475.51 4014.40 79.99 5.00 303.48 2369.25
   18:58:31.180.10-Nov-2020 4475.51 4014.44 79.99 5.00 303.68 2369.25
   18:58:31.380.10-Nov-2020 4475.51 4014.41 79.99 5.00 303.88 2369.25
   18:58:31.580.10-Nov-2020 4475.51 4014.53 79.99 5.00 304.08 2369.25
   18:58:31.780.10-Nov-2020 4475.51 4014.53 79.99 5.00 304.28 2369.25
   18:58:31.980.10-Nov-2020 4475.51 4014.39 79.99 5.00 304.48 2369.25
   18:58:32.180.10-Nov-2020 4475.51 4014.52 79.99 5.00 304.68 2369.25
   18:58:32.380.10-Nov-2020 4475.51 4014.54 79.99 5.00 304.88 2369.25
   18:58:32.580.10-Nov-2020 4475.51 4014.51 79.99 5.00 305.08 2369.25
   18:58:32.780.10-Nov-2020 4475.51 4014.51 79.99 5.00 305.28 2369.25
   18:58:32.980.10-Nov-2020 4475.51 4014.54 79.99 5.00 305.48 2369.25
   18:58:33.180.10-Nov-2020 4475.51 4014.54 79.99 5.00 305.68 2369.25
   18:58:33.380.10-Nov-2020 4475.51 4014.63 79.99 5.00 305.88 2369.25
   18:58:33.581.10-Nov-2020 4475.51 4014.65 79.99 5.00 306.08 2369.25
   18:58:33.781.10-Nov-2020 4475.51 4014.65 79.99 5.00 306.28 2369.25
   18:58:33.981.10-Nov-2020 4475.51 4014.71 79.99 5.00 306.48 2369.25
   18:58:34.181.10-Nov-2020 4475.51 4014.71 79.98 5.00 306.69 2369.25
   18:58:34.381.10-Nov-2020 4475.51 4014.79 79.98 5.00 306.89 2369.25
   18:58:34.581.10-Nov-2020 4475.51 4014.73 79.98 5.00 307.09 2369.25
   18:58:34.781.10-Nov-2020 4475.51 4014.73 79.98 5.00 307.29 2369.25
   18:58:34.981.10-Nov-2020 4475.51 4014.88 79.98 5.00 307.49 2369.25
   18:58:35.181.10-Nov-2020 4475.51 4014.80 79.98 5.00 307.69 2369.25
   18:58:35.381.10-Nov-2020 4475.51 4014.72 79.98 5.00 307.89 2369.25
   18:58:35.581.10-Nov-2020 4475.51 4014.81 79.98 5.00 308.09 2369.25
   18:58:35.781.10-Nov-2020 4475.51 4014.81 79.98 5.00 308.29 2369.25
   18:58:35.981.10-Nov-2020 4475.51 4014.72 79.98 5.00 308.49 2369.25
   18:58:36.181.10-Nov-2020 4475.51 4014.75 79.98 5.00 308.69 2369.25
   18:58:36.381.10-Nov-2020 4475.51 4014.99 79.98 5.00 308.89 2369.25
   18:58:36.581.10-Nov-2020 4475.51 4015.04 79.98 5.00 309.09 2369.25
   18:58:36.781.10-Nov-2020 4475.51 4015.04 79.98 5.00 309.29 2369.25
   18:58:36.981.10-Nov-2020 4475.51 4015.04 79.98 5.00 309.49 2369.25
   18:58:37.182.10-Nov-2020 4475.51 4014.92 79.98 5.00 309.69 2369.25
   18:58:37.382.10-Nov-2020 4475.51 4014.85 79.98 5.00 309.89 2369.25
   18:58:37.582.10-Nov-2020 4475.51 4014.96 79.98 5.00 310.09 2369.25
   18:58:37.782.10-Nov-2020 4475.51 4014.96 79.98 5.00 310.29 2369.25
   18:58:37.982.10-Nov-2020 4475.51 4015.02 79.98 5.00 310.49 2369.25
   18:58:38.182.10-Nov-2020 4475.51 4015.07 79.97 5.00 310.69 2369.25
   18:58:38.382.10-Nov-2020 4475.51 4015.08 79.97 5.00 310.89 2369.25
   18:58:38.582.10-Nov-2020 4475.51 4015.08 79.97 5.00 311.09 2369.25
   18:58:38.782.10-Nov-2020 4475.51 4015.08 79.97 5.00 311.29 2369.25
   18:58:38.982.10-Nov-2020 4475.51 4015.21 79.97 5.00 311.49 2369.25
   18:58:39.182.10-Nov-2020 4475.51 4015.20 79.97 5.00 311.69 2369.25
   18:58:39.382.10-Nov-2020 4475.51 4015.25 79.97 5.00 311.89 2369.25
   18:58:39.582.10-Nov-2020 4475.51 4015.26 79.97 5.00 312.09 2369.25
   18:58:39.782.10-Nov-2020 4475.51 4015.26 79.97 5.00 312.29 2369.25
   18:58:39.982.10-Nov-2020 4475.51 4015.28 79.97 5.00 312.49 2369.25
   18:58:40.182.10-Nov-2020 4475.51 4015.32 79.97 5.00 312.69 2369.25
   18:58:40.382.10-Nov-2020 4475.51 4015.32 79.97 5.00 312.89 2369.25
   18:58:40.582.10-Nov-2020 4475.51 4015.20 79.97 5.00 313.09 2369.25
   18:58:40.783.10-Nov-2020 4475.51 4015.20 79.97 5.00 313.29 2369.25
   18:58:40.983.10-Nov-2020 4475.51 4015.30 79.97 5.00 313.49 2369.25
   18:58:41.183.10-Nov-2020 4475.51 4015.26 79.97 5.00 313.69 2369.25
   18:58:41.383.10-Nov-2020 4475.51 4015.31 79.97 5.00 313.89 2369.25
   18:58:41.583.10-Nov-2020 4475.51 4015.38 79.97 5.00 314.09 2369.25
   18:58:41.783.10-Nov-2020 4475.51 4015.38 79.97 5.00 314.29 2369.25
   18:58:41.983.10-Nov-2020 4475.51 4015.41 79.97 5.00 314.49 2369.25
   18:58:42.183.10-Nov-2020 4475.51 4015.43 79.96 5.00 314.69 2369.25
   18:58:42.383.10-Nov-2020 4475.51 4015.41 79.96 5.00 314.89 2369.25
   18:58:42.583.10-Nov-2020 4475.51 4015.58 79.96 5.00 315.09 2369.25
   18:58:42.783.10-Nov-2020 4475.51 4015.58 79.96 5.00 315.29 2369.25
   18:58:42.983.10-Nov-2020 4475.51 4015.58 79.96 5.00 315.49 2369.25
   18:58:43.183.10-Nov-2020 4475.51 4015.38 79.96 5.00 315.69 2369.25
   18:58:43.383.10-Nov-2020 4475.51 4015.47 79.96 5.00 315.89 2369.25
   18:58:43.583.10-Nov-2020 4475.51 4015.45 79.96 5.00 316.09 2369.25
   18:58:43.783.10-Nov-2020 4475.51 4015.45 79.96 5.00 316.29 2369.25
   18:58:43.983.10-Nov-2020 4475.51 4015.51 79.96 5.00 316.49 2369.25
   18:58:44.183.10-Nov-2020 4475.51 4015.47 79.96 5.00 316.69 2369.25
   18:58:44.384.10-Nov-2020 4475.51 4015.56 79.96 5.00 316.89 2369.25
   18:58:44.584.10-Nov-2020 4475.51 4015.52 79.96 5.00 317.09 2369.25
   18:58:44.784.10-Nov-2020 4475.51 4015.52 79.96 5.00 317.29 2369.25
   18:58:44.984.10-Nov-2020 4475.51 4015.72 79.96 5.00 317.49 2369.25
   18:58:45.184.10-Nov-2020 4475.51 4015.57 79.96 5.00 317.69 2369.25
   18:58:45.384.10-Nov-2020 4475.51 4015.78 79.96 5.00 317.89 2369.25
   18:58:45.584.10-Nov-2020 4475.51 4015.62 79.96 5.00 318.09 2369.25
   18:58:45.784.10-Nov-2020 4475.51 4015.62 79.96 5.00 318.29 2369.25
   18:58:45.984.10-Nov-2020 4475.51 4015.65 79.95 5.00 318.49 2369.25
   18:58:46.184.10-Nov-2020 4475.51 4015.69 79.95 5.00 318.69 2369.25
   18:58:46.384.10-Nov-2020 4475.51 4015.68 79.95 5.00 318.89 2369.25
   18:58:46.584.10-Nov-2020 4475.51 4015.74 79.95 5.00 319.09 2369.25
   18:58:46.784.10-Nov-2020 4475.51 4015.74 79.95 5.00 319.29 2369.25
   18:58:46.984.10-Nov-2020 4475.51 4015.75 79.95 5.00 319.49 2369.25
   18:58:47.184.10-Nov-2020 4475.51 4015.80 79.95 5.00 319.69 2369.25
   18:58:47.384.10-Nov-2020 4475.51 4015.86 79.95 5.00 319.89 2369.25
   18:58:47.584.10-Nov-2020 4475.51 4015.81 79.95 5.00 320.09 2369.25
   18:58:47.784.10-Nov-2020 4475.51 4015.81 79.95 5.00 320.29 2369.25
   18:58:47.985.10-Nov-2020 4475.51 4015.90 79.95 5.00 320.49 2369.25
   18:58:48.185.10-Nov-2020 4475.51 4015.87 79.95 5.00 320.69 2369.25
   18:58:48.385.10-Nov-2020 4475.51 4015.93 79.95 5.00 320.89 2369.25
   18:58:48.585.10-Nov-2020 4475.51 4015.99 79.95 5.00 321.09 2369.25
   18:58:48.785.10-Nov-2020 4475.51 4015.99 79.95 5.00 321.29 2369.25
   18:58:48.985.10-Nov-2020 4475.51 4015.86 79.95 5.00 321.49 2369.25
   18:58:49.185.10-Nov-2020 4475.51 4015.95 79.95 5.00 321.69 2369.25
   18:58:49.385.10-Nov-2020 4475.51 4015.90 79.95 5.00 321.89 2369.25
