~Version Information
 VERS.                  2.0:   CWLS log ASCII Standard -VERSION 2.0
 WRAP.                   NO:   One line per depth step
~Well Information Block
#MNEM.UNIT     VALUE/NAME     DESCRIPTION
#---------     -----------    ---------------------------
 STRT.S             21:54:12 08-Nov-20: START TIME 21:54:12 08-Nov-20
 STOP.S             22:00:43 08-Nov-20: STOP TIME  22:00:43 08-Nov-20
 STEP.S                   0.00: STEP TIME
 NULL.                 -999.25: NULL VALUE
 DFWT.                        :  DIST FWL TEXT
 DFST.                        :  DIST FSL TEXT
 DMF .             Drill Floor:  DRILL MEAS FROM
 STIM.      04.54.24 22-Sep-20:  START TIME
 DATE.      04.54.24 21-Nov-20:  END TIME
 SPUD.               21-Nov-20:  SPUD DATE
 NREF.                    Grid:  NORTH REFERENCE
 HPTY.       Minimum Curvature:  HOLE POS TYPE
 DMOD.             Drill Model:  DRILL MOD DESC
 SVYD.                  Survey:  SURVEY DESC
 ILTD.               Lithology:  INTERP LTH DESC
 FTOP.          Formation Tops:  FORM TOPS DESC
 SON .        AZ-XX-0906571587:  JOB NUMBER
 COMP.     BP Exploration (Caspian Sea) Ltd:  COMPANY
 UWI .                     N/A:  UNIQUE WELL IDENTIFIER
 API .                     N/A:  API NUMBER
 BASE.              Azerbaijan:  LOGGING EQUIPMENT BASE LOCATION
 REGN.                   EESSA:  REGION
 PROV.                    Baku:  PROVINCE
 STAT.                    Baku:  STATE NAME
 CTRY.              Azerbaijan:  COUNTRY NAME
 FLD .                     ACG:  FIELD NAME
 SRVC.     TURAN Drilling & Engineering:  CONTRACTOR
 WELL.                     J27:  WELL NAME
 RIG .             West Chirag:  RIG NAME
 DOE .                     N/A:  DOE NUMBER
 DCON.         Sperry Drilling:  DIRECTNL CONTR
 PDAT.          Mean Sea Level:  PERMANENT DATUM
 WTYP.                Deviated:  WELL TYPE
 MWDS.                    Baku:  MWD SHOP
 JOBN.        AZ-XX-0906571587:  JOB TICKET NUMB
 UNIT.                     N/A:  LOGGING EQUIPMENT ID
 MDS .        Operator Entered:  MAG DATA SOURCE
 CNTY.                        :  COUNTY
 LOC .                        :  LOCATION
 LMF .             Drill Floor:  LOG MEASURED FROM
 TVDS.m                  43.00:  TVDSS CORRECTN
 LATI.deg                40.13:  LATITUDE
 LONG.deg                51.22:  LONGITUDE
 WHNS.m                   7.72:  WELL HEAD N/S
 WHEW.m                 -14.24:  WELL HEAD E/W
 UTMX.m              519005.06:  UTM X
 UTMY.m             4443793.85:  UTM Y
 DFWL.m                   0.00:  DISTANCE FWL
 DFSL.m                   0.00:  DISTANCE FSL
 SDEP.m                 347.00:  START DEPTH
 TDD .m                 581.00:  TOTAL DEPTH (DRILLER)
 VSDR.deg               159.72:  VERT SEC DIRECT
 GVFD.g                   1.00:  GRAVITY FIELD
 MFLD.nT              50313.00:  MAGNETIC FIELD
 MDIP.deg                59.58:  MAGNETIC DIP
 MDEC.deg                 6.45:  MAGNETIC DECL
 GRDC.deg                 0.15:  GRID CORRECTION
 AZTC.deg                 6.30:  AZM TOTAL CORR
 EPD .m                   0.00:  ELEVATION
 EGL .m                   0.00:  GROUND ELEVATION
 WDMS.m                 169.80:  WD ELEV
 APD .m                  43.00:  DEPTH ABOVE PD
 AGAP.m                  43.00:  AIR GAP
 VSEW.m                 -14.24:  VERT SEC E/W
 VSNS.m                   7.72:  VERT SEC N/S
 DEP .m                 342.45:  DEPTH
 EKB .m                   0.00:  KB ELEVATION
 EDF .m                  43.00:  DF ELEVATION
 TDL .m                1313.00:  TOTAL DEPTH (LOGGER)
 VSC .                       0:  VS TO CLOSURE
 MAGU.                 1851396:  MAGUTM CHECKSUM
~Parameter Information Block
#MNEM.UNIT       Value        Description
#---------     -----------    ---------------------------
 AV  .mps                 0.65:  Ann Velocity 
 AVMX.mps                 0.75:  Max Ann Veloc 
 AZIF.deg               115.08:  Azm, Final 
 BHAT.        Rotary Steerable:  BHA Type 
 BROT.∞/30m               1.50:  Build Rotating 
 BS  .in                 12.25:  Bit Size 
 BSZ .in                 12.25:  Bit Size 
 BTPL.psig              700.00:  Bit Press Loss 
 CABU.                     Yes:  Customer Abuse 
 COMM.                     „J:  Run Comments 1 
 TCS .hr                121.00:  Time Ciculation Ended 
 CV  .mps                 1.83:  Crit Velocity 
 CVMX.mps                 1.83:  Max Crit Veloc 
 DD1 .          Rashad Habibov:  Direct Drillr 1 
 DD2 .         Rasim Ibrahimov:  Direct Drillr 2 
 DDSV.                 iCruise:  DD Service 
 DEFF.%                 100.00:  % Det Eff 
 DLRX.∞/30m               3.60:  Dogleg Rot Max 
 DLSO.∞/30m               3.10:  Dogleg Oriented 
 DLSX.∞/30m               3.60:  Dogleg Str Max 
 DRET.      13.41.20 12-Nov-20:  Drill End Time 
 DRST.      13.41.20 07-Nov-20:  Drill Start Tim 
 DTIM.hr                 54.16:  Time Drilling 
 EDEP.m                4762.01:  End Depth 
 ENG1.           Amrah Tahirov:  Engineer 1 
 ENG2.      Bakhtiyar Jabbarli:  Engineer 2 
 ENG3.          Ruslan Safarov:  Engineer 3 
 ETIM.      13.41.20 14-Nov-20:  End Time 
 FLOI.gpm              1200.00:  Flow In 
 FLON.gpm              1100.00:  Flow In Min 
 FLOS.cptm                0.00:  Fluid Loss 
 FLOX.gpm              1200.00:  Flow In Max 
 HFLO.                      No:  High Flow 
 HPRE.                      No:  High Pressure 
 HTEM.                      No:  High Temp 
 HYDO.m                   2.00:  Hydro Offset 
 IFIN.deg                66.14:  Inc, Final 
 IMAX.deg                69.03:  Inc Max 
 IMIN.deg                64.64:  Inc Min 
 IMND.m                4450.16:  Inc Min Depth 
 IMXD.m                3996.00:  Inc Max Depth 
 JARR.                     Yes:  Jarring 
 LETM.      13.41.20 14-Nov-20:  Log End Time 
 LOST.hr                     0:  Lost Rig Time 
 LSTM.      13.41.20 06-Nov-20:  Log Start Time 
 MDCL.ppm             42500.00:  Mud Chlorides 
 MDES.     Inversion Oil/Synthetic:  Mud Desc 
 DFD .sg                  1.45:  Mud Density 
 MDMN.sg                  1.45:  Dens Mud Min 
 MDMX.sg                  1.45:  Dens Mud Max 
 MOIL.                      70:  Run Mud Oil % 
 MOWR.                   70:30:  Run Mud OWR 
 MSND.                       0:  Run Mud Sand % 
 MSOL.                    19.3:  Run Mud Solids% 
 DFV .spqt               77.00:  Mud Viscosity 
 MWOD.in                  8.00:  MWD Tool OD 
 MWSI.                      No:  Serv Intrp, MWD 
 OTIM.hr                201.88:  Time Operating 
 PCON.           Look Like New:  Pad Condition 
 PMAX.psia             9250.94:  Press Op, Max 
 PV  .cP                 29.00:  Mud PV 
 RUN .                     800:  Run Number 
 ROPA.m/hr               28.00:  ROP Avg 
 ROPN.m/hr               25.00:  ROP Min 
 ROPX.m/hr               30.00:  ROP Max 
 RPMA.rpm               160.00:  RPM Surface Avg 
 RPMN.rpm               160.00:  RPM Surface Min 
 RPMX.rpm               160.00:  RPM Surface Max 
 RRUN.                    0800:  Rig Run Number 
 RTIM.hr                 12.00:  Time Reaming 
 SAZI.deg               169.33:  Azm, Start 
 SDEP.m                3449.01:  Start Depth 
 SIDD.                      No:  Serv Intrp, DD 
 SINC.deg                68.01:  Inc, Start 
 SPPA.psig             4900.00:  SPP Avg 
 SPPN.psig             4800.00:  SPP Min 
 SPPX.psig             5050.00:  SPP Max 
 STIM.      13.41.20 06-Nov-20:  Start Time 
 SVCS.                 DD, MWD:  Services 
 SVER.                    9.20:  Sperry Version 
 TDAT.m                4762.01:  Tot Depth Attmp 
 TDDF.                      No:  Trip for DD 
 TDLG.m                1313.00:  Tot Depth Loggd 
 TFF .                      No:  Trip for Fail 
 TQAA.f-kp               13.00:  Torque Abs Avg 
 TQAN.f-kp               13.00:  Torque Abs Min 
 TQAX.f-kp               13.00:  Torque Abs Max 
 TRRT.∞/30m               1.70:  Turn Rotating 
 MRT .                  EWR-M5:  Maximum Recorded Temperature 
 TTMX.degC               86.00:  Max Tool Temp 
 VS01.                90622122:  Virtual Str1 SN 
 VS02.                90577298:  Virtual Str2 SN 
 VS03.                90563623:  Virtual Str3 SN 
 VS04.                90617559:  Virtual Str4 SN 
 VS05.                11339492:  Virtual Str5 SN 
 VS06.                12385033:  Virtual Str6 SN 
 WBMN.klb                 0.00:  WOB Min 
 WOBA.klb                22.00:  WOB Avg 
 WOBX.klb                26.00:  WOB Max 
 YP  .lhf2               30.00:  Yield Point 
~Curve Information Block
#MNEM.UNIT                 API CODE     Curve Description
#---------               -----------    ---------------------------
 TIME.HHMMSS            00 000 000 000:  GT Time & Date
 GTDEPTH.m              00 000 000 000:  GT Depth
 GTPQH.psia             00 000 000 000:  GT HR Quartz Pressure
 GTTQ.degC              00 000 000 000:  GT Quartz Temperature
 GTTN.NONE              00 000 000 000:  GT Test Number
 GTET.sec               00 000 000 000:  GT Elapsed Test Time
 GTTVD.m                00 000 000 000:  GT True Vertical Depth
#Other Information
#
#WARRANTY: Halliburton will use its best efforts to furnish customers with 
#accurate information and interpretations that are part of, and incident to, the services 
#provided.  However, Halliburton cannot and does not warrant the accuracy 
#or correctness of such information and interpretations.  Under no circumstances should any 
#such information or interpretation be relied upon as the sole basis for any drilling, 
#completion, production, or financial decision or any procedure involving any risk to the 
#safety of any drilling venture, drilling rig or its crew or any other third party.  The 
#Customer has full responsibility for all drilling, completion and production operation.  
#Halliburton makes no representations or warranties, either expressed or 
#implied, including, but not limited to, the implied warranties of merchantability or fitness 
#for a particular purpose, with respect to the services rendered.  In no event will 
#Halliburton be liable for failure to obtain any particular results or for 
#any damages, including, but not limited to, indirect, special or consequential damages, 
#resulting from the use of any information or interpretation provided by Halliburton.
#
~A           TIME           GTDEPTH  GTPQH  GTTQ  GTTN  GTET   GTTVD  
# ...
   21:58:02.704.08-Nov-2020 3686.01 3544.18 71.66 4.00 230.05 2071.13
   21:58:02.904.08-Nov-2020 3686.01 3544.18 71.66 4.00 230.25 2071.13
   21:58:03.104.08-Nov-2020 3686.01 3544.13 71.66 4.00 230.45 2071.13
   21:58:03.304.08-Nov-2020 3686.01 3544.16 71.66 4.00 230.65 2071.13
   21:58:03.504.08-Nov-2020 3686.01 3544.20 71.66 4.00 230.85 2071.13
   21:58:03.704.08-Nov-2020 3686.01 3544.15 71.66 4.00 231.05 2071.13
   21:58:03.904.08-Nov-2020 3686.01 3544.14 71.66 4.00 231.25 2071.13
   21:58:04.104.08-Nov-2020 3686.01 3544.18 71.66 4.00 231.45 2071.13
   21:58:04.304.08-Nov-2020 3686.01 3544.13 71.66 4.00 231.65 2071.13
   21:58:04.504.08-Nov-2020 3686.01 3544.14 71.66 4.00 231.85 2071.13
   21:58:04.704.08-Nov-2020 3686.01 3544.12 71.66 4.00 232.05 2071.13
   21:58:04.904.08-Nov-2020 3686.01 3544.12 71.65 4.00 232.25 2071.13
   21:58:05.105.08-Nov-2020 3686.01 3544.11 71.65 4.00 232.45 2071.13
   21:58:05.305.08-Nov-2020 3686.01 3544.08 71.65 4.00 232.65 2071.13
   21:58:05.505.08-Nov-2020 3686.01 3544.09 71.65 4.00 232.85 2071.13
   21:58:05.705.08-Nov-2020 3686.01 3544.10 71.65 4.00 233.05 2071.13
   21:58:05.905.08-Nov-2020 3686.01 3544.10 71.65 4.00 233.25 2071.13
   21:58:06.105.08-Nov-2020 3686.01 3544.09 71.65 4.00 233.45 2071.13
   21:58:06.305.08-Nov-2020 3686.01 3544.17 71.65 4.00 233.65 2071.13
   21:58:06.505.08-Nov-2020 3686.01 3544.16 71.65 4.00 233.85 2071.13
   21:58:06.705.08-Nov-2020 3686.01 3544.13 71.65 4.00 234.05 2071.13
   21:58:06.905.08-Nov-2020 3686.01 3544.13 71.65 4.00 234.25 2071.13
   21:58:07.105.08-Nov-2020 3686.01 3544.13 71.64 4.00 234.45 2071.13
   21:58:07.305.08-Nov-2020 3686.01 3544.12 71.64 4.00 234.65 2071.13
   21:58:07.505.08-Nov-2020 3686.01 3544.10 71.64 4.00 234.85 2071.13
   21:58:07.705.08-Nov-2020 3686.01 3544.10 71.64 4.00 235.05 2071.13
   21:58:07.905.08-Nov-2020 3686.01 3544.10 71.64 4.00 235.25 2071.13
   21:58:08.105.08-Nov-2020 3686.01 3544.09 71.64 4.00 235.45 2071.13
   21:58:08.305.08-Nov-2020 3686.01 3544.07 71.64 4.00 235.65 2071.13
   21:58:08.505.08-Nov-2020 3686.01 3544.07 71.64 4.00 235.85 2071.13
   21:58:08.705.08-Nov-2020 3686.01 3544.08 71.64 4.00 236.05 2071.13
   21:58:08.905.08-Nov-2020 3686.01 3544.08 71.64 4.00 236.25 2071.13
   21:58:09.105.08-Nov-2020 3686.01 3544.08 71.63 4.00 236.45 2071.13
   21:58:09.305.08-Nov-2020 3686.01 3544.23 71.63 4.00 236.65 2071.13
   21:58:09.506.08-Nov-2020 3686.01 3544.18 71.63 4.00 236.85 2071.13
   21:58:09.706.08-Nov-2020 3686.01 3544.15 71.63 4.00 237.05 2071.13
   21:58:09.906.08-Nov-2020 3686.01 3544.15 71.63 4.00 237.25 2071.13
   21:58:10.106.08-Nov-2020 3686.01 3544.15 71.63 4.00 237.45 2071.13
   21:58:10.306.08-Nov-2020 3686.01 3544.16 71.63 4.00 237.65 2071.13
   21:58:10.506.08-Nov-2020 3686.01 3544.19 71.63 4.00 237.85 2071.13
   21:58:10.706.08-Nov-2020 3686.01 3544.16 71.63 4.00 238.05 2071.13
   21:58:10.906.08-Nov-2020 3686.01 3544.16 71.63 4.00 238.25 2071.13
   21:58:11.106.08-Nov-2020 3686.01 3544.16 71.63 4.00 238.45 2071.13
   21:58:11.306.08-Nov-2020 3686.01 3544.16 71.62 4.00 238.65 2071.13
   21:58:11.506.08-Nov-2020 3686.01 3544.18 71.62 4.00 238.85 2071.13
   21:58:11.706.08-Nov-2020 3686.01 3544.18 71.62 4.00 239.05 2071.13
   21:58:11.906.08-Nov-2020 3686.01 3544.18 71.62 4.00 239.25 2071.13
   21:58:12.106.08-Nov-2020 3686.01 3544.10 71.62 4.00 239.45 2071.13
   21:58:12.306.08-Nov-2020 3686.01 3544.25 71.62 4.00 239.65 2071.13
   21:58:12.506.08-Nov-2020 3686.01 3544.17 71.62 4.00 239.85 2071.13
   21:58:12.706.08-Nov-2020 3686.01 3544.17 71.62 4.00 240.05 2071.13
   21:58:12.906.08-Nov-2020 3686.01 3544.17 71.62 4.00 240.25 2071.13
   21:58:13.106.08-Nov-2020 3686.01 3544.15 71.62 4.00 240.45 2071.13
   21:58:13.306.08-Nov-2020 3686.01 3544.14 71.62 4.00 240.65 2071.13
   21:58:13.506.08-Nov-2020 3686.01 3544.12 71.61 4.00 240.85 2071.13
   21:58:13.706.08-Nov-2020 3686.01 3544.12 71.61 4.00 241.05 2071.13
   21:58:13.906.08-Nov-2020 3686.01 3544.12 71.61 4.00 241.25 2071.13
   21:58:14.107.08-Nov-2020 3686.01 3544.11 71.61 4.00 241.45 2071.13
   21:58:14.307.08-Nov-2020 3686.01 3544.10 71.61 4.00 241.65 2071.13
   21:58:14.507.08-Nov-2020 3686.01 3544.09 71.61 4.00 241.85 2071.13
   21:58:14.707.08-Nov-2020 3686.01 3544.10 71.61 4.00 242.05 2071.13
   21:58:14.907.08-Nov-2020 3686.01 3544.10 71.61 4.00 242.25 2071.13
   21:58:15.107.08-Nov-2020 3686.01 3544.15 71.61 4.00 242.45 2071.13
   21:58:15.307.08-Nov-2020 3686.01 3544.18 71.61 4.00 242.65 2071.13
   21:58:15.507.08-Nov-2020 3686.01 3544.15 71.61 4.00 242.85 2071.13
   21:58:15.707.08-Nov-2020 3686.01 3544.14 71.60 4.00 243.05 2071.13
   21:58:15.907.08-Nov-2020 3686.01 3544.16 71.60 4.00 243.25 2071.13
   21:58:16.107.08-Nov-2020 3686.01 3544.10 71.60 4.00 243.45 2071.13
   21:58:16.307.08-Nov-2020 3686.01 3544.12 71.60 4.00 243.65 2071.13
   21:58:16.507.08-Nov-2020 3686.01 3544.11 71.60 4.00 243.85 2071.13
   21:58:16.707.08-Nov-2020 3686.01 3544.09 71.60 4.00 244.05 2071.13
   21:58:16.907.08-Nov-2020 3686.01 3544.09 71.60 4.00 244.25 2071.13
   21:58:17.107.08-Nov-2020 3686.01 3544.09 71.60 4.00 244.45 2071.13
   21:58:17.307.08-Nov-2020 3686.01 3544.08 71.60 4.00 244.65 2071.13
   21:58:17.507.08-Nov-2020 3686.01 3544.02 71.60 4.00 244.85 2071.13
   21:58:17.707.08-Nov-2020 3686.01 3544.17 71.60 4.00 245.05 2071.13
   21:58:17.907.08-Nov-2020 3686.01 3544.14 71.59 4.00 245.25 2071.13
   21:58:18.107.08-Nov-2020 3686.01 3544.09 71.59 4.00 245.45 2071.13
   21:58:18.307.08-Nov-2020 3686.01 3544.25 71.59 4.00 245.65 2071.13
   21:58:18.508.08-Nov-2020 3686.01 3544.17 71.59 4.00 245.85 2071.13
   21:58:18.708.08-Nov-2020 3686.01 3544.16 71.59 4.00 246.05 2071.13
   21:58:18.908.08-Nov-2020 3686.01 3544.16 71.59 4.00 246.25 2071.13
   21:58:19.108.08-Nov-2020 3686.01 3544.12 71.59 4.00 246.45 2071.13
   21:58:19.308.08-Nov-2020 3686.01 3544.19 71.59 4.00 246.65 2071.13
   21:58:19.508.08-Nov-2020 3686.01 3544.18 71.59 4.00 246.85 2071.13
   21:58:19.708.08-Nov-2020 3686.01 3544.15 71.59 4.00 247.05 2071.13
   21:58:19.908.08-Nov-2020 3686.01 3544.16 71.58 4.00 247.25 2071.13
   21:58:20.108.08-Nov-2020 3686.01 3544.13 71.58 4.00 247.45 2071.13
   21:58:20.308.08-Nov-2020 3686.01 3544.18 71.58 4.00 247.65 2071.13
   21:58:20.508.08-Nov-2020 3686.01 3544.19 71.58 4.00 247.85 2071.13
   21:58:20.708.08-Nov-2020 3686.01 3544.15 71.58 4.00 248.05 2071.13
   21:58:20.908.08-Nov-2020 3686.01 3544.15 71.58 4.00 248.26 2071.13
   21:58:21.108.08-Nov-2020 3686.01 3544.10 71.58 4.00 248.46 2071.13
   21:58:21.308.08-Nov-2020 3686.01 3544.22 71.58 4.00 248.66 2071.13
   21:58:21.508.08-Nov-2020 3686.01 3544.18 71.58 4.00 248.86 2071.13
   21:58:21.708.08-Nov-2020 3686.01 3544.17 71.58 4.00 249.06 2071.13
   21:58:21.908.08-Nov-2020 3686.01 3544.17 71.58 4.00 249.26 2071.13
   21:58:22.108.08-Nov-2020 3686.01 3544.13 71.57 4.00 249.46 2071.13
   21:58:22.308.08-Nov-2020 3686.01 3544.15 71.57 4.00 249.66 2071.13
   21:58:22.508.08-Nov-2020 3686.01 3544.13 71.57 4.00 249.86 2071.13
   21:58:22.708.08-Nov-2020 3686.01 3544.12 71.57 4.00 250.06 2071.13
   21:58:22.908.08-Nov-2020 3686.01 3544.12 71.57 4.00 250.26 2071.13
   21:58:23.109.08-Nov-2020 3686.01 3544.11 71.57 4.00 250.46 2071.13
   21:58:23.309.08-Nov-2020 3686.01 3544.10 71.57 4.00 250.66 2071.13
   21:58:23.509.08-Nov-2020 3686.01 3544.09 71.57 4.00 250.86 2071.13
   21:58:23.709.08-Nov-2020 3686.01 3544.08 71.57 4.00 251.06 2071.13
   21:58:23.909.08-Nov-2020 3686.01 3544.03 71.57 4.00 251.26 2071.13
   21:58:24.109.08-Nov-2020 3686.01 3544.21 71.57 4.00 251.46 2071.13
   21:58:24.309.08-Nov-2020 3686.01 3544.15 71.56 4.00 251.66 2071.13
   21:58:24.509.08-Nov-2020 3686.01 3544.16 71.56 4.00 251.86 2071.13
   21:58:24.709.08-Nov-2020 3686.01 3544.15 71.56 4.00 252.06 2071.13
   21:58:24.909.08-Nov-2020 3686.01 3544.13 71.56 4.00 252.26 2071.13
   21:58:25.109.08-Nov-2020 3686.01 3544.12 71.56 4.00 252.46 2071.13
   21:58:25.309.08-Nov-2020 3686.01 3544.11 71.56 4.00 252.66 2071.13
   21:58:25.509.08-Nov-2020 3686.01 3544.11 71.56 4.00 252.86 2071.13
