~Version Information
 VERS.                  2.0:   CWLS log ASCII Standard -VERSION 2.0
 WRAP.                   NO:   One line per depth step
~Well Information Block
#MNEM.UNIT     VALUE/NAME     DESCRIPTION
#---------     -----------    ---------------------------
 STRT.S             12:15:13 08-Nov-20: START TIME 12:15:13 08-Nov-20
 STOP.S             12:21:45 08-Nov-20: STOP TIME  12:21:45 08-Nov-20
 STEP.S                   0.00: STEP TIME
 NULL.                 -999.25: NULL VALUE
 DFWT.                        :  DIST FWL TEXT
 DFST.                        :  DIST FSL TEXT
 DMF .             Drill Floor:  DRILL MEAS FROM
 STIM.      04.54.24 22-Sep-20:  START TIME
 DATE.      04.54.24 21-Nov-20:  END TIME
 SPUD.               21-Nov-20:  SPUD DATE
 NREF.                    Grid:  NORTH REFERENCE
 HPTY.       Minimum Curvature:  HOLE POS TYPE
 DMOD.             Drill Model:  DRILL MOD DESC
 SVYD.                  Survey:  SURVEY DESC
 ILTD.               Lithology:  INTERP LTH DESC
 FTOP.          Formation Tops:  FORM TOPS DESC
 SON .        AZ-XX-0906571587:  JOB NUMBER
 COMP.     BP Exploration (Caspian Sea) Ltd:  COMPANY
 UWI .                     N/A:  UNIQUE WELL IDENTIFIER
 API .                     N/A:  API NUMBER
 BASE.              Azerbaijan:  LOGGING EQUIPMENT BASE LOCATION
 REGN.                   EESSA:  REGION
 PROV.                    Baku:  PROVINCE
 STAT.                    Baku:  STATE NAME
 CTRY.              Azerbaijan:  COUNTRY NAME
 FLD .                     ACG:  FIELD NAME
 SRVC.     TURAN Drilling & Engineering:  CONTRACTOR
 WELL.                     J27:  WELL NAME
 RIG .             West Chirag:  RIG NAME
 DOE .                     N/A:  DOE NUMBER
 DCON.         Sperry Drilling:  DIRECTNL CONTR
 PDAT.          Mean Sea Level:  PERMANENT DATUM
 WTYP.                Deviated:  WELL TYPE
 MWDS.                    Baku:  MWD SHOP
 JOBN.        AZ-XX-0906571587:  JOB TICKET NUMB
 UNIT.                     N/A:  LOGGING EQUIPMENT ID
 MDS .        Operator Entered:  MAG DATA SOURCE
 CNTY.                        :  COUNTY
 LOC .                        :  LOCATION
 LMF .             Drill Floor:  LOG MEASURED FROM
 TVDS.m                  43.00:  TVDSS CORRECTN
 LATI.deg                40.13:  LATITUDE
 LONG.deg                51.22:  LONGITUDE
 WHNS.m                   7.72:  WELL HEAD N/S
 WHEW.m                 -14.24:  WELL HEAD E/W
 UTMX.m              519005.06:  UTM X
 UTMY.m             4443793.85:  UTM Y
 DFWL.m                   0.00:  DISTANCE FWL
 DFSL.m                   0.00:  DISTANCE FSL
 SDEP.m                 347.00:  START DEPTH
 TDD .m                 581.00:  TOTAL DEPTH (DRILLER)
 VSDR.deg               159.72:  VERT SEC DIRECT
 GVFD.g                   1.00:  GRAVITY FIELD
 MFLD.nT              50313.00:  MAGNETIC FIELD
 MDIP.deg                59.58:  MAGNETIC DIP
 MDEC.deg                 6.45:  MAGNETIC DECL
 GRDC.deg                 0.15:  GRID CORRECTION
 AZTC.deg                 6.30:  AZM TOTAL CORR
 EPD .m                   0.00:  ELEVATION
 EGL .m                   0.00:  GROUND ELEVATION
 WDMS.m                 169.80:  WD ELEV
 APD .m                  43.00:  DEPTH ABOVE PD
 AGAP.m                  43.00:  AIR GAP
 VSEW.m                 -14.24:  VERT SEC E/W
 VSNS.m                   7.72:  VERT SEC N/S
 DEP .m                 342.45:  DEPTH
 EKB .m                   0.00:  KB ELEVATION
 EDF .m                  43.00:  DF ELEVATION
 TDL .m                1313.00:  TOTAL DEPTH (LOGGER)
 VSC .                       0:  VS TO CLOSURE
 MAGU.                 1851396:  MAGUTM CHECKSUM
~Parameter Information Block
#MNEM.UNIT       Value        Description
#---------     -----------    ---------------------------
 AV  .mps                 0.65:  Ann Velocity 
 AVMX.mps                 0.75:  Max Ann Veloc 
 AZIF.deg               115.08:  Azm, Final 
 BHAT.        Rotary Steerable:  BHA Type 
 BROT.°/30m               1.50:  Build Rotating 
 BS  .in                 12.25:  Bit Size 
 BSZ .in                 12.25:  Bit Size 
 BTPL.psig              700.00:  Bit Press Loss 
 CABU.                     Yes:  Customer Abuse 
 COMM.                     „*[:  Run Comments 1 
 TCS .hr                121.00:  Time Ciculation Ended 
 CV  .mps                 1.83:  Crit Velocity 
 CVMX.mps                 1.83:  Max Crit Veloc 
 DD1 .          Rashad Habibov:  Direct Drillr 1 
 DD2 .         Rasim Ibrahimov:  Direct Drillr 2 
 DDSV.                 iCruise:  DD Service 
 DEFF.%                 100.00:  % Det Eff 
 DLRX.°/30m               3.60:  Dogleg Rot Max 
 DLSO.°/30m               3.10:  Dogleg Oriented 
 DLSX.°/30m               3.60:  Dogleg Str Max 
 DRET.      13.41.20 12-Nov-20:  Drill End Time 
 DRST.      13.41.20 07-Nov-20:  Drill Start Tim 
 DTIM.hr                 54.16:  Time Drilling 
 EDEP.m                4762.01:  End Depth 
 ENG1.           Amrah Tahirov:  Engineer 1 
 ENG2.      Bakhtiyar Jabbarli:  Engineer 2 
 ENG3.          Ruslan Safarov:  Engineer 3 
 ETIM.      13.41.20 14-Nov-20:  End Time 
 FLOI.gpm              1200.00:  Flow In 
 FLON.gpm              1100.00:  Flow In Min 
 FLOS.cptm                0.00:  Fluid Loss 
 FLOX.gpm              1200.00:  Flow In Max 
 HFLO.                      No:  High Flow 
 HPRE.                      No:  High Pressure 
 HTEM.                      No:  High Temp 
 HYDO.m                   2.00:  Hydro Offset 
 IFIN.deg                66.14:  Inc, Final 
 IMAX.deg                69.03:  Inc Max 
 IMIN.deg                64.64:  Inc Min 
 IMND.m                4450.16:  Inc Min Depth 
 IMXD.m                3996.00:  Inc Max Depth 
 JARR.                     Yes:  Jarring 
 LETM.      13.41.20 14-Nov-20:  Log End Time 
 LOST.hr                     0:  Lost Rig Time 
 LSTM.      13.41.20 06-Nov-20:  Log Start Time 
 MDCL.ppm             42500.00:  Mud Chlorides 
 MDES.     Inversion Oil/Synthetic:  Mud Desc 
 DFD .sg                  1.45:  Mud Density 
 MDMN.sg                  1.45:  Dens Mud Min 
 MDMX.sg                  1.45:  Dens Mud Max 
 MOIL.                      70:  Run Mud Oil % 
 MOWR.                   70:30:  Run Mud OWR 
 MSND.                       0:  Run Mud Sand % 
 MSOL.                    19.3:  Run Mud Solids% 
 DFV .spqt               77.00:  Mud Viscosity 
 MWOD.in                  8.00:  MWD Tool OD 
 MWSI.                      No:  Serv Intrp, MWD 
 OTIM.hr                201.88:  Time Operating 
 PCON.           Look Like New:  Pad Condition 
 PMAX.psia             9250.94:  Press Op, Max 
 PV  .cP                 29.00:  Mud PV 
 RUN .                     800:  Run Number 
 ROPA.m/hr               28.00:  ROP Avg 
 ROPN.m/hr               25.00:  ROP Min 
 ROPX.m/hr               30.00:  ROP Max 
 RPMA.rpm               160.00:  RPM Surface Avg 
 RPMN.rpm               160.00:  RPM Surface Min 
 RPMX.rpm               160.00:  RPM Surface Max 
 RRUN.                    0800:  Rig Run Number 
 RTIM.hr                 12.00:  Time Reaming 
 SAZI.deg               169.33:  Azm, Start 
 SDEP.m                3449.01:  Start Depth 
 SIDD.                      No:  Serv Intrp, DD 
 SINC.deg                68.01:  Inc, Start 
 SPPA.psig             4900.00:  SPP Avg 
 SPPN.psig             4800.00:  SPP Min 
 SPPX.psig             5050.00:  SPP Max 
 STIM.      13.41.20 06-Nov-20:  Start Time 
 SVCS.                 DD, MWD:  Services 
 SVER.                    9.20:  Sperry Version 
 TDAT.m                4762.01:  Tot Depth Attmp 
 TDDF.                      No:  Trip for DD 
 TDLG.m                1313.00:  Tot Depth Loggd 
 TFF .                      No:  Trip for Fail 
 TQAA.f-kp               13.00:  Torque Abs Avg 
 TQAN.f-kp               13.00:  Torque Abs Min 
 TQAX.f-kp               13.00:  Torque Abs Max 
 TRRT.°/30m               1.70:  Turn Rotating 
 MRT .                  EWR-M5:  Maximum Recorded Temperature 
 TTMX.degC               86.00:  Max Tool Temp 
 VS01.                90622122:  Virtual Str1 SN 
 VS02.                90577298:  Virtual Str2 SN 
 VS03.                90563623:  Virtual Str3 SN 
 VS04.                90617559:  Virtual Str4 SN 
 VS05.                11339492:  Virtual Str5 SN 
 VS06.                12385033:  Virtual Str6 SN 
 WBMN.klb                 0.00:  WOB Min 
 WOBA.klb                22.00:  WOB Avg 
 WOBX.klb                26.00:  WOB Max 
 YP  .lhf2               30.00:  Yield Point 
~Curve Information Block
#MNEM.UNIT                 API CODE     Curve Description
#---------               -----------    ---------------------------
 TIME.HHMMSS            00 000 000 000:  GT Time & Date
 GTDEPTH.m              00 000 000 000:  GT Depth
 GTPQH.psia             00 000 000 000:  GT HR Quartz Pressure
 GTTQ.degC              00 000 000 000:  GT Quartz Temperature
 GTTN.NONE              00 000 000 000:  GT Test Number
 GTET.sec               00 000 000 000:  GT Elapsed Test Time
 GTTVD.m                00 000 000 000:  GT True Vertical Depth
#Other Information
#
#WARRANTY: Halliburton will use its best efforts to furnish customers with 
#accurate information and interpretations that are part of, and incident to, the services 
#provided.  However, Halliburton cannot and does not warrant the accuracy 
#or correctness of such information and interpretations.  Under no circumstances should any 
#such information or interpretation be relied upon as the sole basis for any drilling, 
#completion, production, or financial decision or any procedure involving any risk to the 
#safety of any drilling venture, drilling rig or its crew or any other third party.  The 
#Customer has full responsibility for all drilling, completion and production operation.  
#Halliburton makes no representations or warranties, either expressed or 
#implied, including, but not limited to, the implied warranties of merchantability or fitness 
#for a particular purpose, with respect to the services rendered.  In no event will 
#Halliburton be liable for failure to obtain any particular results or for 
#any damages, including, but not limited to, indirect, special or consequential damages, 
#resulting from the use of any information or interpretation provided by Halliburton.
#
~A           TIME           GTDEPTH  GTPQH  GTTQ  GTTN  GTET   GTTVD  
# ...
   12:19:03.000.08-Nov-2020 3568.06 3289.74 70.03 2.00 230.00 2028.53
   12:19:03.200.08-Nov-2020 3568.06 3289.74 70.03 2.00 230.20 2028.53
   12:19:03.400.08-Nov-2020 3568.06 3289.79 70.02 2.00 230.40 2028.53
   12:19:03.600.08-Nov-2020 3568.06 3289.77 70.02 2.00 230.60 2028.53
   12:19:03.800.08-Nov-2020 3568.06 3289.76 70.02 2.00 230.80 2028.53
   12:19:04.000.08-Nov-2020 3568.06 3289.77 70.02 2.00 231.00 2028.53
   12:19:04.200.08-Nov-2020 3568.06 3289.77 70.02 2.00 231.20 2028.53
   12:19:04.400.08-Nov-2020 3568.06 3289.75 70.02 2.00 231.40 2028.53
   12:19:04.600.08-Nov-2020 3568.06 3289.74 70.02 2.00 231.60 2028.53
   12:19:04.800.08-Nov-2020 3568.06 3289.74 70.02 2.00 231.80 2028.53
   12:19:05.000.08-Nov-2020 3568.06 3289.72 70.02 2.00 232.00 2028.53
   12:19:05.200.08-Nov-2020 3568.06 3289.72 70.02 2.00 232.20 2028.53
   12:19:05.400.08-Nov-2020 3568.06 3289.72 70.02 2.00 232.40 2028.53
   12:19:05.600.08-Nov-2020 3568.06 3289.68 70.02 2.00 232.60 2028.53
   12:19:05.800.08-Nov-2020 3568.06 3289.78 70.01 2.00 232.80 2028.53
   12:19:06.000.08-Nov-2020 3568.06 3289.76 70.01 2.00 233.00 2028.53
   12:19:06.200.08-Nov-2020 3568.06 3289.76 70.01 2.00 233.20 2028.53
   12:19:06.400.08-Nov-2020 3568.06 3289.80 70.01 2.00 233.40 2028.53
   12:19:06.600.08-Nov-2020 3568.06 3289.77 70.01 2.00 233.60 2028.53
   12:19:06.800.08-Nov-2020 3568.06 3289.77 70.01 2.00 233.80 2028.53
   12:19:07.000.08-Nov-2020 3568.06 3289.77 70.01 2.00 234.00 2028.53
   12:19:07.200.08-Nov-2020 3568.06 3289.77 70.01 2.00 234.20 2028.53
   12:19:07.400.08-Nov-2020 3568.06 3289.80 70.01 2.00 234.40 2028.53
   12:19:07.600.08-Nov-2020 3568.06 3289.78 70.01 2.00 234.60 2028.53
   12:19:07.800.08-Nov-2020 3568.06 3289.76 70.01 2.00 234.80 2028.53
   12:19:08.000.08-Nov-2020 3568.06 3289.78 70.01 2.00 235.00 2028.53
   12:19:08.200.08-Nov-2020 3568.06 3289.78 70.01 2.00 235.20 2028.53
   12:19:08.400.08-Nov-2020 3568.06 3289.79 70.00 2.00 235.40 2028.53
   12:19:08.600.08-Nov-2020 3568.06 3289.79 70.00 2.00 235.60 2028.53
   12:19:08.800.08-Nov-2020 3568.06 3289.77 70.00 2.00 235.80 2028.53
   12:19:09.000.08-Nov-2020 3568.06 3289.78 70.00 2.00 236.00 2028.53
   12:19:09.200.08-Nov-2020 3568.06 3289.78 70.00 2.00 236.20 2028.53
   12:19:09.400.08-Nov-2020 3568.06 3289.79 70.00 2.00 236.40 2028.53
   12:19:09.600.08-Nov-2020 3568.06 3289.79 70.00 2.00 236.60 2028.53
   12:19:09.800.08-Nov-2020 3568.06 3289.77 70.00 2.00 236.80 2028.53
   12:19:10.000.08-Nov-2020 3568.06 3289.78 70.00 2.00 237.00 2028.53
   12:19:10.200.08-Nov-2020 3568.06 3289.78 70.00 2.00 237.20 2028.53
   12:19:10.400.08-Nov-2020 3568.06 3289.76 69.99 2.00 237.40 2028.53
   12:19:10.600.08-Nov-2020 3568.06 3289.76 69.99 2.00 237.60 2028.53
   12:19:10.800.08-Nov-2020 3568.06 3289.75 69.99 2.00 237.80 2028.53
   12:19:11.000.08-Nov-2020 3568.06 3289.74 69.99 2.00 238.00 2028.53
   12:19:11.200.08-Nov-2020 3568.06 3289.74 69.99 2.00 238.20 2028.53
   12:19:11.400.08-Nov-2020 3568.06 3289.73 69.99 2.00 238.40 2028.53
   12:19:11.600.08-Nov-2020 3568.06 3289.73 69.99 2.00 238.60 2028.53
   12:19:11.800.08-Nov-2020 3568.06 3289.72 69.99 2.00 238.80 2028.53
   12:19:12.000.08-Nov-2020 3568.06 3289.68 69.99 2.00 239.00 2028.53
   12:19:12.200.08-Nov-2020 3568.06 3289.68 69.99 2.00 239.20 2028.53
   12:19:12.400.08-Nov-2020 3568.06 3289.76 69.99 2.00 239.40 2028.53
   12:19:12.600.08-Nov-2020 3568.06 3289.76 69.99 2.00 239.60 2028.53
   12:19:12.800.08-Nov-2020 3568.06 3289.77 69.98 2.00 239.80 2028.53
   12:19:13.000.08-Nov-2020 3568.06 3289.75 69.98 2.00 240.00 2028.53
   12:19:13.200.08-Nov-2020 3568.06 3289.75 69.98 2.00 240.20 2028.53
   12:19:13.400.08-Nov-2020 3568.06 3289.74 69.98 2.00 240.40 2028.53
   12:19:13.600.08-Nov-2020 3568.06 3289.73 69.98 2.00 240.60 2028.53
   12:19:13.800.08-Nov-2020 3568.06 3289.74 69.98 2.00 240.80 2028.53
   12:19:14.000.08-Nov-2020 3568.06 3289.72 69.98 2.00 241.00 2028.53
   12:19:14.200.08-Nov-2020 3568.06 3289.72 69.98 2.00 241.20 2028.53
   12:19:14.400.08-Nov-2020 3568.06 3289.72 69.98 2.00 241.40 2028.53
   12:19:14.600.08-Nov-2020 3568.06 3289.69 69.98 2.00 241.60 2028.53
   12:19:14.800.08-Nov-2020 3568.06 3289.78 69.98 2.00 241.80 2028.53
   12:19:15.000.08-Nov-2020 3568.06 3289.76 69.97 2.00 242.00 2028.53
   12:19:15.200.08-Nov-2020 3568.06 3289.76 69.97 2.00 242.20 2028.53
   12:19:15.400.08-Nov-2020 3568.06 3289.80 69.97 2.00 242.40 2028.53
   12:19:15.600.08-Nov-2020 3568.06 3289.77 69.97 2.00 242.60 2028.53
   12:19:15.800.08-Nov-2020 3568.06 3289.77 69.97 2.00 242.80 2028.53
   12:19:16.000.08-Nov-2020 3568.06 3289.74 69.97 2.00 243.00 2028.53
   12:19:16.200.08-Nov-2020 3568.06 3289.74 69.97 2.00 243.20 2028.53
   12:19:16.400.08-Nov-2020 3568.06 3289.77 69.97 2.00 243.40 2028.53
   12:19:16.600.08-Nov-2020 3568.06 3289.78 69.97 2.00 243.60 2028.53
   12:19:16.800.08-Nov-2020 3568.06 3289.79 69.97 2.00 243.80 2028.53
   12:19:17.000.08-Nov-2020 3568.06 3289.71 69.97 2.00 244.00 2028.53
   12:19:17.200.08-Nov-2020 3568.06 3289.71 69.97 2.00 244.20 2028.53
   12:19:17.400.08-Nov-2020 3568.06 3289.79 69.96 2.00 244.40 2028.53
   12:19:17.600.08-Nov-2020 3568.06 3289.77 69.96 2.00 244.60 2028.53
   12:19:17.800.08-Nov-2020 3568.06 3289.80 69.96 2.00 244.80 2028.53
   12:19:18.000.08-Nov-2020 3568.06 3289.76 69.96 2.00 245.00 2028.53
   12:19:18.200.08-Nov-2020 3568.06 3289.76 69.96 2.00 245.20 2028.53
   12:19:18.400.08-Nov-2020 3568.06 3289.80 69.96 2.00 245.40 2028.53
   12:19:18.600.08-Nov-2020 3568.06 3289.78 69.96 2.00 245.60 2028.53
   12:19:18.800.08-Nov-2020 3568.06 3289.77 69.96 2.00 245.80 2028.53
   12:19:19.000.08-Nov-2020 3568.06 3289.78 69.96 2.00 246.00 2028.53
   12:19:19.200.08-Nov-2020 3568.06 3289.78 69.96 2.00 246.20 2028.53
   12:19:19.400.08-Nov-2020 3568.06 3289.75 69.96 2.00 246.40 2028.53
   12:19:19.600.08-Nov-2020 3568.06 3289.74 69.95 2.00 246.60 2028.53
   12:19:19.800.08-Nov-2020 3568.06 3289.75 69.95 2.00 246.80 2028.53
   12:19:20.000.08-Nov-2020 3568.06 3289.73 69.95 2.00 247.00 2028.53
   12:19:20.200.08-Nov-2020 3568.06 3289.73 69.95 2.00 247.20 2028.53
   12:19:20.400.08-Nov-2020 3568.06 3289.73 69.95 2.00 247.40 2028.53
   12:19:20.600.08-Nov-2020 3568.06 3289.73 69.95 2.00 247.60 2028.53
   12:19:20.800.08-Nov-2020 3568.06 3289.73 69.95 2.00 247.80 2028.53
   12:19:21.000.08-Nov-2020 3568.06 3289.69 69.95 2.00 248.00 2028.53
   12:19:21.200.08-Nov-2020 3568.06 3289.69 69.95 2.00 248.20 2028.53
   12:19:21.400.08-Nov-2020 3568.06 3289.77 69.95 2.00 248.40 2028.53
   12:19:21.600.08-Nov-2020 3568.06 3289.75 69.95 2.00 248.60 2028.53
   12:19:21.800.08-Nov-2020 3568.06 3289.76 69.95 2.00 248.80 2028.53
   12:19:22.000.08-Nov-2020 3568.06 3289.74 69.94 2.00 249.00 2028.53
   12:19:22.200.08-Nov-2020 3568.06 3289.74 69.94 2.00 249.20 2028.53
   12:19:22.400.08-Nov-2020 3568.06 3289.73 69.94 2.00 249.40 2028.53
   12:19:22.600.08-Nov-2020 3568.06 3289.73 69.94 2.00 249.60 2028.53
   12:19:22.800.08-Nov-2020 3568.06 3289.72 69.94 2.00 249.80 2028.53
   12:19:23.000.08-Nov-2020 3568.06 3289.72 69.94 2.00 250.00 2028.53
   12:19:23.200.08-Nov-2020 3568.06 3289.72 69.94 2.00 250.20 2028.53
   12:19:23.400.08-Nov-2020 3568.06 3289.66 69.94 2.00 250.40 2028.53
   12:19:23.600.08-Nov-2020 3568.06 3289.76 69.94 2.00 250.60 2028.53
   12:19:23.800.08-Nov-2020 3568.06 3289.76 69.94 2.00 250.80 2028.53
   12:19:24.000.08-Nov-2020 3568.06 3289.72 69.94 2.00 251.00 2028.53
   12:19:24.200.08-Nov-2020 3568.06 3289.72 69.94 2.00 251.20 2028.53
   12:19:24.400.08-Nov-2020 3568.06 3289.76 69.93 2.00 251.40 2028.53
   12:19:24.600.08-Nov-2020 3568.06 3289.77 69.93 2.00 251.60 2028.53
   12:19:24.800.08-Nov-2020 3568.06 3289.78 69.93 2.00 251.80 2028.53
   12:19:25.000.08-Nov-2020 3568.06 3289.70 69.93 2.00 252.00 2028.53
   12:19:25.200.08-Nov-2020 3568.06 3289.70 69.93 2.00 252.20 2028.53
   12:19:25.400.08-Nov-2020 3568.06 3289.77 69.93 2.00 252.40 2028.53
   12:19:25.600.08-Nov-2020 3568.06 3289.77 69.93 2.00 252.60 2028.53
   12:19:25.800.08-Nov-2020 3568.06 3289.77 69.93 2.00 252.80 2028.53
