~Version Information
 VERS.                  2.0:   CWLS log ASCII Standard -VERSION 2.0
 WRAP.                   NO:   One line per depth step
~Well Information Block
#MNEM.UNIT     VALUE/NAME     DESCRIPTION
#---------     -----------    ---------------------------
 STRT.S             09:21:26 08-Nov-20: START TIME 09:21:26 08-Nov-20
 STOP.S             09:27:58 08-Nov-20: STOP TIME  09:27:58 08-Nov-20
 STEP.S                   0.00: STEP TIME
 NULL.                 -999.25: NULL VALUE
 DFWT.                        :  DIST FWL TEXT
 DFST.                        :  DIST FSL TEXT
 DMF .             Drill Floor:  DRILL MEAS FROM
 STIM.      04.54.24 22-Sep-20:  START TIME
 DATE.      04.54.24 21-Nov-20:  END TIME
 SPUD.               21-Nov-20:  SPUD DATE
 NREF.                    Grid:  NORTH REFERENCE
 HPTY.       Minimum Curvature:  HOLE POS TYPE
 DMOD.             Drill Model:  DRILL MOD DESC
 SVYD.                  Survey:  SURVEY DESC
 ILTD.               Lithology:  INTERP LTH DESC
 FTOP.          Formation Tops:  FORM TOPS DESC
 SON .        AZ-XX-0906571587:  JOB NUMBER
 COMP.     BP Exploration (Caspian Sea) Ltd:  COMPANY
 UWI .                     N/A:  UNIQUE WELL IDENTIFIER
 API .                     N/A:  API NUMBER
 BASE.              Azerbaijan:  LOGGING EQUIPMENT BASE LOCATION
 REGN.                   EESSA:  REGION
 PROV.                    Baku:  PROVINCE
 STAT.                    Baku:  STATE NAME
 CTRY.              Azerbaijan:  COUNTRY NAME
 FLD .                     ACG:  FIELD NAME
 SRVC.     TURAN Drilling & Engineering:  CONTRACTOR
 WELL.                     J27:  WELL NAME
 RIG .             West Chirag:  RIG NAME
 DOE .                     N/A:  DOE NUMBER
 DCON.         Sperry Drilling:  DIRECTNL CONTR
 PDAT.          Mean Sea Level:  PERMANENT DATUM
 WTYP.                Deviated:  WELL TYPE
 MWDS.                    Baku:  MWD SHOP
 JOBN.        AZ-XX-0906571587:  JOB TICKET NUMB
 UNIT.                     N/A:  LOGGING EQUIPMENT ID
 MDS .        Operator Entered:  MAG DATA SOURCE
 CNTY.                        :  COUNTY
 LOC .                        :  LOCATION
 LMF .             Drill Floor:  LOG MEASURED FROM
 TVDS.m                  43.00:  TVDSS CORRECTN
 LATI.deg                40.13:  LATITUDE
 LONG.deg                51.22:  LONGITUDE
 WHNS.m                   7.72:  WELL HEAD N/S
 WHEW.m                 -14.24:  WELL HEAD E/W
 UTMX.m              519005.06:  UTM X
 UTMY.m             4443793.85:  UTM Y
 DFWL.m                   0.00:  DISTANCE FWL
 DFSL.m                   0.00:  DISTANCE FSL
 SDEP.m                 347.00:  START DEPTH
 TDD .m                 581.00:  TOTAL DEPTH (DRILLER)
 VSDR.deg               159.72:  VERT SEC DIRECT
 GVFD.g                   1.00:  GRAVITY FIELD
 MFLD.nT              50313.00:  MAGNETIC FIELD
 MDIP.deg                59.58:  MAGNETIC DIP
 MDEC.deg                 6.45:  MAGNETIC DECL
 GRDC.deg                 0.15:  GRID CORRECTION
 AZTC.deg                 6.30:  AZM TOTAL CORR
 EPD .m                   0.00:  ELEVATION
 EGL .m                   0.00:  GROUND ELEVATION
 WDMS.m                 169.80:  WD ELEV
 APD .m                  43.00:  DEPTH ABOVE PD
 AGAP.m                  43.00:  AIR GAP
 VSEW.m                 -14.24:  VERT SEC E/W
 VSNS.m                   7.72:  VERT SEC N/S
 DEP .m                 342.45:  DEPTH
 EKB .m                   0.00:  KB ELEVATION
 EDF .m                  43.00:  DF ELEVATION
 TDL .m                1313.00:  TOTAL DEPTH (LOGGER)
 VSC .                       0:  VS TO CLOSURE
 MAGU.                 1851396:  MAGUTM CHECKSUM
~Parameter Information Block
#MNEM.UNIT       Value        Description
#---------     -----------    ---------------------------
 AV  .mps                 0.65:  Ann Velocity 
 AVMX.mps                 0.75:  Max Ann Veloc 
 AZIF.deg               115.08:  Azm, Final 
 BHAT.        Rotary Steerable:  BHA Type 
 BROT.°/30m               1.50:  Build Rotating 
 BS  .in                 12.25:  Bit Size 
 BSZ .in                 12.25:  Bit Size 
 BTPL.psig              700.00:  Bit Press Loss 
 CABU.                     Yes:  Customer Abuse 
 COMM.                     <
V:  Run Comments 1 
 TCS .hr                121.00:  Time Ciculation Ended 
 CV  .mps                 1.83:  Crit Velocity 
 CVMX.mps                 1.83:  Max Crit Veloc 
 DD1 .          Rashad Habibov:  Direct Drillr 1 
 DD2 .         Rasim Ibrahimov:  Direct Drillr 2 
 DDSV.                 iCruise:  DD Service 
 DEFF.%                 100.00:  % Det Eff 
 DLRX.°/30m               3.60:  Dogleg Rot Max 
 DLSO.°/30m               3.10:  Dogleg Oriented 
 DLSX.°/30m               3.60:  Dogleg Str Max 
 DRET.      13.41.20 12-Nov-20:  Drill End Time 
 DRST.      13.41.20 07-Nov-20:  Drill Start Tim 
 DTIM.hr                 54.16:  Time Drilling 
 EDEP.m                4762.01:  End Depth 
 ENG1.           Amrah Tahirov:  Engineer 1 
 ENG2.      Bakhtiyar Jabbarli:  Engineer 2 
 ENG3.          Ruslan Safarov:  Engineer 3 
 ETIM.      13.41.20 14-Nov-20:  End Time 
 FLOI.gpm              1200.00:  Flow In 
 FLON.gpm              1100.00:  Flow In Min 
 FLOS.cptm                0.00:  Fluid Loss 
 FLOX.gpm              1200.00:  Flow In Max 
 HFLO.                      No:  High Flow 
 HPRE.                      No:  High Pressure 
 HTEM.                      No:  High Temp 
 HYDO.m                   2.00:  Hydro Offset 
 IFIN.deg                66.14:  Inc, Final 
 IMAX.deg                69.03:  Inc Max 
 IMIN.deg                64.64:  Inc Min 
 IMND.m                4450.16:  Inc Min Depth 
 IMXD.m                3996.00:  Inc Max Depth 
 JARR.                     Yes:  Jarring 
 LETM.      13.41.20 14-Nov-20:  Log End Time 
 LOST.hr                     0:  Lost Rig Time 
 LSTM.      13.41.20 06-Nov-20:  Log Start Time 
 MDCL.ppm             42500.00:  Mud Chlorides 
 MDES.     Inversion Oil/Synthetic:  Mud Desc 
 DFD .sg                  1.45:  Mud Density 
 MDMN.sg                  1.45:  Dens Mud Min 
 MDMX.sg                  1.45:  Dens Mud Max 
 MOIL.                      70:  Run Mud Oil % 
 MOWR.                   70:30:  Run Mud OWR 
 MSND.                       0:  Run Mud Sand % 
 MSOL.                    19.3:  Run Mud Solids% 
 DFV .spqt               77.00:  Mud Viscosity 
 MWOD.in                  8.00:  MWD Tool OD 
 MWSI.                      No:  Serv Intrp, MWD 
 OTIM.hr                201.88:  Time Operating 
 PCON.           Look Like New:  Pad Condition 
 PMAX.psia             9250.94:  Press Op, Max 
 PV  .cP                 29.00:  Mud PV 
 RUN .                     800:  Run Number 
 ROPA.m/hr               28.00:  ROP Avg 
 ROPN.m/hr               25.00:  ROP Min 
 ROPX.m/hr               30.00:  ROP Max 
 RPMA.rpm               160.00:  RPM Surface Avg 
 RPMN.rpm               160.00:  RPM Surface Min 
 RPMX.rpm               160.00:  RPM Surface Max 
 RRUN.                    0800:  Rig Run Number 
 RTIM.hr                 12.00:  Time Reaming 
 SAZI.deg               169.33:  Azm, Start 
 SDEP.m                3449.01:  Start Depth 
 SIDD.                      No:  Serv Intrp, DD 
 SINC.deg                68.01:  Inc, Start 
 SPPA.psig             4900.00:  SPP Avg 
 SPPN.psig             4800.00:  SPP Min 
 SPPX.psig             5050.00:  SPP Max 
 STIM.      13.41.20 06-Nov-20:  Start Time 
 SVCS.                 DD, MWD:  Services 
 SVER.                    9.20:  Sperry Version 
 TDAT.m                4762.01:  Tot Depth Attmp 
 TDDF.                      No:  Trip for DD 
 TDLG.m                1313.00:  Tot Depth Loggd 
 TFF .                      No:  Trip for Fail 
 TQAA.f-kp               13.00:  Torque Abs Avg 
 TQAN.f-kp               13.00:  Torque Abs Min 
 TQAX.f-kp               13.00:  Torque Abs Max 
 TRRT.°/30m               1.70:  Turn Rotating 
 MRT .                  EWR-M5:  Maximum Recorded Temperature 
 TTMX.degC               86.00:  Max Tool Temp 
 VS01.                90622122:  Virtual Str1 SN 
 VS02.                90577298:  Virtual Str2 SN 
 VS03.                90563623:  Virtual Str3 SN 
 VS04.                90617559:  Virtual Str4 SN 
 VS05.                11339492:  Virtual Str5 SN 
 VS06.                12385033:  Virtual Str6 SN 
 WBMN.klb                 0.00:  WOB Min 
 WOBA.klb                22.00:  WOB Avg 
 WOBX.klb                26.00:  WOB Max 
 YP  .lhf2               30.00:  Yield Point 
~Curve Information Block
#MNEM.UNIT                 API CODE     Curve Description
#---------               -----------    ---------------------------
 TIME.HHMMSS            00 000 000 000:  GT Time & Date
 GTDEPTH.m              00 000 000 000:  GT Depth
 GTPQH.psia             00 000 000 000:  GT HR Quartz Pressure
 GTTQ.degC              00 000 000 000:  GT Quartz Temperature
 GTTN.NONE              00 000 000 000:  GT Test Number
 GTET.sec               00 000 000 000:  GT Elapsed Test Time
 GTTVD.m                00 000 000 000:  GT True Vertical Depth
#Other Information
#
#WARRANTY: Halliburton will use its best efforts to furnish customers with 
#accurate information and interpretations that are part of, and incident to, the services 
#provided.  However, Halliburton cannot and does not warrant the accuracy 
#or correctness of such information and interpretations.  Under no circumstances should any 
#such information or interpretation be relied upon as the sole basis for any drilling, 
#completion, production, or financial decision or any procedure involving any risk to the 
#safety of any drilling venture, drilling rig or its crew or any other third party.  The 
#Customer has full responsibility for all drilling, completion and production operation.  
#Halliburton makes no representations or warranties, either expressed or 
#implied, including, but not limited to, the implied warranties of merchantability or fitness 
#for a particular purpose, with respect to the services rendered.  In no event will 
#Halliburton be liable for failure to obtain any particular results or for 
#any damages, including, but not limited to, indirect, special or consequential damages, 
#resulting from the use of any information or interpretation provided by Halliburton.
#
~A           TIME           GTDEPTH  GTPQH  GTTQ  GTTN  GTET   GTTVD  
# ...
   09:24:07.205.08-Nov-2020 3525.51 3321.92 70.21 1.00 161.03 2012.77
   09:24:07.405.08-Nov-2020 3525.51 3321.92 70.21 1.00 161.23 2012.77
   09:24:07.605.08-Nov-2020 3525.51 3323.27 70.21 1.00 161.43 2012.77
   09:24:07.805.08-Nov-2020 3525.51 3323.27 70.21 1.00 161.63 2012.77
   09:24:08.005.08-Nov-2020 3525.51 3323.28 70.21 1.00 161.83 2012.77
   09:24:08.205.08-Nov-2020 3525.51 3323.28 70.20 1.00 162.03 2012.77
   09:24:08.405.08-Nov-2020 3525.51 3323.28 70.20 1.00 162.23 2012.77
   09:24:08.605.08-Nov-2020 3525.51 3323.25 70.20 1.00 162.43 2012.77
   09:24:08.805.08-Nov-2020 3525.51 3323.36 70.20 1.00 162.63 2012.77
   09:24:09.005.08-Nov-2020 3525.51 3323.30 70.20 1.00 162.83 2012.77
   09:24:09.205.08-Nov-2020 3525.51 3323.29 70.20 1.00 163.03 2012.77
   09:24:09.405.08-Nov-2020 3525.51 3323.29 70.20 1.00 163.23 2012.77
   09:24:09.605.08-Nov-2020 3525.51 3323.31 70.20 1.00 163.43 2012.77
   09:24:09.805.08-Nov-2020 3525.51 3323.30 70.20 1.00 163.63 2012.77
   09:24:10.005.08-Nov-2020 3525.51 3323.31 70.20 1.00 163.83 2012.77
   09:24:10.205.08-Nov-2020 3525.51 3323.27 70.20 1.00 164.03 2012.77
   09:24:10.405.08-Nov-2020 3525.51 3323.27 70.20 1.00 164.23 2012.77
   09:24:10.605.08-Nov-2020 3525.51 3323.31 70.20 1.00 164.43 2012.77
   09:24:10.805.08-Nov-2020 3525.51 3323.31 70.20 1.00 164.63 2012.77
   09:24:11.005.08-Nov-2020 3525.51 3323.32 70.20 1.00 164.83 2012.77
   09:24:11.205.08-Nov-2020 3525.51 3323.31 70.20 1.00 165.03 2012.77
   09:24:11.406.08-Nov-2020 3525.51 3323.31 70.20 1.00 165.23 2012.77
   09:24:11.606.08-Nov-2020 3525.51 3323.32 70.20 1.00 165.43 2012.77
   09:24:11.806.08-Nov-2020 3525.51 3323.32 70.20 1.00 165.63 2012.77
   09:24:12.006.08-Nov-2020 3525.51 3323.32 70.20 1.00 165.83 2012.77
   09:24:12.206.08-Nov-2020 3525.51 3323.32 70.20 1.00 166.03 2012.77
   09:24:12.406.08-Nov-2020 3525.51 3323.32 70.20 1.00 166.23 2012.77
   09:24:12.606.08-Nov-2020 3525.51 3323.32 70.20 1.00 166.43 2012.77
   09:24:12.806.08-Nov-2020 3525.51 3323.32 70.20 1.00 166.63 2012.77
   09:24:13.006.08-Nov-2020 3525.51 3323.32 70.20 1.00 166.83 2012.77
   09:24:13.206.08-Nov-2020 3525.51 3323.32 70.19 1.00 167.03 2012.77
   09:24:13.406.08-Nov-2020 3525.51 3323.32 70.19 1.00 167.23 2012.77
   09:24:13.606.08-Nov-2020 3525.51 3323.31 70.19 1.00 167.43 2012.77
   09:24:13.806.08-Nov-2020 3525.51 3323.32 70.19 1.00 167.63 2012.77
   09:24:14.006.08-Nov-2020 3525.51 3323.31 70.19 1.00 167.83 2012.77
   09:24:14.206.08-Nov-2020 3525.51 3323.31 70.19 1.00 168.03 2012.77
   09:24:14.406.08-Nov-2020 3525.51 3323.31 70.19 1.00 168.23 2012.77
   09:24:14.606.08-Nov-2020 3525.51 3323.30 70.19 1.00 168.43 2012.77
   09:24:14.806.08-Nov-2020 3525.51 3323.32 70.19 1.00 168.63 2012.77
   09:24:15.006.08-Nov-2020 3525.51 3323.31 70.19 1.00 168.83 2012.77
   09:24:15.206.08-Nov-2020 3525.51 3323.28 70.19 1.00 169.03 2012.77
   09:24:15.406.08-Nov-2020 3525.51 3323.28 70.19 1.00 169.23 2012.77
   09:24:15.606.08-Nov-2020 3525.51 3323.32 70.19 1.00 169.43 2012.77
   09:24:15.806.08-Nov-2020 3525.51 3323.32 70.19 1.00 169.63 2012.77
   09:24:16.006.08-Nov-2020 3525.51 3323.32 70.19 1.00 169.83 2012.77
   09:24:16.206.08-Nov-2020 3525.51 3323.31 70.19 1.00 170.03 2012.77
   09:24:16.406.08-Nov-2020 3525.51 3323.31 70.19 1.00 170.23 2012.77
   09:24:16.606.08-Nov-2020 3525.51 3323.31 70.19 1.00 170.43 2012.77
   09:24:16.806.08-Nov-2020 3525.51 3323.31 70.19 1.00 170.63 2012.77
   09:24:17.006.08-Nov-2020 3525.51 3323.32 70.19 1.00 170.83 2012.77
   09:24:17.207.08-Nov-2020 3525.51 3323.32 70.19 1.00 171.03 2012.77
   09:24:17.407.08-Nov-2020 3525.51 3323.32 70.19 1.00 171.23 2012.77
   09:24:17.607.08-Nov-2020 3525.51 3323.28 70.19 1.00 171.43 2012.77
   09:24:17.807.08-Nov-2020 3525.51 3323.34 70.19 1.00 171.63 2012.77
   09:24:18.007.08-Nov-2020 3525.51 3323.33 70.19 1.00 171.83 2012.77
   09:24:18.207.08-Nov-2020 3525.51 3323.28 70.18 1.00 172.03 2012.77
   09:24:18.407.08-Nov-2020 3525.51 3323.28 70.18 1.00 172.23 2012.77
   09:24:18.607.08-Nov-2020 3525.51 3323.34 70.18 1.00 172.43 2012.77
   09:24:18.807.08-Nov-2020 3525.51 3323.33 70.18 1.00 172.63 2012.77
   09:24:19.007.08-Nov-2020 3525.51 3323.35 70.18 1.00 172.83 2012.77
   09:24:19.207.08-Nov-2020 3525.51 3323.32 70.18 1.00 173.03 2012.77
   09:24:19.407.08-Nov-2020 3525.51 3323.32 70.18 1.00 173.23 2012.77
   09:24:19.607.08-Nov-2020 3525.51 3323.35 70.18 1.00 173.43 2012.77
   09:24:19.807.08-Nov-2020 3525.51 3323.34 70.18 1.00 173.63 2012.77
   09:24:20.007.08-Nov-2020 3525.51 3323.34 70.18 1.00 173.83 2012.77
   09:24:20.207.08-Nov-2020 3525.51 3323.33 70.18 1.00 174.03 2012.77
   09:24:20.407.08-Nov-2020 3525.51 3323.33 70.18 1.00 174.23 2012.77
   09:24:20.607.08-Nov-2020 3525.51 3323.35 70.18 1.00 174.43 2012.77
   09:24:20.807.08-Nov-2020 3525.51 3323.34 70.18 1.00 174.63 2012.77
   09:24:21.007.08-Nov-2020 3525.51 3323.33 70.18 1.00 174.83 2012.77
   09:24:21.207.08-Nov-2020 3525.51 3323.30 70.18 1.00 175.03 2012.77
   09:24:21.407.08-Nov-2020 3525.51 3323.30 70.18 1.00 175.23 2012.77
   09:24:21.607.08-Nov-2020 3525.51 3323.35 70.18 1.00 175.43 2012.77
   09:24:21.807.08-Nov-2020 3525.51 3323.33 70.18 1.00 175.63 2012.77
   09:24:22.007.08-Nov-2020 3525.51 3323.34 70.18 1.00 175.83 2012.77
   09:24:22.207.08-Nov-2020 3525.51 3323.33 70.18 1.00 176.03 2012.77
   09:24:22.407.08-Nov-2020 3525.51 3323.33 70.18 1.00 176.23 2012.77
   09:24:22.607.08-Nov-2020 3525.51 3323.32 70.18 1.00 176.43 2012.77
   09:24:22.807.08-Nov-2020 3525.51 3323.33 70.18 1.00 176.63 2012.77
   09:24:23.007.08-Nov-2020 3525.51 3323.33 70.18 1.00 176.83 2012.77
   09:24:23.208.08-Nov-2020 3525.51 3323.32 70.17 1.00 177.03 2012.77
   09:24:23.408.08-Nov-2020 3525.51 3323.32 70.17 1.00 177.23 2012.77
   09:24:23.608.08-Nov-2020 3525.51 3323.32 70.17 1.00 177.43 2012.77
   09:24:23.808.08-Nov-2020 3525.51 3323.31 70.17 1.00 177.63 2012.77
   09:24:24.008.08-Nov-2020 3525.51 3323.28 70.17 1.00 177.83 2012.77
   09:24:24.208.08-Nov-2020 3525.51 3323.34 70.17 1.00 178.03 2012.77
   09:24:24.408.08-Nov-2020 3525.51 3323.34 70.17 1.00 178.23 2012.77
   09:24:24.608.08-Nov-2020 3525.51 3323.33 70.17 1.00 178.43 2012.77
   09:24:24.808.08-Nov-2020 3525.51 3323.33 70.17 1.00 178.63 2012.77
   09:24:25.008.08-Nov-2020 3525.51 3323.32 70.17 1.00 178.83 2012.77
   09:24:25.208.08-Nov-2020 3525.51 3323.33 70.17 1.00 179.03 2012.77
   09:24:25.408.08-Nov-2020 3525.51 3323.33 70.17 1.00 179.23 2012.77
   09:24:25.608.08-Nov-2020 3525.51 3323.32 70.17 1.00 179.43 2012.77
   09:24:25.808.08-Nov-2020 3525.51 3323.32 70.17 1.00 179.63 2012.77
   09:24:26.008.08-Nov-2020 3525.51 3323.32 70.17 1.00 179.83 2012.77
   09:24:26.208.08-Nov-2020 3525.51 3323.32 70.17 1.00 180.03 2012.77
   09:24:26.408.08-Nov-2020 3525.51 3323.32 70.17 1.00 180.23 2012.77
   09:24:26.608.08-Nov-2020 3525.51 3323.29 70.17 1.00 180.43 2012.77
   09:24:26.808.08-Nov-2020 3525.51 3323.34 70.17 1.00 180.63 2012.77
   09:24:27.008.08-Nov-2020 3525.51 3323.34 70.17 1.00 180.83 2012.77
   09:24:27.208.08-Nov-2020 3525.51 3323.30 70.17 1.00 181.03 2012.77
   09:24:27.408.08-Nov-2020 3525.51 3323.30 70.17 1.00 181.23 2012.77
   09:24:27.608.08-Nov-2020 3525.51 3323.34 70.17 1.00 181.43 2012.77
   09:24:27.808.08-Nov-2020 3525.51 3323.33 70.17 1.00 181.63 2012.77
   09:24:28.008.08-Nov-2020 3525.51 3323.34 70.16 1.00 181.83 2012.77
   09:24:28.208.08-Nov-2020 3525.51 3323.28 70.16 1.00 182.03 2012.77
   09:24:28.408.08-Nov-2020 3525.51 3323.28 70.16 1.00 182.23 2012.77
   09:24:28.608.08-Nov-2020 3525.51 3323.37 70.16 1.00 182.43 2012.77
   09:24:28.808.08-Nov-2020 3525.51 3323.35 70.16 1.00 182.63 2012.77
   09:24:29.009.08-Nov-2020 3525.51 3323.34 70.16 1.00 182.83 2012.77
   09:24:29.209.08-Nov-2020 3525.51 3323.33 70.16 1.00 183.03 2012.77
   09:24:29.409.08-Nov-2020 3525.51 3323.33 70.16 1.00 183.23 2012.77
   09:24:29.609.08-Nov-2020 3525.51 3323.36 70.16 1.00 183.43 2012.77
   09:24:29.809.08-Nov-2020 3525.51 3323.34 70.16 1.00 183.63 2012.77
   09:24:30.009.08-Nov-2020 3525.51 3323.34 70.16 1.00 183.83 2012.77
