~Version Information
 VERS.                  2.0:   CWLS log ASCII Standard -VERSION 2.0
 WRAP.                   NO:   One line per depth step
~Well Information Block
#MNEM.UNIT     VALUE/NAME     DESCRIPTION
#---------     -----------    ---------------------------
 STRT.S             13:56:13 08-Nov-20: START TIME 13:56:13 08-Nov-20
 STOP.S             14:02:43 08-Nov-20: STOP TIME  14:02:43 08-Nov-20
 STEP.S                   0.00: STEP TIME
 NULL.                 -999.25: NULL VALUE
 DFWT.                        :  DIST FWL TEXT
 DFST.                        :  DIST FSL TEXT
 DMF .             Drill Floor:  DRILL MEAS FROM
 STIM.      04.54.24 22-Sep-20:  START TIME
 DATE.      04.54.24 21-Nov-20:  END TIME
 SPUD.               21-Nov-20:  SPUD DATE
 NREF.                    Grid:  NORTH REFERENCE
 HPTY.       Minimum Curvature:  HOLE POS TYPE
 DMOD.             Drill Model:  DRILL MOD DESC
 SVYD.                  Survey:  SURVEY DESC
 ILTD.               Lithology:  INTERP LTH DESC
 FTOP.          Formation Tops:  FORM TOPS DESC
 SON .        AZ-XX-0906571587:  JOB NUMBER
 COMP.     BP Exploration (Caspian Sea) Ltd:  COMPANY
 UWI .                     N/A:  UNIQUE WELL IDENTIFIER
 API .                     N/A:  API NUMBER
 BASE.              Azerbaijan:  LOGGING EQUIPMENT BASE LOCATION
 REGN.                   EESSA:  REGION
 PROV.                    Baku:  PROVINCE
 STAT.                    Baku:  STATE NAME
 CTRY.              Azerbaijan:  COUNTRY NAME
 FLD .                     ACG:  FIELD NAME
 SRVC.     TURAN Drilling & Engineering:  CONTRACTOR
 WELL.                     J27:  WELL NAME
 RIG .             West Chirag:  RIG NAME
 DOE .                     N/A:  DOE NUMBER
 DCON.         Sperry Drilling:  DIRECTNL CONTR
 PDAT.          Mean Sea Level:  PERMANENT DATUM
 WTYP.                Deviated:  WELL TYPE
 MWDS.                    Baku:  MWD SHOP
 JOBN.        AZ-XX-0906571587:  JOB TICKET NUMB
 UNIT.                     N/A:  LOGGING EQUIPMENT ID
 MDS .        Operator Entered:  MAG DATA SOURCE
 CNTY.                        :  COUNTY
 LOC .                        :  LOCATION
 LMF .             Drill Floor:  LOG MEASURED FROM
 TVDS.m                  43.00:  TVDSS CORRECTN
 LATI.deg                40.13:  LATITUDE
 LONG.deg                51.22:  LONGITUDE
 WHNS.m                   7.72:  WELL HEAD N/S
 WHEW.m                 -14.24:  WELL HEAD E/W
 UTMX.m              519005.06:  UTM X
 UTMY.m             4443793.85:  UTM Y
 DFWL.m                   0.00:  DISTANCE FWL
 DFSL.m                   0.00:  DISTANCE FSL
 SDEP.m                 347.00:  START DEPTH
 TDD .m                 581.00:  TOTAL DEPTH (DRILLER)
 VSDR.deg               159.72:  VERT SEC DIRECT
 GVFD.g                   1.00:  GRAVITY FIELD
 MFLD.nT              50313.00:  MAGNETIC FIELD
 MDIP.deg                59.58:  MAGNETIC DIP
 MDEC.deg                 6.45:  MAGNETIC DECL
 GRDC.deg                 0.15:  GRID CORRECTION
 AZTC.deg                 6.30:  AZM TOTAL CORR
 EPD .m                   0.00:  ELEVATION
 EGL .m                   0.00:  GROUND ELEVATION
 WDMS.m                 169.80:  WD ELEV
 APD .m                  43.00:  DEPTH ABOVE PD
 AGAP.m                  43.00:  AIR GAP
 VSEW.m                 -14.24:  VERT SEC E/W
 VSNS.m                   7.72:  VERT SEC N/S
 DEP .m                 342.45:  DEPTH
 EKB .m                   0.00:  KB ELEVATION
 EDF .m                  43.00:  DF ELEVATION
 TDL .m                1313.00:  TOTAL DEPTH (LOGGER)
 VSC .                       0:  VS TO CLOSURE
 MAGU.                 1851396:  MAGUTM CHECKSUM
~Parameter Information Block
#MNEM.UNIT       Value        Description
#---------     -----------    ---------------------------
 AV  .mps                 0.65:  Ann Velocity 
 AVMX.mps                 0.75:  Max Ann Veloc 
 AZIF.deg               115.08:  Azm, Final 
 BHAT.        Rotary Steerable:  BHA Type 
 BROT.°/30m               1.50:  Build Rotating 
 BS  .in                 12.25:  Bit Size 
 BSZ .in                 12.25:  Bit Size 
 BTPL.psig              700.00:  Bit Press Loss 
 CABU.                     Yes:  Customer Abuse 
 COMM.                     ì¹^:  Run Comments 1 
 TCS .hr                121.00:  Time Ciculation Ended 
 CV  .mps                 1.83:  Crit Velocity 
 CVMX.mps                 1.83:  Max Crit Veloc 
 DD1 .          Rashad Habibov:  Direct Drillr 1 
 DD2 .         Rasim Ibrahimov:  Direct Drillr 2 
 DDSV.                 iCruise:  DD Service 
 DEFF.%                 100.00:  % Det Eff 
 DLRX.°/30m               3.60:  Dogleg Rot Max 
 DLSO.°/30m               3.10:  Dogleg Oriented 
 DLSX.°/30m               3.60:  Dogleg Str Max 
 DRET.      13.41.20 12-Nov-20:  Drill End Time 
 DRST.      13.41.20 07-Nov-20:  Drill Start Tim 
 DTIM.hr                 54.16:  Time Drilling 
 EDEP.m                4762.01:  End Depth 
 ENG1.           Amrah Tahirov:  Engineer 1 
 ENG2.      Bakhtiyar Jabbarli:  Engineer 2 
 ENG3.          Ruslan Safarov:  Engineer 3 
 ETIM.      13.41.20 14-Nov-20:  End Time 
 FLOI.gpm              1200.00:  Flow In 
 FLON.gpm              1100.00:  Flow In Min 
 FLOS.cptm                0.00:  Fluid Loss 
 FLOX.gpm              1200.00:  Flow In Max 
 HFLO.                      No:  High Flow 
 HPRE.                      No:  High Pressure 
 HTEM.                      No:  High Temp 
 HYDO.m                   2.00:  Hydro Offset 
 IFIN.deg                66.14:  Inc, Final 
 IMAX.deg                69.03:  Inc Max 
 IMIN.deg                64.64:  Inc Min 
 IMND.m                4450.16:  Inc Min Depth 
 IMXD.m                3996.00:  Inc Max Depth 
 JARR.                     Yes:  Jarring 
 LETM.      13.41.20 14-Nov-20:  Log End Time 
 LOST.hr                     0:  Lost Rig Time 
 LSTM.      13.41.20 06-Nov-20:  Log Start Time 
 MDCL.ppm             42500.00:  Mud Chlorides 
 MDES.     Inversion Oil/Synthetic:  Mud Desc 
 DFD .sg                  1.45:  Mud Density 
 MDMN.sg                  1.45:  Dens Mud Min 
 MDMX.sg                  1.45:  Dens Mud Max 
 MOIL.                      70:  Run Mud Oil % 
 MOWR.                   70:30:  Run Mud OWR 
 MSND.                       0:  Run Mud Sand % 
 MSOL.                    19.3:  Run Mud Solids% 
 DFV .spqt               77.00:  Mud Viscosity 
 MWOD.in                  8.00:  MWD Tool OD 
 MWSI.                      No:  Serv Intrp, MWD 
 OTIM.hr                201.88:  Time Operating 
 PCON.           Look Like New:  Pad Condition 
 PMAX.psia             9250.94:  Press Op, Max 
 PV  .cP                 29.00:  Mud PV 
 RUN .                     800:  Run Number 
 ROPA.m/hr               28.00:  ROP Avg 
 ROPN.m/hr               25.00:  ROP Min 
 ROPX.m/hr               30.00:  ROP Max 
 RPMA.rpm               160.00:  RPM Surface Avg 
 RPMN.rpm               160.00:  RPM Surface Min 
 RPMX.rpm               160.00:  RPM Surface Max 
 RRUN.                    0800:  Rig Run Number 
 RTIM.hr                 12.00:  Time Reaming 
 SAZI.deg               169.33:  Azm, Start 
 SDEP.m                3449.01:  Start Depth 
 SIDD.                      No:  Serv Intrp, DD 
 SINC.deg                68.01:  Inc, Start 
 SPPA.psig             4900.00:  SPP Avg 
 SPPN.psig             4800.00:  SPP Min 
 SPPX.psig             5050.00:  SPP Max 
 STIM.      13.41.20 06-Nov-20:  Start Time 
 SVCS.                 DD, MWD:  Services 
 SVER.                    9.20:  Sperry Version 
 TDAT.m                4762.01:  Tot Depth Attmp 
 TDDF.                      No:  Trip for DD 
 TDLG.m                1313.00:  Tot Depth Loggd 
 TFF .                      No:  Trip for Fail 
 TQAA.f-kp               13.00:  Torque Abs Avg 
 TQAN.f-kp               13.00:  Torque Abs Min 
 TQAX.f-kp               13.00:  Torque Abs Max 
 TRRT.°/30m               1.70:  Turn Rotating 
 MRT .                  EWR-M5:  Maximum Recorded Temperature 
 TTMX.degC               86.00:  Max Tool Temp 
 VS01.                90622122:  Virtual Str1 SN 
 VS02.                90577298:  Virtual Str2 SN 
 VS03.                90563623:  Virtual Str3 SN 
 VS04.                90617559:  Virtual Str4 SN 
 VS05.                11339492:  Virtual Str5 SN 
 VS06.                12385033:  Virtual Str6 SN 
 WBMN.klb                 0.00:  WOB Min 
 WOBA.klb                22.00:  WOB Avg 
 WOBX.klb                26.00:  WOB Max 
 YP  .lhf2               30.00:  Yield Point 
~Curve Information Block
#MNEM.UNIT                 API CODE     Curve Description
#---------               -----------    ---------------------------
 TIME.HHMMSS            00 000 000 000:  GT Time & Date
 GTDEPTH.m              00 000 000 000:  GT Depth
 GTPQH.psia             00 000 000 000:  GT HR Quartz Pressure
 GTTQ.degC              00 000 000 000:  GT Quartz Temperature
 GTTN.NONE              00 000 000 000:  GT Test Number
 GTET.sec               00 000 000 000:  GT Elapsed Test Time
 GTTVD.m                00 000 000 000:  GT True Vertical Depth
#Other Information
#
#WARRANTY: Halliburton will use its best efforts to furnish customers with 
#accurate information and interpretations that are part of, and incident to, the services 
#provided.  However, Halliburton cannot and does not warrant the accuracy 
#or correctness of such information and interpretations.  Under no circumstances should any 
#such information or interpretation be relied upon as the sole basis for any drilling, 
#completion, production, or financial decision or any procedure involving any risk to the 
#safety of any drilling venture, drilling rig or its crew or any other third party.  The 
#Customer has full responsibility for all drilling, completion and production operation.  
#Halliburton makes no representations or warranties, either expressed or 
#implied, including, but not limited to, the implied warranties of merchantability or fitness 
#for a particular purpose, with respect to the services rendered.  In no event will 
#Halliburton be liable for failure to obtain any particular results or for 
#any damages, including, but not limited to, indirect, special or consequential damages, 
#resulting from the use of any information or interpretation provided by Halliburton.
#
~A           TIME           GTDEPTH  GTPQH  GTTQ  GTTN  GTET   GTTVD  
# ...
   14:02:20.819.08-Nov-2020 3585.71 4351.07 70.23 3.00 367.65 2034.99
   14:02:21.019.08-Nov-2020 3585.71 4351.07 70.23 3.00 367.85 2034.99
   14:02:21.219.08-Nov-2020 3585.71 4347.04 70.22 3.00 368.05 2034.99
   14:02:21.418.08-Nov-2020 3585.71 4345.85 70.22 3.00 368.25 2034.99
   14:02:21.618.08-Nov-2020 3585.71 4346.22 70.22 3.00 368.45 2034.99
   14:02:21.818.08-Nov-2020 3585.71 4344.57 70.22 3.00 368.64 2034.99
   14:02:22.018.08-Nov-2020 3585.71 4344.57 70.22 3.00 368.84 2034.99
   14:02:22.218.08-Nov-2020 3585.71 4344.32 70.22 3.00 369.04 2034.99
   14:02:22.417.08-Nov-2020 3585.71 4344.13 70.22 3.00 369.24 2034.99
   14:02:22.617.08-Nov-2020 3585.71 4344.92 70.22 3.00 369.44 2034.99
   14:02:22.817.08-Nov-2020 3585.71 4345.30 70.22 3.00 369.64 2034.99
   14:02:23.017.08-Nov-2020 3585.71 4345.49 70.22 3.00 369.84 2034.99
   14:02:23.217.08-Nov-2020 3585.71 4351.48 70.22 3.00 370.04 2034.99
   14:02:23.417.08-Nov-2020 3585.71 4343.23 70.22 3.00 370.24 2034.99
   14:02:23.616.08-Nov-2020 3585.71 4347.00 70.22 3.00 370.44 2034.99
   14:02:23.816.08-Nov-2020 3585.71 4349.52 70.22 3.00 370.64 2034.99
   14:02:24.016.08-Nov-2020 3585.71 4349.52 70.22 3.00 370.84 2034.99
   14:02:24.216.08-Nov-2020 3585.71 4346.55 70.21 3.00 371.04 2034.99
   14:02:24.416.08-Nov-2020 3585.71 4345.04 70.21 3.00 371.24 2034.99
   14:02:24.615.08-Nov-2020 3585.71 4345.87 70.21 3.00 371.44 2034.99
   14:02:24.815.08-Nov-2020 3585.71 4350.15 70.21 3.00 371.64 2034.99
   14:02:25.015.08-Nov-2020 3585.71 4350.15 70.21 3.00 371.84 2034.99
   14:02:25.215.08-Nov-2020 3585.71 4344.98 70.21 3.00 372.04 2034.99
   14:02:25.415.08-Nov-2020 3585.71 4344.26 70.21 3.00 372.24 2034.99
   14:02:25.614.08-Nov-2020 3585.71 4345.46 70.21 3.00 372.44 2034.99
   14:02:25.814.08-Nov-2020 3585.71 4348.25 70.21 3.00 372.64 2034.99
   14:02:26.014.08-Nov-2020 3585.71 4347.00 70.21 3.00 372.84 2034.99
   14:02:26.214.08-Nov-2020 3585.71 4346.20 70.21 3.00 373.04 2034.99
   14:02:26.414.08-Nov-2020 3585.71 4345.30 70.21 3.00 373.24 2034.99
   14:02:26.613.08-Nov-2020 3585.71 4346.36 70.20 3.00 373.44 2034.99
   14:02:26.813.08-Nov-2020 3585.71 4349.05 70.20 3.00 373.64 2034.99
   14:02:27.013.08-Nov-2020 3585.71 4349.06 70.20 3.00 373.84 2034.99
   14:02:27.213.08-Nov-2020 3585.71 4346.85 70.20 3.00 374.04 2034.99
   14:02:27.413.08-Nov-2020 3585.71 4346.44 70.20 3.00 374.24 2034.99
   14:02:27.612.08-Nov-2020 3585.71 4347.63 70.20 3.00 374.44 2034.99
   14:02:27.812.08-Nov-2020 3585.71 4345.63 70.20 3.00 374.64 2034.99
   14:02:28.012.08-Nov-2020 3585.71 4345.63 70.20 3.00 374.84 2034.99
   14:02:28.212.08-Nov-2020 3585.71 4344.19 70.20 3.00 375.04 2034.99
   14:02:28.412.08-Nov-2020 3585.71 4344.43 70.20 3.00 375.24 2034.99
   14:02:28.611.08-Nov-2020 3585.71 4344.53 70.20 3.00 375.44 2034.99
   14:02:28.811.08-Nov-2020 3585.71 4345.02 70.19 3.00 375.64 2034.99
   14:02:29.011.08-Nov-2020 3585.71 4345.02 70.19 3.00 375.84 2034.99
   14:02:29.211.08-Nov-2020 3585.71 4345.35 70.19 3.00 376.04 2034.99
   14:02:29.411.08-Nov-2020 3585.71 4345.93 70.19 3.00 376.24 2034.99
   14:02:29.611.08-Nov-2020 3585.71 4351.08 70.19 3.00 376.44 2034.99
   14:02:29.810.08-Nov-2020 3585.71 4347.34 70.19 3.00 376.64 2034.99
   14:02:30.010.08-Nov-2020 3585.71 4347.34 70.19 3.00 376.84 2034.99
   14:02:30.210.08-Nov-2020 3585.71 4346.21 70.19 3.00 377.04 2034.99
   14:02:30.410.08-Nov-2020 3585.71 4346.86 70.19 3.00 377.24 2034.99
   14:02:30.610.08-Nov-2020 3585.71 4344.94 70.19 3.00 377.44 2034.99
   14:02:30.809.08-Nov-2020 3585.71 4345.95 70.19 3.00 377.64 2034.99
   14:02:31.009.08-Nov-2020 3585.71 4345.19 70.18 3.00 377.84 2034.99
   14:02:31.209.08-Nov-2020 3585.71 4344.53 70.18 3.00 378.04 2034.99
   14:02:31.409.08-Nov-2020 3585.71 4344.57 70.18 3.00 378.24 2034.99
   14:02:31.609.08-Nov-2020 3585.71 4345.18 70.18 3.00 378.44 2034.99
   14:02:31.808.08-Nov-2020 3585.71 4345.14 70.18 3.00 378.64 2034.99
   14:02:32.008.08-Nov-2020 3585.71 4345.14 70.18 3.00 378.84 2034.99
   14:02:32.208.08-Nov-2020 3585.71 4348.85 70.18 3.00 379.03 2034.99
   14:02:32.408.08-Nov-2020 3585.71 4345.34 70.18 3.00 379.23 2034.99
   14:02:32.608.08-Nov-2020 3585.71 4349.53 70.18 3.00 379.43 2034.99
   14:02:32.807.08-Nov-2020 3585.71 4346.07 70.18 3.00 379.63 2034.99
   14:02:33.007.08-Nov-2020 3585.71 4346.07 70.18 3.00 379.83 2034.99
   14:02:33.207.08-Nov-2020 3585.71 4344.20 70.17 3.00 380.03 2034.99
   14:02:33.407.08-Nov-2020 3585.71 4344.76 70.17 3.00 380.23 2034.99
   14:02:33.607.08-Nov-2020 3585.71 4345.52 70.17 3.00 380.43 2034.99
   14:02:33.806.08-Nov-2020 3585.71 4348.92 70.17 3.00 380.63 2034.99
   14:02:34.006.08-Nov-2020 3585.71 4348.92 70.17 3.00 380.83 2034.99
   14:02:34.206.08-Nov-2020 3585.71 4345.03 70.17 3.00 381.03 2034.99
   14:02:34.406.08-Nov-2020 3585.71 4344.13 70.17 3.00 381.23 2034.99
   14:02:34.606.08-Nov-2020 3585.71 4345.10 70.17 3.00 381.43 2034.99
   14:02:34.806.08-Nov-2020 3585.71 4348.23 70.16 3.00 381.63 2034.99
   14:02:35.005.08-Nov-2020 3585.71 4347.40 70.16 3.00 381.83 2034.99
   14:02:35.205.08-Nov-2020 3585.71 4346.18 70.16 3.00 382.03 2034.99
   14:02:35.405.08-Nov-2020 3585.71 4345.23 70.16 3.00 382.23 2034.99
   14:02:35.605.08-Nov-2020 3585.71 4352.69 70.16 3.00 382.43 2034.99
   14:02:35.805.08-Nov-2020 3585.71 4344.19 70.16 3.00 382.63 2034.99
   14:02:36.004.08-Nov-2020 3585.71 4344.19 70.16 3.00 382.83 2034.99
   14:02:36.204.08-Nov-2020 3585.71 4345.67 70.16 3.00 383.03 2034.99
   14:02:36.404.08-Nov-2020 3585.71 4346.62 70.16 3.00 383.23 2034.99
   14:02:36.604.08-Nov-2020 3585.71 4345.91 70.16 3.00 383.43 2034.99
   14:02:36.804.08-Nov-2020 3585.71 4345.28 70.15 3.00 383.63 2034.99
   14:02:37.003.08-Nov-2020 3585.71 4345.28 70.15 3.00 383.83 2034.99
   14:02:37.203.08-Nov-2020 3585.71 4344.41 70.15 3.00 384.03 2034.99
   14:02:37.403.08-Nov-2020 3585.71 4344.67 70.15 3.00 384.23 2034.99
   14:02:37.603.08-Nov-2020 3585.71 4345.07 70.15 3.00 384.43 2034.99
   14:02:37.803.08-Nov-2020 3585.71 4345.24 70.15 3.00 384.63 2034.99
   14:02:38.002.08-Nov-2020 3585.71 4345.24 70.15 3.00 384.83 2034.99
   14:02:38.202.08-Nov-2020 3585.71 4345.78 70.15 3.00 385.03 2034.99
   14:02:38.402.08-Nov-2020 3585.71 4349.83 70.15 3.00 385.23 2034.99
   14:02:38.602.08-Nov-2020 3585.71 4348.38 70.15 3.00 385.43 2034.99
   14:02:38.802.08-Nov-2020 3585.71 4347.87 70.14 3.00 385.63 2034.99
   14:02:39.001.08-Nov-2020 3585.71 4347.87 70.14 3.00 385.83 2034.99
   14:02:39.201.08-Nov-2020 3585.71 4347.03 70.14 3.00 386.03 2034.99
   14:02:39.401.08-Nov-2020 3585.71 4345.11 70.14 3.00 386.23 2034.99
   14:02:39.601.08-Nov-2020 3585.71 4345.39 70.14 3.00 386.43 2034.99
   14:02:39.801.08-Nov-2020 3585.71 4344.94 70.14 3.00 386.63 2034.99
   14:02:40.001.08-Nov-2020 3585.71 4344.94 70.14 3.00 386.83 2034.99
   14:02:40.200.08-Nov-2020 3585.71 4344.00 70.14 3.00 387.03 2034.99
   14:02:40.400.08-Nov-2020 3585.71 4344.47 70.14 3.00 387.23 2034.99
   14:02:40.600.08-Nov-2020 3585.71 4345.25 70.14 3.00 387.43 2034.99
   14:02:40.800.08-Nov-2020 3585.71 4345.53 70.13 3.00 387.63 2034.99
   14:02:41.000.08-Nov-2020 3585.71 4345.53 70.13 3.00 387.83 2034.99
   14:02:41.199.08-Nov-2020 3585.71 4345.72 70.13 3.00 388.03 2034.99
   14:02:41.399.08-Nov-2020 3585.71 4345.06 70.13 3.00 388.23 2034.99
   14:02:41.599.08-Nov-2020 3585.71 4348.11 70.13 3.00 388.43 2034.99
   14:02:41.799.08-Nov-2020 3585.71 4348.12 70.13 3.00 388.63 2034.99
   14:02:41.999.08-Nov-2020 3585.71 4348.12 70.13 3.00 388.83 2034.99
   14:02:42.198.08-Nov-2020 3585.71 4344.30 70.13 3.00 389.03 2034.99
   14:02:42.398.08-Nov-2020 3585.71 4345.12 70.13 3.00 389.23 2034.99
   14:02:42.598.08-Nov-2020 3585.71 4350.19 70.13 3.00 389.42 2034.99
   14:02:42.798.08-Nov-2020 3585.71 4343.25 70.12 3.00 389.62 2034.99
   14:02:42.998.08-Nov-2020 3585.71 4345.16 70.12 3.00 389.82 2034.99
   14:02:43.197.08-Nov-2020 3585.71 4343.17 70.12 3.00 390.02 2034.99
   14:02:43.397.08-Nov-2020 3585.71 4344.08 70.12 3.00 390.22 2034.99
   14:02:43.597.08-Nov-2020 3585.71 4348.09 70.12 3.00 390.42 2034.99
