~Version Information
 VERS.                  2.0:   CWLS log ASCII Standard -VERSION 2.0
 WRAP.                   NO:   One line per depth step
~Well Information Block
#MNEM.UNIT     VALUE/NAME     DESCRIPTION
#---------     -----------    ---------------------------
 STRT.S             09:21:26 08-Nov-20: START TIME 09:21:26 08-Nov-20
 STOP.S             09:27:58 08-Nov-20: STOP TIME  09:27:58 08-Nov-20
 STEP.S                   0.00: STEP TIME
 NULL.                 -999.25: NULL VALUE
 DFWT.                        :  DIST FWL TEXT
 DFST.                        :  DIST FSL TEXT
 DMF .             Drill Floor:  DRILL MEAS FROM
 STIM.      04.54.24 22-Sep-20:  START TIME
 DATE.      04.54.24 21-Nov-20:  END TIME
 SPUD.               21-Nov-20:  SPUD DATE
 NREF.                    Grid:  NORTH REFERENCE
 HPTY.       Minimum Curvature:  HOLE POS TYPE
 DMOD.             Drill Model:  DRILL MOD DESC
 SVYD.                  Survey:  SURVEY DESC
 ILTD.               Lithology:  INTERP LTH DESC
 FTOP.          Formation Tops:  FORM TOPS DESC
 SON .        AZ-XX-0906571587:  JOB NUMBER
 COMP.     BP Exploration (Caspian Sea) Ltd:  COMPANY
 UWI .                     N/A:  UNIQUE WELL IDENTIFIER
 API .                     N/A:  API NUMBER
 BASE.              Azerbaijan:  LOGGING EQUIPMENT BASE LOCATION
 REGN.                   EESSA:  REGION
 PROV.                    Baku:  PROVINCE
 STAT.                    Baku:  STATE NAME
 CTRY.              Azerbaijan:  COUNTRY NAME
 FLD .                     ACG:  FIELD NAME
 SRVC.     TURAN Drilling & Engineering:  CONTRACTOR
 WELL.                     J27:  WELL NAME
 RIG .             West Chirag:  RIG NAME
 DOE .                     N/A:  DOE NUMBER
 DCON.         Sperry Drilling:  DIRECTNL CONTR
 PDAT.          Mean Sea Level:  PERMANENT DATUM
 WTYP.                Deviated:  WELL TYPE
 MWDS.                    Baku:  MWD SHOP
 JOBN.        AZ-XX-0906571587:  JOB TICKET NUMB
 UNIT.                     N/A:  LOGGING EQUIPMENT ID
 MDS .        Operator Entered:  MAG DATA SOURCE
 CNTY.                        :  COUNTY
 LOC .                        :  LOCATION
 LMF .             Drill Floor:  LOG MEASURED FROM
 TVDS.m                  43.00:  TVDSS CORRECTN
 LATI.deg                40.13:  LATITUDE
 LONG.deg                51.22:  LONGITUDE
 WHNS.m                   7.72:  WELL HEAD N/S
 WHEW.m                 -14.24:  WELL HEAD E/W
 UTMX.m              519005.06:  UTM X
 UTMY.m             4443793.85:  UTM Y
 DFWL.m                   0.00:  DISTANCE FWL
 DFSL.m                   0.00:  DISTANCE FSL
 SDEP.m                 347.00:  START DEPTH
 TDD .m                 581.00:  TOTAL DEPTH (DRILLER)
 VSDR.deg               159.72:  VERT SEC DIRECT
 GVFD.g                   1.00:  GRAVITY FIELD
 MFLD.nT              50313.00:  MAGNETIC FIELD
 MDIP.deg                59.58:  MAGNETIC DIP
 MDEC.deg                 6.45:  MAGNETIC DECL
 GRDC.deg                 0.15:  GRID CORRECTION
 AZTC.deg                 6.30:  AZM TOTAL CORR
 EPD .m                   0.00:  ELEVATION
 EGL .m                   0.00:  GROUND ELEVATION
 WDMS.m                 169.80:  WD ELEV
 APD .m                  43.00:  DEPTH ABOVE PD
 AGAP.m                  43.00:  AIR GAP
 VSEW.m                 -14.24:  VERT SEC E/W
 VSNS.m                   7.72:  VERT SEC N/S
 DEP .m                 342.45:  DEPTH
 EKB .m                   0.00:  KB ELEVATION
 EDF .m                  43.00:  DF ELEVATION
 TDL .m                1313.00:  TOTAL DEPTH (LOGGER)
 VSC .                       0:  VS TO CLOSURE
 MAGU.                 1851396:  MAGUTM CHECKSUM
~Parameter Information Block
#MNEM.UNIT       Value        Description
#---------     -----------    ---------------------------
 AV  .mps                 0.65:  Ann Velocity 
 AVMX.mps                 0.75:  Max Ann Veloc 
 AZIF.deg               115.08:  Azm, Final 
 BHAT.        Rotary Steerable:  BHA Type 
 BROT.°/30m               1.50:  Build Rotating 
 BS  .in                 12.25:  Bit Size 
 BSZ .in                 12.25:  Bit Size 
 BTPL.psig              700.00:  Bit Press Loss 
 CABU.                     Yes:  Customer Abuse 
 COMM.                     <
V:  Run Comments 1 
 TCS .hr                121.00:  Time Ciculation Ended 
 CV  .mps                 1.83:  Crit Velocity 
 CVMX.mps                 1.83:  Max Crit Veloc 
 DD1 .          Rashad Habibov:  Direct Drillr 1 
 DD2 .         Rasim Ibrahimov:  Direct Drillr 2 
 DDSV.                 iCruise:  DD Service 
 DEFF.%                 100.00:  % Det Eff 
 DLRX.°/30m               3.60:  Dogleg Rot Max 
 DLSO.°/30m               3.10:  Dogleg Oriented 
 DLSX.°/30m               3.60:  Dogleg Str Max 
 DRET.      13.41.20 12-Nov-20:  Drill End Time 
 DRST.      13.41.20 07-Nov-20:  Drill Start Tim 
 DTIM.hr                 54.16:  Time Drilling 
 EDEP.m                4762.01:  End Depth 
 ENG1.           Amrah Tahirov:  Engineer 1 
 ENG2.      Bakhtiyar Jabbarli:  Engineer 2 
 ENG3.          Ruslan Safarov:  Engineer 3 
 ETIM.      13.41.20 14-Nov-20:  End Time 
 FLOI.gpm              1200.00:  Flow In 
 FLON.gpm              1100.00:  Flow In Min 
 FLOS.cptm                0.00:  Fluid Loss 
 FLOX.gpm              1200.00:  Flow In Max 
 HFLO.                      No:  High Flow 
 HPRE.                      No:  High Pressure 
 HTEM.                      No:  High Temp 
 HYDO.m                   2.00:  Hydro Offset 
 IFIN.deg                66.14:  Inc, Final 
 IMAX.deg                69.03:  Inc Max 
 IMIN.deg                64.64:  Inc Min 
 IMND.m                4450.16:  Inc Min Depth 
 IMXD.m                3996.00:  Inc Max Depth 
 JARR.                     Yes:  Jarring 
 LETM.      13.41.20 14-Nov-20:  Log End Time 
 LOST.hr                     0:  Lost Rig Time 
 LSTM.      13.41.20 06-Nov-20:  Log Start Time 
 MDCL.ppm             42500.00:  Mud Chlorides 
 MDES.     Inversion Oil/Synthetic:  Mud Desc 
 DFD .sg                  1.45:  Mud Density 
 MDMN.sg                  1.45:  Dens Mud Min 
 MDMX.sg                  1.45:  Dens Mud Max 
 MOIL.                      70:  Run Mud Oil % 
 MOWR.                   70:30:  Run Mud OWR 
 MSND.                       0:  Run Mud Sand % 
 MSOL.                    19.3:  Run Mud Solids% 
 DFV .spqt               77.00:  Mud Viscosity 
 MWOD.in                  8.00:  MWD Tool OD 
 MWSI.                      No:  Serv Intrp, MWD 
 OTIM.hr                201.88:  Time Operating 
 PCON.           Look Like New:  Pad Condition 
 PMAX.psia             9250.94:  Press Op, Max 
 PV  .cP                 29.00:  Mud PV 
 RUN .                     800:  Run Number 
 ROPA.m/hr               28.00:  ROP Avg 
 ROPN.m/hr               25.00:  ROP Min 
 ROPX.m/hr               30.00:  ROP Max 
 RPMA.rpm               160.00:  RPM Surface Avg 
 RPMN.rpm               160.00:  RPM Surface Min 
 RPMX.rpm               160.00:  RPM Surface Max 
 RRUN.                    0800:  Rig Run Number 
 RTIM.hr                 12.00:  Time Reaming 
 SAZI.deg               169.33:  Azm, Start 
 SDEP.m                3449.01:  Start Depth 
 SIDD.                      No:  Serv Intrp, DD 
 SINC.deg                68.01:  Inc, Start 
 SPPA.psig             4900.00:  SPP Avg 
 SPPN.psig             4800.00:  SPP Min 
 SPPX.psig             5050.00:  SPP Max 
 STIM.      13.41.20 06-Nov-20:  Start Time 
 SVCS.                 DD, MWD:  Services 
 SVER.                    9.20:  Sperry Version 
 TDAT.m                4762.01:  Tot Depth Attmp 
 TDDF.                      No:  Trip for DD 
 TDLG.m                1313.00:  Tot Depth Loggd 
 TFF .                      No:  Trip for Fail 
 TQAA.f-kp               13.00:  Torque Abs Avg 
 TQAN.f-kp               13.00:  Torque Abs Min 
 TQAX.f-kp               13.00:  Torque Abs Max 
 TRRT.°/30m               1.70:  Turn Rotating 
 MRT .                  EWR-M5:  Maximum Recorded Temperature 
 TTMX.degC               86.00:  Max Tool Temp 
 VS01.                90622122:  Virtual Str1 SN 
 VS02.                90577298:  Virtual Str2 SN 
 VS03.                90563623:  Virtual Str3 SN 
 VS04.                90617559:  Virtual Str4 SN 
 VS05.                11339492:  Virtual Str5 SN 
 VS06.                12385033:  Virtual Str6 SN 
 WBMN.klb                 0.00:  WOB Min 
 WOBA.klb                22.00:  WOB Avg 
 WOBX.klb                26.00:  WOB Max 
 YP  .lhf2               30.00:  Yield Point 
~Curve Information Block
#MNEM.UNIT                 API CODE     Curve Description
#---------               -----------    ---------------------------
 TIME.HHMMSS            00 000 000 000:  GT Time & Date
 GTDEPTH.m              00 000 000 000:  GT Depth
 GTPQH.psia             00 000 000 000:  GT HR Quartz Pressure
 GTTQ.degC              00 000 000 000:  GT Quartz Temperature
 GTTN.NONE              00 000 000 000:  GT Test Number
 GTET.sec               00 000 000 000:  GT Elapsed Test Time
 GTTVD.m                00 000 000 000:  GT True Vertical Depth
#Other Information
#
#WARRANTY: Halliburton will use its best efforts to furnish customers with 
#accurate information and interpretations that are part of, and incident to, the services 
#provided.  However, Halliburton cannot and does not warrant the accuracy 
#or correctness of such information and interpretations.  Under no circumstances should any 
#such information or interpretation be relied upon as the sole basis for any drilling, 
#completion, production, or financial decision or any procedure involving any risk to the 
#safety of any drilling venture, drilling rig or its crew or any other third party.  The 
#Customer has full responsibility for all drilling, completion and production operation.  
#Halliburton makes no representations or warranties, either expressed or 
#implied, including, but not limited to, the implied warranties of merchantability or fitness 
#for a particular purpose, with respect to the services rendered.  In no event will 
#Halliburton be liable for failure to obtain any particular results or for 
#any damages, including, but not limited to, indirect, special or consequential damages, 
#resulting from the use of any information or interpretation provided by Halliburton.
#
~A           TIME           GTDEPTH  GTPQH  GTTQ  GTTN  GTET   GTTVD  
# ...
   09:22:35.189.08-Nov-2020 3525.51 3323.38 70.39 1.00  69.01 2012.77
   09:22:35.389.08-Nov-2020 3525.51 3323.38 70.39 1.00  69.21 2012.77
   09:22:35.589.08-Nov-2020 3525.51 3323.39 70.39 1.00  69.41 2012.77
   09:22:35.789.08-Nov-2020 3525.51 3323.40 70.39 1.00  69.61 2012.77
   09:22:35.989.08-Nov-2020 3525.51 3323.41 70.39 1.00  69.81 2012.77
   09:22:36.189.08-Nov-2020 3525.51 3323.40 70.39 1.00  70.01 2012.77
   09:22:36.389.08-Nov-2020 3525.51 3323.40 70.39 1.00  70.21 2012.77
   09:22:36.589.08-Nov-2020 3525.51 3323.42 70.39 1.00  70.41 2012.77
   09:22:36.790.08-Nov-2020 3525.51 3323.41 70.39 1.00  70.61 2012.77
   09:22:36.990.08-Nov-2020 3525.51 3323.40 70.39 1.00  70.81 2012.77
   09:22:37.190.08-Nov-2020 3525.51 3323.40 70.39 1.00  71.01 2012.77
   09:22:37.390.08-Nov-2020 3525.51 3323.40 70.39 1.00  71.21 2012.77
   09:22:37.590.08-Nov-2020 3525.51 3323.40 70.39 1.00  71.41 2012.77
   09:22:37.790.08-Nov-2020 3525.51 3323.42 70.39 1.00  71.61 2012.77
   09:22:37.990.08-Nov-2020 3525.51 3323.41 70.39 1.00  71.81 2012.77
   09:22:38.190.08-Nov-2020 3525.51 3323.41 70.39 1.00  72.01 2012.77
   09:22:38.390.08-Nov-2020 3525.51 3323.41 70.39 1.00  72.21 2012.77
   09:22:38.590.08-Nov-2020 3525.51 3323.41 70.39 1.00  72.41 2012.77
   09:22:38.790.08-Nov-2020 3525.51 3323.42 70.38 1.00  72.61 2012.77
   09:22:38.990.08-Nov-2020 3525.51 3323.42 70.38 1.00  72.81 2012.77
   09:22:39.190.08-Nov-2020 3525.51 3323.42 70.38 1.00  73.01 2012.77
   09:22:39.390.08-Nov-2020 3525.51 3323.42 70.38 1.00  73.21 2012.77
   09:22:39.590.08-Nov-2020 3525.51 3323.47 70.38 1.00  73.41 2012.77
   09:22:39.790.08-Nov-2020 3525.51 3323.44 70.38 1.00  73.61 2012.77
   09:22:39.990.08-Nov-2020 3525.51 3323.41 70.38 1.00  73.81 2012.77
   09:22:40.190.08-Nov-2020 3525.51 3323.47 70.38 1.00  74.01 2012.77
   09:22:40.390.08-Nov-2020 3525.51 3323.47 70.38 1.00  74.21 2012.77
   09:22:40.590.08-Nov-2020 3525.51 3323.42 70.38 1.00  74.41 2012.77
   09:22:40.790.08-Nov-2020 3525.51 3323.44 70.38 1.00  74.61 2012.77
   09:22:40.990.08-Nov-2020 3525.51 3323.43 70.38 1.00  74.81 2012.77
   09:22:41.190.08-Nov-2020 3525.51 3323.43 70.38 1.00  75.01 2012.77
   09:22:41.390.08-Nov-2020 3525.51 3323.43 70.38 1.00  75.21 2012.77
   09:22:41.590.08-Nov-2020 3525.51 3323.41 70.38 1.00  75.41 2012.77
   09:22:41.790.08-Nov-2020 3525.51 3323.43 70.38 1.00  75.61 2012.77
   09:22:41.990.08-Nov-2020 3525.51 3323.43 70.38 1.00  75.81 2012.77
   09:22:42.190.08-Nov-2020 3525.51 3323.43 70.38 1.00  76.01 2012.77
   09:22:42.390.08-Nov-2020 3525.51 3323.43 70.38 1.00  76.21 2012.77
   09:22:42.590.08-Nov-2020 3525.51 3323.44 70.38 1.00  76.41 2012.77
   09:22:42.791.08-Nov-2020 3525.51 3323.42 70.38 1.00  76.61 2012.77
   09:22:42.991.08-Nov-2020 3525.51 3323.41 70.38 1.00  76.81 2012.77
   09:22:43.191.08-Nov-2020 3525.51 3323.45 70.38 1.00  77.01 2012.77
   09:22:43.391.08-Nov-2020 3525.51 3323.45 70.38 1.00  77.21 2012.77
   09:22:43.591.08-Nov-2020 3525.51 3323.42 70.37 1.00  77.41 2012.77
   09:22:43.791.08-Nov-2020 3525.51 3323.42 70.37 1.00  77.61 2012.77
   09:22:43.991.08-Nov-2020 3525.51 3323.42 70.37 1.00  77.81 2012.77
   09:22:44.191.08-Nov-2020 3525.51 3323.41 70.37 1.00  78.01 2012.77
   09:22:44.391.08-Nov-2020 3525.51 3323.41 70.37 1.00  78.21 2012.77
   09:22:44.591.08-Nov-2020 3525.51 3323.42 70.37 1.00  78.41 2012.77
   09:22:44.791.08-Nov-2020 3525.51 3323.42 70.37 1.00  78.61 2012.77
   09:22:44.991.08-Nov-2020 3525.51 3323.43 70.37 1.00  78.81 2012.77
   09:22:45.191.08-Nov-2020 3525.51 3323.42 70.37 1.00  79.01 2012.77
   09:22:45.391.08-Nov-2020 3525.51 3323.42 70.37 1.00  79.21 2012.77
   09:22:45.591.08-Nov-2020 3525.51 3323.43 70.37 1.00  79.41 2012.77
   09:22:45.791.08-Nov-2020 3525.51 3323.39 70.37 1.00  79.61 2012.77
   09:22:45.991.08-Nov-2020 3525.51 3323.47 70.37 1.00  79.81 2012.77
   09:22:46.191.08-Nov-2020 3525.51 3323.43 70.37 1.00  80.01 2012.77
   09:22:46.391.08-Nov-2020 3525.51 3323.43 70.37 1.00  80.21 2012.77
   09:22:46.591.08-Nov-2020 3525.51 3323.45 70.37 1.00  80.41 2012.77
   09:22:46.791.08-Nov-2020 3525.51 3323.42 70.37 1.00  80.61 2012.77
   09:22:46.991.08-Nov-2020 3525.51 3323.43 70.37 1.00  80.81 2012.77
   09:22:47.191.08-Nov-2020 3525.51 3323.43 70.37 1.00  81.01 2012.77
   09:22:47.391.08-Nov-2020 3525.51 3323.43 70.37 1.00  81.21 2012.77
   09:22:47.591.08-Nov-2020 3525.51 3323.43 70.37 1.00  81.41 2012.77
   09:22:47.791.08-Nov-2020 3525.51 3323.44 70.37 1.00  81.61 2012.77
   09:22:47.991.08-Nov-2020 3525.51 3323.43 70.37 1.00  81.81 2012.77
   09:22:48.191.08-Nov-2020 3525.51 3323.43 70.37 1.00  82.01 2012.77
   09:22:48.391.08-Nov-2020 3525.51 3323.43 70.37 1.00  82.21 2012.77
   09:22:48.592.08-Nov-2020 3525.51 3323.44 70.36 1.00  82.41 2012.77
   09:22:48.792.08-Nov-2020 3525.51 3323.45 70.36 1.00  82.61 2012.77
   09:22:48.992.08-Nov-2020 3525.51 3323.44 70.36 1.00  82.81 2012.77
   09:22:49.192.08-Nov-2020 3525.51 3323.44 70.36 1.00  83.01 2012.77
   09:22:49.392.08-Nov-2020 3525.51 3323.44 70.36 1.00  83.21 2012.77
   09:22:49.592.08-Nov-2020 3525.51 3323.43 70.36 1.00  83.41 2012.77
   09:22:49.792.08-Nov-2020 3525.51 3323.44 70.36 1.00  83.61 2012.77
   09:22:49.992.08-Nov-2020 3525.51 3323.41 70.36 1.00  83.81 2012.77
   09:22:50.192.08-Nov-2020 3525.51 3323.47 70.36 1.00  84.01 2012.77
   09:22:50.392.08-Nov-2020 3525.51 3323.47 70.36 1.00  84.21 2012.77
   09:22:50.592.08-Nov-2020 3525.51 3323.44 70.36 1.00  84.41 2012.77
   09:22:50.792.08-Nov-2020 3525.51 3323.46 70.36 1.00  84.61 2012.77
   09:22:50.992.08-Nov-2020 3525.51 3323.40 70.36 1.00  84.81 2012.77
   09:22:51.192.08-Nov-2020 3525.51 3323.48 70.36 1.00  85.01 2012.77
   09:22:51.392.08-Nov-2020 3525.51 3323.48 70.36 1.00  85.21 2012.77
   09:22:51.592.08-Nov-2020 3525.51 3323.44 70.36 1.00  85.41 2012.77
   09:22:51.792.08-Nov-2020 3525.51 3323.44 70.36 1.00  85.61 2012.77
   09:22:51.992.08-Nov-2020 3525.51 3323.44 70.36 1.00  85.81 2012.77
   09:22:52.192.08-Nov-2020 3525.51 3323.44 70.36 1.00  86.01 2012.77
   09:22:52.392.08-Nov-2020 3525.51 3323.44 70.36 1.00  86.21 2012.77
   09:22:52.592.08-Nov-2020 3525.51 3323.44 70.36 1.00  86.41 2012.77
   09:22:52.792.08-Nov-2020 3525.51 3323.45 70.36 1.00  86.61 2012.77
   09:22:52.992.08-Nov-2020 3525.51 3323.43 70.36 1.00  86.81 2012.77
   09:22:53.192.08-Nov-2020 3525.51 3323.43 70.36 1.00  87.01 2012.77
   09:22:53.392.08-Nov-2020 3525.51 3323.43 70.36 1.00  87.21 2012.77
   09:22:53.592.08-Nov-2020 3525.51 3323.43 70.35 1.00  87.41 2012.77
   09:22:53.792.08-Nov-2020 3525.51 3323.44 70.35 1.00  87.61 2012.77
   09:22:53.992.08-Nov-2020 3525.51 3323.43 70.35 1.00  87.81 2012.77
   09:22:54.192.08-Nov-2020 3525.51 3323.44 70.35 1.00  88.01 2012.77
   09:22:54.392.08-Nov-2020 3525.51 3323.44 70.35 1.00  88.21 2012.77
   09:22:54.593.08-Nov-2020 3525.51 3323.43 70.35 1.00  88.41 2012.77
   09:22:54.793.08-Nov-2020 3525.51 3323.43 70.35 1.00  88.61 2012.77
   09:22:54.993.08-Nov-2020 3525.51 3323.45 70.35 1.00  88.82 2012.77
   09:22:55.193.08-Nov-2020 3525.51 3323.45 70.35 1.00  89.02 2012.77
   09:22:55.393.08-Nov-2020 3525.51 3323.45 70.35 1.00  89.22 2012.77
   09:22:55.593.08-Nov-2020 3525.51 3323.43 70.35 1.00  89.42 2012.77
   09:22:55.793.08-Nov-2020 3525.51 3323.43 70.35 1.00  89.62 2012.77
   09:22:55.993.08-Nov-2020 3525.51 3323.43 70.35 1.00  89.82 2012.77
   09:22:56.193.08-Nov-2020 3525.51 3323.43 70.35 1.00  90.02 2012.77
   09:22:56.393.08-Nov-2020 3525.51 3323.43 70.35 1.00  90.22 2012.77
   09:22:56.593.08-Nov-2020 3525.51 3323.44 70.35 1.00  90.42 2012.77
   09:22:56.793.08-Nov-2020 3525.51 3323.43 70.35 1.00  90.62 2012.77
   09:22:56.993.08-Nov-2020 3525.51 3323.44 70.35 1.00  90.82 2012.77
   09:22:57.193.08-Nov-2020 3525.51 3323.40 70.35 1.00  91.02 2012.77
   09:22:57.393.08-Nov-2020 3525.51 3323.40 70.35 1.00  91.22 2012.77
   09:22:57.593.08-Nov-2020 3525.51 3323.44 70.35 1.00  91.42 2012.77
   09:22:57.793.08-Nov-2020 3525.51 3323.41 70.35 1.00  91.62 2012.77
   09:22:57.993.08-Nov-2020 3525.51 3323.49 70.35 1.00  91.82 2012.77
