~Version Information
 VERS.                  2.0:   CWLS log ASCII Standard -VERSION 2.0
 WRAP.                   NO:   One line per depth step
~Well Information Block
#MNEM.UNIT     VALUE/NAME     DESCRIPTION
#---------     -----------    ---------------------------
 STRT.S             18:53:27 10-Nov-20: START TIME 18:53:27 10-Nov-20
 STOP.S             19:00:00 10-Nov-20: STOP TIME  19:00:00 10-Nov-20
 STEP.S                   0.00: STEP TIME
 NULL.                 -999.25: NULL VALUE
 DFWT.                        :  DIST FWL TEXT
 DFST.                        :  DIST FSL TEXT
 DMF .             Drill Floor:  DRILL MEAS FROM
 STIM.      04.54.24 22-Sep-20:  START TIME
 DATE.      04.54.24 21-Nov-20:  END TIME
 SPUD.               21-Nov-20:  SPUD DATE
 NREF.                    Grid:  NORTH REFERENCE
 HPTY.       Minimum Curvature:  HOLE POS TYPE
 DMOD.             Drill Model:  DRILL MOD DESC
 SVYD.                  Survey:  SURVEY DESC
 ILTD.               Lithology:  INTERP LTH DESC
 FTOP.          Formation Tops:  FORM TOPS DESC
 SON .        AZ-XX-0906571587:  JOB NUMBER
 COMP.     BP Exploration (Caspian Sea) Ltd:  COMPANY
 UWI .                     N/A:  UNIQUE WELL IDENTIFIER
 API .                     N/A:  API NUMBER
 BASE.              Azerbaijan:  LOGGING EQUIPMENT BASE LOCATION
 REGN.                   EESSA:  REGION
 PROV.                    Baku:  PROVINCE
 STAT.                    Baku:  STATE NAME
 CTRY.              Azerbaijan:  COUNTRY NAME
 FLD .                     ACG:  FIELD NAME
 SRVC.     TURAN Drilling & Engineering:  CONTRACTOR
 WELL.                     J27:  WELL NAME
 RIG .             West Chirag:  RIG NAME
 DOE .                     N/A:  DOE NUMBER
 DCON.         Sperry Drilling:  DIRECTNL CONTR
 PDAT.          Mean Sea Level:  PERMANENT DATUM
 WTYP.                Deviated:  WELL TYPE
 MWDS.                    Baku:  MWD SHOP
 JOBN.        AZ-XX-0906571587:  JOB TICKET NUMB
 UNIT.                     N/A:  LOGGING EQUIPMENT ID
 MDS .        Operator Entered:  MAG DATA SOURCE
 CNTY.                        :  COUNTY
 LOC .                        :  LOCATION
 LMF .             Drill Floor:  LOG MEASURED FROM
 TVDS.m                  43.00:  TVDSS CORRECTN
 LATI.deg                40.13:  LATITUDE
 LONG.deg                51.22:  LONGITUDE
 WHNS.m                   7.72:  WELL HEAD N/S
 WHEW.m                 -14.24:  WELL HEAD E/W
 UTMX.m              519005.06:  UTM X
 UTMY.m             4443793.85:  UTM Y
 DFWL.m                   0.00:  DISTANCE FWL
 DFSL.m                   0.00:  DISTANCE FSL
 SDEP.m                 347.00:  START DEPTH
 TDD .m                 581.00:  TOTAL DEPTH (DRILLER)
 VSDR.deg               159.72:  VERT SEC DIRECT
 GVFD.g                   1.00:  GRAVITY FIELD
 MFLD.nT              50313.00:  MAGNETIC FIELD
 MDIP.deg                59.58:  MAGNETIC DIP
 MDEC.deg                 6.45:  MAGNETIC DECL
 GRDC.deg                 0.15:  GRID CORRECTION
 AZTC.deg                 6.30:  AZM TOTAL CORR
 EPD .m                   0.00:  ELEVATION
 EGL .m                   0.00:  GROUND ELEVATION
 WDMS.m                 169.80:  WD ELEV
 APD .m                  43.00:  DEPTH ABOVE PD
 AGAP.m                  43.00:  AIR GAP
 VSEW.m                 -14.24:  VERT SEC E/W
 VSNS.m                   7.72:  VERT SEC N/S
 DEP .m                 342.45:  DEPTH
 EKB .m                   0.00:  KB ELEVATION
 EDF .m                  43.00:  DF ELEVATION
 TDL .m                1313.00:  TOTAL DEPTH (LOGGER)
 VSC .                       0:  VS TO CLOSURE
 MAGU.                 1851396:  MAGUTM CHECKSUM
~Parameter Information Block
#MNEM.UNIT       Value        Description
#---------     -----------    ---------------------------
 AV  .mps                 0.65:  Ann Velocity 
 AVMX.mps                 0.75:  Max Ann Veloc 
 AZIF.deg               115.08:  Azm, Final 
 BHAT.        Rotary Steerable:  BHA Type 
 BROT.°/30m               1.50:  Build Rotating 
 BS  .in                 12.25:  Bit Size 
 BSZ .in                 12.25:  Bit Size 
 BTPL.psig              700.00:  Bit Press Loss 
 CABU.                     Yes:  Customer Abuse 
 COMM.                     ”Ú:  Run Comments 1 
 TCS .hr                121.00:  Time Ciculation Ended 
 CV  .mps                 1.83:  Crit Velocity 
 CVMX.mps                 1.83:  Max Crit Veloc 
 DD1 .          Rashad Habibov:  Direct Drillr 1 
 DD2 .         Rasim Ibrahimov:  Direct Drillr 2 
 DDSV.                 iCruise:  DD Service 
 DEFF.%                 100.00:  % Det Eff 
 DLRX.°/30m               3.60:  Dogleg Rot Max 
 DLSO.°/30m               3.10:  Dogleg Oriented 
 DLSX.°/30m               3.60:  Dogleg Str Max 
 DRET.      13.41.20 12-Nov-20:  Drill End Time 
 DRST.      13.41.20 07-Nov-20:  Drill Start Tim 
 DTIM.hr                 54.16:  Time Drilling 
 EDEP.m                4762.01:  End Depth 
 ENG1.           Amrah Tahirov:  Engineer 1 
 ENG2.      Bakhtiyar Jabbarli:  Engineer 2 
 ENG3.          Ruslan Safarov:  Engineer 3 
 ETIM.      13.41.20 14-Nov-20:  End Time 
 FLOI.gpm              1200.00:  Flow In 
 FLON.gpm              1100.00:  Flow In Min 
 FLOS.cptm                0.00:  Fluid Loss 
 FLOX.gpm              1200.00:  Flow In Max 
 HFLO.                      No:  High Flow 
 HPRE.                      No:  High Pressure 
 HTEM.                      No:  High Temp 
 HYDO.m                   2.00:  Hydro Offset 
 IFIN.deg                66.14:  Inc, Final 
 IMAX.deg                69.03:  Inc Max 
 IMIN.deg                64.64:  Inc Min 
 IMND.m                4450.16:  Inc Min Depth 
 IMXD.m                3996.00:  Inc Max Depth 
 JARR.                     Yes:  Jarring 
 LETM.      13.41.20 14-Nov-20:  Log End Time 
 LOST.hr                     0:  Lost Rig Time 
 LSTM.      13.41.20 06-Nov-20:  Log Start Time 
 MDCL.ppm             42500.00:  Mud Chlorides 
 MDES.     Inversion Oil/Synthetic:  Mud Desc 
 DFD .sg                  1.45:  Mud Density 
 MDMN.sg                  1.45:  Dens Mud Min 
 MDMX.sg                  1.45:  Dens Mud Max 
 MOIL.                      70:  Run Mud Oil % 
 MOWR.                   70:30:  Run Mud OWR 
 MSND.                       0:  Run Mud Sand % 
 MSOL.                    19.3:  Run Mud Solids% 
 DFV .spqt               77.00:  Mud Viscosity 
 MWOD.in                  8.00:  MWD Tool OD 
 MWSI.                      No:  Serv Intrp, MWD 
 OTIM.hr                201.88:  Time Operating 
 PCON.           Look Like New:  Pad Condition 
 PMAX.psia             9250.94:  Press Op, Max 
 PV  .cP                 29.00:  Mud PV 
 RUN .                     800:  Run Number 
 ROPA.m/hr               28.00:  ROP Avg 
 ROPN.m/hr               25.00:  ROP Min 
 ROPX.m/hr               30.00:  ROP Max 
 RPMA.rpm               160.00:  RPM Surface Avg 
 RPMN.rpm               160.00:  RPM Surface Min 
 RPMX.rpm               160.00:  RPM Surface Max 
 RRUN.                    0800:  Rig Run Number 
 RTIM.hr                 12.00:  Time Reaming 
 SAZI.deg               169.33:  Azm, Start 
 SDEP.m                3449.01:  Start Depth 
 SIDD.                      No:  Serv Intrp, DD 
 SINC.deg                68.01:  Inc, Start 
 SPPA.psig             4900.00:  SPP Avg 
 SPPN.psig             4800.00:  SPP Min 
 SPPX.psig             5050.00:  SPP Max 
 STIM.      13.41.20 06-Nov-20:  Start Time 
 SVCS.                 DD, MWD:  Services 
 SVER.                    9.20:  Sperry Version 
 TDAT.m                4762.01:  Tot Depth Attmp 
 TDDF.                      No:  Trip for DD 
 TDLG.m                1313.00:  Tot Depth Loggd 
 TFF .                      No:  Trip for Fail 
 TQAA.f-kp               13.00:  Torque Abs Avg 
 TQAN.f-kp               13.00:  Torque Abs Min 
 TQAX.f-kp               13.00:  Torque Abs Max 
 TRRT.°/30m               1.70:  Turn Rotating 
 MRT .                  EWR-M5:  Maximum Recorded Temperature 
 TTMX.degC               86.00:  Max Tool Temp 
 VS01.                90622122:  Virtual Str1 SN 
 VS02.                90577298:  Virtual Str2 SN 
 VS03.                90563623:  Virtual Str3 SN 
 VS04.                90617559:  Virtual Str4 SN 
 VS05.                11339492:  Virtual Str5 SN 
 VS06.                12385033:  Virtual Str6 SN 
 WBMN.klb                 0.00:  WOB Min 
 WOBA.klb                22.00:  WOB Avg 
 WOBX.klb                26.00:  WOB Max 
 YP  .lhf2               30.00:  Yield Point 
~Curve Information Block
#MNEM.UNIT                 API CODE     Curve Description
#---------               -----------    ---------------------------
 TIME.HHMMSS            00 000 000 000:  GT Time & Date
 GTDEPTH.m              00 000 000 000:  GT Depth
 GTPQH.psia             00 000 000 000:  GT HR Quartz Pressure
 GTTQ.degC              00 000 000 000:  GT Quartz Temperature
 GTTN.NONE              00 000 000 000:  GT Test Number
 GTET.sec               00 000 000 000:  GT Elapsed Test Time
 GTTVD.m                00 000 000 000:  GT True Vertical Depth
#Other Information
#
#WARRANTY: Halliburton will use its best efforts to furnish customers with 
#accurate information and interpretations that are part of, and incident to, the services 
#provided.  However, Halliburton cannot and does not warrant the accuracy 
#or correctness of such information and interpretations.  Under no circumstances should any 
#such information or interpretation be relied upon as the sole basis for any drilling, 
#completion, production, or financial decision or any procedure involving any risk to the 
#safety of any drilling venture, drilling rig or its crew or any other third party.  The 
#Customer has full responsibility for all drilling, completion and production operation.  
#Halliburton makes no representations or warranties, either expressed or 
#implied, including, but not limited to, the implied warranties of merchantability or fitness 
#for a particular purpose, with respect to the services rendered.  In no event will 
#Halliburton be liable for failure to obtain any particular results or for 
#any damages, including, but not limited to, indirect, special or consequential damages, 
#resulting from the use of any information or interpretation provided by Halliburton.
#
~A           TIME           GTDEPTH  GTPQH  GTTQ  GTTN  GTET   GTTVD  
# ...
   18:53:50.502.10-Nov-2020 4475.51 5010.11 80.72 5.00  23.01 2369.25
   18:53:50.702.10-Nov-2020 4475.51 5010.11 80.72 5.00  23.21 2369.25
   18:53:50.902.10-Nov-2020 4475.51 5005.40 80.72 5.00  23.41 2369.25
   18:53:51.102.10-Nov-2020 4475.51 5004.84 80.72 5.00  23.61 2369.25
   18:53:51.302.10-Nov-2020 4475.51 5007.42 80.72 5.00  23.81 2369.25
   18:53:51.502.10-Nov-2020 4475.51 5006.51 80.72 5.00  24.01 2369.25
   18:53:51.702.10-Nov-2020 4475.51 5006.51 80.72 5.00  24.21 2369.25
   18:53:51.902.10-Nov-2020 4475.51 5004.96 80.72 5.00  24.41 2369.25
   18:53:52.102.10-Nov-2020 4475.51 5006.06 80.72 5.00  24.61 2369.25
   18:53:52.303.10-Nov-2020 4475.51 5006.90 80.72 5.00  24.81 2369.25
   18:53:52.503.10-Nov-2020 4475.51 5006.08 80.72 5.00  25.01 2369.25
   18:53:52.703.10-Nov-2020 4475.51 5006.08 80.72 5.00  25.21 2369.25
   18:53:52.903.10-Nov-2020 4475.51 5006.90 80.71 5.00  25.41 2369.25
   18:53:53.103.10-Nov-2020 4475.51 5006.57 80.71 5.00  25.61 2369.25
   18:53:53.303.10-Nov-2020 4475.51 5011.18 80.71 5.00  25.81 2369.25
   18:53:53.503.10-Nov-2020 4475.51 5006.09 80.71 5.00  26.01 2369.25
   18:53:53.703.10-Nov-2020 4475.51 5006.72 80.71 5.00  26.21 2369.25
   18:53:53.903.10-Nov-2020 4475.51 5006.42 80.71 5.00  26.41 2369.25
   18:53:54.103.10-Nov-2020 4475.51 5007.79 80.71 5.00  26.61 2369.25
   18:53:54.303.10-Nov-2020 4475.51 5006.09 80.71 5.00  26.81 2369.25
   18:53:54.503.10-Nov-2020 4475.51 5006.42 80.71 5.00  27.01 2369.25
   18:53:54.703.10-Nov-2020 4475.51 5006.42 80.71 5.00  27.21 2369.25
   18:53:54.903.10-Nov-2020 4475.51 5007.08 80.71 5.00  27.41 2369.25
   18:53:55.103.10-Nov-2020 4475.51 5007.78 80.71 5.00  27.61 2369.25
   18:53:55.303.10-Nov-2020 4475.51 5007.96 80.71 5.00  27.81 2369.25
   18:53:55.503.10-Nov-2020 4475.51 5008.67 80.71 5.00  28.01 2369.25
   18:53:55.703.10-Nov-2020 4475.51 5008.67 80.71 5.00  28.21 2369.25
   18:53:55.904.10-Nov-2020 4475.51 5012.45 80.71 5.00  28.41 2369.25
   18:53:56.104.10-Nov-2020 4475.51 5010.38 80.71 5.00  28.61 2369.25
   18:53:56.304.10-Nov-2020 4475.51 5008.74 80.70 5.00  28.81 2369.25
   18:53:56.504.10-Nov-2020 4475.51 5013.39 80.70 5.00  29.01 2369.25
   18:53:56.704.10-Nov-2020 4475.51 5013.39 80.70 5.00  29.21 2369.25
   18:53:56.904.10-Nov-2020 4475.51 5007.80 80.70 5.00  29.41 2369.25
   18:53:57.104.10-Nov-2020 4475.51 5007.04 80.70 5.00  29.61 2369.25
   18:53:57.304.10-Nov-2020 4475.51 5012.81 80.70 5.00  29.81 2369.25
   18:53:57.504.10-Nov-2020 4475.51 5006.60 80.70 5.00  30.01 2369.25
   18:53:57.704.10-Nov-2020 4475.51 5006.47 80.70 5.00  30.21 2369.25
   18:53:57.904.10-Nov-2020 4475.51 5010.11 80.70 5.00  30.41 2369.25
   18:53:58.104.10-Nov-2020 4475.51 5007.92 80.70 5.00  30.61 2369.25
   18:53:58.304.10-Nov-2020 4475.51 5008.20 80.70 5.00  30.81 2369.25
   18:53:58.504.10-Nov-2020 4475.51 5006.38 80.70 5.00  31.01 2369.25
   18:53:58.704.10-Nov-2020 4475.51 5006.38 80.70 5.00  31.21 2369.25
   18:53:58.904.10-Nov-2020 4475.51 5008.17 80.70 5.00  31.41 2369.25
   18:53:59.104.10-Nov-2020 4475.51 5008.74 80.70 5.00  31.61 2369.25
   18:53:59.304.10-Nov-2020 4475.51 5006.83 80.70 5.00  31.81 2369.25
   18:53:59.505.10-Nov-2020 4475.51 5006.93 80.70 5.00  32.01 2369.25
   18:53:59.705.10-Nov-2020 4475.51 5006.93 80.70 5.00  32.21 2369.25
   18:53:59.905.10-Nov-2020 4475.51 5007.22 80.69 5.00  32.41 2369.25
   18:54:00.105.10-Nov-2020 4475.51 5006.08 80.69 5.00  32.61 2369.25
   18:54:00.305.10-Nov-2020 4475.51 5006.66 80.69 5.00  32.81 2369.25
   18:54:00.505.10-Nov-2020 4475.51 5006.74 80.69 5.00  33.01 2369.25
   18:54:00.705.10-Nov-2020 4475.51 5006.74 80.69 5.00  33.21 2369.25
   18:54:00.905.10-Nov-2020 4475.51 5007.11 80.69 5.00  33.41 2369.25
   18:54:01.105.10-Nov-2020 4475.51 5007.59 80.69 5.00  33.61 2369.25
   18:54:01.305.10-Nov-2020 4475.51 5007.22 80.69 5.00  33.81 2369.25
   18:54:01.505.10-Nov-2020 4475.51 5011.10 80.69 5.00  34.01 2369.25
   18:54:01.705.10-Nov-2020 4475.51 5008.03 80.69 5.00  34.21 2369.25
   18:54:01.905.10-Nov-2020 4475.51 5006.48 80.69 5.00  34.41 2369.25
   18:54:02.105.10-Nov-2020 4475.51 5007.10 80.69 5.00  34.61 2369.25
   18:54:02.305.10-Nov-2020 4475.51 5006.91 80.69 5.00  34.81 2369.25
   18:54:02.505.10-Nov-2020 4475.51 5006.57 80.69 5.00  35.01 2369.25
   18:54:02.705.10-Nov-2020 4475.51 5006.57 80.69 5.00  35.21 2369.25
   18:54:02.905.10-Nov-2020 4475.51 5005.46 80.69 5.00  35.41 2369.25
   18:54:03.106.10-Nov-2020 4475.51 5005.85 80.69 5.00  35.61 2369.25
   18:54:03.306.10-Nov-2020 4475.51 5007.24 80.68 5.00  35.81 2369.25
   18:54:03.506.10-Nov-2020 4475.51 5021.27 80.68 5.00  36.01 2369.25
   18:54:03.706.10-Nov-2020 4475.51 5021.27 80.68 5.00  36.21 2369.25
   18:54:03.906.10-Nov-2020 4475.51 5074.25 80.68 5.00  36.41 2369.25
   18:54:04.106.10-Nov-2020 4475.51 5111.14 80.68 5.00  36.61 2369.25
   18:54:04.306.10-Nov-2020 4475.51 5182.70 80.68 5.00  36.81 2369.25
   18:54:04.506.10-Nov-2020 4475.51 5253.80 80.68 5.00  37.01 2369.25
   18:54:04.706.10-Nov-2020 4475.51 5253.80 80.68 5.00  37.21 2369.25
   18:54:04.906.10-Nov-2020 4475.51 5356.16 80.68 5.00  37.41 2369.25
   18:54:05.106.10-Nov-2020 4475.51 5382.00 80.68 5.00  37.61 2369.25
   18:54:05.306.10-Nov-2020 4475.51 5427.10 80.68 5.00  37.81 2369.25
   18:54:05.506.10-Nov-2020 4475.51 5468.53 80.68 5.00  38.01 2369.25
   18:54:05.706.10-Nov-2020 4475.51 5468.53 80.68 5.00  38.21 2369.25
   18:54:05.906.10-Nov-2020 4475.51 5529.79 80.68 5.00  38.41 2369.25
   18:54:06.106.10-Nov-2020 4475.51 5563.89 80.68 5.00  38.61 2369.25
   18:54:06.306.10-Nov-2020 4475.51 5598.65 80.68 5.00  38.81 2369.25
   18:54:06.506.10-Nov-2020 4475.51 5639.79 80.68 5.00  39.01 2369.25
   18:54:06.707.10-Nov-2020 4475.51 5639.79 80.68 5.00  39.21 2369.25
   18:54:06.907.10-Nov-2020 4475.51 5692.59 80.68 5.00  39.41 2369.25
   18:54:07.107.10-Nov-2020 4475.51 5683.45 80.68 5.00  39.61 2369.25
   18:54:07.307.10-Nov-2020 4475.51 5611.00 80.68 5.00  39.81 2369.25
   18:54:07.507.10-Nov-2020 4475.51 5175.14 80.68 5.00  40.01 2369.25
   18:54:07.707.10-Nov-2020 4475.51 5175.14 80.68 5.00  40.21 2369.25
   18:54:07.907.10-Nov-2020 4475.51 5125.15 80.67 5.00  40.41 2369.25
   18:54:08.107.10-Nov-2020 4475.51 5122.42 80.67 5.00  40.61 2369.25
   18:54:08.307.10-Nov-2020 4475.51 5104.82 80.67 5.00  40.81 2369.25
   18:54:08.507.10-Nov-2020 4475.51 5094.61 80.67 5.00  41.01 2369.25
   18:54:08.707.10-Nov-2020 4475.51 5094.61 80.67 5.00  41.21 2369.25
   18:54:08.907.10-Nov-2020 4475.51 5080.36 80.67 5.00  41.41 2369.25
   18:54:09.107.10-Nov-2020 4475.51 5078.67 80.67 5.00  41.61 2369.25
   18:54:09.307.10-Nov-2020 4475.51 5075.73 80.67 5.00  41.81 2369.25
   18:54:09.507.10-Nov-2020 4475.51 5074.89 80.67 5.00  42.01 2369.25
   18:54:09.707.10-Nov-2020 4475.51 5073.74 80.67 5.00  42.21 2369.25
   18:54:09.907.10-Nov-2020 4475.51 5072.81 80.67 5.00  42.41 2369.25
   18:54:10.107.10-Nov-2020 4475.51 5071.97 80.67 5.00  42.61 2369.25
   18:54:10.308.10-Nov-2020 4475.51 5070.98 80.67 5.00  42.81 2369.25
   18:54:10.508.10-Nov-2020 4475.51 5070.91 80.67 5.00  43.01 2369.25
   18:54:10.708.10-Nov-2020 4475.51 5070.91 80.67 5.00  43.21 2369.25
   18:54:10.908.10-Nov-2020 4475.51 5070.14 80.67 5.00  43.41 2369.25
   18:54:11.108.10-Nov-2020 4475.51 5073.83 80.67 5.00  43.61 2369.25
   18:54:11.308.10-Nov-2020 4475.51 5074.04 80.67 5.00  43.81 2369.25
   18:54:11.508.10-Nov-2020 4475.51 5073.34 80.67 5.00  44.01 2369.25
   18:54:11.708.10-Nov-2020 4475.51 5073.34 80.67 5.00  44.21 2369.25
   18:54:11.908.10-Nov-2020 4475.51 5074.21 80.66 5.00  44.41 2369.25
   18:54:12.108.10-Nov-2020 4475.51 5199.27 80.66 5.00  44.61 2369.25
   18:54:12.308.10-Nov-2020 4475.51 5013.30 80.66 5.00  44.81 2369.25
   18:54:12.508.10-Nov-2020 4475.51 5008.01 80.66 5.00  45.01 2369.25
   18:54:12.708.10-Nov-2020 4475.51 5006.09 80.66 5.00  45.21 2369.25
   18:54:12.908.10-Nov-2020 4475.51 4984.03 80.66 5.00  45.41 2369.25
   18:54:13.108.10-Nov-2020 4475.51 4823.55 80.66 5.00  45.61 2369.25
   18:54:13.308.10-Nov-2020 4475.51 4592.27 80.66 5.00  45.81 2369.25
