~Version Information
 VERS.                  2.0:   CWLS log ASCII Standard -VERSION 2.0
 WRAP.                   NO:   One line per depth step
~Well Information Block
#MNEM.UNIT     VALUE/NAME     DESCRIPTION
#---------     -----------    ---------------------------
 STRT.S             09:21:26 08-Nov-20: START TIME 09:21:26 08-Nov-20
 STOP.S             09:27:58 08-Nov-20: STOP TIME  09:27:58 08-Nov-20
 STEP.S                   0.00: STEP TIME
 NULL.                 -999.25: NULL VALUE
 DFWT.                        :  DIST FWL TEXT
 DFST.                        :  DIST FSL TEXT
 DMF .             Drill Floor:  DRILL MEAS FROM
 STIM.      04.54.24 22-Sep-20:  START TIME
 DATE.      04.54.24 21-Nov-20:  END TIME
 SPUD.               21-Nov-20:  SPUD DATE
 NREF.                    Grid:  NORTH REFERENCE
 HPTY.       Minimum Curvature:  HOLE POS TYPE
 DMOD.             Drill Model:  DRILL MOD DESC
 SVYD.                  Survey:  SURVEY DESC
 ILTD.               Lithology:  INTERP LTH DESC
 FTOP.          Formation Tops:  FORM TOPS DESC
 SON .        AZ-XX-0906571587:  JOB NUMBER
 COMP.     BP Exploration (Caspian Sea) Ltd:  COMPANY
 UWI .                     N/A:  UNIQUE WELL IDENTIFIER
 API .                     N/A:  API NUMBER
 BASE.              Azerbaijan:  LOGGING EQUIPMENT BASE LOCATION
 REGN.                   EESSA:  REGION
 PROV.                    Baku:  PROVINCE
 STAT.                    Baku:  STATE NAME
 CTRY.              Azerbaijan:  COUNTRY NAME
 FLD .                     ACG:  FIELD NAME
 SRVC.     TURAN Drilling & Engineering:  CONTRACTOR
 WELL.                     J27:  WELL NAME
 RIG .             West Chirag:  RIG NAME
 DOE .                     N/A:  DOE NUMBER
 DCON.         Sperry Drilling:  DIRECTNL CONTR
 PDAT.          Mean Sea Level:  PERMANENT DATUM
 WTYP.                Deviated:  WELL TYPE
 MWDS.                    Baku:  MWD SHOP
 JOBN.        AZ-XX-0906571587:  JOB TICKET NUMB
 UNIT.                     N/A:  LOGGING EQUIPMENT ID
 MDS .        Operator Entered:  MAG DATA SOURCE
 CNTY.                        :  COUNTY
 LOC .                        :  LOCATION
 LMF .             Drill Floor:  LOG MEASURED FROM
 TVDS.m                  43.00:  TVDSS CORRECTN
 LATI.deg                40.13:  LATITUDE
 LONG.deg                51.22:  LONGITUDE
 WHNS.m                   7.72:  WELL HEAD N/S
 WHEW.m                 -14.24:  WELL HEAD E/W
 UTMX.m              519005.06:  UTM X
 UTMY.m             4443793.85:  UTM Y
 DFWL.m                   0.00:  DISTANCE FWL
 DFSL.m                   0.00:  DISTANCE FSL
 SDEP.m                 347.00:  START DEPTH
 TDD .m                 581.00:  TOTAL DEPTH (DRILLER)
 VSDR.deg               159.72:  VERT SEC DIRECT
 GVFD.g                   1.00:  GRAVITY FIELD
 MFLD.nT              50313.00:  MAGNETIC FIELD
 MDIP.deg                59.58:  MAGNETIC DIP
 MDEC.deg                 6.45:  MAGNETIC DECL
 GRDC.deg                 0.15:  GRID CORRECTION
 AZTC.deg                 6.30:  AZM TOTAL CORR
 EPD .m                   0.00:  ELEVATION
 EGL .m                   0.00:  GROUND ELEVATION
 WDMS.m                 169.80:  WD ELEV
 APD .m                  43.00:  DEPTH ABOVE PD
 AGAP.m                  43.00:  AIR GAP
 VSEW.m                 -14.24:  VERT SEC E/W
 VSNS.m                   7.72:  VERT SEC N/S
 DEP .m                 342.45:  DEPTH
 EKB .m                   0.00:  KB ELEVATION
 EDF .m                  43.00:  DF ELEVATION
 TDL .m                1313.00:  TOTAL DEPTH (LOGGER)
 VSC .                       0:  VS TO CLOSURE
 MAGU.                 1851396:  MAGUTM CHECKSUM
~Parameter Information Block
#MNEM.UNIT       Value        Description
#---------     -----------    ---------------------------
 AV  .mps                 0.65:  Ann Velocity 
 AVMX.mps                 0.75:  Max Ann Veloc 
 AZIF.deg               115.08:  Azm, Final 
 BHAT.        Rotary Steerable:  BHA Type 
 BROT.°/30m               1.50:  Build Rotating 
 BS  .in                 12.25:  Bit Size 
 BSZ .in                 12.25:  Bit Size 
 BTPL.psig              700.00:  Bit Press Loss 
 CABU.                     Yes:  Customer Abuse 
 COMM.                     <
V:  Run Comments 1 
 TCS .hr                121.00:  Time Ciculation Ended 
 CV  .mps                 1.83:  Crit Velocity 
 CVMX.mps                 1.83:  Max Crit Veloc 
 DD1 .          Rashad Habibov:  Direct Drillr 1 
 DD2 .         Rasim Ibrahimov:  Direct Drillr 2 
 DDSV.                 iCruise:  DD Service 
 DEFF.%                 100.00:  % Det Eff 
 DLRX.°/30m               3.60:  Dogleg Rot Max 
 DLSO.°/30m               3.10:  Dogleg Oriented 
 DLSX.°/30m               3.60:  Dogleg Str Max 
 DRET.      13.41.20 12-Nov-20:  Drill End Time 
 DRST.      13.41.20 07-Nov-20:  Drill Start Tim 
 DTIM.hr                 54.16:  Time Drilling 
 EDEP.m                4762.01:  End Depth 
 ENG1.           Amrah Tahirov:  Engineer 1 
 ENG2.      Bakhtiyar Jabbarli:  Engineer 2 
 ENG3.          Ruslan Safarov:  Engineer 3 
 ETIM.      13.41.20 14-Nov-20:  End Time 
 FLOI.gpm              1200.00:  Flow In 
 FLON.gpm              1100.00:  Flow In Min 
 FLOS.cptm                0.00:  Fluid Loss 
 FLOX.gpm              1200.00:  Flow In Max 
 HFLO.                      No:  High Flow 
 HPRE.                      No:  High Pressure 
 HTEM.                      No:  High Temp 
 HYDO.m                   2.00:  Hydro Offset 
 IFIN.deg                66.14:  Inc, Final 
 IMAX.deg                69.03:  Inc Max 
 IMIN.deg                64.64:  Inc Min 
 IMND.m                4450.16:  Inc Min Depth 
 IMXD.m                3996.00:  Inc Max Depth 
 JARR.                     Yes:  Jarring 
 LETM.      13.41.20 14-Nov-20:  Log End Time 
 LOST.hr                     0:  Lost Rig Time 
 LSTM.      13.41.20 06-Nov-20:  Log Start Time 
 MDCL.ppm             42500.00:  Mud Chlorides 
 MDES.     Inversion Oil/Synthetic:  Mud Desc 
 DFD .sg                  1.45:  Mud Density 
 MDMN.sg                  1.45:  Dens Mud Min 
 MDMX.sg                  1.45:  Dens Mud Max 
 MOIL.                      70:  Run Mud Oil % 
 MOWR.                   70:30:  Run Mud OWR 
 MSND.                       0:  Run Mud Sand % 
 MSOL.                    19.3:  Run Mud Solids% 
 DFV .spqt               77.00:  Mud Viscosity 
 MWOD.in                  8.00:  MWD Tool OD 
 MWSI.                      No:  Serv Intrp, MWD 
 OTIM.hr                201.88:  Time Operating 
 PCON.           Look Like New:  Pad Condition 
 PMAX.psia             9250.94:  Press Op, Max 
 PV  .cP                 29.00:  Mud PV 
 RUN .                     800:  Run Number 
 ROPA.m/hr               28.00:  ROP Avg 
 ROPN.m/hr               25.00:  ROP Min 
 ROPX.m/hr               30.00:  ROP Max 
 RPMA.rpm               160.00:  RPM Surface Avg 
 RPMN.rpm               160.00:  RPM Surface Min 
 RPMX.rpm               160.00:  RPM Surface Max 
 RRUN.                    0800:  Rig Run Number 
 RTIM.hr                 12.00:  Time Reaming 
 SAZI.deg               169.33:  Azm, Start 
 SDEP.m                3449.01:  Start Depth 
 SIDD.                      No:  Serv Intrp, DD 
 SINC.deg                68.01:  Inc, Start 
 SPPA.psig             4900.00:  SPP Avg 
 SPPN.psig             4800.00:  SPP Min 
 SPPX.psig             5050.00:  SPP Max 
 STIM.      13.41.20 06-Nov-20:  Start Time 
 SVCS.                 DD, MWD:  Services 
 SVER.                    9.20:  Sperry Version 
 TDAT.m                4762.01:  Tot Depth Attmp 
 TDDF.                      No:  Trip for DD 
 TDLG.m                1313.00:  Tot Depth Loggd 
 TFF .                      No:  Trip for Fail 
 TQAA.f-kp               13.00:  Torque Abs Avg 
 TQAN.f-kp               13.00:  Torque Abs Min 
 TQAX.f-kp               13.00:  Torque Abs Max 
 TRRT.°/30m               1.70:  Turn Rotating 
 MRT .                  EWR-M5:  Maximum Recorded Temperature 
 TTMX.degC               86.00:  Max Tool Temp 
 VS01.                90622122:  Virtual Str1 SN 
 VS02.                90577298:  Virtual Str2 SN 
 VS03.                90563623:  Virtual Str3 SN 
 VS04.                90617559:  Virtual Str4 SN 
 VS05.                11339492:  Virtual Str5 SN 
 VS06.                12385033:  Virtual Str6 SN 
 WBMN.klb                 0.00:  WOB Min 
 WOBA.klb                22.00:  WOB Avg 
 WOBX.klb                26.00:  WOB Max 
 YP  .lhf2               30.00:  Yield Point 
~Curve Information Block
#MNEM.UNIT                 API CODE     Curve Description
#---------               -----------    ---------------------------
 TIME.HHMMSS            00 000 000 000:  GT Time & Date
 GTDEPTH.m              00 000 000 000:  GT Depth
 GTPQH.psia             00 000 000 000:  GT HR Quartz Pressure
 GTTQ.degC              00 000 000 000:  GT Quartz Temperature
 GTTN.NONE              00 000 000 000:  GT Test Number
 GTET.sec               00 000 000 000:  GT Elapsed Test Time
 GTTVD.m                00 000 000 000:  GT True Vertical Depth
#Other Information
#
#WARRANTY: Halliburton will use its best efforts to furnish customers with 
#accurate information and interpretations that are part of, and incident to, the services 
#provided.  However, Halliburton cannot and does not warrant the accuracy 
#or correctness of such information and interpretations.  Under no circumstances should any 
#such information or interpretation be relied upon as the sole basis for any drilling, 
#completion, production, or financial decision or any procedure involving any risk to the 
#safety of any drilling venture, drilling rig or its crew or any other third party.  The 
#Customer has full responsibility for all drilling, completion and production operation.  
#Halliburton makes no representations or warranties, either expressed or 
#implied, including, but not limited to, the implied warranties of merchantability or fitness 
#for a particular purpose, with respect to the services rendered.  In no event will 
#Halliburton be liable for failure to obtain any particular results or for 
#any damages, including, but not limited to, indirect, special or consequential damages, 
#resulting from the use of any information or interpretation provided by Halliburton.
#
~A           TIME           GTDEPTH  GTPQH  GTTQ  GTTN  GTET   GTTVD  
# ...
   09:24:53.213.08-Nov-2020 3525.51 3323.33 70.11 1.00 207.04 2012.77
   09:24:53.413.08-Nov-2020 3525.51 3323.33 70.11 1.00 207.24 2012.77
   09:24:53.613.08-Nov-2020 3525.51 3323.35 70.11 1.00 207.44 2012.77
   09:24:53.813.08-Nov-2020 3525.51 3323.36 70.11 1.00 207.64 2012.77
   09:24:54.013.08-Nov-2020 3525.51 3323.31 70.11 1.00 207.84 2012.77
   09:24:54.213.08-Nov-2020 3525.51 3323.36 70.11 1.00 208.04 2012.77
   09:24:54.413.08-Nov-2020 3525.51 3323.36 70.11 1.00 208.24 2012.77
   09:24:54.613.08-Nov-2020 3525.51 3323.34 70.11 1.00 208.44 2012.77
   09:24:54.813.08-Nov-2020 3525.51 3323.36 70.11 1.00 208.64 2012.77
   09:24:55.013.08-Nov-2020 3525.51 3323.30 70.11 1.00 208.84 2012.77
   09:24:55.213.08-Nov-2020 3525.51 3323.36 70.11 1.00 209.04 2012.77
   09:24:55.413.08-Nov-2020 3525.51 3323.36 70.11 1.00 209.24 2012.77
   09:24:55.613.08-Nov-2020 3525.51 3323.36 70.11 1.00 209.44 2012.77
   09:24:55.813.08-Nov-2020 3525.51 3323.36 70.11 1.00 209.64 2012.77
   09:24:56.013.08-Nov-2020 3525.51 3323.31 70.11 1.00 209.84 2012.77
   09:24:56.213.08-Nov-2020 3525.51 3323.36 70.11 1.00 210.04 2012.77
   09:24:56.413.08-Nov-2020 3525.51 3323.36 70.11 1.00 210.24 2012.77
   09:24:56.613.08-Nov-2020 3525.51 3323.35 70.11 1.00 210.44 2012.77
   09:24:56.813.08-Nov-2020 3525.51 3323.37 70.11 1.00 210.64 2012.77
   09:24:57.013.08-Nov-2020 3525.51 3323.31 70.11 1.00 210.84 2012.77
   09:24:57.213.08-Nov-2020 3525.51 3323.36 70.10 1.00 211.04 2012.77
   09:24:57.413.08-Nov-2020 3525.51 3323.36 70.10 1.00 211.24 2012.77
   09:24:57.613.08-Nov-2020 3525.51 3323.35 70.10 1.00 211.44 2012.77
   09:24:57.813.08-Nov-2020 3525.51 3323.36 70.10 1.00 211.64 2012.77
   09:24:58.013.08-Nov-2020 3525.51 3323.35 70.10 1.00 211.84 2012.77
   09:24:58.213.08-Nov-2020 3525.51 3323.34 70.10 1.00 212.04 2012.77
   09:24:58.413.08-Nov-2020 3525.51 3323.34 70.10 1.00 212.24 2012.77
   09:24:58.614.08-Nov-2020 3525.51 3323.34 70.10 1.00 212.44 2012.77
   09:24:58.814.08-Nov-2020 3525.51 3323.35 70.10 1.00 212.64 2012.77
   09:24:59.014.08-Nov-2020 3525.51 3323.34 70.10 1.00 212.84 2012.77
   09:24:59.214.08-Nov-2020 3525.51 3323.34 70.10 1.00 213.04 2012.77
   09:24:59.414.08-Nov-2020 3525.51 3323.34 70.10 1.00 213.24 2012.77
   09:24:59.614.08-Nov-2020 3525.51 3323.33 70.10 1.00 213.44 2012.77
   09:24:59.814.08-Nov-2020 3525.51 3323.31 70.10 1.00 213.64 2012.77
   09:25:00.014.08-Nov-2020 3525.51 3323.36 70.10 1.00 213.84 2012.77
   09:25:00.214.08-Nov-2020 3525.51 3323.35 70.10 1.00 214.04 2012.77
   09:25:00.414.08-Nov-2020 3525.51 3323.35 70.10 1.00 214.24 2012.77
   09:25:00.614.08-Nov-2020 3525.51 3323.35 70.10 1.00 214.44 2012.77
   09:25:00.814.08-Nov-2020 3525.51 3323.34 70.10 1.00 214.64 2012.77
   09:25:01.014.08-Nov-2020 3525.51 3323.34 70.10 1.00 214.84 2012.77
   09:25:01.214.08-Nov-2020 3525.51 3323.33 70.10 1.00 215.04 2012.77
   09:25:01.414.08-Nov-2020 3525.51 3323.33 70.10 1.00 215.24 2012.77
   09:25:01.614.08-Nov-2020 3525.51 3323.34 70.10 1.00 215.44 2012.77
   09:25:01.814.08-Nov-2020 3525.51 3323.34 70.10 1.00 215.64 2012.77
   09:25:02.014.08-Nov-2020 3525.51 3323.34 70.09 1.00 215.84 2012.77
   09:25:02.214.08-Nov-2020 3525.51 3323.29 70.09 1.00 216.04 2012.77
   09:25:02.414.08-Nov-2020 3525.51 3323.29 70.09 1.00 216.24 2012.77
   09:25:02.614.08-Nov-2020 3525.51 3323.36 70.09 1.00 216.44 2012.77
   09:25:02.814.08-Nov-2020 3525.51 3323.30 70.09 1.00 216.64 2012.77
   09:25:03.014.08-Nov-2020 3525.51 3323.38 70.09 1.00 216.84 2012.77
   09:25:03.214.08-Nov-2020 3525.51 3323.35 70.09 1.00 217.04 2012.77
   09:25:03.414.08-Nov-2020 3525.51 3323.35 70.09 1.00 217.24 2012.77
   09:25:03.614.08-Nov-2020 3525.51 3323.36 70.09 1.00 217.44 2012.77
   09:25:03.814.08-Nov-2020 3525.51 3323.34 70.09 1.00 217.64 2012.77
   09:25:04.014.08-Nov-2020 3525.51 3323.32 70.09 1.00 217.84 2012.77
   09:25:04.214.08-Nov-2020 3525.51 3323.36 70.09 1.00 218.04 2012.77
   09:25:04.414.08-Nov-2020 3525.51 3323.36 70.09 1.00 218.24 2012.77
   09:25:04.615.08-Nov-2020 3525.51 3323.35 70.09 1.00 218.44 2012.77
   09:25:04.815.08-Nov-2020 3525.51 3323.35 70.09 1.00 218.64 2012.77
   09:25:05.015.08-Nov-2020 3525.51 3323.31 70.09 1.00 218.84 2012.77
   09:25:05.215.08-Nov-2020 3525.51 3323.36 70.09 1.00 219.04 2012.77
   09:25:05.415.08-Nov-2020 3525.51 3323.36 70.09 1.00 219.24 2012.77
   09:25:05.615.08-Nov-2020 3525.51 3323.36 70.09 1.00 219.44 2012.77
   09:25:05.815.08-Nov-2020 3525.51 3323.30 70.09 1.00 219.64 2012.77
   09:25:06.015.08-Nov-2020 3525.51 3323.36 70.09 1.00 219.84 2012.77
   09:25:06.215.08-Nov-2020 3525.51 3323.36 70.09 1.00 220.04 2012.77
   09:25:06.415.08-Nov-2020 3525.51 3323.36 70.09 1.00 220.24 2012.77
   09:25:06.615.08-Nov-2020 3525.51 3323.37 70.09 1.00 220.44 2012.77
   09:25:06.815.08-Nov-2020 3525.51 3323.35 70.08 1.00 220.64 2012.77
   09:25:07.015.08-Nov-2020 3525.51 3323.35 70.08 1.00 220.84 2012.77
   09:25:07.215.08-Nov-2020 3525.51 3323.35 70.08 1.00 221.04 2012.77
   09:25:07.415.08-Nov-2020 3525.51 3323.35 70.08 1.00 221.24 2012.77
   09:25:07.615.08-Nov-2020 3525.51 3323.35 70.08 1.00 221.44 2012.77
   09:25:07.815.08-Nov-2020 3525.51 3323.36 70.08 1.00 221.64 2012.77
   09:25:08.015.08-Nov-2020 3525.51 3323.34 70.08 1.00 221.84 2012.77
   09:25:08.215.08-Nov-2020 3525.51 3323.35 70.08 1.00 222.04 2012.77
   09:25:08.415.08-Nov-2020 3525.51 3323.35 70.08 1.00 222.24 2012.77
   09:25:08.615.08-Nov-2020 3525.51 3323.30 70.08 1.00 222.44 2012.77
   09:25:08.815.08-Nov-2020 3525.51 3323.34 70.08 1.00 222.64 2012.77
   09:25:09.015.08-Nov-2020 3525.51 3323.35 70.08 1.00 222.84 2012.77
   09:25:09.215.08-Nov-2020 3525.51 3323.35 70.08 1.00 223.04 2012.77
   09:25:09.415.08-Nov-2020 3525.51 3323.35 70.08 1.00 223.24 2012.77
   09:25:09.615.08-Nov-2020 3525.51 3323.35 70.08 1.00 223.44 2012.77
   09:25:09.815.08-Nov-2020 3525.51 3323.35 70.08 1.00 223.64 2012.77
   09:25:10.015.08-Nov-2020 3525.51 3323.45 70.08 1.00 223.84 2012.77
   09:25:10.215.08-Nov-2020 3525.51 3323.38 70.08 1.00 224.04 2012.77
   09:25:10.416.08-Nov-2020 3525.51 3323.38 70.08 1.00 224.24 2012.77
   09:25:10.616.08-Nov-2020 3525.51 3323.36 70.08 1.00 224.44 2012.77
   09:25:10.816.08-Nov-2020 3525.51 3323.35 70.08 1.00 224.64 2012.77
   09:25:11.016.08-Nov-2020 3525.51 3323.34 70.08 1.00 224.84 2012.77
   09:25:11.216.08-Nov-2020 3525.51 3323.30 70.08 1.00 225.04 2012.77
   09:25:11.416.08-Nov-2020 3525.51 3323.30 70.08 1.00 225.24 2012.77
   09:25:11.616.08-Nov-2020 3525.51 3323.38 70.07 1.00 225.44 2012.77
   09:25:11.816.08-Nov-2020 3525.51 3323.31 70.07 1.00 225.64 2012.77
   09:25:12.016.08-Nov-2020 3525.51 3323.36 70.07 1.00 225.84 2012.77
   09:25:12.216.08-Nov-2020 3525.51 3323.37 70.07 1.00 226.04 2012.77
   09:25:12.416.08-Nov-2020 3525.51 3323.37 70.07 1.00 226.24 2012.77
   09:25:12.616.08-Nov-2020 3525.51 3323.36 70.07 1.00 226.44 2012.77
   09:25:12.816.08-Nov-2020 3525.51 3323.31 70.07 1.00 226.64 2012.77
   09:25:13.016.08-Nov-2020 3525.51 3323.34 70.07 1.00 226.84 2012.77
   09:25:13.216.08-Nov-2020 3525.51 3323.35 70.07 1.00 227.04 2012.77
   09:25:13.416.08-Nov-2020 3525.51 3323.35 70.07 1.00 227.24 2012.77
   09:25:13.616.08-Nov-2020 3525.51 3323.37 70.07 1.00 227.44 2012.77
   09:25:13.816.08-Nov-2020 3525.51 3323.36 70.07 1.00 227.64 2012.77
   09:25:14.016.08-Nov-2020 3525.51 3323.31 70.07 1.00 227.84 2012.77
   09:25:14.216.08-Nov-2020 3525.51 3323.37 70.07 1.00 228.04 2012.77
   09:25:14.416.08-Nov-2020 3525.51 3323.37 70.07 1.00 228.24 2012.77
   09:25:14.616.08-Nov-2020 3525.51 3323.36 70.07 1.00 228.44 2012.77
   09:25:14.816.08-Nov-2020 3525.51 3323.33 70.07 1.00 228.64 2012.77
   09:25:15.016.08-Nov-2020 3525.51 3323.38 70.07 1.00 228.84 2012.77
   09:25:15.216.08-Nov-2020 3525.51 3323.37 70.07 1.00 229.04 2012.77
   09:25:15.416.08-Nov-2020 3525.51 3323.37 70.07 1.00 229.24 2012.77
   09:25:15.616.08-Nov-2020 3525.51 3323.36 70.07 1.00 229.44 2012.77
   09:25:15.816.08-Nov-2020 3525.51 3323.35 70.07 1.00 229.64 2012.77
   09:25:16.016.08-Nov-2020 3525.51 3323.35 70.07 1.00 229.84 2012.77
