~Version Information
 VERS.                  2.0:   CWLS log ASCII Standard -VERSION 2.0
 WRAP.                   NO:   One line per depth step
~Well Information Block
#MNEM.UNIT     VALUE/NAME     DESCRIPTION
#---------     -----------    ---------------------------
 STRT.S             01:27:57 11-Nov-20: START TIME 01:27:57 11-Nov-20
 STOP.S             01:34:34 11-Nov-20: STOP TIME  01:34:34 11-Nov-20
 STEP.S                   0.00: STEP TIME
 NULL.                 -999.25: NULL VALUE
 DFWT.                        :  DIST FWL TEXT
 DFST.                        :  DIST FSL TEXT
 DMF .             Drill Floor:  DRILL MEAS FROM
 STIM.      04.54.24 22-Sep-20:  START TIME
 DATE.      04.54.24 21-Nov-20:  END TIME
 SPUD.               21-Nov-20:  SPUD DATE
 NREF.                    Grid:  NORTH REFERENCE
 HPTY.       Minimum Curvature:  HOLE POS TYPE
 DMOD.             Drill Model:  DRILL MOD DESC
 SVYD.                  Survey:  SURVEY DESC
 ILTD.               Lithology:  INTERP LTH DESC
 FTOP.          Formation Tops:  FORM TOPS DESC
 SON .        AZ-XX-0906571587:  JOB NUMBER
 COMP.     BP Exploration (Caspian Sea) Ltd:  COMPANY
 UWI .                     N/A:  UNIQUE WELL IDENTIFIER
 API .                     N/A:  API NUMBER
 BASE.              Azerbaijan:  LOGGING EQUIPMENT BASE LOCATION
 REGN.                   EESSA:  REGION
 PROV.                    Baku:  PROVINCE
 STAT.                    Baku:  STATE NAME
 CTRY.              Azerbaijan:  COUNTRY NAME
 FLD .                     ACG:  FIELD NAME
 SRVC.     TURAN Drilling & Engineering:  CONTRACTOR
 WELL.                     J27:  WELL NAME
 RIG .             West Chirag:  RIG NAME
 DOE .                     N/A:  DOE NUMBER
 DCON.         Sperry Drilling:  DIRECTNL CONTR
 PDAT.          Mean Sea Level:  PERMANENT DATUM
 WTYP.                Deviated:  WELL TYPE
 MWDS.                    Baku:  MWD SHOP
 JOBN.        AZ-XX-0906571587:  JOB TICKET NUMB
 UNIT.                     N/A:  LOGGING EQUIPMENT ID
 MDS .        Operator Entered:  MAG DATA SOURCE
 CNTY.                        :  COUNTY
 LOC .                        :  LOCATION
 LMF .             Drill Floor:  LOG MEASURED FROM
 TVDS.m                  43.00:  TVDSS CORRECTN
 LATI.deg                40.13:  LATITUDE
 LONG.deg                51.22:  LONGITUDE
 WHNS.m                   7.72:  WELL HEAD N/S
 WHEW.m                 -14.24:  WELL HEAD E/W
 UTMX.m              519005.06:  UTM X
 UTMY.m             4443793.85:  UTM Y
 DFWL.m                   0.00:  DISTANCE FWL
 DFSL.m                   0.00:  DISTANCE FSL
 SDEP.m                 347.00:  START DEPTH
 TDD .m                 581.00:  TOTAL DEPTH (DRILLER)
 VSDR.deg               159.72:  VERT SEC DIRECT
 GVFD.g                   1.00:  GRAVITY FIELD
 MFLD.nT              50313.00:  MAGNETIC FIELD
 MDIP.deg                59.58:  MAGNETIC DIP
 MDEC.deg                 6.45:  MAGNETIC DECL
 GRDC.deg                 0.15:  GRID CORRECTION
 AZTC.deg                 6.30:  AZM TOTAL CORR
 EPD .m                   0.00:  ELEVATION
 EGL .m                   0.00:  GROUND ELEVATION
 WDMS.m                 169.80:  WD ELEV
 APD .m                  43.00:  DEPTH ABOVE PD
 AGAP.m                  43.00:  AIR GAP
 VSEW.m                 -14.24:  VERT SEC E/W
 VSNS.m                   7.72:  VERT SEC N/S
 DEP .m                 342.45:  DEPTH
 EKB .m                   0.00:  KB ELEVATION
 EDF .m                  43.00:  DF ELEVATION
 TDL .m                1313.00:  TOTAL DEPTH (LOGGER)
 VSC .                       0:  VS TO CLOSURE
 MAGU.                 1851396:  MAGUTM CHECKSUM
~Parameter Information Block
#MNEM.UNIT       Value        Description
#---------     -----------    ---------------------------
 AV  .mps                 0.65:  Ann Velocity 
 AVMX.mps                 0.75:  Max Ann Veloc 
 AZIF.deg               115.08:  Azm, Final 
 BHAT.        Rotary Steerable:  BHA Type 
 BROT.∞/30m               1.50:  Build Rotating 
 BS  .in                 12.25:  Bit Size 
 BSZ .in                 12.25:  Bit Size 
 BTPL.psig              700.00:  Bit Press Loss 
 CABU.                     Yes:  Customer Abuse 
 COMM.                     ÏSu:  Run Comments 1 
 TCS .hr                121.00:  Time Ciculation Ended 
 CV  .mps                 1.83:  Crit Velocity 
 CVMX.mps                 1.83:  Max Crit Veloc 
 DD1 .          Rashad Habibov:  Direct Drillr 1 
 DD2 .         Rasim Ibrahimov:  Direct Drillr 2 
 DDSV.                 iCruise:  DD Service 
 DEFF.%                 100.00:  % Det Eff 
 DLRX.∞/30m               3.60:  Dogleg Rot Max 
 DLSO.∞/30m               3.10:  Dogleg Oriented 
 DLSX.∞/30m               3.60:  Dogleg Str Max 
 DRET.      13.41.20 12-Nov-20:  Drill End Time 
 DRST.      13.41.20 07-Nov-20:  Drill Start Tim 
 DTIM.hr                 54.16:  Time Drilling 
 EDEP.m                4762.01:  End Depth 
 ENG1.           Amrah Tahirov:  Engineer 1 
 ENG2.      Bakhtiyar Jabbarli:  Engineer 2 
 ENG3.          Ruslan Safarov:  Engineer 3 
 ETIM.      13.41.20 14-Nov-20:  End Time 
 FLOI.gpm              1200.00:  Flow In 
 FLON.gpm              1100.00:  Flow In Min 
 FLOS.cptm                0.00:  Fluid Loss 
 FLOX.gpm              1200.00:  Flow In Max 
 HFLO.                      No:  High Flow 
 HPRE.                      No:  High Pressure 
 HTEM.                      No:  High Temp 
 HYDO.m                   2.00:  Hydro Offset 
 IFIN.deg                66.14:  Inc, Final 
 IMAX.deg                69.03:  Inc Max 
 IMIN.deg                64.64:  Inc Min 
 IMND.m                4450.16:  Inc Min Depth 
 IMXD.m                3996.00:  Inc Max Depth 
 JARR.                     Yes:  Jarring 
 LETM.      13.41.20 14-Nov-20:  Log End Time 
 LOST.hr                     0:  Lost Rig Time 
 LSTM.      13.41.20 06-Nov-20:  Log Start Time 
 MDCL.ppm             42500.00:  Mud Chlorides 
 MDES.     Inversion Oil/Synthetic:  Mud Desc 
 DFD .sg                  1.45:  Mud Density 
 MDMN.sg                  1.45:  Dens Mud Min 
 MDMX.sg                  1.45:  Dens Mud Max 
 MOIL.                      70:  Run Mud Oil % 
 MOWR.                   70:30:  Run Mud OWR 
 MSND.                       0:  Run Mud Sand % 
 MSOL.                    19.3:  Run Mud Solids% 
 DFV .spqt               77.00:  Mud Viscosity 
 MWOD.in                  8.00:  MWD Tool OD 
 MWSI.                      No:  Serv Intrp, MWD 
 OTIM.hr                201.88:  Time Operating 
 PCON.           Look Like New:  Pad Condition 
 PMAX.psia             9250.94:  Press Op, Max 
 PV  .cP                 29.00:  Mud PV 
 RUN .                     800:  Run Number 
 ROPA.m/hr               28.00:  ROP Avg 
 ROPN.m/hr               25.00:  ROP Min 
 ROPX.m/hr               30.00:  ROP Max 
 RPMA.rpm               160.00:  RPM Surface Avg 
 RPMN.rpm               160.00:  RPM Surface Min 
 RPMX.rpm               160.00:  RPM Surface Max 
 RRUN.                    0800:  Rig Run Number 
 RTIM.hr                 12.00:  Time Reaming 
 SAZI.deg               169.33:  Azm, Start 
 SDEP.m                3449.01:  Start Depth 
 SIDD.                      No:  Serv Intrp, DD 
 SINC.deg                68.01:  Inc, Start 
 SPPA.psig             4900.00:  SPP Avg 
 SPPN.psig             4800.00:  SPP Min 
 SPPX.psig             5050.00:  SPP Max 
 STIM.      13.41.20 06-Nov-20:  Start Time 
 SVCS.                 DD, MWD:  Services 
 SVER.                    9.20:  Sperry Version 
 TDAT.m                4762.01:  Tot Depth Attmp 
 TDDF.                      No:  Trip for DD 
 TDLG.m                1313.00:  Tot Depth Loggd 
 TFF .                      No:  Trip for Fail 
 TQAA.f-kp               13.00:  Torque Abs Avg 
 TQAN.f-kp               13.00:  Torque Abs Min 
 TQAX.f-kp               13.00:  Torque Abs Max 
 TRRT.∞/30m               1.70:  Turn Rotating 
 MRT .                  EWR-M5:  Maximum Recorded Temperature 
 TTMX.degC               86.00:  Max Tool Temp 
 VS01.                90622122:  Virtual Str1 SN 
 VS02.                90577298:  Virtual Str2 SN 
 VS03.                90563623:  Virtual Str3 SN 
 VS04.                90617559:  Virtual Str4 SN 
 VS05.                11339492:  Virtual Str5 SN 
 VS06.                12385033:  Virtual Str6 SN 
 WBMN.klb                 0.00:  WOB Min 
 WOBA.klb                22.00:  WOB Avg 
 WOBX.klb                26.00:  WOB Max 
 YP  .lhf2               30.00:  Yield Point 
~Curve Information Block
#MNEM.UNIT                 API CODE     Curve Description
#---------               -----------    ---------------------------
 TIME.HHMMSS            00 000 000 000:  GT Time & Date
 GTDEPTH.m              00 000 000 000:  GT Depth
 GTPQH.psia             00 000 000 000:  GT HR Quartz Pressure
 GTTQ.degC              00 000 000 000:  GT Quartz Temperature
 GTTN.NONE              00 000 000 000:  GT Test Number
 GTET.sec               00 000 000 000:  GT Elapsed Test Time
 GTTVD.m                00 000 000 000:  GT True Vertical Depth
#Other Information
#
#WARRANTY: Halliburton will use its best efforts to furnish customers with 
#accurate information and interpretations that are part of, and incident to, the services 
#provided.  However, Halliburton cannot and does not warrant the accuracy 
#or correctness of such information and interpretations.  Under no circumstances should any 
#such information or interpretation be relied upon as the sole basis for any drilling, 
#completion, production, or financial decision or any procedure involving any risk to the 
#safety of any drilling venture, drilling rig or its crew or any other third party.  The 
#Customer has full responsibility for all drilling, completion and production operation.  
#Halliburton makes no representations or warranties, either expressed or 
#implied, including, but not limited to, the implied warranties of merchantability or fitness 
#for a particular purpose, with respect to the services rendered.  In no event will 
#Halliburton be liable for failure to obtain any particular results or for 
#any damages, including, but not limited to, indirect, special or consequential damages, 
#resulting from the use of any information or interpretation provided by Halliburton.
#
~A           TIME           GTDEPTH  GTPQH  GTTQ  GTTN  GTET   GTTVD  
# ...
   01:34:05.000.11-Nov-2020 4560.01 3998.54 77.22 7.00 368.00 2403.77
   01:34:05.200.11-Nov-2020 4560.01 3998.52 77.22 7.00 368.20 2403.77
   01:34:05.400.11-Nov-2020 4560.01 3947.30 77.22 7.00 368.40 2403.77
   01:34:05.600.11-Nov-2020 4560.01 4010.17 77.22 7.00 368.60 2403.77
   01:34:05.800.11-Nov-2020 4560.01 4026.69 77.22 7.00 368.80 2403.77
   01:34:06.000.11-Nov-2020 4560.01 4084.77 77.22 7.00 369.00 2403.77
   01:34:06.200.11-Nov-2020 4560.01 4315.90 77.22 7.00 369.20 2403.77
   01:34:06.400.11-Nov-2020 4560.01 4779.56 77.22 7.00 369.40 2403.77
   01:34:06.600.11-Nov-2020 4560.01 5056.60 77.22 7.00 369.60 2403.77
   01:34:06.800.11-Nov-2020 4560.01 5056.88 77.22 7.00 369.80 2403.77
   01:34:07.000.11-Nov-2020 4560.01 5056.74 77.22 7.00 370.00 2403.77
   01:34:07.200.11-Nov-2020 4560.01 5056.74 77.22 7.00 370.20 2403.77
   01:34:07.400.11-Nov-2020 4560.01 5057.54 77.22 7.00 370.40 2403.77
   01:34:07.600.11-Nov-2020 4560.01 5057.92 77.22 7.00 370.60 2403.77
   01:34:07.800.11-Nov-2020 4560.01 5058.03 77.22 7.00 370.80 2403.77
   01:34:08.000.11-Nov-2020 4560.01 5058.38 77.22 7.00 371.00 2403.77
   01:34:08.200.11-Nov-2020 4560.01 5058.38 77.22 7.00 371.20 2403.77
   01:34:08.400.11-Nov-2020 4560.01 5064.38 77.22 7.00 371.40 2403.77
   01:34:08.600.11-Nov-2020 4560.01 5058.92 77.22 7.00 371.60 2403.77
   01:34:08.800.11-Nov-2020 4560.01 5059.94 77.22 7.00 371.80 2403.77
   01:34:09.000.11-Nov-2020 4560.01 5062.09 77.22 7.00 372.00 2403.77
   01:34:09.200.11-Nov-2020 4560.01 5062.09 77.22 7.00 372.20 2403.77
   01:34:09.400.11-Nov-2020 4560.01 5059.07 77.22 7.00 372.40 2403.77
   01:34:09.600.11-Nov-2020 4560.01 5058.65 77.22 7.00 372.60 2403.77
   01:34:09.800.11-Nov-2020 4560.01 5058.88 77.22 7.00 372.80 2403.77
   01:34:10.000.11-Nov-2020 4560.01 5062.04 77.22 7.00 373.00 2403.77
   01:34:10.200.11-Nov-2020 4560.01 5059.72 77.22 7.00 373.20 2403.77
   01:34:10.400.11-Nov-2020 4560.01 5060.22 77.22 7.00 373.40 2403.77
   01:34:10.600.11-Nov-2020 4560.01 5060.36 77.22 7.00 373.60 2403.77
   01:34:10.800.11-Nov-2020 4560.01 5063.03 77.22 7.00 373.80 2403.77
   01:34:11.000.11-Nov-2020 4560.01 5062.33 77.22 7.00 374.00 2403.77
   01:34:11.200.11-Nov-2020 4560.01 5062.33 77.22 7.00 374.20 2403.77
   01:34:11.400.11-Nov-2020 4560.01 5060.08 77.22 7.00 374.40 2403.77
   01:34:11.600.11-Nov-2020 4560.01 5060.92 77.22 7.00 374.60 2403.77
   01:34:11.800.11-Nov-2020 4560.01 5063.14 77.22 7.00 374.80 2403.77
   01:34:12.000.11-Nov-2020 4560.01 5059.88 77.22 7.00 375.00 2403.77
   01:34:12.200.11-Nov-2020 4560.01 5059.88 77.22 7.00 375.20 2403.77
   01:34:12.400.11-Nov-2020 4560.01 5059.69 77.22 7.00 375.40 2403.77
   01:34:12.600.11-Nov-2020 4560.01 5060.38 77.22 7.00 375.60 2403.77
   01:34:12.800.11-Nov-2020 4560.01 5060.50 77.22 7.00 375.80 2403.77
   01:34:13.000.11-Nov-2020 4560.01 5059.64 77.22 7.00 376.00 2403.77
   01:34:13.200.11-Nov-2020 4560.01 5059.64 77.22 7.00 376.20 2403.77
   01:34:13.400.11-Nov-2020 4560.01 5061.37 77.22 7.00 376.40 2403.77
   01:34:13.600.11-Nov-2020 4560.01 5061.08 77.22 7.00 376.60 2403.77
   01:34:13.800.11-Nov-2020 4560.01 5060.77 77.22 7.00 376.80 2403.77
   01:34:14.000.11-Nov-2020 4560.01 5060.83 77.22 7.00 377.00 2403.77
   01:34:14.200.11-Nov-2020 4560.01 5060.83 77.22 7.00 377.20 2403.77
   01:34:14.400.11-Nov-2020 4560.01 5061.15 77.22 7.00 377.40 2403.77
   01:34:14.600.11-Nov-2020 4560.01 5064.41 77.22 7.00 377.60 2403.77
   01:34:14.800.11-Nov-2020 4560.01 5060.63 77.22 7.00 377.80 2403.77
   01:34:15.000.11-Nov-2020 4560.01 5060.59 77.22 7.00 378.00 2403.77
   01:34:15.200.11-Nov-2020 4560.01 5060.59 77.22 7.00 378.20 2403.77
   01:34:15.400.11-Nov-2020 4560.01 5060.20 77.22 7.00 378.40 2403.77
   01:34:15.600.11-Nov-2020 4560.01 5060.04 77.22 7.00 378.60 2403.77
   01:34:15.800.11-Nov-2020 4560.01 5059.43 77.22 7.00 378.80 2403.77
   01:34:16.000.11-Nov-2020 4560.01 5059.83 77.22 7.00 379.00 2403.77
   01:34:16.200.11-Nov-2020 4560.01 5059.83 77.22 7.00 379.20 2403.77
   01:34:16.400.11-Nov-2020 4560.01 5060.51 77.22 7.00 379.40 2403.77
   01:34:16.600.11-Nov-2020 4560.01 5060.39 77.22 7.00 379.60 2403.77
   01:34:16.800.11-Nov-2020 4560.01 5060.37 77.22 7.00 379.80 2403.77
   01:34:17.000.11-Nov-2020 4560.01 5060.40 77.22 7.00 380.00 2403.77
   01:34:17.200.11-Nov-2020 4560.01 5060.40 77.22 7.00 380.20 2403.77
   01:34:17.400.11-Nov-2020 4560.01 5064.57 77.22 7.00 380.40 2403.77
   01:34:17.600.11-Nov-2020 4560.01 5060.12 77.22 7.00 380.60 2403.77
   01:34:17.800.11-Nov-2020 4560.01 5063.70 77.22 7.00 380.80 2403.77
   01:34:18.000.11-Nov-2020 4560.01 5059.70 77.22 7.00 381.00 2403.77
   01:34:18.200.11-Nov-2020 4560.01 5060.68 77.22 7.00 381.20 2403.77
   01:34:18.400.11-Nov-2020 4560.01 5058.49 77.22 7.00 381.40 2403.77
   01:34:18.600.11-Nov-2020 4560.01 5059.15 77.22 7.00 381.60 2403.77
   01:34:18.800.11-Nov-2020 4560.01 5062.93 77.22 7.00 381.80 2403.77
   01:34:19.000.11-Nov-2020 4560.01 5058.53 77.22 7.00 382.00 2403.77
   01:34:19.200.11-Nov-2020 4560.01 5059.65 77.22 7.00 382.20 2403.77
   01:34:19.400.11-Nov-2020 4560.01 5059.49 77.22 7.00 382.40 2403.77
   01:34:19.600.11-Nov-2020 4560.01 5063.69 77.22 7.00 382.60 2403.77
   01:34:19.800.11-Nov-2020 4560.01 5060.34 77.22 7.00 382.80 2403.77
   01:34:20.000.11-Nov-2020 4560.01 5060.52 77.22 7.00 383.00 2403.77
   01:34:20.200.11-Nov-2020 4560.01 5060.52 77.22 7.00 383.20 2403.77
   01:34:20.400.11-Nov-2020 4560.01 5061.21 77.22 7.00 383.40 2403.77
   01:34:20.600.11-Nov-2020 4560.01 5063.87 77.22 7.00 383.60 2403.77
   01:34:20.800.11-Nov-2020 4560.01 5058.54 77.22 7.00 383.80 2403.77
   01:34:21.000.11-Nov-2020 4560.01 5059.62 77.22 7.00 384.00 2403.77
   01:34:21.200.11-Nov-2020 4560.01 5059.91 77.22 7.00 384.20 2403.77
   01:34:21.400.11-Nov-2020 4560.01 5060.46 77.22 7.00 384.40 2403.77
   01:34:21.600.11-Nov-2020 4560.01 5059.84 77.22 7.00 384.60 2403.77
   01:34:21.800.11-Nov-2020 4560.01 5060.18 77.22 7.00 384.80 2403.77
   01:34:22.000.11-Nov-2020 4560.01 5059.90 77.21 7.00 385.00 2403.77
   01:34:22.200.11-Nov-2020 4560.01 5059.90 77.21 7.00 385.20 2403.77
   01:34:22.400.11-Nov-2020 4560.01 5060.70 77.21 7.00 385.40 2403.77
   01:34:22.600.11-Nov-2020 4560.01 5060.44 77.21 7.00 385.60 2403.77
   01:34:22.800.11-Nov-2020 4560.01 5060.33 77.21 7.00 385.80 2403.77
   01:34:23.000.11-Nov-2020 4560.01 5060.57 77.21 7.00 386.00 2403.77
   01:34:23.200.11-Nov-2020 4560.01 5061.08 77.21 7.00 386.20 2403.77
   01:34:23.400.11-Nov-2020 4560.01 5065.49 77.21 7.00 386.40 2403.77
   01:34:23.600.11-Nov-2020 4560.01 5059.34 77.21 7.00 386.60 2403.77
   01:34:23.800.11-Nov-2020 4560.01 5060.41 77.21 7.00 386.80 2403.77
   01:34:24.000.11-Nov-2020 4560.01 5060.18 77.21 7.00 387.00 2403.77
   01:34:24.200.11-Nov-2020 4560.01 5060.18 77.21 7.00 387.20 2403.77
   01:34:24.400.11-Nov-2020 4560.01 5059.78 77.21 7.00 387.40 2403.77
   01:34:24.600.11-Nov-2020 4560.01 5059.34 77.21 7.00 387.60 2403.77
   01:34:24.800.11-Nov-2020 4560.01 5059.75 77.21 7.00 387.80 2403.77
   01:34:25.000.11-Nov-2020 4560.01 5060.13 77.21 7.00 388.00 2403.77
   01:34:25.200.11-Nov-2020 4560.01 5060.33 77.21 7.00 388.20 2403.77
   01:34:25.400.11-Nov-2020 4560.01 5060.35 77.21 7.00 388.40 2403.77
   01:34:25.600.11-Nov-2020 4560.01 5060.35 77.21 7.00 388.60 2403.77
   01:34:25.800.11-Nov-2020 4560.01 5060.55 77.21 7.00 388.80 2403.77
   01:34:26.000.11-Nov-2020 4560.01 5064.74 77.21 7.00 389.00 2403.77
   01:34:26.200.11-Nov-2020 4560.01 5061.40 77.21 7.00 389.20 2403.77
   01:34:26.400.11-Nov-2020 4560.01 5060.85 77.21 7.00 389.40 2403.77
   01:34:26.600.11-Nov-2020 4560.01 5065.13 77.21 7.00 389.60 2403.77
   01:34:26.800.11-Nov-2020 4560.01 5059.17 77.21 7.00 389.80 2403.77
   01:34:27.000.11-Nov-2020 4560.01 5060.22 77.21 7.00 390.00 2403.77
   01:34:27.200.11-Nov-2020 4560.01 5060.22 77.21 7.00 390.20 2403.77
   01:34:27.400.11-Nov-2020 4560.01 5059.71 77.21 7.00 390.40 2403.77
   01:34:27.600.11-Nov-2020 4560.01 5062.83 77.21 7.00 390.60 2403.77
   01:34:27.800.11-Nov-2020 4560.01 5058.63 77.21 7.00 390.80 2403.77
