~Version Information
 VERS.                  2.0:   CWLS log ASCII Standard -VERSION 2.0
 WRAP.                   NO:   One line per depth step
~Well Information Block
#MNEM.UNIT     VALUE/NAME     DESCRIPTION
#---------     -----------    ---------------------------
 STRT.S             18:53:27 10-Nov-20: START TIME 18:53:27 10-Nov-20
 STOP.S             19:00:00 10-Nov-20: STOP TIME  19:00:00 10-Nov-20
 STEP.S                   0.00: STEP TIME
 NULL.                 -999.25: NULL VALUE
 DFWT.                        :  DIST FWL TEXT
 DFST.                        :  DIST FSL TEXT
 DMF .             Drill Floor:  DRILL MEAS FROM
 STIM.      04.54.24 22-Sep-20:  START TIME
 DATE.      04.54.24 21-Nov-20:  END TIME
 SPUD.               21-Nov-20:  SPUD DATE
 NREF.                    Grid:  NORTH REFERENCE
 HPTY.       Minimum Curvature:  HOLE POS TYPE
 DMOD.             Drill Model:  DRILL MOD DESC
 SVYD.                  Survey:  SURVEY DESC
 ILTD.               Lithology:  INTERP LTH DESC
 FTOP.          Formation Tops:  FORM TOPS DESC
 SON .        AZ-XX-0906571587:  JOB NUMBER
 COMP.     BP Exploration (Caspian Sea) Ltd:  COMPANY
 UWI .                     N/A:  UNIQUE WELL IDENTIFIER
 API .                     N/A:  API NUMBER
 BASE.              Azerbaijan:  LOGGING EQUIPMENT BASE LOCATION
 REGN.                   EESSA:  REGION
 PROV.                    Baku:  PROVINCE
 STAT.                    Baku:  STATE NAME
 CTRY.              Azerbaijan:  COUNTRY NAME
 FLD .                     ACG:  FIELD NAME
 SRVC.     TURAN Drilling & Engineering:  CONTRACTOR
 WELL.                     J27:  WELL NAME
 RIG .             West Chirag:  RIG NAME
 DOE .                     N/A:  DOE NUMBER
 DCON.         Sperry Drilling:  DIRECTNL CONTR
 PDAT.          Mean Sea Level:  PERMANENT DATUM
 WTYP.                Deviated:  WELL TYPE
 MWDS.                    Baku:  MWD SHOP
 JOBN.        AZ-XX-0906571587:  JOB TICKET NUMB
 UNIT.                     N/A:  LOGGING EQUIPMENT ID
 MDS .        Operator Entered:  MAG DATA SOURCE
 CNTY.                        :  COUNTY
 LOC .                        :  LOCATION
 LMF .             Drill Floor:  LOG MEASURED FROM
 TVDS.m                  43.00:  TVDSS CORRECTN
 LATI.deg                40.13:  LATITUDE
 LONG.deg                51.22:  LONGITUDE
 WHNS.m                   7.72:  WELL HEAD N/S
 WHEW.m                 -14.24:  WELL HEAD E/W
 UTMX.m              519005.06:  UTM X
 UTMY.m             4443793.85:  UTM Y
 DFWL.m                   0.00:  DISTANCE FWL
 DFSL.m                   0.00:  DISTANCE FSL
 SDEP.m                 347.00:  START DEPTH
 TDD .m                 581.00:  TOTAL DEPTH (DRILLER)
 VSDR.deg               159.72:  VERT SEC DIRECT
 GVFD.g                   1.00:  GRAVITY FIELD
 MFLD.nT              50313.00:  MAGNETIC FIELD
 MDIP.deg                59.58:  MAGNETIC DIP
 MDEC.deg                 6.45:  MAGNETIC DECL
 GRDC.deg                 0.15:  GRID CORRECTION
 AZTC.deg                 6.30:  AZM TOTAL CORR
 EPD .m                   0.00:  ELEVATION
 EGL .m                   0.00:  GROUND ELEVATION
 WDMS.m                 169.80:  WD ELEV
 APD .m                  43.00:  DEPTH ABOVE PD
 AGAP.m                  43.00:  AIR GAP
 VSEW.m                 -14.24:  VERT SEC E/W
 VSNS.m                   7.72:  VERT SEC N/S
 DEP .m                 342.45:  DEPTH
 EKB .m                   0.00:  KB ELEVATION
 EDF .m                  43.00:  DF ELEVATION
 TDL .m                1313.00:  TOTAL DEPTH (LOGGER)
 VSC .                       0:  VS TO CLOSURE
 MAGU.                 1851396:  MAGUTM CHECKSUM
~Parameter Information Block
#MNEM.UNIT       Value        Description
#---------     -----------    ---------------------------
 AV  .mps                 0.65:  Ann Velocity 
 AVMX.mps                 0.75:  Max Ann Veloc 
 AZIF.deg               115.08:  Azm, Final 
 BHAT.        Rotary Steerable:  BHA Type 
 BROT.°/30m               1.50:  Build Rotating 
 BS  .in                 12.25:  Bit Size 
 BSZ .in                 12.25:  Bit Size 
 BTPL.psig              700.00:  Bit Press Loss 
 CABU.                     Yes:  Customer Abuse 
 COMM.                     ”Ú:  Run Comments 1 
 TCS .hr                121.00:  Time Ciculation Ended 
 CV  .mps                 1.83:  Crit Velocity 
 CVMX.mps                 1.83:  Max Crit Veloc 
 DD1 .          Rashad Habibov:  Direct Drillr 1 
 DD2 .         Rasim Ibrahimov:  Direct Drillr 2 
 DDSV.                 iCruise:  DD Service 
 DEFF.%                 100.00:  % Det Eff 
 DLRX.°/30m               3.60:  Dogleg Rot Max 
 DLSO.°/30m               3.10:  Dogleg Oriented 
 DLSX.°/30m               3.60:  Dogleg Str Max 
 DRET.      13.41.20 12-Nov-20:  Drill End Time 
 DRST.      13.41.20 07-Nov-20:  Drill Start Tim 
 DTIM.hr                 54.16:  Time Drilling 
 EDEP.m                4762.01:  End Depth 
 ENG1.           Amrah Tahirov:  Engineer 1 
 ENG2.      Bakhtiyar Jabbarli:  Engineer 2 
 ENG3.          Ruslan Safarov:  Engineer 3 
 ETIM.      13.41.20 14-Nov-20:  End Time 
 FLOI.gpm              1200.00:  Flow In 
 FLON.gpm              1100.00:  Flow In Min 
 FLOS.cptm                0.00:  Fluid Loss 
 FLOX.gpm              1200.00:  Flow In Max 
 HFLO.                      No:  High Flow 
 HPRE.                      No:  High Pressure 
 HTEM.                      No:  High Temp 
 HYDO.m                   2.00:  Hydro Offset 
 IFIN.deg                66.14:  Inc, Final 
 IMAX.deg                69.03:  Inc Max 
 IMIN.deg                64.64:  Inc Min 
 IMND.m                4450.16:  Inc Min Depth 
 IMXD.m                3996.00:  Inc Max Depth 
 JARR.                     Yes:  Jarring 
 LETM.      13.41.20 14-Nov-20:  Log End Time 
 LOST.hr                     0:  Lost Rig Time 
 LSTM.      13.41.20 06-Nov-20:  Log Start Time 
 MDCL.ppm             42500.00:  Mud Chlorides 
 MDES.     Inversion Oil/Synthetic:  Mud Desc 
 DFD .sg                  1.45:  Mud Density 
 MDMN.sg                  1.45:  Dens Mud Min 
 MDMX.sg                  1.45:  Dens Mud Max 
 MOIL.                      70:  Run Mud Oil % 
 MOWR.                   70:30:  Run Mud OWR 
 MSND.                       0:  Run Mud Sand % 
 MSOL.                    19.3:  Run Mud Solids% 
 DFV .spqt               77.00:  Mud Viscosity 
 MWOD.in                  8.00:  MWD Tool OD 
 MWSI.                      No:  Serv Intrp, MWD 
 OTIM.hr                201.88:  Time Operating 
 PCON.           Look Like New:  Pad Condition 
 PMAX.psia             9250.94:  Press Op, Max 
 PV  .cP                 29.00:  Mud PV 
 RUN .                     800:  Run Number 
 ROPA.m/hr               28.00:  ROP Avg 
 ROPN.m/hr               25.00:  ROP Min 
 ROPX.m/hr               30.00:  ROP Max 
 RPMA.rpm               160.00:  RPM Surface Avg 
 RPMN.rpm               160.00:  RPM Surface Min 
 RPMX.rpm               160.00:  RPM Surface Max 
 RRUN.                    0800:  Rig Run Number 
 RTIM.hr                 12.00:  Time Reaming 
 SAZI.deg               169.33:  Azm, Start 
 SDEP.m                3449.01:  Start Depth 
 SIDD.                      No:  Serv Intrp, DD 
 SINC.deg                68.01:  Inc, Start 
 SPPA.psig             4900.00:  SPP Avg 
 SPPN.psig             4800.00:  SPP Min 
 SPPX.psig             5050.00:  SPP Max 
 STIM.      13.41.20 06-Nov-20:  Start Time 
 SVCS.                 DD, MWD:  Services 
 SVER.                    9.20:  Sperry Version 
 TDAT.m                4762.01:  Tot Depth Attmp 
 TDDF.                      No:  Trip for DD 
 TDLG.m                1313.00:  Tot Depth Loggd 
 TFF .                      No:  Trip for Fail 
 TQAA.f-kp               13.00:  Torque Abs Avg 
 TQAN.f-kp               13.00:  Torque Abs Min 
 TQAX.f-kp               13.00:  Torque Abs Max 
 TRRT.°/30m               1.70:  Turn Rotating 
 MRT .                  EWR-M5:  Maximum Recorded Temperature 
 TTMX.degC               86.00:  Max Tool Temp 
 VS01.                90622122:  Virtual Str1 SN 
 VS02.                90577298:  Virtual Str2 SN 
 VS03.                90563623:  Virtual Str3 SN 
 VS04.                90617559:  Virtual Str4 SN 
 VS05.                11339492:  Virtual Str5 SN 
 VS06.                12385033:  Virtual Str6 SN 
 WBMN.klb                 0.00:  WOB Min 
 WOBA.klb                22.00:  WOB Avg 
 WOBX.klb                26.00:  WOB Max 
 YP  .lhf2               30.00:  Yield Point 
~Curve Information Block
#MNEM.UNIT                 API CODE     Curve Description
#---------               -----------    ---------------------------
 TIME.HHMMSS            00 000 000 000:  GT Time & Date
 GTDEPTH.m              00 000 000 000:  GT Depth
 GTPQH.psia             00 000 000 000:  GT HR Quartz Pressure
 GTTQ.degC              00 000 000 000:  GT Quartz Temperature
 GTTN.NONE              00 000 000 000:  GT Test Number
 GTET.sec               00 000 000 000:  GT Elapsed Test Time
 GTTVD.m                00 000 000 000:  GT True Vertical Depth
#Other Information
#
#WARRANTY: Halliburton will use its best efforts to furnish customers with 
#accurate information and interpretations that are part of, and incident to, the services 
#provided.  However, Halliburton cannot and does not warrant the accuracy 
#or correctness of such information and interpretations.  Under no circumstances should any 
#such information or interpretation be relied upon as the sole basis for any drilling, 
#completion, production, or financial decision or any procedure involving any risk to the 
#safety of any drilling venture, drilling rig or its crew or any other third party.  The 
#Customer has full responsibility for all drilling, completion and production operation.  
#Halliburton makes no representations or warranties, either expressed or 
#implied, including, but not limited to, the implied warranties of merchantability or fitness 
#for a particular purpose, with respect to the services rendered.  In no event will 
#Halliburton be liable for failure to obtain any particular results or for 
#any damages, including, but not limited to, indirect, special or consequential damages, 
#resulting from the use of any information or interpretation provided by Halliburton.
#
~A           TIME           GTDEPTH  GTPQH  GTTQ  GTTN  GTET   GTTVD  
# ...
   18:58:03.572.10-Nov-2020 4475.51 4006.99 80.06 5.00 276.08 2369.25
   18:58:03.772.10-Nov-2020 4475.51 4006.99 80.06 5.00 276.28 2369.25
   18:58:03.972.10-Nov-2020 4475.51 4007.35 80.06 5.00 276.48 2369.25
   18:58:04.172.10-Nov-2020 4475.51 4007.50 80.06 5.00 276.68 2369.25
   18:58:04.372.10-Nov-2020 4475.51 4007.51 80.06 5.00 276.88 2369.25
   18:58:04.572.10-Nov-2020 4475.51 4007.68 80.06 5.00 277.08 2369.25
   18:58:04.773.10-Nov-2020 4475.51 4007.68 80.06 5.00 277.28 2369.25
   18:58:04.973.10-Nov-2020 4475.51 4007.96 80.06 5.00 277.48 2369.25
   18:58:05.173.10-Nov-2020 4475.51 4008.09 80.06 5.00 277.68 2369.25
   18:58:05.373.10-Nov-2020 4475.51 4008.21 80.06 5.00 277.88 2369.25
   18:58:05.573.10-Nov-2020 4475.51 4008.25 80.06 5.00 278.08 2369.25
   18:58:05.773.10-Nov-2020 4475.51 4008.25 80.06 5.00 278.28 2369.25
   18:58:05.973.10-Nov-2020 4475.51 4008.51 80.06 5.00 278.48 2369.25
   18:58:06.173.10-Nov-2020 4475.51 4008.51 80.05 5.00 278.68 2369.25
   18:58:06.373.10-Nov-2020 4475.51 4008.83 80.05 5.00 278.88 2369.25
   18:58:06.573.10-Nov-2020 4475.51 4008.82 80.05 5.00 279.08 2369.25
   18:58:06.773.10-Nov-2020 4475.51 4008.82 80.05 5.00 279.28 2369.25
   18:58:06.973.10-Nov-2020 4475.51 4008.93 80.05 5.00 279.48 2369.25
   18:58:07.173.10-Nov-2020 4475.51 4009.11 80.05 5.00 279.68 2369.25
   18:58:07.373.10-Nov-2020 4475.51 4009.16 80.05 5.00 279.88 2369.25
   18:58:07.573.10-Nov-2020 4475.51 4009.23 80.05 5.00 280.08 2369.25
   18:58:07.773.10-Nov-2020 4475.51 4009.23 80.05 5.00 280.28 2369.25
   18:58:07.973.10-Nov-2020 4475.51 4009.45 80.05 5.00 280.48 2369.25
   18:58:08.173.10-Nov-2020 4475.51 4009.50 80.05 5.00 280.68 2369.25
   18:58:08.374.10-Nov-2020 4475.51 4009.58 80.05 5.00 280.88 2369.25
   18:58:08.574.10-Nov-2020 4475.51 4009.71 80.05 5.00 281.08 2369.25
   18:58:08.774.10-Nov-2020 4475.51 4009.71 80.05 5.00 281.28 2369.25
   18:58:08.974.10-Nov-2020 4475.51 4009.96 80.05 5.00 281.48 2369.25
   18:58:09.174.10-Nov-2020 4475.51 4009.90 80.05 5.00 281.68 2369.25
   18:58:09.374.10-Nov-2020 4475.51 4010.09 80.05 5.00 281.88 2369.25
   18:58:09.574.10-Nov-2020 4475.51 4010.04 80.05 5.00 282.08 2369.25
   18:58:09.774.10-Nov-2020 4475.51 4009.99 80.05 5.00 282.28 2369.25
   18:58:09.974.10-Nov-2020 4475.51 4010.20 80.05 5.00 282.48 2369.25
   18:58:10.174.10-Nov-2020 4475.51 4010.31 80.05 5.00 282.68 2369.25
   18:58:10.374.10-Nov-2020 4475.51 4010.37 80.04 5.00 282.88 2369.25
   18:58:10.574.10-Nov-2020 4475.51 4010.32 80.04 5.00 283.08 2369.25
   18:58:10.774.10-Nov-2020 4475.51 4010.32 80.04 5.00 283.28 2369.25
   18:58:10.974.10-Nov-2020 4475.51 4010.43 80.04 5.00 283.48 2369.25
   18:58:11.174.10-Nov-2020 4475.51 4010.81 80.04 5.00 283.68 2369.25
   18:58:11.374.10-Nov-2020 4475.51 4010.71 80.04 5.00 283.88 2369.25
   18:58:11.574.10-Nov-2020 4475.51 4010.80 80.04 5.00 284.08 2369.25
   18:58:11.774.10-Nov-2020 4475.51 4010.80 80.04 5.00 284.28 2369.25
   18:58:11.975.10-Nov-2020 4475.51 4010.95 80.04 5.00 284.48 2369.25
   18:58:12.175.10-Nov-2020 4475.51 4010.96 80.04 5.00 284.68 2369.25
   18:58:12.375.10-Nov-2020 4475.51 4010.95 80.04 5.00 284.88 2369.25
   18:58:12.575.10-Nov-2020 4475.51 4011.04 80.04 5.00 285.08 2369.25
   18:58:12.775.10-Nov-2020 4475.51 4011.04 80.04 5.00 285.28 2369.25
   18:58:12.975.10-Nov-2020 4475.51 4011.18 80.04 5.00 285.48 2369.25
   18:58:13.175.10-Nov-2020 4475.51 4011.21 80.04 5.00 285.68 2369.25
   18:58:13.375.10-Nov-2020 4475.51 4011.37 80.04 5.00 285.88 2369.25
   18:58:13.575.10-Nov-2020 4475.51 4011.36 80.04 5.00 286.08 2369.25
   18:58:13.775.10-Nov-2020 4475.51 4011.36 80.04 5.00 286.28 2369.25
   18:58:13.975.10-Nov-2020 4475.51 4011.47 80.04 5.00 286.48 2369.25
   18:58:14.175.10-Nov-2020 4475.51 4011.53 80.03 5.00 286.68 2369.25
   18:58:14.375.10-Nov-2020 4475.51 4011.60 80.03 5.00 286.88 2369.25
   18:58:14.575.10-Nov-2020 4475.51 4011.62 80.03 5.00 287.08 2369.25
   18:58:14.775.10-Nov-2020 4475.51 4011.62 80.03 5.00 287.28 2369.25
   18:58:14.975.10-Nov-2020 4475.51 4011.66 80.03 5.00 287.48 2369.25
   18:58:15.175.10-Nov-2020 4475.51 4011.81 80.03 5.00 287.68 2369.25
   18:58:15.375.10-Nov-2020 4475.51 4011.84 80.03 5.00 287.88 2369.25
   18:58:15.576.10-Nov-2020 4475.51 4011.76 80.03 5.00 288.08 2369.25
   18:58:15.776.10-Nov-2020 4475.51 4011.76 80.03 5.00 288.28 2369.25
   18:58:15.976.10-Nov-2020 4475.51 4011.89 80.03 5.00 288.48 2369.25
   18:58:16.176.10-Nov-2020 4475.51 4011.96 80.03 5.00 288.68 2369.25
   18:58:16.376.10-Nov-2020 4475.51 4012.07 80.03 5.00 288.88 2369.25
   18:58:16.576.10-Nov-2020 4475.51 4012.11 80.03 5.00 289.08 2369.25
   18:58:16.776.10-Nov-2020 4475.51 4012.11 80.03 5.00 289.28 2369.25
   18:58:16.976.10-Nov-2020 4475.51 4012.13 80.03 5.00 289.48 2369.25
   18:58:17.176.10-Nov-2020 4475.51 4012.26 80.03 5.00 289.68 2369.25
   18:58:17.376.10-Nov-2020 4475.51 4012.25 80.03 5.00 289.88 2369.25
   18:58:17.576.10-Nov-2020 4475.51 4012.49 80.03 5.00 290.08 2369.25
   18:58:17.776.10-Nov-2020 4475.51 4012.49 80.03 5.00 290.28 2369.25
   18:58:17.976.10-Nov-2020 4475.51 4012.48 80.03 5.00 290.48 2369.25
   18:58:18.176.10-Nov-2020 4475.51 4012.29 80.02 5.00 290.68 2369.25
   18:58:18.376.10-Nov-2020 4475.51 4012.41 80.02 5.00 290.88 2369.25
   18:58:18.576.10-Nov-2020 4475.51 4012.42 80.02 5.00 291.08 2369.25
   18:58:18.776.10-Nov-2020 4475.51 4012.42 80.02 5.00 291.28 2369.25
   18:58:18.976.10-Nov-2020 4475.51 4012.54 80.02 5.00 291.48 2369.25
   18:58:19.177.10-Nov-2020 4475.51 4012.60 80.02 5.00 291.68 2369.25
   18:58:19.377.10-Nov-2020 4475.51 4012.69 80.02 5.00 291.88 2369.25
   18:58:19.577.10-Nov-2020 4475.51 4012.70 80.02 5.00 292.08 2369.25
   18:58:19.777.10-Nov-2020 4475.51 4012.70 80.02 5.00 292.28 2369.25
   18:58:19.977.10-Nov-2020 4475.51 4012.82 80.02 5.00 292.48 2369.25
   18:58:20.177.10-Nov-2020 4475.51 4012.79 80.02 5.00 292.68 2369.25
   18:58:20.377.10-Nov-2020 4475.51 4012.92 80.02 5.00 292.88 2369.25
   18:58:20.577.10-Nov-2020 4475.51 4013.24 80.02 5.00 293.08 2369.25
   18:58:20.777.10-Nov-2020 4475.51 4013.24 80.02 5.00 293.28 2369.25
   18:58:20.977.10-Nov-2020 4475.51 4012.94 80.02 5.00 293.48 2369.25
   18:58:21.177.10-Nov-2020 4475.51 4013.04 80.02 5.00 293.68 2369.25
   18:58:21.377.10-Nov-2020 4475.51 4013.06 80.02 5.00 293.88 2369.25
   18:58:21.577.10-Nov-2020 4475.51 4013.06 80.02 5.00 294.08 2369.25
   18:58:21.777.10-Nov-2020 4475.51 4013.06 80.02 5.00 294.28 2369.25
   18:58:21.977.10-Nov-2020 4475.51 4013.16 80.02 5.00 294.48 2369.25
   18:58:22.177.10-Nov-2020 4475.51 4013.22 80.02 5.00 294.68 2369.25
   18:58:22.377.10-Nov-2020 4475.51 4013.24 80.01 5.00 294.88 2369.25
   18:58:22.577.10-Nov-2020 4475.51 4013.26 80.01 5.00 295.08 2369.25
   18:58:22.778.10-Nov-2020 4475.51 4013.26 80.01 5.00 295.28 2369.25
   18:58:22.978.10-Nov-2020 4475.51 4013.34 80.01 5.00 295.48 2369.25
   18:58:23.178.10-Nov-2020 4475.51 4013.33 80.01 5.00 295.68 2369.25
   18:58:23.378.10-Nov-2020 4475.51 4013.30 80.01 5.00 295.88 2369.25
   18:58:23.578.10-Nov-2020 4475.51 4013.44 80.01 5.00 296.08 2369.25
   18:58:23.778.10-Nov-2020 4475.51 4013.44 80.01 5.00 296.28 2369.25
   18:58:23.978.10-Nov-2020 4475.51 4013.38 80.01 5.00 296.48 2369.25
   18:58:24.178.10-Nov-2020 4475.51 4013.51 80.01 5.00 296.68 2369.25
   18:58:24.378.10-Nov-2020 4475.51 4013.48 80.01 5.00 296.88 2369.25
   18:58:24.578.10-Nov-2020 4475.51 4013.48 80.01 5.00 297.08 2369.25
   18:58:24.778.10-Nov-2020 4475.51 4013.48 80.01 5.00 297.28 2369.25
   18:58:24.978.10-Nov-2020 4475.51 4013.62 80.01 5.00 297.48 2369.25
   18:58:25.178.10-Nov-2020 4475.51 4013.63 80.01 5.00 297.68 2369.25
   18:58:25.378.10-Nov-2020 4475.51 4013.64 80.01 5.00 297.88 2369.25
   18:58:25.578.10-Nov-2020 4475.51 4013.70 80.01 5.00 298.08 2369.25
   18:58:25.778.10-Nov-2020 4475.51 4013.70 80.01 5.00 298.28 2369.25
   18:58:25.978.10-Nov-2020 4475.51 4013.80 80.01 5.00 298.48 2369.25
   18:58:26.178.10-Nov-2020 4475.51 4013.73 80.00 5.00 298.68 2369.25
   18:58:26.379.10-Nov-2020 4475.51 4013.88 80.00 5.00 298.88 2369.25
