~Version Information
 VERS.                  2.0:   CWLS log ASCII Standard -VERSION 2.0
 WRAP.                   NO:   One line per depth step
~Well Information Block
#MNEM.UNIT     VALUE/NAME     DESCRIPTION
#---------     -----------    ---------------------------
 STRT.S             22:31:45 10-Nov-20: START TIME 22:31:45 10-Nov-20
 STOP.S             22:38:18 10-Nov-20: STOP TIME  22:38:18 10-Nov-20
 STEP.S                   0.00: STEP TIME
 NULL.                 -999.25: NULL VALUE
 DFWT.                        :  DIST FWL TEXT
 DFST.                        :  DIST FSL TEXT
 DMF .             Drill Floor:  DRILL MEAS FROM
 STIM.      04.54.24 22-Sep-20:  START TIME
 DATE.      04.54.24 21-Nov-20:  END TIME
 SPUD.               21-Nov-20:  SPUD DATE
 NREF.                    Grid:  NORTH REFERENCE
 HPTY.       Minimum Curvature:  HOLE POS TYPE
 DMOD.             Drill Model:  DRILL MOD DESC
 SVYD.                  Survey:  SURVEY DESC
 ILTD.               Lithology:  INTERP LTH DESC
 FTOP.          Formation Tops:  FORM TOPS DESC
 SON .        AZ-XX-0906571587:  JOB NUMBER
 COMP.     BP Exploration (Caspian Sea) Ltd:  COMPANY
 UWI .                     N/A:  UNIQUE WELL IDENTIFIER
 API .                     N/A:  API NUMBER
 BASE.              Azerbaijan:  LOGGING EQUIPMENT BASE LOCATION
 REGN.                   EESSA:  REGION
 PROV.                    Baku:  PROVINCE
 STAT.                    Baku:  STATE NAME
 CTRY.              Azerbaijan:  COUNTRY NAME
 FLD .                     ACG:  FIELD NAME
 SRVC.     TURAN Drilling & Engineering:  CONTRACTOR
 WELL.                     J27:  WELL NAME
 RIG .             West Chirag:  RIG NAME
 DOE .                     N/A:  DOE NUMBER
 DCON.         Sperry Drilling:  DIRECTNL CONTR
 PDAT.          Mean Sea Level:  PERMANENT DATUM
 WTYP.                Deviated:  WELL TYPE
 MWDS.                    Baku:  MWD SHOP
 JOBN.        AZ-XX-0906571587:  JOB TICKET NUMB
 UNIT.                     N/A:  LOGGING EQUIPMENT ID
 MDS .        Operator Entered:  MAG DATA SOURCE
 CNTY.                        :  COUNTY
 LOC .                        :  LOCATION
 LMF .             Drill Floor:  LOG MEASURED FROM
 TVDS.m                  43.00:  TVDSS CORRECTN
 LATI.deg                40.13:  LATITUDE
 LONG.deg                51.22:  LONGITUDE
 WHNS.m                   7.72:  WELL HEAD N/S
 WHEW.m                 -14.24:  WELL HEAD E/W
 UTMX.m              519005.06:  UTM X
 UTMY.m             4443793.85:  UTM Y
 DFWL.m                   0.00:  DISTANCE FWL
 DFSL.m                   0.00:  DISTANCE FSL
 SDEP.m                 347.00:  START DEPTH
 TDD .m                 581.00:  TOTAL DEPTH (DRILLER)
 VSDR.deg               159.72:  VERT SEC DIRECT
 GVFD.g                   1.00:  GRAVITY FIELD
 MFLD.nT              50313.00:  MAGNETIC FIELD
 MDIP.deg                59.58:  MAGNETIC DIP
 MDEC.deg                 6.45:  MAGNETIC DECL
 GRDC.deg                 0.15:  GRID CORRECTION
 AZTC.deg                 6.30:  AZM TOTAL CORR
 EPD .m                   0.00:  ELEVATION
 EGL .m                   0.00:  GROUND ELEVATION
 WDMS.m                 169.80:  WD ELEV
 APD .m                  43.00:  DEPTH ABOVE PD
 AGAP.m                  43.00:  AIR GAP
 VSEW.m                 -14.24:  VERT SEC E/W
 VSNS.m                   7.72:  VERT SEC N/S
 DEP .m                 342.45:  DEPTH
 EKB .m                   0.00:  KB ELEVATION
 EDF .m                  43.00:  DF ELEVATION
 TDL .m                1313.00:  TOTAL DEPTH (LOGGER)
 VSC .                       0:  VS TO CLOSURE
 MAGU.                 1851396:  MAGUTM CHECKSUM
~Parameter Information Block
#MNEM.UNIT       Value        Description
#---------     -----------    ---------------------------
 AV  .mps                 0.65:  Ann Velocity 
 AVMX.mps                 0.75:  Max Ann Veloc 
 AZIF.deg               115.08:  Azm, Final 
 BHAT.        Rotary Steerable:  BHA Type 
 BROT.°/30m               1.50:  Build Rotating 
 BS  .in                 12.25:  Bit Size 
 BSZ .in                 12.25:  Bit Size 
 BTPL.psig              700.00:  Bit Press Loss 
 CABU.                     Yes:  Customer Abuse 
 COMM.                     ”Õ`:  Run Comments 1 
 TCS .hr                121.00:  Time Ciculation Ended 
 CV  .mps                 1.83:  Crit Velocity 
 CVMX.mps                 1.83:  Max Crit Veloc 
 DD1 .          Rashad Habibov:  Direct Drillr 1 
 DD2 .         Rasim Ibrahimov:  Direct Drillr 2 
 DDSV.                 iCruise:  DD Service 
 DEFF.%                 100.00:  % Det Eff 
 DLRX.°/30m               3.60:  Dogleg Rot Max 
 DLSO.°/30m               3.10:  Dogleg Oriented 
 DLSX.°/30m               3.60:  Dogleg Str Max 
 DRET.      13.41.20 12-Nov-20:  Drill End Time 
 DRST.      13.41.20 07-Nov-20:  Drill Start Tim 
 DTIM.hr                 54.16:  Time Drilling 
 EDEP.m                4762.01:  End Depth 
 ENG1.           Amrah Tahirov:  Engineer 1 
 ENG2.      Bakhtiyar Jabbarli:  Engineer 2 
 ENG3.          Ruslan Safarov:  Engineer 3 
 ETIM.      13.41.20 14-Nov-20:  End Time 
 FLOI.gpm              1200.00:  Flow In 
 FLON.gpm              1100.00:  Flow In Min 
 FLOS.cptm                0.00:  Fluid Loss 
 FLOX.gpm              1200.00:  Flow In Max 
 HFLO.                      No:  High Flow 
 HPRE.                      No:  High Pressure 
 HTEM.                      No:  High Temp 
 HYDO.m                   2.00:  Hydro Offset 
 IFIN.deg                66.14:  Inc, Final 
 IMAX.deg                69.03:  Inc Max 
 IMIN.deg                64.64:  Inc Min 
 IMND.m                4450.16:  Inc Min Depth 
 IMXD.m                3996.00:  Inc Max Depth 
 JARR.                     Yes:  Jarring 
 LETM.      13.41.20 14-Nov-20:  Log End Time 
 LOST.hr                     0:  Lost Rig Time 
 LSTM.      13.41.20 06-Nov-20:  Log Start Time 
 MDCL.ppm             42500.00:  Mud Chlorides 
 MDES.     Inversion Oil/Synthetic:  Mud Desc 
 DFD .sg                  1.45:  Mud Density 
 MDMN.sg                  1.45:  Dens Mud Min 
 MDMX.sg                  1.45:  Dens Mud Max 
 MOIL.                      70:  Run Mud Oil % 
 MOWR.                   70:30:  Run Mud OWR 
 MSND.                       0:  Run Mud Sand % 
 MSOL.                    19.3:  Run Mud Solids% 
 DFV .spqt               77.00:  Mud Viscosity 
 MWOD.in                  8.00:  MWD Tool OD 
 MWSI.                      No:  Serv Intrp, MWD 
 OTIM.hr                201.88:  Time Operating 
 PCON.           Look Like New:  Pad Condition 
 PMAX.psia             9250.94:  Press Op, Max 
 PV  .cP                 29.00:  Mud PV 
 RUN .                     800:  Run Number 
 ROPA.m/hr               28.00:  ROP Avg 
 ROPN.m/hr               25.00:  ROP Min 
 ROPX.m/hr               30.00:  ROP Max 
 RPMA.rpm               160.00:  RPM Surface Avg 
 RPMN.rpm               160.00:  RPM Surface Min 
 RPMX.rpm               160.00:  RPM Surface Max 
 RRUN.                    0800:  Rig Run Number 
 RTIM.hr                 12.00:  Time Reaming 
 SAZI.deg               169.33:  Azm, Start 
 SDEP.m                3449.01:  Start Depth 
 SIDD.                      No:  Serv Intrp, DD 
 SINC.deg                68.01:  Inc, Start 
 SPPA.psig             4900.00:  SPP Avg 
 SPPN.psig             4800.00:  SPP Min 
 SPPX.psig             5050.00:  SPP Max 
 STIM.      13.41.20 06-Nov-20:  Start Time 
 SVCS.                 DD, MWD:  Services 
 SVER.                    9.20:  Sperry Version 
 TDAT.m                4762.01:  Tot Depth Attmp 
 TDDF.                      No:  Trip for DD 
 TDLG.m                1313.00:  Tot Depth Loggd 
 TFF .                      No:  Trip for Fail 
 TQAA.f-kp               13.00:  Torque Abs Avg 
 TQAN.f-kp               13.00:  Torque Abs Min 
 TQAX.f-kp               13.00:  Torque Abs Max 
 TRRT.°/30m               1.70:  Turn Rotating 
 MRT .                  EWR-M5:  Maximum Recorded Temperature 
 TTMX.degC               86.00:  Max Tool Temp 
 VS01.                90622122:  Virtual Str1 SN 
 VS02.                90577298:  Virtual Str2 SN 
 VS03.                90563623:  Virtual Str3 SN 
 VS04.                90617559:  Virtual Str4 SN 
 VS05.                11339492:  Virtual Str5 SN 
 VS06.                12385033:  Virtual Str6 SN 
 WBMN.klb                 0.00:  WOB Min 
 WOBA.klb                22.00:  WOB Avg 
 WOBX.klb                26.00:  WOB Max 
 YP  .lhf2               30.00:  Yield Point 
~Curve Information Block
#MNEM.UNIT                 API CODE     Curve Description
#---------               -----------    ---------------------------
 TIME.HHMMSS            00 000 000 000:  GT Time & Date
 GTDEPTH.m              00 000 000 000:  GT Depth
 GTPQH.psia             00 000 000 000:  GT HR Quartz Pressure
 GTTQ.degC              00 000 000 000:  GT Quartz Temperature
 GTTN.NONE              00 000 000 000:  GT Test Number
 GTET.sec               00 000 000 000:  GT Elapsed Test Time
 GTTVD.m                00 000 000 000:  GT True Vertical Depth
#Other Information
#
#WARRANTY: Halliburton will use its best efforts to furnish customers with 
#accurate information and interpretations that are part of, and incident to, the services 
#provided.  However, Halliburton cannot and does not warrant the accuracy 
#or correctness of such information and interpretations.  Under no circumstances should any 
#such information or interpretation be relied upon as the sole basis for any drilling, 
#completion, production, or financial decision or any procedure involving any risk to the 
#safety of any drilling venture, drilling rig or its crew or any other third party.  The 
#Customer has full responsibility for all drilling, completion and production operation.  
#Halliburton makes no representations or warranties, either expressed or 
#implied, including, but not limited to, the implied warranties of merchantability or fitness 
#for a particular purpose, with respect to the services rendered.  In no event will 
#Halliburton be liable for failure to obtain any particular results or for 
#any damages, including, but not limited to, indirect, special or consequential damages, 
#resulting from the use of any information or interpretation provided by Halliburton.
#
~A           TIME           GTDEPTH  GTPQH  GTTQ  GTTN  GTET   GTTVD  
# ...
   22:37:07.805.10-Nov-2020 4535.01 4060.80 81.58 6.00 322.04 2393.67
   22:37:08.005.10-Nov-2020 4535.01 4060.80 81.58 6.00 322.24 2393.67
   22:37:08.205.10-Nov-2020 4535.01 4061.04 81.58 6.00 322.44 2393.67
   22:37:08.405.10-Nov-2020 4535.01 4060.99 81.58 6.00 322.64 2393.67
   22:37:08.605.10-Nov-2020 4535.01 4060.91 81.58 6.00 322.84 2393.67
   22:37:08.805.10-Nov-2020 4535.01 4060.95 81.58 6.00 323.04 2393.67
   22:37:09.005.10-Nov-2020 4535.01 4060.91 81.57 6.00 323.24 2393.67
   22:37:09.205.10-Nov-2020 4535.01 4060.95 81.57 6.00 323.44 2393.67
   22:37:09.405.10-Nov-2020 4535.01 4060.99 81.57 6.00 323.64 2393.67
   22:37:09.605.10-Nov-2020 4535.01 4060.91 81.57 6.00 323.84 2393.67
   22:37:09.806.10-Nov-2020 4535.01 4060.89 81.57 6.00 324.04 2393.67
   22:37:10.006.10-Nov-2020 4535.01 4060.89 81.57 6.00 324.24 2393.67
   22:37:10.206.10-Nov-2020 4535.01 4060.92 81.57 6.00 324.44 2393.67
   22:37:10.406.10-Nov-2020 4535.01 4060.99 81.57 6.00 324.64 2393.67
   22:37:10.606.10-Nov-2020 4535.01 4060.77 81.57 6.00 324.84 2393.67
   22:37:10.806.10-Nov-2020 4535.01 4060.92 81.57 6.00 325.04 2393.67
   22:37:11.006.10-Nov-2020 4535.01 4060.92 81.57 6.00 325.24 2393.67
   22:37:11.206.10-Nov-2020 4535.01 4060.90 81.56 6.00 325.44 2393.67
   22:37:11.406.10-Nov-2020 4535.01 4060.90 81.56 6.00 325.64 2393.67
   22:37:11.606.10-Nov-2020 4535.01 4060.87 81.56 6.00 325.84 2393.67
   22:37:11.806.10-Nov-2020 4535.01 4060.90 81.56 6.00 326.04 2393.67
   22:37:12.006.10-Nov-2020 4535.01 4060.90 81.56 6.00 326.24 2393.67
   22:37:12.206.10-Nov-2020 4535.01 4060.93 81.56 6.00 326.44 2393.67
   22:37:12.406.10-Nov-2020 4535.01 4060.87 81.56 6.00 326.64 2393.67
   22:37:12.606.10-Nov-2020 4535.01 4060.91 81.56 6.00 326.84 2393.67
   22:37:12.806.10-Nov-2020 4535.01 4060.92 81.56 6.00 327.04 2393.67
   22:37:13.006.10-Nov-2020 4535.01 4060.92 81.56 6.00 327.24 2393.67
   22:37:13.206.10-Nov-2020 4535.01 4060.95 81.55 6.00 327.44 2393.67
   22:37:13.406.10-Nov-2020 4535.01 4060.91 81.55 6.00 327.64 2393.67
   22:37:13.606.10-Nov-2020 4535.01 4060.99 81.55 6.00 327.84 2393.67
   22:37:13.806.10-Nov-2020 4535.01 4060.84 81.55 6.00 328.04 2393.67
   22:37:14.006.10-Nov-2020 4535.01 4060.84 81.55 6.00 328.24 2393.67
   22:37:14.206.10-Nov-2020 4535.01 4060.97 81.55 6.00 328.44 2393.67
   22:37:14.406.10-Nov-2020 4535.01 4060.98 81.55 6.00 328.64 2393.67
   22:37:14.606.10-Nov-2020 4535.01 4060.94 81.55 6.00 328.84 2393.67
   22:37:14.806.10-Nov-2020 4535.01 4060.87 81.55 6.00 329.04 2393.67
   22:37:15.006.10-Nov-2020 4535.01 4060.87 81.55 6.00 329.24 2393.67
   22:37:15.206.10-Nov-2020 4535.01 4060.96 81.54 6.00 329.44 2393.67
   22:37:15.406.10-Nov-2020 4535.01 4061.00 81.54 6.00 329.64 2393.67
   22:37:15.606.10-Nov-2020 4535.01 4060.90 81.54 6.00 329.84 2393.67
   22:37:15.806.10-Nov-2020 4535.01 4060.97 81.54 6.00 330.04 2393.67
   22:37:16.006.10-Nov-2020 4535.01 4060.97 81.54 6.00 330.24 2393.67
   22:37:16.206.10-Nov-2020 4535.01 4061.02 81.54 6.00 330.44 2393.67
   22:37:16.406.10-Nov-2020 4535.01 4061.06 81.54 6.00 330.64 2393.67
   22:37:16.606.10-Nov-2020 4535.01 4060.74 81.54 6.00 330.84 2393.67
   22:37:16.806.10-Nov-2020 4535.01 4060.95 81.54 6.00 331.04 2393.67
   22:37:17.006.10-Nov-2020 4535.01 4061.00 81.53 6.00 331.24 2393.67
   22:37:17.207.10-Nov-2020 4535.01 4060.90 81.53 6.00 331.44 2393.67
   22:37:17.407.10-Nov-2020 4535.01 4060.95 81.53 6.00 331.64 2393.67
   22:37:17.607.10-Nov-2020 4535.01 4060.94 81.53 6.00 331.84 2393.67
   22:37:17.807.10-Nov-2020 4535.01 4060.89 81.53 6.00 332.04 2393.67
   22:37:18.007.10-Nov-2020 4535.01 4060.89 81.53 6.00 332.24 2393.67
   22:37:18.207.10-Nov-2020 4535.01 4060.97 81.53 6.00 332.44 2393.67
   22:37:18.407.10-Nov-2020 4535.01 4060.94 81.53 6.00 332.64 2393.67
   22:37:18.607.10-Nov-2020 4535.01 4060.90 81.53 6.00 332.84 2393.67
   22:37:18.807.10-Nov-2020 4535.01 4060.92 81.53 6.00 333.05 2393.67
   22:37:19.007.10-Nov-2020 4535.01 4060.92 81.53 6.00 333.25 2393.67
   22:37:19.207.10-Nov-2020 4535.01 4060.92 81.52 6.00 333.45 2393.67
   22:37:19.407.10-Nov-2020 4535.01 4060.95 81.52 6.00 333.65 2393.67
   22:37:19.607.10-Nov-2020 4535.01 4060.85 81.52 6.00 333.85 2393.67
   22:37:19.807.10-Nov-2020 4535.01 4060.89 81.52 6.00 334.05 2393.67
   22:37:20.007.10-Nov-2020 4535.01 4060.89 81.52 6.00 334.25 2393.67
   22:37:20.207.10-Nov-2020 4535.01 4060.90 81.52 6.00 334.45 2393.67
   22:37:20.407.10-Nov-2020 4535.01 4060.88 81.52 6.00 334.65 2393.67
   22:37:20.607.10-Nov-2020 4535.01 4060.90 81.52 6.00 334.85 2393.67
   22:37:20.807.10-Nov-2020 4535.01 4060.91 81.52 6.00 335.05 2393.67
   22:37:21.007.10-Nov-2020 4535.01 4060.94 81.51 6.00 335.25 2393.67
   22:37:21.207.10-Nov-2020 4535.01 4060.89 81.51 6.00 335.45 2393.67
   22:37:21.407.10-Nov-2020 4535.01 4060.90 81.51 6.00 335.65 2393.67
   22:37:21.607.10-Nov-2020 4535.01 4060.92 81.51 6.00 335.85 2393.67
   22:37:21.807.10-Nov-2020 4535.01 4061.08 81.51 6.00 336.05 2393.67
   22:37:22.007.10-Nov-2020 4535.01 4061.08 81.51 6.00 336.25 2393.67
   22:37:22.207.10-Nov-2020 4535.01 4060.95 81.51 6.00 336.45 2393.67
   22:37:22.407.10-Nov-2020 4535.01 4060.93 81.51 6.00 336.65 2393.67
   22:37:22.607.10-Nov-2020 4535.01 4060.80 81.51 6.00 336.85 2393.67
   22:37:22.807.10-Nov-2020 4535.01 4060.95 81.51 6.00 337.05 2393.67
   22:37:23.007.10-Nov-2020 4535.01 4060.95 81.51 6.00 337.25 2393.67
   22:37:23.207.10-Nov-2020 4535.01 4060.91 81.50 6.00 337.45 2393.67
   22:37:23.407.10-Nov-2020 4535.01 4060.99 81.50 6.00 337.65 2393.67
   22:37:23.607.10-Nov-2020 4535.01 4060.95 81.50 6.00 337.85 2393.67
   22:37:23.807.10-Nov-2020 4535.01 4060.87 81.50 6.00 338.05 2393.67
   22:37:24.007.10-Nov-2020 4535.01 4060.87 81.50 6.00 338.25 2393.67
   22:37:24.207.10-Nov-2020 4535.01 4061.01 81.50 6.00 338.45 2393.67
   22:37:24.407.10-Nov-2020 4535.01 4060.86 81.50 6.00 338.65 2393.67
   22:37:24.608.10-Nov-2020 4535.01 4060.94 81.50 6.00 338.85 2393.67
   22:37:24.808.10-Nov-2020 4535.01 4061.01 81.49 6.00 339.05 2393.67
   22:37:25.008.10-Nov-2020 4535.01 4061.03 81.49 6.00 339.25 2393.67
   22:37:25.208.10-Nov-2020 4535.01 4061.05 81.49 6.00 339.45 2393.67
   22:37:25.408.10-Nov-2020 4535.01 4060.77 81.49 6.00 339.65 2393.67
   22:37:25.608.10-Nov-2020 4535.01 4060.93 81.49 6.00 339.85 2393.67
   22:37:25.808.10-Nov-2020 4535.01 4060.93 81.49 6.00 340.05 2393.67
   22:37:26.008.10-Nov-2020 4535.01 4060.93 81.49 6.00 340.25 2393.67
   22:37:26.208.10-Nov-2020 4535.01 4060.96 81.49 6.00 340.45 2393.67
   22:37:26.408.10-Nov-2020 4535.01 4060.91 81.49 6.00 340.65 2393.67
   22:37:26.608.10-Nov-2020 4535.01 4060.93 81.49 6.00 340.85 2393.67
   22:37:26.808.10-Nov-2020 4535.01 4060.95 81.48 6.00 341.05 2393.67
   22:37:27.008.10-Nov-2020 4535.01 4060.95 81.48 6.00 341.25 2393.67
   22:37:27.208.10-Nov-2020 4535.01 4060.94 81.48 6.00 341.45 2393.67
   22:37:27.408.10-Nov-2020 4535.01 4060.92 81.48 6.00 341.65 2393.67
   22:37:27.608.10-Nov-2020 4535.01 4060.91 81.48 6.00 341.85 2393.67
   22:37:27.808.10-Nov-2020 4535.01 4060.96 81.48 6.00 342.05 2393.67
   22:37:28.008.10-Nov-2020 4535.01 4060.96 81.48 6.00 342.25 2393.67
   22:37:28.208.10-Nov-2020 4535.01 4061.00 81.48 6.00 342.45 2393.67
   22:37:28.408.10-Nov-2020 4535.01 4060.93 81.48 6.00 342.65 2393.67
   22:37:28.608.10-Nov-2020 4535.01 4060.84 81.48 6.00 342.85 2393.67
   22:37:28.808.10-Nov-2020 4535.01 4060.86 81.47 6.00 343.05 2393.67
   22:37:29.008.10-Nov-2020 4535.01 4060.90 81.47 6.00 343.25 2393.67
   22:37:29.208.10-Nov-2020 4535.01 4060.83 81.47 6.00 343.45 2393.67
   22:37:29.408.10-Nov-2020 4535.01 4060.90 81.47 6.00 343.65 2393.67
   22:37:29.608.10-Nov-2020 4535.01 4060.95 81.47 6.00 343.85 2393.67
   22:37:29.808.10-Nov-2020 4535.01 4060.90 81.47 6.00 344.05 2393.67
   22:37:30.008.10-Nov-2020 4535.01 4060.90 81.47 6.00 344.25 2393.67
   22:37:30.208.10-Nov-2020 4535.01 4060.91 81.47 6.00 344.45 2393.67
   22:37:30.408.10-Nov-2020 4535.01 4060.90 81.47 6.00 344.65 2393.67
   22:37:30.608.10-Nov-2020 4535.01 4060.90 81.47 6.00 344.85 2393.67
