~Version Information
 VERS.                  2.0:   CWLS log ASCII Standard -VERSION 2.0
 WRAP.                   NO:   One line per depth step
~Well Information Block
#MNEM.UNIT     VALUE/NAME     DESCRIPTION
#---------     -----------    ---------------------------
 STRT.S             06:45:19 11-Nov-20: START TIME 06:45:19 11-Nov-20
 STOP.S             06:51:53 11-Nov-20: STOP TIME  06:51:53 11-Nov-20
 STEP.S                   0.00: STEP TIME
 NULL.                 -999.25: NULL VALUE
 DFWT.                        :  DIST FWL TEXT
 DFST.                        :  DIST FSL TEXT
 DMF .             Drill Floor:  DRILL MEAS FROM
 STIM.      04.54.24 22-Sep-20:  START TIME
 DATE.      04.54.24 21-Nov-20:  END TIME
 SPUD.               21-Nov-20:  SPUD DATE
 NREF.                    Grid:  NORTH REFERENCE
 HPTY.       Minimum Curvature:  HOLE POS TYPE
 DMOD.             Drill Model:  DRILL MOD DESC
 SVYD.                  Survey:  SURVEY DESC
 ILTD.               Lithology:  INTERP LTH DESC
 FTOP.          Formation Tops:  FORM TOPS DESC
 SON .        AZ-XX-0906571587:  JOB NUMBER
 COMP.     BP Exploration (Caspian Sea) Ltd:  COMPANY
 UWI .                     N/A:  UNIQUE WELL IDENTIFIER
 API .                     N/A:  API NUMBER
 BASE.              Azerbaijan:  LOGGING EQUIPMENT BASE LOCATION
 REGN.                   EESSA:  REGION
 PROV.                    Baku:  PROVINCE
 STAT.                    Baku:  STATE NAME
 CTRY.              Azerbaijan:  COUNTRY NAME
 FLD .                     ACG:  FIELD NAME
 SRVC.     TURAN Drilling & Engineering:  CONTRACTOR
 WELL.                     J27:  WELL NAME
 RIG .             West Chirag:  RIG NAME
 DOE .                     N/A:  DOE NUMBER
 DCON.         Sperry Drilling:  DIRECTNL CONTR
 PDAT.          Mean Sea Level:  PERMANENT DATUM
 WTYP.                Deviated:  WELL TYPE
 MWDS.                    Baku:  MWD SHOP
 JOBN.        AZ-XX-0906571587:  JOB TICKET NUMB
 UNIT.                     N/A:  LOGGING EQUIPMENT ID
 MDS .        Operator Entered:  MAG DATA SOURCE
 CNTY.                        :  COUNTY
 LOC .                        :  LOCATION
 LMF .             Drill Floor:  LOG MEASURED FROM
 TVDS.m                  43.00:  TVDSS CORRECTN
 LATI.deg                40.13:  LATITUDE
 LONG.deg                51.22:  LONGITUDE
 WHNS.m                   7.72:  WELL HEAD N/S
 WHEW.m                 -14.24:  WELL HEAD E/W
 UTMX.m              519005.06:  UTM X
 UTMY.m             4443793.85:  UTM Y
 DFWL.m                   0.00:  DISTANCE FWL
 DFSL.m                   0.00:  DISTANCE FSL
 SDEP.m                 347.00:  START DEPTH
 TDD .m                 581.00:  TOTAL DEPTH (DRILLER)
 VSDR.deg               159.72:  VERT SEC DIRECT
 GVFD.g                   1.00:  GRAVITY FIELD
 MFLD.nT              50313.00:  MAGNETIC FIELD
 MDIP.deg                59.58:  MAGNETIC DIP
 MDEC.deg                 6.45:  MAGNETIC DECL
 GRDC.deg                 0.15:  GRID CORRECTION
 AZTC.deg                 6.30:  AZM TOTAL CORR
 EPD .m                   0.00:  ELEVATION
 EGL .m                   0.00:  GROUND ELEVATION
 WDMS.m                 169.80:  WD ELEV
 APD .m                  43.00:  DEPTH ABOVE PD
 AGAP.m                  43.00:  AIR GAP
 VSEW.m                 -14.24:  VERT SEC E/W
 VSNS.m                   7.72:  VERT SEC N/S
 DEP .m                 342.45:  DEPTH
 EKB .m                   0.00:  KB ELEVATION
 EDF .m                  43.00:  DF ELEVATION
 TDL .m                1313.00:  TOTAL DEPTH (LOGGER)
 VSC .                       0:  VS TO CLOSURE
 MAGU.                 1851396:  MAGUTM CHECKSUM
~Parameter Information Block
#MNEM.UNIT       Value        Description
#---------     -----------    ---------------------------
 AV  .mps                 0.65:  Ann Velocity 
 AVMX.mps                 0.75:  Max Ann Veloc 
 AZIF.deg               115.08:  Azm, Final 
 BHAT.        Rotary Steerable:  BHA Type 
 BROT.°/30m               1.50:  Build Rotating 
 BS  .in                 12.25:  Bit Size 
 BSZ .in                 12.25:  Bit Size 
 BTPL.psig              700.00:  Bit Press Loss 
 CABU.                     Yes:  Customer Abuse 
 COMM.                     LNw:  Run Comments 1 
 TCS .hr                121.00:  Time Ciculation Ended 
 CV  .mps                 1.83:  Crit Velocity 
 CVMX.mps                 1.83:  Max Crit Veloc 
 DD1 .          Rashad Habibov:  Direct Drillr 1 
 DD2 .         Rasim Ibrahimov:  Direct Drillr 2 
 DDSV.                 iCruise:  DD Service 
 DEFF.%                 100.00:  % Det Eff 
 DLRX.°/30m               3.60:  Dogleg Rot Max 
 DLSO.°/30m               3.10:  Dogleg Oriented 
 DLSX.°/30m               3.60:  Dogleg Str Max 
 DRET.      13.41.20 12-Nov-20:  Drill End Time 
 DRST.      13.41.20 07-Nov-20:  Drill Start Tim 
 DTIM.hr                 54.16:  Time Drilling 
 EDEP.m                4762.01:  End Depth 
 ENG1.           Amrah Tahirov:  Engineer 1 
 ENG2.      Bakhtiyar Jabbarli:  Engineer 2 
 ENG3.          Ruslan Safarov:  Engineer 3 
 ETIM.      13.41.20 14-Nov-20:  End Time 
 FLOI.gpm              1200.00:  Flow In 
 FLON.gpm              1100.00:  Flow In Min 
 FLOS.cptm                0.00:  Fluid Loss 
 FLOX.gpm              1200.00:  Flow In Max 
 HFLO.                      No:  High Flow 
 HPRE.                      No:  High Pressure 
 HTEM.                      No:  High Temp 
 HYDO.m                   2.00:  Hydro Offset 
 IFIN.deg                66.14:  Inc, Final 
 IMAX.deg                69.03:  Inc Max 
 IMIN.deg                64.64:  Inc Min 
 IMND.m                4450.16:  Inc Min Depth 
 IMXD.m                3996.00:  Inc Max Depth 
 JARR.                     Yes:  Jarring 
 LETM.      13.41.20 14-Nov-20:  Log End Time 
 LOST.hr                     0:  Lost Rig Time 
 LSTM.      13.41.20 06-Nov-20:  Log Start Time 
 MDCL.ppm             42500.00:  Mud Chlorides 
 MDES.     Inversion Oil/Synthetic:  Mud Desc 
 DFD .sg                  1.45:  Mud Density 
 MDMN.sg                  1.45:  Dens Mud Min 
 MDMX.sg                  1.45:  Dens Mud Max 
 MOIL.                      70:  Run Mud Oil % 
 MOWR.                   70:30:  Run Mud OWR 
 MSND.                       0:  Run Mud Sand % 
 MSOL.                    19.3:  Run Mud Solids% 
 DFV .spqt               77.00:  Mud Viscosity 
 MWOD.in                  8.00:  MWD Tool OD 
 MWSI.                      No:  Serv Intrp, MWD 
 OTIM.hr                201.88:  Time Operating 
 PCON.           Look Like New:  Pad Condition 
 PMAX.psia             9250.94:  Press Op, Max 
 PV  .cP                 29.00:  Mud PV 
 RUN .                     800:  Run Number 
 ROPA.m/hr               28.00:  ROP Avg 
 ROPN.m/hr               25.00:  ROP Min 
 ROPX.m/hr               30.00:  ROP Max 
 RPMA.rpm               160.00:  RPM Surface Avg 
 RPMN.rpm               160.00:  RPM Surface Min 
 RPMX.rpm               160.00:  RPM Surface Max 
 RRUN.                    0800:  Rig Run Number 
 RTIM.hr                 12.00:  Time Reaming 
 SAZI.deg               169.33:  Azm, Start 
 SDEP.m                3449.01:  Start Depth 
 SIDD.                      No:  Serv Intrp, DD 
 SINC.deg                68.01:  Inc, Start 
 SPPA.psig             4900.00:  SPP Avg 
 SPPN.psig             4800.00:  SPP Min 
 SPPX.psig             5050.00:  SPP Max 
 STIM.      13.41.20 06-Nov-20:  Start Time 
 SVCS.                 DD, MWD:  Services 
 SVER.                    9.20:  Sperry Version 
 TDAT.m                4762.01:  Tot Depth Attmp 
 TDDF.                      No:  Trip for DD 
 TDLG.m                1313.00:  Tot Depth Loggd 
 TFF .                      No:  Trip for Fail 
 TQAA.f-kp               13.00:  Torque Abs Avg 
 TQAN.f-kp               13.00:  Torque Abs Min 
 TQAX.f-kp               13.00:  Torque Abs Max 
 TRRT.°/30m               1.70:  Turn Rotating 
 MRT .                  EWR-M5:  Maximum Recorded Temperature 
 TTMX.degC               86.00:  Max Tool Temp 
 VS01.                90622122:  Virtual Str1 SN 
 VS02.                90577298:  Virtual Str2 SN 
 VS03.                90563623:  Virtual Str3 SN 
 VS04.                90617559:  Virtual Str4 SN 
 VS05.                11339492:  Virtual Str5 SN 
 VS06.                12385033:  Virtual Str6 SN 
 WBMN.klb                 0.00:  WOB Min 
 WOBA.klb                22.00:  WOB Avg 
 WOBX.klb                26.00:  WOB Max 
 YP  .lhf2               30.00:  Yield Point 
~Curve Information Block
#MNEM.UNIT                 API CODE     Curve Description
#---------               -----------    ---------------------------
 TIME.HHMMSS            00 000 000 000:  GT Time & Date
 GTDEPTH.m              00 000 000 000:  GT Depth
 GTPQH.psia             00 000 000 000:  GT HR Quartz Pressure
 GTTQ.degC              00 000 000 000:  GT Quartz Temperature
 GTTN.NONE              00 000 000 000:  GT Test Number
 GTET.sec               00 000 000 000:  GT Elapsed Test Time
 GTTVD.m                00 000 000 000:  GT True Vertical Depth
#Other Information
#
#WARRANTY: Halliburton will use its best efforts to furnish customers with 
#accurate information and interpretations that are part of, and incident to, the services 
#provided.  However, Halliburton cannot and does not warrant the accuracy 
#or correctness of such information and interpretations.  Under no circumstances should any 
#such information or interpretation be relied upon as the sole basis for any drilling, 
#completion, production, or financial decision or any procedure involving any risk to the 
#safety of any drilling venture, drilling rig or its crew or any other third party.  The 
#Customer has full responsibility for all drilling, completion and production operation.  
#Halliburton makes no representations or warranties, either expressed or 
#implied, including, but not limited to, the implied warranties of merchantability or fitness 
#for a particular purpose, with respect to the services rendered.  In no event will 
#Halliburton be liable for failure to obtain any particular results or for 
#any damages, including, but not limited to, indirect, special or consequential damages, 
#resulting from the use of any information or interpretation provided by Halliburton.
#
~A           TIME           GTDEPTH  GTPQH  GTTQ  GTTN  GTET   GTTVD  
# ...
   06:49:55.476.11-Nov-2020 4617.01 4135.61 79.23 8.00 276.09 2426.59
   06:49:55.676.11-Nov-2020 4617.01 4135.59 79.22 8.00 276.29 2426.59
   06:49:55.876.11-Nov-2020 4617.01 4135.56 79.22 8.00 276.49 2426.59
   06:49:56.076.11-Nov-2020 4617.01 4135.54 79.22 8.00 276.69 2426.59
   06:49:56.277.11-Nov-2020 4617.01 4135.55 79.22 8.00 276.89 2426.59
   06:49:56.477.11-Nov-2020 4617.01 4135.58 79.22 8.00 277.09 2426.59
   06:49:56.677.11-Nov-2020 4617.01 4135.58 79.22 8.00 277.29 2426.59
   06:49:56.877.11-Nov-2020 4617.01 4135.57 79.22 8.00 277.49 2426.59
   06:49:57.077.11-Nov-2020 4617.01 4135.50 79.22 8.00 277.69 2426.59
   06:49:57.277.11-Nov-2020 4617.01 4135.56 79.22 8.00 277.89 2426.59
   06:49:57.477.11-Nov-2020 4617.01 4135.58 79.22 8.00 278.09 2426.59
   06:49:57.677.11-Nov-2020 4617.01 4135.58 79.22 8.00 278.29 2426.59
   06:49:57.877.11-Nov-2020 4617.01 4135.57 79.22 8.00 278.49 2426.59
   06:49:58.077.11-Nov-2020 4617.01 4135.57 79.22 8.00 278.69 2426.59
   06:49:58.277.11-Nov-2020 4617.01 4135.56 79.21 8.00 278.89 2426.59
   06:49:58.477.11-Nov-2020 4617.01 4135.53 79.21 8.00 279.09 2426.59
   06:49:58.677.11-Nov-2020 4617.01 4135.53 79.21 8.00 279.29 2426.59
   06:49:58.877.11-Nov-2020 4617.01 4135.54 79.21 8.00 279.49 2426.59
   06:49:59.077.11-Nov-2020 4617.01 4135.54 79.21 8.00 279.69 2426.59
   06:49:59.277.11-Nov-2020 4617.01 4135.59 79.21 8.00 279.89 2426.59
   06:49:59.478.11-Nov-2020 4617.01 4135.64 79.21 8.00 280.09 2426.59
   06:49:59.678.11-Nov-2020 4617.01 4135.49 79.21 8.00 280.29 2426.59
   06:49:59.878.11-Nov-2020 4617.01 4135.82 79.21 8.00 280.49 2426.59
   06:50:00.078.11-Nov-2020 4617.01 4135.33 79.21 8.00 280.69 2426.59
   06:50:00.278.11-Nov-2020 4617.01 4135.52 79.21 8.00 280.89 2426.59
   06:50:00.478.11-Nov-2020 4617.01 4135.58 79.21 8.00 281.09 2426.59
   06:50:00.678.11-Nov-2020 4617.01 4135.58 79.21 8.00 281.29 2426.59
   06:50:00.878.11-Nov-2020 4617.01 4135.59 79.20 8.00 281.49 2426.59
   06:50:01.078.11-Nov-2020 4617.01 4135.56 79.20 8.00 281.69 2426.59
   06:50:01.278.11-Nov-2020 4617.01 4135.44 79.20 8.00 281.89 2426.59
   06:50:01.478.11-Nov-2020 4617.01 4135.67 79.20 8.00 282.09 2426.59
   06:50:01.678.11-Nov-2020 4617.01 4135.67 79.20 8.00 282.29 2426.59
   06:50:01.878.11-Nov-2020 4617.01 4135.61 79.20 8.00 282.49 2426.59
   06:50:02.078.11-Nov-2020 4617.01 4135.61 79.20 8.00 282.69 2426.59
   06:50:02.278.11-Nov-2020 4617.01 4135.80 79.20 8.00 282.89 2426.59
   06:50:02.478.11-Nov-2020 4617.01 4135.38 79.20 8.00 283.09 2426.59
   06:50:02.679.11-Nov-2020 4617.01 4135.38 79.20 8.00 283.29 2426.59
   06:50:02.879.11-Nov-2020 4617.01 4135.61 79.20 8.00 283.49 2426.59
   06:50:03.079.11-Nov-2020 4617.01 4135.64 79.20 8.00 283.69 2426.59
   06:50:03.279.11-Nov-2020 4617.01 4135.64 79.19 8.00 283.89 2426.59
   06:50:03.479.11-Nov-2020 4617.01 4135.55 79.19 8.00 284.09 2426.59
   06:50:03.679.11-Nov-2020 4617.01 4135.60 79.19 8.00 284.29 2426.59
   06:50:03.879.11-Nov-2020 4617.01 4135.60 79.19 8.00 284.49 2426.59
   06:50:04.079.11-Nov-2020 4617.01 4135.56 79.19 8.00 284.69 2426.59
   06:50:04.279.11-Nov-2020 4617.01 4135.64 79.19 8.00 284.89 2426.59
   06:50:04.479.11-Nov-2020 4617.01 4135.56 79.19 8.00 285.09 2426.59
   06:50:04.679.11-Nov-2020 4617.01 4135.56 79.19 8.00 285.29 2426.59
   06:50:04.879.11-Nov-2020 4617.01 4135.60 79.19 8.00 285.49 2426.59
   06:50:05.079.11-Nov-2020 4617.01 4135.48 79.19 8.00 285.69 2426.59
   06:50:05.279.11-Nov-2020 4617.01 4135.64 79.19 8.00 285.89 2426.59
   06:50:05.479.11-Nov-2020 4617.01 4135.63 79.19 8.00 286.09 2426.59
   06:50:05.679.11-Nov-2020 4617.01 4135.63 79.19 8.00 286.29 2426.59
   06:50:05.880.11-Nov-2020 4617.01 4135.63 79.18 8.00 286.49 2426.59
   06:50:06.080.11-Nov-2020 4617.01 4135.60 79.18 8.00 286.69 2426.59
   06:50:06.280.11-Nov-2020 4617.01 4135.56 79.18 8.00 286.89 2426.59
   06:50:06.480.11-Nov-2020 4617.01 4135.59 79.18 8.00 287.09 2426.59
   06:50:06.680.11-Nov-2020 4617.01 4135.59 79.18 8.00 287.29 2426.59
   06:50:06.880.11-Nov-2020 4617.01 4135.52 79.18 8.00 287.49 2426.59
   06:50:07.080.11-Nov-2020 4617.01 4135.60 79.18 8.00 287.69 2426.59
   06:50:07.280.11-Nov-2020 4617.01 4135.56 79.18 8.00 287.89 2426.59
   06:50:07.480.11-Nov-2020 4617.01 4135.58 79.18 8.00 288.09 2426.59
   06:50:07.680.11-Nov-2020 4617.01 4135.52 79.18 8.00 288.29 2426.59
   06:50:07.880.11-Nov-2020 4617.01 4135.70 79.18 8.00 288.49 2426.59
   06:50:08.080.11-Nov-2020 4617.01 4135.53 79.18 8.00 288.69 2426.59
   06:50:08.280.11-Nov-2020 4617.01 4135.55 79.17 8.00 288.89 2426.59
   06:50:08.480.11-Nov-2020 4617.01 4135.64 79.17 8.00 289.09 2426.59
   06:50:08.680.11-Nov-2020 4617.01 4135.64 79.17 8.00 289.29 2426.59
   06:50:08.880.11-Nov-2020 4617.01 4135.67 79.17 8.00 289.49 2426.59
   06:50:09.081.11-Nov-2020 4617.01 4135.59 79.17 8.00 289.69 2426.59
   06:50:09.281.11-Nov-2020 4617.01 4135.44 79.17 8.00 289.89 2426.59
   06:50:09.481.11-Nov-2020 4617.01 4135.52 79.17 8.00 290.09 2426.59
   06:50:09.681.11-Nov-2020 4617.01 4135.52 79.17 8.00 290.29 2426.59
   06:50:09.881.11-Nov-2020 4617.01 4135.35 79.17 8.00 290.49 2426.59
   06:50:10.081.11-Nov-2020 4617.01 4135.62 79.17 8.00 290.69 2426.59
   06:50:10.281.11-Nov-2020 4617.01 4135.53 79.17 8.00 290.89 2426.59
   06:50:10.481.11-Nov-2020 4617.01 4135.62 79.17 8.00 291.09 2426.59
   06:50:10.681.11-Nov-2020 4617.01 4135.62 79.17 8.00 291.29 2426.59
   06:50:10.881.11-Nov-2020 4617.01 4135.67 79.16 8.00 291.49 2426.59
   06:50:11.081.11-Nov-2020 4617.01 4135.64 79.16 8.00 291.69 2426.59
   06:50:11.281.11-Nov-2020 4617.01 4135.55 79.16 8.00 291.89 2426.59
   06:50:11.481.11-Nov-2020 4617.01 4135.64 79.16 8.00 292.09 2426.59
   06:50:11.681.11-Nov-2020 4617.01 4135.64 79.16 8.00 292.29 2426.59
   06:50:11.881.11-Nov-2020 4617.01 4135.60 79.16 8.00 292.49 2426.59
   06:50:12.081.11-Nov-2020 4617.01 4135.56 79.16 8.00 292.69 2426.59
   06:50:12.282.11-Nov-2020 4617.01 4135.63 79.16 8.00 292.89 2426.59
   06:50:12.482.11-Nov-2020 4617.01 4135.54 79.16 8.00 293.09 2426.59
   06:50:12.682.11-Nov-2020 4617.01 4135.54 79.16 8.00 293.29 2426.59
   06:50:12.882.11-Nov-2020 4617.01 4135.59 79.16 8.00 293.49 2426.59
   06:50:13.082.11-Nov-2020 4617.01 4135.57 79.16 8.00 293.69 2426.59
   06:50:13.282.11-Nov-2020 4617.01 4135.59 79.16 8.00 293.89 2426.59
   06:50:13.482.11-Nov-2020 4617.01 4135.78 79.15 8.00 294.09 2426.59
   06:50:13.682.11-Nov-2020 4617.01 4135.78 79.15 8.00 294.29 2426.59
   06:50:13.882.11-Nov-2020 4617.01 4135.53 79.15 8.00 294.49 2426.59
   06:50:14.082.11-Nov-2020 4617.01 4135.52 79.15 8.00 294.69 2426.59
   06:50:14.282.11-Nov-2020 4617.01 4135.59 79.15 8.00 294.89 2426.59
   06:50:14.482.11-Nov-2020 4617.01 4135.60 79.15 8.00 295.09 2426.59
   06:50:14.682.11-Nov-2020 4617.01 4135.60 79.15 8.00 295.29 2426.59
   06:50:14.882.11-Nov-2020 4617.01 4135.57 79.15 8.00 295.49 2426.59
   06:50:15.082.11-Nov-2020 4617.01 4135.56 79.15 8.00 295.69 2426.59
   06:50:15.282.11-Nov-2020 4617.01 4135.50 79.15 8.00 295.89 2426.59
   06:50:15.483.11-Nov-2020 4617.01 4135.63 79.15 8.00 296.09 2426.59
   06:50:15.683.11-Nov-2020 4617.01 4135.53 79.15 8.00 296.29 2426.59
   06:50:15.883.11-Nov-2020 4617.01 4135.55 79.14 8.00 296.49 2426.59
   06:50:16.083.11-Nov-2020 4617.01 4135.82 79.14 8.00 296.69 2426.59
   06:50:16.283.11-Nov-2020 4617.01 4135.43 79.14 8.00 296.89 2426.59
   06:50:16.483.11-Nov-2020 4617.01 4135.66 79.14 8.00 297.09 2426.59
   06:50:16.683.11-Nov-2020 4617.01 4135.66 79.14 8.00 297.29 2426.59
   06:50:16.883.11-Nov-2020 4617.01 4135.57 79.14 8.00 297.49 2426.59
   06:50:17.083.11-Nov-2020 4617.01 4135.59 79.14 8.00 297.69 2426.59
   06:50:17.283.11-Nov-2020 4617.01 4135.44 79.14 8.00 297.89 2426.59
   06:50:17.483.11-Nov-2020 4617.01 4135.57 79.14 8.00 298.09 2426.59
   06:50:17.683.11-Nov-2020 4617.01 4135.57 79.14 8.00 298.29 2426.59
   06:50:17.883.11-Nov-2020 4617.01 4135.83 79.14 8.00 298.49 2426.59
   06:50:18.083.11-Nov-2020 4617.01 4135.40 79.14 8.00 298.69 2426.59
   06:50:18.283.11-Nov-2020 4617.01 4135.52 79.14 8.00 298.89 2426.59
