~Version Information
 VERS.                  2.0:   CWLS log ASCII Standard -VERSION 2.0
 WRAP.                   NO:   One line per depth step
~Well Information Block
#MNEM.UNIT     VALUE/NAME     DESCRIPTION
#---------     -----------    ---------------------------
 STRT.S             18:53:27 10-Nov-20: START TIME 18:53:27 10-Nov-20
 STOP.S             19:00:00 10-Nov-20: STOP TIME  19:00:00 10-Nov-20
 STEP.S                   0.00: STEP TIME
 NULL.                 -999.25: NULL VALUE
 DFWT.                        :  DIST FWL TEXT
 DFST.                        :  DIST FSL TEXT
 DMF .             Drill Floor:  DRILL MEAS FROM
 STIM.      04.54.24 22-Sep-20:  START TIME
 DATE.      04.54.24 21-Nov-20:  END TIME
 SPUD.               21-Nov-20:  SPUD DATE
 NREF.                    Grid:  NORTH REFERENCE
 HPTY.       Minimum Curvature:  HOLE POS TYPE
 DMOD.             Drill Model:  DRILL MOD DESC
 SVYD.                  Survey:  SURVEY DESC
 ILTD.               Lithology:  INTERP LTH DESC
 FTOP.          Formation Tops:  FORM TOPS DESC
 SON .        AZ-XX-0906571587:  JOB NUMBER
 COMP.     BP Exploration (Caspian Sea) Ltd:  COMPANY
 UWI .                     N/A:  UNIQUE WELL IDENTIFIER
 API .                     N/A:  API NUMBER
 BASE.              Azerbaijan:  LOGGING EQUIPMENT BASE LOCATION
 REGN.                   EESSA:  REGION
 PROV.                    Baku:  PROVINCE
 STAT.                    Baku:  STATE NAME
 CTRY.              Azerbaijan:  COUNTRY NAME
 FLD .                     ACG:  FIELD NAME
 SRVC.     TURAN Drilling & Engineering:  CONTRACTOR
 WELL.                     J27:  WELL NAME
 RIG .             West Chirag:  RIG NAME
 DOE .                     N/A:  DOE NUMBER
 DCON.         Sperry Drilling:  DIRECTNL CONTR
 PDAT.          Mean Sea Level:  PERMANENT DATUM
 WTYP.                Deviated:  WELL TYPE
 MWDS.                    Baku:  MWD SHOP
 JOBN.        AZ-XX-0906571587:  JOB TICKET NUMB
 UNIT.                     N/A:  LOGGING EQUIPMENT ID
 MDS .        Operator Entered:  MAG DATA SOURCE
 CNTY.                        :  COUNTY
 LOC .                        :  LOCATION
 LMF .             Drill Floor:  LOG MEASURED FROM
 TVDS.m                  43.00:  TVDSS CORRECTN
 LATI.deg                40.13:  LATITUDE
 LONG.deg                51.22:  LONGITUDE
 WHNS.m                   7.72:  WELL HEAD N/S
 WHEW.m                 -14.24:  WELL HEAD E/W
 UTMX.m              519005.06:  UTM X
 UTMY.m             4443793.85:  UTM Y
 DFWL.m                   0.00:  DISTANCE FWL
 DFSL.m                   0.00:  DISTANCE FSL
 SDEP.m                 347.00:  START DEPTH
 TDD .m                 581.00:  TOTAL DEPTH (DRILLER)
 VSDR.deg               159.72:  VERT SEC DIRECT
 GVFD.g                   1.00:  GRAVITY FIELD
 MFLD.nT              50313.00:  MAGNETIC FIELD
 MDIP.deg                59.58:  MAGNETIC DIP
 MDEC.deg                 6.45:  MAGNETIC DECL
 GRDC.deg                 0.15:  GRID CORRECTION
 AZTC.deg                 6.30:  AZM TOTAL CORR
 EPD .m                   0.00:  ELEVATION
 EGL .m                   0.00:  GROUND ELEVATION
 WDMS.m                 169.80:  WD ELEV
 APD .m                  43.00:  DEPTH ABOVE PD
 AGAP.m                  43.00:  AIR GAP
 VSEW.m                 -14.24:  VERT SEC E/W
 VSNS.m                   7.72:  VERT SEC N/S
 DEP .m                 342.45:  DEPTH
 EKB .m                   0.00:  KB ELEVATION
 EDF .m                  43.00:  DF ELEVATION
 TDL .m                1313.00:  TOTAL DEPTH (LOGGER)
 VSC .                       0:  VS TO CLOSURE
 MAGU.                 1851396:  MAGUTM CHECKSUM
~Parameter Information Block
#MNEM.UNIT       Value        Description
#---------     -----------    ---------------------------
 AV  .mps                 0.65:  Ann Velocity 
 AVMX.mps                 0.75:  Max Ann Veloc 
 AZIF.deg               115.08:  Azm, Final 
 BHAT.        Rotary Steerable:  BHA Type 
 BROT.°/30m               1.50:  Build Rotating 
 BS  .in                 12.25:  Bit Size 
 BSZ .in                 12.25:  Bit Size 
 BTPL.psig              700.00:  Bit Press Loss 
 CABU.                     Yes:  Customer Abuse 
 COMM.                     ”Ú:  Run Comments 1 
 TCS .hr                121.00:  Time Ciculation Ended 
 CV  .mps                 1.83:  Crit Velocity 
 CVMX.mps                 1.83:  Max Crit Veloc 
 DD1 .          Rashad Habibov:  Direct Drillr 1 
 DD2 .         Rasim Ibrahimov:  Direct Drillr 2 
 DDSV.                 iCruise:  DD Service 
 DEFF.%                 100.00:  % Det Eff 
 DLRX.°/30m               3.60:  Dogleg Rot Max 
 DLSO.°/30m               3.10:  Dogleg Oriented 
 DLSX.°/30m               3.60:  Dogleg Str Max 
 DRET.      13.41.20 12-Nov-20:  Drill End Time 
 DRST.      13.41.20 07-Nov-20:  Drill Start Tim 
 DTIM.hr                 54.16:  Time Drilling 
 EDEP.m                4762.01:  End Depth 
 ENG1.           Amrah Tahirov:  Engineer 1 
 ENG2.      Bakhtiyar Jabbarli:  Engineer 2 
 ENG3.          Ruslan Safarov:  Engineer 3 
 ETIM.      13.41.20 14-Nov-20:  End Time 
 FLOI.gpm              1200.00:  Flow In 
 FLON.gpm              1100.00:  Flow In Min 
 FLOS.cptm                0.00:  Fluid Loss 
 FLOX.gpm              1200.00:  Flow In Max 
 HFLO.                      No:  High Flow 
 HPRE.                      No:  High Pressure 
 HTEM.                      No:  High Temp 
 HYDO.m                   2.00:  Hydro Offset 
 IFIN.deg                66.14:  Inc, Final 
 IMAX.deg                69.03:  Inc Max 
 IMIN.deg                64.64:  Inc Min 
 IMND.m                4450.16:  Inc Min Depth 
 IMXD.m                3996.00:  Inc Max Depth 
 JARR.                     Yes:  Jarring 
 LETM.      13.41.20 14-Nov-20:  Log End Time 
 LOST.hr                     0:  Lost Rig Time 
 LSTM.      13.41.20 06-Nov-20:  Log Start Time 
 MDCL.ppm             42500.00:  Mud Chlorides 
 MDES.     Inversion Oil/Synthetic:  Mud Desc 
 DFD .sg                  1.45:  Mud Density 
 MDMN.sg                  1.45:  Dens Mud Min 
 MDMX.sg                  1.45:  Dens Mud Max 
 MOIL.                      70:  Run Mud Oil % 
 MOWR.                   70:30:  Run Mud OWR 
 MSND.                       0:  Run Mud Sand % 
 MSOL.                    19.3:  Run Mud Solids% 
 DFV .spqt               77.00:  Mud Viscosity 
 MWOD.in                  8.00:  MWD Tool OD 
 MWSI.                      No:  Serv Intrp, MWD 
 OTIM.hr                201.88:  Time Operating 
 PCON.           Look Like New:  Pad Condition 
 PMAX.psia             9250.94:  Press Op, Max 
 PV  .cP                 29.00:  Mud PV 
 RUN .                     800:  Run Number 
 ROPA.m/hr               28.00:  ROP Avg 
 ROPN.m/hr               25.00:  ROP Min 
 ROPX.m/hr               30.00:  ROP Max 
 RPMA.rpm               160.00:  RPM Surface Avg 
 RPMN.rpm               160.00:  RPM Surface Min 
 RPMX.rpm               160.00:  RPM Surface Max 
 RRUN.                    0800:  Rig Run Number 
 RTIM.hr                 12.00:  Time Reaming 
 SAZI.deg               169.33:  Azm, Start 
 SDEP.m                3449.01:  Start Depth 
 SIDD.                      No:  Serv Intrp, DD 
 SINC.deg                68.01:  Inc, Start 
 SPPA.psig             4900.00:  SPP Avg 
 SPPN.psig             4800.00:  SPP Min 
 SPPX.psig             5050.00:  SPP Max 
 STIM.      13.41.20 06-Nov-20:  Start Time 
 SVCS.                 DD, MWD:  Services 
 SVER.                    9.20:  Sperry Version 
 TDAT.m                4762.01:  Tot Depth Attmp 
 TDDF.                      No:  Trip for DD 
 TDLG.m                1313.00:  Tot Depth Loggd 
 TFF .                      No:  Trip for Fail 
 TQAA.f-kp               13.00:  Torque Abs Avg 
 TQAN.f-kp               13.00:  Torque Abs Min 
 TQAX.f-kp               13.00:  Torque Abs Max 
 TRRT.°/30m               1.70:  Turn Rotating 
 MRT .                  EWR-M5:  Maximum Recorded Temperature 
 TTMX.degC               86.00:  Max Tool Temp 
 VS01.                90622122:  Virtual Str1 SN 
 VS02.                90577298:  Virtual Str2 SN 
 VS03.                90563623:  Virtual Str3 SN 
 VS04.                90617559:  Virtual Str4 SN 
 VS05.                11339492:  Virtual Str5 SN 
 VS06.                12385033:  Virtual Str6 SN 
 WBMN.klb                 0.00:  WOB Min 
 WOBA.klb                22.00:  WOB Avg 
 WOBX.klb                26.00:  WOB Max 
 YP  .lhf2               30.00:  Yield Point 
~Curve Information Block
#MNEM.UNIT                 API CODE     Curve Description
#---------               -----------    ---------------------------
 TIME.HHMMSS            00 000 000 000:  GT Time & Date
 GTDEPTH.m              00 000 000 000:  GT Depth
 GTPQH.psia             00 000 000 000:  GT HR Quartz Pressure
 GTTQ.degC              00 000 000 000:  GT Quartz Temperature
 GTTN.NONE              00 000 000 000:  GT Test Number
 GTET.sec               00 000 000 000:  GT Elapsed Test Time
 GTTVD.m                00 000 000 000:  GT True Vertical Depth
#Other Information
#
#WARRANTY: Halliburton will use its best efforts to furnish customers with 
#accurate information and interpretations that are part of, and incident to, the services 
#provided.  However, Halliburton cannot and does not warrant the accuracy 
#or correctness of such information and interpretations.  Under no circumstances should any 
#such information or interpretation be relied upon as the sole basis for any drilling, 
#completion, production, or financial decision or any procedure involving any risk to the 
#safety of any drilling venture, drilling rig or its crew or any other third party.  The 
#Customer has full responsibility for all drilling, completion and production operation.  
#Halliburton makes no representations or warranties, either expressed or 
#implied, including, but not limited to, the implied warranties of merchantability or fitness 
#for a particular purpose, with respect to the services rendered.  In no event will 
#Halliburton be liable for failure to obtain any particular results or for 
#any damages, including, but not limited to, indirect, special or consequential damages, 
#resulting from the use of any information or interpretation provided by Halliburton.
#
~A           TIME           GTDEPTH  GTPQH  GTTQ  GTTN  GTET   GTTVD  
# ...
   18:59:12.591.10-Nov-2020 4475.51 4017.18 79.89 5.00 345.10 2369.25
   18:59:12.791.10-Nov-2020 4475.51 4017.18 79.89 5.00 345.30 2369.25
   18:59:12.991.10-Nov-2020 4475.51 4017.17 79.89 5.00 345.50 2369.25
   18:59:13.191.10-Nov-2020 4475.51 4017.22 79.89 5.00 345.70 2369.25
   18:59:13.392.10-Nov-2020 4475.51 4017.20 79.88 5.00 345.90 2369.25
   18:59:13.592.10-Nov-2020 4475.51 4017.18 79.88 5.00 346.10 2369.25
   18:59:13.792.10-Nov-2020 4475.51 4017.18 79.88 5.00 346.30 2369.25
   18:59:13.992.10-Nov-2020 4475.51 4017.27 79.88 5.00 346.50 2369.25
   18:59:14.192.10-Nov-2020 4475.51 4017.21 79.88 5.00 346.70 2369.25
   18:59:14.392.10-Nov-2020 4475.51 4017.13 79.88 5.00 346.90 2369.25
   18:59:14.592.10-Nov-2020 4475.51 4017.28 79.88 5.00 347.10 2369.25
   18:59:14.792.10-Nov-2020 4475.51 4017.28 79.88 5.00 347.30 2369.25
   18:59:14.992.10-Nov-2020 4475.51 4017.16 79.88 5.00 347.50 2369.25
   18:59:15.192.10-Nov-2020 4475.51 4017.22 79.88 5.00 347.70 2369.25
   18:59:15.392.10-Nov-2020 4475.51 4017.26 79.88 5.00 347.90 2369.25
   18:59:15.592.10-Nov-2020 4475.51 4017.25 79.88 5.00 348.10 2369.25
   18:59:15.792.10-Nov-2020 4475.51 4017.25 79.88 5.00 348.30 2369.25
   18:59:15.992.10-Nov-2020 4475.51 4017.32 79.88 5.00 348.50 2369.25
   18:59:16.192.10-Nov-2020 4475.51 4017.24 79.88 5.00 348.70 2369.25
   18:59:16.392.10-Nov-2020 4475.51 4017.45 79.88 5.00 348.90 2369.25
   18:59:16.592.10-Nov-2020 4475.51 4017.32 79.88 5.00 349.10 2369.25
   18:59:16.792.10-Nov-2020 4475.51 4017.32 79.88 5.00 349.30 2369.25
   18:59:16.993.10-Nov-2020 4475.51 4017.15 79.88 5.00 349.50 2369.25
   18:59:17.193.10-Nov-2020 4475.51 4017.27 79.87 5.00 349.70 2369.25
   18:59:17.393.10-Nov-2020 4475.51 4017.24 79.87 5.00 349.90 2369.25
   18:59:17.593.10-Nov-2020 4475.51 4017.25 79.87 5.00 350.10 2369.25
   18:59:17.793.10-Nov-2020 4475.51 4017.25 79.87 5.00 350.30 2369.25
   18:59:17.993.10-Nov-2020 4475.51 4017.21 79.87 5.00 350.50 2369.25
   18:59:18.193.10-Nov-2020 4475.51 4017.20 79.87 5.00 350.70 2369.25
   18:59:18.393.10-Nov-2020 4475.51 4017.28 79.87 5.00 350.90 2369.25
   18:59:18.593.10-Nov-2020 4475.51 4017.32 79.87 5.00 351.10 2369.25
   18:59:18.793.10-Nov-2020 4475.51 4017.32 79.87 5.00 351.30 2369.25
   18:59:18.993.10-Nov-2020 4475.51 4017.36 79.87 5.00 351.50 2369.25
   18:59:19.193.10-Nov-2020 4475.51 4017.48 79.87 5.00 351.70 2369.25
   18:59:19.393.10-Nov-2020 4475.51 4017.29 79.87 5.00 351.90 2369.25
   18:59:19.593.10-Nov-2020 4475.51 4017.21 79.87 5.00 352.10 2369.25
   18:59:19.793.10-Nov-2020 4475.51 4017.21 79.87 5.00 352.30 2369.25
   18:59:19.993.10-Nov-2020 4475.51 4017.43 79.87 5.00 352.50 2369.25
   18:59:20.193.10-Nov-2020 4475.51 4017.41 79.87 5.00 352.70 2369.25
   18:59:20.393.10-Nov-2020 4475.51 4017.45 79.87 5.00 352.90 2369.25
   18:59:20.594.10-Nov-2020 4475.51 4017.40 79.87 5.00 353.10 2369.25
   18:59:20.794.10-Nov-2020 4475.51 4017.40 79.87 5.00 353.30 2369.25
   18:59:20.994.10-Nov-2020 4475.51 4017.51 79.87 5.00 353.50 2369.25
   18:59:21.194.10-Nov-2020 4475.51 4017.51 79.86 5.00 353.70 2369.25
   18:59:21.394.10-Nov-2020 4475.51 4017.49 79.86 5.00 353.90 2369.25
   18:59:21.594.10-Nov-2020 4475.51 4017.52 79.86 5.00 354.10 2369.25
   18:59:21.794.10-Nov-2020 4475.51 4017.52 79.86 5.00 354.30 2369.25
   18:59:21.994.10-Nov-2020 4475.51 4017.46 79.86 5.00 354.50 2369.25
   18:59:22.194.10-Nov-2020 4475.51 4017.65 79.86 5.00 354.70 2369.25
   18:59:22.394.10-Nov-2020 4475.51 4017.51 79.86 5.00 354.90 2369.25
   18:59:22.594.10-Nov-2020 4475.51 4017.53 79.86 5.00 355.10 2369.25
   18:59:22.794.10-Nov-2020 4475.51 4017.53 79.86 5.00 355.30 2369.25
   18:59:22.994.10-Nov-2020 4475.51 4017.56 79.86 5.00 355.50 2369.25
   18:59:23.194.10-Nov-2020 4475.51 4017.51 79.86 5.00 355.70 2369.25
   18:59:23.394.10-Nov-2020 4475.51 4017.46 79.86 5.00 355.90 2369.25
   18:59:23.594.10-Nov-2020 4475.51 4017.52 79.86 5.00 356.10 2369.25
   18:59:23.794.10-Nov-2020 4475.51 4017.52 79.86 5.00 356.30 2369.25
   18:59:23.994.10-Nov-2020 4475.51 4017.54 79.86 5.00 356.50 2369.25
   18:59:24.195.10-Nov-2020 4475.51 4017.55 79.86 5.00 356.70 2369.25
   18:59:24.395.10-Nov-2020 4475.51 4017.61 79.86 5.00 356.90 2369.25
   18:59:24.595.10-Nov-2020 4475.51 4017.67 79.86 5.00 357.10 2369.25
   18:59:24.795.10-Nov-2020 4475.51 4017.67 79.86 5.00 357.30 2369.25
   18:59:24.995.10-Nov-2020 4475.51 4017.56 79.85 5.00 357.50 2369.25
   18:59:25.195.10-Nov-2020 4475.51 4017.70 79.85 5.00 357.70 2369.25
   18:59:25.395.10-Nov-2020 4475.51 4017.55 79.85 5.00 357.90 2369.25
   18:59:25.595.10-Nov-2020 4475.51 4017.49 79.85 5.00 358.10 2369.25
   18:59:25.795.10-Nov-2020 4475.51 4017.49 79.85 5.00 358.30 2369.25
   18:59:25.995.10-Nov-2020 4475.51 4017.62 79.85 5.00 358.50 2369.25
   18:59:26.195.10-Nov-2020 4475.51 4017.62 79.85 5.00 358.70 2369.25
   18:59:26.395.10-Nov-2020 4475.51 4017.48 79.85 5.00 358.90 2369.25
   18:59:26.595.10-Nov-2020 4475.51 4017.48 79.85 5.00 359.10 2369.25
   18:59:26.795.10-Nov-2020 4475.51 4017.48 79.85 5.00 359.30 2369.25
   18:59:26.995.10-Nov-2020 4475.51 4017.68 79.85 5.00 359.50 2369.25
   18:59:27.195.10-Nov-2020 4475.51 4017.70 79.85 5.00 359.70 2369.25
   18:59:27.395.10-Nov-2020 4475.51 4017.68 79.85 5.00 359.90 2369.25
   18:59:27.595.10-Nov-2020 4475.51 4017.58 79.85 5.00 360.10 2369.25
   18:59:27.796.10-Nov-2020 4475.51 4017.58 79.85 5.00 360.30 2369.25
   18:59:27.996.10-Nov-2020 4475.51 4017.73 79.85 5.00 360.50 2369.25
   18:59:28.196.10-Nov-2020 4475.51 4017.71 79.85 5.00 360.70 2369.25
   18:59:28.396.10-Nov-2020 4475.51 4017.64 79.85 5.00 360.90 2369.25
   18:59:28.596.10-Nov-2020 4475.51 4017.82 79.85 5.00 361.10 2369.25
   18:59:28.796.10-Nov-2020 4475.51 4017.82 79.85 5.00 361.30 2369.25
   18:59:28.996.10-Nov-2020 4475.51 4017.68 79.84 5.00 361.50 2369.25
   18:59:29.196.10-Nov-2020 4475.51 4017.76 79.84 5.00 361.70 2369.25
   18:59:29.396.10-Nov-2020 4475.51 4017.82 79.84 5.00 361.90 2369.25
   18:59:29.596.10-Nov-2020 4475.51 4017.78 79.84 5.00 362.10 2369.25
   18:59:29.796.10-Nov-2020 4475.51 4017.78 79.84 5.00 362.30 2369.25
   18:59:29.996.10-Nov-2020 4475.51 4017.82 79.84 5.00 362.50 2369.25
   18:59:30.196.10-Nov-2020 4475.51 4017.82 79.84 5.00 362.70 2369.25
   18:59:30.396.10-Nov-2020 4475.51 4017.80 79.84 5.00 362.90 2369.25
   18:59:30.596.10-Nov-2020 4475.51 4017.64 79.84 5.00 363.10 2369.25
   18:59:30.796.10-Nov-2020 4475.51 4017.64 79.84 5.00 363.30 2369.25
   18:59:30.996.10-Nov-2020 4475.51 4008.13 79.84 5.00 363.50 2369.25
   18:59:31.196.10-Nov-2020 4475.51 3959.82 79.84 5.00 363.70 2369.25
   18:59:31.397.10-Nov-2020 4475.51 3835.17 79.84 5.00 363.90 2369.25
   18:59:31.597.10-Nov-2020 4475.51 3716.99 79.84 5.00 364.10 2369.25
   18:59:31.797.10-Nov-2020 4475.51 3716.99 79.84 5.00 364.30 2369.25
   18:59:31.997.10-Nov-2020 4475.51 3738.60 79.84 5.00 364.50 2369.25
   18:59:32.197.10-Nov-2020 4475.51 3791.04 79.84 5.00 364.70 2369.25
   18:59:32.397.10-Nov-2020 4475.51 3864.12 79.84 5.00 364.90 2369.25
   18:59:32.597.10-Nov-2020 4475.51 3933.04 79.83 5.00 365.10 2369.25
   18:59:32.797.10-Nov-2020 4475.51 3933.04 79.83 5.00 365.30 2369.25
   18:59:32.997.10-Nov-2020 4475.51 4363.80 79.83 5.00 365.50 2369.25
   18:59:33.197.10-Nov-2020 4475.51 5004.05 79.83 5.00 365.70 2369.25
   18:59:33.397.10-Nov-2020 4475.51 4998.66 79.83 5.00 365.90 2369.25
   18:59:33.597.10-Nov-2020 4475.51 4999.81 79.83 5.00 366.10 2369.25
   18:59:33.797.10-Nov-2020 4475.51 4999.81 79.83 5.00 366.30 2369.25
   18:59:33.997.10-Nov-2020 4475.51 4998.69 79.83 5.00 366.50 2369.25
   18:59:34.197.10-Nov-2020 4475.51 4996.51 79.83 5.00 366.70 2369.25
   18:59:34.397.10-Nov-2020 4475.51 4996.60 79.83 5.00 366.90 2369.25
   18:59:34.597.10-Nov-2020 4475.51 4999.12 79.83 5.00 367.10 2369.25
   18:59:34.797.10-Nov-2020 4475.51 4999.12 79.83 5.00 367.30 2369.25
   18:59:34.998.10-Nov-2020 4475.51 4997.89 79.83 5.00 367.50 2369.25
   18:59:35.198.10-Nov-2020 4475.51 4998.25 79.83 5.00 367.70 2369.25
   18:59:35.398.10-Nov-2020 4475.51 5003.79 79.83 5.00 367.90 2369.25
