~Version Information
 VERS.                  2.0:   CWLS log ASCII Standard -VERSION 2.0
 WRAP.                   NO:   One line per depth step
~Well Information Block
#MNEM.UNIT     VALUE/NAME     DESCRIPTION
#---------     -----------    ---------------------------
 STRT.S             21:54:12 08-Nov-20: START TIME 21:54:12 08-Nov-20
 STOP.S             22:00:43 08-Nov-20: STOP TIME  22:00:43 08-Nov-20
 STEP.S                   0.00: STEP TIME
 NULL.                 -999.25: NULL VALUE
 DFWT.                        :  DIST FWL TEXT
 DFST.                        :  DIST FSL TEXT
 DMF .             Drill Floor:  DRILL MEAS FROM
 STIM.      04.54.24 22-Sep-20:  START TIME
 DATE.      04.54.24 21-Nov-20:  END TIME
 SPUD.               21-Nov-20:  SPUD DATE
 NREF.                    Grid:  NORTH REFERENCE
 HPTY.       Minimum Curvature:  HOLE POS TYPE
 DMOD.             Drill Model:  DRILL MOD DESC
 SVYD.                  Survey:  SURVEY DESC
 ILTD.               Lithology:  INTERP LTH DESC
 FTOP.          Formation Tops:  FORM TOPS DESC
 SON .        AZ-XX-0906571587:  JOB NUMBER
 COMP.     BP Exploration (Caspian Sea) Ltd:  COMPANY
 UWI .                     N/A:  UNIQUE WELL IDENTIFIER
 API .                     N/A:  API NUMBER
 BASE.              Azerbaijan:  LOGGING EQUIPMENT BASE LOCATION
 REGN.                   EESSA:  REGION
 PROV.                    Baku:  PROVINCE
 STAT.                    Baku:  STATE NAME
 CTRY.              Azerbaijan:  COUNTRY NAME
 FLD .                     ACG:  FIELD NAME
 SRVC.     TURAN Drilling & Engineering:  CONTRACTOR
 WELL.                     J27:  WELL NAME
 RIG .             West Chirag:  RIG NAME
 DOE .                     N/A:  DOE NUMBER
 DCON.         Sperry Drilling:  DIRECTNL CONTR
 PDAT.          Mean Sea Level:  PERMANENT DATUM
 WTYP.                Deviated:  WELL TYPE
 MWDS.                    Baku:  MWD SHOP
 JOBN.        AZ-XX-0906571587:  JOB TICKET NUMB
 UNIT.                     N/A:  LOGGING EQUIPMENT ID
 MDS .        Operator Entered:  MAG DATA SOURCE
 CNTY.                        :  COUNTY
 LOC .                        :  LOCATION
 LMF .             Drill Floor:  LOG MEASURED FROM
 TVDS.m                  43.00:  TVDSS CORRECTN
 LATI.deg                40.13:  LATITUDE
 LONG.deg                51.22:  LONGITUDE
 WHNS.m                   7.72:  WELL HEAD N/S
 WHEW.m                 -14.24:  WELL HEAD E/W
 UTMX.m              519005.06:  UTM X
 UTMY.m             4443793.85:  UTM Y
 DFWL.m                   0.00:  DISTANCE FWL
 DFSL.m                   0.00:  DISTANCE FSL
 SDEP.m                 347.00:  START DEPTH
 TDD .m                 581.00:  TOTAL DEPTH (DRILLER)
 VSDR.deg               159.72:  VERT SEC DIRECT
 GVFD.g                   1.00:  GRAVITY FIELD
 MFLD.nT              50313.00:  MAGNETIC FIELD
 MDIP.deg                59.58:  MAGNETIC DIP
 MDEC.deg                 6.45:  MAGNETIC DECL
 GRDC.deg                 0.15:  GRID CORRECTION
 AZTC.deg                 6.30:  AZM TOTAL CORR
 EPD .m                   0.00:  ELEVATION
 EGL .m                   0.00:  GROUND ELEVATION
 WDMS.m                 169.80:  WD ELEV
 APD .m                  43.00:  DEPTH ABOVE PD
 AGAP.m                  43.00:  AIR GAP
 VSEW.m                 -14.24:  VERT SEC E/W
 VSNS.m                   7.72:  VERT SEC N/S
 DEP .m                 342.45:  DEPTH
 EKB .m                   0.00:  KB ELEVATION
 EDF .m                  43.00:  DF ELEVATION
 TDL .m                1313.00:  TOTAL DEPTH (LOGGER)
 VSC .                       0:  VS TO CLOSURE
 MAGU.                 1851396:  MAGUTM CHECKSUM
~Parameter Information Block
#MNEM.UNIT       Value        Description
#---------     -----------    ---------------------------
 AV  .mps                 0.65:  Ann Velocity 
 AVMX.mps                 0.75:  Max Ann Veloc 
 AZIF.deg               115.08:  Azm, Final 
 BHAT.        Rotary Steerable:  BHA Type 
 BROT.∞/30m               1.50:  Build Rotating 
 BS  .in                 12.25:  Bit Size 
 BSZ .in                 12.25:  Bit Size 
 BTPL.psig              700.00:  Bit Press Loss 
 CABU.                     Yes:  Customer Abuse 
 COMM.                     „J:  Run Comments 1 
 TCS .hr                121.00:  Time Ciculation Ended 
 CV  .mps                 1.83:  Crit Velocity 
 CVMX.mps                 1.83:  Max Crit Veloc 
 DD1 .          Rashad Habibov:  Direct Drillr 1 
 DD2 .         Rasim Ibrahimov:  Direct Drillr 2 
 DDSV.                 iCruise:  DD Service 
 DEFF.%                 100.00:  % Det Eff 
 DLRX.∞/30m               3.60:  Dogleg Rot Max 
 DLSO.∞/30m               3.10:  Dogleg Oriented 
 DLSX.∞/30m               3.60:  Dogleg Str Max 
 DRET.      13.41.20 12-Nov-20:  Drill End Time 
 DRST.      13.41.20 07-Nov-20:  Drill Start Tim 
 DTIM.hr                 54.16:  Time Drilling 
 EDEP.m                4762.01:  End Depth 
 ENG1.           Amrah Tahirov:  Engineer 1 
 ENG2.      Bakhtiyar Jabbarli:  Engineer 2 
 ENG3.          Ruslan Safarov:  Engineer 3 
 ETIM.      13.41.20 14-Nov-20:  End Time 
 FLOI.gpm              1200.00:  Flow In 
 FLON.gpm              1100.00:  Flow In Min 
 FLOS.cptm                0.00:  Fluid Loss 
 FLOX.gpm              1200.00:  Flow In Max 
 HFLO.                      No:  High Flow 
 HPRE.                      No:  High Pressure 
 HTEM.                      No:  High Temp 
 HYDO.m                   2.00:  Hydro Offset 
 IFIN.deg                66.14:  Inc, Final 
 IMAX.deg                69.03:  Inc Max 
 IMIN.deg                64.64:  Inc Min 
 IMND.m                4450.16:  Inc Min Depth 
 IMXD.m                3996.00:  Inc Max Depth 
 JARR.                     Yes:  Jarring 
 LETM.      13.41.20 14-Nov-20:  Log End Time 
 LOST.hr                     0:  Lost Rig Time 
 LSTM.      13.41.20 06-Nov-20:  Log Start Time 
 MDCL.ppm             42500.00:  Mud Chlorides 
 MDES.     Inversion Oil/Synthetic:  Mud Desc 
 DFD .sg                  1.45:  Mud Density 
 MDMN.sg                  1.45:  Dens Mud Min 
 MDMX.sg                  1.45:  Dens Mud Max 
 MOIL.                      70:  Run Mud Oil % 
 MOWR.                   70:30:  Run Mud OWR 
 MSND.                       0:  Run Mud Sand % 
 MSOL.                    19.3:  Run Mud Solids% 
 DFV .spqt               77.00:  Mud Viscosity 
 MWOD.in                  8.00:  MWD Tool OD 
 MWSI.                      No:  Serv Intrp, MWD 
 OTIM.hr                201.88:  Time Operating 
 PCON.           Look Like New:  Pad Condition 
 PMAX.psia             9250.94:  Press Op, Max 
 PV  .cP                 29.00:  Mud PV 
 RUN .                     800:  Run Number 
 ROPA.m/hr               28.00:  ROP Avg 
 ROPN.m/hr               25.00:  ROP Min 
 ROPX.m/hr               30.00:  ROP Max 
 RPMA.rpm               160.00:  RPM Surface Avg 
 RPMN.rpm               160.00:  RPM Surface Min 
 RPMX.rpm               160.00:  RPM Surface Max 
 RRUN.                    0800:  Rig Run Number 
 RTIM.hr                 12.00:  Time Reaming 
 SAZI.deg               169.33:  Azm, Start 
 SDEP.m                3449.01:  Start Depth 
 SIDD.                      No:  Serv Intrp, DD 
 SINC.deg                68.01:  Inc, Start 
 SPPA.psig             4900.00:  SPP Avg 
 SPPN.psig             4800.00:  SPP Min 
 SPPX.psig             5050.00:  SPP Max 
 STIM.      13.41.20 06-Nov-20:  Start Time 
 SVCS.                 DD, MWD:  Services 
 SVER.                    9.20:  Sperry Version 
 TDAT.m                4762.01:  Tot Depth Attmp 
 TDDF.                      No:  Trip for DD 
 TDLG.m                1313.00:  Tot Depth Loggd 
 TFF .                      No:  Trip for Fail 
 TQAA.f-kp               13.00:  Torque Abs Avg 
 TQAN.f-kp               13.00:  Torque Abs Min 
 TQAX.f-kp               13.00:  Torque Abs Max 
 TRRT.∞/30m               1.70:  Turn Rotating 
 MRT .                  EWR-M5:  Maximum Recorded Temperature 
 TTMX.degC               86.00:  Max Tool Temp 
 VS01.                90622122:  Virtual Str1 SN 
 VS02.                90577298:  Virtual Str2 SN 
 VS03.                90563623:  Virtual Str3 SN 
 VS04.                90617559:  Virtual Str4 SN 
 VS05.                11339492:  Virtual Str5 SN 
 VS06.                12385033:  Virtual Str6 SN 
 WBMN.klb                 0.00:  WOB Min 
 WOBA.klb                22.00:  WOB Avg 
 WOBX.klb                26.00:  WOB Max 
 YP  .lhf2               30.00:  Yield Point 
~Curve Information Block
#MNEM.UNIT                 API CODE     Curve Description
#---------               -----------    ---------------------------
 TIME.HHMMSS            00 000 000 000:  GT Time & Date
 GTDEPTH.m              00 000 000 000:  GT Depth
 GTPQH.psia             00 000 000 000:  GT HR Quartz Pressure
 GTTQ.degC              00 000 000 000:  GT Quartz Temperature
 GTTN.NONE              00 000 000 000:  GT Test Number
 GTET.sec               00 000 000 000:  GT Elapsed Test Time
 GTTVD.m                00 000 000 000:  GT True Vertical Depth
#Other Information
#
#WARRANTY: Halliburton will use its best efforts to furnish customers with 
#accurate information and interpretations that are part of, and incident to, the services 
#provided.  However, Halliburton cannot and does not warrant the accuracy 
#or correctness of such information and interpretations.  Under no circumstances should any 
#such information or interpretation be relied upon as the sole basis for any drilling, 
#completion, production, or financial decision or any procedure involving any risk to the 
#safety of any drilling venture, drilling rig or its crew or any other third party.  The 
#Customer has full responsibility for all drilling, completion and production operation.  
#Halliburton makes no representations or warranties, either expressed or 
#implied, including, but not limited to, the implied warranties of merchantability or fitness 
#for a particular purpose, with respect to the services rendered.  In no event will 
#Halliburton be liable for failure to obtain any particular results or for 
#any damages, including, but not limited to, indirect, special or consequential damages, 
#resulting from the use of any information or interpretation provided by Halliburton.
#
~A           TIME           GTDEPTH  GTPQH  GTTQ  GTTN  GTET   GTTVD  
# ...
   21:59:34.724.08-Nov-2020 3686.01 3544.09 71.24 4.00 322.07 2071.13
   21:59:34.924.08-Nov-2020 3686.01 3544.09 71.24 4.00 322.27 2071.13
   21:59:35.124.08-Nov-2020 3686.01 3544.09 71.23 4.00 322.47 2071.13
   21:59:35.325.08-Nov-2020 3686.01 3544.10 71.23 4.00 322.67 2071.13
   21:59:35.525.08-Nov-2020 3686.01 3544.18 71.23 4.00 322.87 2071.13
   21:59:35.725.08-Nov-2020 3686.01 3544.18 71.23 4.00 323.07 2071.13
   21:59:35.925.08-Nov-2020 3686.01 3544.14 71.23 4.00 323.27 2071.13
   21:59:36.125.08-Nov-2020 3686.01 3544.14 71.23 4.00 323.47 2071.13
   21:59:36.325.08-Nov-2020 3686.01 3544.13 71.23 4.00 323.67 2071.13
   21:59:36.525.08-Nov-2020 3686.01 3544.10 71.23 4.00 323.87 2071.13
   21:59:36.725.08-Nov-2020 3686.01 3544.11 71.23 4.00 324.07 2071.13
   21:59:36.925.08-Nov-2020 3686.01 3544.11 71.23 4.00 324.27 2071.13
   21:59:37.125.08-Nov-2020 3686.01 3544.08 71.22 4.00 324.47 2071.13
   21:59:37.325.08-Nov-2020 3686.01 3544.10 71.22 4.00 324.67 2071.13
   21:59:37.525.08-Nov-2020 3686.01 3544.08 71.22 4.00 324.87 2071.13
   21:59:37.725.08-Nov-2020 3686.01 3544.09 71.22 4.00 325.07 2071.13
   21:59:37.925.08-Nov-2020 3686.01 3544.09 71.22 4.00 325.27 2071.13
   21:59:38.125.08-Nov-2020 3686.01 3544.16 71.22 4.00 325.47 2071.13
   21:59:38.325.08-Nov-2020 3686.01 3544.10 71.22 4.00 325.67 2071.13
   21:59:38.525.08-Nov-2020 3686.01 3544.23 71.22 4.00 325.87 2071.13
   21:59:38.725.08-Nov-2020 3686.01 3544.18 71.22 4.00 326.07 2071.13
   21:59:38.925.08-Nov-2020 3686.01 3544.18 71.22 4.00 326.27 2071.13
   21:59:39.125.08-Nov-2020 3686.01 3544.16 71.21 4.00 326.47 2071.13
   21:59:39.325.08-Nov-2020 3686.01 3544.13 71.21 4.00 326.67 2071.13
   21:59:39.525.08-Nov-2020 3686.01 3544.18 71.21 4.00 326.87 2071.13
   21:59:39.726.08-Nov-2020 3686.01 3544.19 71.21 4.00 327.07 2071.13
   21:59:39.926.08-Nov-2020 3686.01 3544.19 71.21 4.00 327.27 2071.13
   21:59:40.126.08-Nov-2020 3686.01 3544.15 71.21 4.00 327.47 2071.13
   21:59:40.326.08-Nov-2020 3686.01 3544.14 71.21 4.00 327.67 2071.13
   21:59:40.526.08-Nov-2020 3686.01 3544.18 71.21 4.00 327.87 2071.13
   21:59:40.726.08-Nov-2020 3686.01 3544.18 71.21 4.00 328.07 2071.13
   21:59:40.926.08-Nov-2020 3686.01 3544.18 71.21 4.00 328.27 2071.13
   21:59:41.126.08-Nov-2020 3686.01 3544.17 71.21 4.00 328.47 2071.13
   21:59:41.326.08-Nov-2020 3686.01 3544.10 71.20 4.00 328.67 2071.13
   21:59:41.526.08-Nov-2020 3686.01 3544.23 71.20 4.00 328.87 2071.13
   21:59:41.726.08-Nov-2020 3686.01 3544.19 71.20 4.00 329.07 2071.13
   21:59:41.926.08-Nov-2020 3686.01 3544.19 71.20 4.00 329.27 2071.13
   21:59:42.126.08-Nov-2020 3686.01 3544.17 71.20 4.00 329.47 2071.13
   21:59:42.326.08-Nov-2020 3686.01 3544.16 71.20 4.00 329.67 2071.13
   21:59:42.526.08-Nov-2020 3686.01 3544.14 71.20 4.00 329.87 2071.13
   21:59:42.726.08-Nov-2020 3686.01 3544.14 71.20 4.00 330.07 2071.13
   21:59:42.926.08-Nov-2020 3686.01 3544.14 71.20 4.00 330.27 2071.13
   21:59:43.126.08-Nov-2020 3686.01 3544.12 71.20 4.00 330.47 2071.13
   21:59:43.326.08-Nov-2020 3686.01 3544.12 71.20 4.00 330.67 2071.13
   21:59:43.526.08-Nov-2020 3686.01 3544.10 71.19 4.00 330.87 2071.13
   21:59:43.726.08-Nov-2020 3686.01 3544.10 71.19 4.00 331.07 2071.13
   21:59:43.926.08-Nov-2020 3686.01 3544.10 71.19 4.00 331.27 2071.13
   21:59:44.126.08-Nov-2020 3686.01 3544.09 71.19 4.00 331.47 2071.13
   21:59:44.327.08-Nov-2020 3686.01 3544.12 71.19 4.00 331.67 2071.13
   21:59:44.527.08-Nov-2020 3686.01 3544.19 71.19 4.00 331.87 2071.13
   21:59:44.727.08-Nov-2020 3686.01 3544.16 71.19 4.00 332.07 2071.13
   21:59:44.927.08-Nov-2020 3686.01 3544.16 71.19 4.00 332.27 2071.13
   21:59:45.127.08-Nov-2020 3686.01 3544.16 71.19 4.00 332.47 2071.13
   21:59:45.327.08-Nov-2020 3686.01 3544.11 71.19 4.00 332.67 2071.13
   21:59:45.527.08-Nov-2020 3686.01 3544.12 71.18 4.00 332.87 2071.13
   21:59:45.727.08-Nov-2020 3686.01 3544.11 71.18 4.00 333.07 2071.13
   21:59:45.927.08-Nov-2020 3686.01 3544.11 71.18 4.00 333.27 2071.13
   21:59:46.127.08-Nov-2020 3686.01 3544.09 71.18 4.00 333.47 2071.13
   21:59:46.327.08-Nov-2020 3686.01 3544.08 71.18 4.00 333.67 2071.13
   21:59:46.527.08-Nov-2020 3686.01 3544.08 71.18 4.00 333.87 2071.13
   21:59:46.727.08-Nov-2020 3686.01 3544.03 71.18 4.00 334.07 2071.13
   21:59:46.927.08-Nov-2020 3686.01 3544.03 71.18 4.00 334.27 2071.13
   21:59:47.127.08-Nov-2020 3686.01 3544.14 71.18 4.00 334.47 2071.13
   21:59:47.327.08-Nov-2020 3686.01 3544.09 71.18 4.00 334.67 2071.13
   21:59:47.527.08-Nov-2020 3686.01 3544.25 71.18 4.00 334.87 2071.13
   21:59:47.727.08-Nov-2020 3686.01 3544.17 71.17 4.00 335.07 2071.13
   21:59:47.927.08-Nov-2020 3686.01 3544.17 71.17 4.00 335.27 2071.13
   21:59:48.127.08-Nov-2020 3686.01 3544.17 71.17 4.00 335.47 2071.13
   21:59:48.327.08-Nov-2020 3686.01 3544.13 71.17 4.00 335.67 2071.13
   21:59:48.527.08-Nov-2020 3686.01 3544.19 71.17 4.00 335.87 2071.13
   21:59:48.727.08-Nov-2020 3686.01 3544.18 71.17 4.00 336.07 2071.13
   21:59:48.928.08-Nov-2020 3686.01 3544.18 71.17 4.00 336.27 2071.13
   21:59:49.128.08-Nov-2020 3686.01 3544.16 71.17 4.00 336.47 2071.13
   21:59:49.328.08-Nov-2020 3686.01 3544.14 71.17 4.00 336.67 2071.13
   21:59:49.528.08-Nov-2020 3686.01 3544.19 71.17 4.00 336.87 2071.13
   21:59:49.728.08-Nov-2020 3686.01 3544.18 71.16 4.00 337.07 2071.13
   21:59:49.928.08-Nov-2020 3686.01 3544.18 71.16 4.00 337.27 2071.13
   21:59:50.128.08-Nov-2020 3686.01 3544.17 71.16 4.00 337.47 2071.13
   21:59:50.328.08-Nov-2020 3686.01 3544.09 71.16 4.00 337.67 2071.13
   21:59:50.528.08-Nov-2020 3686.01 3544.23 71.16 4.00 337.87 2071.13
   21:59:50.728.08-Nov-2020 3686.01 3544.18 71.16 4.00 338.07 2071.13
   21:59:50.928.08-Nov-2020 3686.01 3544.18 71.16 4.00 338.27 2071.13
   21:59:51.128.08-Nov-2020 3686.01 3544.17 71.16 4.00 338.48 2071.13
   21:59:51.328.08-Nov-2020 3686.01 3544.15 71.16 4.00 338.68 2071.13
   21:59:51.528.08-Nov-2020 3686.01 3544.16 71.16 4.00 338.88 2071.13
   21:59:51.728.08-Nov-2020 3686.01 3544.13 71.16 4.00 339.08 2071.13
   21:59:51.928.08-Nov-2020 3686.01 3544.13 71.16 4.00 339.28 2071.13
   21:59:52.128.08-Nov-2020 3686.01 3544.12 71.15 4.00 339.48 2071.13
   21:59:52.328.08-Nov-2020 3686.01 3544.12 71.15 4.00 339.68 2071.13
   21:59:52.528.08-Nov-2020 3686.01 3544.11 71.15 4.00 339.88 2071.13
   21:59:52.728.08-Nov-2020 3686.01 3544.10 71.15 4.00 340.08 2071.13
   21:59:52.928.08-Nov-2020 3686.01 3544.09 71.15 4.00 340.28 2071.13
   21:59:53.128.08-Nov-2020 3686.01 3544.04 71.15 4.00 340.48 2071.13
   21:59:53.329.08-Nov-2020 3686.01 3544.19 71.15 4.00 340.68 2071.13
   21:59:53.529.08-Nov-2020 3686.01 3544.17 71.15 4.00 340.88 2071.13
   21:59:53.729.08-Nov-2020 3686.01 3544.16 71.15 4.00 341.08 2071.13
   21:59:53.929.08-Nov-2020 3686.01 3544.16 71.15 4.00 341.28 2071.13
   21:59:54.129.08-Nov-2020 3686.01 3544.14 71.14 4.00 341.48 2071.13
   21:59:54.329.08-Nov-2020 3686.01 3544.12 71.14 4.00 341.68 2071.13
   21:59:54.529.08-Nov-2020 3686.01 3544.12 71.14 4.00 341.88 2071.13
   21:59:54.729.08-Nov-2020 3686.01 3544.12 71.14 4.00 342.08 2071.13
   21:59:54.929.08-Nov-2020 3686.01 3544.12 71.14 4.00 342.28 2071.13
   21:59:55.129.08-Nov-2020 3686.01 3544.09 71.14 4.00 342.48 2071.13
   21:59:55.329.08-Nov-2020 3686.01 3544.10 71.14 4.00 342.68 2071.13
   21:59:55.529.08-Nov-2020 3686.01 3544.09 71.14 4.00 342.88 2071.13
   21:59:55.729.08-Nov-2020 3686.01 3544.02 71.14 4.00 343.08 2071.13
   21:59:55.929.08-Nov-2020 3686.01 3544.02 71.14 4.00 343.28 2071.13
   21:59:56.129.08-Nov-2020 3686.01 3544.15 71.13 4.00 343.48 2071.13
   21:59:56.329.08-Nov-2020 3686.01 3544.20 71.13 4.00 343.68 2071.13
   21:59:56.529.08-Nov-2020 3686.01 3544.22 71.13 4.00 343.88 2071.13
   21:59:56.729.08-Nov-2020 3686.01 3544.17 71.13 4.00 344.08 2071.13
   21:59:56.929.08-Nov-2020 3686.01 3544.17 71.13 4.00 344.28 2071.13
   21:59:57.129.08-Nov-2020 3686.01 3544.19 71.13 4.00 344.48 2071.13
   21:59:57.329.08-Nov-2020 3686.01 3544.15 71.13 4.00 344.68 2071.13
   21:59:57.529.08-Nov-2020 3686.01 3544.20 71.13 4.00 344.88 2071.13
