~Version Information
 VERS.                  2.0:   CWLS log ASCII Standard -VERSION 2.0
 WRAP.                   NO:   One line per depth step
~Well Information Block
#MNEM.UNIT     VALUE/NAME     DESCRIPTION
#---------     -----------    ---------------------------
 STRT.S             06:45:19 11-Nov-20: START TIME 06:45:19 11-Nov-20
 STOP.S             06:51:53 11-Nov-20: STOP TIME  06:51:53 11-Nov-20
 STEP.S                   0.00: STEP TIME
 NULL.                 -999.25: NULL VALUE
 DFWT.                        :  DIST FWL TEXT
 DFST.                        :  DIST FSL TEXT
 DMF .             Drill Floor:  DRILL MEAS FROM
 STIM.      04.54.24 22-Sep-20:  START TIME
 DATE.      04.54.24 21-Nov-20:  END TIME
 SPUD.               21-Nov-20:  SPUD DATE
 NREF.                    Grid:  NORTH REFERENCE
 HPTY.       Minimum Curvature:  HOLE POS TYPE
 DMOD.             Drill Model:  DRILL MOD DESC
 SVYD.                  Survey:  SURVEY DESC
 ILTD.               Lithology:  INTERP LTH DESC
 FTOP.          Formation Tops:  FORM TOPS DESC
 SON .        AZ-XX-0906571587:  JOB NUMBER
 COMP.     BP Exploration (Caspian Sea) Ltd:  COMPANY
 UWI .                     N/A:  UNIQUE WELL IDENTIFIER
 API .                     N/A:  API NUMBER
 BASE.              Azerbaijan:  LOGGING EQUIPMENT BASE LOCATION
 REGN.                   EESSA:  REGION
 PROV.                    Baku:  PROVINCE
 STAT.                    Baku:  STATE NAME
 CTRY.              Azerbaijan:  COUNTRY NAME
 FLD .                     ACG:  FIELD NAME
 SRVC.     TURAN Drilling & Engineering:  CONTRACTOR
 WELL.                     J27:  WELL NAME
 RIG .             West Chirag:  RIG NAME
 DOE .                     N/A:  DOE NUMBER
 DCON.         Sperry Drilling:  DIRECTNL CONTR
 PDAT.          Mean Sea Level:  PERMANENT DATUM
 WTYP.                Deviated:  WELL TYPE
 MWDS.                    Baku:  MWD SHOP
 JOBN.        AZ-XX-0906571587:  JOB TICKET NUMB
 UNIT.                     N/A:  LOGGING EQUIPMENT ID
 MDS .        Operator Entered:  MAG DATA SOURCE
 CNTY.                        :  COUNTY
 LOC .                        :  LOCATION
 LMF .             Drill Floor:  LOG MEASURED FROM
 TVDS.m                  43.00:  TVDSS CORRECTN
 LATI.deg                40.13:  LATITUDE
 LONG.deg                51.22:  LONGITUDE
 WHNS.m                   7.72:  WELL HEAD N/S
 WHEW.m                 -14.24:  WELL HEAD E/W
 UTMX.m              519005.06:  UTM X
 UTMY.m             4443793.85:  UTM Y
 DFWL.m                   0.00:  DISTANCE FWL
 DFSL.m                   0.00:  DISTANCE FSL
 SDEP.m                 347.00:  START DEPTH
 TDD .m                 581.00:  TOTAL DEPTH (DRILLER)
 VSDR.deg               159.72:  VERT SEC DIRECT
 GVFD.g                   1.00:  GRAVITY FIELD
 MFLD.nT              50313.00:  MAGNETIC FIELD
 MDIP.deg                59.58:  MAGNETIC DIP
 MDEC.deg                 6.45:  MAGNETIC DECL
 GRDC.deg                 0.15:  GRID CORRECTION
 AZTC.deg                 6.30:  AZM TOTAL CORR
 EPD .m                   0.00:  ELEVATION
 EGL .m                   0.00:  GROUND ELEVATION
 WDMS.m                 169.80:  WD ELEV
 APD .m                  43.00:  DEPTH ABOVE PD
 AGAP.m                  43.00:  AIR GAP
 VSEW.m                 -14.24:  VERT SEC E/W
 VSNS.m                   7.72:  VERT SEC N/S
 DEP .m                 342.45:  DEPTH
 EKB .m                   0.00:  KB ELEVATION
 EDF .m                  43.00:  DF ELEVATION
 TDL .m                1313.00:  TOTAL DEPTH (LOGGER)
 VSC .                       0:  VS TO CLOSURE
 MAGU.                 1851396:  MAGUTM CHECKSUM
~Parameter Information Block
#MNEM.UNIT       Value        Description
#---------     -----------    ---------------------------
 AV  .mps                 0.65:  Ann Velocity 
 AVMX.mps                 0.75:  Max Ann Veloc 
 AZIF.deg               115.08:  Azm, Final 
 BHAT.        Rotary Steerable:  BHA Type 
 BROT.°/30m               1.50:  Build Rotating 
 BS  .in                 12.25:  Bit Size 
 BSZ .in                 12.25:  Bit Size 
 BTPL.psig              700.00:  Bit Press Loss 
 CABU.                     Yes:  Customer Abuse 
 COMM.                     LNw:  Run Comments 1 
 TCS .hr                121.00:  Time Ciculation Ended 
 CV  .mps                 1.83:  Crit Velocity 
 CVMX.mps                 1.83:  Max Crit Veloc 
 DD1 .          Rashad Habibov:  Direct Drillr 1 
 DD2 .         Rasim Ibrahimov:  Direct Drillr 2 
 DDSV.                 iCruise:  DD Service 
 DEFF.%                 100.00:  % Det Eff 
 DLRX.°/30m               3.60:  Dogleg Rot Max 
 DLSO.°/30m               3.10:  Dogleg Oriented 
 DLSX.°/30m               3.60:  Dogleg Str Max 
 DRET.      13.41.20 12-Nov-20:  Drill End Time 
 DRST.      13.41.20 07-Nov-20:  Drill Start Tim 
 DTIM.hr                 54.16:  Time Drilling 
 EDEP.m                4762.01:  End Depth 
 ENG1.           Amrah Tahirov:  Engineer 1 
 ENG2.      Bakhtiyar Jabbarli:  Engineer 2 
 ENG3.          Ruslan Safarov:  Engineer 3 
 ETIM.      13.41.20 14-Nov-20:  End Time 
 FLOI.gpm              1200.00:  Flow In 
 FLON.gpm              1100.00:  Flow In Min 
 FLOS.cptm                0.00:  Fluid Loss 
 FLOX.gpm              1200.00:  Flow In Max 
 HFLO.                      No:  High Flow 
 HPRE.                      No:  High Pressure 
 HTEM.                      No:  High Temp 
 HYDO.m                   2.00:  Hydro Offset 
 IFIN.deg                66.14:  Inc, Final 
 IMAX.deg                69.03:  Inc Max 
 IMIN.deg                64.64:  Inc Min 
 IMND.m                4450.16:  Inc Min Depth 
 IMXD.m                3996.00:  Inc Max Depth 
 JARR.                     Yes:  Jarring 
 LETM.      13.41.20 14-Nov-20:  Log End Time 
 LOST.hr                     0:  Lost Rig Time 
 LSTM.      13.41.20 06-Nov-20:  Log Start Time 
 MDCL.ppm             42500.00:  Mud Chlorides 
 MDES.     Inversion Oil/Synthetic:  Mud Desc 
 DFD .sg                  1.45:  Mud Density 
 MDMN.sg                  1.45:  Dens Mud Min 
 MDMX.sg                  1.45:  Dens Mud Max 
 MOIL.                      70:  Run Mud Oil % 
 MOWR.                   70:30:  Run Mud OWR 
 MSND.                       0:  Run Mud Sand % 
 MSOL.                    19.3:  Run Mud Solids% 
 DFV .spqt               77.00:  Mud Viscosity 
 MWOD.in                  8.00:  MWD Tool OD 
 MWSI.                      No:  Serv Intrp, MWD 
 OTIM.hr                201.88:  Time Operating 
 PCON.           Look Like New:  Pad Condition 
 PMAX.psia             9250.94:  Press Op, Max 
 PV  .cP                 29.00:  Mud PV 
 RUN .                     800:  Run Number 
 ROPA.m/hr               28.00:  ROP Avg 
 ROPN.m/hr               25.00:  ROP Min 
 ROPX.m/hr               30.00:  ROP Max 
 RPMA.rpm               160.00:  RPM Surface Avg 
 RPMN.rpm               160.00:  RPM Surface Min 
 RPMX.rpm               160.00:  RPM Surface Max 
 RRUN.                    0800:  Rig Run Number 
 RTIM.hr                 12.00:  Time Reaming 
 SAZI.deg               169.33:  Azm, Start 
 SDEP.m                3449.01:  Start Depth 
 SIDD.                      No:  Serv Intrp, DD 
 SINC.deg                68.01:  Inc, Start 
 SPPA.psig             4900.00:  SPP Avg 
 SPPN.psig             4800.00:  SPP Min 
 SPPX.psig             5050.00:  SPP Max 
 STIM.      13.41.20 06-Nov-20:  Start Time 
 SVCS.                 DD, MWD:  Services 
 SVER.                    9.20:  Sperry Version 
 TDAT.m                4762.01:  Tot Depth Attmp 
 TDDF.                      No:  Trip for DD 
 TDLG.m                1313.00:  Tot Depth Loggd 
 TFF .                      No:  Trip for Fail 
 TQAA.f-kp               13.00:  Torque Abs Avg 
 TQAN.f-kp               13.00:  Torque Abs Min 
 TQAX.f-kp               13.00:  Torque Abs Max 
 TRRT.°/30m               1.70:  Turn Rotating 
 MRT .                  EWR-M5:  Maximum Recorded Temperature 
 TTMX.degC               86.00:  Max Tool Temp 
 VS01.                90622122:  Virtual Str1 SN 
 VS02.                90577298:  Virtual Str2 SN 
 VS03.                90563623:  Virtual Str3 SN 
 VS04.                90617559:  Virtual Str4 SN 
 VS05.                11339492:  Virtual Str5 SN 
 VS06.                12385033:  Virtual Str6 SN 
 WBMN.klb                 0.00:  WOB Min 
 WOBA.klb                22.00:  WOB Avg 
 WOBX.klb                26.00:  WOB Max 
 YP  .lhf2               30.00:  Yield Point 
~Curve Information Block
#MNEM.UNIT                 API CODE     Curve Description
#---------               -----------    ---------------------------
 TIME.HHMMSS            00 000 000 000:  GT Time & Date
 GTDEPTH.m              00 000 000 000:  GT Depth
 GTPQH.psia             00 000 000 000:  GT HR Quartz Pressure
 GTTQ.degC              00 000 000 000:  GT Quartz Temperature
 GTTN.NONE              00 000 000 000:  GT Test Number
 GTET.sec               00 000 000 000:  GT Elapsed Test Time
 GTTVD.m                00 000 000 000:  GT True Vertical Depth
#Other Information
#
#WARRANTY: Halliburton will use its best efforts to furnish customers with 
#accurate information and interpretations that are part of, and incident to, the services 
#provided.  However, Halliburton cannot and does not warrant the accuracy 
#or correctness of such information and interpretations.  Under no circumstances should any 
#such information or interpretation be relied upon as the sole basis for any drilling, 
#completion, production, or financial decision or any procedure involving any risk to the 
#safety of any drilling venture, drilling rig or its crew or any other third party.  The 
#Customer has full responsibility for all drilling, completion and production operation.  
#Halliburton makes no representations or warranties, either expressed or 
#implied, including, but not limited to, the implied warranties of merchantability or fitness 
#for a particular purpose, with respect to the services rendered.  In no event will 
#Halliburton be liable for failure to obtain any particular results or for 
#any damages, including, but not limited to, indirect, special or consequential damages, 
#resulting from the use of any information or interpretation provided by Halliburton.
#
~A           TIME           GTDEPTH  GTPQH  GTTQ  GTTN  GTET   GTTVD  
   06:45:19.390.11-Nov-2020 4617.01 5140.43 80.30 8.00   0.00 2426.59
   06:45:19.590.11-Nov-2020 4617.01 5141.09 80.30 8.00   0.20 2426.59
   06:45:19.790.11-Nov-2020 4617.01 5142.55 80.30 8.00   0.40 2426.59
   06:45:19.990.11-Nov-2020 4617.01 5142.57 80.30 8.00   0.60 2426.59
   06:45:20.190.11-Nov-2020 4617.01 5142.55 80.30 8.00   0.80 2426.59
   06:45:20.390.11-Nov-2020 4617.01 5143.40 80.30 8.00   1.00 2426.59
   06:45:20.590.11-Nov-2020 4617.01 5143.40 80.30 8.00   1.20 2426.59
   06:45:20.790.11-Nov-2020 4617.01 5142.12 80.30 8.00   1.40 2426.59
   06:45:20.990.11-Nov-2020 4617.01 5142.04 80.30 8.00   1.60 2426.59
   06:45:21.190.11-Nov-2020 4617.01 5139.41 80.30 8.00   1.80 2426.59
   06:45:21.390.11-Nov-2020 4617.01 5139.88 80.30 8.00   2.00 2426.59
   06:45:21.590.11-Nov-2020 4617.01 5139.88 80.30 8.00   2.20 2426.59
   06:45:21.790.11-Nov-2020 4617.01 5138.59 80.29 8.00   2.40 2426.59
   06:45:21.990.11-Nov-2020 4617.01 5140.13 80.29 8.00   2.60 2426.59
   06:45:22.190.11-Nov-2020 4617.01 5140.77 80.29 8.00   2.80 2426.59
   06:45:22.391.11-Nov-2020 4617.01 5140.91 80.29 8.00   3.00 2426.59
   06:45:22.591.11-Nov-2020 4617.01 5140.91 80.29 8.00   3.20 2426.59
   06:45:22.791.11-Nov-2020 4617.01 5143.96 80.29 8.00   3.40 2426.59
   06:45:22.991.11-Nov-2020 4617.01 5140.34 80.29 8.00   3.60 2426.59
   06:45:23.191.11-Nov-2020 4617.01 5140.36 80.29 8.00   3.80 2426.59
   06:45:23.391.11-Nov-2020 4617.01 5140.91 80.29 8.00   4.00 2426.59
   06:45:23.591.11-Nov-2020 4617.01 5141.10 80.29 8.00   4.20 2426.59
   06:45:23.791.11-Nov-2020 4617.01 5140.66 80.29 8.00   4.40 2426.59
   06:45:23.991.11-Nov-2020 4617.01 5140.41 80.29 8.00   4.60 2426.59
   06:45:24.191.11-Nov-2020 4617.01 5140.39 80.29 8.00   4.80 2426.59
   06:45:24.391.11-Nov-2020 4617.01 5139.88 80.29 8.00   5.00 2426.59
   06:45:24.591.11-Nov-2020 4617.01 5139.88 80.29 8.00   5.20 2426.59
   06:45:24.791.11-Nov-2020 4617.01 5140.08 80.28 8.00   5.40 2426.59
   06:45:24.991.11-Nov-2020 4617.01 5140.50 80.28 8.00   5.60 2426.59
   06:45:25.191.11-Nov-2020 4617.01 5140.76 80.28 8.00   5.80 2426.59
   06:45:25.391.11-Nov-2020 4617.01 5144.84 80.28 8.00   6.00 2426.59
   06:45:25.592.11-Nov-2020 4617.01 5144.84 80.28 8.00   6.20 2426.59
   06:45:25.792.11-Nov-2020 4617.01 5141.70 80.28 8.00   6.40 2426.59
   06:45:25.992.11-Nov-2020 4617.01 5146.96 80.28 8.00   6.60 2426.59
   06:45:26.192.11-Nov-2020 4617.01 5142.33 80.28 8.00   6.80 2426.59
   06:45:26.392.11-Nov-2020 4617.01 5143.29 80.28 8.00   7.00 2426.59
   06:45:26.592.11-Nov-2020 4617.01 5143.29 80.28 8.00   7.20 2426.59
   06:45:26.792.11-Nov-2020 4617.01 5144.49 80.28 8.00   7.40 2426.59
   06:45:26.992.11-Nov-2020 4617.01 5147.54 80.28 8.00   7.60 2426.59
   06:45:27.192.11-Nov-2020 4617.01 5143.15 80.27 8.00   7.80 2426.59
   06:45:27.392.11-Nov-2020 4617.01 5144.28 80.27 8.00   8.00 2426.59
   06:45:27.592.11-Nov-2020 4617.01 5148.98 80.27 8.00   8.20 2426.59
   06:45:27.792.11-Nov-2020 4617.01 5143.20 80.27 8.00   8.40 2426.59
   06:45:27.992.11-Nov-2020 4617.01 5142.83 80.27 8.00   8.60 2426.59
   06:45:28.192.11-Nov-2020 4617.01 5146.84 80.27 8.00   8.80 2426.59
   06:45:28.392.11-Nov-2020 4617.01 5143.32 80.27 8.00   9.00 2426.59
   06:45:28.592.11-Nov-2020 4617.01 5143.32 80.27 8.00   9.20 2426.59
   06:45:28.793.11-Nov-2020 4617.01 5143.31 80.27 8.00   9.40 2426.59
   06:45:28.993.11-Nov-2020 4617.01 5141.79 80.27 8.00   9.60 2426.59
   06:45:29.193.11-Nov-2020 4617.01 5138.74 80.27 8.00   9.80 2426.59
   06:45:29.393.11-Nov-2020 4617.01 5137.84 80.27 8.00  10.00 2426.59
   06:45:29.593.11-Nov-2020 4617.01 5137.84 80.27 8.00  10.20 2426.59
   06:45:29.793.11-Nov-2020 4617.01 5137.84 80.27 8.00  10.40 2426.59
   06:45:29.993.11-Nov-2020 4617.01 5135.01 80.26 8.00  10.60 2426.59
   06:45:30.193.11-Nov-2020 4617.01 5135.83 80.26 8.00  10.80 2426.59
   06:45:30.393.11-Nov-2020 4617.01 5138.61 80.26 8.00  11.00 2426.59
   06:45:30.593.11-Nov-2020 4617.01 5138.61 80.26 8.00  11.20 2426.59
   06:45:30.793.11-Nov-2020 4617.01 5136.29 80.26 8.00  11.40 2426.59
   06:45:30.993.11-Nov-2020 4617.01 5136.22 80.26 8.00  11.60 2426.59
   06:45:31.193.11-Nov-2020 4617.01 5140.88 80.26 8.00  11.80 2426.59
   06:45:31.393.11-Nov-2020 4617.01 5136.89 80.26 8.00  12.00 2426.59
   06:45:31.593.11-Nov-2020 4617.01 5137.00 80.26 8.00  12.20 2426.59
   06:45:31.793.11-Nov-2020 4617.01 5137.02 80.26 8.00  12.40 2426.59
   06:45:31.994.11-Nov-2020 4617.01 5136.72 80.26 8.00  12.60 2426.59
   06:45:32.194.11-Nov-2020 4617.01 5136.01 80.26 8.00  12.80 2426.59
   06:45:32.394.11-Nov-2020 4617.01 5136.06 80.25 8.00  13.00 2426.59
   06:45:32.594.11-Nov-2020 4617.01 5136.15 80.25 8.00  13.20 2426.59
   06:45:32.794.11-Nov-2020 4617.01 5135.04 80.25 8.00  13.40 2426.59
   06:45:32.994.11-Nov-2020 4617.01 5135.72 80.25 8.00  13.60 2426.59
   06:45:33.194.11-Nov-2020 4617.01 5135.81 80.25 8.00  13.80 2426.59
   06:45:33.394.11-Nov-2020 4617.01 5135.51 80.25 8.00  14.00 2426.59
   06:45:33.594.11-Nov-2020 4617.01 5135.09 80.25 8.00  14.20 2426.59
   06:45:33.794.11-Nov-2020 4617.01 5135.65 80.25 8.00  14.40 2426.59
   06:45:33.994.11-Nov-2020 4617.01 5138.98 80.25 8.00  14.60 2426.59
   06:45:34.194.11-Nov-2020 4617.01 5137.77 80.25 8.00  14.80 2426.59
   06:45:34.394.11-Nov-2020 4617.01 5135.74 80.25 8.00  15.00 2426.59
   06:45:34.594.11-Nov-2020 4617.01 5135.74 80.25 8.00  15.20 2426.59
   06:45:34.794.11-Nov-2020 4617.01 5135.72 80.24 8.00  15.40 2426.59
   06:45:34.994.11-Nov-2020 4617.01 5136.03 80.24 8.00  15.60 2426.59
   06:45:35.195.11-Nov-2020 4617.01 5134.52 80.24 8.00  15.80 2426.59
   06:45:35.395.11-Nov-2020 4617.01 5133.90 80.24 8.00  16.01 2426.59
   06:45:35.595.11-Nov-2020 4617.01 5133.72 80.24 8.00  16.21 2426.59
   06:45:35.795.11-Nov-2020 4617.01 5133.23 80.24 8.00  16.41 2426.59
   06:45:35.995.11-Nov-2020 4617.01 5133.04 80.24 8.00  16.61 2426.59
   06:45:36.195.11-Nov-2020 4617.01 5133.15 80.24 8.00  16.81 2426.59
   06:45:36.395.11-Nov-2020 4617.01 5132.87 80.24 8.00  17.01 2426.59
   06:45:36.595.11-Nov-2020 4617.01 5132.87 80.24 8.00  17.21 2426.59
   06:45:36.795.11-Nov-2020 4617.01 5132.23 80.24 8.00  17.41 2426.59
   06:45:36.995.11-Nov-2020 4617.01 5132.70 80.24 8.00  17.61 2426.59
   06:45:37.195.11-Nov-2020 4617.01 5131.50 80.24 8.00  17.81 2426.59
   06:45:37.395.11-Nov-2020 4617.01 5137.85 80.23 8.00  18.01 2426.59
   06:45:37.595.11-Nov-2020 4617.01 5137.85 80.23 8.00  18.21 2426.59
   06:45:37.795.11-Nov-2020 4617.01 5131.05 80.23 8.00  18.41 2426.59
   06:45:37.995.11-Nov-2020 4617.01 5130.63 80.23 8.00  18.61 2426.59
   06:45:38.195.11-Nov-2020 4617.01 5130.66 80.23 8.00  18.81 2426.59
   06:45:38.396.11-Nov-2020 4617.01 5135.89 80.23 8.00  19.01 2426.59
   06:45:38.596.11-Nov-2020 4617.01 5135.89 80.23 8.00  19.21 2426.59
   06:45:38.796.11-Nov-2020 4617.01 5131.51 80.23 8.00  19.41 2426.59
   06:45:38.996.11-Nov-2020 4617.01 5131.41 80.23 8.00  19.61 2426.59
   06:45:39.196.11-Nov-2020 4617.01 5137.48 80.23 8.00  19.81 2426.59
   06:45:39.396.11-Nov-2020 4617.01 5134.80 80.23 8.00  20.01 2426.59
   06:45:39.596.11-Nov-2020 4617.01 5133.36 80.23 8.00  20.21 2426.59
   06:45:39.796.11-Nov-2020 4617.01 5137.14 80.23 8.00  20.41 2426.59
   06:45:39.996.11-Nov-2020 4617.01 5133.65 80.22 8.00  20.61 2426.59
   06:45:40.196.11-Nov-2020 4617.01 5134.23 80.22 8.00  20.81 2426.59
   06:45:40.396.11-Nov-2020 4617.01 5133.49 80.22 8.00  21.01 2426.59
   06:45:40.596.11-Nov-2020 4617.01 5133.49 80.22 8.00  21.21 2426.59
   06:45:40.796.11-Nov-2020 4617.01 5137.28 80.22 8.00  21.41 2426.59
   06:45:40.996.11-Nov-2020 4617.01 5135.65 80.22 8.00  21.61 2426.59
   06:45:41.196.11-Nov-2020 4617.01 5134.10 80.22 8.00  21.81 2426.59
   06:45:41.396.11-Nov-2020 4617.01 5134.45 80.22 8.00  22.01 2426.59
   06:45:41.597.11-Nov-2020 4617.01 5134.45 80.22 8.00  22.21 2426.59
   06:45:41.797.11-Nov-2020 4617.01 5135.48 80.22 8.00  22.41 2426.59
   06:45:41.997.11-Nov-2020 4617.01 5136.27 80.22 8.00  22.61 2426.59
   06:45:42.197.11-Nov-2020 4617.01 5135.60 80.22 8.00  22.81 2426.59
