~Version Information
 VERS.                  2.0:   CWLS log ASCII Standard -VERSION 2.0
 WRAP.                   NO:   One line per depth step
~Well Information Block
#MNEM.UNIT     VALUE/NAME     DESCRIPTION
#---------     -----------    ---------------------------
 STRT.S             13:56:13 08-Nov-20: START TIME 13:56:13 08-Nov-20
 STOP.S             14:02:43 08-Nov-20: STOP TIME  14:02:43 08-Nov-20
 STEP.S                   0.00: STEP TIME
 NULL.                 -999.25: NULL VALUE
 DFWT.                        :  DIST FWL TEXT
 DFST.                        :  DIST FSL TEXT
 DMF .             Drill Floor:  DRILL MEAS FROM
 STIM.      04.54.24 22-Sep-20:  START TIME
 DATE.      04.54.24 21-Nov-20:  END TIME
 SPUD.               21-Nov-20:  SPUD DATE
 NREF.                    Grid:  NORTH REFERENCE
 HPTY.       Minimum Curvature:  HOLE POS TYPE
 DMOD.             Drill Model:  DRILL MOD DESC
 SVYD.                  Survey:  SURVEY DESC
 ILTD.               Lithology:  INTERP LTH DESC
 FTOP.          Formation Tops:  FORM TOPS DESC
 SON .        AZ-XX-0906571587:  JOB NUMBER
 COMP.     BP Exploration (Caspian Sea) Ltd:  COMPANY
 UWI .                     N/A:  UNIQUE WELL IDENTIFIER
 API .                     N/A:  API NUMBER
 BASE.              Azerbaijan:  LOGGING EQUIPMENT BASE LOCATION
 REGN.                   EESSA:  REGION
 PROV.                    Baku:  PROVINCE
 STAT.                    Baku:  STATE NAME
 CTRY.              Azerbaijan:  COUNTRY NAME
 FLD .                     ACG:  FIELD NAME
 SRVC.     TURAN Drilling & Engineering:  CONTRACTOR
 WELL.                     J27:  WELL NAME
 RIG .             West Chirag:  RIG NAME
 DOE .                     N/A:  DOE NUMBER
 DCON.         Sperry Drilling:  DIRECTNL CONTR
 PDAT.          Mean Sea Level:  PERMANENT DATUM
 WTYP.                Deviated:  WELL TYPE
 MWDS.                    Baku:  MWD SHOP
 JOBN.        AZ-XX-0906571587:  JOB TICKET NUMB
 UNIT.                     N/A:  LOGGING EQUIPMENT ID
 MDS .        Operator Entered:  MAG DATA SOURCE
 CNTY.                        :  COUNTY
 LOC .                        :  LOCATION
 LMF .             Drill Floor:  LOG MEASURED FROM
 TVDS.m                  43.00:  TVDSS CORRECTN
 LATI.deg                40.13:  LATITUDE
 LONG.deg                51.22:  LONGITUDE
 WHNS.m                   7.72:  WELL HEAD N/S
 WHEW.m                 -14.24:  WELL HEAD E/W
 UTMX.m              519005.06:  UTM X
 UTMY.m             4443793.85:  UTM Y
 DFWL.m                   0.00:  DISTANCE FWL
 DFSL.m                   0.00:  DISTANCE FSL
 SDEP.m                 347.00:  START DEPTH
 TDD .m                 581.00:  TOTAL DEPTH (DRILLER)
 VSDR.deg               159.72:  VERT SEC DIRECT
 GVFD.g                   1.00:  GRAVITY FIELD
 MFLD.nT              50313.00:  MAGNETIC FIELD
 MDIP.deg                59.58:  MAGNETIC DIP
 MDEC.deg                 6.45:  MAGNETIC DECL
 GRDC.deg                 0.15:  GRID CORRECTION
 AZTC.deg                 6.30:  AZM TOTAL CORR
 EPD .m                   0.00:  ELEVATION
 EGL .m                   0.00:  GROUND ELEVATION
 WDMS.m                 169.80:  WD ELEV
 APD .m                  43.00:  DEPTH ABOVE PD
 AGAP.m                  43.00:  AIR GAP
 VSEW.m                 -14.24:  VERT SEC E/W
 VSNS.m                   7.72:  VERT SEC N/S
 DEP .m                 342.45:  DEPTH
 EKB .m                   0.00:  KB ELEVATION
 EDF .m                  43.00:  DF ELEVATION
 TDL .m                1313.00:  TOTAL DEPTH (LOGGER)
 VSC .                       0:  VS TO CLOSURE
 MAGU.                 1851396:  MAGUTM CHECKSUM
~Parameter Information Block
#MNEM.UNIT       Value        Description
#---------     -----------    ---------------------------
 AV  .mps                 0.65:  Ann Velocity 
 AVMX.mps                 0.75:  Max Ann Veloc 
 AZIF.deg               115.08:  Azm, Final 
 BHAT.        Rotary Steerable:  BHA Type 
 BROT.°/30m               1.50:  Build Rotating 
 BS  .in                 12.25:  Bit Size 
 BSZ .in                 12.25:  Bit Size 
 BTPL.psig              700.00:  Bit Press Loss 
 CABU.                     Yes:  Customer Abuse 
 COMM.                     ì¹^:  Run Comments 1 
 TCS .hr                121.00:  Time Ciculation Ended 
 CV  .mps                 1.83:  Crit Velocity 
 CVMX.mps                 1.83:  Max Crit Veloc 
 DD1 .          Rashad Habibov:  Direct Drillr 1 
 DD2 .         Rasim Ibrahimov:  Direct Drillr 2 
 DDSV.                 iCruise:  DD Service 
 DEFF.%                 100.00:  % Det Eff 
 DLRX.°/30m               3.60:  Dogleg Rot Max 
 DLSO.°/30m               3.10:  Dogleg Oriented 
 DLSX.°/30m               3.60:  Dogleg Str Max 
 DRET.      13.41.20 12-Nov-20:  Drill End Time 
 DRST.      13.41.20 07-Nov-20:  Drill Start Tim 
 DTIM.hr                 54.16:  Time Drilling 
 EDEP.m                4762.01:  End Depth 
 ENG1.           Amrah Tahirov:  Engineer 1 
 ENG2.      Bakhtiyar Jabbarli:  Engineer 2 
 ENG3.          Ruslan Safarov:  Engineer 3 
 ETIM.      13.41.20 14-Nov-20:  End Time 
 FLOI.gpm              1200.00:  Flow In 
 FLON.gpm              1100.00:  Flow In Min 
 FLOS.cptm                0.00:  Fluid Loss 
 FLOX.gpm              1200.00:  Flow In Max 
 HFLO.                      No:  High Flow 
 HPRE.                      No:  High Pressure 
 HTEM.                      No:  High Temp 
 HYDO.m                   2.00:  Hydro Offset 
 IFIN.deg                66.14:  Inc, Final 
 IMAX.deg                69.03:  Inc Max 
 IMIN.deg                64.64:  Inc Min 
 IMND.m                4450.16:  Inc Min Depth 
 IMXD.m                3996.00:  Inc Max Depth 
 JARR.                     Yes:  Jarring 
 LETM.      13.41.20 14-Nov-20:  Log End Time 
 LOST.hr                     0:  Lost Rig Time 
 LSTM.      13.41.20 06-Nov-20:  Log Start Time 
 MDCL.ppm             42500.00:  Mud Chlorides 
 MDES.     Inversion Oil/Synthetic:  Mud Desc 
 DFD .sg                  1.45:  Mud Density 
 MDMN.sg                  1.45:  Dens Mud Min 
 MDMX.sg                  1.45:  Dens Mud Max 
 MOIL.                      70:  Run Mud Oil % 
 MOWR.                   70:30:  Run Mud OWR 
 MSND.                       0:  Run Mud Sand % 
 MSOL.                    19.3:  Run Mud Solids% 
 DFV .spqt               77.00:  Mud Viscosity 
 MWOD.in                  8.00:  MWD Tool OD 
 MWSI.                      No:  Serv Intrp, MWD 
 OTIM.hr                201.88:  Time Operating 
 PCON.           Look Like New:  Pad Condition 
 PMAX.psia             9250.94:  Press Op, Max 
 PV  .cP                 29.00:  Mud PV 
 RUN .                     800:  Run Number 
 ROPA.m/hr               28.00:  ROP Avg 
 ROPN.m/hr               25.00:  ROP Min 
 ROPX.m/hr               30.00:  ROP Max 
 RPMA.rpm               160.00:  RPM Surface Avg 
 RPMN.rpm               160.00:  RPM Surface Min 
 RPMX.rpm               160.00:  RPM Surface Max 
 RRUN.                    0800:  Rig Run Number 
 RTIM.hr                 12.00:  Time Reaming 
 SAZI.deg               169.33:  Azm, Start 
 SDEP.m                3449.01:  Start Depth 
 SIDD.                      No:  Serv Intrp, DD 
 SINC.deg                68.01:  Inc, Start 
 SPPA.psig             4900.00:  SPP Avg 
 SPPN.psig             4800.00:  SPP Min 
 SPPX.psig             5050.00:  SPP Max 
 STIM.      13.41.20 06-Nov-20:  Start Time 
 SVCS.                 DD, MWD:  Services 
 SVER.                    9.20:  Sperry Version 
 TDAT.m                4762.01:  Tot Depth Attmp 
 TDDF.                      No:  Trip for DD 
 TDLG.m                1313.00:  Tot Depth Loggd 
 TFF .                      No:  Trip for Fail 
 TQAA.f-kp               13.00:  Torque Abs Avg 
 TQAN.f-kp               13.00:  Torque Abs Min 
 TQAX.f-kp               13.00:  Torque Abs Max 
 TRRT.°/30m               1.70:  Turn Rotating 
 MRT .                  EWR-M5:  Maximum Recorded Temperature 
 TTMX.degC               86.00:  Max Tool Temp 
 VS01.                90622122:  Virtual Str1 SN 
 VS02.                90577298:  Virtual Str2 SN 
 VS03.                90563623:  Virtual Str3 SN 
 VS04.                90617559:  Virtual Str4 SN 
 VS05.                11339492:  Virtual Str5 SN 
 VS06.                12385033:  Virtual Str6 SN 
 WBMN.klb                 0.00:  WOB Min 
 WOBA.klb                22.00:  WOB Avg 
 WOBX.klb                26.00:  WOB Max 
 YP  .lhf2               30.00:  Yield Point 
~Curve Information Block
#MNEM.UNIT                 API CODE     Curve Description
#---------               -----------    ---------------------------
 TIME.HHMMSS            00 000 000 000:  GT Time & Date
 GTDEPTH.m              00 000 000 000:  GT Depth
 GTPQH.psia             00 000 000 000:  GT HR Quartz Pressure
 GTTQ.degC              00 000 000 000:  GT Quartz Temperature
 GTTN.NONE              00 000 000 000:  GT Test Number
 GTET.sec               00 000 000 000:  GT Elapsed Test Time
 GTTVD.m                00 000 000 000:  GT True Vertical Depth
#Other Information
#
#WARRANTY: Halliburton will use its best efforts to furnish customers with 
#accurate information and interpretations that are part of, and incident to, the services 
#provided.  However, Halliburton cannot and does not warrant the accuracy 
#or correctness of such information and interpretations.  Under no circumstances should any 
#such information or interpretation be relied upon as the sole basis for any drilling, 
#completion, production, or financial decision or any procedure involving any risk to the 
#safety of any drilling venture, drilling rig or its crew or any other third party.  The 
#Customer has full responsibility for all drilling, completion and production operation.  
#Halliburton makes no representations or warranties, either expressed or 
#implied, including, but not limited to, the implied warranties of merchantability or fitness 
#for a particular purpose, with respect to the services rendered.  In no event will 
#Halliburton be liable for failure to obtain any particular results or for 
#any damages, including, but not limited to, indirect, special or consequential damages, 
#resulting from the use of any information or interpretation provided by Halliburton.
#
~A           TIME           GTDEPTH  GTPQH  GTTQ  GTTN  GTET   GTTVD  
# ...
   13:57:22.107.08-Nov-2020 3585.71 3292.71 71.79 3.00  68.93 2034.99
   13:57:22.307.08-Nov-2020 3585.71 3292.71 71.78 3.00  69.13 2034.99
   13:57:22.506.08-Nov-2020 3585.71 3292.77 71.78 3.00  69.33 2034.99
   13:57:22.706.08-Nov-2020 3585.71 3292.71 71.78 3.00  69.53 2034.99
   13:57:22.906.08-Nov-2020 3585.71 3292.68 71.78 3.00  69.73 2034.99
   13:57:23.106.08-Nov-2020 3585.71 3292.71 71.78 3.00  69.93 2034.99
   13:57:23.306.08-Nov-2020 3585.71 3292.72 71.78 3.00  70.13 2034.99
   13:57:23.505.08-Nov-2020 3585.71 3292.68 71.78 3.00  70.33 2034.99
   13:57:23.705.08-Nov-2020 3585.71 3292.72 71.78 3.00  70.53 2034.99
   13:57:23.905.08-Nov-2020 3585.71 3292.70 71.78 3.00  70.73 2034.99
   13:57:24.105.08-Nov-2020 3585.71 3292.65 71.78 3.00  70.93 2034.99
   13:57:24.305.08-Nov-2020 3585.71 3292.65 71.78 3.00  71.13 2034.99
   13:57:24.504.08-Nov-2020 3585.71 3292.74 71.77 3.00  71.33 2034.99
   13:57:24.704.08-Nov-2020 3585.71 3292.69 71.77 3.00  71.53 2034.99
   13:57:24.904.08-Nov-2020 3585.71 3292.68 71.77 3.00  71.73 2034.99
   13:57:25.104.08-Nov-2020 3585.71 3292.66 71.77 3.00  71.93 2034.99
   13:57:25.304.08-Nov-2020 3585.71 3292.66 71.77 3.00  72.13 2034.99
   13:57:25.503.08-Nov-2020 3585.71 3292.71 71.77 3.00  72.33 2034.99
   13:57:25.703.08-Nov-2020 3585.71 3292.69 71.77 3.00  72.53 2034.99
   13:57:25.903.08-Nov-2020 3585.71 3292.70 71.77 3.00  72.73 2034.99
   13:57:26.103.08-Nov-2020 3585.71 3292.69 71.76 3.00  72.93 2034.99
   13:57:26.303.08-Nov-2020 3585.71 3292.68 71.76 3.00  73.13 2034.99
   13:57:26.503.08-Nov-2020 3585.71 3292.67 71.76 3.00  73.33 2034.99
   13:57:26.702.08-Nov-2020 3585.71 3292.66 71.76 3.00  73.53 2034.99
   13:57:26.902.08-Nov-2020 3585.71 3292.66 71.76 3.00  73.73 2034.99
   13:57:27.102.08-Nov-2020 3585.71 3292.65 71.76 3.00  73.93 2034.99
   13:57:27.302.08-Nov-2020 3585.71 3292.65 71.76 3.00  74.13 2034.99
   13:57:27.502.08-Nov-2020 3585.71 3292.65 71.76 3.00  74.33 2034.99
   13:57:27.701.08-Nov-2020 3585.71 3292.65 71.76 3.00  74.53 2034.99
   13:57:27.901.08-Nov-2020 3585.71 3292.64 71.75 3.00  74.73 2034.99
   13:57:28.101.08-Nov-2020 3585.71 3292.67 71.75 3.00  74.93 2034.99
   13:57:28.301.08-Nov-2020 3585.71 3292.67 71.75 3.00  75.13 2034.99
   13:57:28.501.08-Nov-2020 3585.71 3292.67 71.75 3.00  75.33 2034.99
   13:57:28.700.08-Nov-2020 3585.71 3292.66 71.75 3.00  75.53 2034.99
   13:57:28.900.08-Nov-2020 3585.71 3292.68 71.75 3.00  75.73 2034.99
   13:57:29.100.08-Nov-2020 3585.71 3292.65 71.75 3.00  75.93 2034.99
   13:57:29.300.08-Nov-2020 3585.71 3292.65 71.75 3.00  76.13 2034.99
   13:57:29.500.08-Nov-2020 3585.71 3292.66 71.75 3.00  76.33 2034.99
   13:57:29.699.08-Nov-2020 3585.71 3292.65 71.75 3.00  76.53 2034.99
   13:57:29.899.08-Nov-2020 3585.71 3292.66 71.74 3.00  76.73 2034.99
   13:57:30.099.08-Nov-2020 3585.71 3292.64 71.74 3.00  76.93 2034.99
   13:57:30.299.08-Nov-2020 3585.71 3292.64 71.74 3.00  77.13 2034.99
   13:57:30.499.08-Nov-2020 3585.71 3292.63 71.74 3.00  77.33 2034.99
   13:57:30.698.08-Nov-2020 3585.71 3292.70 71.74 3.00  77.53 2034.99
   13:57:30.898.08-Nov-2020 3585.71 3292.66 71.74 3.00  77.73 2034.99
   13:57:31.098.08-Nov-2020 3585.71 3292.69 71.74 3.00  77.92 2034.99
   13:57:31.298.08-Nov-2020 3585.71 3292.68 71.74 3.00  78.12 2034.99
   13:57:31.498.08-Nov-2020 3585.71 3292.65 71.74 3.00  78.32 2034.99
   13:57:31.698.08-Nov-2020 3585.71 3292.67 71.73 3.00  78.52 2034.99
   13:57:31.897.08-Nov-2020 3585.71 3292.66 71.73 3.00  78.72 2034.99
   13:57:32.097.08-Nov-2020 3585.71 3292.64 71.73 3.00  78.92 2034.99
   13:57:32.297.08-Nov-2020 3585.71 3292.64 71.73 3.00  79.12 2034.99
   13:57:32.497.08-Nov-2020 3585.71 3292.64 71.73 3.00  79.32 2034.99
   13:57:32.697.08-Nov-2020 3585.71 3292.65 71.73 3.00  79.52 2034.99
   13:57:32.896.08-Nov-2020 3585.71 3292.68 71.73 3.00  79.72 2034.99
   13:57:33.096.08-Nov-2020 3585.71 3292.65 71.73 3.00  79.92 2034.99
   13:57:33.296.08-Nov-2020 3585.71 3292.65 71.73 3.00  80.12 2034.99
   13:57:33.496.08-Nov-2020 3585.71 3292.68 71.72 3.00  80.32 2034.99
   13:57:33.696.08-Nov-2020 3585.71 3292.65 71.72 3.00  80.52 2034.99
   13:57:33.895.08-Nov-2020 3585.71 3292.65 71.72 3.00  80.72 2034.99
   13:57:34.095.08-Nov-2020 3585.71 3292.62 71.72 3.00  80.92 2034.99
   13:57:34.295.08-Nov-2020 3585.71 3292.62 71.72 3.00  81.12 2034.99
   13:57:34.495.08-Nov-2020 3585.71 3292.66 71.72 3.00  81.32 2034.99
   13:57:34.695.08-Nov-2020 3585.71 3292.63 71.72 3.00  81.52 2034.99
   13:57:34.894.08-Nov-2020 3585.71 3292.66 71.72 3.00  81.72 2034.99
   13:57:35.094.08-Nov-2020 3585.71 3292.64 71.72 3.00  81.92 2034.99
   13:57:35.294.08-Nov-2020 3585.71 3292.61 71.71 3.00  82.12 2034.99
   13:57:35.494.08-Nov-2020 3585.71 3292.62 71.71 3.00  82.32 2034.99
   13:57:35.694.08-Nov-2020 3585.71 3292.62 71.71 3.00  82.52 2034.99
   13:57:35.893.08-Nov-2020 3585.71 3292.62 71.71 3.00  82.72 2034.99
   13:57:36.093.08-Nov-2020 3585.71 3292.61 71.71 3.00  82.92 2034.99
   13:57:36.293.08-Nov-2020 3585.71 3292.61 71.71 3.00  83.12 2034.99
   13:57:36.493.08-Nov-2020 3585.71 3292.61 71.71 3.00  83.32 2034.99
   13:57:36.693.08-Nov-2020 3585.71 3292.61 71.71 3.00  83.52 2034.99
   13:57:36.893.08-Nov-2020 3585.71 3292.62 71.71 3.00  83.72 2034.99
   13:57:37.092.08-Nov-2020 3585.71 3292.63 71.71 3.00  83.92 2034.99
   13:57:37.292.08-Nov-2020 3585.71 3292.63 71.71 3.00  84.12 2034.99
   13:57:37.492.08-Nov-2020 3585.71 3292.63 71.70 3.00  84.32 2034.99
   13:57:37.692.08-Nov-2020 3585.71 3292.63 71.70 3.00  84.52 2034.99
   13:57:37.892.08-Nov-2020 3585.71 3292.63 71.70 3.00  84.72 2034.99
   13:57:38.091.08-Nov-2020 3585.71 3292.61 71.70 3.00  84.92 2034.99
   13:57:38.291.08-Nov-2020 3585.71 3292.61 71.70 3.00  85.12 2034.99
   13:57:38.491.08-Nov-2020 3585.71 3292.61 71.70 3.00  85.32 2034.99
   13:57:38.691.08-Nov-2020 3585.71 3292.60 71.70 3.00  85.52 2034.99
   13:57:38.891.08-Nov-2020 3585.71 3292.59 71.70 3.00  85.72 2034.99
   13:57:39.090.08-Nov-2020 3585.71 3292.60 71.69 3.00  85.92 2034.99
   13:57:39.290.08-Nov-2020 3585.71 3292.60 71.69 3.00  86.12 2034.99
   13:57:39.490.08-Nov-2020 3585.71 3292.58 71.69 3.00  86.32 2034.99
   13:57:39.690.08-Nov-2020 3585.71 3292.67 71.69 3.00  86.52 2034.99
   13:57:39.890.08-Nov-2020 3585.71 3292.57 71.69 3.00  86.72 2034.99
   13:57:40.089.08-Nov-2020 3585.71 3292.64 71.69 3.00  86.92 2034.99
   13:57:40.289.08-Nov-2020 3585.71 3292.64 71.69 3.00  87.12 2034.99
   13:57:40.489.08-Nov-2020 3585.71 3292.62 71.69 3.00  87.32 2034.99
   13:57:40.689.08-Nov-2020 3585.71 3292.64 71.69 3.00  87.52 2034.99
   13:57:40.889.08-Nov-2020 3585.71 3292.64 71.68 3.00  87.72 2034.99
   13:57:41.088.08-Nov-2020 3585.71 3292.62 71.68 3.00  87.92 2034.99
   13:57:41.288.08-Nov-2020 3585.71 3292.62 71.68 3.00  88.12 2034.99
   13:57:41.488.08-Nov-2020 3585.71 3292.62 71.68 3.00  88.31 2034.99
   13:57:41.688.08-Nov-2020 3585.71 3292.63 71.68 3.00  88.51 2034.99
   13:57:41.888.08-Nov-2020 3585.71 3292.59 71.68 3.00  88.71 2034.99
   13:57:42.088.08-Nov-2020 3585.71 3292.65 71.68 3.00  88.91 2034.99
   13:57:42.287.08-Nov-2020 3585.71 3292.65 71.68 3.00  89.11 2034.99
   13:57:42.487.08-Nov-2020 3585.71 3292.63 71.68 3.00  89.31 2034.99
   13:57:42.687.08-Nov-2020 3585.71 3292.62 71.68 3.00  89.51 2034.99
   13:57:42.887.08-Nov-2020 3585.71 3292.61 71.67 3.00  89.71 2034.99
   13:57:43.087.08-Nov-2020 3585.71 3292.65 71.67 3.00  89.91 2034.99
   13:57:43.286.08-Nov-2020 3585.71 3292.62 71.67 3.00  90.11 2034.99
   13:57:43.486.08-Nov-2020 3585.71 3292.63 71.67 3.00  90.31 2034.99
   13:57:43.686.08-Nov-2020 3585.71 3292.63 71.67 3.00  90.51 2034.99
   13:57:43.886.08-Nov-2020 3585.71 3292.59 71.67 3.00  90.71 2034.99
   13:57:44.086.08-Nov-2020 3585.71 3292.62 71.67 3.00  90.91 2034.99
   13:57:44.285.08-Nov-2020 3585.71 3292.62 71.67 3.00  91.11 2034.99
   13:57:44.485.08-Nov-2020 3585.71 3292.60 71.67 3.00  91.31 2034.99
   13:57:44.685.08-Nov-2020 3585.71 3292.59 71.66 3.00  91.51 2034.99
   13:57:44.885.08-Nov-2020 3585.71 3292.58 71.66 3.00  91.71 2034.99
