~Version Information
 VERS.                  2.0:   CWLS log ASCII Standard -VERSION 2.0
 WRAP.                   NO:   One line per depth step
~Well Information Block
#MNEM.UNIT     VALUE/NAME     DESCRIPTION
#---------     -----------    ---------------------------
 STRT.S             13:56:13 08-Nov-20: START TIME 13:56:13 08-Nov-20
 STOP.S             14:02:43 08-Nov-20: STOP TIME  14:02:43 08-Nov-20
 STEP.S                   0.00: STEP TIME
 NULL.                 -999.25: NULL VALUE
 DFWT.                        :  DIST FWL TEXT
 DFST.                        :  DIST FSL TEXT
 DMF .             Drill Floor:  DRILL MEAS FROM
 STIM.      04.54.24 22-Sep-20:  START TIME
 DATE.      04.54.24 21-Nov-20:  END TIME
 SPUD.               21-Nov-20:  SPUD DATE
 NREF.                    Grid:  NORTH REFERENCE
 HPTY.       Minimum Curvature:  HOLE POS TYPE
 DMOD.             Drill Model:  DRILL MOD DESC
 SVYD.                  Survey:  SURVEY DESC
 ILTD.               Lithology:  INTERP LTH DESC
 FTOP.          Formation Tops:  FORM TOPS DESC
 SON .        AZ-XX-0906571587:  JOB NUMBER
 COMP.     BP Exploration (Caspian Sea) Ltd:  COMPANY
 UWI .                     N/A:  UNIQUE WELL IDENTIFIER
 API .                     N/A:  API NUMBER
 BASE.              Azerbaijan:  LOGGING EQUIPMENT BASE LOCATION
 REGN.                   EESSA:  REGION
 PROV.                    Baku:  PROVINCE
 STAT.                    Baku:  STATE NAME
 CTRY.              Azerbaijan:  COUNTRY NAME
 FLD .                     ACG:  FIELD NAME
 SRVC.     TURAN Drilling & Engineering:  CONTRACTOR
 WELL.                     J27:  WELL NAME
 RIG .             West Chirag:  RIG NAME
 DOE .                     N/A:  DOE NUMBER
 DCON.         Sperry Drilling:  DIRECTNL CONTR
 PDAT.          Mean Sea Level:  PERMANENT DATUM
 WTYP.                Deviated:  WELL TYPE
 MWDS.                    Baku:  MWD SHOP
 JOBN.        AZ-XX-0906571587:  JOB TICKET NUMB
 UNIT.                     N/A:  LOGGING EQUIPMENT ID
 MDS .        Operator Entered:  MAG DATA SOURCE
 CNTY.                        :  COUNTY
 LOC .                        :  LOCATION
 LMF .             Drill Floor:  LOG MEASURED FROM
 TVDS.m                  43.00:  TVDSS CORRECTN
 LATI.deg                40.13:  LATITUDE
 LONG.deg                51.22:  LONGITUDE
 WHNS.m                   7.72:  WELL HEAD N/S
 WHEW.m                 -14.24:  WELL HEAD E/W
 UTMX.m              519005.06:  UTM X
 UTMY.m             4443793.85:  UTM Y
 DFWL.m                   0.00:  DISTANCE FWL
 DFSL.m                   0.00:  DISTANCE FSL
 SDEP.m                 347.00:  START DEPTH
 TDD .m                 581.00:  TOTAL DEPTH (DRILLER)
 VSDR.deg               159.72:  VERT SEC DIRECT
 GVFD.g                   1.00:  GRAVITY FIELD
 MFLD.nT              50313.00:  MAGNETIC FIELD
 MDIP.deg                59.58:  MAGNETIC DIP
 MDEC.deg                 6.45:  MAGNETIC DECL
 GRDC.deg                 0.15:  GRID CORRECTION
 AZTC.deg                 6.30:  AZM TOTAL CORR
 EPD .m                   0.00:  ELEVATION
 EGL .m                   0.00:  GROUND ELEVATION
 WDMS.m                 169.80:  WD ELEV
 APD .m                  43.00:  DEPTH ABOVE PD
 AGAP.m                  43.00:  AIR GAP
 VSEW.m                 -14.24:  VERT SEC E/W
 VSNS.m                   7.72:  VERT SEC N/S
 DEP .m                 342.45:  DEPTH
 EKB .m                   0.00:  KB ELEVATION
 EDF .m                  43.00:  DF ELEVATION
 TDL .m                1313.00:  TOTAL DEPTH (LOGGER)
 VSC .                       0:  VS TO CLOSURE
 MAGU.                 1851396:  MAGUTM CHECKSUM
~Parameter Information Block
#MNEM.UNIT       Value        Description
#---------     -----------    ---------------------------
 AV  .mps                 0.65:  Ann Velocity 
 AVMX.mps                 0.75:  Max Ann Veloc 
 AZIF.deg               115.08:  Azm, Final 
 BHAT.        Rotary Steerable:  BHA Type 
 BROT.°/30m               1.50:  Build Rotating 
 BS  .in                 12.25:  Bit Size 
 BSZ .in                 12.25:  Bit Size 
 BTPL.psig              700.00:  Bit Press Loss 
 CABU.                     Yes:  Customer Abuse 
 COMM.                     ì¹^:  Run Comments 1 
 TCS .hr                121.00:  Time Ciculation Ended 
 CV  .mps                 1.83:  Crit Velocity 
 CVMX.mps                 1.83:  Max Crit Veloc 
 DD1 .          Rashad Habibov:  Direct Drillr 1 
 DD2 .         Rasim Ibrahimov:  Direct Drillr 2 
 DDSV.                 iCruise:  DD Service 
 DEFF.%                 100.00:  % Det Eff 
 DLRX.°/30m               3.60:  Dogleg Rot Max 
 DLSO.°/30m               3.10:  Dogleg Oriented 
 DLSX.°/30m               3.60:  Dogleg Str Max 
 DRET.      13.41.20 12-Nov-20:  Drill End Time 
 DRST.      13.41.20 07-Nov-20:  Drill Start Tim 
 DTIM.hr                 54.16:  Time Drilling 
 EDEP.m                4762.01:  End Depth 
 ENG1.           Amrah Tahirov:  Engineer 1 
 ENG2.      Bakhtiyar Jabbarli:  Engineer 2 
 ENG3.          Ruslan Safarov:  Engineer 3 
 ETIM.      13.41.20 14-Nov-20:  End Time 
 FLOI.gpm              1200.00:  Flow In 
 FLON.gpm              1100.00:  Flow In Min 
 FLOS.cptm                0.00:  Fluid Loss 
 FLOX.gpm              1200.00:  Flow In Max 
 HFLO.                      No:  High Flow 
 HPRE.                      No:  High Pressure 
 HTEM.                      No:  High Temp 
 HYDO.m                   2.00:  Hydro Offset 
 IFIN.deg                66.14:  Inc, Final 
 IMAX.deg                69.03:  Inc Max 
 IMIN.deg                64.64:  Inc Min 
 IMND.m                4450.16:  Inc Min Depth 
 IMXD.m                3996.00:  Inc Max Depth 
 JARR.                     Yes:  Jarring 
 LETM.      13.41.20 14-Nov-20:  Log End Time 
 LOST.hr                     0:  Lost Rig Time 
 LSTM.      13.41.20 06-Nov-20:  Log Start Time 
 MDCL.ppm             42500.00:  Mud Chlorides 
 MDES.     Inversion Oil/Synthetic:  Mud Desc 
 DFD .sg                  1.45:  Mud Density 
 MDMN.sg                  1.45:  Dens Mud Min 
 MDMX.sg                  1.45:  Dens Mud Max 
 MOIL.                      70:  Run Mud Oil % 
 MOWR.                   70:30:  Run Mud OWR 
 MSND.                       0:  Run Mud Sand % 
 MSOL.                    19.3:  Run Mud Solids% 
 DFV .spqt               77.00:  Mud Viscosity 
 MWOD.in                  8.00:  MWD Tool OD 
 MWSI.                      No:  Serv Intrp, MWD 
 OTIM.hr                201.88:  Time Operating 
 PCON.           Look Like New:  Pad Condition 
 PMAX.psia             9250.94:  Press Op, Max 
 PV  .cP                 29.00:  Mud PV 
 RUN .                     800:  Run Number 
 ROPA.m/hr               28.00:  ROP Avg 
 ROPN.m/hr               25.00:  ROP Min 
 ROPX.m/hr               30.00:  ROP Max 
 RPMA.rpm               160.00:  RPM Surface Avg 
 RPMN.rpm               160.00:  RPM Surface Min 
 RPMX.rpm               160.00:  RPM Surface Max 
 RRUN.                    0800:  Rig Run Number 
 RTIM.hr                 12.00:  Time Reaming 
 SAZI.deg               169.33:  Azm, Start 
 SDEP.m                3449.01:  Start Depth 
 SIDD.                      No:  Serv Intrp, DD 
 SINC.deg                68.01:  Inc, Start 
 SPPA.psig             4900.00:  SPP Avg 
 SPPN.psig             4800.00:  SPP Min 
 SPPX.psig             5050.00:  SPP Max 
 STIM.      13.41.20 06-Nov-20:  Start Time 
 SVCS.                 DD, MWD:  Services 
 SVER.                    9.20:  Sperry Version 
 TDAT.m                4762.01:  Tot Depth Attmp 
 TDDF.                      No:  Trip for DD 
 TDLG.m                1313.00:  Tot Depth Loggd 
 TFF .                      No:  Trip for Fail 
 TQAA.f-kp               13.00:  Torque Abs Avg 
 TQAN.f-kp               13.00:  Torque Abs Min 
 TQAX.f-kp               13.00:  Torque Abs Max 
 TRRT.°/30m               1.70:  Turn Rotating 
 MRT .                  EWR-M5:  Maximum Recorded Temperature 
 TTMX.degC               86.00:  Max Tool Temp 
 VS01.                90622122:  Virtual Str1 SN 
 VS02.                90577298:  Virtual Str2 SN 
 VS03.                90563623:  Virtual Str3 SN 
 VS04.                90617559:  Virtual Str4 SN 
 VS05.                11339492:  Virtual Str5 SN 
 VS06.                12385033:  Virtual Str6 SN 
 WBMN.klb                 0.00:  WOB Min 
 WOBA.klb                22.00:  WOB Avg 
 WOBX.klb                26.00:  WOB Max 
 YP  .lhf2               30.00:  Yield Point 
~Curve Information Block
#MNEM.UNIT                 API CODE     Curve Description
#---------               -----------    ---------------------------
 TIME.HHMMSS            00 000 000 000:  GT Time & Date
 GTDEPTH.m              00 000 000 000:  GT Depth
 GTPQH.psia             00 000 000 000:  GT HR Quartz Pressure
 GTTQ.degC              00 000 000 000:  GT Quartz Temperature
 GTTN.NONE              00 000 000 000:  GT Test Number
 GTET.sec               00 000 000 000:  GT Elapsed Test Time
 GTTVD.m                00 000 000 000:  GT True Vertical Depth
#Other Information
#
#WARRANTY: Halliburton will use its best efforts to furnish customers with 
#accurate information and interpretations that are part of, and incident to, the services 
#provided.  However, Halliburton cannot and does not warrant the accuracy 
#or correctness of such information and interpretations.  Under no circumstances should any 
#such information or interpretation be relied upon as the sole basis for any drilling, 
#completion, production, or financial decision or any procedure involving any risk to the 
#safety of any drilling venture, drilling rig or its crew or any other third party.  The 
#Customer has full responsibility for all drilling, completion and production operation.  
#Halliburton makes no representations or warranties, either expressed or 
#implied, including, but not limited to, the implied warranties of merchantability or fitness 
#for a particular purpose, with respect to the services rendered.  In no event will 
#Halliburton be liable for failure to obtain any particular results or for 
#any damages, including, but not limited to, indirect, special or consequential damages, 
#resulting from the use of any information or interpretation provided by Halliburton.
#
~A           TIME           GTDEPTH  GTPQH  GTTQ  GTTN  GTET   GTTVD  
# ...
   14:00:25.930.08-Nov-2020 3585.71 3292.61 70.81 3.00 252.76 2034.99
   14:00:26.129.08-Nov-2020 3585.71 3292.61 70.81 3.00 252.96 2034.99
   14:00:26.329.08-Nov-2020 3585.71 3292.60 70.81 3.00 253.16 2034.99
   14:00:26.529.08-Nov-2020 3585.71 3292.58 70.81 3.00 253.36 2034.99
   14:00:26.729.08-Nov-2020 3585.71 3292.58 70.81 3.00 253.56 2034.99
   14:00:26.929.08-Nov-2020 3585.71 3292.55 70.81 3.00 253.76 2034.99
   14:00:27.129.08-Nov-2020 3585.71 3292.54 70.81 3.00 253.96 2034.99
   14:00:27.328.08-Nov-2020 3585.71 3292.55 70.81 3.00 254.16 2034.99
   14:00:27.528.08-Nov-2020 3585.71 3292.55 70.81 3.00 254.35 2034.99
   14:00:27.728.08-Nov-2020 3585.71 3292.53 70.81 3.00 254.55 2034.99
   14:00:27.928.08-Nov-2020 3585.71 3292.51 70.80 3.00 254.75 2034.99
   14:00:28.128.08-Nov-2020 3585.71 3292.51 70.80 3.00 254.95 2034.99
   14:00:28.327.08-Nov-2020 3585.71 3292.62 70.80 3.00 255.15 2034.99
   14:00:28.527.08-Nov-2020 3585.71 3292.56 70.80 3.00 255.35 2034.99
   14:00:28.727.08-Nov-2020 3585.71 3292.64 70.80 3.00 255.55 2034.99
   14:00:28.927.08-Nov-2020 3585.71 3292.65 70.80 3.00 255.75 2034.99
   14:00:29.127.08-Nov-2020 3585.71 3292.65 70.80 3.00 255.95 2034.99
   14:00:29.326.08-Nov-2020 3585.71 3291.04 70.80 3.00 256.15 2034.99
   14:00:29.526.08-Nov-2020 3585.71 3289.27 70.80 3.00 256.35 2034.99
   14:00:29.726.08-Nov-2020 3585.71 3289.11 70.79 3.00 256.55 2034.99
   14:00:29.926.08-Nov-2020 3585.71 3289.06 70.79 3.00 256.75 2034.99
   14:00:30.126.08-Nov-2020 3585.71 3289.06 70.79 3.00 256.95 2034.99
   14:00:30.325.08-Nov-2020 3585.71 3289.15 70.79 3.00 257.15 2034.99
   14:00:30.525.08-Nov-2020 3585.71 3289.20 70.79 3.00 257.35 2034.99
   14:00:30.725.08-Nov-2020 3585.71 3289.55 70.79 3.00 257.55 2034.99
   14:00:30.925.08-Nov-2020 3585.71 3289.55 70.79 3.00 257.75 2034.99
   14:00:31.125.08-Nov-2020 3585.71 3289.54 70.79 3.00 257.95 2034.99
   14:00:31.324.08-Nov-2020 3585.71 3289.59 70.79 3.00 258.15 2034.99
   14:00:31.524.08-Nov-2020 3585.71 3289.52 70.79 3.00 258.35 2034.99
   14:00:31.724.08-Nov-2020 3585.71 3289.86 70.78 3.00 258.55 2034.99
   14:00:31.924.08-Nov-2020 3585.71 3289.79 70.78 3.00 258.75 2034.99
   14:00:32.124.08-Nov-2020 3585.71 3289.79 70.78 3.00 258.95 2034.99
   14:00:32.324.08-Nov-2020 3585.71 3289.83 70.78 3.00 259.15 2034.99
   14:00:32.523.08-Nov-2020 3585.71 3289.81 70.78 3.00 259.35 2034.99
   14:00:32.723.08-Nov-2020 3585.71 3289.85 70.78 3.00 259.55 2034.99
   14:00:32.923.08-Nov-2020 3585.71 3289.84 70.78 3.00 259.75 2034.99
   14:00:33.123.08-Nov-2020 3585.71 3289.84 70.78 3.00 259.95 2034.99
   14:00:33.323.08-Nov-2020 3585.71 3289.86 70.78 3.00 260.15 2034.99
   14:00:33.522.08-Nov-2020 3585.71 3289.86 70.77 3.00 260.35 2034.99
   14:00:33.722.08-Nov-2020 3585.71 3289.88 70.77 3.00 260.55 2034.99
   14:00:33.922.08-Nov-2020 3585.71 3289.89 70.77 3.00 260.75 2034.99
   14:00:34.122.08-Nov-2020 3585.71 3289.89 70.77 3.00 260.95 2034.99
   14:00:34.322.08-Nov-2020 3585.71 3289.85 70.77 3.00 261.15 2034.99
   14:00:34.521.08-Nov-2020 3585.71 3290.12 70.77 3.00 261.35 2034.99
   14:00:34.721.08-Nov-2020 3585.71 3290.11 70.77 3.00 261.55 2034.99
   14:00:34.921.08-Nov-2020 3585.71 3290.04 70.77 3.00 261.75 2034.99
   14:00:35.121.08-Nov-2020 3585.71 3290.08 70.77 3.00 261.95 2034.99
   14:00:35.321.08-Nov-2020 3585.71 3290.08 70.77 3.00 262.15 2034.99
   14:00:35.520.08-Nov-2020 3585.71 3290.07 70.76 3.00 262.35 2034.99
   14:00:35.720.08-Nov-2020 3585.71 3290.09 70.76 3.00 262.55 2034.99
   14:00:35.920.08-Nov-2020 3585.71 3290.08 70.76 3.00 262.75 2034.99
   14:00:36.120.08-Nov-2020 3585.71 3290.08 70.76 3.00 262.95 2034.99
   14:00:36.320.08-Nov-2020 3585.71 3290.08 70.76 3.00 263.15 2034.99
   14:00:36.519.08-Nov-2020 3585.71 3290.08 70.76 3.00 263.35 2034.99
   14:00:36.719.08-Nov-2020 3585.71 3290.02 70.76 3.00 263.55 2034.99
   14:00:36.919.08-Nov-2020 3585.71 3290.19 70.76 3.00 263.75 2034.99
   14:00:37.119.08-Nov-2020 3585.71 3290.19 70.76 3.00 263.95 2034.99
   14:00:37.319.08-Nov-2020 3585.71 3290.18 70.75 3.00 264.15 2034.99
   14:00:37.519.08-Nov-2020 3585.71 3290.23 70.75 3.00 264.35 2034.99
   14:00:37.718.08-Nov-2020 3585.71 3290.28 70.75 3.00 264.55 2034.99
   14:00:37.918.08-Nov-2020 3585.71 3291.82 70.75 3.00 264.74 2034.99
   14:00:38.118.08-Nov-2020 3585.71 3291.82 70.75 3.00 264.94 2034.99
   14:00:38.318.08-Nov-2020 3585.71 3292.53 70.75 3.00 265.14 2034.99
   14:00:38.518.08-Nov-2020 3585.71 3292.60 70.75 3.00 265.34 2034.99
   14:00:38.717.08-Nov-2020 3585.71 3292.59 70.75 3.00 265.54 2034.99
   14:00:38.917.08-Nov-2020 3585.71 3292.57 70.75 3.00 265.74 2034.99
   14:00:39.117.08-Nov-2020 3585.71 3292.57 70.75 3.00 265.94 2034.99
   14:00:39.317.08-Nov-2020 3585.71 3292.51 70.74 3.00 266.14 2034.99
   14:00:39.517.08-Nov-2020 3585.71 3292.63 70.74 3.00 266.34 2034.99
   14:00:39.716.08-Nov-2020 3585.71 3292.60 70.74 3.00 266.54 2034.99
   14:00:39.916.08-Nov-2020 3585.71 3292.60 70.74 3.00 266.74 2034.99
   14:00:40.116.08-Nov-2020 3585.71 3292.60 70.74 3.00 266.94 2034.99
   14:00:40.316.08-Nov-2020 3585.71 3292.53 70.74 3.00 267.14 2034.99
   14:00:40.516.08-Nov-2020 3585.71 3292.61 70.74 3.00 267.34 2034.99
   14:00:40.715.08-Nov-2020 3585.71 3292.62 70.74 3.00 267.54 2034.99
   14:00:40.915.08-Nov-2020 3585.71 3292.60 70.74 3.00 267.74 2034.99
   14:00:41.115.08-Nov-2020 3585.71 3292.60 70.74 3.00 267.94 2034.99
   14:00:41.315.08-Nov-2020 3585.71 3292.59 70.73 3.00 268.14 2034.99
   14:00:41.515.08-Nov-2020 3585.71 3292.58 70.73 3.00 268.34 2034.99
   14:00:41.714.08-Nov-2020 3585.71 3292.57 70.73 3.00 268.54 2034.99
   14:00:41.914.08-Nov-2020 3585.71 3292.57 70.73 3.00 268.74 2034.99
   14:00:42.114.08-Nov-2020 3585.71 3292.57 70.73 3.00 268.94 2034.99
   14:00:42.314.08-Nov-2020 3585.71 3292.55 70.73 3.00 269.14 2034.99
   14:00:42.514.08-Nov-2020 3585.71 3292.55 70.73 3.00 269.34 2034.99
   14:00:42.714.08-Nov-2020 3585.71 3292.54 70.73 3.00 269.54 2034.99
   14:00:42.913.08-Nov-2020 3585.71 3292.54 70.73 3.00 269.74 2034.99
   14:00:43.113.08-Nov-2020 3585.71 3292.48 70.72 3.00 269.94 2034.99
   14:00:43.313.08-Nov-2020 3585.71 3292.62 70.72 3.00 270.14 2034.99
   14:00:43.513.08-Nov-2020 3585.71 3292.59 70.72 3.00 270.34 2034.99
   14:00:43.713.08-Nov-2020 3585.71 3292.60 70.72 3.00 270.54 2034.99
   14:00:43.912.08-Nov-2020 3585.71 3292.59 70.72 3.00 270.74 2034.99
   14:00:44.112.08-Nov-2020 3585.71 3292.59 70.72 3.00 270.94 2034.99
   14:00:44.312.08-Nov-2020 3585.71 3292.57 70.72 3.00 271.14 2034.99
   14:00:44.512.08-Nov-2020 3585.71 3292.56 70.72 3.00 271.34 2034.99
   14:00:44.712.08-Nov-2020 3585.71 3292.55 70.72 3.00 271.54 2034.99
   14:00:44.911.08-Nov-2020 3585.71 3292.55 70.72 3.00 271.74 2034.99
   14:00:45.111.08-Nov-2020 3585.71 3292.55 70.72 3.00 271.94 2034.99
   14:00:45.311.08-Nov-2020 3585.71 3292.54 70.71 3.00 272.14 2034.99
   14:00:45.511.08-Nov-2020 3585.71 3292.53 70.71 3.00 272.34 2034.99
   14:00:45.711.08-Nov-2020 3585.71 3292.50 70.71 3.00 272.54 2034.99
   14:00:45.910.08-Nov-2020 3585.71 3292.59 70.71 3.00 272.74 2034.99
   14:00:46.110.08-Nov-2020 3585.71 3292.59 70.71 3.00 272.94 2034.99
   14:00:46.310.08-Nov-2020 3585.71 3292.52 70.71 3.00 273.14 2034.99
   14:00:46.510.08-Nov-2020 3585.71 3292.65 70.71 3.00 273.34 2034.99
   14:00:46.710.08-Nov-2020 3585.71 3292.60 70.71 3.00 273.54 2034.99
   14:00:46.909.08-Nov-2020 3585.71 3292.59 70.70 3.00 273.74 2034.99
   14:00:47.109.08-Nov-2020 3585.71 3292.58 70.70 3.00 273.94 2034.99
   14:00:47.309.08-Nov-2020 3585.71 3292.57 70.70 3.00 274.14 2034.99
   14:00:47.509.08-Nov-2020 3585.71 3292.62 70.70 3.00 274.34 2034.99
   14:00:47.709.08-Nov-2020 3585.71 3292.60 70.70 3.00 274.54 2034.99
   14:00:47.909.08-Nov-2020 3585.71 3292.60 70.70 3.00 274.74 2034.99
   14:00:48.108.08-Nov-2020 3585.71 3292.60 70.70 3.00 274.94 2034.99
   14:00:48.308.08-Nov-2020 3585.71 3292.60 70.70 3.00 275.13 2034.99
   14:00:48.508.08-Nov-2020 3585.71 3292.61 70.70 3.00 275.33 2034.99
   14:00:48.708.08-Nov-2020 3585.71 3292.61 70.70 3.00 275.53 2034.99
