~Version Information
 VERS.                  2.0:   CWLS log ASCII Standard -VERSION 2.0
 WRAP.                   NO:   One line per depth step
~Well Information Block
#MNEM.UNIT     VALUE/NAME     DESCRIPTION
#---------     -----------    ---------------------------
 STRT.S             18:53:27 10-Nov-20: START TIME 18:53:27 10-Nov-20
 STOP.S             19:00:00 10-Nov-20: STOP TIME  19:00:00 10-Nov-20
 STEP.S                   0.00: STEP TIME
 NULL.                 -999.25: NULL VALUE
 DFWT.                        :  DIST FWL TEXT
 DFST.                        :  DIST FSL TEXT
 DMF .             Drill Floor:  DRILL MEAS FROM
 STIM.      04.54.24 22-Sep-20:  START TIME
 DATE.      04.54.24 21-Nov-20:  END TIME
 SPUD.               21-Nov-20:  SPUD DATE
 NREF.                    Grid:  NORTH REFERENCE
 HPTY.       Minimum Curvature:  HOLE POS TYPE
 DMOD.             Drill Model:  DRILL MOD DESC
 SVYD.                  Survey:  SURVEY DESC
 ILTD.               Lithology:  INTERP LTH DESC
 FTOP.          Formation Tops:  FORM TOPS DESC
 SON .        AZ-XX-0906571587:  JOB NUMBER
 COMP.     BP Exploration (Caspian Sea) Ltd:  COMPANY
 UWI .                     N/A:  UNIQUE WELL IDENTIFIER
 API .                     N/A:  API NUMBER
 BASE.              Azerbaijan:  LOGGING EQUIPMENT BASE LOCATION
 REGN.                   EESSA:  REGION
 PROV.                    Baku:  PROVINCE
 STAT.                    Baku:  STATE NAME
 CTRY.              Azerbaijan:  COUNTRY NAME
 FLD .                     ACG:  FIELD NAME
 SRVC.     TURAN Drilling & Engineering:  CONTRACTOR
 WELL.                     J27:  WELL NAME
 RIG .             West Chirag:  RIG NAME
 DOE .                     N/A:  DOE NUMBER
 DCON.         Sperry Drilling:  DIRECTNL CONTR
 PDAT.          Mean Sea Level:  PERMANENT DATUM
 WTYP.                Deviated:  WELL TYPE
 MWDS.                    Baku:  MWD SHOP
 JOBN.        AZ-XX-0906571587:  JOB TICKET NUMB
 UNIT.                     N/A:  LOGGING EQUIPMENT ID
 MDS .        Operator Entered:  MAG DATA SOURCE
 CNTY.                        :  COUNTY
 LOC .                        :  LOCATION
 LMF .             Drill Floor:  LOG MEASURED FROM
 TVDS.m                  43.00:  TVDSS CORRECTN
 LATI.deg                40.13:  LATITUDE
 LONG.deg                51.22:  LONGITUDE
 WHNS.m                   7.72:  WELL HEAD N/S
 WHEW.m                 -14.24:  WELL HEAD E/W
 UTMX.m              519005.06:  UTM X
 UTMY.m             4443793.85:  UTM Y
 DFWL.m                   0.00:  DISTANCE FWL
 DFSL.m                   0.00:  DISTANCE FSL
 SDEP.m                 347.00:  START DEPTH
 TDD .m                 581.00:  TOTAL DEPTH (DRILLER)
 VSDR.deg               159.72:  VERT SEC DIRECT
 GVFD.g                   1.00:  GRAVITY FIELD
 MFLD.nT              50313.00:  MAGNETIC FIELD
 MDIP.deg                59.58:  MAGNETIC DIP
 MDEC.deg                 6.45:  MAGNETIC DECL
 GRDC.deg                 0.15:  GRID CORRECTION
 AZTC.deg                 6.30:  AZM TOTAL CORR
 EPD .m                   0.00:  ELEVATION
 EGL .m                   0.00:  GROUND ELEVATION
 WDMS.m                 169.80:  WD ELEV
 APD .m                  43.00:  DEPTH ABOVE PD
 AGAP.m                  43.00:  AIR GAP
 VSEW.m                 -14.24:  VERT SEC E/W
 VSNS.m                   7.72:  VERT SEC N/S
 DEP .m                 342.45:  DEPTH
 EKB .m                   0.00:  KB ELEVATION
 EDF .m                  43.00:  DF ELEVATION
 TDL .m                1313.00:  TOTAL DEPTH (LOGGER)
 VSC .                       0:  VS TO CLOSURE
 MAGU.                 1851396:  MAGUTM CHECKSUM
~Parameter Information Block
#MNEM.UNIT       Value        Description
#---------     -----------    ---------------------------
 AV  .mps                 0.65:  Ann Velocity 
 AVMX.mps                 0.75:  Max Ann Veloc 
 AZIF.deg               115.08:  Azm, Final 
 BHAT.        Rotary Steerable:  BHA Type 
 BROT.°/30m               1.50:  Build Rotating 
 BS  .in                 12.25:  Bit Size 
 BSZ .in                 12.25:  Bit Size 
 BTPL.psig              700.00:  Bit Press Loss 
 CABU.                     Yes:  Customer Abuse 
 COMM.                     ”Ú:  Run Comments 1 
 TCS .hr                121.00:  Time Ciculation Ended 
 CV  .mps                 1.83:  Crit Velocity 
 CVMX.mps                 1.83:  Max Crit Veloc 
 DD1 .          Rashad Habibov:  Direct Drillr 1 
 DD2 .         Rasim Ibrahimov:  Direct Drillr 2 
 DDSV.                 iCruise:  DD Service 
 DEFF.%                 100.00:  % Det Eff 
 DLRX.°/30m               3.60:  Dogleg Rot Max 
 DLSO.°/30m               3.10:  Dogleg Oriented 
 DLSX.°/30m               3.60:  Dogleg Str Max 
 DRET.      13.41.20 12-Nov-20:  Drill End Time 
 DRST.      13.41.20 07-Nov-20:  Drill Start Tim 
 DTIM.hr                 54.16:  Time Drilling 
 EDEP.m                4762.01:  End Depth 
 ENG1.           Amrah Tahirov:  Engineer 1 
 ENG2.      Bakhtiyar Jabbarli:  Engineer 2 
 ENG3.          Ruslan Safarov:  Engineer 3 
 ETIM.      13.41.20 14-Nov-20:  End Time 
 FLOI.gpm              1200.00:  Flow In 
 FLON.gpm              1100.00:  Flow In Min 
 FLOS.cptm                0.00:  Fluid Loss 
 FLOX.gpm              1200.00:  Flow In Max 
 HFLO.                      No:  High Flow 
 HPRE.                      No:  High Pressure 
 HTEM.                      No:  High Temp 
 HYDO.m                   2.00:  Hydro Offset 
 IFIN.deg                66.14:  Inc, Final 
 IMAX.deg                69.03:  Inc Max 
 IMIN.deg                64.64:  Inc Min 
 IMND.m                4450.16:  Inc Min Depth 
 IMXD.m                3996.00:  Inc Max Depth 
 JARR.                     Yes:  Jarring 
 LETM.      13.41.20 14-Nov-20:  Log End Time 
 LOST.hr                     0:  Lost Rig Time 
 LSTM.      13.41.20 06-Nov-20:  Log Start Time 
 MDCL.ppm             42500.00:  Mud Chlorides 
 MDES.     Inversion Oil/Synthetic:  Mud Desc 
 DFD .sg                  1.45:  Mud Density 
 MDMN.sg                  1.45:  Dens Mud Min 
 MDMX.sg                  1.45:  Dens Mud Max 
 MOIL.                      70:  Run Mud Oil % 
 MOWR.                   70:30:  Run Mud OWR 
 MSND.                       0:  Run Mud Sand % 
 MSOL.                    19.3:  Run Mud Solids% 
 DFV .spqt               77.00:  Mud Viscosity 
 MWOD.in                  8.00:  MWD Tool OD 
 MWSI.                      No:  Serv Intrp, MWD 
 OTIM.hr                201.88:  Time Operating 
 PCON.           Look Like New:  Pad Condition 
 PMAX.psia             9250.94:  Press Op, Max 
 PV  .cP                 29.00:  Mud PV 
 RUN .                     800:  Run Number 
 ROPA.m/hr               28.00:  ROP Avg 
 ROPN.m/hr               25.00:  ROP Min 
 ROPX.m/hr               30.00:  ROP Max 
 RPMA.rpm               160.00:  RPM Surface Avg 
 RPMN.rpm               160.00:  RPM Surface Min 
 RPMX.rpm               160.00:  RPM Surface Max 
 RRUN.                    0800:  Rig Run Number 
 RTIM.hr                 12.00:  Time Reaming 
 SAZI.deg               169.33:  Azm, Start 
 SDEP.m                3449.01:  Start Depth 
 SIDD.                      No:  Serv Intrp, DD 
 SINC.deg                68.01:  Inc, Start 
 SPPA.psig             4900.00:  SPP Avg 
 SPPN.psig             4800.00:  SPP Min 
 SPPX.psig             5050.00:  SPP Max 
 STIM.      13.41.20 06-Nov-20:  Start Time 
 SVCS.                 DD, MWD:  Services 
 SVER.                    9.20:  Sperry Version 
 TDAT.m                4762.01:  Tot Depth Attmp 
 TDDF.                      No:  Trip for DD 
 TDLG.m                1313.00:  Tot Depth Loggd 
 TFF .                      No:  Trip for Fail 
 TQAA.f-kp               13.00:  Torque Abs Avg 
 TQAN.f-kp               13.00:  Torque Abs Min 
 TQAX.f-kp               13.00:  Torque Abs Max 
 TRRT.°/30m               1.70:  Turn Rotating 
 MRT .                  EWR-M5:  Maximum Recorded Temperature 
 TTMX.degC               86.00:  Max Tool Temp 
 VS01.                90622122:  Virtual Str1 SN 
 VS02.                90577298:  Virtual Str2 SN 
 VS03.                90563623:  Virtual Str3 SN 
 VS04.                90617559:  Virtual Str4 SN 
 VS05.                11339492:  Virtual Str5 SN 
 VS06.                12385033:  Virtual Str6 SN 
 WBMN.klb                 0.00:  WOB Min 
 WOBA.klb                22.00:  WOB Avg 
 WOBX.klb                26.00:  WOB Max 
 YP  .lhf2               30.00:  Yield Point 
~Curve Information Block
#MNEM.UNIT                 API CODE     Curve Description
#---------               -----------    ---------------------------
 TIME.HHMMSS            00 000 000 000:  GT Time & Date
 GTDEPTH.m              00 000 000 000:  GT Depth
 GTPQH.psia             00 000 000 000:  GT HR Quartz Pressure
 GTTQ.degC              00 000 000 000:  GT Quartz Temperature
 GTTN.NONE              00 000 000 000:  GT Test Number
 GTET.sec               00 000 000 000:  GT Elapsed Test Time
 GTTVD.m                00 000 000 000:  GT True Vertical Depth
#Other Information
#
#WARRANTY: Halliburton will use its best efforts to furnish customers with 
#accurate information and interpretations that are part of, and incident to, the services 
#provided.  However, Halliburton cannot and does not warrant the accuracy 
#or correctness of such information and interpretations.  Under no circumstances should any 
#such information or interpretation be relied upon as the sole basis for any drilling, 
#completion, production, or financial decision or any procedure involving any risk to the 
#safety of any drilling venture, drilling rig or its crew or any other third party.  The 
#Customer has full responsibility for all drilling, completion and production operation.  
#Halliburton makes no representations or warranties, either expressed or 
#implied, including, but not limited to, the implied warranties of merchantability or fitness 
#for a particular purpose, with respect to the services rendered.  In no event will 
#Halliburton be liable for failure to obtain any particular results or for 
#any damages, including, but not limited to, indirect, special or consequential damages, 
#resulting from the use of any information or interpretation provided by Halliburton.
#
~A           TIME           GTDEPTH  GTPQH  GTTQ  GTTN  GTET   GTTVD  
# ...
   18:55:22.528.10-Nov-2020 4475.51 4015.96 80.46 5.00 115.03 2369.25
   18:55:22.728.10-Nov-2020 4475.51 4015.96 80.46 5.00 115.23 2369.25
   18:55:22.928.10-Nov-2020 4475.51 4016.72 80.46 5.00 115.43 2369.25
   18:55:23.128.10-Nov-2020 4475.51 4016.21 80.46 5.00 115.63 2369.25
   18:55:23.328.10-Nov-2020 4475.51 4016.12 80.46 5.00 115.83 2369.25
   18:55:23.528.10-Nov-2020 4475.51 4016.36 80.45 5.00 116.03 2369.25
   18:55:23.728.10-Nov-2020 4475.51 4016.36 80.45 5.00 116.23 2369.25
   18:55:23.928.10-Nov-2020 4475.51 4016.15 80.45 5.00 116.43 2369.25
   18:55:24.128.10-Nov-2020 4475.51 4016.12 80.45 5.00 116.63 2369.25
   18:55:24.328.10-Nov-2020 4475.51 4016.26 80.45 5.00 116.83 2369.25
   18:55:24.528.10-Nov-2020 4475.51 4016.15 80.45 5.00 117.03 2369.25
   18:55:24.728.10-Nov-2020 4475.51 4016.15 80.45 5.00 117.23 2369.25
   18:55:24.928.10-Nov-2020 4475.51 4016.20 80.45 5.00 117.43 2369.25
   18:55:25.128.10-Nov-2020 4475.51 4016.19 80.45 5.00 117.63 2369.25
   18:55:25.328.10-Nov-2020 4475.51 4016.21 80.45 5.00 117.83 2369.25
   18:55:25.528.10-Nov-2020 4475.51 4016.24 80.45 5.00 118.03 2369.25
   18:55:25.728.10-Nov-2020 4475.51 4016.24 80.45 5.00 118.23 2369.25
   18:55:25.928.10-Nov-2020 4475.51 4016.24 80.45 5.00 118.43 2369.25
   18:55:26.129.10-Nov-2020 4475.51 4016.25 80.45 5.00 118.63 2369.25
   18:55:26.329.10-Nov-2020 4475.51 4016.24 80.45 5.00 118.83 2369.25
   18:55:26.529.10-Nov-2020 4475.51 4016.38 80.45 5.00 119.03 2369.25
   18:55:26.729.10-Nov-2020 4475.51 4016.38 80.45 5.00 119.23 2369.25
   18:55:26.929.10-Nov-2020 4475.51 4016.33 80.45 5.00 119.43 2369.25
   18:55:27.129.10-Nov-2020 4475.51 4016.16 80.45 5.00 119.63 2369.25
   18:55:27.329.10-Nov-2020 4475.51 4016.28 80.45 5.00 119.83 2369.25
   18:55:27.529.10-Nov-2020 4475.51 4016.22 80.44 5.00 120.03 2369.25
   18:55:27.729.10-Nov-2020 4475.51 4016.22 80.44 5.00 120.23 2369.25
   18:55:27.929.10-Nov-2020 4475.51 4016.32 80.44 5.00 120.43 2369.25
   18:55:28.129.10-Nov-2020 4475.51 4016.37 80.44 5.00 120.63 2369.25
   18:55:28.329.10-Nov-2020 4475.51 4016.30 80.44 5.00 120.83 2369.25
   18:55:28.529.10-Nov-2020 4475.51 4016.28 80.44 5.00 121.03 2369.25
   18:55:28.729.10-Nov-2020 4475.51 4016.28 80.44 5.00 121.23 2369.25
   18:55:28.929.10-Nov-2020 4475.51 4016.30 80.44 5.00 121.43 2369.25
   18:55:29.129.10-Nov-2020 4475.51 4016.59 80.44 5.00 121.63 2369.25
   18:55:29.329.10-Nov-2020 4475.51 4016.42 80.44 5.00 121.83 2369.25
   18:55:29.529.10-Nov-2020 4475.51 4016.48 80.44 5.00 122.03 2369.25
   18:55:29.730.10-Nov-2020 4475.51 4016.45 80.44 5.00 122.23 2369.25
   18:55:29.930.10-Nov-2020 4475.51 4016.35 80.44 5.00 122.43 2369.25
   18:55:30.130.10-Nov-2020 4475.51 4016.25 80.44 5.00 122.63 2369.25
   18:55:30.330.10-Nov-2020 4475.51 4016.36 80.44 5.00 122.83 2369.25
   18:55:30.530.10-Nov-2020 4475.51 4016.32 80.44 5.00 123.03 2369.25
   18:55:30.730.10-Nov-2020 4475.51 4016.32 80.44 5.00 123.23 2369.25
   18:55:30.930.10-Nov-2020 4475.51 4016.60 80.44 5.00 123.43 2369.25
   18:55:31.130.10-Nov-2020 4475.51 4016.38 80.44 5.00 123.63 2369.25
   18:55:31.330.10-Nov-2020 4475.51 4016.60 80.44 5.00 123.83 2369.25
   18:55:31.530.10-Nov-2020 4475.51 4016.68 80.43 5.00 124.03 2369.25
   18:55:31.730.10-Nov-2020 4475.51 4016.68 80.43 5.00 124.23 2369.25
   18:55:31.930.10-Nov-2020 4475.51 4016.54 80.43 5.00 124.43 2369.25
   18:55:32.130.10-Nov-2020 4475.51 4016.63 80.43 5.00 124.63 2369.25
   18:55:32.330.10-Nov-2020 4475.51 4016.85 80.43 5.00 124.83 2369.25
   18:55:32.530.10-Nov-2020 4475.51 4016.52 80.43 5.00 125.03 2369.25
   18:55:32.730.10-Nov-2020 4475.51 4016.52 80.43 5.00 125.23 2369.25
   18:55:32.930.10-Nov-2020 4475.51 4016.44 80.43 5.00 125.43 2369.25
   18:55:33.130.10-Nov-2020 4475.51 4016.44 80.43 5.00 125.63 2369.25
   18:55:33.331.10-Nov-2020 4475.51 4016.47 80.43 5.00 125.83 2369.25
   18:55:33.531.10-Nov-2020 4475.51 4016.40 80.43 5.00 126.03 2369.25
   18:55:33.731.10-Nov-2020 4475.51 4016.52 80.43 5.00 126.23 2369.25
   18:55:33.931.10-Nov-2020 4475.51 4016.51 80.43 5.00 126.44 2369.25
   18:55:34.131.10-Nov-2020 4475.51 4016.45 80.43 5.00 126.64 2369.25
   18:55:34.331.10-Nov-2020 4475.51 4016.47 80.43 5.00 126.84 2369.25
   18:55:34.531.10-Nov-2020 4475.51 4016.51 80.43 5.00 127.04 2369.25
   18:55:34.731.10-Nov-2020 4475.51 4016.51 80.43 5.00 127.24 2369.25
   18:55:34.931.10-Nov-2020 4475.51 4016.60 80.43 5.00 127.44 2369.25
   18:55:35.131.10-Nov-2020 4475.51 4016.64 80.43 5.00 127.64 2369.25
   18:55:35.331.10-Nov-2020 4475.51 4016.42 80.43 5.00 127.84 2369.25
   18:55:35.531.10-Nov-2020 4475.51 4016.50 80.42 5.00 128.04 2369.25
   18:55:35.731.10-Nov-2020 4475.51 4016.50 80.42 5.00 128.24 2369.25
   18:55:35.931.10-Nov-2020 4475.51 4016.44 80.42 5.00 128.44 2369.25
   18:55:36.131.10-Nov-2020 4475.51 4016.45 80.42 5.00 128.64 2369.25
   18:55:36.331.10-Nov-2020 4475.51 4016.54 80.42 5.00 128.84 2369.25
   18:55:36.531.10-Nov-2020 4475.51 4016.49 80.42 5.00 129.04 2369.25
   18:55:36.731.10-Nov-2020 4475.51 4016.49 80.42 5.00 129.24 2369.25
   18:55:36.932.10-Nov-2020 4475.51 4016.55 80.42 5.00 129.44 2369.25
   18:55:37.132.10-Nov-2020 4475.51 4016.54 80.42 5.00 129.64 2369.25
   18:55:37.332.10-Nov-2020 4475.51 4016.58 80.42 5.00 129.84 2369.25
   18:55:37.532.10-Nov-2020 4475.51 4016.74 80.42 5.00 130.04 2369.25
   18:55:37.732.10-Nov-2020 4475.51 4016.68 80.42 5.00 130.24 2369.25
   18:55:37.932.10-Nov-2020 4475.51 4016.51 80.42 5.00 130.44 2369.25
   18:55:38.132.10-Nov-2020 4475.51 4016.55 80.42 5.00 130.64 2369.25
   18:55:38.332.10-Nov-2020 4475.51 4016.93 80.42 5.00 130.84 2369.25
   18:55:38.532.10-Nov-2020 4475.51 4016.57 80.42 5.00 131.04 2369.25
   18:55:38.732.10-Nov-2020 4475.51 4016.57 80.42 5.00 131.24 2369.25
   18:55:38.932.10-Nov-2020 4475.51 4016.61 80.42 5.00 131.44 2369.25
   18:55:39.132.10-Nov-2020 4475.51 4016.44 80.42 5.00 131.64 2369.25
   18:55:39.332.10-Nov-2020 4475.51 4016.89 80.42 5.00 131.84 2369.25
   18:55:39.532.10-Nov-2020 4475.51 4016.66 80.41 5.00 132.04 2369.25
   18:55:39.732.10-Nov-2020 4475.51 4016.66 80.41 5.00 132.24 2369.25
   18:55:39.932.10-Nov-2020 4475.51 4016.89 80.41 5.00 132.44 2369.25
   18:55:40.132.10-Nov-2020 4475.51 4016.60 80.41 5.00 132.64 2369.25
   18:55:40.332.10-Nov-2020 4475.51 4016.66 80.41 5.00 132.84 2369.25
   18:55:40.533.10-Nov-2020 4475.51 4017.01 80.41 5.00 133.04 2369.25
   18:55:40.733.10-Nov-2020 4475.51 4017.01 80.41 5.00 133.24 2369.25
   18:55:40.933.10-Nov-2020 4475.51 4016.72 80.41 5.00 133.44 2369.25
   18:55:41.133.10-Nov-2020 4475.51 4016.58 80.41 5.00 133.64 2369.25
   18:55:41.333.10-Nov-2020 4475.51 4016.75 80.41 5.00 133.84 2369.25
   18:55:41.533.10-Nov-2020 4475.51 4016.71 80.41 5.00 134.04 2369.25
   18:55:41.733.10-Nov-2020 4475.51 4016.71 80.41 5.00 134.24 2369.25
   18:55:41.933.10-Nov-2020 4475.51 4016.69 80.41 5.00 134.44 2369.25
   18:55:42.133.10-Nov-2020 4475.51 4016.84 80.41 5.00 134.64 2369.25
   18:55:42.333.10-Nov-2020 4475.51 4016.77 80.41 5.00 134.84 2369.25
   18:55:42.533.10-Nov-2020 4475.51 4016.77 80.41 5.00 135.04 2369.25
   18:55:42.733.10-Nov-2020 4475.51 4016.77 80.41 5.00 135.24 2369.25
   18:55:42.933.10-Nov-2020 4475.51 4016.78 80.41 5.00 135.44 2369.25
   18:55:43.133.10-Nov-2020 4475.51 4016.78 80.41 5.00 135.64 2369.25
   18:55:43.333.10-Nov-2020 4475.51 4016.98 80.41 5.00 135.84 2369.25
   18:55:43.533.10-Nov-2020 4475.51 4016.95 80.40 5.00 136.04 2369.25
   18:55:43.733.10-Nov-2020 4475.51 4016.95 80.40 5.00 136.24 2369.25
   18:55:43.933.10-Nov-2020 4475.51 4016.86 80.40 5.00 136.44 2369.25
   18:55:44.134.10-Nov-2020 4475.51 4016.88 80.40 5.00 136.64 2369.25
   18:55:44.334.10-Nov-2020 4475.51 4016.77 80.40 5.00 136.84 2369.25
   18:55:44.534.10-Nov-2020 4475.51 4016.83 80.40 5.00 137.04 2369.25
   18:55:44.734.10-Nov-2020 4475.51 4016.83 80.40 5.00 137.24 2369.25
   18:55:44.934.10-Nov-2020 4475.51 4016.79 80.40 5.00 137.44 2369.25
   18:55:45.134.10-Nov-2020 4475.51 4016.89 80.40 5.00 137.64 2369.25
   18:55:45.334.10-Nov-2020 4475.51 4016.92 80.40 5.00 137.84 2369.25
