~Version Information
 VERS.                  2.0:   CWLS log ASCII Standard -VERSION 2.0
 WRAP.                   NO:   One line per depth step
~Well Information Block
#MNEM.UNIT     VALUE/NAME     DESCRIPTION
#---------     -----------    ---------------------------
 STRT.S             18:53:27 10-Nov-20: START TIME 18:53:27 10-Nov-20
 STOP.S             19:00:00 10-Nov-20: STOP TIME  19:00:00 10-Nov-20
 STEP.S                   0.00: STEP TIME
 NULL.                 -999.25: NULL VALUE
 DFWT.                        :  DIST FWL TEXT
 DFST.                        :  DIST FSL TEXT
 DMF .             Drill Floor:  DRILL MEAS FROM
 STIM.      04.54.24 22-Sep-20:  START TIME
 DATE.      04.54.24 21-Nov-20:  END TIME
 SPUD.               21-Nov-20:  SPUD DATE
 NREF.                    Grid:  NORTH REFERENCE
 HPTY.       Minimum Curvature:  HOLE POS TYPE
 DMOD.             Drill Model:  DRILL MOD DESC
 SVYD.                  Survey:  SURVEY DESC
 ILTD.               Lithology:  INTERP LTH DESC
 FTOP.          Formation Tops:  FORM TOPS DESC
 SON .        AZ-XX-0906571587:  JOB NUMBER
 COMP.     BP Exploration (Caspian Sea) Ltd:  COMPANY
 UWI .                     N/A:  UNIQUE WELL IDENTIFIER
 API .                     N/A:  API NUMBER
 BASE.              Azerbaijan:  LOGGING EQUIPMENT BASE LOCATION
 REGN.                   EESSA:  REGION
 PROV.                    Baku:  PROVINCE
 STAT.                    Baku:  STATE NAME
 CTRY.              Azerbaijan:  COUNTRY NAME
 FLD .                     ACG:  FIELD NAME
 SRVC.     TURAN Drilling & Engineering:  CONTRACTOR
 WELL.                     J27:  WELL NAME
 RIG .             West Chirag:  RIG NAME
 DOE .                     N/A:  DOE NUMBER
 DCON.         Sperry Drilling:  DIRECTNL CONTR
 PDAT.          Mean Sea Level:  PERMANENT DATUM
 WTYP.                Deviated:  WELL TYPE
 MWDS.                    Baku:  MWD SHOP
 JOBN.        AZ-XX-0906571587:  JOB TICKET NUMB
 UNIT.                     N/A:  LOGGING EQUIPMENT ID
 MDS .        Operator Entered:  MAG DATA SOURCE
 CNTY.                        :  COUNTY
 LOC .                        :  LOCATION
 LMF .             Drill Floor:  LOG MEASURED FROM
 TVDS.m                  43.00:  TVDSS CORRECTN
 LATI.deg                40.13:  LATITUDE
 LONG.deg                51.22:  LONGITUDE
 WHNS.m                   7.72:  WELL HEAD N/S
 WHEW.m                 -14.24:  WELL HEAD E/W
 UTMX.m              519005.06:  UTM X
 UTMY.m             4443793.85:  UTM Y
 DFWL.m                   0.00:  DISTANCE FWL
 DFSL.m                   0.00:  DISTANCE FSL
 SDEP.m                 347.00:  START DEPTH
 TDD .m                 581.00:  TOTAL DEPTH (DRILLER)
 VSDR.deg               159.72:  VERT SEC DIRECT
 GVFD.g                   1.00:  GRAVITY FIELD
 MFLD.nT              50313.00:  MAGNETIC FIELD
 MDIP.deg                59.58:  MAGNETIC DIP
 MDEC.deg                 6.45:  MAGNETIC DECL
 GRDC.deg                 0.15:  GRID CORRECTION
 AZTC.deg                 6.30:  AZM TOTAL CORR
 EPD .m                   0.00:  ELEVATION
 EGL .m                   0.00:  GROUND ELEVATION
 WDMS.m                 169.80:  WD ELEV
 APD .m                  43.00:  DEPTH ABOVE PD
 AGAP.m                  43.00:  AIR GAP
 VSEW.m                 -14.24:  VERT SEC E/W
 VSNS.m                   7.72:  VERT SEC N/S
 DEP .m                 342.45:  DEPTH
 EKB .m                   0.00:  KB ELEVATION
 EDF .m                  43.00:  DF ELEVATION
 TDL .m                1313.00:  TOTAL DEPTH (LOGGER)
 VSC .                       0:  VS TO CLOSURE
 MAGU.                 1851396:  MAGUTM CHECKSUM
~Parameter Information Block
#MNEM.UNIT       Value        Description
#---------     -----------    ---------------------------
 AV  .mps                 0.65:  Ann Velocity 
 AVMX.mps                 0.75:  Max Ann Veloc 
 AZIF.deg               115.08:  Azm, Final 
 BHAT.        Rotary Steerable:  BHA Type 
 BROT.°/30m               1.50:  Build Rotating 
 BS  .in                 12.25:  Bit Size 
 BSZ .in                 12.25:  Bit Size 
 BTPL.psig              700.00:  Bit Press Loss 
 CABU.                     Yes:  Customer Abuse 
 COMM.                     ”Ú:  Run Comments 1 
 TCS .hr                121.00:  Time Ciculation Ended 
 CV  .mps                 1.83:  Crit Velocity 
 CVMX.mps                 1.83:  Max Crit Veloc 
 DD1 .          Rashad Habibov:  Direct Drillr 1 
 DD2 .         Rasim Ibrahimov:  Direct Drillr 2 
 DDSV.                 iCruise:  DD Service 
 DEFF.%                 100.00:  % Det Eff 
 DLRX.°/30m               3.60:  Dogleg Rot Max 
 DLSO.°/30m               3.10:  Dogleg Oriented 
 DLSX.°/30m               3.60:  Dogleg Str Max 
 DRET.      13.41.20 12-Nov-20:  Drill End Time 
 DRST.      13.41.20 07-Nov-20:  Drill Start Tim 
 DTIM.hr                 54.16:  Time Drilling 
 EDEP.m                4762.01:  End Depth 
 ENG1.           Amrah Tahirov:  Engineer 1 
 ENG2.      Bakhtiyar Jabbarli:  Engineer 2 
 ENG3.          Ruslan Safarov:  Engineer 3 
 ETIM.      13.41.20 14-Nov-20:  End Time 
 FLOI.gpm              1200.00:  Flow In 
 FLON.gpm              1100.00:  Flow In Min 
 FLOS.cptm                0.00:  Fluid Loss 
 FLOX.gpm              1200.00:  Flow In Max 
 HFLO.                      No:  High Flow 
 HPRE.                      No:  High Pressure 
 HTEM.                      No:  High Temp 
 HYDO.m                   2.00:  Hydro Offset 
 IFIN.deg                66.14:  Inc, Final 
 IMAX.deg                69.03:  Inc Max 
 IMIN.deg                64.64:  Inc Min 
 IMND.m                4450.16:  Inc Min Depth 
 IMXD.m                3996.00:  Inc Max Depth 
 JARR.                     Yes:  Jarring 
 LETM.      13.41.20 14-Nov-20:  Log End Time 
 LOST.hr                     0:  Lost Rig Time 
 LSTM.      13.41.20 06-Nov-20:  Log Start Time 
 MDCL.ppm             42500.00:  Mud Chlorides 
 MDES.     Inversion Oil/Synthetic:  Mud Desc 
 DFD .sg                  1.45:  Mud Density 
 MDMN.sg                  1.45:  Dens Mud Min 
 MDMX.sg                  1.45:  Dens Mud Max 
 MOIL.                      70:  Run Mud Oil % 
 MOWR.                   70:30:  Run Mud OWR 
 MSND.                       0:  Run Mud Sand % 
 MSOL.                    19.3:  Run Mud Solids% 
 DFV .spqt               77.00:  Mud Viscosity 
 MWOD.in                  8.00:  MWD Tool OD 
 MWSI.                      No:  Serv Intrp, MWD 
 OTIM.hr                201.88:  Time Operating 
 PCON.           Look Like New:  Pad Condition 
 PMAX.psia             9250.94:  Press Op, Max 
 PV  .cP                 29.00:  Mud PV 
 RUN .                     800:  Run Number 
 ROPA.m/hr               28.00:  ROP Avg 
 ROPN.m/hr               25.00:  ROP Min 
 ROPX.m/hr               30.00:  ROP Max 
 RPMA.rpm               160.00:  RPM Surface Avg 
 RPMN.rpm               160.00:  RPM Surface Min 
 RPMX.rpm               160.00:  RPM Surface Max 
 RRUN.                    0800:  Rig Run Number 
 RTIM.hr                 12.00:  Time Reaming 
 SAZI.deg               169.33:  Azm, Start 
 SDEP.m                3449.01:  Start Depth 
 SIDD.                      No:  Serv Intrp, DD 
 SINC.deg                68.01:  Inc, Start 
 SPPA.psig             4900.00:  SPP Avg 
 SPPN.psig             4800.00:  SPP Min 
 SPPX.psig             5050.00:  SPP Max 
 STIM.      13.41.20 06-Nov-20:  Start Time 
 SVCS.                 DD, MWD:  Services 
 SVER.                    9.20:  Sperry Version 
 TDAT.m                4762.01:  Tot Depth Attmp 
 TDDF.                      No:  Trip for DD 
 TDLG.m                1313.00:  Tot Depth Loggd 
 TFF .                      No:  Trip for Fail 
 TQAA.f-kp               13.00:  Torque Abs Avg 
 TQAN.f-kp               13.00:  Torque Abs Min 
 TQAX.f-kp               13.00:  Torque Abs Max 
 TRRT.°/30m               1.70:  Turn Rotating 
 MRT .                  EWR-M5:  Maximum Recorded Temperature 
 TTMX.degC               86.00:  Max Tool Temp 
 VS01.                90622122:  Virtual Str1 SN 
 VS02.                90577298:  Virtual Str2 SN 
 VS03.                90563623:  Virtual Str3 SN 
 VS04.                90617559:  Virtual Str4 SN 
 VS05.                11339492:  Virtual Str5 SN 
 VS06.                12385033:  Virtual Str6 SN 
 WBMN.klb                 0.00:  WOB Min 
 WOBA.klb                22.00:  WOB Avg 
 WOBX.klb                26.00:  WOB Max 
 YP  .lhf2               30.00:  Yield Point 
~Curve Information Block
#MNEM.UNIT                 API CODE     Curve Description
#---------               -----------    ---------------------------
 TIME.HHMMSS            00 000 000 000:  GT Time & Date
 GTDEPTH.m              00 000 000 000:  GT Depth
 GTPQH.psia             00 000 000 000:  GT HR Quartz Pressure
 GTTQ.degC              00 000 000 000:  GT Quartz Temperature
 GTTN.NONE              00 000 000 000:  GT Test Number
 GTET.sec               00 000 000 000:  GT Elapsed Test Time
 GTTVD.m                00 000 000 000:  GT True Vertical Depth
#Other Information
#
#WARRANTY: Halliburton will use its best efforts to furnish customers with 
#accurate information and interpretations that are part of, and incident to, the services 
#provided.  However, Halliburton cannot and does not warrant the accuracy 
#or correctness of such information and interpretations.  Under no circumstances should any 
#such information or interpretation be relied upon as the sole basis for any drilling, 
#completion, production, or financial decision or any procedure involving any risk to the 
#safety of any drilling venture, drilling rig or its crew or any other third party.  The 
#Customer has full responsibility for all drilling, completion and production operation.  
#Halliburton makes no representations or warranties, either expressed or 
#implied, including, but not limited to, the implied warranties of merchantability or fitness 
#for a particular purpose, with respect to the services rendered.  In no event will 
#Halliburton be liable for failure to obtain any particular results or for 
#any damages, including, but not limited to, indirect, special or consequential damages, 
#resulting from the use of any information or interpretation provided by Halliburton.
#
~A           TIME           GTDEPTH  GTPQH  GTTQ  GTTN  GTET   GTTVD  
# ...
   18:54:59.521.10-Nov-2020 4475.51 4014.38 80.52 5.00  92.03 2369.25
   18:54:59.721.10-Nov-2020 4475.51 4014.38 80.52 5.00  92.23 2369.25
   18:54:59.921.10-Nov-2020 4475.51 4014.36 80.51 5.00  92.43 2369.25
   18:55:00.121.10-Nov-2020 4475.51 4014.47 80.51 5.00  92.63 2369.25
   18:55:00.321.10-Nov-2020 4475.51 4014.44 80.51 5.00  92.83 2369.25
   18:55:00.521.10-Nov-2020 4475.51 4014.48 80.51 5.00  93.03 2369.25
   18:55:00.722.10-Nov-2020 4475.51 4014.48 80.51 5.00  93.23 2369.25
   18:55:00.922.10-Nov-2020 4475.51 4014.50 80.51 5.00  93.43 2369.25
   18:55:01.122.10-Nov-2020 4475.51 4014.44 80.51 5.00  93.63 2369.25
   18:55:01.322.10-Nov-2020 4475.51 4014.90 80.51 5.00  93.83 2369.25
   18:55:01.522.10-Nov-2020 4475.51 4014.64 80.51 5.00  94.03 2369.25
   18:55:01.722.10-Nov-2020 4475.51 4014.57 80.51 5.00  94.23 2369.25
   18:55:01.922.10-Nov-2020 4475.51 4014.52 80.51 5.00  94.43 2369.25
   18:55:02.122.10-Nov-2020 4475.51 4014.65 80.51 5.00  94.63 2369.25
   18:55:02.322.10-Nov-2020 4475.51 4014.60 80.51 5.00  94.83 2369.25
   18:55:02.522.10-Nov-2020 4475.51 4014.56 80.51 5.00  95.03 2369.25
   18:55:02.722.10-Nov-2020 4475.51 4014.56 80.51 5.00  95.23 2369.25
   18:55:02.922.10-Nov-2020 4475.51 4014.67 80.51 5.00  95.43 2369.25
   18:55:03.122.10-Nov-2020 4475.51 4014.65 80.51 5.00  95.63 2369.25
   18:55:03.322.10-Nov-2020 4475.51 4014.69 80.51 5.00  95.83 2369.25
   18:55:03.522.10-Nov-2020 4475.51 4014.78 80.51 5.00  96.03 2369.25
   18:55:03.722.10-Nov-2020 4475.51 4014.78 80.51 5.00  96.23 2369.25
   18:55:03.922.10-Nov-2020 4475.51 4014.97 80.50 5.00  96.43 2369.25
   18:55:04.122.10-Nov-2020 4475.51 4014.80 80.50 5.00  96.63 2369.25
   18:55:04.323.10-Nov-2020 4475.51 4014.96 80.50 5.00  96.83 2369.25
   18:55:04.523.10-Nov-2020 4475.51 4015.07 80.50 5.00  97.03 2369.25
   18:55:04.723.10-Nov-2020 4475.51 4015.07 80.50 5.00  97.23 2369.25
   18:55:04.923.10-Nov-2020 4475.51 4014.86 80.50 5.00  97.43 2369.25
   18:55:05.123.10-Nov-2020 4475.51 4014.90 80.50 5.00  97.63 2369.25
   18:55:05.323.10-Nov-2020 4475.51 4014.73 80.50 5.00  97.83 2369.25
   18:55:05.523.10-Nov-2020 4475.51 4015.20 80.50 5.00  98.03 2369.25
   18:55:05.723.10-Nov-2020 4475.51 4015.00 80.50 5.00  98.23 2369.25
   18:55:05.923.10-Nov-2020 4475.51 4014.90 80.50 5.00  98.43 2369.25
   18:55:06.123.10-Nov-2020 4475.51 4015.24 80.50 5.00  98.63 2369.25
   18:55:06.323.10-Nov-2020 4475.51 4015.32 80.50 5.00  98.83 2369.25
   18:55:06.523.10-Nov-2020 4475.51 4015.14 80.50 5.00  99.03 2369.25
   18:55:06.723.10-Nov-2020 4475.51 4015.14 80.50 5.00  99.23 2369.25
   18:55:06.923.10-Nov-2020 4475.51 4015.30 80.50 5.00  99.43 2369.25
   18:55:07.123.10-Nov-2020 4475.51 4015.08 80.50 5.00  99.63 2369.25
   18:55:07.323.10-Nov-2020 4475.51 4014.92 80.50 5.00  99.83 2369.25
   18:55:07.523.10-Nov-2020 4475.51 4015.12 80.50 5.00 100.03 2369.25
   18:55:07.723.10-Nov-2020 4475.51 4015.12 80.50 5.00 100.23 2369.25
   18:55:07.924.10-Nov-2020 4475.51 4015.05 80.49 5.00 100.43 2369.25
   18:55:08.124.10-Nov-2020 4475.51 4015.11 80.49 5.00 100.63 2369.25
   18:55:08.324.10-Nov-2020 4475.51 4015.19 80.49 5.00 100.83 2369.25
   18:55:08.524.10-Nov-2020 4475.51 4015.17 80.49 5.00 101.03 2369.25
   18:55:08.724.10-Nov-2020 4475.51 4015.17 80.49 5.00 101.23 2369.25
   18:55:08.924.10-Nov-2020 4475.51 4015.26 80.49 5.00 101.43 2369.25
   18:55:09.124.10-Nov-2020 4475.51 4015.21 80.49 5.00 101.63 2369.25
   18:55:09.324.10-Nov-2020 4475.51 4015.25 80.49 5.00 101.83 2369.25
   18:55:09.524.10-Nov-2020 4475.51 4015.44 80.49 5.00 102.03 2369.25
   18:55:09.724.10-Nov-2020 4475.51 4015.42 80.49 5.00 102.23 2369.25
   18:55:09.924.10-Nov-2020 4475.51 4015.25 80.49 5.00 102.43 2369.25
   18:55:10.124.10-Nov-2020 4475.51 4015.33 80.49 5.00 102.63 2369.25
   18:55:10.324.10-Nov-2020 4475.51 4015.33 80.49 5.00 102.83 2369.25
   18:55:10.524.10-Nov-2020 4475.51 4015.24 80.49 5.00 103.03 2369.25
   18:55:10.724.10-Nov-2020 4475.51 4015.24 80.49 5.00 103.23 2369.25
   18:55:10.924.10-Nov-2020 4475.51 4015.31 80.49 5.00 103.43 2369.25
   18:55:11.124.10-Nov-2020 4475.51 4015.28 80.49 5.00 103.63 2369.25
   18:55:11.324.10-Nov-2020 4475.51 4015.37 80.49 5.00 103.83 2369.25
   18:55:11.525.10-Nov-2020 4475.51 4015.41 80.49 5.00 104.03 2369.25
   18:55:11.725.10-Nov-2020 4475.51 4015.41 80.49 5.00 104.23 2369.25
   18:55:11.925.10-Nov-2020 4475.51 4015.46 80.48 5.00 104.43 2369.25
   18:55:12.125.10-Nov-2020 4475.51 4015.46 80.48 5.00 104.63 2369.25
   18:55:12.325.10-Nov-2020 4475.51 4015.71 80.48 5.00 104.83 2369.25
   18:55:12.525.10-Nov-2020 4475.51 4015.50 80.48 5.00 105.03 2369.25
   18:55:12.725.10-Nov-2020 4475.51 4015.50 80.48 5.00 105.23 2369.25
   18:55:12.925.10-Nov-2020 4475.51 4015.76 80.48 5.00 105.43 2369.25
   18:55:13.125.10-Nov-2020 4475.51 4015.54 80.48 5.00 105.63 2369.25
   18:55:13.325.10-Nov-2020 4475.51 4015.42 80.48 5.00 105.83 2369.25
   18:55:13.525.10-Nov-2020 4475.51 4015.48 80.48 5.00 106.03 2369.25
   18:55:13.725.10-Nov-2020 4475.51 4015.65 80.48 5.00 106.23 2369.25
   18:55:13.925.10-Nov-2020 4475.51 4015.64 80.48 5.00 106.43 2369.25
   18:55:14.125.10-Nov-2020 4475.51 4015.47 80.48 5.00 106.63 2369.25
   18:55:14.325.10-Nov-2020 4475.51 4015.75 80.48 5.00 106.83 2369.25
   18:55:14.525.10-Nov-2020 4475.51 4015.90 80.48 5.00 107.03 2369.25
   18:55:14.725.10-Nov-2020 4475.51 4015.90 80.48 5.00 107.23 2369.25
   18:55:14.925.10-Nov-2020 4475.51 4015.63 80.48 5.00 107.43 2369.25
   18:55:15.126.10-Nov-2020 4475.51 4015.99 80.48 5.00 107.63 2369.25
   18:55:15.326.10-Nov-2020 4475.51 4015.78 80.48 5.00 107.83 2369.25
   18:55:15.526.10-Nov-2020 4475.51 4015.73 80.47 5.00 108.03 2369.25
   18:55:15.726.10-Nov-2020 4475.51 4015.73 80.47 5.00 108.23 2369.25
   18:55:15.926.10-Nov-2020 4475.51 4015.69 80.47 5.00 108.43 2369.25
   18:55:16.126.10-Nov-2020 4475.51 4015.68 80.47 5.00 108.63 2369.25
   18:55:16.326.10-Nov-2020 4475.51 4015.66 80.47 5.00 108.83 2369.25
   18:55:16.526.10-Nov-2020 4475.51 4015.73 80.47 5.00 109.03 2369.25
   18:55:16.726.10-Nov-2020 4475.51 4015.73 80.47 5.00 109.23 2369.25
   18:55:16.926.10-Nov-2020 4475.51 4015.76 80.47 5.00 109.43 2369.25
   18:55:17.126.10-Nov-2020 4475.51 4015.74 80.47 5.00 109.63 2369.25
   18:55:17.326.10-Nov-2020 4475.51 4015.83 80.47 5.00 109.83 2369.25
   18:55:17.526.10-Nov-2020 4475.51 4015.80 80.47 5.00 110.03 2369.25
   18:55:17.726.10-Nov-2020 4475.51 4015.79 80.47 5.00 110.23 2369.25
   18:55:17.926.10-Nov-2020 4475.51 4015.99 80.47 5.00 110.43 2369.25
   18:55:18.126.10-Nov-2020 4475.51 4016.00 80.47 5.00 110.63 2369.25
   18:55:18.326.10-Nov-2020 4475.51 4015.82 80.47 5.00 110.83 2369.25
   18:55:18.526.10-Nov-2020 4475.51 4015.86 80.47 5.00 111.03 2369.25
   18:55:18.726.10-Nov-2020 4475.51 4015.86 80.47 5.00 111.23 2369.25
   18:55:18.927.10-Nov-2020 4475.51 4015.75 80.47 5.00 111.43 2369.25
   18:55:19.127.10-Nov-2020 4475.51 4015.83 80.47 5.00 111.63 2369.25
   18:55:19.327.10-Nov-2020 4475.51 4015.84 80.47 5.00 111.83 2369.25
   18:55:19.527.10-Nov-2020 4475.51 4015.82 80.46 5.00 112.03 2369.25
   18:55:19.727.10-Nov-2020 4475.51 4015.82 80.46 5.00 112.23 2369.25
   18:55:19.927.10-Nov-2020 4475.51 4015.92 80.46 5.00 112.43 2369.25
   18:55:20.127.10-Nov-2020 4475.51 4015.92 80.46 5.00 112.63 2369.25
   18:55:20.327.10-Nov-2020 4475.51 4015.97 80.46 5.00 112.83 2369.25
   18:55:20.527.10-Nov-2020 4475.51 4015.98 80.46 5.00 113.03 2369.25
   18:55:20.727.10-Nov-2020 4475.51 4015.98 80.46 5.00 113.23 2369.25
   18:55:20.927.10-Nov-2020 4475.51 4016.03 80.46 5.00 113.43 2369.25
   18:55:21.127.10-Nov-2020 4475.51 4016.09 80.46 5.00 113.63 2369.25
   18:55:21.327.10-Nov-2020 4475.51 4016.25 80.46 5.00 113.83 2369.25
   18:55:21.527.10-Nov-2020 4475.51 4016.04 80.46 5.00 114.03 2369.25
   18:55:21.727.10-Nov-2020 4475.51 4015.87 80.46 5.00 114.23 2369.25
   18:55:21.927.10-Nov-2020 4475.51 4016.00 80.46 5.00 114.43 2369.25
   18:55:22.127.10-Nov-2020 4475.51 4016.13 80.46 5.00 114.63 2369.25
   18:55:22.327.10-Nov-2020 4475.51 4016.10 80.46 5.00 114.83 2369.25
