~Version Information
 VERS.                  2.0:   CWLS log ASCII Standard -VERSION 2.0
 WRAP.                   NO:   One line per depth step
~Well Information Block
#MNEM.UNIT     VALUE/NAME     DESCRIPTION
#---------     -----------    ---------------------------
 STRT.S             18:53:27 10-Nov-20: START TIME 18:53:27 10-Nov-20
 STOP.S             19:00:00 10-Nov-20: STOP TIME  19:00:00 10-Nov-20
 STEP.S                   0.00: STEP TIME
 NULL.                 -999.25: NULL VALUE
 DFWT.                        :  DIST FWL TEXT
 DFST.                        :  DIST FSL TEXT
 DMF .             Drill Floor:  DRILL MEAS FROM
 STIM.      04.54.24 22-Sep-20:  START TIME
 DATE.      04.54.24 21-Nov-20:  END TIME
 SPUD.               21-Nov-20:  SPUD DATE
 NREF.                    Grid:  NORTH REFERENCE
 HPTY.       Minimum Curvature:  HOLE POS TYPE
 DMOD.             Drill Model:  DRILL MOD DESC
 SVYD.                  Survey:  SURVEY DESC
 ILTD.               Lithology:  INTERP LTH DESC
 FTOP.          Formation Tops:  FORM TOPS DESC
 SON .        AZ-XX-0906571587:  JOB NUMBER
 COMP.     BP Exploration (Caspian Sea) Ltd:  COMPANY
 UWI .                     N/A:  UNIQUE WELL IDENTIFIER
 API .                     N/A:  API NUMBER
 BASE.              Azerbaijan:  LOGGING EQUIPMENT BASE LOCATION
 REGN.                   EESSA:  REGION
 PROV.                    Baku:  PROVINCE
 STAT.                    Baku:  STATE NAME
 CTRY.              Azerbaijan:  COUNTRY NAME
 FLD .                     ACG:  FIELD NAME
 SRVC.     TURAN Drilling & Engineering:  CONTRACTOR
 WELL.                     J27:  WELL NAME
 RIG .             West Chirag:  RIG NAME
 DOE .                     N/A:  DOE NUMBER
 DCON.         Sperry Drilling:  DIRECTNL CONTR
 PDAT.          Mean Sea Level:  PERMANENT DATUM
 WTYP.                Deviated:  WELL TYPE
 MWDS.                    Baku:  MWD SHOP
 JOBN.        AZ-XX-0906571587:  JOB TICKET NUMB
 UNIT.                     N/A:  LOGGING EQUIPMENT ID
 MDS .        Operator Entered:  MAG DATA SOURCE
 CNTY.                        :  COUNTY
 LOC .                        :  LOCATION
 LMF .             Drill Floor:  LOG MEASURED FROM
 TVDS.m                  43.00:  TVDSS CORRECTN
 LATI.deg                40.13:  LATITUDE
 LONG.deg                51.22:  LONGITUDE
 WHNS.m                   7.72:  WELL HEAD N/S
 WHEW.m                 -14.24:  WELL HEAD E/W
 UTMX.m              519005.06:  UTM X
 UTMY.m             4443793.85:  UTM Y
 DFWL.m                   0.00:  DISTANCE FWL
 DFSL.m                   0.00:  DISTANCE FSL
 SDEP.m                 347.00:  START DEPTH
 TDD .m                 581.00:  TOTAL DEPTH (DRILLER)
 VSDR.deg               159.72:  VERT SEC DIRECT
 GVFD.g                   1.00:  GRAVITY FIELD
 MFLD.nT              50313.00:  MAGNETIC FIELD
 MDIP.deg                59.58:  MAGNETIC DIP
 MDEC.deg                 6.45:  MAGNETIC DECL
 GRDC.deg                 0.15:  GRID CORRECTION
 AZTC.deg                 6.30:  AZM TOTAL CORR
 EPD .m                   0.00:  ELEVATION
 EGL .m                   0.00:  GROUND ELEVATION
 WDMS.m                 169.80:  WD ELEV
 APD .m                  43.00:  DEPTH ABOVE PD
 AGAP.m                  43.00:  AIR GAP
 VSEW.m                 -14.24:  VERT SEC E/W
 VSNS.m                   7.72:  VERT SEC N/S
 DEP .m                 342.45:  DEPTH
 EKB .m                   0.00:  KB ELEVATION
 EDF .m                  43.00:  DF ELEVATION
 TDL .m                1313.00:  TOTAL DEPTH (LOGGER)
 VSC .                       0:  VS TO CLOSURE
 MAGU.                 1851396:  MAGUTM CHECKSUM
~Parameter Information Block
#MNEM.UNIT       Value        Description
#---------     -----------    ---------------------------
 AV  .mps                 0.65:  Ann Velocity 
 AVMX.mps                 0.75:  Max Ann Veloc 
 AZIF.deg               115.08:  Azm, Final 
 BHAT.        Rotary Steerable:  BHA Type 
 BROT.°/30m               1.50:  Build Rotating 
 BS  .in                 12.25:  Bit Size 
 BSZ .in                 12.25:  Bit Size 
 BTPL.psig              700.00:  Bit Press Loss 
 CABU.                     Yes:  Customer Abuse 
 COMM.                     ”Ú:  Run Comments 1 
 TCS .hr                121.00:  Time Ciculation Ended 
 CV  .mps                 1.83:  Crit Velocity 
 CVMX.mps                 1.83:  Max Crit Veloc 
 DD1 .          Rashad Habibov:  Direct Drillr 1 
 DD2 .         Rasim Ibrahimov:  Direct Drillr 2 
 DDSV.                 iCruise:  DD Service 
 DEFF.%                 100.00:  % Det Eff 
 DLRX.°/30m               3.60:  Dogleg Rot Max 
 DLSO.°/30m               3.10:  Dogleg Oriented 
 DLSX.°/30m               3.60:  Dogleg Str Max 
 DRET.      13.41.20 12-Nov-20:  Drill End Time 
 DRST.      13.41.20 07-Nov-20:  Drill Start Tim 
 DTIM.hr                 54.16:  Time Drilling 
 EDEP.m                4762.01:  End Depth 
 ENG1.           Amrah Tahirov:  Engineer 1 
 ENG2.      Bakhtiyar Jabbarli:  Engineer 2 
 ENG3.          Ruslan Safarov:  Engineer 3 
 ETIM.      13.41.20 14-Nov-20:  End Time 
 FLOI.gpm              1200.00:  Flow In 
 FLON.gpm              1100.00:  Flow In Min 
 FLOS.cptm                0.00:  Fluid Loss 
 FLOX.gpm              1200.00:  Flow In Max 
 HFLO.                      No:  High Flow 
 HPRE.                      No:  High Pressure 
 HTEM.                      No:  High Temp 
 HYDO.m                   2.00:  Hydro Offset 
 IFIN.deg                66.14:  Inc, Final 
 IMAX.deg                69.03:  Inc Max 
 IMIN.deg                64.64:  Inc Min 
 IMND.m                4450.16:  Inc Min Depth 
 IMXD.m                3996.00:  Inc Max Depth 
 JARR.                     Yes:  Jarring 
 LETM.      13.41.20 14-Nov-20:  Log End Time 
 LOST.hr                     0:  Lost Rig Time 
 LSTM.      13.41.20 06-Nov-20:  Log Start Time 
 MDCL.ppm             42500.00:  Mud Chlorides 
 MDES.     Inversion Oil/Synthetic:  Mud Desc 
 DFD .sg                  1.45:  Mud Density 
 MDMN.sg                  1.45:  Dens Mud Min 
 MDMX.sg                  1.45:  Dens Mud Max 
 MOIL.                      70:  Run Mud Oil % 
 MOWR.                   70:30:  Run Mud OWR 
 MSND.                       0:  Run Mud Sand % 
 MSOL.                    19.3:  Run Mud Solids% 
 DFV .spqt               77.00:  Mud Viscosity 
 MWOD.in                  8.00:  MWD Tool OD 
 MWSI.                      No:  Serv Intrp, MWD 
 OTIM.hr                201.88:  Time Operating 
 PCON.           Look Like New:  Pad Condition 
 PMAX.psia             9250.94:  Press Op, Max 
 PV  .cP                 29.00:  Mud PV 
 RUN .                     800:  Run Number 
 ROPA.m/hr               28.00:  ROP Avg 
 ROPN.m/hr               25.00:  ROP Min 
 ROPX.m/hr               30.00:  ROP Max 
 RPMA.rpm               160.00:  RPM Surface Avg 
 RPMN.rpm               160.00:  RPM Surface Min 
 RPMX.rpm               160.00:  RPM Surface Max 
 RRUN.                    0800:  Rig Run Number 
 RTIM.hr                 12.00:  Time Reaming 
 SAZI.deg               169.33:  Azm, Start 
 SDEP.m                3449.01:  Start Depth 
 SIDD.                      No:  Serv Intrp, DD 
 SINC.deg                68.01:  Inc, Start 
 SPPA.psig             4900.00:  SPP Avg 
 SPPN.psig             4800.00:  SPP Min 
 SPPX.psig             5050.00:  SPP Max 
 STIM.      13.41.20 06-Nov-20:  Start Time 
 SVCS.                 DD, MWD:  Services 
 SVER.                    9.20:  Sperry Version 
 TDAT.m                4762.01:  Tot Depth Attmp 
 TDDF.                      No:  Trip for DD 
 TDLG.m                1313.00:  Tot Depth Loggd 
 TFF .                      No:  Trip for Fail 
 TQAA.f-kp               13.00:  Torque Abs Avg 
 TQAN.f-kp               13.00:  Torque Abs Min 
 TQAX.f-kp               13.00:  Torque Abs Max 
 TRRT.°/30m               1.70:  Turn Rotating 
 MRT .                  EWR-M5:  Maximum Recorded Temperature 
 TTMX.degC               86.00:  Max Tool Temp 
 VS01.                90622122:  Virtual Str1 SN 
 VS02.                90577298:  Virtual Str2 SN 
 VS03.                90563623:  Virtual Str3 SN 
 VS04.                90617559:  Virtual Str4 SN 
 VS05.                11339492:  Virtual Str5 SN 
 VS06.                12385033:  Virtual Str6 SN 
 WBMN.klb                 0.00:  WOB Min 
 WOBA.klb                22.00:  WOB Avg 
 WOBX.klb                26.00:  WOB Max 
 YP  .lhf2               30.00:  Yield Point 
~Curve Information Block
#MNEM.UNIT                 API CODE     Curve Description
#---------               -----------    ---------------------------
 TIME.HHMMSS            00 000 000 000:  GT Time & Date
 GTDEPTH.m              00 000 000 000:  GT Depth
 GTPQH.psia             00 000 000 000:  GT HR Quartz Pressure
 GTTQ.degC              00 000 000 000:  GT Quartz Temperature
 GTTN.NONE              00 000 000 000:  GT Test Number
 GTET.sec               00 000 000 000:  GT Elapsed Test Time
 GTTVD.m                00 000 000 000:  GT True Vertical Depth
#Other Information
#
#WARRANTY: Halliburton will use its best efforts to furnish customers with 
#accurate information and interpretations that are part of, and incident to, the services 
#provided.  However, Halliburton cannot and does not warrant the accuracy 
#or correctness of such information and interpretations.  Under no circumstances should any 
#such information or interpretation be relied upon as the sole basis for any drilling, 
#completion, production, or financial decision or any procedure involving any risk to the 
#safety of any drilling venture, drilling rig or its crew or any other third party.  The 
#Customer has full responsibility for all drilling, completion and production operation.  
#Halliburton makes no representations or warranties, either expressed or 
#implied, including, but not limited to, the implied warranties of merchantability or fitness 
#for a particular purpose, with respect to the services rendered.  In no event will 
#Halliburton be liable for failure to obtain any particular results or for 
#any damages, including, but not limited to, indirect, special or consequential damages, 
#resulting from the use of any information or interpretation provided by Halliburton.
#
~A           TIME           GTDEPTH  GTPQH  GTTQ  GTTN  GTET   GTTVD  
# ...
   18:54:13.508.10-Nov-2020 4475.51 4294.50 80.66 5.00  46.01 2369.25
   18:54:13.708.10-Nov-2020 4475.51 3993.25 80.66 5.00  46.21 2369.25
   18:54:13.909.10-Nov-2020 4475.51 3907.00 80.66 5.00  46.41 2369.25
   18:54:14.109.10-Nov-2020 4475.51 3916.57 80.66 5.00  46.61 2369.25
   18:54:14.309.10-Nov-2020 4475.51 3924.78 80.66 5.00  46.81 2369.25
   18:54:14.509.10-Nov-2020 4475.51 3922.12 80.66 5.00  47.01 2369.25
   18:54:14.709.10-Nov-2020 4475.51 3921.36 80.65 5.00  47.21 2369.25
   18:54:14.909.10-Nov-2020 4475.51 3922.16 80.65 5.00  47.41 2369.25
   18:54:15.109.10-Nov-2020 4475.51 3923.54 80.65 5.00  47.61 2369.25
   18:54:15.309.10-Nov-2020 4475.51 3925.96 80.65 5.00  47.81 2369.25
   18:54:15.509.10-Nov-2020 4475.51 3924.83 80.65 5.00  48.01 2369.25
   18:54:15.709.10-Nov-2020 4475.51 3924.83 80.65 5.00  48.21 2369.25
   18:54:15.909.10-Nov-2020 4475.51 3925.37 80.65 5.00  48.41 2369.25
   18:54:16.109.10-Nov-2020 4475.51 3924.64 80.65 5.00  48.61 2369.25
   18:54:16.309.10-Nov-2020 4475.51 3924.82 80.65 5.00  48.81 2369.25
   18:54:16.509.10-Nov-2020 4475.51 3924.79 80.64 5.00  49.01 2369.25
   18:54:16.709.10-Nov-2020 4475.51 3924.79 80.64 5.00  49.21 2369.25
   18:54:16.909.10-Nov-2020 4475.51 3923.77 80.64 5.00  49.41 2369.25
   18:54:17.109.10-Nov-2020 4475.51 3924.40 80.64 5.00  49.61 2369.25
   18:54:17.309.10-Nov-2020 4475.51 3924.57 80.64 5.00  49.81 2369.25
   18:54:17.510.10-Nov-2020 4475.51 3924.77 80.64 5.00  50.01 2369.25
   18:54:17.710.10-Nov-2020 4475.51 3924.77 80.64 5.00  50.21 2369.25
   18:54:17.910.10-Nov-2020 4475.51 3924.15 80.64 5.00  50.41 2369.25
   18:54:18.110.10-Nov-2020 4475.51 3923.96 80.64 5.00  50.61 2369.25
   18:54:18.310.10-Nov-2020 4475.51 3923.98 80.63 5.00  50.81 2369.25
   18:54:18.510.10-Nov-2020 4475.51 3923.44 80.63 5.00  51.01 2369.25
   18:54:18.710.10-Nov-2020 4475.51 3923.44 80.63 5.00  51.21 2369.25
   18:54:18.910.10-Nov-2020 4475.51 3922.94 80.63 5.00  51.41 2369.25
   18:54:19.110.10-Nov-2020 4475.51 3922.62 80.63 5.00  51.61 2369.25
   18:54:19.310.10-Nov-2020 4475.51 3923.32 80.63 5.00  51.81 2369.25
   18:54:19.510.10-Nov-2020 4475.51 3922.22 80.63 5.00  52.01 2369.25
   18:54:19.710.10-Nov-2020 4475.51 3922.16 80.63 5.00  52.21 2369.25
   18:54:19.910.10-Nov-2020 4475.51 3922.05 80.63 5.00  52.41 2369.25
   18:54:20.110.10-Nov-2020 4475.51 3922.03 80.63 5.00  52.61 2369.25
   18:54:20.310.10-Nov-2020 4475.51 3921.65 80.63 5.00  52.81 2369.25
   18:54:20.510.10-Nov-2020 4475.51 3921.59 80.62 5.00  53.01 2369.25
   18:54:20.710.10-Nov-2020 4475.51 3921.59 80.62 5.00  53.21 2369.25
   18:54:20.910.10-Nov-2020 4475.51 3921.12 80.62 5.00  53.41 2369.25
   18:54:21.111.10-Nov-2020 4475.51 3920.78 80.62 5.00  53.61 2369.25
   18:54:21.311.10-Nov-2020 4475.51 3921.13 80.62 5.00  53.81 2369.25
   18:54:21.511.10-Nov-2020 4475.51 3920.69 80.62 5.00  54.01 2369.25
   18:54:21.711.10-Nov-2020 4475.51 3920.18 80.62 5.00  54.22 2369.25
   18:54:21.911.10-Nov-2020 4475.51 3919.34 80.62 5.00  54.42 2369.25
   18:54:22.111.10-Nov-2020 4475.51 3920.34 80.62 5.00  54.62 2369.25
   18:54:22.311.10-Nov-2020 4475.51 3919.39 80.62 5.00  54.82 2369.25
   18:54:22.511.10-Nov-2020 4475.51 3946.77 80.62 5.00  55.02 2369.25
   18:54:22.711.10-Nov-2020 4475.51 3946.77 80.62 5.00  55.22 2369.25
   18:54:22.911.10-Nov-2020 4475.51 3986.19 80.61 5.00  55.42 2369.25
   18:54:23.111.10-Nov-2020 4475.51 3989.14 80.61 5.00  55.62 2369.25
   18:54:23.311.10-Nov-2020 4475.51 3991.27 80.61 5.00  55.82 2369.25
   18:54:23.511.10-Nov-2020 4475.51 3993.57 80.61 5.00  56.02 2369.25
   18:54:23.711.10-Nov-2020 4475.51 3993.57 80.61 5.00  56.22 2369.25
   18:54:23.911.10-Nov-2020 4475.51 3995.39 80.61 5.00  56.42 2369.25
   18:54:24.111.10-Nov-2020 4475.51 3996.11 80.61 5.00  56.62 2369.25
   18:54:24.311.10-Nov-2020 4475.51 3997.02 80.61 5.00  56.82 2369.25
   18:54:24.511.10-Nov-2020 4475.51 3998.22 80.61 5.00  57.02 2369.25
   18:54:24.712.10-Nov-2020 4475.51 3998.22 80.61 5.00  57.22 2369.25
   18:54:24.912.10-Nov-2020 4475.51 3999.20 80.61 5.00  57.42 2369.25
   18:54:25.112.10-Nov-2020 4475.51 3999.76 80.61 5.00  57.62 2369.25
   18:54:25.312.10-Nov-2020 4475.51 4000.76 80.61 5.00  57.82 2369.25
   18:54:25.512.10-Nov-2020 4475.51 4000.59 80.61 5.00  58.02 2369.25
   18:54:25.712.10-Nov-2020 4475.51 4000.59 80.61 5.00  58.22 2369.25
   18:54:25.912.10-Nov-2020 4475.51 4001.30 80.61 5.00  58.42 2369.25
   18:54:26.112.10-Nov-2020 4475.51 4001.54 80.60 5.00  58.62 2369.25
   18:54:26.312.10-Nov-2020 4475.51 4001.83 80.60 5.00  58.82 2369.25
   18:54:26.512.10-Nov-2020 4475.51 4002.18 80.60 5.00  59.02 2369.25
   18:54:26.712.10-Nov-2020 4475.51 4002.18 80.60 5.00  59.22 2369.25
   18:54:26.912.10-Nov-2020 4475.51 4002.79 80.60 5.00  59.42 2369.25
   18:54:27.112.10-Nov-2020 4475.51 4003.07 80.60 5.00  59.62 2369.25
   18:54:27.312.10-Nov-2020 4475.51 4003.37 80.60 5.00  59.82 2369.25
   18:54:27.512.10-Nov-2020 4475.51 4003.58 80.60 5.00  60.02 2369.25
   18:54:27.712.10-Nov-2020 4475.51 4003.58 80.60 5.00  60.22 2369.25
   18:54:27.912.10-Nov-2020 4475.51 4004.62 80.60 5.00  60.42 2369.25
   18:54:28.112.10-Nov-2020 4475.51 4004.63 80.60 5.00  60.62 2369.25
   18:54:28.313.10-Nov-2020 4475.51 4004.62 80.60 5.00  60.82 2369.25
   18:54:28.513.10-Nov-2020 4475.51 4004.89 80.60 5.00  61.02 2369.25
   18:54:28.713.10-Nov-2020 4475.51 4004.89 80.60 5.00  61.22 2369.25
   18:54:28.913.10-Nov-2020 4475.51 4005.13 80.60 5.00  61.42 2369.25
   18:54:29.113.10-Nov-2020 4475.51 4005.36 80.60 5.00  61.62 2369.25
   18:54:29.313.10-Nov-2020 4475.51 4005.57 80.60 5.00  61.82 2369.25
   18:54:29.513.10-Nov-2020 4475.51 4005.67 80.60 5.00  62.02 2369.25
   18:54:29.713.10-Nov-2020 4475.51 4005.91 80.59 5.00  62.22 2369.25
   18:54:29.913.10-Nov-2020 4475.51 4006.08 80.59 5.00  62.42 2369.25
   18:54:30.113.10-Nov-2020 4475.51 4006.20 80.59 5.00  62.62 2369.25
   18:54:30.313.10-Nov-2020 4475.51 4006.42 80.59 5.00  62.82 2369.25
   18:54:30.513.10-Nov-2020 4475.51 4006.71 80.59 5.00  63.02 2369.25
   18:54:30.713.10-Nov-2020 4475.51 4006.71 80.59 5.00  63.22 2369.25
   18:54:30.913.10-Nov-2020 4475.51 4006.95 80.59 5.00  63.42 2369.25
   18:54:31.113.10-Nov-2020 4475.51 4008.58 80.59 5.00  63.62 2369.25
   18:54:31.313.10-Nov-2020 4475.51 4008.11 80.59 5.00  63.82 2369.25
   18:54:31.513.10-Nov-2020 4475.51 4007.71 80.59 5.00  64.02 2369.25
   18:54:31.713.10-Nov-2020 4475.51 4007.71 80.59 5.00  64.22 2369.25
   18:54:31.914.10-Nov-2020 4475.51 4007.86 80.59 5.00  64.42 2369.25
   18:54:32.114.10-Nov-2020 4475.51 4007.74 80.59 5.00  64.62 2369.25
   18:54:32.314.10-Nov-2020 4475.51 4007.87 80.59 5.00  64.82 2369.25
   18:54:32.514.10-Nov-2020 4475.51 4007.98 80.59 5.00  65.02 2369.25
   18:54:32.714.10-Nov-2020 4475.51 4007.98 80.59 5.00  65.22 2369.25
   18:54:32.914.10-Nov-2020 4475.51 4008.30 80.59 5.00  65.42 2369.25
   18:54:33.114.10-Nov-2020 4475.51 4008.27 80.59 5.00  65.62 2369.25
   18:54:33.314.10-Nov-2020 4475.51 4008.55 80.58 5.00  65.82 2369.25
   18:54:33.514.10-Nov-2020 4475.51 4008.94 80.58 5.00  66.02 2369.25
   18:54:33.714.10-Nov-2020 4475.51 4008.75 80.58 5.00  66.22 2369.25
   18:54:33.914.10-Nov-2020 4475.51 4008.71 80.58 5.00  66.42 2369.25
   18:54:34.114.10-Nov-2020 4475.51 4008.81 80.58 5.00  66.62 2369.25
   18:54:34.314.10-Nov-2020 4475.51 4008.86 80.58 5.00  66.82 2369.25
   18:54:34.514.10-Nov-2020 4475.51 4008.92 80.58 5.00  67.02 2369.25
   18:54:34.714.10-Nov-2020 4475.51 4008.92 80.58 5.00  67.22 2369.25
   18:54:34.914.10-Nov-2020 4475.51 4009.17 80.58 5.00  67.42 2369.25
   18:54:35.114.10-Nov-2020 4475.51 4009.28 80.58 5.00  67.62 2369.25
   18:54:35.314.10-Nov-2020 4475.51 4009.34 80.58 5.00  67.82 2369.25
   18:54:35.515.10-Nov-2020 4475.51 4009.40 80.58 5.00  68.02 2369.25
   18:54:35.715.10-Nov-2020 4475.51 4009.40 80.58 5.00  68.22 2369.25
   18:54:35.915.10-Nov-2020 4475.51 4009.59 80.58 5.00  68.42 2369.25
   18:54:36.115.10-Nov-2020 4475.51 4009.85 80.58 5.00  68.62 2369.25
   18:54:36.315.10-Nov-2020 4475.51 4009.98 80.58 5.00  68.82 2369.25
