~Version Information
 VERS.                  2.0:   CWLS log ASCII Standard -VERSION 2.0
 WRAP.                   NO:   One line per depth step
~Well Information Block
#MNEM.UNIT     VALUE/NAME     DESCRIPTION
#---------     -----------    ---------------------------
 STRT.S             12:15:13 08-Nov-20: START TIME 12:15:13 08-Nov-20
 STOP.S             12:21:45 08-Nov-20: STOP TIME  12:21:45 08-Nov-20
 STEP.S                   0.00: STEP TIME
 NULL.                 -999.25: NULL VALUE
 DFWT.                        :  DIST FWL TEXT
 DFST.                        :  DIST FSL TEXT
 DMF .             Drill Floor:  DRILL MEAS FROM
 STIM.      04.54.24 22-Sep-20:  START TIME
 DATE.      04.54.24 21-Nov-20:  END TIME
 SPUD.               21-Nov-20:  SPUD DATE
 NREF.                    Grid:  NORTH REFERENCE
 HPTY.       Minimum Curvature:  HOLE POS TYPE
 DMOD.             Drill Model:  DRILL MOD DESC
 SVYD.                  Survey:  SURVEY DESC
 ILTD.               Lithology:  INTERP LTH DESC
 FTOP.          Formation Tops:  FORM TOPS DESC
 SON .        AZ-XX-0906571587:  JOB NUMBER
 COMP.     BP Exploration (Caspian Sea) Ltd:  COMPANY
 UWI .                     N/A:  UNIQUE WELL IDENTIFIER
 API .                     N/A:  API NUMBER
 BASE.              Azerbaijan:  LOGGING EQUIPMENT BASE LOCATION
 REGN.                   EESSA:  REGION
 PROV.                    Baku:  PROVINCE
 STAT.                    Baku:  STATE NAME
 CTRY.              Azerbaijan:  COUNTRY NAME
 FLD .                     ACG:  FIELD NAME
 SRVC.     TURAN Drilling & Engineering:  CONTRACTOR
 WELL.                     J27:  WELL NAME
 RIG .             West Chirag:  RIG NAME
 DOE .                     N/A:  DOE NUMBER
 DCON.         Sperry Drilling:  DIRECTNL CONTR
 PDAT.          Mean Sea Level:  PERMANENT DATUM
 WTYP.                Deviated:  WELL TYPE
 MWDS.                    Baku:  MWD SHOP
 JOBN.        AZ-XX-0906571587:  JOB TICKET NUMB
 UNIT.                     N/A:  LOGGING EQUIPMENT ID
 MDS .        Operator Entered:  MAG DATA SOURCE
 CNTY.                        :  COUNTY
 LOC .                        :  LOCATION
 LMF .             Drill Floor:  LOG MEASURED FROM
 TVDS.m                  43.00:  TVDSS CORRECTN
 LATI.deg                40.13:  LATITUDE
 LONG.deg                51.22:  LONGITUDE
 WHNS.m                   7.72:  WELL HEAD N/S
 WHEW.m                 -14.24:  WELL HEAD E/W
 UTMX.m              519005.06:  UTM X
 UTMY.m             4443793.85:  UTM Y
 DFWL.m                   0.00:  DISTANCE FWL
 DFSL.m                   0.00:  DISTANCE FSL
 SDEP.m                 347.00:  START DEPTH
 TDD .m                 581.00:  TOTAL DEPTH (DRILLER)
 VSDR.deg               159.72:  VERT SEC DIRECT
 GVFD.g                   1.00:  GRAVITY FIELD
 MFLD.nT              50313.00:  MAGNETIC FIELD
 MDIP.deg                59.58:  MAGNETIC DIP
 MDEC.deg                 6.45:  MAGNETIC DECL
 GRDC.deg                 0.15:  GRID CORRECTION
 AZTC.deg                 6.30:  AZM TOTAL CORR
 EPD .m                   0.00:  ELEVATION
 EGL .m                   0.00:  GROUND ELEVATION
 WDMS.m                 169.80:  WD ELEV
 APD .m                  43.00:  DEPTH ABOVE PD
 AGAP.m                  43.00:  AIR GAP
 VSEW.m                 -14.24:  VERT SEC E/W
 VSNS.m                   7.72:  VERT SEC N/S
 DEP .m                 342.45:  DEPTH
 EKB .m                   0.00:  KB ELEVATION
 EDF .m                  43.00:  DF ELEVATION
 TDL .m                1313.00:  TOTAL DEPTH (LOGGER)
 VSC .                       0:  VS TO CLOSURE
 MAGU.                 1851396:  MAGUTM CHECKSUM
~Parameter Information Block
#MNEM.UNIT       Value        Description
#---------     -----------    ---------------------------
 AV  .mps                 0.65:  Ann Velocity 
 AVMX.mps                 0.75:  Max Ann Veloc 
 AZIF.deg               115.08:  Azm, Final 
 BHAT.        Rotary Steerable:  BHA Type 
 BROT.°/30m               1.50:  Build Rotating 
 BS  .in                 12.25:  Bit Size 
 BSZ .in                 12.25:  Bit Size 
 BTPL.psig              700.00:  Bit Press Loss 
 CABU.                     Yes:  Customer Abuse 
 COMM.                     „*[:  Run Comments 1 
 TCS .hr                121.00:  Time Ciculation Ended 
 CV  .mps                 1.83:  Crit Velocity 
 CVMX.mps                 1.83:  Max Crit Veloc 
 DD1 .          Rashad Habibov:  Direct Drillr 1 
 DD2 .         Rasim Ibrahimov:  Direct Drillr 2 
 DDSV.                 iCruise:  DD Service 
 DEFF.%                 100.00:  % Det Eff 
 DLRX.°/30m               3.60:  Dogleg Rot Max 
 DLSO.°/30m               3.10:  Dogleg Oriented 
 DLSX.°/30m               3.60:  Dogleg Str Max 
 DRET.      13.41.20 12-Nov-20:  Drill End Time 
 DRST.      13.41.20 07-Nov-20:  Drill Start Tim 
 DTIM.hr                 54.16:  Time Drilling 
 EDEP.m                4762.01:  End Depth 
 ENG1.           Amrah Tahirov:  Engineer 1 
 ENG2.      Bakhtiyar Jabbarli:  Engineer 2 
 ENG3.          Ruslan Safarov:  Engineer 3 
 ETIM.      13.41.20 14-Nov-20:  End Time 
 FLOI.gpm              1200.00:  Flow In 
 FLON.gpm              1100.00:  Flow In Min 
 FLOS.cptm                0.00:  Fluid Loss 
 FLOX.gpm              1200.00:  Flow In Max 
 HFLO.                      No:  High Flow 
 HPRE.                      No:  High Pressure 
 HTEM.                      No:  High Temp 
 HYDO.m                   2.00:  Hydro Offset 
 IFIN.deg                66.14:  Inc, Final 
 IMAX.deg                69.03:  Inc Max 
 IMIN.deg                64.64:  Inc Min 
 IMND.m                4450.16:  Inc Min Depth 
 IMXD.m                3996.00:  Inc Max Depth 
 JARR.                     Yes:  Jarring 
 LETM.      13.41.20 14-Nov-20:  Log End Time 
 LOST.hr                     0:  Lost Rig Time 
 LSTM.      13.41.20 06-Nov-20:  Log Start Time 
 MDCL.ppm             42500.00:  Mud Chlorides 
 MDES.     Inversion Oil/Synthetic:  Mud Desc 
 DFD .sg                  1.45:  Mud Density 
 MDMN.sg                  1.45:  Dens Mud Min 
 MDMX.sg                  1.45:  Dens Mud Max 
 MOIL.                      70:  Run Mud Oil % 
 MOWR.                   70:30:  Run Mud OWR 
 MSND.                       0:  Run Mud Sand % 
 MSOL.                    19.3:  Run Mud Solids% 
 DFV .spqt               77.00:  Mud Viscosity 
 MWOD.in                  8.00:  MWD Tool OD 
 MWSI.                      No:  Serv Intrp, MWD 
 OTIM.hr                201.88:  Time Operating 
 PCON.           Look Like New:  Pad Condition 
 PMAX.psia             9250.94:  Press Op, Max 
 PV  .cP                 29.00:  Mud PV 
 RUN .                     800:  Run Number 
 ROPA.m/hr               28.00:  ROP Avg 
 ROPN.m/hr               25.00:  ROP Min 
 ROPX.m/hr               30.00:  ROP Max 
 RPMA.rpm               160.00:  RPM Surface Avg 
 RPMN.rpm               160.00:  RPM Surface Min 
 RPMX.rpm               160.00:  RPM Surface Max 
 RRUN.                    0800:  Rig Run Number 
 RTIM.hr                 12.00:  Time Reaming 
 SAZI.deg               169.33:  Azm, Start 
 SDEP.m                3449.01:  Start Depth 
 SIDD.                      No:  Serv Intrp, DD 
 SINC.deg                68.01:  Inc, Start 
 SPPA.psig             4900.00:  SPP Avg 
 SPPN.psig             4800.00:  SPP Min 
 SPPX.psig             5050.00:  SPP Max 
 STIM.      13.41.20 06-Nov-20:  Start Time 
 SVCS.                 DD, MWD:  Services 
 SVER.                    9.20:  Sperry Version 
 TDAT.m                4762.01:  Tot Depth Attmp 
 TDDF.                      No:  Trip for DD 
 TDLG.m                1313.00:  Tot Depth Loggd 
 TFF .                      No:  Trip for Fail 
 TQAA.f-kp               13.00:  Torque Abs Avg 
 TQAN.f-kp               13.00:  Torque Abs Min 
 TQAX.f-kp               13.00:  Torque Abs Max 
 TRRT.°/30m               1.70:  Turn Rotating 
 MRT .                  EWR-M5:  Maximum Recorded Temperature 
 TTMX.degC               86.00:  Max Tool Temp 
 VS01.                90622122:  Virtual Str1 SN 
 VS02.                90577298:  Virtual Str2 SN 
 VS03.                90563623:  Virtual Str3 SN 
 VS04.                90617559:  Virtual Str4 SN 
 VS05.                11339492:  Virtual Str5 SN 
 VS06.                12385033:  Virtual Str6 SN 
 WBMN.klb                 0.00:  WOB Min 
 WOBA.klb                22.00:  WOB Avg 
 WOBX.klb                26.00:  WOB Max 
 YP  .lhf2               30.00:  Yield Point 
~Curve Information Block
#MNEM.UNIT                 API CODE     Curve Description
#---------               -----------    ---------------------------
 TIME.HHMMSS            00 000 000 000:  GT Time & Date
 GTDEPTH.m              00 000 000 000:  GT Depth
 GTPQH.psia             00 000 000 000:  GT HR Quartz Pressure
 GTTQ.degC              00 000 000 000:  GT Quartz Temperature
 GTTN.NONE              00 000 000 000:  GT Test Number
 GTET.sec               00 000 000 000:  GT Elapsed Test Time
 GTTVD.m                00 000 000 000:  GT True Vertical Depth
#Other Information
#
#WARRANTY: Halliburton will use its best efforts to furnish customers with 
#accurate information and interpretations that are part of, and incident to, the services 
#provided.  However, Halliburton cannot and does not warrant the accuracy 
#or correctness of such information and interpretations.  Under no circumstances should any 
#such information or interpretation be relied upon as the sole basis for any drilling, 
#completion, production, or financial decision or any procedure involving any risk to the 
#safety of any drilling venture, drilling rig or its crew or any other third party.  The 
#Customer has full responsibility for all drilling, completion and production operation.  
#Halliburton makes no representations or warranties, either expressed or 
#implied, including, but not limited to, the implied warranties of merchantability or fitness 
#for a particular purpose, with respect to the services rendered.  In no event will 
#Halliburton be liable for failure to obtain any particular results or for 
#any damages, including, but not limited to, indirect, special or consequential damages, 
#resulting from the use of any information or interpretation provided by Halliburton.
#
~A           TIME           GTDEPTH  GTPQH  GTTQ  GTTN  GTET   GTTVD  
   12:15:13.000.08-Nov-2020 3568.06 4357.04 71.08 2.00   0.00 2028.53
   12:15:13.200.08-Nov-2020 3568.06 4357.04 71.08 2.00   0.20 2028.53
   12:15:13.400.08-Nov-2020 3568.06 4356.83 71.08 2.00   0.40 2028.53
   12:15:13.600.08-Nov-2020 3568.06 4357.11 71.08 2.00   0.60 2028.53
   12:15:13.800.08-Nov-2020 3568.06 4362.74 71.08 2.00   0.80 2028.53
   12:15:14.000.08-Nov-2020 3568.06 4354.93 71.08 2.00   1.00 2028.53
   12:15:14.200.08-Nov-2020 3568.06 4354.93 71.08 2.00   1.20 2028.53
   12:15:14.400.08-Nov-2020 3568.06 4356.85 71.08 2.00   1.40 2028.53
   12:15:14.600.08-Nov-2020 3568.06 4356.62 71.08 2.00   1.60 2028.53
   12:15:14.800.08-Nov-2020 3568.06 4355.77 71.07 2.00   1.80 2028.53
   12:15:15.000.08-Nov-2020 3568.06 4354.83 71.07 2.00   2.00 2028.53
   12:15:15.200.08-Nov-2020 3568.06 4354.83 71.07 2.00   2.20 2028.53
   12:15:15.400.08-Nov-2020 3568.06 4351.75 71.07 2.00   2.40 2028.53
   12:15:15.600.08-Nov-2020 3568.06 4349.74 71.07 2.00   2.60 2028.53
   12:15:15.800.08-Nov-2020 3568.06 4353.14 71.07 2.00   2.80 2028.53
   12:15:16.000.08-Nov-2020 3568.06 4347.15 71.07 2.00   3.00 2028.53
   12:15:16.200.08-Nov-2020 3568.06 4347.15 71.07 2.00   3.20 2028.53
   12:15:16.400.08-Nov-2020 3568.06 4341.54 71.07 2.00   3.40 2028.53
   12:15:16.600.08-Nov-2020 3568.06 4341.91 71.07 2.00   3.60 2028.53
   12:15:16.800.08-Nov-2020 3568.06 4340.28 71.06 2.00   3.80 2028.53
   12:15:17.000.08-Nov-2020 3568.06 4339.81 71.06 2.00   4.00 2028.53
   12:15:17.200.08-Nov-2020 3568.06 4339.81 71.06 2.00   4.20 2028.53
   12:15:17.400.08-Nov-2020 3568.06 4341.78 71.06 2.00   4.40 2028.53
   12:15:17.600.08-Nov-2020 3568.06 4341.24 71.06 2.00   4.60 2028.53
   12:15:17.800.08-Nov-2020 3568.06 4339.83 71.06 2.00   4.80 2028.53
   12:15:18.000.08-Nov-2020 3568.06 4340.77 71.06 2.00   5.00 2028.53
   12:15:18.200.08-Nov-2020 3568.06 4340.77 71.06 2.00   5.20 2028.53
   12:15:18.400.08-Nov-2020 3568.06 4340.46 71.06 2.00   5.40 2028.53
   12:15:18.600.08-Nov-2020 3568.06 4344.77 71.06 2.00   5.60 2028.53
   12:15:18.800.08-Nov-2020 3568.06 4340.64 71.06 2.00   5.80 2028.53
   12:15:19.000.08-Nov-2020 3568.06 4340.53 71.05 2.00   6.00 2028.53
   12:15:19.200.08-Nov-2020 3568.06 4340.53 71.05 2.00   6.20 2028.53
   12:15:19.400.08-Nov-2020 3568.06 4341.54 71.05 2.00   6.40 2028.53
   12:15:19.600.08-Nov-2020 3568.06 4339.71 71.05 2.00   6.60 2028.53
   12:15:19.800.08-Nov-2020 3568.06 4339.68 71.05 2.00   6.80 2028.53
   12:15:20.000.08-Nov-2020 3568.06 4340.32 71.05 2.00   7.00 2028.53
   12:15:20.200.08-Nov-2020 3568.06 4340.32 71.05 2.00   7.20 2028.53
   12:15:20.400.08-Nov-2020 3568.06 4341.31 71.05 2.00   7.40 2028.53
   12:15:20.600.08-Nov-2020 3568.06 4341.86 71.05 2.00   7.60 2028.53
   12:15:20.800.08-Nov-2020 3568.06 4341.66 71.05 2.00   7.80 2028.53
   12:15:21.000.08-Nov-2020 3568.06 4341.41 71.04 2.00   8.00 2028.53
   12:15:21.200.08-Nov-2020 3568.06 4341.41 71.04 2.00   8.20 2028.53
   12:15:21.400.08-Nov-2020 3568.06 4343.76 71.04 2.00   8.40 2028.53
   12:15:21.600.08-Nov-2020 3568.06 4343.03 71.04 2.00   8.60 2028.53
   12:15:21.800.08-Nov-2020 3568.06 4341.29 71.04 2.00   8.80 2028.53
   12:15:22.000.08-Nov-2020 3568.06 4341.48 71.04 2.00   9.00 2028.53
   12:15:22.200.08-Nov-2020 3568.06 4341.48 71.04 2.00   9.20 2028.53
   12:15:22.400.08-Nov-2020 3568.06 4341.97 71.04 2.00   9.40 2028.53
   12:15:22.600.08-Nov-2020 3568.06 4343.00 71.04 2.00   9.60 2028.53
   12:15:22.800.08-Nov-2020 3568.06 4343.03 71.04 2.00   9.80 2028.53
   12:15:23.000.08-Nov-2020 3568.06 4342.80 71.04 2.00  10.00 2028.53
   12:15:23.200.08-Nov-2020 3568.06 4342.80 71.04 2.00  10.20 2028.53
   12:15:23.400.08-Nov-2020 3568.06 4344.72 71.03 2.00  10.40 2028.53
   12:15:23.600.08-Nov-2020 3568.06 4345.95 71.03 2.00  10.60 2028.53
   12:15:23.800.08-Nov-2020 3568.06 4354.59 71.03 2.00  10.80 2028.53
   12:15:24.000.08-Nov-2020 3568.06 4347.43 71.03 2.00  11.00 2028.53
   12:15:24.200.08-Nov-2020 3568.06 4347.43 71.03 2.00  11.20 2028.53
   12:15:24.400.08-Nov-2020 3568.06 4348.72 71.03 2.00  11.40 2028.53
   12:15:24.600.08-Nov-2020 3568.06 4348.85 71.03 2.00  11.60 2028.53
   12:15:24.800.08-Nov-2020 3568.06 4352.69 71.03 2.00  11.80 2028.53
   12:15:25.000.08-Nov-2020 3568.06 4353.20 71.03 2.00  12.00 2028.53
   12:15:25.200.08-Nov-2020 3568.06 4353.20 71.03 2.00  12.20 2028.53
   12:15:25.400.08-Nov-2020 3568.06 4350.85 71.02 2.00  12.40 2028.53
   12:15:25.600.08-Nov-2020 3568.06 4358.20 71.02 2.00  12.60 2028.53
   12:15:25.800.08-Nov-2020 3568.06 4347.92 71.02 2.00  12.80 2028.53
   12:15:26.000.08-Nov-2020 3568.06 4350.84 71.02 2.00  13.00 2028.53
   12:15:26.200.08-Nov-2020 3568.06 4350.84 71.02 2.00  13.20 2028.53
   12:15:26.400.08-Nov-2020 3568.06 4354.40 71.02 2.00  13.40 2028.53
   12:15:26.600.08-Nov-2020 3568.06 4352.11 71.02 2.00  13.60 2028.53
   12:15:26.800.08-Nov-2020 3568.06 4352.72 71.02 2.00  13.80 2028.53
   12:15:27.000.08-Nov-2020 3568.06 4357.75 71.02 2.00  14.00 2028.53
   12:15:27.200.08-Nov-2020 3568.06 4357.75 71.02 2.00  14.20 2028.53
   12:15:27.400.08-Nov-2020 3568.06 4352.73 71.01 2.00  14.40 2028.53
   12:15:27.600.08-Nov-2020 3568.06 4351.70 71.01 2.00  14.60 2028.53
   12:15:27.800.08-Nov-2020 3568.06 4351.71 71.01 2.00  14.80 2028.53
   12:15:28.000.08-Nov-2020 3568.06 4351.45 71.01 2.00  15.00 2028.53
   12:15:28.200.08-Nov-2020 3568.06 4351.45 71.01 2.00  15.20 2028.53
   12:15:28.400.08-Nov-2020 3568.06 4352.20 71.01 2.00  15.40 2028.53
   12:15:28.600.08-Nov-2020 3568.06 4350.98 71.01 2.00  15.60 2028.53
   12:15:28.800.08-Nov-2020 3568.06 4349.53 71.01 2.00  15.80 2028.53
   12:15:29.000.08-Nov-2020 3568.06 4350.60 71.01 2.00  16.00 2028.53
   12:15:29.200.08-Nov-2020 3568.06 4350.60 71.01 2.00  16.20 2028.53
   12:15:29.400.08-Nov-2020 3568.06 4350.63 71.00 2.00  16.40 2028.53
   12:15:29.600.08-Nov-2020 3568.06 4350.59 71.00 2.00  16.60 2028.53
   12:15:29.800.08-Nov-2020 3568.06 4350.55 71.00 2.00  16.80 2028.53
   12:15:30.000.08-Nov-2020 3568.06 4350.60 71.00 2.00  17.00 2028.53
   12:15:30.200.08-Nov-2020 3568.06 4350.60 71.00 2.00  17.20 2028.53
   12:15:30.400.08-Nov-2020 3568.06 4350.46 71.00 2.00  17.40 2028.53
   12:15:30.600.08-Nov-2020 3568.06 4350.42 71.00 2.00  17.60 2028.53
   12:15:30.800.08-Nov-2020 3568.06 4353.63 71.00 2.00  17.80 2028.53
   12:15:31.000.08-Nov-2020 3568.06 4350.29 71.00 2.00  18.00 2028.53
   12:15:31.200.08-Nov-2020 3568.06 4350.29 71.00 2.00  18.20 2028.53
   12:15:31.400.08-Nov-2020 3568.06 4346.24 71.00 2.00  18.40 2028.53
   12:15:31.600.08-Nov-2020 3568.06 4346.34 70.99 2.00  18.60 2028.53
   12:15:31.800.08-Nov-2020 3568.06 4346.65 70.99 2.00  18.80 2028.53
   12:15:32.000.08-Nov-2020 3568.06 4345.28 70.99 2.00  19.00 2028.53
   12:15:32.200.08-Nov-2020 3568.06 4345.28 70.99 2.00  19.20 2028.53
   12:15:32.400.08-Nov-2020 3568.06 4344.83 70.99 2.00  19.40 2028.53
   12:15:32.600.08-Nov-2020 3568.06 4344.79 70.99 2.00  19.60 2028.53
   12:15:32.800.08-Nov-2020 3568.06 4344.52 70.99 2.00  19.80 2028.53
   12:15:33.000.08-Nov-2020 3568.06 4343.30 70.99 2.00  20.00 2028.53
   12:15:33.200.08-Nov-2020 3568.06 4343.30 70.99 2.00  20.20 2028.53
   12:15:33.400.08-Nov-2020 3568.06 4347.90 70.99 2.00  20.40 2028.53
   12:15:33.600.08-Nov-2020 3568.06 4345.41 70.98 2.00  20.60 2028.53
   12:15:33.800.08-Nov-2020 3568.06 4344.86 70.98 2.00  20.80 2028.53
   12:15:34.000.08-Nov-2020 3568.06 4349.38 70.98 2.00  21.00 2028.53
   12:15:34.200.08-Nov-2020 3568.06 4349.38 70.98 2.00  21.20 2028.53
   12:15:34.400.08-Nov-2020 3568.06 4343.16 70.98 2.00  21.40 2028.53
   12:15:34.600.08-Nov-2020 3568.06 4341.86 70.98 2.00  21.60 2028.53
   12:15:34.800.08-Nov-2020 3568.06 4342.59 70.98 2.00  21.80 2028.53
   12:15:35.000.08-Nov-2020 3568.06 4346.83 70.98 2.00  22.00 2028.53
   12:15:35.200.08-Nov-2020 3568.06 4346.83 70.98 2.00  22.20 2028.53
   12:15:35.400.08-Nov-2020 3568.06 4343.39 70.98 2.00  22.40 2028.53
   12:15:35.600.08-Nov-2020 3568.06 4341.49 70.97 2.00  22.60 2028.53
   12:15:35.800.08-Nov-2020 3568.06 4341.96 70.97 2.00  22.80 2028.53
