~Version Information
 VERS.                  2.0:   CWLS log ASCII Standard -VERSION 2.0
 WRAP.                   NO:   One line per depth step
~Well Information Block
#MNEM.UNIT     VALUE/NAME     DESCRIPTION
#---------     -----------    ---------------------------
 STRT.S             13:56:13 08-Nov-20: START TIME 13:56:13 08-Nov-20
 STOP.S             14:02:43 08-Nov-20: STOP TIME  14:02:43 08-Nov-20
 STEP.S                   0.00: STEP TIME
 NULL.                 -999.25: NULL VALUE
 DFWT.                        :  DIST FWL TEXT
 DFST.                        :  DIST FSL TEXT
 DMF .             Drill Floor:  DRILL MEAS FROM
 STIM.      04.54.24 22-Sep-20:  START TIME
 DATE.      04.54.24 21-Nov-20:  END TIME
 SPUD.               21-Nov-20:  SPUD DATE
 NREF.                    Grid:  NORTH REFERENCE
 HPTY.       Minimum Curvature:  HOLE POS TYPE
 DMOD.             Drill Model:  DRILL MOD DESC
 SVYD.                  Survey:  SURVEY DESC
 ILTD.               Lithology:  INTERP LTH DESC
 FTOP.          Formation Tops:  FORM TOPS DESC
 SON .        AZ-XX-0906571587:  JOB NUMBER
 COMP.     BP Exploration (Caspian Sea) Ltd:  COMPANY
 UWI .                     N/A:  UNIQUE WELL IDENTIFIER
 API .                     N/A:  API NUMBER
 BASE.              Azerbaijan:  LOGGING EQUIPMENT BASE LOCATION
 REGN.                   EESSA:  REGION
 PROV.                    Baku:  PROVINCE
 STAT.                    Baku:  STATE NAME
 CTRY.              Azerbaijan:  COUNTRY NAME
 FLD .                     ACG:  FIELD NAME
 SRVC.     TURAN Drilling & Engineering:  CONTRACTOR
 WELL.                     J27:  WELL NAME
 RIG .             West Chirag:  RIG NAME
 DOE .                     N/A:  DOE NUMBER
 DCON.         Sperry Drilling:  DIRECTNL CONTR
 PDAT.          Mean Sea Level:  PERMANENT DATUM
 WTYP.                Deviated:  WELL TYPE
 MWDS.                    Baku:  MWD SHOP
 JOBN.        AZ-XX-0906571587:  JOB TICKET NUMB
 UNIT.                     N/A:  LOGGING EQUIPMENT ID
 MDS .        Operator Entered:  MAG DATA SOURCE
 CNTY.                        :  COUNTY
 LOC .                        :  LOCATION
 LMF .             Drill Floor:  LOG MEASURED FROM
 TVDS.m                  43.00:  TVDSS CORRECTN
 LATI.deg                40.13:  LATITUDE
 LONG.deg                51.22:  LONGITUDE
 WHNS.m                   7.72:  WELL HEAD N/S
 WHEW.m                 -14.24:  WELL HEAD E/W
 UTMX.m              519005.06:  UTM X
 UTMY.m             4443793.85:  UTM Y
 DFWL.m                   0.00:  DISTANCE FWL
 DFSL.m                   0.00:  DISTANCE FSL
 SDEP.m                 347.00:  START DEPTH
 TDD .m                 581.00:  TOTAL DEPTH (DRILLER)
 VSDR.deg               159.72:  VERT SEC DIRECT
 GVFD.g                   1.00:  GRAVITY FIELD
 MFLD.nT              50313.00:  MAGNETIC FIELD
 MDIP.deg                59.58:  MAGNETIC DIP
 MDEC.deg                 6.45:  MAGNETIC DECL
 GRDC.deg                 0.15:  GRID CORRECTION
 AZTC.deg                 6.30:  AZM TOTAL CORR
 EPD .m                   0.00:  ELEVATION
 EGL .m                   0.00:  GROUND ELEVATION
 WDMS.m                 169.80:  WD ELEV
 APD .m                  43.00:  DEPTH ABOVE PD
 AGAP.m                  43.00:  AIR GAP
 VSEW.m                 -14.24:  VERT SEC E/W
 VSNS.m                   7.72:  VERT SEC N/S
 DEP .m                 342.45:  DEPTH
 EKB .m                   0.00:  KB ELEVATION
 EDF .m                  43.00:  DF ELEVATION
 TDL .m                1313.00:  TOTAL DEPTH (LOGGER)
 VSC .                       0:  VS TO CLOSURE
 MAGU.                 1851396:  MAGUTM CHECKSUM
~Parameter Information Block
#MNEM.UNIT       Value        Description
#---------     -----------    ---------------------------
 AV  .mps                 0.65:  Ann Velocity 
 AVMX.mps                 0.75:  Max Ann Veloc 
 AZIF.deg               115.08:  Azm, Final 
 BHAT.        Rotary Steerable:  BHA Type 
 BROT.°/30m               1.50:  Build Rotating 
 BS  .in                 12.25:  Bit Size 
 BSZ .in                 12.25:  Bit Size 
 BTPL.psig              700.00:  Bit Press Loss 
 CABU.                     Yes:  Customer Abuse 
 COMM.                     ì¹^:  Run Comments 1 
 TCS .hr                121.00:  Time Ciculation Ended 
 CV  .mps                 1.83:  Crit Velocity 
 CVMX.mps                 1.83:  Max Crit Veloc 
 DD1 .          Rashad Habibov:  Direct Drillr 1 
 DD2 .         Rasim Ibrahimov:  Direct Drillr 2 
 DDSV.                 iCruise:  DD Service 
 DEFF.%                 100.00:  % Det Eff 
 DLRX.°/30m               3.60:  Dogleg Rot Max 
 DLSO.°/30m               3.10:  Dogleg Oriented 
 DLSX.°/30m               3.60:  Dogleg Str Max 
 DRET.      13.41.20 12-Nov-20:  Drill End Time 
 DRST.      13.41.20 07-Nov-20:  Drill Start Tim 
 DTIM.hr                 54.16:  Time Drilling 
 EDEP.m                4762.01:  End Depth 
 ENG1.           Amrah Tahirov:  Engineer 1 
 ENG2.      Bakhtiyar Jabbarli:  Engineer 2 
 ENG3.          Ruslan Safarov:  Engineer 3 
 ETIM.      13.41.20 14-Nov-20:  End Time 
 FLOI.gpm              1200.00:  Flow In 
 FLON.gpm              1100.00:  Flow In Min 
 FLOS.cptm                0.00:  Fluid Loss 
 FLOX.gpm              1200.00:  Flow In Max 
 HFLO.                      No:  High Flow 
 HPRE.                      No:  High Pressure 
 HTEM.                      No:  High Temp 
 HYDO.m                   2.00:  Hydro Offset 
 IFIN.deg                66.14:  Inc, Final 
 IMAX.deg                69.03:  Inc Max 
 IMIN.deg                64.64:  Inc Min 
 IMND.m                4450.16:  Inc Min Depth 
 IMXD.m                3996.00:  Inc Max Depth 
 JARR.                     Yes:  Jarring 
 LETM.      13.41.20 14-Nov-20:  Log End Time 
 LOST.hr                     0:  Lost Rig Time 
 LSTM.      13.41.20 06-Nov-20:  Log Start Time 
 MDCL.ppm             42500.00:  Mud Chlorides 
 MDES.     Inversion Oil/Synthetic:  Mud Desc 
 DFD .sg                  1.45:  Mud Density 
 MDMN.sg                  1.45:  Dens Mud Min 
 MDMX.sg                  1.45:  Dens Mud Max 
 MOIL.                      70:  Run Mud Oil % 
 MOWR.                   70:30:  Run Mud OWR 
 MSND.                       0:  Run Mud Sand % 
 MSOL.                    19.3:  Run Mud Solids% 
 DFV .spqt               77.00:  Mud Viscosity 
 MWOD.in                  8.00:  MWD Tool OD 
 MWSI.                      No:  Serv Intrp, MWD 
 OTIM.hr                201.88:  Time Operating 
 PCON.           Look Like New:  Pad Condition 
 PMAX.psia             9250.94:  Press Op, Max 
 PV  .cP                 29.00:  Mud PV 
 RUN .                     800:  Run Number 
 ROPA.m/hr               28.00:  ROP Avg 
 ROPN.m/hr               25.00:  ROP Min 
 ROPX.m/hr               30.00:  ROP Max 
 RPMA.rpm               160.00:  RPM Surface Avg 
 RPMN.rpm               160.00:  RPM Surface Min 
 RPMX.rpm               160.00:  RPM Surface Max 
 RRUN.                    0800:  Rig Run Number 
 RTIM.hr                 12.00:  Time Reaming 
 SAZI.deg               169.33:  Azm, Start 
 SDEP.m                3449.01:  Start Depth 
 SIDD.                      No:  Serv Intrp, DD 
 SINC.deg                68.01:  Inc, Start 
 SPPA.psig             4900.00:  SPP Avg 
 SPPN.psig             4800.00:  SPP Min 
 SPPX.psig             5050.00:  SPP Max 
 STIM.      13.41.20 06-Nov-20:  Start Time 
 SVCS.                 DD, MWD:  Services 
 SVER.                    9.20:  Sperry Version 
 TDAT.m                4762.01:  Tot Depth Attmp 
 TDDF.                      No:  Trip for DD 
 TDLG.m                1313.00:  Tot Depth Loggd 
 TFF .                      No:  Trip for Fail 
 TQAA.f-kp               13.00:  Torque Abs Avg 
 TQAN.f-kp               13.00:  Torque Abs Min 
 TQAX.f-kp               13.00:  Torque Abs Max 
 TRRT.°/30m               1.70:  Turn Rotating 
 MRT .                  EWR-M5:  Maximum Recorded Temperature 
 TTMX.degC               86.00:  Max Tool Temp 
 VS01.                90622122:  Virtual Str1 SN 
 VS02.                90577298:  Virtual Str2 SN 
 VS03.                90563623:  Virtual Str3 SN 
 VS04.                90617559:  Virtual Str4 SN 
 VS05.                11339492:  Virtual Str5 SN 
 VS06.                12385033:  Virtual Str6 SN 
 WBMN.klb                 0.00:  WOB Min 
 WOBA.klb                22.00:  WOB Avg 
 WOBX.klb                26.00:  WOB Max 
 YP  .lhf2               30.00:  Yield Point 
~Curve Information Block
#MNEM.UNIT                 API CODE     Curve Description
#---------               -----------    ---------------------------
 TIME.HHMMSS            00 000 000 000:  GT Time & Date
 GTDEPTH.m              00 000 000 000:  GT Depth
 GTPQH.psia             00 000 000 000:  GT HR Quartz Pressure
 GTTQ.degC              00 000 000 000:  GT Quartz Temperature
 GTTN.NONE              00 000 000 000:  GT Test Number
 GTET.sec               00 000 000 000:  GT Elapsed Test Time
 GTTVD.m                00 000 000 000:  GT True Vertical Depth
#Other Information
#
#WARRANTY: Halliburton will use its best efforts to furnish customers with 
#accurate information and interpretations that are part of, and incident to, the services 
#provided.  However, Halliburton cannot and does not warrant the accuracy 
#or correctness of such information and interpretations.  Under no circumstances should any 
#such information or interpretation be relied upon as the sole basis for any drilling, 
#completion, production, or financial decision or any procedure involving any risk to the 
#safety of any drilling venture, drilling rig or its crew or any other third party.  The 
#Customer has full responsibility for all drilling, completion and production operation.  
#Halliburton makes no representations or warranties, either expressed or 
#implied, including, but not limited to, the implied warranties of merchantability or fitness 
#for a particular purpose, with respect to the services rendered.  In no event will 
#Halliburton be liable for failure to obtain any particular results or for 
#any damages, including, but not limited to, indirect, special or consequential damages, 
#resulting from the use of any information or interpretation provided by Halliburton.
#
~A           TIME           GTDEPTH  GTPQH  GTTQ  GTTN  GTET   GTTVD  
# ...
   14:00:48.908.08-Nov-2020 3585.71 3292.61 70.69 3.00 275.73 2034.99
   14:00:49.107.08-Nov-2020 3585.71 3292.61 70.69 3.00 275.93 2034.99
   14:00:49.307.08-Nov-2020 3585.71 3292.64 70.69 3.00 276.13 2034.99
   14:00:49.507.08-Nov-2020 3585.71 3292.61 70.69 3.00 276.33 2034.99
   14:00:49.707.08-Nov-2020 3585.71 3292.61 70.69 3.00 276.53 2034.99
   14:00:49.907.08-Nov-2020 3585.71 3292.61 70.69 3.00 276.73 2034.99
   14:00:50.106.08-Nov-2020 3585.71 3292.61 70.69 3.00 276.93 2034.99
   14:00:50.306.08-Nov-2020 3585.71 3292.60 70.69 3.00 277.13 2034.99
   14:00:50.506.08-Nov-2020 3585.71 3292.57 70.69 3.00 277.33 2034.99
   14:00:50.706.08-Nov-2020 3585.71 3292.56 70.68 3.00 277.53 2034.99
   14:00:50.906.08-Nov-2020 3585.71 3292.56 70.68 3.00 277.73 2034.99
   14:00:51.105.08-Nov-2020 3585.71 3292.54 70.68 3.00 277.93 2034.99
   14:00:51.305.08-Nov-2020 3585.71 3292.55 70.68 3.00 278.13 2034.99
   14:00:51.505.08-Nov-2020 3585.71 3292.53 70.68 3.00 278.33 2034.99
   14:00:51.705.08-Nov-2020 3585.71 3292.53 70.68 3.00 278.53 2034.99
   14:00:51.905.08-Nov-2020 3585.71 3292.49 70.68 3.00 278.73 2034.99
   14:00:52.104.08-Nov-2020 3585.71 3292.49 70.68 3.00 278.93 2034.99
   14:00:52.304.08-Nov-2020 3585.71 3292.59 70.68 3.00 279.13 2034.99
   14:00:52.504.08-Nov-2020 3585.71 3292.59 70.68 3.00 279.33 2034.99
   14:00:52.704.08-Nov-2020 3585.71 3292.59 70.67 3.00 279.53 2034.99
   14:00:52.904.08-Nov-2020 3585.71 3292.58 70.67 3.00 279.73 2034.99
   14:00:53.103.08-Nov-2020 3585.71 3292.58 70.67 3.00 279.93 2034.99
   14:00:53.303.08-Nov-2020 3585.71 3292.56 70.67 3.00 280.13 2034.99
   14:00:53.503.08-Nov-2020 3585.71 3292.54 70.67 3.00 280.33 2034.99
   14:00:53.703.08-Nov-2020 3585.71 3292.54 70.67 3.00 280.53 2034.99
   14:00:53.903.08-Nov-2020 3585.71 3292.53 70.67 3.00 280.73 2034.99
   14:00:54.103.08-Nov-2020 3585.71 3292.53 70.67 3.00 280.93 2034.99
   14:00:54.302.08-Nov-2020 3585.71 3292.52 70.67 3.00 281.13 2034.99
   14:00:54.502.08-Nov-2020 3585.71 3292.48 70.67 3.00 281.33 2034.99
   14:00:54.702.08-Nov-2020 3585.71 3292.60 70.66 3.00 281.53 2034.99
   14:00:54.902.08-Nov-2020 3585.71 3292.60 70.66 3.00 281.73 2034.99
   14:00:55.102.08-Nov-2020 3585.71 3292.54 70.66 3.00 281.93 2034.99
   14:00:55.301.08-Nov-2020 3585.71 3292.63 70.66 3.00 282.13 2034.99
   14:00:55.501.08-Nov-2020 3585.71 3292.60 70.66 3.00 282.33 2034.99
   14:00:55.701.08-Nov-2020 3585.71 3292.58 70.66 3.00 282.53 2034.99
   14:00:55.901.08-Nov-2020 3585.71 3292.57 70.66 3.00 282.73 2034.99
   14:00:56.101.08-Nov-2020 3585.71 3292.57 70.66 3.00 282.93 2034.99
   14:00:56.300.08-Nov-2020 3585.71 3292.61 70.66 3.00 283.13 2034.99
   14:00:56.500.08-Nov-2020 3585.71 3292.60 70.65 3.00 283.33 2034.99
   14:00:56.700.08-Nov-2020 3585.71 3292.60 70.65 3.00 283.53 2034.99
   14:00:56.900.08-Nov-2020 3585.71 3292.60 70.65 3.00 283.73 2034.99
   14:00:57.100.08-Nov-2020 3585.71 3292.60 70.65 3.00 283.93 2034.99
   14:00:57.299.08-Nov-2020 3585.71 3292.61 70.65 3.00 284.13 2034.99
   14:00:57.499.08-Nov-2020 3585.71 3292.61 70.65 3.00 284.33 2034.99
   14:00:57.699.08-Nov-2020 3585.71 3292.59 70.65 3.00 284.53 2034.99
   14:00:57.899.08-Nov-2020 3585.71 3292.61 70.65 3.00 284.73 2034.99
   14:00:58.099.08-Nov-2020 3585.71 3292.61 70.65 3.00 284.93 2034.99
   14:00:58.298.08-Nov-2020 3585.71 3292.64 70.65 3.00 285.13 2034.99
   14:00:58.498.08-Nov-2020 3585.71 3292.60 70.64 3.00 285.33 2034.99
   14:00:58.698.08-Nov-2020 3585.71 3292.59 70.64 3.00 285.52 2034.99
   14:00:58.898.08-Nov-2020 3585.71 3292.61 70.64 3.00 285.72 2034.99
   14:00:59.098.08-Nov-2020 3585.71 3292.61 70.64 3.00 285.92 2034.99
   14:00:59.298.08-Nov-2020 3585.71 3292.57 70.64 3.00 286.12 2034.99
   14:00:59.497.08-Nov-2020 3585.71 3292.57 70.64 3.00 286.32 2034.99
   14:00:59.697.08-Nov-2020 3585.71 3292.57 70.64 3.00 286.52 2034.99
   14:00:59.897.08-Nov-2020 3585.71 3292.56 70.64 3.00 286.72 2034.99
   14:01:00.097.08-Nov-2020 3585.71 3292.56 70.64 3.00 286.92 2034.99
   14:01:00.297.08-Nov-2020 3585.71 3292.54 70.63 3.00 287.12 2034.99
   14:01:00.496.08-Nov-2020 3585.71 3292.53 70.63 3.00 287.32 2034.99
   14:01:00.696.08-Nov-2020 3585.71 3292.54 70.63 3.00 287.52 2034.99
   14:01:00.896.08-Nov-2020 3585.71 3292.49 70.63 3.00 287.72 2034.99
   14:01:01.096.08-Nov-2020 3585.71 3292.49 70.63 3.00 287.92 2034.99
   14:01:01.296.08-Nov-2020 3585.71 3292.62 70.63 3.00 288.12 2034.99
   14:01:01.495.08-Nov-2020 3585.71 3292.56 70.63 3.00 288.32 2034.99
   14:01:01.695.08-Nov-2020 3585.71 3292.59 70.63 3.00 288.52 2034.99
   14:01:01.895.08-Nov-2020 3585.71 3292.57 70.63 3.00 288.72 2034.99
   14:01:02.095.08-Nov-2020 3585.71 3292.57 70.63 3.00 288.92 2034.99
   14:01:02.295.08-Nov-2020 3585.71 3292.56 70.62 3.00 289.12 2034.99
   14:01:02.494.08-Nov-2020 3585.71 3292.53 70.62 3.00 289.32 2034.99
   14:01:02.694.08-Nov-2020 3585.71 3292.53 70.62 3.00 289.52 2034.99
   14:01:02.894.08-Nov-2020 3585.71 3292.54 70.62 3.00 289.72 2034.99
   14:01:03.094.08-Nov-2020 3585.71 3292.53 70.62 3.00 289.92 2034.99
   14:01:03.294.08-Nov-2020 3585.71 3292.50 70.62 3.00 290.12 2034.99
   14:01:03.493.08-Nov-2020 3585.71 3292.53 70.62 3.00 290.32 2034.99
   14:01:03.693.08-Nov-2020 3585.71 3292.61 70.62 3.00 290.52 2034.99
   14:01:03.893.08-Nov-2020 3585.71 3292.52 70.62 3.00 290.72 2034.99
   14:01:04.093.08-Nov-2020 3585.71 3292.52 70.62 3.00 290.92 2034.99
   14:01:04.293.08-Nov-2020 3585.71 3292.62 70.61 3.00 291.12 2034.99
   14:01:04.493.08-Nov-2020 3585.71 3292.61 70.61 3.00 291.32 2034.99
   14:01:04.692.08-Nov-2020 3585.71 3292.62 70.61 3.00 291.52 2034.99
   14:01:04.892.08-Nov-2020 3585.71 3292.52 70.61 3.00 291.72 2034.99
   14:01:05.092.08-Nov-2020 3585.71 3292.52 70.61 3.00 291.92 2034.99
   14:01:05.292.08-Nov-2020 3585.71 3292.63 70.61 3.00 292.12 2034.99
   14:01:05.492.08-Nov-2020 3585.71 3292.59 70.61 3.00 292.32 2034.99
   14:01:05.691.08-Nov-2020 3585.71 3292.63 70.61 3.00 292.52 2034.99
   14:01:05.891.08-Nov-2020 3585.71 3292.54 70.61 3.00 292.72 2034.99
   14:01:06.091.08-Nov-2020 3585.71 3292.54 70.61 3.00 292.92 2034.99
   14:01:06.291.08-Nov-2020 3585.71 3292.62 70.60 3.00 293.12 2034.99
   14:01:06.491.08-Nov-2020 3585.71 3292.62 70.60 3.00 293.32 2034.99
   14:01:06.690.08-Nov-2020 3585.71 3292.63 70.60 3.00 293.52 2034.99
   14:01:06.890.08-Nov-2020 3585.71 3292.56 70.60 3.00 293.72 2034.99
   14:01:07.090.08-Nov-2020 3585.71 3292.61 70.60 3.00 293.92 2034.99
   14:01:07.290.08-Nov-2020 3585.71 3292.64 70.60 3.00 294.12 2034.99
   14:01:07.490.08-Nov-2020 3585.71 3292.62 70.60 3.00 294.32 2034.99
   14:01:07.689.08-Nov-2020 3585.71 3292.63 70.60 3.00 294.52 2034.99
   14:01:07.889.08-Nov-2020 3585.71 3292.60 70.60 3.00 294.72 2034.99
   14:01:08.089.08-Nov-2020 3585.71 3292.60 70.60 3.00 294.92 2034.99
   14:01:08.289.08-Nov-2020 3585.71 3292.57 70.59 3.00 295.12 2034.99
   14:01:08.489.08-Nov-2020 3585.71 3292.57 70.59 3.00 295.32 2034.99
   14:01:08.688.08-Nov-2020 3585.71 3292.55 70.59 3.00 295.52 2034.99
   14:01:08.888.08-Nov-2020 3585.71 3292.55 70.59 3.00 295.72 2034.99
   14:01:09.088.08-Nov-2020 3585.71 3292.55 70.59 3.00 295.91 2034.99
   14:01:09.288.08-Nov-2020 3585.71 3292.54 70.59 3.00 296.11 2034.99
   14:01:09.488.08-Nov-2020 3585.71 3292.53 70.59 3.00 296.31 2034.99
   14:01:09.688.08-Nov-2020 3585.71 3292.46 70.59 3.00 296.51 2034.99
   14:01:09.887.08-Nov-2020 3585.71 3292.63 70.58 3.00 296.71 2034.99
   14:01:10.087.08-Nov-2020 3585.71 3292.63 70.58 3.00 296.91 2034.99
   14:01:10.287.08-Nov-2020 3585.71 3292.61 70.58 3.00 297.11 2034.99
   14:01:10.487.08-Nov-2020 3585.71 3292.61 70.58 3.00 297.31 2034.99
   14:01:10.687.08-Nov-2020 3585.71 3292.56 70.58 3.00 297.51 2034.99
   14:01:10.886.08-Nov-2020 3585.71 3292.58 70.58 3.00 297.71 2034.99
   14:01:11.086.08-Nov-2020 3585.71 3292.55 70.58 3.00 297.91 2034.99
   14:01:11.286.08-Nov-2020 3585.71 3292.55 70.58 3.00 298.11 2034.99
   14:01:11.486.08-Nov-2020 3585.71 3292.54 70.58 3.00 298.31 2034.99
   14:01:11.686.08-Nov-2020 3585.71 3292.53 70.58 3.00 298.51 2034.99
