~Version Information
 VERS.                  2.0:   CWLS log ASCII Standard -VERSION 2.0
 WRAP.                   NO:   One line per depth step
~Well Information Block
#MNEM.UNIT     VALUE/NAME     DESCRIPTION
#---------     -----------    ---------------------------
 STRT.S             22:31:45 10-Nov-20: START TIME 22:31:45 10-Nov-20
 STOP.S             22:38:18 10-Nov-20: STOP TIME  22:38:18 10-Nov-20
 STEP.S                   0.00: STEP TIME
 NULL.                 -999.25: NULL VALUE
 DFWT.                        :  DIST FWL TEXT
 DFST.                        :  DIST FSL TEXT
 DMF .             Drill Floor:  DRILL MEAS FROM
 STIM.      04.54.24 22-Sep-20:  START TIME
 DATE.      04.54.24 21-Nov-20:  END TIME
 SPUD.               21-Nov-20:  SPUD DATE
 NREF.                    Grid:  NORTH REFERENCE
 HPTY.       Minimum Curvature:  HOLE POS TYPE
 DMOD.             Drill Model:  DRILL MOD DESC
 SVYD.                  Survey:  SURVEY DESC
 ILTD.               Lithology:  INTERP LTH DESC
 FTOP.          Formation Tops:  FORM TOPS DESC
 SON .        AZ-XX-0906571587:  JOB NUMBER
 COMP.     BP Exploration (Caspian Sea) Ltd:  COMPANY
 UWI .                     N/A:  UNIQUE WELL IDENTIFIER
 API .                     N/A:  API NUMBER
 BASE.              Azerbaijan:  LOGGING EQUIPMENT BASE LOCATION
 REGN.                   EESSA:  REGION
 PROV.                    Baku:  PROVINCE
 STAT.                    Baku:  STATE NAME
 CTRY.              Azerbaijan:  COUNTRY NAME
 FLD .                     ACG:  FIELD NAME
 SRVC.     TURAN Drilling & Engineering:  CONTRACTOR
 WELL.                     J27:  WELL NAME
 RIG .             West Chirag:  RIG NAME
 DOE .                     N/A:  DOE NUMBER
 DCON.         Sperry Drilling:  DIRECTNL CONTR
 PDAT.          Mean Sea Level:  PERMANENT DATUM
 WTYP.                Deviated:  WELL TYPE
 MWDS.                    Baku:  MWD SHOP
 JOBN.        AZ-XX-0906571587:  JOB TICKET NUMB
 UNIT.                     N/A:  LOGGING EQUIPMENT ID
 MDS .        Operator Entered:  MAG DATA SOURCE
 CNTY.                        :  COUNTY
 LOC .                        :  LOCATION
 LMF .             Drill Floor:  LOG MEASURED FROM
 TVDS.m                  43.00:  TVDSS CORRECTN
 LATI.deg                40.13:  LATITUDE
 LONG.deg                51.22:  LONGITUDE
 WHNS.m                   7.72:  WELL HEAD N/S
 WHEW.m                 -14.24:  WELL HEAD E/W
 UTMX.m              519005.06:  UTM X
 UTMY.m             4443793.85:  UTM Y
 DFWL.m                   0.00:  DISTANCE FWL
 DFSL.m                   0.00:  DISTANCE FSL
 SDEP.m                 347.00:  START DEPTH
 TDD .m                 581.00:  TOTAL DEPTH (DRILLER)
 VSDR.deg               159.72:  VERT SEC DIRECT
 GVFD.g                   1.00:  GRAVITY FIELD
 MFLD.nT              50313.00:  MAGNETIC FIELD
 MDIP.deg                59.58:  MAGNETIC DIP
 MDEC.deg                 6.45:  MAGNETIC DECL
 GRDC.deg                 0.15:  GRID CORRECTION
 AZTC.deg                 6.30:  AZM TOTAL CORR
 EPD .m                   0.00:  ELEVATION
 EGL .m                   0.00:  GROUND ELEVATION
 WDMS.m                 169.80:  WD ELEV
 APD .m                  43.00:  DEPTH ABOVE PD
 AGAP.m                  43.00:  AIR GAP
 VSEW.m                 -14.24:  VERT SEC E/W
 VSNS.m                   7.72:  VERT SEC N/S
 DEP .m                 342.45:  DEPTH
 EKB .m                   0.00:  KB ELEVATION
 EDF .m                  43.00:  DF ELEVATION
 TDL .m                1313.00:  TOTAL DEPTH (LOGGER)
 VSC .                       0:  VS TO CLOSURE
 MAGU.                 1851396:  MAGUTM CHECKSUM
~Parameter Information Block
#MNEM.UNIT       Value        Description
#---------     -----------    ---------------------------
 AV  .mps                 0.65:  Ann Velocity 
 AVMX.mps                 0.75:  Max Ann Veloc 
 AZIF.deg               115.08:  Azm, Final 
 BHAT.        Rotary Steerable:  BHA Type 
 BROT.°/30m               1.50:  Build Rotating 
 BS  .in                 12.25:  Bit Size 
 BSZ .in                 12.25:  Bit Size 
 BTPL.psig              700.00:  Bit Press Loss 
 CABU.                     Yes:  Customer Abuse 
 COMM.                     ”Õ`:  Run Comments 1 
 TCS .hr                121.00:  Time Ciculation Ended 
 CV  .mps                 1.83:  Crit Velocity 
 CVMX.mps                 1.83:  Max Crit Veloc 
 DD1 .          Rashad Habibov:  Direct Drillr 1 
 DD2 .         Rasim Ibrahimov:  Direct Drillr 2 
 DDSV.                 iCruise:  DD Service 
 DEFF.%                 100.00:  % Det Eff 
 DLRX.°/30m               3.60:  Dogleg Rot Max 
 DLSO.°/30m               3.10:  Dogleg Oriented 
 DLSX.°/30m               3.60:  Dogleg Str Max 
 DRET.      13.41.20 12-Nov-20:  Drill End Time 
 DRST.      13.41.20 07-Nov-20:  Drill Start Tim 
 DTIM.hr                 54.16:  Time Drilling 
 EDEP.m                4762.01:  End Depth 
 ENG1.           Amrah Tahirov:  Engineer 1 
 ENG2.      Bakhtiyar Jabbarli:  Engineer 2 
 ENG3.          Ruslan Safarov:  Engineer 3 
 ETIM.      13.41.20 14-Nov-20:  End Time 
 FLOI.gpm              1200.00:  Flow In 
 FLON.gpm              1100.00:  Flow In Min 
 FLOS.cptm                0.00:  Fluid Loss 
 FLOX.gpm              1200.00:  Flow In Max 
 HFLO.                      No:  High Flow 
 HPRE.                      No:  High Pressure 
 HTEM.                      No:  High Temp 
 HYDO.m                   2.00:  Hydro Offset 
 IFIN.deg                66.14:  Inc, Final 
 IMAX.deg                69.03:  Inc Max 
 IMIN.deg                64.64:  Inc Min 
 IMND.m                4450.16:  Inc Min Depth 
 IMXD.m                3996.00:  Inc Max Depth 
 JARR.                     Yes:  Jarring 
 LETM.      13.41.20 14-Nov-20:  Log End Time 
 LOST.hr                     0:  Lost Rig Time 
 LSTM.      13.41.20 06-Nov-20:  Log Start Time 
 MDCL.ppm             42500.00:  Mud Chlorides 
 MDES.     Inversion Oil/Synthetic:  Mud Desc 
 DFD .sg                  1.45:  Mud Density 
 MDMN.sg                  1.45:  Dens Mud Min 
 MDMX.sg                  1.45:  Dens Mud Max 
 MOIL.                      70:  Run Mud Oil % 
 MOWR.                   70:30:  Run Mud OWR 
 MSND.                       0:  Run Mud Sand % 
 MSOL.                    19.3:  Run Mud Solids% 
 DFV .spqt               77.00:  Mud Viscosity 
 MWOD.in                  8.00:  MWD Tool OD 
 MWSI.                      No:  Serv Intrp, MWD 
 OTIM.hr                201.88:  Time Operating 
 PCON.           Look Like New:  Pad Condition 
 PMAX.psia             9250.94:  Press Op, Max 
 PV  .cP                 29.00:  Mud PV 
 RUN .                     800:  Run Number 
 ROPA.m/hr               28.00:  ROP Avg 
 ROPN.m/hr               25.00:  ROP Min 
 ROPX.m/hr               30.00:  ROP Max 
 RPMA.rpm               160.00:  RPM Surface Avg 
 RPMN.rpm               160.00:  RPM Surface Min 
 RPMX.rpm               160.00:  RPM Surface Max 
 RRUN.                    0800:  Rig Run Number 
 RTIM.hr                 12.00:  Time Reaming 
 SAZI.deg               169.33:  Azm, Start 
 SDEP.m                3449.01:  Start Depth 
 SIDD.                      No:  Serv Intrp, DD 
 SINC.deg                68.01:  Inc, Start 
 SPPA.psig             4900.00:  SPP Avg 
 SPPN.psig             4800.00:  SPP Min 
 SPPX.psig             5050.00:  SPP Max 
 STIM.      13.41.20 06-Nov-20:  Start Time 
 SVCS.                 DD, MWD:  Services 
 SVER.                    9.20:  Sperry Version 
 TDAT.m                4762.01:  Tot Depth Attmp 
 TDDF.                      No:  Trip for DD 
 TDLG.m                1313.00:  Tot Depth Loggd 
 TFF .                      No:  Trip for Fail 
 TQAA.f-kp               13.00:  Torque Abs Avg 
 TQAN.f-kp               13.00:  Torque Abs Min 
 TQAX.f-kp               13.00:  Torque Abs Max 
 TRRT.°/30m               1.70:  Turn Rotating 
 MRT .                  EWR-M5:  Maximum Recorded Temperature 
 TTMX.degC               86.00:  Max Tool Temp 
 VS01.                90622122:  Virtual Str1 SN 
 VS02.                90577298:  Virtual Str2 SN 
 VS03.                90563623:  Virtual Str3 SN 
 VS04.                90617559:  Virtual Str4 SN 
 VS05.                11339492:  Virtual Str5 SN 
 VS06.                12385033:  Virtual Str6 SN 
 WBMN.klb                 0.00:  WOB Min 
 WOBA.klb                22.00:  WOB Avg 
 WOBX.klb                26.00:  WOB Max 
 YP  .lhf2               30.00:  Yield Point 
~Curve Information Block
#MNEM.UNIT                 API CODE     Curve Description
#---------               -----------    ---------------------------
 TIME.HHMMSS            00 000 000 000:  GT Time & Date
 GTDEPTH.m              00 000 000 000:  GT Depth
 GTPQH.psia             00 000 000 000:  GT HR Quartz Pressure
 GTTQ.degC              00 000 000 000:  GT Quartz Temperature
 GTTN.NONE              00 000 000 000:  GT Test Number
 GTET.sec               00 000 000 000:  GT Elapsed Test Time
 GTTVD.m                00 000 000 000:  GT True Vertical Depth
#Other Information
#
#WARRANTY: Halliburton will use its best efforts to furnish customers with 
#accurate information and interpretations that are part of, and incident to, the services 
#provided.  However, Halliburton cannot and does not warrant the accuracy 
#or correctness of such information and interpretations.  Under no circumstances should any 
#such information or interpretation be relied upon as the sole basis for any drilling, 
#completion, production, or financial decision or any procedure involving any risk to the 
#safety of any drilling venture, drilling rig or its crew or any other third party.  The 
#Customer has full responsibility for all drilling, completion and production operation.  
#Halliburton makes no representations or warranties, either expressed or 
#implied, including, but not limited to, the implied warranties of merchantability or fitness 
#for a particular purpose, with respect to the services rendered.  In no event will 
#Halliburton be liable for failure to obtain any particular results or for 
#any damages, including, but not limited to, indirect, special or consequential damages, 
#resulting from the use of any information or interpretation provided by Halliburton.
#
~A           TIME           GTDEPTH  GTPQH  GTTQ  GTTN  GTET   GTTVD  
# ...
   22:35:35.793.10-Nov-2020 4535.01 4060.96 82.05 6.00 230.03 2393.67
   22:35:35.993.10-Nov-2020 4535.01 4061.01 82.05 6.00 230.23 2393.67
   22:35:36.193.10-Nov-2020 4535.01 4061.14 82.05 6.00 230.43 2393.67
   22:35:36.393.10-Nov-2020 4535.01 4061.03 82.05 6.00 230.63 2393.67
   22:35:36.593.10-Nov-2020 4535.01 4061.13 82.05 6.00 230.83 2393.67
   22:35:36.793.10-Nov-2020 4535.01 4060.95 82.05 6.00 231.03 2393.67
   22:35:36.993.10-Nov-2020 4535.01 4060.95 82.05 6.00 231.23 2393.67
   22:35:37.193.10-Nov-2020 4535.01 4060.80 82.05 6.00 231.43 2393.67
   22:35:37.393.10-Nov-2020 4535.01 4061.07 82.05 6.00 231.63 2393.67
   22:35:37.593.10-Nov-2020 4535.01 4060.97 82.04 6.00 231.83 2393.67
   22:35:37.793.10-Nov-2020 4535.01 4061.00 82.04 6.00 232.03 2393.67
   22:35:37.993.10-Nov-2020 4535.01 4061.00 82.04 6.00 232.23 2393.67
   22:35:38.193.10-Nov-2020 4535.01 4061.00 82.04 6.00 232.43 2393.67
   22:35:38.393.10-Nov-2020 4535.01 4061.02 82.04 6.00 232.63 2393.67
   22:35:38.593.10-Nov-2020 4535.01 4061.24 82.04 6.00 232.83 2393.67
   22:35:38.793.10-Nov-2020 4535.01 4060.95 82.04 6.00 233.03 2393.67
   22:35:38.993.10-Nov-2020 4535.01 4060.95 82.04 6.00 233.23 2393.67
   22:35:39.193.10-Nov-2020 4535.01 4060.99 82.04 6.00 233.43 2393.67
   22:35:39.393.10-Nov-2020 4535.01 4061.11 82.03 6.00 233.63 2393.67
   22:35:39.593.10-Nov-2020 4535.01 4061.02 82.03 6.00 233.83 2393.67
   22:35:39.793.10-Nov-2020 4535.01 4060.94 82.03 6.00 234.03 2393.67
   22:35:39.993.10-Nov-2020 4535.01 4060.94 82.03 6.00 234.23 2393.67
   22:35:40.193.10-Nov-2020 4535.01 4060.99 82.03 6.00 234.43 2393.67
   22:35:40.393.10-Nov-2020 4535.01 4061.00 82.03 6.00 234.63 2393.67
   22:35:40.593.10-Nov-2020 4535.01 4060.93 82.03 6.00 234.83 2393.67
   22:35:40.793.10-Nov-2020 4535.01 4061.02 82.03 6.00 235.03 2393.67
   22:35:40.993.10-Nov-2020 4535.01 4061.01 82.03 6.00 235.23 2393.67
   22:35:41.194.10-Nov-2020 4535.01 4061.00 82.03 6.00 235.43 2393.67
   22:35:41.394.10-Nov-2020 4535.01 4061.04 82.02 6.00 235.63 2393.67
   22:35:41.594.10-Nov-2020 4535.01 4060.96 82.02 6.00 235.83 2393.67
   22:35:41.794.10-Nov-2020 4535.01 4060.98 82.02 6.00 236.03 2393.67
   22:35:41.994.10-Nov-2020 4535.01 4060.98 82.02 6.00 236.23 2393.67
   22:35:42.194.10-Nov-2020 4535.01 4060.96 82.02 6.00 236.43 2393.67
   22:35:42.394.10-Nov-2020 4535.01 4061.03 82.02 6.00 236.63 2393.67
   22:35:42.594.10-Nov-2020 4535.01 4060.92 82.02 6.00 236.83 2393.67
   22:35:42.794.10-Nov-2020 4535.01 4061.04 82.02 6.00 237.03 2393.67
   22:35:42.994.10-Nov-2020 4535.01 4061.04 82.02 6.00 237.23 2393.67
   22:35:43.194.10-Nov-2020 4535.01 4060.95 82.02 6.00 237.43 2393.67
   22:35:43.394.10-Nov-2020 4535.01 4060.96 82.01 6.00 237.63 2393.67
   22:35:43.594.10-Nov-2020 4535.01 4060.93 82.01 6.00 237.83 2393.67
   22:35:43.794.10-Nov-2020 4535.01 4060.98 82.01 6.00 238.03 2393.67
   22:35:43.994.10-Nov-2020 4535.01 4060.98 82.01 6.00 238.23 2393.67
   22:35:44.194.10-Nov-2020 4535.01 4060.94 82.01 6.00 238.43 2393.67
   22:35:44.394.10-Nov-2020 4535.01 4060.97 82.01 6.00 238.63 2393.67
   22:35:44.594.10-Nov-2020 4535.01 4060.97 82.01 6.00 238.83 2393.67
   22:35:44.794.10-Nov-2020 4535.01 4060.97 82.01 6.00 239.03 2393.67
   22:35:44.994.10-Nov-2020 4535.01 4061.21 82.01 6.00 239.23 2393.67
   22:35:45.194.10-Nov-2020 4535.01 4060.95 82.00 6.00 239.43 2393.67
   22:35:45.394.10-Nov-2020 4535.01 4061.08 82.00 6.00 239.63 2393.67
   22:35:45.594.10-Nov-2020 4535.01 4060.98 82.00 6.00 239.83 2393.67
   22:35:45.794.10-Nov-2020 4535.01 4061.01 82.00 6.00 240.03 2393.67
   22:35:45.994.10-Nov-2020 4535.01 4061.01 82.00 6.00 240.23 2393.67
   22:35:46.194.10-Nov-2020 4535.01 4060.94 82.00 6.00 240.43 2393.67
   22:35:46.394.10-Nov-2020 4535.01 4061.10 82.00 6.00 240.63 2393.67
   22:35:46.594.10-Nov-2020 4535.01 4060.94 82.00 6.00 240.83 2393.67
   22:35:46.794.10-Nov-2020 4535.01 4060.95 82.00 6.00 241.03 2393.67
   22:35:46.994.10-Nov-2020 4535.01 4060.95 82.00 6.00 241.23 2393.67
   22:35:47.194.10-Nov-2020 4535.01 4061.01 81.99 6.00 241.43 2393.67
   22:35:47.394.10-Nov-2020 4535.01 4061.07 81.99 6.00 241.63 2393.67
   22:35:47.594.10-Nov-2020 4535.01 4061.15 81.99 6.00 241.83 2393.67
   22:35:47.794.10-Nov-2020 4535.01 4061.04 81.99 6.00 242.03 2393.67
   22:35:47.994.10-Nov-2020 4535.01 4061.04 81.99 6.00 242.23 2393.67
   22:35:48.194.10-Nov-2020 4535.01 4061.02 81.99 6.00 242.43 2393.67
   22:35:48.394.10-Nov-2020 4535.01 4061.15 81.99 6.00 242.63 2393.67
   22:35:48.595.10-Nov-2020 4535.01 4060.84 81.99 6.00 242.83 2393.67
   22:35:48.795.10-Nov-2020 4535.01 4061.07 81.99 6.00 243.03 2393.67
   22:35:48.995.10-Nov-2020 4535.01 4060.92 81.99 6.00 243.23 2393.67
   22:35:49.195.10-Nov-2020 4535.01 4061.06 81.98 6.00 243.43 2393.67
   22:35:49.395.10-Nov-2020 4535.01 4060.96 81.98 6.00 243.63 2393.67
   22:35:49.595.10-Nov-2020 4535.01 4060.96 81.98 6.00 243.83 2393.67
   22:35:49.795.10-Nov-2020 4535.01 4061.03 81.98 6.00 244.03 2393.67
   22:35:49.995.10-Nov-2020 4535.01 4061.03 81.98 6.00 244.23 2393.67
   22:35:50.195.10-Nov-2020 4535.01 4061.02 81.98 6.00 244.43 2393.67
   22:35:50.395.10-Nov-2020 4535.01 4061.00 81.98 6.00 244.63 2393.67
   22:35:50.595.10-Nov-2020 4535.01 4060.96 81.98 6.00 244.83 2393.67
   22:35:50.795.10-Nov-2020 4535.01 4061.02 81.98 6.00 245.03 2393.67
   22:35:50.995.10-Nov-2020 4535.01 4060.99 81.97 6.00 245.23 2393.67
   22:35:51.195.10-Nov-2020 4535.01 4061.00 81.97 6.00 245.43 2393.67
   22:35:51.395.10-Nov-2020 4535.01 4061.00 81.97 6.00 245.63 2393.67
   22:35:51.595.10-Nov-2020 4535.01 4060.87 81.97 6.00 245.83 2393.67
   22:35:51.795.10-Nov-2020 4535.01 4061.00 81.97 6.00 246.03 2393.67
   22:35:51.995.10-Nov-2020 4535.01 4061.00 81.97 6.00 246.23 2393.67
   22:35:52.195.10-Nov-2020 4535.01 4060.91 81.97 6.00 246.43 2393.67
   22:35:52.395.10-Nov-2020 4535.01 4061.00 81.97 6.00 246.63 2393.67
   22:35:52.595.10-Nov-2020 4535.01 4060.95 81.97 6.00 246.83 2393.67
   22:35:52.795.10-Nov-2020 4535.01 4061.03 81.97 6.00 247.03 2393.67
   22:35:52.995.10-Nov-2020 4535.01 4061.03 81.97 6.00 247.23 2393.67
   22:35:53.195.10-Nov-2020 4535.01 4060.98 81.96 6.00 247.43 2393.67
   22:35:53.395.10-Nov-2020 4535.01 4060.95 81.96 6.00 247.63 2393.67
   22:35:53.595.10-Nov-2020 4535.01 4060.98 81.96 6.00 247.83 2393.67
   22:35:53.795.10-Nov-2020 4535.01 4061.11 81.96 6.00 248.03 2393.67
   22:35:53.995.10-Nov-2020 4535.01 4061.11 81.96 6.00 248.23 2393.67
   22:35:54.195.10-Nov-2020 4535.01 4061.00 81.96 6.00 248.43 2393.67
   22:35:54.395.10-Nov-2020 4535.01 4061.14 81.96 6.00 248.63 2393.67
   22:35:54.595.10-Nov-2020 4535.01 4060.90 81.96 6.00 248.83 2393.67
   22:35:54.795.10-Nov-2020 4535.01 4060.97 81.96 6.00 249.03 2393.67
   22:35:54.995.10-Nov-2020 4535.01 4060.97 81.96 6.00 249.23 2393.67
   22:35:55.195.10-Nov-2020 4535.01 4061.17 81.95 6.00 249.43 2393.67
   22:35:55.395.10-Nov-2020 4535.01 4060.87 81.95 6.00 249.63 2393.67
   22:35:55.595.10-Nov-2020 4535.01 4061.01 81.95 6.00 249.83 2393.67
   22:35:55.795.10-Nov-2020 4535.01 4060.96 81.95 6.00 250.03 2393.67
   22:35:55.996.10-Nov-2020 4535.01 4060.96 81.95 6.00 250.23 2393.67
   22:35:56.196.10-Nov-2020 4535.01 4061.03 81.95 6.00 250.43 2393.67
   22:35:56.396.10-Nov-2020 4535.01 4061.14 81.95 6.00 250.63 2393.67
   22:35:56.596.10-Nov-2020 4535.01 4060.96 81.95 6.00 250.83 2393.67
   22:35:56.796.10-Nov-2020 4535.01 4061.10 81.94 6.00 251.03 2393.67
   22:35:56.996.10-Nov-2020 4535.01 4060.99 81.94 6.00 251.23 2393.67
   22:35:57.196.10-Nov-2020 4535.01 4061.10 81.94 6.00 251.43 2393.67
   22:35:57.396.10-Nov-2020 4535.01 4060.92 81.94 6.00 251.63 2393.67
   22:35:57.596.10-Nov-2020 4535.01 4060.95 81.94 6.00 251.83 2393.67
   22:35:57.796.10-Nov-2020 4535.01 4061.05 81.94 6.00 252.03 2393.67
   22:35:57.996.10-Nov-2020 4535.01 4061.05 81.94 6.00 252.23 2393.67
   22:35:58.196.10-Nov-2020 4535.01 4060.97 81.94 6.00 252.43 2393.67
   22:35:58.396.10-Nov-2020 4535.01 4060.97 81.94 6.00 252.63 2393.67
   22:35:58.596.10-Nov-2020 4535.01 4061.02 81.94 6.00 252.83 2393.67
