~Version Information
 VERS.                  2.0:   CWLS log ASCII Standard -VERSION 2.0
 WRAP.                   NO:   One line per depth step
~Well Information Block
#MNEM.UNIT     VALUE/NAME     DESCRIPTION
#---------     -----------    ---------------------------
 STRT.S             21:54:12 08-Nov-20: START TIME 21:54:12 08-Nov-20
 STOP.S             22:00:43 08-Nov-20: STOP TIME  22:00:43 08-Nov-20
 STEP.S                   0.00: STEP TIME
 NULL.                 -999.25: NULL VALUE
 DFWT.                        :  DIST FWL TEXT
 DFST.                        :  DIST FSL TEXT
 DMF .             Drill Floor:  DRILL MEAS FROM
 STIM.      04.54.24 22-Sep-20:  START TIME
 DATE.      04.54.24 21-Nov-20:  END TIME
 SPUD.               21-Nov-20:  SPUD DATE
 NREF.                    Grid:  NORTH REFERENCE
 HPTY.       Minimum Curvature:  HOLE POS TYPE
 DMOD.             Drill Model:  DRILL MOD DESC
 SVYD.                  Survey:  SURVEY DESC
 ILTD.               Lithology:  INTERP LTH DESC
 FTOP.          Formation Tops:  FORM TOPS DESC
 SON .        AZ-XX-0906571587:  JOB NUMBER
 COMP.     BP Exploration (Caspian Sea) Ltd:  COMPANY
 UWI .                     N/A:  UNIQUE WELL IDENTIFIER
 API .                     N/A:  API NUMBER
 BASE.              Azerbaijan:  LOGGING EQUIPMENT BASE LOCATION
 REGN.                   EESSA:  REGION
 PROV.                    Baku:  PROVINCE
 STAT.                    Baku:  STATE NAME
 CTRY.              Azerbaijan:  COUNTRY NAME
 FLD .                     ACG:  FIELD NAME
 SRVC.     TURAN Drilling & Engineering:  CONTRACTOR
 WELL.                     J27:  WELL NAME
 RIG .             West Chirag:  RIG NAME
 DOE .                     N/A:  DOE NUMBER
 DCON.         Sperry Drilling:  DIRECTNL CONTR
 PDAT.          Mean Sea Level:  PERMANENT DATUM
 WTYP.                Deviated:  WELL TYPE
 MWDS.                    Baku:  MWD SHOP
 JOBN.        AZ-XX-0906571587:  JOB TICKET NUMB
 UNIT.                     N/A:  LOGGING EQUIPMENT ID
 MDS .        Operator Entered:  MAG DATA SOURCE
 CNTY.                        :  COUNTY
 LOC .                        :  LOCATION
 LMF .             Drill Floor:  LOG MEASURED FROM
 TVDS.m                  43.00:  TVDSS CORRECTN
 LATI.deg                40.13:  LATITUDE
 LONG.deg                51.22:  LONGITUDE
 WHNS.m                   7.72:  WELL HEAD N/S
 WHEW.m                 -14.24:  WELL HEAD E/W
 UTMX.m              519005.06:  UTM X
 UTMY.m             4443793.85:  UTM Y
 DFWL.m                   0.00:  DISTANCE FWL
 DFSL.m                   0.00:  DISTANCE FSL
 SDEP.m                 347.00:  START DEPTH
 TDD .m                 581.00:  TOTAL DEPTH (DRILLER)
 VSDR.deg               159.72:  VERT SEC DIRECT
 GVFD.g                   1.00:  GRAVITY FIELD
 MFLD.nT              50313.00:  MAGNETIC FIELD
 MDIP.deg                59.58:  MAGNETIC DIP
 MDEC.deg                 6.45:  MAGNETIC DECL
 GRDC.deg                 0.15:  GRID CORRECTION
 AZTC.deg                 6.30:  AZM TOTAL CORR
 EPD .m                   0.00:  ELEVATION
 EGL .m                   0.00:  GROUND ELEVATION
 WDMS.m                 169.80:  WD ELEV
 APD .m                  43.00:  DEPTH ABOVE PD
 AGAP.m                  43.00:  AIR GAP
 VSEW.m                 -14.24:  VERT SEC E/W
 VSNS.m                   7.72:  VERT SEC N/S
 DEP .m                 342.45:  DEPTH
 EKB .m                   0.00:  KB ELEVATION
 EDF .m                  43.00:  DF ELEVATION
 TDL .m                1313.00:  TOTAL DEPTH (LOGGER)
 VSC .                       0:  VS TO CLOSURE
 MAGU.                 1851396:  MAGUTM CHECKSUM
~Parameter Information Block
#MNEM.UNIT       Value        Description
#---------     -----------    ---------------------------
 AV  .mps                 0.65:  Ann Velocity 
 AVMX.mps                 0.75:  Max Ann Veloc 
 AZIF.deg               115.08:  Azm, Final 
 BHAT.        Rotary Steerable:  BHA Type 
 BROT.∞/30m               1.50:  Build Rotating 
 BS  .in                 12.25:  Bit Size 
 BSZ .in                 12.25:  Bit Size 
 BTPL.psig              700.00:  Bit Press Loss 
 CABU.                     Yes:  Customer Abuse 
 COMM.                     „J:  Run Comments 1 
 TCS .hr                121.00:  Time Ciculation Ended 
 CV  .mps                 1.83:  Crit Velocity 
 CVMX.mps                 1.83:  Max Crit Veloc 
 DD1 .          Rashad Habibov:  Direct Drillr 1 
 DD2 .         Rasim Ibrahimov:  Direct Drillr 2 
 DDSV.                 iCruise:  DD Service 
 DEFF.%                 100.00:  % Det Eff 
 DLRX.∞/30m               3.60:  Dogleg Rot Max 
 DLSO.∞/30m               3.10:  Dogleg Oriented 
 DLSX.∞/30m               3.60:  Dogleg Str Max 
 DRET.      13.41.20 12-Nov-20:  Drill End Time 
 DRST.      13.41.20 07-Nov-20:  Drill Start Tim 
 DTIM.hr                 54.16:  Time Drilling 
 EDEP.m                4762.01:  End Depth 
 ENG1.           Amrah Tahirov:  Engineer 1 
 ENG2.      Bakhtiyar Jabbarli:  Engineer 2 
 ENG3.          Ruslan Safarov:  Engineer 3 
 ETIM.      13.41.20 14-Nov-20:  End Time 
 FLOI.gpm              1200.00:  Flow In 
 FLON.gpm              1100.00:  Flow In Min 
 FLOS.cptm                0.00:  Fluid Loss 
 FLOX.gpm              1200.00:  Flow In Max 
 HFLO.                      No:  High Flow 
 HPRE.                      No:  High Pressure 
 HTEM.                      No:  High Temp 
 HYDO.m                   2.00:  Hydro Offset 
 IFIN.deg                66.14:  Inc, Final 
 IMAX.deg                69.03:  Inc Max 
 IMIN.deg                64.64:  Inc Min 
 IMND.m                4450.16:  Inc Min Depth 
 IMXD.m                3996.00:  Inc Max Depth 
 JARR.                     Yes:  Jarring 
 LETM.      13.41.20 14-Nov-20:  Log End Time 
 LOST.hr                     0:  Lost Rig Time 
 LSTM.      13.41.20 06-Nov-20:  Log Start Time 
 MDCL.ppm             42500.00:  Mud Chlorides 
 MDES.     Inversion Oil/Synthetic:  Mud Desc 
 DFD .sg                  1.45:  Mud Density 
 MDMN.sg                  1.45:  Dens Mud Min 
 MDMX.sg                  1.45:  Dens Mud Max 
 MOIL.                      70:  Run Mud Oil % 
 MOWR.                   70:30:  Run Mud OWR 
 MSND.                       0:  Run Mud Sand % 
 MSOL.                    19.3:  Run Mud Solids% 
 DFV .spqt               77.00:  Mud Viscosity 
 MWOD.in                  8.00:  MWD Tool OD 
 MWSI.                      No:  Serv Intrp, MWD 
 OTIM.hr                201.88:  Time Operating 
 PCON.           Look Like New:  Pad Condition 
 PMAX.psia             9250.94:  Press Op, Max 
 PV  .cP                 29.00:  Mud PV 
 RUN .                     800:  Run Number 
 ROPA.m/hr               28.00:  ROP Avg 
 ROPN.m/hr               25.00:  ROP Min 
 ROPX.m/hr               30.00:  ROP Max 
 RPMA.rpm               160.00:  RPM Surface Avg 
 RPMN.rpm               160.00:  RPM Surface Min 
 RPMX.rpm               160.00:  RPM Surface Max 
 RRUN.                    0800:  Rig Run Number 
 RTIM.hr                 12.00:  Time Reaming 
 SAZI.deg               169.33:  Azm, Start 
 SDEP.m                3449.01:  Start Depth 
 SIDD.                      No:  Serv Intrp, DD 
 SINC.deg                68.01:  Inc, Start 
 SPPA.psig             4900.00:  SPP Avg 
 SPPN.psig             4800.00:  SPP Min 
 SPPX.psig             5050.00:  SPP Max 
 STIM.      13.41.20 06-Nov-20:  Start Time 
 SVCS.                 DD, MWD:  Services 
 SVER.                    9.20:  Sperry Version 
 TDAT.m                4762.01:  Tot Depth Attmp 
 TDDF.                      No:  Trip for DD 
 TDLG.m                1313.00:  Tot Depth Loggd 
 TFF .                      No:  Trip for Fail 
 TQAA.f-kp               13.00:  Torque Abs Avg 
 TQAN.f-kp               13.00:  Torque Abs Min 
 TQAX.f-kp               13.00:  Torque Abs Max 
 TRRT.∞/30m               1.70:  Turn Rotating 
 MRT .                  EWR-M5:  Maximum Recorded Temperature 
 TTMX.degC               86.00:  Max Tool Temp 
 VS01.                90622122:  Virtual Str1 SN 
 VS02.                90577298:  Virtual Str2 SN 
 VS03.                90563623:  Virtual Str3 SN 
 VS04.                90617559:  Virtual Str4 SN 
 VS05.                11339492:  Virtual Str5 SN 
 VS06.                12385033:  Virtual Str6 SN 
 WBMN.klb                 0.00:  WOB Min 
 WOBA.klb                22.00:  WOB Avg 
 WOBX.klb                26.00:  WOB Max 
 YP  .lhf2               30.00:  Yield Point 
~Curve Information Block
#MNEM.UNIT                 API CODE     Curve Description
#---------               -----------    ---------------------------
 TIME.HHMMSS            00 000 000 000:  GT Time & Date
 GTDEPTH.m              00 000 000 000:  GT Depth
 GTPQH.psia             00 000 000 000:  GT HR Quartz Pressure
 GTTQ.degC              00 000 000 000:  GT Quartz Temperature
 GTTN.NONE              00 000 000 000:  GT Test Number
 GTET.sec               00 000 000 000:  GT Elapsed Test Time
 GTTVD.m                00 000 000 000:  GT True Vertical Depth
#Other Information
#
#WARRANTY: Halliburton will use its best efforts to furnish customers with 
#accurate information and interpretations that are part of, and incident to, the services 
#provided.  However, Halliburton cannot and does not warrant the accuracy 
#or correctness of such information and interpretations.  Under no circumstances should any 
#such information or interpretation be relied upon as the sole basis for any drilling, 
#completion, production, or financial decision or any procedure involving any risk to the 
#safety of any drilling venture, drilling rig or its crew or any other third party.  The 
#Customer has full responsibility for all drilling, completion and production operation.  
#Halliburton makes no representations or warranties, either expressed or 
#implied, including, but not limited to, the implied warranties of merchantability or fitness 
#for a particular purpose, with respect to the services rendered.  In no event will 
#Halliburton be liable for failure to obtain any particular results or for 
#any damages, including, but not limited to, indirect, special or consequential damages, 
#resulting from the use of any information or interpretation provided by Halliburton.
#
~A           TIME           GTDEPTH  GTPQH  GTTQ  GTTN  GTET   GTTVD  
# ...
   22:00:20.735.08-Nov-2020 3686.01 4400.19 71.03 4.00 368.08 2071.13
   22:00:20.935.08-Nov-2020 3686.01 4400.19 71.03 4.00 368.28 2071.13
   22:00:21.135.08-Nov-2020 3686.01 4397.41 71.02 4.00 368.48 2071.13
   22:00:21.335.08-Nov-2020 3686.01 4397.68 71.02 4.00 368.68 2071.13
   22:00:21.535.08-Nov-2020 3686.01 4397.43 71.02 4.00 368.88 2071.13
   22:00:21.735.08-Nov-2020 3686.01 4397.16 71.02 4.00 369.08 2071.13
   22:00:21.935.08-Nov-2020 3686.01 4397.16 71.02 4.00 369.28 2071.13
   22:00:22.135.08-Nov-2020 3686.01 4396.88 71.02 4.00 369.48 2071.13
   22:00:22.335.08-Nov-2020 3686.01 4397.86 71.02 4.00 369.68 2071.13
   22:00:22.535.08-Nov-2020 3686.01 4397.53 71.02 4.00 369.88 2071.13
   22:00:22.735.08-Nov-2020 3686.01 4401.63 71.02 4.00 370.08 2071.13
   22:00:22.935.08-Nov-2020 3686.01 4401.63 71.02 4.00 370.28 2071.13
   22:00:23.135.08-Nov-2020 3686.01 4399.76 71.02 4.00 370.48 2071.13
   22:00:23.335.08-Nov-2020 3686.01 4401.07 71.02 4.00 370.68 2071.13
   22:00:23.535.08-Nov-2020 3686.01 4397.66 71.02 4.00 370.88 2071.13
   22:00:23.735.08-Nov-2020 3686.01 4397.94 71.02 4.00 371.08 2071.13
   22:00:23.935.08-Nov-2020 3686.01 4397.94 71.02 4.00 371.28 2071.13
   22:00:24.135.08-Nov-2020 3686.01 4402.53 71.01 4.00 371.48 2071.13
   22:00:24.335.08-Nov-2020 3686.01 4398.03 71.01 4.00 371.68 2071.13
   22:00:24.535.08-Nov-2020 3686.01 4397.72 71.01 4.00 371.88 2071.13
   22:00:24.735.08-Nov-2020 3686.01 4398.73 71.01 4.00 372.08 2071.13
   22:00:24.936.08-Nov-2020 3686.01 4398.73 71.01 4.00 372.28 2071.13
   22:00:25.136.08-Nov-2020 3686.01 4401.01 71.01 4.00 372.48 2071.13
   22:00:25.336.08-Nov-2020 3686.01 4397.71 71.01 4.00 372.68 2071.13
   22:00:25.536.08-Nov-2020 3686.01 4397.15 71.01 4.00 372.88 2071.13
   22:00:25.736.08-Nov-2020 3686.01 4398.75 71.01 4.00 373.08 2071.13
   22:00:25.936.08-Nov-2020 3686.01 4398.75 71.01 4.00 373.28 2071.13
   22:00:26.136.08-Nov-2020 3686.01 4399.30 71.01 4.00 373.48 2071.13
   22:00:26.336.08-Nov-2020 3686.01 4401.28 71.01 4.00 373.68 2071.13
   22:00:26.536.08-Nov-2020 3686.01 4397.48 71.00 4.00 373.88 2071.13
   22:00:26.736.08-Nov-2020 3686.01 4399.46 71.00 4.00 374.08 2071.13
   22:00:26.936.08-Nov-2020 3686.01 4399.46 71.00 4.00 374.28 2071.13
   22:00:27.136.08-Nov-2020 3686.01 4399.30 71.00 4.00 374.48 2071.13
   22:00:27.336.08-Nov-2020 3686.01 4398.43 71.00 4.00 374.68 2071.13
   22:00:27.536.08-Nov-2020 3686.01 4397.98 71.00 4.00 374.88 2071.13
   22:00:27.736.08-Nov-2020 3686.01 4397.16 71.00 4.00 375.08 2071.13
   22:00:27.936.08-Nov-2020 3686.01 4397.16 71.00 4.00 375.28 2071.13
   22:00:28.136.08-Nov-2020 3686.01 4397.44 71.00 4.00 375.48 2071.13
   22:00:28.336.08-Nov-2020 3686.01 4397.35 71.00 4.00 375.68 2071.13
   22:00:28.536.08-Nov-2020 3686.01 4397.30 71.00 4.00 375.88 2071.13
   22:00:28.736.08-Nov-2020 3686.01 4397.41 71.00 4.00 376.08 2071.13
   22:00:28.936.08-Nov-2020 3686.01 4397.41 71.00 4.00 376.28 2071.13
   22:00:29.136.08-Nov-2020 3686.01 4397.60 70.99 4.00 376.48 2071.13
   22:00:29.336.08-Nov-2020 3686.01 4397.82 70.99 4.00 376.68 2071.13
   22:00:29.537.08-Nov-2020 3686.01 4399.94 70.99 4.00 376.88 2071.13
   22:00:29.737.08-Nov-2020 3686.01 4399.12 70.99 4.00 377.08 2071.13
   22:00:29.937.08-Nov-2020 3686.01 4399.12 70.99 4.00 377.28 2071.13
   22:00:30.137.08-Nov-2020 3686.01 4398.82 70.99 4.00 377.48 2071.13
   22:00:30.337.08-Nov-2020 3686.01 4398.37 70.99 4.00 377.68 2071.13
   22:00:30.537.08-Nov-2020 3686.01 4398.29 70.99 4.00 377.88 2071.13
   22:00:30.737.08-Nov-2020 3686.01 4397.27 70.99 4.00 378.08 2071.13
   22:00:30.937.08-Nov-2020 3686.01 4397.27 70.99 4.00 378.28 2071.13
   22:00:31.137.08-Nov-2020 3686.01 4397.41 70.98 4.00 378.48 2071.13
   22:00:31.337.08-Nov-2020 3686.01 4397.76 70.98 4.00 378.68 2071.13
   22:00:31.537.08-Nov-2020 3686.01 4399.32 70.98 4.00 378.88 2071.13
   22:00:31.737.08-Nov-2020 3686.01 4399.79 70.98 4.00 379.08 2071.13
   22:00:31.937.08-Nov-2020 3686.01 4399.79 70.98 4.00 379.28 2071.13
   22:00:32.137.08-Nov-2020 3686.01 4403.88 70.98 4.00 379.48 2071.13
   22:00:32.337.08-Nov-2020 3686.01 4397.06 70.98 4.00 379.68 2071.13
   22:00:32.537.08-Nov-2020 3686.01 4397.33 70.98 4.00 379.88 2071.13
   22:00:32.737.08-Nov-2020 3686.01 4397.98 70.98 4.00 380.08 2071.13
   22:00:32.937.08-Nov-2020 3686.01 4397.98 70.98 4.00 380.28 2071.13
   22:00:33.137.08-Nov-2020 3686.01 4397.13 70.97 4.00 380.48 2071.13
   22:00:33.337.08-Nov-2020 3686.01 4397.26 70.97 4.00 380.68 2071.13
   22:00:33.537.08-Nov-2020 3686.01 4400.94 70.97 4.00 380.88 2071.13
   22:00:33.737.08-Nov-2020 3686.01 4400.11 70.97 4.00 381.08 2071.13
   22:00:33.938.08-Nov-2020 3686.01 4395.90 70.97 4.00 381.28 2071.13
   22:00:34.138.08-Nov-2020 3686.01 4398.32 70.97 4.00 381.48 2071.13
   22:00:34.338.08-Nov-2020 3686.01 4400.60 70.97 4.00 381.68 2071.13
   22:00:34.538.08-Nov-2020 3686.01 4399.61 70.97 4.00 381.88 2071.13
   22:00:34.738.08-Nov-2020 3686.01 4397.02 70.97 4.00 382.08 2071.13
   22:00:34.938.08-Nov-2020 3686.01 4397.02 70.97 4.00 382.28 2071.13
   22:00:35.138.08-Nov-2020 3686.01 4398.68 70.97 4.00 382.48 2071.13
   22:00:35.338.08-Nov-2020 3686.01 4397.53 70.96 4.00 382.68 2071.13
   22:00:35.538.08-Nov-2020 3686.01 4398.69 70.96 4.00 382.88 2071.13
   22:00:35.738.08-Nov-2020 3686.01 4398.90 70.96 4.00 383.08 2071.13
   22:00:35.938.08-Nov-2020 3686.01 4398.77 70.96 4.00 383.28 2071.13
   22:00:36.138.08-Nov-2020 3686.01 4399.20 70.96 4.00 383.48 2071.13
   22:00:36.338.08-Nov-2020 3686.01 4398.41 70.96 4.00 383.69 2071.13
   22:00:36.538.08-Nov-2020 3686.01 4397.72 70.96 4.00 383.89 2071.13
   22:00:36.738.08-Nov-2020 3686.01 4397.21 70.96 4.00 384.09 2071.13
   22:00:36.938.08-Nov-2020 3686.01 4397.21 70.96 4.00 384.29 2071.13
   22:00:37.138.08-Nov-2020 3686.01 4402.48 70.96 4.00 384.49 2071.13
   22:00:37.338.08-Nov-2020 3686.01 4397.36 70.95 4.00 384.69 2071.13
   22:00:37.538.08-Nov-2020 3686.01 4398.15 70.95 4.00 384.89 2071.13
   22:00:37.738.08-Nov-2020 3686.01 4398.08 70.95 4.00 385.09 2071.13
   22:00:37.938.08-Nov-2020 3686.01 4398.08 70.95 4.00 385.29 2071.13
   22:00:38.138.08-Nov-2020 3686.01 4398.05 70.95 4.00 385.49 2071.13
   22:00:38.338.08-Nov-2020 3686.01 4398.93 70.95 4.00 385.69 2071.13
   22:00:38.539.08-Nov-2020 3686.01 4399.29 70.95 4.00 385.89 2071.13
   22:00:38.739.08-Nov-2020 3686.01 4399.47 70.95 4.00 386.09 2071.13
   22:00:38.939.08-Nov-2020 3686.01 4399.47 70.95 4.00 386.29 2071.13
   22:00:39.139.08-Nov-2020 3686.01 4398.17 70.95 4.00 386.49 2071.13
   22:00:39.339.08-Nov-2020 3686.01 4398.01 70.95 4.00 386.69 2071.13
   22:00:39.539.08-Nov-2020 3686.01 4398.11 70.94 4.00 386.89 2071.13
   22:00:39.739.08-Nov-2020 3686.01 4400.32 70.94 4.00 387.09 2071.13
   22:00:39.939.08-Nov-2020 3686.01 4400.32 70.94 4.00 387.29 2071.13
   22:00:40.139.08-Nov-2020 3686.01 4397.47 70.94 4.00 387.49 2071.13
   22:00:40.339.08-Nov-2020 3686.01 4403.06 70.94 4.00 387.69 2071.13
   22:00:40.539.08-Nov-2020 3686.01 4396.60 70.94 4.00 387.89 2071.13
   22:00:40.739.08-Nov-2020 3686.01 4396.64 70.94 4.00 388.09 2071.13
   22:00:40.939.08-Nov-2020 3686.01 4396.64 70.94 4.00 388.29 2071.13
   22:00:41.139.08-Nov-2020 3686.01 4402.02 70.94 4.00 388.49 2071.13
   22:00:41.339.08-Nov-2020 3686.01 4395.15 70.94 4.00 388.69 2071.13
   22:00:41.539.08-Nov-2020 3686.01 4397.36 70.94 4.00 388.89 2071.13
   22:00:41.739.08-Nov-2020 3686.01 4400.11 70.93 4.00 389.09 2071.13
   22:00:41.939.08-Nov-2020 3686.01 4400.11 70.93 4.00 389.29 2071.13
   22:00:42.139.08-Nov-2020 3686.01 4395.79 70.93 4.00 389.49 2071.13
   22:00:42.339.08-Nov-2020 3686.01 4403.54 70.93 4.00 389.69 2071.13
   22:00:42.539.08-Nov-2020 3686.01 4397.56 70.93 4.00 389.89 2071.13
   22:00:42.739.08-Nov-2020 3686.01 4396.25 70.93 4.00 390.09 2071.13
   22:00:42.940.08-Nov-2020 3686.01 4396.25 70.93 4.00 390.29 2071.13
   22:00:43.140.08-Nov-2020 3686.01 4398.06 70.93 4.00 390.49 2071.13
   22:00:43.340.08-Nov-2020 3686.01 4398.00 70.93 4.00 390.69 2071.13
   22:00:43.540.08-Nov-2020 3686.01 4397.97 70.93 4.00 390.89 2071.13
