~Version Information
 VERS.                  2.0:   CWLS log ASCII Standard -VERSION 2.0
 WRAP.                   NO:   One line per depth step
~Well Information Block
#MNEM.UNIT     VALUE/NAME     DESCRIPTION
#---------     -----------    ---------------------------
 STRT.S             21:54:12 08-Nov-20: START TIME 21:54:12 08-Nov-20
 STOP.S             22:00:43 08-Nov-20: STOP TIME  22:00:43 08-Nov-20
 STEP.S                   0.00: STEP TIME
 NULL.                 -999.25: NULL VALUE
 DFWT.                        :  DIST FWL TEXT
 DFST.                        :  DIST FSL TEXT
 DMF .             Drill Floor:  DRILL MEAS FROM
 STIM.      04.54.24 22-Sep-20:  START TIME
 DATE.      04.54.24 21-Nov-20:  END TIME
 SPUD.               21-Nov-20:  SPUD DATE
 NREF.                    Grid:  NORTH REFERENCE
 HPTY.       Minimum Curvature:  HOLE POS TYPE
 DMOD.             Drill Model:  DRILL MOD DESC
 SVYD.                  Survey:  SURVEY DESC
 ILTD.               Lithology:  INTERP LTH DESC
 FTOP.          Formation Tops:  FORM TOPS DESC
 SON .        AZ-XX-0906571587:  JOB NUMBER
 COMP.     BP Exploration (Caspian Sea) Ltd:  COMPANY
 UWI .                     N/A:  UNIQUE WELL IDENTIFIER
 API .                     N/A:  API NUMBER
 BASE.              Azerbaijan:  LOGGING EQUIPMENT BASE LOCATION
 REGN.                   EESSA:  REGION
 PROV.                    Baku:  PROVINCE
 STAT.                    Baku:  STATE NAME
 CTRY.              Azerbaijan:  COUNTRY NAME
 FLD .                     ACG:  FIELD NAME
 SRVC.     TURAN Drilling & Engineering:  CONTRACTOR
 WELL.                     J27:  WELL NAME
 RIG .             West Chirag:  RIG NAME
 DOE .                     N/A:  DOE NUMBER
 DCON.         Sperry Drilling:  DIRECTNL CONTR
 PDAT.          Mean Sea Level:  PERMANENT DATUM
 WTYP.                Deviated:  WELL TYPE
 MWDS.                    Baku:  MWD SHOP
 JOBN.        AZ-XX-0906571587:  JOB TICKET NUMB
 UNIT.                     N/A:  LOGGING EQUIPMENT ID
 MDS .        Operator Entered:  MAG DATA SOURCE
 CNTY.                        :  COUNTY
 LOC .                        :  LOCATION
 LMF .             Drill Floor:  LOG MEASURED FROM
 TVDS.m                  43.00:  TVDSS CORRECTN
 LATI.deg                40.13:  LATITUDE
 LONG.deg                51.22:  LONGITUDE
 WHNS.m                   7.72:  WELL HEAD N/S
 WHEW.m                 -14.24:  WELL HEAD E/W
 UTMX.m              519005.06:  UTM X
 UTMY.m             4443793.85:  UTM Y
 DFWL.m                   0.00:  DISTANCE FWL
 DFSL.m                   0.00:  DISTANCE FSL
 SDEP.m                 347.00:  START DEPTH
 TDD .m                 581.00:  TOTAL DEPTH (DRILLER)
 VSDR.deg               159.72:  VERT SEC DIRECT
 GVFD.g                   1.00:  GRAVITY FIELD
 MFLD.nT              50313.00:  MAGNETIC FIELD
 MDIP.deg                59.58:  MAGNETIC DIP
 MDEC.deg                 6.45:  MAGNETIC DECL
 GRDC.deg                 0.15:  GRID CORRECTION
 AZTC.deg                 6.30:  AZM TOTAL CORR
 EPD .m                   0.00:  ELEVATION
 EGL .m                   0.00:  GROUND ELEVATION
 WDMS.m                 169.80:  WD ELEV
 APD .m                  43.00:  DEPTH ABOVE PD
 AGAP.m                  43.00:  AIR GAP
 VSEW.m                 -14.24:  VERT SEC E/W
 VSNS.m                   7.72:  VERT SEC N/S
 DEP .m                 342.45:  DEPTH
 EKB .m                   0.00:  KB ELEVATION
 EDF .m                  43.00:  DF ELEVATION
 TDL .m                1313.00:  TOTAL DEPTH (LOGGER)
 VSC .                       0:  VS TO CLOSURE
 MAGU.                 1851396:  MAGUTM CHECKSUM
~Parameter Information Block
#MNEM.UNIT       Value        Description
#---------     -----------    ---------------------------
 AV  .mps                 0.65:  Ann Velocity 
 AVMX.mps                 0.75:  Max Ann Veloc 
 AZIF.deg               115.08:  Azm, Final 
 BHAT.        Rotary Steerable:  BHA Type 
 BROT.∞/30m               1.50:  Build Rotating 
 BS  .in                 12.25:  Bit Size 
 BSZ .in                 12.25:  Bit Size 
 BTPL.psig              700.00:  Bit Press Loss 
 CABU.                     Yes:  Customer Abuse 
 COMM.                     „J:  Run Comments 1 
 TCS .hr                121.00:  Time Ciculation Ended 
 CV  .mps                 1.83:  Crit Velocity 
 CVMX.mps                 1.83:  Max Crit Veloc 
 DD1 .          Rashad Habibov:  Direct Drillr 1 
 DD2 .         Rasim Ibrahimov:  Direct Drillr 2 
 DDSV.                 iCruise:  DD Service 
 DEFF.%                 100.00:  % Det Eff 
 DLRX.∞/30m               3.60:  Dogleg Rot Max 
 DLSO.∞/30m               3.10:  Dogleg Oriented 
 DLSX.∞/30m               3.60:  Dogleg Str Max 
 DRET.      13.41.20 12-Nov-20:  Drill End Time 
 DRST.      13.41.20 07-Nov-20:  Drill Start Tim 
 DTIM.hr                 54.16:  Time Drilling 
 EDEP.m                4762.01:  End Depth 
 ENG1.           Amrah Tahirov:  Engineer 1 
 ENG2.      Bakhtiyar Jabbarli:  Engineer 2 
 ENG3.          Ruslan Safarov:  Engineer 3 
 ETIM.      13.41.20 14-Nov-20:  End Time 
 FLOI.gpm              1200.00:  Flow In 
 FLON.gpm              1100.00:  Flow In Min 
 FLOS.cptm                0.00:  Fluid Loss 
 FLOX.gpm              1200.00:  Flow In Max 
 HFLO.                      No:  High Flow 
 HPRE.                      No:  High Pressure 
 HTEM.                      No:  High Temp 
 HYDO.m                   2.00:  Hydro Offset 
 IFIN.deg                66.14:  Inc, Final 
 IMAX.deg                69.03:  Inc Max 
 IMIN.deg                64.64:  Inc Min 
 IMND.m                4450.16:  Inc Min Depth 
 IMXD.m                3996.00:  Inc Max Depth 
 JARR.                     Yes:  Jarring 
 LETM.      13.41.20 14-Nov-20:  Log End Time 
 LOST.hr                     0:  Lost Rig Time 
 LSTM.      13.41.20 06-Nov-20:  Log Start Time 
 MDCL.ppm             42500.00:  Mud Chlorides 
 MDES.     Inversion Oil/Synthetic:  Mud Desc 
 DFD .sg                  1.45:  Mud Density 
 MDMN.sg                  1.45:  Dens Mud Min 
 MDMX.sg                  1.45:  Dens Mud Max 
 MOIL.                      70:  Run Mud Oil % 
 MOWR.                   70:30:  Run Mud OWR 
 MSND.                       0:  Run Mud Sand % 
 MSOL.                    19.3:  Run Mud Solids% 
 DFV .spqt               77.00:  Mud Viscosity 
 MWOD.in                  8.00:  MWD Tool OD 
 MWSI.                      No:  Serv Intrp, MWD 
 OTIM.hr                201.88:  Time Operating 
 PCON.           Look Like New:  Pad Condition 
 PMAX.psia             9250.94:  Press Op, Max 
 PV  .cP                 29.00:  Mud PV 
 RUN .                     800:  Run Number 
 ROPA.m/hr               28.00:  ROP Avg 
 ROPN.m/hr               25.00:  ROP Min 
 ROPX.m/hr               30.00:  ROP Max 
 RPMA.rpm               160.00:  RPM Surface Avg 
 RPMN.rpm               160.00:  RPM Surface Min 
 RPMX.rpm               160.00:  RPM Surface Max 
 RRUN.                    0800:  Rig Run Number 
 RTIM.hr                 12.00:  Time Reaming 
 SAZI.deg               169.33:  Azm, Start 
 SDEP.m                3449.01:  Start Depth 
 SIDD.                      No:  Serv Intrp, DD 
 SINC.deg                68.01:  Inc, Start 
 SPPA.psig             4900.00:  SPP Avg 
 SPPN.psig             4800.00:  SPP Min 
 SPPX.psig             5050.00:  SPP Max 
 STIM.      13.41.20 06-Nov-20:  Start Time 
 SVCS.                 DD, MWD:  Services 
 SVER.                    9.20:  Sperry Version 
 TDAT.m                4762.01:  Tot Depth Attmp 
 TDDF.                      No:  Trip for DD 
 TDLG.m                1313.00:  Tot Depth Loggd 
 TFF .                      No:  Trip for Fail 
 TQAA.f-kp               13.00:  Torque Abs Avg 
 TQAN.f-kp               13.00:  Torque Abs Min 
 TQAX.f-kp               13.00:  Torque Abs Max 
 TRRT.∞/30m               1.70:  Turn Rotating 
 MRT .                  EWR-M5:  Maximum Recorded Temperature 
 TTMX.degC               86.00:  Max Tool Temp 
 VS01.                90622122:  Virtual Str1 SN 
 VS02.                90577298:  Virtual Str2 SN 
 VS03.                90563623:  Virtual Str3 SN 
 VS04.                90617559:  Virtual Str4 SN 
 VS05.                11339492:  Virtual Str5 SN 
 VS06.                12385033:  Virtual Str6 SN 
 WBMN.klb                 0.00:  WOB Min 
 WOBA.klb                22.00:  WOB Avg 
 WOBX.klb                26.00:  WOB Max 
 YP  .lhf2               30.00:  Yield Point 
~Curve Information Block
#MNEM.UNIT                 API CODE     Curve Description
#---------               -----------    ---------------------------
 TIME.HHMMSS            00 000 000 000:  GT Time & Date
 GTDEPTH.m              00 000 000 000:  GT Depth
 GTPQH.psia             00 000 000 000:  GT HR Quartz Pressure
 GTTQ.degC              00 000 000 000:  GT Quartz Temperature
 GTTN.NONE              00 000 000 000:  GT Test Number
 GTET.sec               00 000 000 000:  GT Elapsed Test Time
 GTTVD.m                00 000 000 000:  GT True Vertical Depth
#Other Information
#
#WARRANTY: Halliburton will use its best efforts to furnish customers with 
#accurate information and interpretations that are part of, and incident to, the services 
#provided.  However, Halliburton cannot and does not warrant the accuracy 
#or correctness of such information and interpretations.  Under no circumstances should any 
#such information or interpretation be relied upon as the sole basis for any drilling, 
#completion, production, or financial decision or any procedure involving any risk to the 
#safety of any drilling venture, drilling rig or its crew or any other third party.  The 
#Customer has full responsibility for all drilling, completion and production operation.  
#Halliburton makes no representations or warranties, either expressed or 
#implied, including, but not limited to, the implied warranties of merchantability or fitness 
#for a particular purpose, with respect to the services rendered.  In no event will 
#Halliburton be liable for failure to obtain any particular results or for 
#any damages, including, but not limited to, indirect, special or consequential damages, 
#resulting from the use of any information or interpretation provided by Halliburton.
#
~A           TIME           GTDEPTH  GTPQH  GTTQ  GTTN  GTET   GTTVD  
# ...
   21:56:30.684.08-Nov-2020 3686.01 3544.22 72.09 4.00 138.03 2071.13
   21:56:30.884.08-Nov-2020 3686.01 3544.22 72.09 4.00 138.23 2071.13
   21:56:31.084.08-Nov-2020 3686.01 3544.23 72.09 4.00 138.43 2071.13
   21:56:31.284.08-Nov-2020 3686.01 3544.24 72.09 4.00 138.63 2071.13
   21:56:31.484.08-Nov-2020 3686.01 3544.19 72.09 4.00 138.83 2071.13
   21:56:31.684.08-Nov-2020 3686.01 3544.19 72.08 4.00 139.03 2071.13
   21:56:31.884.08-Nov-2020 3686.01 3544.19 72.08 4.00 139.23 2071.13
   21:56:32.084.08-Nov-2020 3686.01 3544.20 72.08 4.00 139.43 2071.13
   21:56:32.284.08-Nov-2020 3686.01 3544.23 72.08 4.00 139.63 2071.13
   21:56:32.484.08-Nov-2020 3686.01 3544.22 72.08 4.00 139.83 2071.13
   21:56:32.684.08-Nov-2020 3686.01 3544.21 72.08 4.00 140.03 2071.13
   21:56:32.884.08-Nov-2020 3686.01 3544.21 72.08 4.00 140.23 2071.13
   21:56:33.084.08-Nov-2020 3686.01 3544.22 72.08 4.00 140.43 2071.13
   21:56:33.284.08-Nov-2020 3686.01 3544.20 72.08 4.00 140.63 2071.13
   21:56:33.484.08-Nov-2020 3686.01 3544.23 72.08 4.00 140.83 2071.13
   21:56:33.684.08-Nov-2020 3686.01 3544.22 72.08 4.00 141.03 2071.13
   21:56:33.884.08-Nov-2020 3686.01 3544.22 72.07 4.00 141.23 2071.13
   21:56:34.084.08-Nov-2020 3686.01 3544.25 72.07 4.00 141.43 2071.13
   21:56:34.284.08-Nov-2020 3686.01 3544.25 72.07 4.00 141.63 2071.13
   21:56:34.484.08-Nov-2020 3686.01 3544.19 72.07 4.00 141.83 2071.13
   21:56:34.684.08-Nov-2020 3686.01 3544.19 72.07 4.00 142.03 2071.13
   21:56:34.885.08-Nov-2020 3686.01 3544.19 72.07 4.00 142.23 2071.13
   21:56:35.085.08-Nov-2020 3686.01 3544.16 72.07 4.00 142.43 2071.13
   21:56:35.285.08-Nov-2020 3686.01 3544.18 72.07 4.00 142.63 2071.13
   21:56:35.485.08-Nov-2020 3686.01 3544.16 72.07 4.00 142.83 2071.13
   21:56:35.685.08-Nov-2020 3686.01 3544.15 72.07 4.00 143.03 2071.13
   21:56:35.885.08-Nov-2020 3686.01 3544.16 72.06 4.00 143.23 2071.13
   21:56:36.085.08-Nov-2020 3686.01 3544.15 72.06 4.00 143.43 2071.13
   21:56:36.285.08-Nov-2020 3686.01 3544.15 72.06 4.00 143.63 2071.13
   21:56:36.485.08-Nov-2020 3686.01 3544.15 72.06 4.00 143.83 2071.13
   21:56:36.685.08-Nov-2020 3686.01 3544.13 72.06 4.00 144.03 2071.13
   21:56:36.885.08-Nov-2020 3686.01 3544.13 72.06 4.00 144.23 2071.13
   21:56:37.085.08-Nov-2020 3686.01 3544.22 72.06 4.00 144.43 2071.13
   21:56:37.285.08-Nov-2020 3686.01 3544.21 72.06 4.00 144.63 2071.13
   21:56:37.485.08-Nov-2020 3686.01 3544.19 72.06 4.00 144.83 2071.13
   21:56:37.685.08-Nov-2020 3686.01 3544.19 72.06 4.00 145.03 2071.13
   21:56:37.885.08-Nov-2020 3686.01 3544.19 72.06 4.00 145.23 2071.13
   21:56:38.085.08-Nov-2020 3686.01 3544.16 72.05 4.00 145.43 2071.13
   21:56:38.285.08-Nov-2020 3686.01 3544.15 72.05 4.00 145.63 2071.13
   21:56:38.485.08-Nov-2020 3686.01 3544.14 72.05 4.00 145.83 2071.13
   21:56:38.685.08-Nov-2020 3686.01 3544.14 72.05 4.00 146.03 2071.13
   21:56:38.885.08-Nov-2020 3686.01 3544.14 72.05 4.00 146.23 2071.13
   21:56:39.085.08-Nov-2020 3686.01 3544.13 72.05 4.00 146.43 2071.13
   21:56:39.286.08-Nov-2020 3686.01 3544.13 72.05 4.00 146.63 2071.13
   21:56:39.486.08-Nov-2020 3686.01 3544.15 72.05 4.00 146.83 2071.13
   21:56:39.686.08-Nov-2020 3686.01 3544.21 72.05 4.00 147.03 2071.13
   21:56:39.886.08-Nov-2020 3686.01 3544.13 72.05 4.00 147.23 2071.13
   21:56:40.086.08-Nov-2020 3686.01 3544.29 72.05 4.00 147.43 2071.13
   21:56:40.286.08-Nov-2020 3686.01 3544.22 72.04 4.00 147.63 2071.13
   21:56:40.486.08-Nov-2020 3686.01 3544.18 72.04 4.00 147.83 2071.13
   21:56:40.686.08-Nov-2020 3686.01 3544.22 72.04 4.00 148.03 2071.13
   21:56:40.886.08-Nov-2020 3686.01 3544.22 72.04 4.00 148.23 2071.13
   21:56:41.086.08-Nov-2020 3686.01 3544.18 72.04 4.00 148.43 2071.13
   21:56:41.286.08-Nov-2020 3686.01 3544.25 72.04 4.00 148.63 2071.13
   21:56:41.486.08-Nov-2020 3686.01 3544.18 72.04 4.00 148.83 2071.13
   21:56:41.686.08-Nov-2020 3686.01 3544.17 72.04 4.00 149.03 2071.13
   21:56:41.886.08-Nov-2020 3686.01 3544.17 72.04 4.00 149.23 2071.13
   21:56:42.086.08-Nov-2020 3686.01 3533.03 72.04 4.00 149.43 2071.13
   21:56:42.286.08-Nov-2020 3686.01 3533.23 72.04 4.00 149.63 2071.13
   21:56:42.486.08-Nov-2020 3686.01 3533.36 72.03 4.00 149.83 2071.13
   21:56:42.686.08-Nov-2020 3686.01 3533.41 72.03 4.00 150.03 2071.13
   21:56:42.886.08-Nov-2020 3686.01 3533.41 72.03 4.00 150.23 2071.13
   21:56:43.086.08-Nov-2020 3686.01 3534.14 72.03 4.00 150.43 2071.13
   21:56:43.286.08-Nov-2020 3686.01 3534.12 72.03 4.00 150.63 2071.13
   21:56:43.486.08-Nov-2020 3686.01 3534.31 72.03 4.00 150.83 2071.13
   21:56:43.686.08-Nov-2020 3686.01 3534.28 72.03 4.00 151.03 2071.13
   21:56:43.887.08-Nov-2020 3686.01 3534.34 72.03 4.00 151.23 2071.13
   21:56:44.087.08-Nov-2020 3686.01 3534.49 72.03 4.00 151.43 2071.13
   21:56:44.287.08-Nov-2020 3686.01 3534.52 72.03 4.00 151.63 2071.13
   21:56:44.487.08-Nov-2020 3686.01 3534.55 72.03 4.00 151.83 2071.13
   21:56:44.687.08-Nov-2020 3686.01 3534.54 72.02 4.00 152.03 2071.13
   21:56:44.887.08-Nov-2020 3686.01 3534.54 72.02 4.00 152.23 2071.13
   21:56:45.087.08-Nov-2020 3686.01 3534.77 72.02 4.00 152.43 2071.13
   21:56:45.287.08-Nov-2020 3686.01 3534.79 72.02 4.00 152.63 2071.13
   21:56:45.487.08-Nov-2020 3686.01 3534.93 72.02 4.00 152.83 2071.13
   21:56:45.687.08-Nov-2020 3686.01 3534.96 72.02 4.00 153.03 2071.13
   21:56:45.887.08-Nov-2020 3686.01 3534.96 72.02 4.00 153.23 2071.13
   21:56:46.087.08-Nov-2020 3686.01 3535.16 72.02 4.00 153.43 2071.13
   21:56:46.287.08-Nov-2020 3686.01 3535.18 72.02 4.00 153.63 2071.13
   21:56:46.487.08-Nov-2020 3686.01 3535.13 72.02 4.00 153.83 2071.13
   21:56:46.687.08-Nov-2020 3686.01 3535.29 72.02 4.00 154.03 2071.13
   21:56:46.887.08-Nov-2020 3686.01 3535.29 72.02 4.00 154.23 2071.13
   21:56:47.087.08-Nov-2020 3686.01 3535.26 72.01 4.00 154.43 2071.13
   21:56:47.287.08-Nov-2020 3686.01 3535.42 72.01 4.00 154.63 2071.13
   21:56:47.487.08-Nov-2020 3686.01 3535.42 72.01 4.00 154.83 2071.13
   21:56:47.687.08-Nov-2020 3686.01 3535.46 72.01 4.00 155.03 2071.13
   21:56:47.887.08-Nov-2020 3686.01 3535.46 72.01 4.00 155.23 2071.13
   21:56:48.087.08-Nov-2020 3686.01 3535.57 72.01 4.00 155.43 2071.13
   21:56:48.288.08-Nov-2020 3686.01 3535.44 72.01 4.00 155.63 2071.13
   21:56:48.488.08-Nov-2020 3686.01 3535.82 72.01 4.00 155.83 2071.13
   21:56:48.688.08-Nov-2020 3686.01 3535.68 72.01 4.00 156.03 2071.13
   21:56:48.888.08-Nov-2020 3686.01 3535.68 72.01 4.00 156.23 2071.13
   21:56:49.088.08-Nov-2020 3686.01 3535.59 72.00 4.00 156.43 2071.13
   21:56:49.288.08-Nov-2020 3686.01 3535.84 72.00 4.00 156.63 2071.13
   21:56:49.488.08-Nov-2020 3686.01 3535.92 72.00 4.00 156.83 2071.13
   21:56:49.688.08-Nov-2020 3686.01 3536.01 72.00 4.00 157.03 2071.13
   21:56:49.888.08-Nov-2020 3686.01 3536.01 72.00 4.00 157.23 2071.13
   21:56:50.088.08-Nov-2020 3686.01 3536.02 72.00 4.00 157.43 2071.13
   21:56:50.288.08-Nov-2020 3686.01 3536.05 72.00 4.00 157.63 2071.13
   21:56:50.488.08-Nov-2020 3686.01 3536.01 72.00 4.00 157.83 2071.13
   21:56:50.688.08-Nov-2020 3686.01 3536.08 72.00 4.00 158.04 2071.13
   21:56:50.888.08-Nov-2020 3686.01 3536.08 72.00 4.00 158.24 2071.13
   21:56:51.088.08-Nov-2020 3686.01 3536.17 71.99 4.00 158.44 2071.13
   21:56:51.288.08-Nov-2020 3686.01 3536.03 71.99 4.00 158.64 2071.13
   21:56:51.488.08-Nov-2020 3686.01 3536.01 71.99 4.00 158.84 2071.13
   21:56:51.688.08-Nov-2020 3686.01 3536.03 71.99 4.00 159.04 2071.13
   21:56:51.888.08-Nov-2020 3686.01 3536.03 71.99 4.00 159.24 2071.13
   21:56:52.088.08-Nov-2020 3686.01 3535.93 71.99 4.00 159.44 2071.13
   21:56:52.288.08-Nov-2020 3686.01 3536.10 71.99 4.00 159.64 2071.13
   21:56:52.488.08-Nov-2020 3686.01 3536.59 71.99 4.00 159.84 2071.13
   21:56:52.688.08-Nov-2020 3686.01 3543.79 71.99 4.00 160.04 2071.13
   21:56:52.889.08-Nov-2020 3686.01 3543.79 71.99 4.00 160.24 2071.13
   21:56:53.089.08-Nov-2020 3686.01 3544.09 71.99 4.00 160.44 2071.13
   21:56:53.289.08-Nov-2020 3686.01 3544.07 71.98 4.00 160.64 2071.13
   21:56:53.489.08-Nov-2020 3686.01 3544.06 71.98 4.00 160.84 2071.13
