~Version Information
 VERS.                  2.0:   CWLS log ASCII Standard -VERSION 2.0
 WRAP.                   NO:   One line per depth step
~Well Information Block
#MNEM.UNIT     VALUE/NAME     DESCRIPTION
#---------     -----------    ---------------------------
 STRT.S             21:54:12 08-Nov-20: START TIME 21:54:12 08-Nov-20
 STOP.S             22:00:43 08-Nov-20: STOP TIME  22:00:43 08-Nov-20
 STEP.S                   0.00: STEP TIME
 NULL.                 -999.25: NULL VALUE
 DFWT.                        :  DIST FWL TEXT
 DFST.                        :  DIST FSL TEXT
 DMF .             Drill Floor:  DRILL MEAS FROM
 STIM.      04.54.24 22-Sep-20:  START TIME
 DATE.      04.54.24 21-Nov-20:  END TIME
 SPUD.               21-Nov-20:  SPUD DATE
 NREF.                    Grid:  NORTH REFERENCE
 HPTY.       Minimum Curvature:  HOLE POS TYPE
 DMOD.             Drill Model:  DRILL MOD DESC
 SVYD.                  Survey:  SURVEY DESC
 ILTD.               Lithology:  INTERP LTH DESC
 FTOP.          Formation Tops:  FORM TOPS DESC
 SON .        AZ-XX-0906571587:  JOB NUMBER
 COMP.     BP Exploration (Caspian Sea) Ltd:  COMPANY
 UWI .                     N/A:  UNIQUE WELL IDENTIFIER
 API .                     N/A:  API NUMBER
 BASE.              Azerbaijan:  LOGGING EQUIPMENT BASE LOCATION
 REGN.                   EESSA:  REGION
 PROV.                    Baku:  PROVINCE
 STAT.                    Baku:  STATE NAME
 CTRY.              Azerbaijan:  COUNTRY NAME
 FLD .                     ACG:  FIELD NAME
 SRVC.     TURAN Drilling & Engineering:  CONTRACTOR
 WELL.                     J27:  WELL NAME
 RIG .             West Chirag:  RIG NAME
 DOE .                     N/A:  DOE NUMBER
 DCON.         Sperry Drilling:  DIRECTNL CONTR
 PDAT.          Mean Sea Level:  PERMANENT DATUM
 WTYP.                Deviated:  WELL TYPE
 MWDS.                    Baku:  MWD SHOP
 JOBN.        AZ-XX-0906571587:  JOB TICKET NUMB
 UNIT.                     N/A:  LOGGING EQUIPMENT ID
 MDS .        Operator Entered:  MAG DATA SOURCE
 CNTY.                        :  COUNTY
 LOC .                        :  LOCATION
 LMF .             Drill Floor:  LOG MEASURED FROM
 TVDS.m                  43.00:  TVDSS CORRECTN
 LATI.deg                40.13:  LATITUDE
 LONG.deg                51.22:  LONGITUDE
 WHNS.m                   7.72:  WELL HEAD N/S
 WHEW.m                 -14.24:  WELL HEAD E/W
 UTMX.m              519005.06:  UTM X
 UTMY.m             4443793.85:  UTM Y
 DFWL.m                   0.00:  DISTANCE FWL
 DFSL.m                   0.00:  DISTANCE FSL
 SDEP.m                 347.00:  START DEPTH
 TDD .m                 581.00:  TOTAL DEPTH (DRILLER)
 VSDR.deg               159.72:  VERT SEC DIRECT
 GVFD.g                   1.00:  GRAVITY FIELD
 MFLD.nT              50313.00:  MAGNETIC FIELD
 MDIP.deg                59.58:  MAGNETIC DIP
 MDEC.deg                 6.45:  MAGNETIC DECL
 GRDC.deg                 0.15:  GRID CORRECTION
 AZTC.deg                 6.30:  AZM TOTAL CORR
 EPD .m                   0.00:  ELEVATION
 EGL .m                   0.00:  GROUND ELEVATION
 WDMS.m                 169.80:  WD ELEV
 APD .m                  43.00:  DEPTH ABOVE PD
 AGAP.m                  43.00:  AIR GAP
 VSEW.m                 -14.24:  VERT SEC E/W
 VSNS.m                   7.72:  VERT SEC N/S
 DEP .m                 342.45:  DEPTH
 EKB .m                   0.00:  KB ELEVATION
 EDF .m                  43.00:  DF ELEVATION
 TDL .m                1313.00:  TOTAL DEPTH (LOGGER)
 VSC .                       0:  VS TO CLOSURE
 MAGU.                 1851396:  MAGUTM CHECKSUM
~Parameter Information Block
#MNEM.UNIT       Value        Description
#---------     -----------    ---------------------------
 AV  .mps                 0.65:  Ann Velocity 
 AVMX.mps                 0.75:  Max Ann Veloc 
 AZIF.deg               115.08:  Azm, Final 
 BHAT.        Rotary Steerable:  BHA Type 
 BROT.∞/30m               1.50:  Build Rotating 
 BS  .in                 12.25:  Bit Size 
 BSZ .in                 12.25:  Bit Size 
 BTPL.psig              700.00:  Bit Press Loss 
 CABU.                     Yes:  Customer Abuse 
 COMM.                     „J:  Run Comments 1 
 TCS .hr                121.00:  Time Ciculation Ended 
 CV  .mps                 1.83:  Crit Velocity 
 CVMX.mps                 1.83:  Max Crit Veloc 
 DD1 .          Rashad Habibov:  Direct Drillr 1 
 DD2 .         Rasim Ibrahimov:  Direct Drillr 2 
 DDSV.                 iCruise:  DD Service 
 DEFF.%                 100.00:  % Det Eff 
 DLRX.∞/30m               3.60:  Dogleg Rot Max 
 DLSO.∞/30m               3.10:  Dogleg Oriented 
 DLSX.∞/30m               3.60:  Dogleg Str Max 
 DRET.      13.41.20 12-Nov-20:  Drill End Time 
 DRST.      13.41.20 07-Nov-20:  Drill Start Tim 
 DTIM.hr                 54.16:  Time Drilling 
 EDEP.m                4762.01:  End Depth 
 ENG1.           Amrah Tahirov:  Engineer 1 
 ENG2.      Bakhtiyar Jabbarli:  Engineer 2 
 ENG3.          Ruslan Safarov:  Engineer 3 
 ETIM.      13.41.20 14-Nov-20:  End Time 
 FLOI.gpm              1200.00:  Flow In 
 FLON.gpm              1100.00:  Flow In Min 
 FLOS.cptm                0.00:  Fluid Loss 
 FLOX.gpm              1200.00:  Flow In Max 
 HFLO.                      No:  High Flow 
 HPRE.                      No:  High Pressure 
 HTEM.                      No:  High Temp 
 HYDO.m                   2.00:  Hydro Offset 
 IFIN.deg                66.14:  Inc, Final 
 IMAX.deg                69.03:  Inc Max 
 IMIN.deg                64.64:  Inc Min 
 IMND.m                4450.16:  Inc Min Depth 
 IMXD.m                3996.00:  Inc Max Depth 
 JARR.                     Yes:  Jarring 
 LETM.      13.41.20 14-Nov-20:  Log End Time 
 LOST.hr                     0:  Lost Rig Time 
 LSTM.      13.41.20 06-Nov-20:  Log Start Time 
 MDCL.ppm             42500.00:  Mud Chlorides 
 MDES.     Inversion Oil/Synthetic:  Mud Desc 
 DFD .sg                  1.45:  Mud Density 
 MDMN.sg                  1.45:  Dens Mud Min 
 MDMX.sg                  1.45:  Dens Mud Max 
 MOIL.                      70:  Run Mud Oil % 
 MOWR.                   70:30:  Run Mud OWR 
 MSND.                       0:  Run Mud Sand % 
 MSOL.                    19.3:  Run Mud Solids% 
 DFV .spqt               77.00:  Mud Viscosity 
 MWOD.in                  8.00:  MWD Tool OD 
 MWSI.                      No:  Serv Intrp, MWD 
 OTIM.hr                201.88:  Time Operating 
 PCON.           Look Like New:  Pad Condition 
 PMAX.psia             9250.94:  Press Op, Max 
 PV  .cP                 29.00:  Mud PV 
 RUN .                     800:  Run Number 
 ROPA.m/hr               28.00:  ROP Avg 
 ROPN.m/hr               25.00:  ROP Min 
 ROPX.m/hr               30.00:  ROP Max 
 RPMA.rpm               160.00:  RPM Surface Avg 
 RPMN.rpm               160.00:  RPM Surface Min 
 RPMX.rpm               160.00:  RPM Surface Max 
 RRUN.                    0800:  Rig Run Number 
 RTIM.hr                 12.00:  Time Reaming 
 SAZI.deg               169.33:  Azm, Start 
 SDEP.m                3449.01:  Start Depth 
 SIDD.                      No:  Serv Intrp, DD 
 SINC.deg                68.01:  Inc, Start 
 SPPA.psig             4900.00:  SPP Avg 
 SPPN.psig             4800.00:  SPP Min 
 SPPX.psig             5050.00:  SPP Max 
 STIM.      13.41.20 06-Nov-20:  Start Time 
 SVCS.                 DD, MWD:  Services 
 SVER.                    9.20:  Sperry Version 
 TDAT.m                4762.01:  Tot Depth Attmp 
 TDDF.                      No:  Trip for DD 
 TDLG.m                1313.00:  Tot Depth Loggd 
 TFF .                      No:  Trip for Fail 
 TQAA.f-kp               13.00:  Torque Abs Avg 
 TQAN.f-kp               13.00:  Torque Abs Min 
 TQAX.f-kp               13.00:  Torque Abs Max 
 TRRT.∞/30m               1.70:  Turn Rotating 
 MRT .                  EWR-M5:  Maximum Recorded Temperature 
 TTMX.degC               86.00:  Max Tool Temp 
 VS01.                90622122:  Virtual Str1 SN 
 VS02.                90577298:  Virtual Str2 SN 
 VS03.                90563623:  Virtual Str3 SN 
 VS04.                90617559:  Virtual Str4 SN 
 VS05.                11339492:  Virtual Str5 SN 
 VS06.                12385033:  Virtual Str6 SN 
 WBMN.klb                 0.00:  WOB Min 
 WOBA.klb                22.00:  WOB Avg 
 WOBX.klb                26.00:  WOB Max 
 YP  .lhf2               30.00:  Yield Point 
~Curve Information Block
#MNEM.UNIT                 API CODE     Curve Description
#---------               -----------    ---------------------------
 TIME.HHMMSS            00 000 000 000:  GT Time & Date
 GTDEPTH.m              00 000 000 000:  GT Depth
 GTPQH.psia             00 000 000 000:  GT HR Quartz Pressure
 GTTQ.degC              00 000 000 000:  GT Quartz Temperature
 GTTN.NONE              00 000 000 000:  GT Test Number
 GTET.sec               00 000 000 000:  GT Elapsed Test Time
 GTTVD.m                00 000 000 000:  GT True Vertical Depth
#Other Information
#
#WARRANTY: Halliburton will use its best efforts to furnish customers with 
#accurate information and interpretations that are part of, and incident to, the services 
#provided.  However, Halliburton cannot and does not warrant the accuracy 
#or correctness of such information and interpretations.  Under no circumstances should any 
#such information or interpretation be relied upon as the sole basis for any drilling, 
#completion, production, or financial decision or any procedure involving any risk to the 
#safety of any drilling venture, drilling rig or its crew or any other third party.  The 
#Customer has full responsibility for all drilling, completion and production operation.  
#Halliburton makes no representations or warranties, either expressed or 
#implied, including, but not limited to, the implied warranties of merchantability or fitness 
#for a particular purpose, with respect to the services rendered.  In no event will 
#Halliburton be liable for failure to obtain any particular results or for 
#any damages, including, but not limited to, indirect, special or consequential damages, 
#resulting from the use of any information or interpretation provided by Halliburton.
#
~A           TIME           GTDEPTH  GTPQH  GTTQ  GTTN  GTET   GTTVD  
# ...
   21:55:21.668.08-Nov-2020 3686.01 3544.26 72.41 4.00  69.02 2071.13
   21:55:21.868.08-Nov-2020 3686.01 3544.26 72.41 4.00  69.22 2071.13
   21:55:22.068.08-Nov-2020 3686.01 3544.22 72.41 4.00  69.42 2071.13
   21:55:22.268.08-Nov-2020 3686.01 3544.25 72.41 4.00  69.62 2071.13
   21:55:22.468.08-Nov-2020 3686.01 3544.21 72.41 4.00  69.82 2071.13
   21:55:22.669.08-Nov-2020 3686.01 3544.25 72.41 4.00  70.02 2071.13
   21:55:22.869.08-Nov-2020 3686.01 3544.25 72.41 4.00  70.22 2071.13
   21:55:23.069.08-Nov-2020 3686.01 3544.23 72.41 4.00  70.42 2071.13
   21:55:23.269.08-Nov-2020 3686.01 3544.29 72.41 4.00  70.62 2071.13
   21:55:23.469.08-Nov-2020 3686.01 3544.25 72.40 4.00  70.82 2071.13
   21:55:23.669.08-Nov-2020 3686.01 3544.23 72.40 4.00  71.02 2071.13
   21:55:23.869.08-Nov-2020 3686.01 3544.23 72.40 4.00  71.22 2071.13
   21:55:24.069.08-Nov-2020 3686.01 3544.25 72.40 4.00  71.42 2071.13
   21:55:24.269.08-Nov-2020 3686.01 3544.19 72.40 4.00  71.62 2071.13
   21:55:24.469.08-Nov-2020 3686.01 3544.23 72.40 4.00  71.82 2071.13
   21:55:24.669.08-Nov-2020 3686.01 3544.19 72.40 4.00  72.02 2071.13
   21:55:24.869.08-Nov-2020 3686.01 3544.19 72.40 4.00  72.22 2071.13
   21:55:25.069.08-Nov-2020 3686.01 3544.20 72.40 4.00  72.42 2071.13
   21:55:25.269.08-Nov-2020 3686.01 3544.20 72.40 4.00  72.62 2071.13
   21:55:25.469.08-Nov-2020 3686.01 3544.21 72.40 4.00  72.82 2071.13
   21:55:25.669.08-Nov-2020 3686.01 3544.19 72.39 4.00  73.02 2071.13
   21:55:25.869.08-Nov-2020 3686.01 3544.19 72.39 4.00  73.22 2071.13
   21:55:26.069.08-Nov-2020 3686.01 3544.18 72.39 4.00  73.42 2071.13
   21:55:26.269.08-Nov-2020 3686.01 3544.32 72.39 4.00  73.62 2071.13
   21:55:26.469.08-Nov-2020 3686.01 3544.23 72.39 4.00  73.82 2071.13
   21:55:26.669.08-Nov-2020 3686.01 3544.23 72.39 4.00  74.02 2071.13
   21:55:26.869.08-Nov-2020 3686.01 3544.23 72.39 4.00  74.22 2071.13
   21:55:27.070.08-Nov-2020 3686.01 3544.20 72.39 4.00  74.42 2071.13
   21:55:27.270.08-Nov-2020 3686.01 3544.20 72.39 4.00  74.62 2071.13
   21:55:27.470.08-Nov-2020 3686.01 3544.24 72.39 4.00  74.82 2071.13
   21:55:27.670.08-Nov-2020 3686.01 3544.20 72.38 4.00  75.02 2071.13
   21:55:27.870.08-Nov-2020 3686.01 3544.20 72.38 4.00  75.22 2071.13
   21:55:28.070.08-Nov-2020 3686.01 3544.22 72.38 4.00  75.42 2071.13
   21:55:28.270.08-Nov-2020 3686.01 3544.21 72.38 4.00  75.62 2071.13
   21:55:28.470.08-Nov-2020 3686.01 3544.21 72.38 4.00  75.82 2071.13
   21:55:28.670.08-Nov-2020 3686.01 3544.25 72.38 4.00  76.02 2071.13
   21:55:28.870.08-Nov-2020 3686.01 3544.25 72.38 4.00  76.22 2071.13
   21:55:29.070.08-Nov-2020 3686.01 3544.24 72.38 4.00  76.42 2071.13
   21:55:29.270.08-Nov-2020 3686.01 3544.37 72.38 4.00  76.62 2071.13
   21:55:29.470.08-Nov-2020 3686.01 3544.21 72.38 4.00  76.82 2071.13
   21:55:29.670.08-Nov-2020 3686.01 3544.27 72.38 4.00  77.02 2071.13
   21:55:29.870.08-Nov-2020 3686.01 3544.27 72.37 4.00  77.22 2071.13
   21:55:30.070.08-Nov-2020 3686.01 3544.22 72.37 4.00  77.42 2071.13
   21:55:30.270.08-Nov-2020 3686.01 3544.31 72.37 4.00  77.62 2071.13
   21:55:30.470.08-Nov-2020 3686.01 3544.26 72.37 4.00  77.82 2071.13
   21:55:30.670.08-Nov-2020 3686.01 3544.20 72.37 4.00  78.02 2071.13
   21:55:30.870.08-Nov-2020 3686.01 3544.24 72.37 4.00  78.22 2071.13
   21:55:31.070.08-Nov-2020 3686.01 3544.26 72.37 4.00  78.42 2071.13
   21:55:31.270.08-Nov-2020 3686.01 3544.25 72.37 4.00  78.62 2071.13
   21:55:31.470.08-Nov-2020 3686.01 3544.29 72.37 4.00  78.82 2071.13
   21:55:31.671.08-Nov-2020 3686.01 3544.21 72.37 4.00  79.02 2071.13
   21:55:31.871.08-Nov-2020 3686.01 3544.23 72.37 4.00  79.22 2071.13
   21:55:32.071.08-Nov-2020 3686.01 3544.28 72.36 4.00  79.42 2071.13
   21:55:32.271.08-Nov-2020 3686.01 3544.27 72.36 4.00  79.62 2071.13
   21:55:32.471.08-Nov-2020 3686.01 3544.23 72.36 4.00  79.82 2071.13
   21:55:32.671.08-Nov-2020 3686.01 3544.29 72.36 4.00  80.02 2071.13
   21:55:32.871.08-Nov-2020 3686.01 3544.29 72.36 4.00  80.22 2071.13
   21:55:33.071.08-Nov-2020 3686.01 3544.23 72.36 4.00  80.42 2071.13
   21:55:33.271.08-Nov-2020 3686.01 3544.24 72.36 4.00  80.62 2071.13
   21:55:33.471.08-Nov-2020 3686.01 3544.21 72.36 4.00  80.82 2071.13
   21:55:33.671.08-Nov-2020 3686.01 3544.21 72.36 4.00  81.02 2071.13
   21:55:33.871.08-Nov-2020 3686.01 3544.21 72.36 4.00  81.22 2071.13
   21:55:34.071.08-Nov-2020 3686.01 3544.22 72.35 4.00  81.42 2071.13
   21:55:34.271.08-Nov-2020 3686.01 3544.22 72.35 4.00  81.62 2071.13
   21:55:34.471.08-Nov-2020 3686.01 3544.21 72.35 4.00  81.82 2071.13
   21:55:34.671.08-Nov-2020 3686.01 3544.22 72.35 4.00  82.02 2071.13
   21:55:34.871.08-Nov-2020 3686.01 3544.22 72.35 4.00  82.22 2071.13
   21:55:35.071.08-Nov-2020 3686.01 3544.26 72.35 4.00  82.42 2071.13
   21:55:35.271.08-Nov-2020 3686.01 3544.26 72.35 4.00  82.62 2071.13
   21:55:35.471.08-Nov-2020 3686.01 3544.24 72.35 4.00  82.82 2071.13
   21:55:35.671.08-Nov-2020 3686.01 3544.26 72.35 4.00  83.02 2071.13
   21:55:35.871.08-Nov-2020 3686.01 3544.26 72.35 4.00  83.22 2071.13
   21:55:36.072.08-Nov-2020 3686.01 3544.19 72.35 4.00  83.42 2071.13
   21:55:36.272.08-Nov-2020 3686.01 3544.24 72.34 4.00  83.62 2071.13
   21:55:36.472.08-Nov-2020 3686.01 3544.21 72.34 4.00  83.82 2071.13
   21:55:36.672.08-Nov-2020 3686.01 3544.21 72.34 4.00  84.02 2071.13
   21:55:36.872.08-Nov-2020 3686.01 3544.21 72.34 4.00  84.22 2071.13
   21:55:37.072.08-Nov-2020 3686.01 3544.19 72.34 4.00  84.42 2071.13
   21:55:37.272.08-Nov-2020 3686.01 3544.22 72.34 4.00  84.62 2071.13
   21:55:37.472.08-Nov-2020 3686.01 3544.20 72.34 4.00  84.82 2071.13
   21:55:37.672.08-Nov-2020 3686.01 3544.26 72.34 4.00  85.02 2071.13
   21:55:37.872.08-Nov-2020 3686.01 3544.26 72.34 4.00  85.22 2071.13
   21:55:38.072.08-Nov-2020 3686.01 3544.28 72.34 4.00  85.42 2071.13
   21:55:38.272.08-Nov-2020 3686.01 3544.27 72.34 4.00  85.62 2071.13
   21:55:38.472.08-Nov-2020 3686.01 3544.22 72.33 4.00  85.82 2071.13
   21:55:38.672.08-Nov-2020 3686.01 3544.26 72.33 4.00  86.02 2071.13
   21:55:38.872.08-Nov-2020 3686.01 3544.22 72.33 4.00  86.22 2071.13
   21:55:39.072.08-Nov-2020 3686.01 3544.19 72.33 4.00  86.42 2071.13
   21:55:39.272.08-Nov-2020 3686.01 3544.35 72.33 4.00  86.62 2071.13
   21:55:39.472.08-Nov-2020 3686.01 3544.20 72.33 4.00  86.82 2071.13
   21:55:39.672.08-Nov-2020 3686.01 3544.23 72.33 4.00  87.02 2071.13
   21:55:39.872.08-Nov-2020 3686.01 3544.24 72.33 4.00  87.22 2071.13
   21:55:40.072.08-Nov-2020 3686.01 3544.17 72.33 4.00  87.42 2071.13
   21:55:40.272.08-Nov-2020 3686.01 3544.28 72.33 4.00  87.62 2071.13
   21:55:40.472.08-Nov-2020 3686.01 3544.24 72.33 4.00  87.82 2071.13
   21:55:40.673.08-Nov-2020 3686.01 3544.24 72.32 4.00  88.02 2071.13
   21:55:40.873.08-Nov-2020 3686.01 3544.20 72.32 4.00  88.22 2071.13
   21:55:41.073.08-Nov-2020 3686.01 3544.23 72.32 4.00  88.42 2071.13
   21:55:41.273.08-Nov-2020 3686.01 3544.19 72.32 4.00  88.62 2071.13
   21:55:41.473.08-Nov-2020 3686.01 3544.21 72.32 4.00  88.82 2071.13
   21:55:41.673.08-Nov-2020 3686.01 3544.18 72.32 4.00  89.02 2071.13
   21:55:41.873.08-Nov-2020 3686.01 3544.18 72.32 4.00  89.22 2071.13
   21:55:42.073.08-Nov-2020 3686.01 3544.19 72.31 4.00  89.42 2071.13
   21:55:42.273.08-Nov-2020 3686.01 3544.19 72.31 4.00  89.62 2071.13
   21:55:42.473.08-Nov-2020 3686.01 3544.18 72.31 4.00  89.82 2071.13
   21:55:42.673.08-Nov-2020 3686.01 3544.19 72.31 4.00  90.02 2071.13
   21:55:42.873.08-Nov-2020 3686.01 3544.19 72.31 4.00  90.22 2071.13
   21:55:43.073.08-Nov-2020 3686.01 3544.23 72.31 4.00  90.42 2071.13
   21:55:43.273.08-Nov-2020 3686.01 3544.21 72.31 4.00  90.62 2071.13
   21:55:43.473.08-Nov-2020 3686.01 3544.27 72.31 4.00  90.82 2071.13
   21:55:43.673.08-Nov-2020 3686.01 3544.22 72.31 4.00  91.02 2071.13
   21:55:43.873.08-Nov-2020 3686.01 3544.21 72.30 4.00  91.22 2071.13
   21:55:44.073.08-Nov-2020 3686.01 3544.21 72.30 4.00  91.42 2071.13
   21:55:44.273.08-Nov-2020 3686.01 3544.20 72.30 4.00  91.62 2071.13
   21:55:44.473.08-Nov-2020 3686.01 3544.18 72.30 4.00  91.82 2071.13
