~Version Information
 VERS.                  2.0:   CWLS log ASCII Standard -VERSION 2.0
 WRAP.                   NO:   One line per depth step
~Well Information Block
#MNEM.UNIT     VALUE/NAME     DESCRIPTION
#---------     -----------    ---------------------------
 STRT.S             18:53:27 10-Nov-20: START TIME 18:53:27 10-Nov-20
 STOP.S             19:00:00 10-Nov-20: STOP TIME  19:00:00 10-Nov-20
 STEP.S                   0.00: STEP TIME
 NULL.                 -999.25: NULL VALUE
 DFWT.                        :  DIST FWL TEXT
 DFST.                        :  DIST FSL TEXT
 DMF .             Drill Floor:  DRILL MEAS FROM
 STIM.      04.54.24 22-Sep-20:  START TIME
 DATE.      04.54.24 21-Nov-20:  END TIME
 SPUD.               21-Nov-20:  SPUD DATE
 NREF.                    Grid:  NORTH REFERENCE
 HPTY.       Minimum Curvature:  HOLE POS TYPE
 DMOD.             Drill Model:  DRILL MOD DESC
 SVYD.                  Survey:  SURVEY DESC
 ILTD.               Lithology:  INTERP LTH DESC
 FTOP.          Formation Tops:  FORM TOPS DESC
 SON .        AZ-XX-0906571587:  JOB NUMBER
 COMP.     BP Exploration (Caspian Sea) Ltd:  COMPANY
 UWI .                     N/A:  UNIQUE WELL IDENTIFIER
 API .                     N/A:  API NUMBER
 BASE.              Azerbaijan:  LOGGING EQUIPMENT BASE LOCATION
 REGN.                   EESSA:  REGION
 PROV.                    Baku:  PROVINCE
 STAT.                    Baku:  STATE NAME
 CTRY.              Azerbaijan:  COUNTRY NAME
 FLD .                     ACG:  FIELD NAME
 SRVC.     TURAN Drilling & Engineering:  CONTRACTOR
 WELL.                     J27:  WELL NAME
 RIG .             West Chirag:  RIG NAME
 DOE .                     N/A:  DOE NUMBER
 DCON.         Sperry Drilling:  DIRECTNL CONTR
 PDAT.          Mean Sea Level:  PERMANENT DATUM
 WTYP.                Deviated:  WELL TYPE
 MWDS.                    Baku:  MWD SHOP
 JOBN.        AZ-XX-0906571587:  JOB TICKET NUMB
 UNIT.                     N/A:  LOGGING EQUIPMENT ID
 MDS .        Operator Entered:  MAG DATA SOURCE
 CNTY.                        :  COUNTY
 LOC .                        :  LOCATION
 LMF .             Drill Floor:  LOG MEASURED FROM
 TVDS.m                  43.00:  TVDSS CORRECTN
 LATI.deg                40.13:  LATITUDE
 LONG.deg                51.22:  LONGITUDE
 WHNS.m                   7.72:  WELL HEAD N/S
 WHEW.m                 -14.24:  WELL HEAD E/W
 UTMX.m              519005.06:  UTM X
 UTMY.m             4443793.85:  UTM Y
 DFWL.m                   0.00:  DISTANCE FWL
 DFSL.m                   0.00:  DISTANCE FSL
 SDEP.m                 347.00:  START DEPTH
 TDD .m                 581.00:  TOTAL DEPTH (DRILLER)
 VSDR.deg               159.72:  VERT SEC DIRECT
 GVFD.g                   1.00:  GRAVITY FIELD
 MFLD.nT              50313.00:  MAGNETIC FIELD
 MDIP.deg                59.58:  MAGNETIC DIP
 MDEC.deg                 6.45:  MAGNETIC DECL
 GRDC.deg                 0.15:  GRID CORRECTION
 AZTC.deg                 6.30:  AZM TOTAL CORR
 EPD .m                   0.00:  ELEVATION
 EGL .m                   0.00:  GROUND ELEVATION
 WDMS.m                 169.80:  WD ELEV
 APD .m                  43.00:  DEPTH ABOVE PD
 AGAP.m                  43.00:  AIR GAP
 VSEW.m                 -14.24:  VERT SEC E/W
 VSNS.m                   7.72:  VERT SEC N/S
 DEP .m                 342.45:  DEPTH
 EKB .m                   0.00:  KB ELEVATION
 EDF .m                  43.00:  DF ELEVATION
 TDL .m                1313.00:  TOTAL DEPTH (LOGGER)
 VSC .                       0:  VS TO CLOSURE
 MAGU.                 1851396:  MAGUTM CHECKSUM
~Parameter Information Block
#MNEM.UNIT       Value        Description
#---------     -----------    ---------------------------
 AV  .mps                 0.65:  Ann Velocity 
 AVMX.mps                 0.75:  Max Ann Veloc 
 AZIF.deg               115.08:  Azm, Final 
 BHAT.        Rotary Steerable:  BHA Type 
 BROT.°/30m               1.50:  Build Rotating 
 BS  .in                 12.25:  Bit Size 
 BSZ .in                 12.25:  Bit Size 
 BTPL.psig              700.00:  Bit Press Loss 
 CABU.                     Yes:  Customer Abuse 
 COMM.                     ”Ú:  Run Comments 1 
 TCS .hr                121.00:  Time Ciculation Ended 
 CV  .mps                 1.83:  Crit Velocity 
 CVMX.mps                 1.83:  Max Crit Veloc 
 DD1 .          Rashad Habibov:  Direct Drillr 1 
 DD2 .         Rasim Ibrahimov:  Direct Drillr 2 
 DDSV.                 iCruise:  DD Service 
 DEFF.%                 100.00:  % Det Eff 
 DLRX.°/30m               3.60:  Dogleg Rot Max 
 DLSO.°/30m               3.10:  Dogleg Oriented 
 DLSX.°/30m               3.60:  Dogleg Str Max 
 DRET.      13.41.20 12-Nov-20:  Drill End Time 
 DRST.      13.41.20 07-Nov-20:  Drill Start Tim 
 DTIM.hr                 54.16:  Time Drilling 
 EDEP.m                4762.01:  End Depth 
 ENG1.           Amrah Tahirov:  Engineer 1 
 ENG2.      Bakhtiyar Jabbarli:  Engineer 2 
 ENG3.          Ruslan Safarov:  Engineer 3 
 ETIM.      13.41.20 14-Nov-20:  End Time 
 FLOI.gpm              1200.00:  Flow In 
 FLON.gpm              1100.00:  Flow In Min 
 FLOS.cptm                0.00:  Fluid Loss 
 FLOX.gpm              1200.00:  Flow In Max 
 HFLO.                      No:  High Flow 
 HPRE.                      No:  High Pressure 
 HTEM.                      No:  High Temp 
 HYDO.m                   2.00:  Hydro Offset 
 IFIN.deg                66.14:  Inc, Final 
 IMAX.deg                69.03:  Inc Max 
 IMIN.deg                64.64:  Inc Min 
 IMND.m                4450.16:  Inc Min Depth 
 IMXD.m                3996.00:  Inc Max Depth 
 JARR.                     Yes:  Jarring 
 LETM.      13.41.20 14-Nov-20:  Log End Time 
 LOST.hr                     0:  Lost Rig Time 
 LSTM.      13.41.20 06-Nov-20:  Log Start Time 
 MDCL.ppm             42500.00:  Mud Chlorides 
 MDES.     Inversion Oil/Synthetic:  Mud Desc 
 DFD .sg                  1.45:  Mud Density 
 MDMN.sg                  1.45:  Dens Mud Min 
 MDMX.sg                  1.45:  Dens Mud Max 
 MOIL.                      70:  Run Mud Oil % 
 MOWR.                   70:30:  Run Mud OWR 
 MSND.                       0:  Run Mud Sand % 
 MSOL.                    19.3:  Run Mud Solids% 
 DFV .spqt               77.00:  Mud Viscosity 
 MWOD.in                  8.00:  MWD Tool OD 
 MWSI.                      No:  Serv Intrp, MWD 
 OTIM.hr                201.88:  Time Operating 
 PCON.           Look Like New:  Pad Condition 
 PMAX.psia             9250.94:  Press Op, Max 
 PV  .cP                 29.00:  Mud PV 
 RUN .                     800:  Run Number 
 ROPA.m/hr               28.00:  ROP Avg 
 ROPN.m/hr               25.00:  ROP Min 
 ROPX.m/hr               30.00:  ROP Max 
 RPMA.rpm               160.00:  RPM Surface Avg 
 RPMN.rpm               160.00:  RPM Surface Min 
 RPMX.rpm               160.00:  RPM Surface Max 
 RRUN.                    0800:  Rig Run Number 
 RTIM.hr                 12.00:  Time Reaming 
 SAZI.deg               169.33:  Azm, Start 
 SDEP.m                3449.01:  Start Depth 
 SIDD.                      No:  Serv Intrp, DD 
 SINC.deg                68.01:  Inc, Start 
 SPPA.psig             4900.00:  SPP Avg 
 SPPN.psig             4800.00:  SPP Min 
 SPPX.psig             5050.00:  SPP Max 
 STIM.      13.41.20 06-Nov-20:  Start Time 
 SVCS.                 DD, MWD:  Services 
 SVER.                    9.20:  Sperry Version 
 TDAT.m                4762.01:  Tot Depth Attmp 
 TDDF.                      No:  Trip for DD 
 TDLG.m                1313.00:  Tot Depth Loggd 
 TFF .                      No:  Trip for Fail 
 TQAA.f-kp               13.00:  Torque Abs Avg 
 TQAN.f-kp               13.00:  Torque Abs Min 
 TQAX.f-kp               13.00:  Torque Abs Max 
 TRRT.°/30m               1.70:  Turn Rotating 
 MRT .                  EWR-M5:  Maximum Recorded Temperature 
 TTMX.degC               86.00:  Max Tool Temp 
 VS01.                90622122:  Virtual Str1 SN 
 VS02.                90577298:  Virtual Str2 SN 
 VS03.                90563623:  Virtual Str3 SN 
 VS04.                90617559:  Virtual Str4 SN 
 VS05.                11339492:  Virtual Str5 SN 
 VS06.                12385033:  Virtual Str6 SN 
 WBMN.klb                 0.00:  WOB Min 
 WOBA.klb                22.00:  WOB Avg 
 WOBX.klb                26.00:  WOB Max 
 YP  .lhf2               30.00:  Yield Point 
~Curve Information Block
#MNEM.UNIT                 API CODE     Curve Description
#---------               -----------    ---------------------------
 TIME.HHMMSS            00 000 000 000:  GT Time & Date
 GTDEPTH.m              00 000 000 000:  GT Depth
 GTPQH.psia             00 000 000 000:  GT HR Quartz Pressure
 GTTQ.degC              00 000 000 000:  GT Quartz Temperature
 GTTN.NONE              00 000 000 000:  GT Test Number
 GTET.sec               00 000 000 000:  GT Elapsed Test Time
 GTTVD.m                00 000 000 000:  GT True Vertical Depth
#Other Information
#
#WARRANTY: Halliburton will use its best efforts to furnish customers with 
#accurate information and interpretations that are part of, and incident to, the services 
#provided.  However, Halliburton cannot and does not warrant the accuracy 
#or correctness of such information and interpretations.  Under no circumstances should any 
#such information or interpretation be relied upon as the sole basis for any drilling, 
#completion, production, or financial decision or any procedure involving any risk to the 
#safety of any drilling venture, drilling rig or its crew or any other third party.  The 
#Customer has full responsibility for all drilling, completion and production operation.  
#Halliburton makes no representations or warranties, either expressed or 
#implied, including, but not limited to, the implied warranties of merchantability or fitness 
#for a particular purpose, with respect to the services rendered.  In no event will 
#Halliburton be liable for failure to obtain any particular results or for 
#any damages, including, but not limited to, indirect, special or consequential damages, 
#resulting from the use of any information or interpretation provided by Halliburton.
#
~A           TIME           GTDEPTH  GTPQH  GTTQ  GTTN  GTET   GTTVD  
# ...
   18:58:49.585.10-Nov-2020 4475.51 4015.89 79.95 5.00 322.09 2369.25
   18:58:49.785.10-Nov-2020 4475.51 4015.89 79.95 5.00 322.29 2369.25
   18:58:49.985.10-Nov-2020 4475.51 4016.02 79.94 5.00 322.49 2369.25
   18:58:50.185.10-Nov-2020 4475.51 4016.01 79.94 5.00 322.69 2369.25
   18:58:50.385.10-Nov-2020 4475.51 4016.00 79.94 5.00 322.89 2369.25
   18:58:50.585.10-Nov-2020 4475.51 4016.04 79.94 5.00 323.09 2369.25
   18:58:50.785.10-Nov-2020 4475.51 4016.04 79.94 5.00 323.29 2369.25
   18:58:50.985.10-Nov-2020 4475.51 4016.23 79.94 5.00 323.49 2369.25
   18:58:51.185.10-Nov-2020 4475.51 4016.08 79.94 5.00 323.69 2369.25
   18:58:51.385.10-Nov-2020 4475.51 4016.16 79.94 5.00 323.89 2369.25
   18:58:51.586.10-Nov-2020 4475.51 4015.97 79.94 5.00 324.09 2369.25
   18:58:51.786.10-Nov-2020 4475.51 4015.97 79.94 5.00 324.29 2369.25
   18:58:51.986.10-Nov-2020 4475.51 4016.01 79.94 5.00 324.49 2369.25
   18:58:52.186.10-Nov-2020 4475.51 4016.08 79.94 5.00 324.69 2369.25
   18:58:52.386.10-Nov-2020 4475.51 4016.09 79.94 5.00 324.89 2369.25
   18:58:52.586.10-Nov-2020 4475.51 4016.00 79.94 5.00 325.09 2369.25
   18:58:52.786.10-Nov-2020 4475.51 4016.00 79.94 5.00 325.29 2369.25
   18:58:52.986.10-Nov-2020 4475.51 4016.08 79.94 5.00 325.49 2369.25
   18:58:53.186.10-Nov-2020 4475.51 4016.32 79.94 5.00 325.69 2369.25
   18:58:53.386.10-Nov-2020 4475.51 4016.21 79.94 5.00 325.89 2369.25
   18:58:53.586.10-Nov-2020 4475.51 4016.07 79.94 5.00 326.09 2369.25
   18:58:53.786.10-Nov-2020 4475.51 4016.07 79.94 5.00 326.29 2369.25
   18:58:53.986.10-Nov-2020 4475.51 4016.30 79.93 5.00 326.49 2369.25
   18:58:54.186.10-Nov-2020 4475.51 4016.36 79.93 5.00 326.69 2369.25
   18:58:54.386.10-Nov-2020 4475.51 4016.26 79.93 5.00 326.89 2369.25
   18:58:54.586.10-Nov-2020 4475.51 4016.20 79.93 5.00 327.09 2369.25
   18:58:54.786.10-Nov-2020 4475.51 4016.20 79.93 5.00 327.29 2369.25
   18:58:54.986.10-Nov-2020 4475.51 4016.33 79.93 5.00 327.49 2369.25
   18:58:55.187.10-Nov-2020 4475.51 4016.30 79.93 5.00 327.69 2369.25
   18:58:55.387.10-Nov-2020 4475.51 4016.31 79.93 5.00 327.89 2369.25
   18:58:55.587.10-Nov-2020 4475.51 4016.38 79.93 5.00 328.09 2369.25
   18:58:55.787.10-Nov-2020 4475.51 4016.38 79.93 5.00 328.29 2369.25
   18:58:55.987.10-Nov-2020 4475.51 4016.36 79.93 5.00 328.49 2369.25
   18:58:56.187.10-Nov-2020 4475.51 4016.37 79.93 5.00 328.69 2369.25
   18:58:56.387.10-Nov-2020 4475.51 4016.43 79.93 5.00 328.89 2369.25
   18:58:56.587.10-Nov-2020 4475.51 4016.40 79.93 5.00 329.09 2369.25
   18:58:56.787.10-Nov-2020 4475.51 4016.40 79.93 5.00 329.29 2369.25
   18:58:56.987.10-Nov-2020 4475.51 4016.41 79.93 5.00 329.49 2369.25
   18:58:57.187.10-Nov-2020 4475.51 4016.34 79.93 5.00 329.69 2369.25
   18:58:57.387.10-Nov-2020 4475.51 4016.40 79.93 5.00 329.89 2369.25
   18:58:57.587.10-Nov-2020 4475.51 4016.48 79.93 5.00 330.09 2369.25
   18:58:57.787.10-Nov-2020 4475.51 4016.39 79.93 5.00 330.29 2369.25
   18:58:57.987.10-Nov-2020 4475.51 4016.40 79.92 5.00 330.49 2369.25
   18:58:58.187.10-Nov-2020 4475.51 4016.47 79.92 5.00 330.69 2369.25
   18:58:58.387.10-Nov-2020 4475.51 4016.46 79.92 5.00 330.89 2369.25
   18:58:58.587.10-Nov-2020 4475.51 4016.47 79.92 5.00 331.09 2369.25
   18:58:58.788.10-Nov-2020 4475.51 4016.47 79.92 5.00 331.29 2369.25
   18:58:58.988.10-Nov-2020 4475.51 4016.51 79.92 5.00 331.49 2369.25
   18:58:59.188.10-Nov-2020 4475.51 4016.57 79.92 5.00 331.69 2369.25
   18:58:59.388.10-Nov-2020 4475.51 4016.67 79.92 5.00 331.89 2369.25
   18:58:59.588.10-Nov-2020 4475.51 4016.49 79.92 5.00 332.09 2369.25
   18:58:59.788.10-Nov-2020 4475.51 4016.49 79.92 5.00 332.29 2369.25
   18:58:59.988.10-Nov-2020 4475.51 4016.45 79.92 5.00 332.49 2369.25
   18:59:00.188.10-Nov-2020 4475.51 4016.62 79.92 5.00 332.69 2369.25
   18:59:00.388.10-Nov-2020 4475.51 4016.46 79.92 5.00 332.89 2369.25
   18:59:00.588.10-Nov-2020 4475.51 4016.48 79.92 5.00 333.09 2369.25
   18:59:00.788.10-Nov-2020 4475.51 4016.48 79.92 5.00 333.29 2369.25
   18:59:00.988.10-Nov-2020 4475.51 4016.46 79.92 5.00 333.49 2369.25
   18:59:01.188.10-Nov-2020 4475.51 4016.63 79.92 5.00 333.69 2369.25
   18:59:01.388.10-Nov-2020 4475.51 4016.58 79.92 5.00 333.89 2369.25
   18:59:01.588.10-Nov-2020 4475.51 4016.60 79.92 5.00 334.09 2369.25
   18:59:01.788.10-Nov-2020 4475.51 4016.60 79.92 5.00 334.29 2369.25
   18:59:01.988.10-Nov-2020 4475.51 4016.71 79.91 5.00 334.49 2369.25
   18:59:02.188.10-Nov-2020 4475.51 4016.67 79.91 5.00 334.69 2369.25
   18:59:02.389.10-Nov-2020 4475.51 4016.57 79.91 5.00 334.89 2369.25
   18:59:02.589.10-Nov-2020 4475.51 4016.99 79.91 5.00 335.09 2369.25
   18:59:02.789.10-Nov-2020 4475.51 4016.99 79.91 5.00 335.29 2369.25
   18:59:02.989.10-Nov-2020 4475.51 4016.65 79.91 5.00 335.49 2369.25
   18:59:03.189.10-Nov-2020 4475.51 4016.67 79.91 5.00 335.69 2369.25
   18:59:03.389.10-Nov-2020 4475.51 4016.81 79.91 5.00 335.89 2369.25
   18:59:03.589.10-Nov-2020 4475.51 4016.77 79.91 5.00 336.09 2369.25
   18:59:03.789.10-Nov-2020 4475.51 4016.77 79.91 5.00 336.29 2369.25
   18:59:03.989.10-Nov-2020 4475.51 4016.81 79.91 5.00 336.49 2369.25
   18:59:04.189.10-Nov-2020 4475.51 4016.84 79.91 5.00 336.69 2369.25
   18:59:04.389.10-Nov-2020 4475.51 4016.81 79.91 5.00 336.89 2369.25
   18:59:04.589.10-Nov-2020 4475.51 4016.80 79.91 5.00 337.09 2369.25
   18:59:04.789.10-Nov-2020 4475.51 4016.80 79.91 5.00 337.29 2369.25
   18:59:04.989.10-Nov-2020 4475.51 4016.85 79.91 5.00 337.49 2369.25
   18:59:05.189.10-Nov-2020 4475.51 4016.84 79.91 5.00 337.69 2369.25
   18:59:05.389.10-Nov-2020 4475.51 4016.76 79.91 5.00 337.89 2369.25
   18:59:05.589.10-Nov-2020 4475.51 4016.83 79.90 5.00 338.09 2369.25
   18:59:05.789.10-Nov-2020 4475.51 4016.83 79.90 5.00 338.29 2369.25
   18:59:05.989.10-Nov-2020 4475.51 4016.80 79.90 5.00 338.49 2369.25
   18:59:06.190.10-Nov-2020 4475.51 4016.89 79.90 5.00 338.69 2369.25
   18:59:06.390.10-Nov-2020 4475.51 4016.85 79.90 5.00 338.89 2369.25
   18:59:06.590.10-Nov-2020 4475.51 4016.85 79.90 5.00 339.09 2369.25
   18:59:06.790.10-Nov-2020 4475.51 4016.87 79.90 5.00 339.29 2369.25
   18:59:06.990.10-Nov-2020 4475.51 4016.90 79.90 5.00 339.49 2369.25
   18:59:07.190.10-Nov-2020 4475.51 4016.95 79.90 5.00 339.69 2369.25
   18:59:07.390.10-Nov-2020 4475.51 4016.94 79.90 5.00 339.89 2369.25
   18:59:07.590.10-Nov-2020 4475.51 4016.92 79.90 5.00 340.09 2369.25
   18:59:07.790.10-Nov-2020 4475.51 4016.92 79.90 5.00 340.29 2369.25
   18:59:07.990.10-Nov-2020 4475.51 4017.00 79.90 5.00 340.49 2369.25
   18:59:08.190.10-Nov-2020 4475.51 4016.97 79.90 5.00 340.69 2369.25
   18:59:08.390.10-Nov-2020 4475.51 4016.93 79.90 5.00 340.89 2369.25
   18:59:08.590.10-Nov-2020 4475.51 4016.90 79.90 5.00 341.09 2369.25
   18:59:08.790.10-Nov-2020 4475.51 4016.90 79.90 5.00 341.29 2369.25
   18:59:08.990.10-Nov-2020 4475.51 4016.88 79.90 5.00 341.49 2369.25
   18:59:09.190.10-Nov-2020 4475.51 4016.84 79.90 5.00 341.69 2369.25
   18:59:09.390.10-Nov-2020 4475.51 4016.93 79.90 5.00 341.89 2369.25
   18:59:09.590.10-Nov-2020 4475.51 4016.99 79.89 5.00 342.09 2369.25
   18:59:09.791.10-Nov-2020 4475.51 4016.99 79.89 5.00 342.29 2369.25
   18:59:09.991.10-Nov-2020 4475.51 4016.98 79.89 5.00 342.49 2369.25
   18:59:10.191.10-Nov-2020 4475.51 4016.97 79.89 5.00 342.69 2369.25
   18:59:10.391.10-Nov-2020 4475.51 4017.04 79.89 5.00 342.90 2369.25
   18:59:10.591.10-Nov-2020 4475.51 4016.96 79.89 5.00 343.10 2369.25
   18:59:10.791.10-Nov-2020 4475.51 4016.96 79.89 5.00 343.30 2369.25
   18:59:10.991.10-Nov-2020 4475.51 4017.05 79.89 5.00 343.50 2369.25
   18:59:11.191.10-Nov-2020 4475.51 4016.91 79.89 5.00 343.70 2369.25
   18:59:11.391.10-Nov-2020 4475.51 4017.01 79.89 5.00 343.90 2369.25
   18:59:11.591.10-Nov-2020 4475.51 4017.08 79.89 5.00 344.10 2369.25
   18:59:11.791.10-Nov-2020 4475.51 4017.08 79.89 5.00 344.30 2369.25
   18:59:11.991.10-Nov-2020 4475.51 4017.09 79.89 5.00 344.50 2369.25
   18:59:12.191.10-Nov-2020 4475.51 4017.10 79.89 5.00 344.70 2369.25
   18:59:12.391.10-Nov-2020 4475.51 4017.09 79.89 5.00 344.90 2369.25
