~Version Information
 VERS.                  2.0:   CWLS log ASCII Standard -VERSION 2.0
 WRAP.                   NO:   One line per depth step
~Well Information Block
#MNEM.UNIT     VALUE/NAME     DESCRIPTION
#---------     -----------    ---------------------------
 STRT.S             22:31:45 10-Nov-20: START TIME 22:31:45 10-Nov-20
 STOP.S             22:38:18 10-Nov-20: STOP TIME  22:38:18 10-Nov-20
 STEP.S                   0.00: STEP TIME
 NULL.                 -999.25: NULL VALUE
 DFWT.                        :  DIST FWL TEXT
 DFST.                        :  DIST FSL TEXT
 DMF .             Drill Floor:  DRILL MEAS FROM
 STIM.      04.54.24 22-Sep-20:  START TIME
 DATE.      04.54.24 21-Nov-20:  END TIME
 SPUD.               21-Nov-20:  SPUD DATE
 NREF.                    Grid:  NORTH REFERENCE
 HPTY.       Minimum Curvature:  HOLE POS TYPE
 DMOD.             Drill Model:  DRILL MOD DESC
 SVYD.                  Survey:  SURVEY DESC
 ILTD.               Lithology:  INTERP LTH DESC
 FTOP.          Formation Tops:  FORM TOPS DESC
 SON .        AZ-XX-0906571587:  JOB NUMBER
 COMP.     BP Exploration (Caspian Sea) Ltd:  COMPANY
 UWI .                     N/A:  UNIQUE WELL IDENTIFIER
 API .                     N/A:  API NUMBER
 BASE.              Azerbaijan:  LOGGING EQUIPMENT BASE LOCATION
 REGN.                   EESSA:  REGION
 PROV.                    Baku:  PROVINCE
 STAT.                    Baku:  STATE NAME
 CTRY.              Azerbaijan:  COUNTRY NAME
 FLD .                     ACG:  FIELD NAME
 SRVC.     TURAN Drilling & Engineering:  CONTRACTOR
 WELL.                     J27:  WELL NAME
 RIG .             West Chirag:  RIG NAME
 DOE .                     N/A:  DOE NUMBER
 DCON.         Sperry Drilling:  DIRECTNL CONTR
 PDAT.          Mean Sea Level:  PERMANENT DATUM
 WTYP.                Deviated:  WELL TYPE
 MWDS.                    Baku:  MWD SHOP
 JOBN.        AZ-XX-0906571587:  JOB TICKET NUMB
 UNIT.                     N/A:  LOGGING EQUIPMENT ID
 MDS .        Operator Entered:  MAG DATA SOURCE
 CNTY.                        :  COUNTY
 LOC .                        :  LOCATION
 LMF .             Drill Floor:  LOG MEASURED FROM
 TVDS.m                  43.00:  TVDSS CORRECTN
 LATI.deg                40.13:  LATITUDE
 LONG.deg                51.22:  LONGITUDE
 WHNS.m                   7.72:  WELL HEAD N/S
 WHEW.m                 -14.24:  WELL HEAD E/W
 UTMX.m              519005.06:  UTM X
 UTMY.m             4443793.85:  UTM Y
 DFWL.m                   0.00:  DISTANCE FWL
 DFSL.m                   0.00:  DISTANCE FSL
 SDEP.m                 347.00:  START DEPTH
 TDD .m                 581.00:  TOTAL DEPTH (DRILLER)
 VSDR.deg               159.72:  VERT SEC DIRECT
 GVFD.g                   1.00:  GRAVITY FIELD
 MFLD.nT              50313.00:  MAGNETIC FIELD
 MDIP.deg                59.58:  MAGNETIC DIP
 MDEC.deg                 6.45:  MAGNETIC DECL
 GRDC.deg                 0.15:  GRID CORRECTION
 AZTC.deg                 6.30:  AZM TOTAL CORR
 EPD .m                   0.00:  ELEVATION
 EGL .m                   0.00:  GROUND ELEVATION
 WDMS.m                 169.80:  WD ELEV
 APD .m                  43.00:  DEPTH ABOVE PD
 AGAP.m                  43.00:  AIR GAP
 VSEW.m                 -14.24:  VERT SEC E/W
 VSNS.m                   7.72:  VERT SEC N/S
 DEP .m                 342.45:  DEPTH
 EKB .m                   0.00:  KB ELEVATION
 EDF .m                  43.00:  DF ELEVATION
 TDL .m                1313.00:  TOTAL DEPTH (LOGGER)
 VSC .                       0:  VS TO CLOSURE
 MAGU.                 1851396:  MAGUTM CHECKSUM
~Parameter Information Block
#MNEM.UNIT       Value        Description
#---------     -----------    ---------------------------
 AV  .mps                 0.65:  Ann Velocity 
 AVMX.mps                 0.75:  Max Ann Veloc 
 AZIF.deg               115.08:  Azm, Final 
 BHAT.        Rotary Steerable:  BHA Type 
 BROT.°/30m               1.50:  Build Rotating 
 BS  .in                 12.25:  Bit Size 
 BSZ .in                 12.25:  Bit Size 
 BTPL.psig              700.00:  Bit Press Loss 
 CABU.                     Yes:  Customer Abuse 
 COMM.                     ”Õ`:  Run Comments 1 
 TCS .hr                121.00:  Time Ciculation Ended 
 CV  .mps                 1.83:  Crit Velocity 
 CVMX.mps                 1.83:  Max Crit Veloc 
 DD1 .          Rashad Habibov:  Direct Drillr 1 
 DD2 .         Rasim Ibrahimov:  Direct Drillr 2 
 DDSV.                 iCruise:  DD Service 
 DEFF.%                 100.00:  % Det Eff 
 DLRX.°/30m               3.60:  Dogleg Rot Max 
 DLSO.°/30m               3.10:  Dogleg Oriented 
 DLSX.°/30m               3.60:  Dogleg Str Max 
 DRET.      13.41.20 12-Nov-20:  Drill End Time 
 DRST.      13.41.20 07-Nov-20:  Drill Start Tim 
 DTIM.hr                 54.16:  Time Drilling 
 EDEP.m                4762.01:  End Depth 
 ENG1.           Amrah Tahirov:  Engineer 1 
 ENG2.      Bakhtiyar Jabbarli:  Engineer 2 
 ENG3.          Ruslan Safarov:  Engineer 3 
 ETIM.      13.41.20 14-Nov-20:  End Time 
 FLOI.gpm              1200.00:  Flow In 
 FLON.gpm              1100.00:  Flow In Min 
 FLOS.cptm                0.00:  Fluid Loss 
 FLOX.gpm              1200.00:  Flow In Max 
 HFLO.                      No:  High Flow 
 HPRE.                      No:  High Pressure 
 HTEM.                      No:  High Temp 
 HYDO.m                   2.00:  Hydro Offset 
 IFIN.deg                66.14:  Inc, Final 
 IMAX.deg                69.03:  Inc Max 
 IMIN.deg                64.64:  Inc Min 
 IMND.m                4450.16:  Inc Min Depth 
 IMXD.m                3996.00:  Inc Max Depth 
 JARR.                     Yes:  Jarring 
 LETM.      13.41.20 14-Nov-20:  Log End Time 
 LOST.hr                     0:  Lost Rig Time 
 LSTM.      13.41.20 06-Nov-20:  Log Start Time 
 MDCL.ppm             42500.00:  Mud Chlorides 
 MDES.     Inversion Oil/Synthetic:  Mud Desc 
 DFD .sg                  1.45:  Mud Density 
 MDMN.sg                  1.45:  Dens Mud Min 
 MDMX.sg                  1.45:  Dens Mud Max 
 MOIL.                      70:  Run Mud Oil % 
 MOWR.                   70:30:  Run Mud OWR 
 MSND.                       0:  Run Mud Sand % 
 MSOL.                    19.3:  Run Mud Solids% 
 DFV .spqt               77.00:  Mud Viscosity 
 MWOD.in                  8.00:  MWD Tool OD 
 MWSI.                      No:  Serv Intrp, MWD 
 OTIM.hr                201.88:  Time Operating 
 PCON.           Look Like New:  Pad Condition 
 PMAX.psia             9250.94:  Press Op, Max 
 PV  .cP                 29.00:  Mud PV 
 RUN .                     800:  Run Number 
 ROPA.m/hr               28.00:  ROP Avg 
 ROPN.m/hr               25.00:  ROP Min 
 ROPX.m/hr               30.00:  ROP Max 
 RPMA.rpm               160.00:  RPM Surface Avg 
 RPMN.rpm               160.00:  RPM Surface Min 
 RPMX.rpm               160.00:  RPM Surface Max 
 RRUN.                    0800:  Rig Run Number 
 RTIM.hr                 12.00:  Time Reaming 
 SAZI.deg               169.33:  Azm, Start 
 SDEP.m                3449.01:  Start Depth 
 SIDD.                      No:  Serv Intrp, DD 
 SINC.deg                68.01:  Inc, Start 
 SPPA.psig             4900.00:  SPP Avg 
 SPPN.psig             4800.00:  SPP Min 
 SPPX.psig             5050.00:  SPP Max 
 STIM.      13.41.20 06-Nov-20:  Start Time 
 SVCS.                 DD, MWD:  Services 
 SVER.                    9.20:  Sperry Version 
 TDAT.m                4762.01:  Tot Depth Attmp 
 TDDF.                      No:  Trip for DD 
 TDLG.m                1313.00:  Tot Depth Loggd 
 TFF .                      No:  Trip for Fail 
 TQAA.f-kp               13.00:  Torque Abs Avg 
 TQAN.f-kp               13.00:  Torque Abs Min 
 TQAX.f-kp               13.00:  Torque Abs Max 
 TRRT.°/30m               1.70:  Turn Rotating 
 MRT .                  EWR-M5:  Maximum Recorded Temperature 
 TTMX.degC               86.00:  Max Tool Temp 
 VS01.                90622122:  Virtual Str1 SN 
 VS02.                90577298:  Virtual Str2 SN 
 VS03.                90563623:  Virtual Str3 SN 
 VS04.                90617559:  Virtual Str4 SN 
 VS05.                11339492:  Virtual Str5 SN 
 VS06.                12385033:  Virtual Str6 SN 
 WBMN.klb                 0.00:  WOB Min 
 WOBA.klb                22.00:  WOB Avg 
 WOBX.klb                26.00:  WOB Max 
 YP  .lhf2               30.00:  Yield Point 
~Curve Information Block
#MNEM.UNIT                 API CODE     Curve Description
#---------               -----------    ---------------------------
 TIME.HHMMSS            00 000 000 000:  GT Time & Date
 GTDEPTH.m              00 000 000 000:  GT Depth
 GTPQH.psia             00 000 000 000:  GT HR Quartz Pressure
 GTTQ.degC              00 000 000 000:  GT Quartz Temperature
 GTTN.NONE              00 000 000 000:  GT Test Number
 GTET.sec               00 000 000 000:  GT Elapsed Test Time
 GTTVD.m                00 000 000 000:  GT True Vertical Depth
#Other Information
#
#WARRANTY: Halliburton will use its best efforts to furnish customers with 
#accurate information and interpretations that are part of, and incident to, the services 
#provided.  However, Halliburton cannot and does not warrant the accuracy 
#or correctness of such information and interpretations.  Under no circumstances should any 
#such information or interpretation be relied upon as the sole basis for any drilling, 
#completion, production, or financial decision or any procedure involving any risk to the 
#safety of any drilling venture, drilling rig or its crew or any other third party.  The 
#Customer has full responsibility for all drilling, completion and production operation.  
#Halliburton makes no representations or warranties, either expressed or 
#implied, including, but not limited to, the implied warranties of merchantability or fitness 
#for a particular purpose, with respect to the services rendered.  In no event will 
#Halliburton be liable for failure to obtain any particular results or for 
#any damages, including, but not limited to, indirect, special or consequential damages, 
#resulting from the use of any information or interpretation provided by Halliburton.
#
~A           TIME           GTDEPTH  GTPQH  GTTQ  GTTN  GTET   GTTVD  
# ...
   22:32:54.771.10-Nov-2020 4535.01 4060.86 82.92 6.00  69.01 2393.67
   22:32:54.971.10-Nov-2020 4535.01 4060.86 82.92 6.00  69.21 2393.67
   22:32:55.171.10-Nov-2020 4535.01 4060.85 82.92 6.00  69.41 2393.67
   22:32:55.371.10-Nov-2020 4535.01 4060.91 82.91 6.00  69.61 2393.67
   22:32:55.571.10-Nov-2020 4535.01 4060.96 82.91 6.00  69.81 2393.67
   22:32:55.771.10-Nov-2020 4535.01 4060.94 82.91 6.00  70.01 2393.67
   22:32:55.971.10-Nov-2020 4535.01 4061.02 82.91 6.00  70.21 2393.67
   22:32:56.171.10-Nov-2020 4535.01 4060.96 82.91 6.00  70.41 2393.67
   22:32:56.371.10-Nov-2020 4535.01 4061.01 82.91 6.00  70.61 2393.67
   22:32:56.571.10-Nov-2020 4535.01 4061.25 82.91 6.00  70.81 2393.67
   22:32:56.771.10-Nov-2020 4535.01 4061.15 82.91 6.00  71.01 2393.67
   22:32:56.971.10-Nov-2020 4535.01 4060.94 82.91 6.00  71.21 2393.67
   22:32:57.171.10-Nov-2020 4535.01 4061.27 82.90 6.00  71.41 2393.67
   22:32:57.371.10-Nov-2020 4535.01 4060.89 82.90 6.00  71.61 2393.67
   22:32:57.571.10-Nov-2020 4535.01 4060.89 82.90 6.00  71.81 2393.67
   22:32:57.771.10-Nov-2020 4535.01 4060.88 82.90 6.00  72.01 2393.67
   22:32:57.971.10-Nov-2020 4535.01 4060.88 82.90 6.00  72.21 2393.67
   22:32:58.171.10-Nov-2020 4535.01 4060.92 82.90 6.00  72.41 2393.67
   22:32:58.372.10-Nov-2020 4535.01 4061.00 82.90 6.00  72.61 2393.67
   22:32:58.572.10-Nov-2020 4535.01 4061.02 82.90 6.00  72.81 2393.67
   22:32:58.772.10-Nov-2020 4535.01 4060.79 82.90 6.00  73.01 2393.67
   22:32:58.972.10-Nov-2020 4535.01 4060.79 82.90 6.00  73.21 2393.67
   22:32:59.172.10-Nov-2020 4535.01 4061.44 82.89 6.00  73.41 2393.67
   22:32:59.372.10-Nov-2020 4535.01 4060.74 82.89 6.00  73.61 2393.67
   22:32:59.572.10-Nov-2020 4535.01 4060.99 82.89 6.00  73.81 2393.67
   22:32:59.772.10-Nov-2020 4535.01 4061.05 82.89 6.00  74.01 2393.67
   22:32:59.972.10-Nov-2020 4535.01 4061.28 82.89 6.00  74.21 2393.67
   22:33:00.172.10-Nov-2020 4535.01 4060.94 82.89 6.00  74.41 2393.67
   22:33:00.372.10-Nov-2020 4535.01 4060.94 82.89 6.00  74.61 2393.67
   22:33:00.572.10-Nov-2020 4535.01 4060.96 82.89 6.00  74.81 2393.67
   22:33:00.772.10-Nov-2020 4535.01 4061.15 82.88 6.00  75.01 2393.67
   22:33:00.972.10-Nov-2020 4535.01 4061.15 82.88 6.00  75.21 2393.67
   22:33:01.172.10-Nov-2020 4535.01 4060.93 82.88 6.00  75.41 2393.67
   22:33:01.372.10-Nov-2020 4535.01 4061.08 82.88 6.00  75.61 2393.67
   22:33:01.572.10-Nov-2020 4535.01 4061.02 82.88 6.00  75.81 2393.67
   22:33:01.772.10-Nov-2020 4535.01 4061.13 82.88 6.00  76.01 2393.67
   22:33:01.972.10-Nov-2020 4535.01 4061.13 82.88 6.00  76.21 2393.67
   22:33:02.172.10-Nov-2020 4535.01 4061.02 82.88 6.00  76.41 2393.67
   22:33:02.372.10-Nov-2020 4535.01 4061.05 82.88 6.00  76.61 2393.67
   22:33:02.572.10-Nov-2020 4535.01 4061.11 82.87 6.00  76.81 2393.67
   22:33:02.772.10-Nov-2020 4535.01 4061.05 82.87 6.00  77.01 2393.67
   22:33:02.972.10-Nov-2020 4535.01 4061.05 82.87 6.00  77.21 2393.67
   22:33:03.172.10-Nov-2020 4535.01 4061.08 82.87 6.00  77.41 2393.67
   22:33:03.372.10-Nov-2020 4535.01 4061.06 82.87 6.00  77.61 2393.67
   22:33:03.572.10-Nov-2020 4535.01 4060.92 82.87 6.00  77.81 2393.67
   22:33:03.772.10-Nov-2020 4535.01 4061.01 82.87 6.00  78.01 2393.67
   22:33:03.972.10-Nov-2020 4535.01 4060.98 82.87 6.00  78.21 2393.67
   22:33:04.172.10-Nov-2020 4535.01 4060.99 82.87 6.00  78.41 2393.67
   22:33:04.372.10-Nov-2020 4535.01 4061.07 82.86 6.00  78.61 2393.67
   22:33:04.572.10-Nov-2020 4535.01 4061.02 82.86 6.00  78.81 2393.67
   22:33:04.772.10-Nov-2020 4535.01 4061.05 82.86 6.00  79.01 2393.67
   22:33:04.972.10-Nov-2020 4535.01 4061.06 82.86 6.00  79.21 2393.67
   22:33:05.172.10-Nov-2020 4535.01 4061.05 82.86 6.00  79.41 2393.67
   22:33:05.372.10-Nov-2020 4535.01 4061.08 82.86 6.00  79.61 2393.67
   22:33:05.572.10-Nov-2020 4535.01 4061.35 82.86 6.00  79.81 2393.67
   22:33:05.773.10-Nov-2020 4535.01 4061.06 82.86 6.00  80.01 2393.67
   22:33:05.973.10-Nov-2020 4535.01 4061.06 82.86 6.00  80.21 2393.67
   22:33:06.173.10-Nov-2020 4535.01 4060.91 82.85 6.00  80.41 2393.67
   22:33:06.373.10-Nov-2020 4535.01 4061.02 82.85 6.00  80.61 2393.67
   22:33:06.573.10-Nov-2020 4535.01 4060.86 82.85 6.00  80.81 2393.67
   22:33:06.773.10-Nov-2020 4535.01 4061.05 82.85 6.00  81.01 2393.67
   22:33:06.973.10-Nov-2020 4535.01 4061.05 82.85 6.00  81.21 2393.67
   22:33:07.173.10-Nov-2020 4535.01 4060.95 82.85 6.00  81.41 2393.67
   22:33:07.373.10-Nov-2020 4535.01 4061.07 82.85 6.00  81.61 2393.67
   22:33:07.573.10-Nov-2020 4535.01 4061.09 82.85 6.00  81.81 2393.67
   22:33:07.773.10-Nov-2020 4535.01 4061.00 82.85 6.00  82.01 2393.67
   22:33:07.973.10-Nov-2020 4535.01 4061.00 82.85 6.00  82.21 2393.67
   22:33:08.173.10-Nov-2020 4535.01 4061.16 82.84 6.00  82.41 2393.67
   22:33:08.373.10-Nov-2020 4535.01 4061.02 82.84 6.00  82.61 2393.67
   22:33:08.573.10-Nov-2020 4535.01 4061.09 82.84 6.00  82.81 2393.67
   22:33:08.773.10-Nov-2020 4535.01 4061.12 82.84 6.00  83.01 2393.67
   22:33:08.973.10-Nov-2020 4535.01 4061.23 82.84 6.00  83.21 2393.67
   22:33:09.173.10-Nov-2020 4535.01 4060.89 82.84 6.00  83.41 2393.67
   22:33:09.373.10-Nov-2020 4535.01 4061.06 82.84 6.00  83.61 2393.67
   22:33:09.573.10-Nov-2020 4535.01 4060.94 82.84 6.00  83.81 2393.67
   22:33:09.773.10-Nov-2020 4535.01 4061.14 82.83 6.00  84.01 2393.67
   22:33:09.973.10-Nov-2020 4535.01 4061.14 82.83 6.00  84.21 2393.67
   22:33:10.173.10-Nov-2020 4535.01 4061.02 82.83 6.00  84.41 2393.67
   22:33:10.373.10-Nov-2020 4535.01 4061.11 82.83 6.00  84.61 2393.67
   22:33:10.573.10-Nov-2020 4535.01 4061.08 82.83 6.00  84.81 2393.67
   22:33:10.773.10-Nov-2020 4535.01 4061.14 82.83 6.00  85.01 2393.67
   22:33:10.973.10-Nov-2020 4535.01 4061.14 82.83 6.00  85.21 2393.67
   22:33:11.173.10-Nov-2020 4535.01 4061.03 82.83 6.00  85.41 2393.67
   22:33:11.373.10-Nov-2020 4535.01 4061.11 82.83 6.00  85.61 2393.67
   22:33:11.573.10-Nov-2020 4535.01 4061.09 82.82 6.00  85.81 2393.67
   22:33:11.773.10-Nov-2020 4535.01 4061.10 82.82 6.00  86.01 2393.67
   22:33:11.973.10-Nov-2020 4535.01 4061.09 82.82 6.00  86.21 2393.67
   22:33:12.173.10-Nov-2020 4535.01 4061.03 82.82 6.00  86.41 2393.67
   22:33:12.373.10-Nov-2020 4535.01 4061.09 82.82 6.00  86.61 2393.67
   22:33:12.573.10-Nov-2020 4535.01 4060.98 82.82 6.00  86.81 2393.67
   22:33:12.773.10-Nov-2020 4535.01 4061.01 82.82 6.00  87.01 2393.67
   22:33:12.973.10-Nov-2020 4535.01 4061.01 82.82 6.00  87.21 2393.67
   22:33:13.174.10-Nov-2020 4535.01 4061.02 82.82 6.00  87.41 2393.67
   22:33:13.374.10-Nov-2020 4535.01 4061.13 82.81 6.00  87.61 2393.67
   22:33:13.574.10-Nov-2020 4535.01 4061.04 82.81 6.00  87.81 2393.67
   22:33:13.774.10-Nov-2020 4535.01 4061.09 82.81 6.00  88.01 2393.67
   22:33:13.974.10-Nov-2020 4535.01 4061.09 82.81 6.00  88.21 2393.67
   22:33:14.174.10-Nov-2020 4535.01 4061.10 82.81 6.00  88.41 2393.67
   22:33:14.374.10-Nov-2020 4535.01 4061.22 82.81 6.00  88.61 2393.67
   22:33:14.574.10-Nov-2020 4535.01 4061.14 82.81 6.00  88.81 2393.67
   22:33:14.774.10-Nov-2020 4535.01 4061.11 82.81 6.00  89.01 2393.67
   22:33:14.974.10-Nov-2020 4535.01 4061.11 82.81 6.00  89.21 2393.67
   22:33:15.174.10-Nov-2020 4535.01 4061.00 82.80 6.00  89.41 2393.67
   22:33:15.374.10-Nov-2020 4535.01 4060.94 82.80 6.00  89.61 2393.67
   22:33:15.574.10-Nov-2020 4535.01 4060.87 82.80 6.00  89.81 2393.67
   22:33:15.774.10-Nov-2020 4535.01 4061.48 82.80 6.00  90.01 2393.67
   22:33:15.974.10-Nov-2020 4535.01 4061.48 82.80 6.00  90.21 2393.67
   22:33:16.174.10-Nov-2020 4535.01 4060.97 82.80 6.00  90.41 2393.67
   22:33:16.374.10-Nov-2020 4535.01 4061.11 82.80 6.00  90.61 2393.67
   22:33:16.574.10-Nov-2020 4535.01 4061.10 82.80 6.00  90.81 2393.67
   22:33:16.774.10-Nov-2020 4535.01 4061.03 82.80 6.00  91.01 2393.67
   22:33:16.974.10-Nov-2020 4535.01 4061.37 82.79 6.00  91.21 2393.67
   22:33:17.174.10-Nov-2020 4535.01 4061.04 82.79 6.00  91.41 2393.67
   22:33:17.374.10-Nov-2020 4535.01 4061.10 82.79 6.00  91.61 2393.67
   22:33:17.574.10-Nov-2020 4535.01 4061.00 82.79 6.00  91.81 2393.67
