~Version Information
 VERS.                  2.0:   CWLS log ASCII Standard -VERSION 2.0
 WRAP.                   NO:   One line per depth step
~Well Information Block
#MNEM.UNIT     VALUE/NAME     DESCRIPTION
#---------     -----------    ---------------------------
 STRT.S             18:53:27 10-Nov-20: START TIME 18:53:27 10-Nov-20
 STOP.S             19:00:00 10-Nov-20: STOP TIME  19:00:00 10-Nov-20
 STEP.S                   0.00: STEP TIME
 NULL.                 -999.25: NULL VALUE
 DFWT.                        :  DIST FWL TEXT
 DFST.                        :  DIST FSL TEXT
 DMF .             Drill Floor:  DRILL MEAS FROM
 STIM.      04.54.24 22-Sep-20:  START TIME
 DATE.      04.54.24 21-Nov-20:  END TIME
 SPUD.               21-Nov-20:  SPUD DATE
 NREF.                    Grid:  NORTH REFERENCE
 HPTY.       Minimum Curvature:  HOLE POS TYPE
 DMOD.             Drill Model:  DRILL MOD DESC
 SVYD.                  Survey:  SURVEY DESC
 ILTD.               Lithology:  INTERP LTH DESC
 FTOP.          Formation Tops:  FORM TOPS DESC
 SON .        AZ-XX-0906571587:  JOB NUMBER
 COMP.     BP Exploration (Caspian Sea) Ltd:  COMPANY
 UWI .                     N/A:  UNIQUE WELL IDENTIFIER
 API .                     N/A:  API NUMBER
 BASE.              Azerbaijan:  LOGGING EQUIPMENT BASE LOCATION
 REGN.                   EESSA:  REGION
 PROV.                    Baku:  PROVINCE
 STAT.                    Baku:  STATE NAME
 CTRY.              Azerbaijan:  COUNTRY NAME
 FLD .                     ACG:  FIELD NAME
 SRVC.     TURAN Drilling & Engineering:  CONTRACTOR
 WELL.                     J27:  WELL NAME
 RIG .             West Chirag:  RIG NAME
 DOE .                     N/A:  DOE NUMBER
 DCON.         Sperry Drilling:  DIRECTNL CONTR
 PDAT.          Mean Sea Level:  PERMANENT DATUM
 WTYP.                Deviated:  WELL TYPE
 MWDS.                    Baku:  MWD SHOP
 JOBN.        AZ-XX-0906571587:  JOB TICKET NUMB
 UNIT.                     N/A:  LOGGING EQUIPMENT ID
 MDS .        Operator Entered:  MAG DATA SOURCE
 CNTY.                        :  COUNTY
 LOC .                        :  LOCATION
 LMF .             Drill Floor:  LOG MEASURED FROM
 TVDS.m                  43.00:  TVDSS CORRECTN
 LATI.deg                40.13:  LATITUDE
 LONG.deg                51.22:  LONGITUDE
 WHNS.m                   7.72:  WELL HEAD N/S
 WHEW.m                 -14.24:  WELL HEAD E/W
 UTMX.m              519005.06:  UTM X
 UTMY.m             4443793.85:  UTM Y
 DFWL.m                   0.00:  DISTANCE FWL
 DFSL.m                   0.00:  DISTANCE FSL
 SDEP.m                 347.00:  START DEPTH
 TDD .m                 581.00:  TOTAL DEPTH (DRILLER)
 VSDR.deg               159.72:  VERT SEC DIRECT
 GVFD.g                   1.00:  GRAVITY FIELD
 MFLD.nT              50313.00:  MAGNETIC FIELD
 MDIP.deg                59.58:  MAGNETIC DIP
 MDEC.deg                 6.45:  MAGNETIC DECL
 GRDC.deg                 0.15:  GRID CORRECTION
 AZTC.deg                 6.30:  AZM TOTAL CORR
 EPD .m                   0.00:  ELEVATION
 EGL .m                   0.00:  GROUND ELEVATION
 WDMS.m                 169.80:  WD ELEV
 APD .m                  43.00:  DEPTH ABOVE PD
 AGAP.m                  43.00:  AIR GAP
 VSEW.m                 -14.24:  VERT SEC E/W
 VSNS.m                   7.72:  VERT SEC N/S
 DEP .m                 342.45:  DEPTH
 EKB .m                   0.00:  KB ELEVATION
 EDF .m                  43.00:  DF ELEVATION
 TDL .m                1313.00:  TOTAL DEPTH (LOGGER)
 VSC .                       0:  VS TO CLOSURE
 MAGU.                 1851396:  MAGUTM CHECKSUM
~Parameter Information Block
#MNEM.UNIT       Value        Description
#---------     -----------    ---------------------------
 AV  .mps                 0.65:  Ann Velocity 
 AVMX.mps                 0.75:  Max Ann Veloc 
 AZIF.deg               115.08:  Azm, Final 
 BHAT.        Rotary Steerable:  BHA Type 
 BROT.°/30m               1.50:  Build Rotating 
 BS  .in                 12.25:  Bit Size 
 BSZ .in                 12.25:  Bit Size 
 BTPL.psig              700.00:  Bit Press Loss 
 CABU.                     Yes:  Customer Abuse 
 COMM.                     ”Ú:  Run Comments 1 
 TCS .hr                121.00:  Time Ciculation Ended 
 CV  .mps                 1.83:  Crit Velocity 
 CVMX.mps                 1.83:  Max Crit Veloc 
 DD1 .          Rashad Habibov:  Direct Drillr 1 
 DD2 .         Rasim Ibrahimov:  Direct Drillr 2 
 DDSV.                 iCruise:  DD Service 
 DEFF.%                 100.00:  % Det Eff 
 DLRX.°/30m               3.60:  Dogleg Rot Max 
 DLSO.°/30m               3.10:  Dogleg Oriented 
 DLSX.°/30m               3.60:  Dogleg Str Max 
 DRET.      13.41.20 12-Nov-20:  Drill End Time 
 DRST.      13.41.20 07-Nov-20:  Drill Start Tim 
 DTIM.hr                 54.16:  Time Drilling 
 EDEP.m                4762.01:  End Depth 
 ENG1.           Amrah Tahirov:  Engineer 1 
 ENG2.      Bakhtiyar Jabbarli:  Engineer 2 
 ENG3.          Ruslan Safarov:  Engineer 3 
 ETIM.      13.41.20 14-Nov-20:  End Time 
 FLOI.gpm              1200.00:  Flow In 
 FLON.gpm              1100.00:  Flow In Min 
 FLOS.cptm                0.00:  Fluid Loss 
 FLOX.gpm              1200.00:  Flow In Max 
 HFLO.                      No:  High Flow 
 HPRE.                      No:  High Pressure 
 HTEM.                      No:  High Temp 
 HYDO.m                   2.00:  Hydro Offset 
 IFIN.deg                66.14:  Inc, Final 
 IMAX.deg                69.03:  Inc Max 
 IMIN.deg                64.64:  Inc Min 
 IMND.m                4450.16:  Inc Min Depth 
 IMXD.m                3996.00:  Inc Max Depth 
 JARR.                     Yes:  Jarring 
 LETM.      13.41.20 14-Nov-20:  Log End Time 
 LOST.hr                     0:  Lost Rig Time 
 LSTM.      13.41.20 06-Nov-20:  Log Start Time 
 MDCL.ppm             42500.00:  Mud Chlorides 
 MDES.     Inversion Oil/Synthetic:  Mud Desc 
 DFD .sg                  1.45:  Mud Density 
 MDMN.sg                  1.45:  Dens Mud Min 
 MDMX.sg                  1.45:  Dens Mud Max 
 MOIL.                      70:  Run Mud Oil % 
 MOWR.                   70:30:  Run Mud OWR 
 MSND.                       0:  Run Mud Sand % 
 MSOL.                    19.3:  Run Mud Solids% 
 DFV .spqt               77.00:  Mud Viscosity 
 MWOD.in                  8.00:  MWD Tool OD 
 MWSI.                      No:  Serv Intrp, MWD 
 OTIM.hr                201.88:  Time Operating 
 PCON.           Look Like New:  Pad Condition 
 PMAX.psia             9250.94:  Press Op, Max 
 PV  .cP                 29.00:  Mud PV 
 RUN .                     800:  Run Number 
 ROPA.m/hr               28.00:  ROP Avg 
 ROPN.m/hr               25.00:  ROP Min 
 ROPX.m/hr               30.00:  ROP Max 
 RPMA.rpm               160.00:  RPM Surface Avg 
 RPMN.rpm               160.00:  RPM Surface Min 
 RPMX.rpm               160.00:  RPM Surface Max 
 RRUN.                    0800:  Rig Run Number 
 RTIM.hr                 12.00:  Time Reaming 
 SAZI.deg               169.33:  Azm, Start 
 SDEP.m                3449.01:  Start Depth 
 SIDD.                      No:  Serv Intrp, DD 
 SINC.deg                68.01:  Inc, Start 
 SPPA.psig             4900.00:  SPP Avg 
 SPPN.psig             4800.00:  SPP Min 
 SPPX.psig             5050.00:  SPP Max 
 STIM.      13.41.20 06-Nov-20:  Start Time 
 SVCS.                 DD, MWD:  Services 
 SVER.                    9.20:  Sperry Version 
 TDAT.m                4762.01:  Tot Depth Attmp 
 TDDF.                      No:  Trip for DD 
 TDLG.m                1313.00:  Tot Depth Loggd 
 TFF .                      No:  Trip for Fail 
 TQAA.f-kp               13.00:  Torque Abs Avg 
 TQAN.f-kp               13.00:  Torque Abs Min 
 TQAX.f-kp               13.00:  Torque Abs Max 
 TRRT.°/30m               1.70:  Turn Rotating 
 MRT .                  EWR-M5:  Maximum Recorded Temperature 
 TTMX.degC               86.00:  Max Tool Temp 
 VS01.                90622122:  Virtual Str1 SN 
 VS02.                90577298:  Virtual Str2 SN 
 VS03.                90563623:  Virtual Str3 SN 
 VS04.                90617559:  Virtual Str4 SN 
 VS05.                11339492:  Virtual Str5 SN 
 VS06.                12385033:  Virtual Str6 SN 
 WBMN.klb                 0.00:  WOB Min 
 WOBA.klb                22.00:  WOB Avg 
 WOBX.klb                26.00:  WOB Max 
 YP  .lhf2               30.00:  Yield Point 
~Curve Information Block
#MNEM.UNIT                 API CODE     Curve Description
#---------               -----------    ---------------------------
 TIME.HHMMSS            00 000 000 000:  GT Time & Date
 GTDEPTH.m              00 000 000 000:  GT Depth
 GTPQH.psia             00 000 000 000:  GT HR Quartz Pressure
 GTTQ.degC              00 000 000 000:  GT Quartz Temperature
 GTTN.NONE              00 000 000 000:  GT Test Number
 GTET.sec               00 000 000 000:  GT Elapsed Test Time
 GTTVD.m                00 000 000 000:  GT True Vertical Depth
#Other Information
#
#WARRANTY: Halliburton will use its best efforts to furnish customers with 
#accurate information and interpretations that are part of, and incident to, the services 
#provided.  However, Halliburton cannot and does not warrant the accuracy 
#or correctness of such information and interpretations.  Under no circumstances should any 
#such information or interpretation be relied upon as the sole basis for any drilling, 
#completion, production, or financial decision or any procedure involving any risk to the 
#safety of any drilling venture, drilling rig or its crew or any other third party.  The 
#Customer has full responsibility for all drilling, completion and production operation.  
#Halliburton makes no representations or warranties, either expressed or 
#implied, including, but not limited to, the implied warranties of merchantability or fitness 
#for a particular purpose, with respect to the services rendered.  In no event will 
#Halliburton be liable for failure to obtain any particular results or for 
#any damages, including, but not limited to, indirect, special or consequential damages, 
#resulting from the use of any information or interpretation provided by Halliburton.
#
~A           TIME           GTDEPTH  GTPQH  GTTQ  GTTN  GTET   GTTVD  
# ...
   18:56:08.540.10-Nov-2020 4475.51 3923.30 80.34 5.00 161.04 2369.25
   18:56:08.740.10-Nov-2020 4475.51 3923.30 80.34 5.00 161.24 2369.25
   18:56:08.940.10-Nov-2020 4475.51 3922.09 80.34 5.00 161.44 2369.25
   18:56:09.140.10-Nov-2020 4475.51 3922.03 80.34 5.00 161.64 2369.25
   18:56:09.341.10-Nov-2020 4475.51 3922.47 80.34 5.00 161.84 2369.25
   18:56:09.541.10-Nov-2020 4475.51 3961.02 80.34 5.00 162.04 2369.25
   18:56:09.741.10-Nov-2020 4475.51 3976.81 80.34 5.00 162.24 2369.25
   18:56:09.941.10-Nov-2020 4475.51 3982.35 80.34 5.00 162.45 2369.25
   18:56:10.141.10-Nov-2020 4475.51 3985.49 80.34 5.00 162.65 2369.25
   18:56:10.341.10-Nov-2020 4475.51 3987.74 80.34 5.00 162.85 2369.25
   18:56:10.541.10-Nov-2020 4475.51 3989.42 80.34 5.00 163.05 2369.25
   18:56:10.741.10-Nov-2020 4475.51 3989.42 80.34 5.00 163.25 2369.25
   18:56:10.941.10-Nov-2020 4475.51 3991.97 80.34 5.00 163.45 2369.25
   18:56:11.141.10-Nov-2020 4475.51 3993.53 80.34 5.00 163.65 2369.25
   18:56:11.341.10-Nov-2020 4475.51 3994.63 80.33 5.00 163.85 2369.25
   18:56:11.541.10-Nov-2020 4475.51 3994.87 80.33 5.00 164.05 2369.25
   18:56:11.741.10-Nov-2020 4475.51 3994.87 80.33 5.00 164.25 2369.25
   18:56:11.941.10-Nov-2020 4475.51 3999.13 80.33 5.00 164.45 2369.25
   18:56:12.141.10-Nov-2020 4475.51 3997.89 80.33 5.00 164.65 2369.25
   18:56:12.341.10-Nov-2020 4475.51 3997.82 80.33 5.00 164.85 2369.25
   18:56:12.541.10-Nov-2020 4475.51 3997.99 80.33 5.00 165.05 2369.25
   18:56:12.741.10-Nov-2020 4475.51 3997.99 80.33 5.00 165.25 2369.25
   18:56:12.942.10-Nov-2020 4475.51 3998.82 80.33 5.00 165.45 2369.25
   18:56:13.142.10-Nov-2020 4475.51 3999.24 80.33 5.00 165.65 2369.25
   18:56:13.342.10-Nov-2020 4475.51 3999.80 80.33 5.00 165.85 2369.25
   18:56:13.542.10-Nov-2020 4475.51 4000.26 80.33 5.00 166.05 2369.25
   18:56:13.742.10-Nov-2020 4475.51 4000.37 80.33 5.00 166.25 2369.25
   18:56:13.942.10-Nov-2020 4475.51 4000.56 80.33 5.00 166.45 2369.25
   18:56:14.142.10-Nov-2020 4475.51 4000.93 80.33 5.00 166.65 2369.25
   18:56:14.342.10-Nov-2020 4475.51 4001.65 80.33 5.00 166.85 2369.25
   18:56:14.542.10-Nov-2020 4475.51 4001.93 80.33 5.00 167.05 2369.25
   18:56:14.742.10-Nov-2020 4475.51 4001.93 80.33 5.00 167.25 2369.25
   18:56:14.942.10-Nov-2020 4475.51 4002.09 80.33 5.00 167.45 2369.25
   18:56:15.142.10-Nov-2020 4475.51 4002.29 80.33 5.00 167.65 2369.25
   18:56:15.342.10-Nov-2020 4475.51 4002.48 80.33 5.00 167.85 2369.25
   18:56:15.542.10-Nov-2020 4475.51 4002.71 80.33 5.00 168.05 2369.25
   18:56:15.742.10-Nov-2020 4475.51 4002.71 80.33 5.00 168.25 2369.25
   18:56:15.942.10-Nov-2020 4475.51 4003.16 80.32 5.00 168.45 2369.25
   18:56:16.142.10-Nov-2020 4475.51 4003.31 80.32 5.00 168.65 2369.25
   18:56:16.342.10-Nov-2020 4475.51 4003.51 80.32 5.00 168.85 2369.25
   18:56:16.543.10-Nov-2020 4475.51 4003.73 80.32 5.00 169.05 2369.25
   18:56:16.743.10-Nov-2020 4475.51 4003.73 80.32 5.00 169.25 2369.25
   18:56:16.943.10-Nov-2020 4475.51 4004.03 80.32 5.00 169.45 2369.25
   18:56:17.143.10-Nov-2020 4475.51 4004.33 80.32 5.00 169.65 2369.25
   18:56:17.343.10-Nov-2020 4475.51 4004.73 80.32 5.00 169.85 2369.25
   18:56:17.543.10-Nov-2020 4475.51 4004.69 80.32 5.00 170.05 2369.25
   18:56:17.743.10-Nov-2020 4475.51 4004.82 80.32 5.00 170.25 2369.25
   18:56:17.943.10-Nov-2020 4475.51 4005.01 80.32 5.00 170.45 2369.25
   18:56:18.143.10-Nov-2020 4475.51 4005.06 80.32 5.00 170.65 2369.25
   18:56:18.343.10-Nov-2020 4475.51 4005.24 80.32 5.00 170.85 2369.25
   18:56:18.543.10-Nov-2020 4475.51 4005.38 80.32 5.00 171.05 2369.25
   18:56:18.743.10-Nov-2020 4475.51 4005.53 80.32 5.00 171.25 2369.25
   18:56:18.943.10-Nov-2020 4475.51 4005.67 80.32 5.00 171.45 2369.25
   18:56:19.143.10-Nov-2020 4475.51 4005.78 80.32 5.00 171.65 2369.25
   18:56:19.343.10-Nov-2020 4475.51 4005.90 80.32 5.00 171.85 2369.25
   18:56:19.543.10-Nov-2020 4475.51 4006.09 80.32 5.00 172.05 2369.25
   18:56:19.743.10-Nov-2020 4475.51 4006.09 80.32 5.00 172.25 2369.25
   18:56:19.943.10-Nov-2020 4475.51 4006.49 80.31 5.00 172.45 2369.25
   18:56:20.144.10-Nov-2020 4475.51 4006.50 80.31 5.00 172.65 2369.25
   18:56:20.344.10-Nov-2020 4475.51 4006.82 80.31 5.00 172.85 2369.25
   18:56:20.544.10-Nov-2020 4475.51 4006.87 80.31 5.00 173.05 2369.25
   18:56:20.744.10-Nov-2020 4475.51 4006.87 80.31 5.00 173.25 2369.25
   18:56:20.944.10-Nov-2020 4475.51 4006.93 80.31 5.00 173.45 2369.25
   18:56:21.144.10-Nov-2020 4475.51 4007.11 80.31 5.00 173.65 2369.25
   18:56:21.344.10-Nov-2020 4475.51 4007.17 80.31 5.00 173.85 2369.25
   18:56:21.544.10-Nov-2020 4475.51 4007.31 80.31 5.00 174.05 2369.25
   18:56:21.744.10-Nov-2020 4475.51 4007.48 80.31 5.00 174.25 2369.25
   18:56:21.944.10-Nov-2020 4475.51 4007.68 80.31 5.00 174.45 2369.25
   18:56:22.144.10-Nov-2020 4475.51 4007.65 80.31 5.00 174.65 2369.25
   18:56:22.344.10-Nov-2020 4475.51 4007.79 80.31 5.00 174.85 2369.25
   18:56:22.544.10-Nov-2020 4475.51 4008.39 80.31 5.00 175.05 2369.25
   18:56:22.744.10-Nov-2020 4475.51 4008.39 80.31 5.00 175.25 2369.25
   18:56:22.944.10-Nov-2020 4475.51 4008.35 80.31 5.00 175.45 2369.25
   18:56:23.144.10-Nov-2020 4475.51 4008.34 80.31 5.00 175.65 2369.25
   18:56:23.344.10-Nov-2020 4475.51 4012.84 80.31 5.00 175.85 2369.25
   18:56:23.544.10-Nov-2020 4475.51 4018.11 80.31 5.00 176.05 2369.25
   18:56:23.745.10-Nov-2020 4475.51 4010.86 80.31 5.00 176.25 2369.25
   18:56:23.945.10-Nov-2020 4475.51 4009.73 80.31 5.00 176.45 2369.25
   18:56:24.145.10-Nov-2020 4475.51 4009.52 80.30 5.00 176.65 2369.25
   18:56:24.345.10-Nov-2020 4475.51 4009.44 80.30 5.00 176.85 2369.25
   18:56:24.545.10-Nov-2020 4475.51 4009.35 80.30 5.00 177.05 2369.25
   18:56:24.745.10-Nov-2020 4475.51 4009.35 80.30 5.00 177.25 2369.25
   18:56:24.945.10-Nov-2020 4475.51 4009.44 80.30 5.00 177.45 2369.25
   18:56:25.145.10-Nov-2020 4475.51 4009.38 80.30 5.00 177.65 2369.25
   18:56:25.345.10-Nov-2020 4475.51 4009.58 80.30 5.00 177.85 2369.25
   18:56:25.545.10-Nov-2020 4475.51 4009.65 80.30 5.00 178.05 2369.25
   18:56:25.745.10-Nov-2020 4475.51 4009.65 80.30 5.00 178.25 2369.25
   18:56:25.945.10-Nov-2020 4475.51 4009.47 80.30 5.00 178.45 2369.25
   18:56:26.145.10-Nov-2020 4475.51 4009.65 80.30 5.00 178.65 2369.25
   18:56:26.345.10-Nov-2020 4475.51 4009.62 80.30 5.00 178.85 2369.25
   18:56:26.545.10-Nov-2020 4475.51 4009.65 80.30 5.00 179.05 2369.25
   18:56:26.745.10-Nov-2020 4475.51 4009.65 80.30 5.00 179.25 2369.25
   18:56:26.945.10-Nov-2020 4475.51 4009.82 80.30 5.00 179.45 2369.25
   18:56:27.145.10-Nov-2020 4475.51 4009.84 80.30 5.00 179.65 2369.25
   18:56:27.346.10-Nov-2020 4475.51 4009.92 80.30 5.00 179.85 2369.25
   18:56:27.546.10-Nov-2020 4475.51 4010.03 80.30 5.00 180.05 2369.25
   18:56:27.746.10-Nov-2020 4475.51 4010.03 80.30 5.00 180.25 2369.25
   18:56:27.946.10-Nov-2020 4475.51 4010.38 80.30 5.00 180.45 2369.25
   18:56:28.146.10-Nov-2020 4475.51 4010.26 80.30 5.00 180.65 2369.25
   18:56:28.346.10-Nov-2020 4475.51 4010.38 80.29 5.00 180.85 2369.25
   18:56:28.546.10-Nov-2020 4475.51 4010.37 80.29 5.00 181.05 2369.25
   18:56:28.746.10-Nov-2020 4475.51 4010.37 80.29 5.00 181.25 2369.25
   18:56:28.946.10-Nov-2020 4475.51 4010.38 80.29 5.00 181.45 2369.25
   18:56:29.146.10-Nov-2020 4475.51 4010.39 80.29 5.00 181.65 2369.25
   18:56:29.346.10-Nov-2020 4475.51 4010.57 80.29 5.00 181.85 2369.25
   18:56:29.546.10-Nov-2020 4475.51 4011.41 80.29 5.00 182.05 2369.25
   18:56:29.746.10-Nov-2020 4475.51 4010.84 80.29 5.00 182.25 2369.25
   18:56:29.946.10-Nov-2020 4475.51 4010.87 80.29 5.00 182.45 2369.25
   18:56:30.146.10-Nov-2020 4475.51 4010.94 80.29 5.00 182.65 2369.25
   18:56:30.346.10-Nov-2020 4475.51 4010.75 80.29 5.00 182.85 2369.25
   18:56:30.546.10-Nov-2020 4475.51 4010.83 80.29 5.00 183.05 2369.25
   18:56:30.746.10-Nov-2020 4475.51 4010.83 80.29 5.00 183.25 2369.25
   18:56:30.947.10-Nov-2020 4475.51 4016.53 80.29 5.00 183.45 2369.25
   18:56:31.147.10-Nov-2020 4475.51 4012.32 80.29 5.00 183.65 2369.25
   18:56:31.347.10-Nov-2020 4475.51 4011.59 80.29 5.00 183.85 2369.25
