~Version Information
 VERS.                  2.0:   CWLS log ASCII Standard -VERSION 2.0
 WRAP.                   NO:   One line per depth step
~Well Information Block
#MNEM.UNIT     VALUE/NAME     DESCRIPTION
#---------     -----------    ---------------------------
 STRT.S             06:45:19 11-Nov-20: START TIME 06:45:19 11-Nov-20
 STOP.S             06:51:53 11-Nov-20: STOP TIME  06:51:53 11-Nov-20
 STEP.S                   0.00: STEP TIME
 NULL.                 -999.25: NULL VALUE
 DFWT.                        :  DIST FWL TEXT
 DFST.                        :  DIST FSL TEXT
 DMF .             Drill Floor:  DRILL MEAS FROM
 STIM.      04.54.24 22-Sep-20:  START TIME
 DATE.      04.54.24 21-Nov-20:  END TIME
 SPUD.               21-Nov-20:  SPUD DATE
 NREF.                    Grid:  NORTH REFERENCE
 HPTY.       Minimum Curvature:  HOLE POS TYPE
 DMOD.             Drill Model:  DRILL MOD DESC
 SVYD.                  Survey:  SURVEY DESC
 ILTD.               Lithology:  INTERP LTH DESC
 FTOP.          Formation Tops:  FORM TOPS DESC
 SON .        AZ-XX-0906571587:  JOB NUMBER
 COMP.     BP Exploration (Caspian Sea) Ltd:  COMPANY
 UWI .                     N/A:  UNIQUE WELL IDENTIFIER
 API .                     N/A:  API NUMBER
 BASE.              Azerbaijan:  LOGGING EQUIPMENT BASE LOCATION
 REGN.                   EESSA:  REGION
 PROV.                    Baku:  PROVINCE
 STAT.                    Baku:  STATE NAME
 CTRY.              Azerbaijan:  COUNTRY NAME
 FLD .                     ACG:  FIELD NAME
 SRVC.     TURAN Drilling & Engineering:  CONTRACTOR
 WELL.                     J27:  WELL NAME
 RIG .             West Chirag:  RIG NAME
 DOE .                     N/A:  DOE NUMBER
 DCON.         Sperry Drilling:  DIRECTNL CONTR
 PDAT.          Mean Sea Level:  PERMANENT DATUM
 WTYP.                Deviated:  WELL TYPE
 MWDS.                    Baku:  MWD SHOP
 JOBN.        AZ-XX-0906571587:  JOB TICKET NUMB
 UNIT.                     N/A:  LOGGING EQUIPMENT ID
 MDS .        Operator Entered:  MAG DATA SOURCE
 CNTY.                        :  COUNTY
 LOC .                        :  LOCATION
 LMF .             Drill Floor:  LOG MEASURED FROM
 TVDS.m                  43.00:  TVDSS CORRECTN
 LATI.deg                40.13:  LATITUDE
 LONG.deg                51.22:  LONGITUDE
 WHNS.m                   7.72:  WELL HEAD N/S
 WHEW.m                 -14.24:  WELL HEAD E/W
 UTMX.m              519005.06:  UTM X
 UTMY.m             4443793.85:  UTM Y
 DFWL.m                   0.00:  DISTANCE FWL
 DFSL.m                   0.00:  DISTANCE FSL
 SDEP.m                 347.00:  START DEPTH
 TDD .m                 581.00:  TOTAL DEPTH (DRILLER)
 VSDR.deg               159.72:  VERT SEC DIRECT
 GVFD.g                   1.00:  GRAVITY FIELD
 MFLD.nT              50313.00:  MAGNETIC FIELD
 MDIP.deg                59.58:  MAGNETIC DIP
 MDEC.deg                 6.45:  MAGNETIC DECL
 GRDC.deg                 0.15:  GRID CORRECTION
 AZTC.deg                 6.30:  AZM TOTAL CORR
 EPD .m                   0.00:  ELEVATION
 EGL .m                   0.00:  GROUND ELEVATION
 WDMS.m                 169.80:  WD ELEV
 APD .m                  43.00:  DEPTH ABOVE PD
 AGAP.m                  43.00:  AIR GAP
 VSEW.m                 -14.24:  VERT SEC E/W
 VSNS.m                   7.72:  VERT SEC N/S
 DEP .m                 342.45:  DEPTH
 EKB .m                   0.00:  KB ELEVATION
 EDF .m                  43.00:  DF ELEVATION
 TDL .m                1313.00:  TOTAL DEPTH (LOGGER)
 VSC .                       0:  VS TO CLOSURE
 MAGU.                 1851396:  MAGUTM CHECKSUM
~Parameter Information Block
#MNEM.UNIT       Value        Description
#---------     -----------    ---------------------------
 AV  .mps                 0.65:  Ann Velocity 
 AVMX.mps                 0.75:  Max Ann Veloc 
 AZIF.deg               115.08:  Azm, Final 
 BHAT.        Rotary Steerable:  BHA Type 
 BROT.°/30m               1.50:  Build Rotating 
 BS  .in                 12.25:  Bit Size 
 BSZ .in                 12.25:  Bit Size 
 BTPL.psig              700.00:  Bit Press Loss 
 CABU.                     Yes:  Customer Abuse 
 COMM.                     LNw:  Run Comments 1 
 TCS .hr                121.00:  Time Ciculation Ended 
 CV  .mps                 1.83:  Crit Velocity 
 CVMX.mps                 1.83:  Max Crit Veloc 
 DD1 .          Rashad Habibov:  Direct Drillr 1 
 DD2 .         Rasim Ibrahimov:  Direct Drillr 2 
 DDSV.                 iCruise:  DD Service 
 DEFF.%                 100.00:  % Det Eff 
 DLRX.°/30m               3.60:  Dogleg Rot Max 
 DLSO.°/30m               3.10:  Dogleg Oriented 
 DLSX.°/30m               3.60:  Dogleg Str Max 
 DRET.      13.41.20 12-Nov-20:  Drill End Time 
 DRST.      13.41.20 07-Nov-20:  Drill Start Tim 
 DTIM.hr                 54.16:  Time Drilling 
 EDEP.m                4762.01:  End Depth 
 ENG1.           Amrah Tahirov:  Engineer 1 
 ENG2.      Bakhtiyar Jabbarli:  Engineer 2 
 ENG3.          Ruslan Safarov:  Engineer 3 
 ETIM.      13.41.20 14-Nov-20:  End Time 
 FLOI.gpm              1200.00:  Flow In 
 FLON.gpm              1100.00:  Flow In Min 
 FLOS.cptm                0.00:  Fluid Loss 
 FLOX.gpm              1200.00:  Flow In Max 
 HFLO.                      No:  High Flow 
 HPRE.                      No:  High Pressure 
 HTEM.                      No:  High Temp 
 HYDO.m                   2.00:  Hydro Offset 
 IFIN.deg                66.14:  Inc, Final 
 IMAX.deg                69.03:  Inc Max 
 IMIN.deg                64.64:  Inc Min 
 IMND.m                4450.16:  Inc Min Depth 
 IMXD.m                3996.00:  Inc Max Depth 
 JARR.                     Yes:  Jarring 
 LETM.      13.41.20 14-Nov-20:  Log End Time 
 LOST.hr                     0:  Lost Rig Time 
 LSTM.      13.41.20 06-Nov-20:  Log Start Time 
 MDCL.ppm             42500.00:  Mud Chlorides 
 MDES.     Inversion Oil/Synthetic:  Mud Desc 
 DFD .sg                  1.45:  Mud Density 
 MDMN.sg                  1.45:  Dens Mud Min 
 MDMX.sg                  1.45:  Dens Mud Max 
 MOIL.                      70:  Run Mud Oil % 
 MOWR.                   70:30:  Run Mud OWR 
 MSND.                       0:  Run Mud Sand % 
 MSOL.                    19.3:  Run Mud Solids% 
 DFV .spqt               77.00:  Mud Viscosity 
 MWOD.in                  8.00:  MWD Tool OD 
 MWSI.                      No:  Serv Intrp, MWD 
 OTIM.hr                201.88:  Time Operating 
 PCON.           Look Like New:  Pad Condition 
 PMAX.psia             9250.94:  Press Op, Max 
 PV  .cP                 29.00:  Mud PV 
 RUN .                     800:  Run Number 
 ROPA.m/hr               28.00:  ROP Avg 
 ROPN.m/hr               25.00:  ROP Min 
 ROPX.m/hr               30.00:  ROP Max 
 RPMA.rpm               160.00:  RPM Surface Avg 
 RPMN.rpm               160.00:  RPM Surface Min 
 RPMX.rpm               160.00:  RPM Surface Max 
 RRUN.                    0800:  Rig Run Number 
 RTIM.hr                 12.00:  Time Reaming 
 SAZI.deg               169.33:  Azm, Start 
 SDEP.m                3449.01:  Start Depth 
 SIDD.                      No:  Serv Intrp, DD 
 SINC.deg                68.01:  Inc, Start 
 SPPA.psig             4900.00:  SPP Avg 
 SPPN.psig             4800.00:  SPP Min 
 SPPX.psig             5050.00:  SPP Max 
 STIM.      13.41.20 06-Nov-20:  Start Time 
 SVCS.                 DD, MWD:  Services 
 SVER.                    9.20:  Sperry Version 
 TDAT.m                4762.01:  Tot Depth Attmp 
 TDDF.                      No:  Trip for DD 
 TDLG.m                1313.00:  Tot Depth Loggd 
 TFF .                      No:  Trip for Fail 
 TQAA.f-kp               13.00:  Torque Abs Avg 
 TQAN.f-kp               13.00:  Torque Abs Min 
 TQAX.f-kp               13.00:  Torque Abs Max 
 TRRT.°/30m               1.70:  Turn Rotating 
 MRT .                  EWR-M5:  Maximum Recorded Temperature 
 TTMX.degC               86.00:  Max Tool Temp 
 VS01.                90622122:  Virtual Str1 SN 
 VS02.                90577298:  Virtual Str2 SN 
 VS03.                90563623:  Virtual Str3 SN 
 VS04.                90617559:  Virtual Str4 SN 
 VS05.                11339492:  Virtual Str5 SN 
 VS06.                12385033:  Virtual Str6 SN 
 WBMN.klb                 0.00:  WOB Min 
 WOBA.klb                22.00:  WOB Avg 
 WOBX.klb                26.00:  WOB Max 
 YP  .lhf2               30.00:  Yield Point 
~Curve Information Block
#MNEM.UNIT                 API CODE     Curve Description
#---------               -----------    ---------------------------
 TIME.HHMMSS            00 000 000 000:  GT Time & Date
 GTDEPTH.m              00 000 000 000:  GT Depth
 GTPQH.psia             00 000 000 000:  GT HR Quartz Pressure
 GTTQ.degC              00 000 000 000:  GT Quartz Temperature
 GTTN.NONE              00 000 000 000:  GT Test Number
 GTET.sec               00 000 000 000:  GT Elapsed Test Time
 GTTVD.m                00 000 000 000:  GT True Vertical Depth
#Other Information
#
#WARRANTY: Halliburton will use its best efforts to furnish customers with 
#accurate information and interpretations that are part of, and incident to, the services 
#provided.  However, Halliburton cannot and does not warrant the accuracy 
#or correctness of such information and interpretations.  Under no circumstances should any 
#such information or interpretation be relied upon as the sole basis for any drilling, 
#completion, production, or financial decision or any procedure involving any risk to the 
#safety of any drilling venture, drilling rig or its crew or any other third party.  The 
#Customer has full responsibility for all drilling, completion and production operation.  
#Halliburton makes no representations or warranties, either expressed or 
#implied, including, but not limited to, the implied warranties of merchantability or fitness 
#for a particular purpose, with respect to the services rendered.  In no event will 
#Halliburton be liable for failure to obtain any particular results or for 
#any damages, including, but not limited to, indirect, special or consequential damages, 
#resulting from the use of any information or interpretation provided by Halliburton.
#
~A           TIME           GTDEPTH  GTPQH  GTTQ  GTTN  GTET   GTTVD  
# ...
   06:48:00.440.11-Nov-2020 4617.01 4103.05 79.67 8.00 161.05 2426.59
   06:48:00.640.11-Nov-2020 4617.01 4103.05 79.67 8.00 161.25 2426.59
   06:48:00.840.11-Nov-2020 4617.01 4102.81 79.67 8.00 161.45 2426.59
   06:48:01.040.11-Nov-2020 4617.01 4103.06 79.67 8.00 161.65 2426.59
   06:48:01.240.11-Nov-2020 4617.01 4103.01 79.67 8.00 161.85 2426.59
   06:48:01.440.11-Nov-2020 4617.01 4103.19 79.66 8.00 162.05 2426.59
   06:48:01.641.11-Nov-2020 4617.01 4103.19 79.66 8.00 162.25 2426.59
   06:48:01.841.11-Nov-2020 4617.01 4103.39 79.66 8.00 162.45 2426.59
   06:48:02.041.11-Nov-2020 4617.01 4103.23 79.66 8.00 162.65 2426.59
   06:48:02.241.11-Nov-2020 4617.01 4113.69 79.66 8.00 162.85 2426.59
   06:48:02.441.11-Nov-2020 4617.01 4134.74 79.66 8.00 163.05 2426.59
   06:48:02.641.11-Nov-2020 4617.01 4134.96 79.66 8.00 163.25 2426.59
   06:48:02.841.11-Nov-2020 4617.01 4135.09 79.66 8.00 163.45 2426.59
   06:48:03.041.11-Nov-2020 4617.01 4135.09 79.66 8.00 163.65 2426.59
   06:48:03.241.11-Nov-2020 4617.01 4135.17 79.66 8.00 163.85 2426.59
   06:48:03.441.11-Nov-2020 4617.01 4135.24 79.66 8.00 164.05 2426.59
   06:48:03.641.11-Nov-2020 4617.01 4135.47 79.66 8.00 164.25 2426.59
   06:48:03.841.11-Nov-2020 4617.01 4135.56 79.66 8.00 164.45 2426.59
   06:48:04.041.11-Nov-2020 4617.01 4135.43 79.66 8.00 164.65 2426.59
   06:48:04.241.11-Nov-2020 4617.01 4135.40 79.65 8.00 164.85 2426.59
   06:48:04.441.11-Nov-2020 4617.01 4135.44 79.65 8.00 165.05 2426.59
   06:48:04.641.11-Nov-2020 4617.01 4135.49 79.65 8.00 165.25 2426.59
   06:48:04.842.11-Nov-2020 4617.01 4135.70 79.65 8.00 165.45 2426.59
   06:48:05.042.11-Nov-2020 4617.01 4135.27 79.65 8.00 165.65 2426.59
   06:48:05.242.11-Nov-2020 4617.01 4135.69 79.65 8.00 165.85 2426.59
   06:48:05.442.11-Nov-2020 4617.01 4135.15 79.65 8.00 166.05 2426.59
   06:48:05.642.11-Nov-2020 4617.01 4135.15 79.65 8.00 166.25 2426.59
   06:48:05.842.11-Nov-2020 4617.01 4135.54 79.65 8.00 166.45 2426.59
   06:48:06.042.11-Nov-2020 4617.01 4135.54 79.65 8.00 166.65 2426.59
   06:48:06.242.11-Nov-2020 4617.01 4135.45 79.65 8.00 166.85 2426.59
   06:48:06.442.11-Nov-2020 4617.01 4135.52 79.65 8.00 167.05 2426.59
   06:48:06.642.11-Nov-2020 4617.01 4135.52 79.65 8.00 167.25 2426.59
   06:48:06.842.11-Nov-2020 4617.01 4135.50 79.64 8.00 167.45 2426.59
   06:48:07.042.11-Nov-2020 4617.01 4135.52 79.64 8.00 167.65 2426.59
   06:48:07.242.11-Nov-2020 4617.01 4135.50 79.64 8.00 167.85 2426.59
   06:48:07.442.11-Nov-2020 4617.01 4135.52 79.64 8.00 168.05 2426.59
   06:48:07.642.11-Nov-2020 4617.01 4135.47 79.64 8.00 168.25 2426.59
   06:48:07.842.11-Nov-2020 4617.01 4135.60 79.64 8.00 168.45 2426.59
   06:48:08.043.11-Nov-2020 4617.01 4135.52 79.64 8.00 168.65 2426.59
   06:48:08.243.11-Nov-2020 4617.01 4135.49 79.64 8.00 168.85 2426.59
   06:48:08.443.11-Nov-2020 4617.01 4135.53 79.64 8.00 169.05 2426.59
   06:48:08.643.11-Nov-2020 4617.01 4135.54 79.64 8.00 169.25 2426.59
   06:48:08.843.11-Nov-2020 4617.01 4135.50 79.64 8.00 169.45 2426.59
   06:48:09.043.11-Nov-2020 4617.01 4135.77 79.64 8.00 169.65 2426.59
   06:48:09.243.11-Nov-2020 4617.01 4135.38 79.64 8.00 169.85 2426.59
   06:48:09.443.11-Nov-2020 4617.01 4135.56 79.64 8.00 170.05 2426.59
   06:48:09.643.11-Nov-2020 4617.01 4135.56 79.64 8.00 170.25 2426.59
   06:48:09.843.11-Nov-2020 4617.01 4135.54 79.63 8.00 170.45 2426.59
   06:48:10.043.11-Nov-2020 4617.01 4135.51 79.63 8.00 170.65 2426.59
   06:48:10.243.11-Nov-2020 4617.01 4135.56 79.63 8.00 170.85 2426.59
   06:48:10.443.11-Nov-2020 4617.01 4135.55 79.63 8.00 171.05 2426.59
   06:48:10.643.11-Nov-2020 4617.01 4135.55 79.63 8.00 171.25 2426.59
   06:48:10.843.11-Nov-2020 4617.01 4135.47 79.63 8.00 171.45 2426.59
   06:48:11.043.11-Nov-2020 4617.01 4135.52 79.63 8.00 171.65 2426.59
   06:48:11.244.11-Nov-2020 4617.01 4135.49 79.63 8.00 171.85 2426.59
   06:48:11.444.11-Nov-2020 4617.01 4135.48 79.63 8.00 172.05 2426.59
   06:48:11.644.11-Nov-2020 4617.01 4135.48 79.63 8.00 172.25 2426.59
   06:48:11.844.11-Nov-2020 4617.01 4135.41 79.63 8.00 172.45 2426.59
   06:48:12.044.11-Nov-2020 4617.01 4135.61 79.63 8.00 172.65 2426.59
   06:48:12.244.11-Nov-2020 4617.01 4135.39 79.62 8.00 172.85 2426.59
   06:48:12.444.11-Nov-2020 4617.01 4135.51 79.62 8.00 173.05 2426.59
   06:48:12.644.11-Nov-2020 4617.01 4135.51 79.62 8.00 173.25 2426.59
   06:48:12.844.11-Nov-2020 4617.01 4135.21 79.62 8.00 173.45 2426.59
   06:48:13.044.11-Nov-2020 4617.01 4135.50 79.62 8.00 173.65 2426.59
   06:48:13.244.11-Nov-2020 4617.01 4135.66 79.62 8.00 173.85 2426.59
   06:48:13.444.11-Nov-2020 4617.01 4135.59 79.62 8.00 174.05 2426.59
   06:48:13.644.11-Nov-2020 4617.01 4135.59 79.62 8.00 174.25 2426.59
   06:48:13.844.11-Nov-2020 4617.01 4135.44 79.62 8.00 174.45 2426.59
   06:48:14.044.11-Nov-2020 4617.01 4135.52 79.62 8.00 174.65 2426.59
   06:48:14.244.11-Nov-2020 4617.01 4135.63 79.62 8.00 174.85 2426.59
   06:48:14.445.11-Nov-2020 4617.01 4135.45 79.62 8.00 175.05 2426.59
   06:48:14.645.11-Nov-2020 4617.01 4135.45 79.62 8.00 175.26 2426.59
   06:48:14.845.11-Nov-2020 4617.01 4135.55 79.61 8.00 175.46 2426.59
   06:48:15.045.11-Nov-2020 4617.01 4135.48 79.61 8.00 175.66 2426.59
   06:48:15.245.11-Nov-2020 4617.01 4135.50 79.61 8.00 175.86 2426.59
   06:48:15.445.11-Nov-2020 4617.01 4135.58 79.61 8.00 176.06 2426.59
   06:48:15.645.11-Nov-2020 4617.01 4135.56 79.61 8.00 176.26 2426.59
   06:48:15.845.11-Nov-2020 4617.01 4135.56 79.61 8.00 176.46 2426.59
   06:48:16.045.11-Nov-2020 4617.01 4135.53 79.61 8.00 176.66 2426.59
   06:48:16.245.11-Nov-2020 4617.01 4135.55 79.61 8.00 176.86 2426.59
   06:48:16.445.11-Nov-2020 4617.01 4135.57 79.61 8.00 177.06 2426.59
   06:48:16.645.11-Nov-2020 4617.01 4135.57 79.61 8.00 177.26 2426.59
   06:48:16.845.11-Nov-2020 4617.01 4135.55 79.61 8.00 177.46 2426.59
   06:48:17.045.11-Nov-2020 4617.01 4135.80 79.61 8.00 177.66 2426.59
   06:48:17.245.11-Nov-2020 4617.01 4135.34 79.61 8.00 177.86 2426.59
   06:48:17.445.11-Nov-2020 4617.01 4135.43 79.60 8.00 178.06 2426.59
   06:48:17.646.11-Nov-2020 4617.01 4135.43 79.60 8.00 178.26 2426.59
   06:48:17.846.11-Nov-2020 4617.01 4135.61 79.60 8.00 178.46 2426.59
   06:48:18.046.11-Nov-2020 4617.01 4135.49 79.60 8.00 178.66 2426.59
   06:48:18.246.11-Nov-2020 4617.01 4135.55 79.60 8.00 178.86 2426.59
   06:48:18.446.11-Nov-2020 4617.01 4135.53 79.60 8.00 179.06 2426.59
   06:48:18.646.11-Nov-2020 4617.01 4135.53 79.60 8.00 179.26 2426.59
   06:48:18.846.11-Nov-2020 4617.01 4135.49 79.60 8.00 179.46 2426.59
   06:48:19.046.11-Nov-2020 4617.01 4135.50 79.60 8.00 179.66 2426.59
   06:48:19.246.11-Nov-2020 4617.01 4135.53 79.60 8.00 179.86 2426.59
   06:48:19.446.11-Nov-2020 4617.01 4135.51 79.60 8.00 180.06 2426.59
   06:48:19.646.11-Nov-2020 4617.01 4135.75 79.60 8.00 180.26 2426.59
   06:48:19.846.11-Nov-2020 4617.01 4135.40 79.60 8.00 180.46 2426.59
   06:48:20.046.11-Nov-2020 4617.01 4135.47 79.60 8.00 180.66 2426.59
   06:48:20.246.11-Nov-2020 4617.01 4135.52 79.59 8.00 180.86 2426.59
   06:48:20.446.11-Nov-2020 4617.01 4135.65 79.59 8.00 181.06 2426.59
   06:48:20.646.11-Nov-2020 4617.01 4135.65 79.59 8.00 181.26 2426.59
   06:48:20.847.11-Nov-2020 4617.01 4135.53 79.59 8.00 181.46 2426.59
   06:48:21.047.11-Nov-2020 4617.01 4135.81 79.59 8.00 181.66 2426.59
   06:48:21.247.11-Nov-2020 4617.01 4135.39 79.59 8.00 181.86 2426.59
   06:48:21.447.11-Nov-2020 4617.01 4135.53 79.59 8.00 182.06 2426.59
   06:48:21.647.11-Nov-2020 4617.01 4135.53 79.59 8.00 182.26 2426.59
   06:48:21.847.11-Nov-2020 4617.01 4135.61 79.59 8.00 182.46 2426.59
   06:48:22.047.11-Nov-2020 4617.01 4135.50 79.59 8.00 182.66 2426.59
   06:48:22.247.11-Nov-2020 4617.01 4135.55 79.59 8.00 182.86 2426.59
   06:48:22.447.11-Nov-2020 4617.01 4135.62 79.59 8.00 183.06 2426.59
   06:48:22.647.11-Nov-2020 4617.01 4135.62 79.59 8.00 183.26 2426.59
   06:48:22.847.11-Nov-2020 4617.01 4135.64 79.58 8.00 183.46 2426.59
   06:48:23.047.11-Nov-2020 4617.01 4135.53 79.58 8.00 183.66 2426.59
   06:48:23.247.11-Nov-2020 4617.01 4135.59 79.58 8.00 183.86 2426.59
