~Version Information
 VERS.                  2.0:   CWLS log ASCII Standard -VERSION 2.0
 WRAP.                   NO:   One line per depth step
~Well Information Block
#MNEM.UNIT     VALUE/NAME     DESCRIPTION
#---------     -----------    ---------------------------
 STRT.S             06:45:19 11-Nov-20: START TIME 06:45:19 11-Nov-20
 STOP.S             06:51:53 11-Nov-20: STOP TIME  06:51:53 11-Nov-20
 STEP.S                   0.00: STEP TIME
 NULL.                 -999.25: NULL VALUE
 DFWT.                        :  DIST FWL TEXT
 DFST.                        :  DIST FSL TEXT
 DMF .             Drill Floor:  DRILL MEAS FROM
 STIM.      04.54.24 22-Sep-20:  START TIME
 DATE.      04.54.24 21-Nov-20:  END TIME
 SPUD.               21-Nov-20:  SPUD DATE
 NREF.                    Grid:  NORTH REFERENCE
 HPTY.       Minimum Curvature:  HOLE POS TYPE
 DMOD.             Drill Model:  DRILL MOD DESC
 SVYD.                  Survey:  SURVEY DESC
 ILTD.               Lithology:  INTERP LTH DESC
 FTOP.          Formation Tops:  FORM TOPS DESC
 SON .        AZ-XX-0906571587:  JOB NUMBER
 COMP.     BP Exploration (Caspian Sea) Ltd:  COMPANY
 UWI .                     N/A:  UNIQUE WELL IDENTIFIER
 API .                     N/A:  API NUMBER
 BASE.              Azerbaijan:  LOGGING EQUIPMENT BASE LOCATION
 REGN.                   EESSA:  REGION
 PROV.                    Baku:  PROVINCE
 STAT.                    Baku:  STATE NAME
 CTRY.              Azerbaijan:  COUNTRY NAME
 FLD .                     ACG:  FIELD NAME
 SRVC.     TURAN Drilling & Engineering:  CONTRACTOR
 WELL.                     J27:  WELL NAME
 RIG .             West Chirag:  RIG NAME
 DOE .                     N/A:  DOE NUMBER
 DCON.         Sperry Drilling:  DIRECTNL CONTR
 PDAT.          Mean Sea Level:  PERMANENT DATUM
 WTYP.                Deviated:  WELL TYPE
 MWDS.                    Baku:  MWD SHOP
 JOBN.        AZ-XX-0906571587:  JOB TICKET NUMB
 UNIT.                     N/A:  LOGGING EQUIPMENT ID
 MDS .        Operator Entered:  MAG DATA SOURCE
 CNTY.                        :  COUNTY
 LOC .                        :  LOCATION
 LMF .             Drill Floor:  LOG MEASURED FROM
 TVDS.m                  43.00:  TVDSS CORRECTN
 LATI.deg                40.13:  LATITUDE
 LONG.deg                51.22:  LONGITUDE
 WHNS.m                   7.72:  WELL HEAD N/S
 WHEW.m                 -14.24:  WELL HEAD E/W
 UTMX.m              519005.06:  UTM X
 UTMY.m             4443793.85:  UTM Y
 DFWL.m                   0.00:  DISTANCE FWL
 DFSL.m                   0.00:  DISTANCE FSL
 SDEP.m                 347.00:  START DEPTH
 TDD .m                 581.00:  TOTAL DEPTH (DRILLER)
 VSDR.deg               159.72:  VERT SEC DIRECT
 GVFD.g                   1.00:  GRAVITY FIELD
 MFLD.nT              50313.00:  MAGNETIC FIELD
 MDIP.deg                59.58:  MAGNETIC DIP
 MDEC.deg                 6.45:  MAGNETIC DECL
 GRDC.deg                 0.15:  GRID CORRECTION
 AZTC.deg                 6.30:  AZM TOTAL CORR
 EPD .m                   0.00:  ELEVATION
 EGL .m                   0.00:  GROUND ELEVATION
 WDMS.m                 169.80:  WD ELEV
 APD .m                  43.00:  DEPTH ABOVE PD
 AGAP.m                  43.00:  AIR GAP
 VSEW.m                 -14.24:  VERT SEC E/W
 VSNS.m                   7.72:  VERT SEC N/S
 DEP .m                 342.45:  DEPTH
 EKB .m                   0.00:  KB ELEVATION
 EDF .m                  43.00:  DF ELEVATION
 TDL .m                1313.00:  TOTAL DEPTH (LOGGER)
 VSC .                       0:  VS TO CLOSURE
 MAGU.                 1851396:  MAGUTM CHECKSUM
~Parameter Information Block
#MNEM.UNIT       Value        Description
#---------     -----------    ---------------------------
 AV  .mps                 0.65:  Ann Velocity 
 AVMX.mps                 0.75:  Max Ann Veloc 
 AZIF.deg               115.08:  Azm, Final 
 BHAT.        Rotary Steerable:  BHA Type 
 BROT.°/30m               1.50:  Build Rotating 
 BS  .in                 12.25:  Bit Size 
 BSZ .in                 12.25:  Bit Size 
 BTPL.psig              700.00:  Bit Press Loss 
 CABU.                     Yes:  Customer Abuse 
 COMM.                     LNw:  Run Comments 1 
 TCS .hr                121.00:  Time Ciculation Ended 
 CV  .mps                 1.83:  Crit Velocity 
 CVMX.mps                 1.83:  Max Crit Veloc 
 DD1 .          Rashad Habibov:  Direct Drillr 1 
 DD2 .         Rasim Ibrahimov:  Direct Drillr 2 
 DDSV.                 iCruise:  DD Service 
 DEFF.%                 100.00:  % Det Eff 
 DLRX.°/30m               3.60:  Dogleg Rot Max 
 DLSO.°/30m               3.10:  Dogleg Oriented 
 DLSX.°/30m               3.60:  Dogleg Str Max 
 DRET.      13.41.20 12-Nov-20:  Drill End Time 
 DRST.      13.41.20 07-Nov-20:  Drill Start Tim 
 DTIM.hr                 54.16:  Time Drilling 
 EDEP.m                4762.01:  End Depth 
 ENG1.           Amrah Tahirov:  Engineer 1 
 ENG2.      Bakhtiyar Jabbarli:  Engineer 2 
 ENG3.          Ruslan Safarov:  Engineer 3 
 ETIM.      13.41.20 14-Nov-20:  End Time 
 FLOI.gpm              1200.00:  Flow In 
 FLON.gpm              1100.00:  Flow In Min 
 FLOS.cptm                0.00:  Fluid Loss 
 FLOX.gpm              1200.00:  Flow In Max 
 HFLO.                      No:  High Flow 
 HPRE.                      No:  High Pressure 
 HTEM.                      No:  High Temp 
 HYDO.m                   2.00:  Hydro Offset 
 IFIN.deg                66.14:  Inc, Final 
 IMAX.deg                69.03:  Inc Max 
 IMIN.deg                64.64:  Inc Min 
 IMND.m                4450.16:  Inc Min Depth 
 IMXD.m                3996.00:  Inc Max Depth 
 JARR.                     Yes:  Jarring 
 LETM.      13.41.20 14-Nov-20:  Log End Time 
 LOST.hr                     0:  Lost Rig Time 
 LSTM.      13.41.20 06-Nov-20:  Log Start Time 
 MDCL.ppm             42500.00:  Mud Chlorides 
 MDES.     Inversion Oil/Synthetic:  Mud Desc 
 DFD .sg                  1.45:  Mud Density 
 MDMN.sg                  1.45:  Dens Mud Min 
 MDMX.sg                  1.45:  Dens Mud Max 
 MOIL.                      70:  Run Mud Oil % 
 MOWR.                   70:30:  Run Mud OWR 
 MSND.                       0:  Run Mud Sand % 
 MSOL.                    19.3:  Run Mud Solids% 
 DFV .spqt               77.00:  Mud Viscosity 
 MWOD.in                  8.00:  MWD Tool OD 
 MWSI.                      No:  Serv Intrp, MWD 
 OTIM.hr                201.88:  Time Operating 
 PCON.           Look Like New:  Pad Condition 
 PMAX.psia             9250.94:  Press Op, Max 
 PV  .cP                 29.00:  Mud PV 
 RUN .                     800:  Run Number 
 ROPA.m/hr               28.00:  ROP Avg 
 ROPN.m/hr               25.00:  ROP Min 
 ROPX.m/hr               30.00:  ROP Max 
 RPMA.rpm               160.00:  RPM Surface Avg 
 RPMN.rpm               160.00:  RPM Surface Min 
 RPMX.rpm               160.00:  RPM Surface Max 
 RRUN.                    0800:  Rig Run Number 
 RTIM.hr                 12.00:  Time Reaming 
 SAZI.deg               169.33:  Azm, Start 
 SDEP.m                3449.01:  Start Depth 
 SIDD.                      No:  Serv Intrp, DD 
 SINC.deg                68.01:  Inc, Start 
 SPPA.psig             4900.00:  SPP Avg 
 SPPN.psig             4800.00:  SPP Min 
 SPPX.psig             5050.00:  SPP Max 
 STIM.      13.41.20 06-Nov-20:  Start Time 
 SVCS.                 DD, MWD:  Services 
 SVER.                    9.20:  Sperry Version 
 TDAT.m                4762.01:  Tot Depth Attmp 
 TDDF.                      No:  Trip for DD 
 TDLG.m                1313.00:  Tot Depth Loggd 
 TFF .                      No:  Trip for Fail 
 TQAA.f-kp               13.00:  Torque Abs Avg 
 TQAN.f-kp               13.00:  Torque Abs Min 
 TQAX.f-kp               13.00:  Torque Abs Max 
 TRRT.°/30m               1.70:  Turn Rotating 
 MRT .                  EWR-M5:  Maximum Recorded Temperature 
 TTMX.degC               86.00:  Max Tool Temp 
 VS01.                90622122:  Virtual Str1 SN 
 VS02.                90577298:  Virtual Str2 SN 
 VS03.                90563623:  Virtual Str3 SN 
 VS04.                90617559:  Virtual Str4 SN 
 VS05.                11339492:  Virtual Str5 SN 
 VS06.                12385033:  Virtual Str6 SN 
 WBMN.klb                 0.00:  WOB Min 
 WOBA.klb                22.00:  WOB Avg 
 WOBX.klb                26.00:  WOB Max 
 YP  .lhf2               30.00:  Yield Point 
~Curve Information Block
#MNEM.UNIT                 API CODE     Curve Description
#---------               -----------    ---------------------------
 TIME.HHMMSS            00 000 000 000:  GT Time & Date
 GTDEPTH.m              00 000 000 000:  GT Depth
 GTPQH.psia             00 000 000 000:  GT HR Quartz Pressure
 GTTQ.degC              00 000 000 000:  GT Quartz Temperature
 GTTN.NONE              00 000 000 000:  GT Test Number
 GTET.sec               00 000 000 000:  GT Elapsed Test Time
 GTTVD.m                00 000 000 000:  GT True Vertical Depth
#Other Information
#
#WARRANTY: Halliburton will use its best efforts to furnish customers with 
#accurate information and interpretations that are part of, and incident to, the services 
#provided.  However, Halliburton cannot and does not warrant the accuracy 
#or correctness of such information and interpretations.  Under no circumstances should any 
#such information or interpretation be relied upon as the sole basis for any drilling, 
#completion, production, or financial decision or any procedure involving any risk to the 
#safety of any drilling venture, drilling rig or its crew or any other third party.  The 
#Customer has full responsibility for all drilling, completion and production operation.  
#Halliburton makes no representations or warranties, either expressed or 
#implied, including, but not limited to, the implied warranties of merchantability or fitness 
#for a particular purpose, with respect to the services rendered.  In no event will 
#Halliburton be liable for failure to obtain any particular results or for 
#any damages, including, but not limited to, indirect, special or consequential damages, 
#resulting from the use of any information or interpretation provided by Halliburton.
#
~A           TIME           GTDEPTH  GTPQH  GTTQ  GTTN  GTET   GTTVD  
# ...
   06:50:41.491.11-Nov-2020 4617.01 4135.75 79.04 8.00 322.10 2426.59
   06:50:41.691.11-Nov-2020 4617.01 4135.75 79.04 8.00 322.30 2426.59
   06:50:41.891.11-Nov-2020 4617.01 4135.56 79.04 8.00 322.50 2426.59
   06:50:42.091.11-Nov-2020 4617.01 4135.61 79.04 8.00 322.70 2426.59
   06:50:42.291.11-Nov-2020 4617.01 4135.57 79.04 8.00 322.90 2426.59
   06:50:42.491.11-Nov-2020 4617.01 4135.62 79.04 8.00 323.10 2426.59
   06:50:42.691.11-Nov-2020 4617.01 4135.62 79.04 8.00 323.30 2426.59
   06:50:42.891.11-Nov-2020 4617.01 4135.48 79.04 8.00 323.50 2426.59
   06:50:43.091.11-Nov-2020 4617.01 4135.65 79.04 8.00 323.70 2426.59
   06:50:43.291.11-Nov-2020 4617.01 4135.52 79.03 8.00 323.90 2426.59
   06:50:43.491.11-Nov-2020 4617.01 4135.65 79.03 8.00 324.10 2426.59
   06:50:43.691.11-Nov-2020 4617.01 4135.64 79.03 8.00 324.30 2426.59
   06:50:43.891.11-Nov-2020 4617.01 4135.84 79.03 8.00 324.50 2426.59
   06:50:44.092.11-Nov-2020 4617.01 4135.42 79.03 8.00 324.70 2426.59
   06:50:44.292.11-Nov-2020 4617.01 4135.50 79.03 8.00 324.90 2426.59
   06:50:44.492.11-Nov-2020 4617.01 4135.62 79.03 8.00 325.10 2426.59
   06:50:44.692.11-Nov-2020 4617.01 4135.72 79.03 8.00 325.30 2426.59
   06:50:44.892.11-Nov-2020 4617.01 4135.57 79.03 8.00 325.50 2426.59
   06:50:45.092.11-Nov-2020 4617.01 4135.61 79.03 8.00 325.70 2426.59
   06:50:45.292.11-Nov-2020 4617.01 4135.62 79.03 8.00 325.90 2426.59
   06:50:45.492.11-Nov-2020 4617.01 4135.60 79.03 8.00 326.10 2426.59
   06:50:45.692.11-Nov-2020 4617.01 4135.60 79.03 8.00 326.30 2426.59
   06:50:45.892.11-Nov-2020 4617.01 4135.63 79.02 8.00 326.50 2426.59
   06:50:46.092.11-Nov-2020 4617.01 4135.57 79.02 8.00 326.70 2426.59
   06:50:46.292.11-Nov-2020 4617.01 4135.58 79.02 8.00 326.90 2426.59
   06:50:46.492.11-Nov-2020 4617.01 4135.59 79.02 8.00 327.10 2426.59
   06:50:46.692.11-Nov-2020 4617.01 4135.59 79.02 8.00 327.30 2426.59
   06:50:46.892.11-Nov-2020 4617.01 4135.68 79.02 8.00 327.50 2426.59
   06:50:47.092.11-Nov-2020 4617.01 4135.57 79.02 8.00 327.70 2426.59
   06:50:47.293.11-Nov-2020 4617.01 4135.60 79.02 8.00 327.90 2426.59
   06:50:47.493.11-Nov-2020 4617.01 4135.63 79.02 8.00 328.10 2426.59
   06:50:47.693.11-Nov-2020 4617.01 4135.62 79.02 8.00 328.30 2426.59
   06:50:47.893.11-Nov-2020 4617.01 4135.59 79.02 8.00 328.50 2426.59
   06:50:48.093.11-Nov-2020 4617.01 4135.54 79.02 8.00 328.70 2426.59
   06:50:48.293.11-Nov-2020 4617.01 4135.53 79.01 8.00 328.90 2426.59
   06:50:48.493.11-Nov-2020 4617.01 4135.59 79.01 8.00 329.10 2426.59
   06:50:48.693.11-Nov-2020 4617.01 4135.59 79.01 8.00 329.30 2426.59
   06:50:48.893.11-Nov-2020 4617.01 4135.61 79.01 8.00 329.50 2426.59
   06:50:49.093.11-Nov-2020 4617.01 4135.59 79.01 8.00 329.70 2426.59
   06:50:49.293.11-Nov-2020 4617.01 4135.50 79.01 8.00 329.90 2426.59
   06:50:49.493.11-Nov-2020 4617.01 4135.68 79.01 8.00 330.10 2426.59
   06:50:49.693.11-Nov-2020 4617.01 4135.68 79.01 8.00 330.30 2426.59
   06:50:49.893.11-Nov-2020 4617.01 4135.53 79.01 8.00 330.50 2426.59
   06:50:50.093.11-Nov-2020 4617.01 4135.67 79.01 8.00 330.70 2426.59
   06:50:50.293.11-Nov-2020 4617.01 4135.63 79.01 8.00 330.90 2426.59
   06:50:50.494.11-Nov-2020 4617.01 4135.67 79.01 8.00 331.10 2426.59
   06:50:50.694.11-Nov-2020 4617.01 4135.67 79.00 8.00 331.30 2426.59
   06:50:50.894.11-Nov-2020 4617.01 4135.48 79.00 8.00 331.50 2426.59
   06:50:51.094.11-Nov-2020 4617.01 4135.55 79.00 8.00 331.70 2426.59
   06:50:51.294.11-Nov-2020 4617.01 4135.72 79.00 8.00 331.90 2426.59
   06:50:51.494.11-Nov-2020 4617.01 4135.40 79.00 8.00 332.10 2426.59
   06:50:51.694.11-Nov-2020 4617.01 4135.40 79.00 8.00 332.30 2426.59
   06:50:51.894.11-Nov-2020 4617.01 4135.53 79.00 8.00 332.50 2426.59
   06:50:52.094.11-Nov-2020 4617.01 4135.69 79.00 8.00 332.70 2426.59
   06:50:52.294.11-Nov-2020 4617.01 4135.52 79.00 8.00 332.90 2426.59
   06:50:52.494.11-Nov-2020 4617.01 4135.69 79.00 8.00 333.10 2426.59
   06:50:52.694.11-Nov-2020 4617.01 4135.63 79.00 8.00 333.30 2426.59
   06:50:52.894.11-Nov-2020 4617.01 4135.57 79.00 8.00 333.50 2426.59
   06:50:53.094.11-Nov-2020 4617.01 4135.65 78.99 8.00 333.70 2426.59
   06:50:53.294.11-Nov-2020 4617.01 4135.65 78.99 8.00 333.90 2426.59
   06:50:53.494.11-Nov-2020 4617.01 4135.62 78.99 8.00 334.10 2426.59
   06:50:53.695.11-Nov-2020 4617.01 4135.60 78.99 8.00 334.30 2426.59
   06:50:53.895.11-Nov-2020 4617.01 4135.57 78.99 8.00 334.51 2426.59
   06:50:54.095.11-Nov-2020 4617.01 4135.61 78.99 8.00 334.71 2426.59
   06:50:54.295.11-Nov-2020 4617.01 4135.59 78.99 8.00 334.91 2426.59
   06:50:54.495.11-Nov-2020 4617.01 4135.59 78.99 8.00 335.11 2426.59
   06:50:54.695.11-Nov-2020 4617.01 4135.59 78.99 8.00 335.31 2426.59
   06:50:54.895.11-Nov-2020 4617.01 4135.56 78.99 8.00 335.51 2426.59
   06:50:55.095.11-Nov-2020 4617.01 4135.83 78.99 8.00 335.71 2426.59
   06:50:55.295.11-Nov-2020 4617.01 4135.39 78.99 8.00 335.91 2426.59
   06:50:55.495.11-Nov-2020 4617.01 4135.58 78.98 8.00 336.11 2426.59
   06:50:55.695.11-Nov-2020 4617.01 4135.57 78.98 8.00 336.31 2426.59
   06:50:55.895.11-Nov-2020 4617.01 4135.63 78.98 8.00 336.51 2426.59
   06:50:56.095.11-Nov-2020 4617.01 4135.60 78.98 8.00 336.71 2426.59
   06:50:56.295.11-Nov-2020 4617.01 4135.58 78.98 8.00 336.91 2426.59
   06:50:56.495.11-Nov-2020 4617.01 4135.63 78.98 8.00 337.11 2426.59
   06:50:56.695.11-Nov-2020 4617.01 4135.63 78.98 8.00 337.31 2426.59
   06:50:56.896.11-Nov-2020 4617.01 4135.55 78.98 8.00 337.51 2426.59
   06:50:57.096.11-Nov-2020 4617.01 4135.61 78.98 8.00 337.71 2426.59
   06:50:57.296.11-Nov-2020 4617.01 4135.58 78.98 8.00 337.91 2426.59
   06:50:57.496.11-Nov-2020 4617.01 4135.60 78.98 8.00 338.11 2426.59
   06:50:57.696.11-Nov-2020 4617.01 4135.60 78.98 8.00 338.31 2426.59
   06:50:57.896.11-Nov-2020 4617.01 4135.42 78.98 8.00 338.51 2426.59
   06:50:58.096.11-Nov-2020 4617.01 4135.67 78.97 8.00 338.71 2426.59
   06:50:58.296.11-Nov-2020 4617.01 4135.50 78.97 8.00 338.91 2426.59
   06:50:58.496.11-Nov-2020 4617.01 4135.62 78.97 8.00 339.11 2426.59
   06:50:58.696.11-Nov-2020 4617.01 4135.62 78.97 8.00 339.31 2426.59
   06:50:58.896.11-Nov-2020 4617.01 4135.48 78.97 8.00 339.51 2426.59
   06:50:59.096.11-Nov-2020 4617.01 4135.62 78.97 8.00 339.71 2426.59
   06:50:59.296.11-Nov-2020 4617.01 4135.59 78.97 8.00 339.91 2426.59
   06:50:59.496.11-Nov-2020 4617.01 4135.78 78.97 8.00 340.11 2426.59
   06:50:59.696.11-Nov-2020 4617.01 4135.47 78.97 8.00 340.31 2426.59
   06:50:59.896.11-Nov-2020 4617.01 4135.52 78.97 8.00 340.51 2426.59
   06:51:00.097.11-Nov-2020 4617.01 4135.57 78.97 8.00 340.71 2426.59
   06:51:00.297.11-Nov-2020 4617.01 4135.71 78.97 8.00 340.91 2426.59
   06:51:00.497.11-Nov-2020 4617.01 4135.64 78.96 8.00 341.11 2426.59
   06:51:00.697.11-Nov-2020 4617.01 4135.64 78.96 8.00 341.31 2426.59
   06:51:00.897.11-Nov-2020 4617.01 4135.60 78.96 8.00 341.51 2426.59
   06:51:01.097.11-Nov-2020 4617.01 4135.56 78.96 8.00 341.71 2426.59
   06:51:01.297.11-Nov-2020 4617.01 4135.63 78.96 8.00 341.91 2426.59
   06:51:01.497.11-Nov-2020 4617.01 4135.64 78.96 8.00 342.11 2426.59
   06:51:01.697.11-Nov-2020 4617.01 4135.64 78.96 8.00 342.31 2426.59
   06:51:01.897.11-Nov-2020 4617.01 4135.60 78.96 8.00 342.51 2426.59
   06:51:02.097.11-Nov-2020 4617.01 4135.58 78.96 8.00 342.71 2426.59
   06:51:02.297.11-Nov-2020 4617.01 4135.62 78.96 8.00 342.91 2426.59
   06:51:02.497.11-Nov-2020 4617.01 4135.63 78.96 8.00 343.11 2426.59
   06:51:02.697.11-Nov-2020 4617.01 4135.63 78.96 8.00 343.31 2426.59
   06:51:02.897.11-Nov-2020 4617.01 4135.57 78.95 8.00 343.51 2426.59
   06:51:03.097.11-Nov-2020 4617.01 4135.57 78.95 8.00 343.71 2426.59
   06:51:03.298.11-Nov-2020 4617.01 4135.86 78.95 8.00 343.91 2426.59
   06:51:03.498.11-Nov-2020 4617.01 4135.38 78.95 8.00 344.11 2426.59
   06:51:03.698.11-Nov-2020 4617.01 4135.54 78.95 8.00 344.31 2426.59
   06:51:03.898.11-Nov-2020 4617.01 4135.61 78.95 8.00 344.51 2426.59
   06:51:04.098.11-Nov-2020 4617.01 4135.64 78.95 8.00 344.71 2426.59
   06:51:04.298.11-Nov-2020 4617.01 4135.58 78.95 8.00 344.91 2426.59
