~Version Information
 VERS.                  2.0:   CWLS log ASCII Standard -VERSION 2.0
 WRAP.                   NO:   One line per depth step
~Well Information Block
#MNEM.UNIT     VALUE/NAME     DESCRIPTION
#---------     -----------    ---------------------------
 STRT.S             06:45:19 11-Nov-20: START TIME 06:45:19 11-Nov-20
 STOP.S             06:51:53 11-Nov-20: STOP TIME  06:51:53 11-Nov-20
 STEP.S                   0.00: STEP TIME
 NULL.                 -999.25: NULL VALUE
 DFWT.                        :  DIST FWL TEXT
 DFST.                        :  DIST FSL TEXT
 DMF .             Drill Floor:  DRILL MEAS FROM
 STIM.      04.54.24 22-Sep-20:  START TIME
 DATE.      04.54.24 21-Nov-20:  END TIME
 SPUD.               21-Nov-20:  SPUD DATE
 NREF.                    Grid:  NORTH REFERENCE
 HPTY.       Minimum Curvature:  HOLE POS TYPE
 DMOD.             Drill Model:  DRILL MOD DESC
 SVYD.                  Survey:  SURVEY DESC
 ILTD.               Lithology:  INTERP LTH DESC
 FTOP.          Formation Tops:  FORM TOPS DESC
 SON .        AZ-XX-0906571587:  JOB NUMBER
 COMP.     BP Exploration (Caspian Sea) Ltd:  COMPANY
 UWI .                     N/A:  UNIQUE WELL IDENTIFIER
 API .                     N/A:  API NUMBER
 BASE.              Azerbaijan:  LOGGING EQUIPMENT BASE LOCATION
 REGN.                   EESSA:  REGION
 PROV.                    Baku:  PROVINCE
 STAT.                    Baku:  STATE NAME
 CTRY.              Azerbaijan:  COUNTRY NAME
 FLD .                     ACG:  FIELD NAME
 SRVC.     TURAN Drilling & Engineering:  CONTRACTOR
 WELL.                     J27:  WELL NAME
 RIG .             West Chirag:  RIG NAME
 DOE .                     N/A:  DOE NUMBER
 DCON.         Sperry Drilling:  DIRECTNL CONTR
 PDAT.          Mean Sea Level:  PERMANENT DATUM
 WTYP.                Deviated:  WELL TYPE
 MWDS.                    Baku:  MWD SHOP
 JOBN.        AZ-XX-0906571587:  JOB TICKET NUMB
 UNIT.                     N/A:  LOGGING EQUIPMENT ID
 MDS .        Operator Entered:  MAG DATA SOURCE
 CNTY.                        :  COUNTY
 LOC .                        :  LOCATION
 LMF .             Drill Floor:  LOG MEASURED FROM
 TVDS.m                  43.00:  TVDSS CORRECTN
 LATI.deg                40.13:  LATITUDE
 LONG.deg                51.22:  LONGITUDE
 WHNS.m                   7.72:  WELL HEAD N/S
 WHEW.m                 -14.24:  WELL HEAD E/W
 UTMX.m              519005.06:  UTM X
 UTMY.m             4443793.85:  UTM Y
 DFWL.m                   0.00:  DISTANCE FWL
 DFSL.m                   0.00:  DISTANCE FSL
 SDEP.m                 347.00:  START DEPTH
 TDD .m                 581.00:  TOTAL DEPTH (DRILLER)
 VSDR.deg               159.72:  VERT SEC DIRECT
 GVFD.g                   1.00:  GRAVITY FIELD
 MFLD.nT              50313.00:  MAGNETIC FIELD
 MDIP.deg                59.58:  MAGNETIC DIP
 MDEC.deg                 6.45:  MAGNETIC DECL
 GRDC.deg                 0.15:  GRID CORRECTION
 AZTC.deg                 6.30:  AZM TOTAL CORR
 EPD .m                   0.00:  ELEVATION
 EGL .m                   0.00:  GROUND ELEVATION
 WDMS.m                 169.80:  WD ELEV
 APD .m                  43.00:  DEPTH ABOVE PD
 AGAP.m                  43.00:  AIR GAP
 VSEW.m                 -14.24:  VERT SEC E/W
 VSNS.m                   7.72:  VERT SEC N/S
 DEP .m                 342.45:  DEPTH
 EKB .m                   0.00:  KB ELEVATION
 EDF .m                  43.00:  DF ELEVATION
 TDL .m                1313.00:  TOTAL DEPTH (LOGGER)
 VSC .                       0:  VS TO CLOSURE
 MAGU.                 1851396:  MAGUTM CHECKSUM
~Parameter Information Block
#MNEM.UNIT       Value        Description
#---------     -----------    ---------------------------
 AV  .mps                 0.65:  Ann Velocity 
 AVMX.mps                 0.75:  Max Ann Veloc 
 AZIF.deg               115.08:  Azm, Final 
 BHAT.        Rotary Steerable:  BHA Type 
 BROT.°/30m               1.50:  Build Rotating 
 BS  .in                 12.25:  Bit Size 
 BSZ .in                 12.25:  Bit Size 
 BTPL.psig              700.00:  Bit Press Loss 
 CABU.                     Yes:  Customer Abuse 
 COMM.                     LNw:  Run Comments 1 
 TCS .hr                121.00:  Time Ciculation Ended 
 CV  .mps                 1.83:  Crit Velocity 
 CVMX.mps                 1.83:  Max Crit Veloc 
 DD1 .          Rashad Habibov:  Direct Drillr 1 
 DD2 .         Rasim Ibrahimov:  Direct Drillr 2 
 DDSV.                 iCruise:  DD Service 
 DEFF.%                 100.00:  % Det Eff 
 DLRX.°/30m               3.60:  Dogleg Rot Max 
 DLSO.°/30m               3.10:  Dogleg Oriented 
 DLSX.°/30m               3.60:  Dogleg Str Max 
 DRET.      13.41.20 12-Nov-20:  Drill End Time 
 DRST.      13.41.20 07-Nov-20:  Drill Start Tim 
 DTIM.hr                 54.16:  Time Drilling 
 EDEP.m                4762.01:  End Depth 
 ENG1.           Amrah Tahirov:  Engineer 1 
 ENG2.      Bakhtiyar Jabbarli:  Engineer 2 
 ENG3.          Ruslan Safarov:  Engineer 3 
 ETIM.      13.41.20 14-Nov-20:  End Time 
 FLOI.gpm              1200.00:  Flow In 
 FLON.gpm              1100.00:  Flow In Min 
 FLOS.cptm                0.00:  Fluid Loss 
 FLOX.gpm              1200.00:  Flow In Max 
 HFLO.                      No:  High Flow 
 HPRE.                      No:  High Pressure 
 HTEM.                      No:  High Temp 
 HYDO.m                   2.00:  Hydro Offset 
 IFIN.deg                66.14:  Inc, Final 
 IMAX.deg                69.03:  Inc Max 
 IMIN.deg                64.64:  Inc Min 
 IMND.m                4450.16:  Inc Min Depth 
 IMXD.m                3996.00:  Inc Max Depth 
 JARR.                     Yes:  Jarring 
 LETM.      13.41.20 14-Nov-20:  Log End Time 
 LOST.hr                     0:  Lost Rig Time 
 LSTM.      13.41.20 06-Nov-20:  Log Start Time 
 MDCL.ppm             42500.00:  Mud Chlorides 
 MDES.     Inversion Oil/Synthetic:  Mud Desc 
 DFD .sg                  1.45:  Mud Density 
 MDMN.sg                  1.45:  Dens Mud Min 
 MDMX.sg                  1.45:  Dens Mud Max 
 MOIL.                      70:  Run Mud Oil % 
 MOWR.                   70:30:  Run Mud OWR 
 MSND.                       0:  Run Mud Sand % 
 MSOL.                    19.3:  Run Mud Solids% 
 DFV .spqt               77.00:  Mud Viscosity 
 MWOD.in                  8.00:  MWD Tool OD 
 MWSI.                      No:  Serv Intrp, MWD 
 OTIM.hr                201.88:  Time Operating 
 PCON.           Look Like New:  Pad Condition 
 PMAX.psia             9250.94:  Press Op, Max 
 PV  .cP                 29.00:  Mud PV 
 RUN .                     800:  Run Number 
 ROPA.m/hr               28.00:  ROP Avg 
 ROPN.m/hr               25.00:  ROP Min 
 ROPX.m/hr               30.00:  ROP Max 
 RPMA.rpm               160.00:  RPM Surface Avg 
 RPMN.rpm               160.00:  RPM Surface Min 
 RPMX.rpm               160.00:  RPM Surface Max 
 RRUN.                    0800:  Rig Run Number 
 RTIM.hr                 12.00:  Time Reaming 
 SAZI.deg               169.33:  Azm, Start 
 SDEP.m                3449.01:  Start Depth 
 SIDD.                      No:  Serv Intrp, DD 
 SINC.deg                68.01:  Inc, Start 
 SPPA.psig             4900.00:  SPP Avg 
 SPPN.psig             4800.00:  SPP Min 
 SPPX.psig             5050.00:  SPP Max 
 STIM.      13.41.20 06-Nov-20:  Start Time 
 SVCS.                 DD, MWD:  Services 
 SVER.                    9.20:  Sperry Version 
 TDAT.m                4762.01:  Tot Depth Attmp 
 TDDF.                      No:  Trip for DD 
 TDLG.m                1313.00:  Tot Depth Loggd 
 TFF .                      No:  Trip for Fail 
 TQAA.f-kp               13.00:  Torque Abs Avg 
 TQAN.f-kp               13.00:  Torque Abs Min 
 TQAX.f-kp               13.00:  Torque Abs Max 
 TRRT.°/30m               1.70:  Turn Rotating 
 MRT .                  EWR-M5:  Maximum Recorded Temperature 
 TTMX.degC               86.00:  Max Tool Temp 
 VS01.                90622122:  Virtual Str1 SN 
 VS02.                90577298:  Virtual Str2 SN 
 VS03.                90563623:  Virtual Str3 SN 
 VS04.                90617559:  Virtual Str4 SN 
 VS05.                11339492:  Virtual Str5 SN 
 VS06.                12385033:  Virtual Str6 SN 
 WBMN.klb                 0.00:  WOB Min 
 WOBA.klb                22.00:  WOB Avg 
 WOBX.klb                26.00:  WOB Max 
 YP  .lhf2               30.00:  Yield Point 
~Curve Information Block
#MNEM.UNIT                 API CODE     Curve Description
#---------               -----------    ---------------------------
 TIME.HHMMSS            00 000 000 000:  GT Time & Date
 GTDEPTH.m              00 000 000 000:  GT Depth
 GTPQH.psia             00 000 000 000:  GT HR Quartz Pressure
 GTTQ.degC              00 000 000 000:  GT Quartz Temperature
 GTTN.NONE              00 000 000 000:  GT Test Number
 GTET.sec               00 000 000 000:  GT Elapsed Test Time
 GTTVD.m                00 000 000 000:  GT True Vertical Depth
#Other Information
#
#WARRANTY: Halliburton will use its best efforts to furnish customers with 
#accurate information and interpretations that are part of, and incident to, the services 
#provided.  However, Halliburton cannot and does not warrant the accuracy 
#or correctness of such information and interpretations.  Under no circumstances should any 
#such information or interpretation be relied upon as the sole basis for any drilling, 
#completion, production, or financial decision or any procedure involving any risk to the 
#safety of any drilling venture, drilling rig or its crew or any other third party.  The 
#Customer has full responsibility for all drilling, completion and production operation.  
#Halliburton makes no representations or warranties, either expressed or 
#implied, including, but not limited to, the implied warranties of merchantability or fitness 
#for a particular purpose, with respect to the services rendered.  In no event will 
#Halliburton be liable for failure to obtain any particular results or for 
#any damages, including, but not limited to, indirect, special or consequential damages, 
#resulting from the use of any information or interpretation provided by Halliburton.
#
~A           TIME           GTDEPTH  GTPQH  GTTQ  GTTN  GTET   GTTVD  
# ...
   06:47:37.433.11-Nov-2020 4617.01 4138.69 79.76 8.00 138.04 2426.59
   06:47:37.633.11-Nov-2020 4617.01 4138.69 79.76 8.00 138.24 2426.59
   06:47:37.833.11-Nov-2020 4617.01 4138.56 79.75 8.00 138.44 2426.59
   06:47:38.033.11-Nov-2020 4617.01 4138.30 79.75 8.00 138.64 2426.59
   06:47:38.233.11-Nov-2020 4617.01 4138.56 79.75 8.00 138.84 2426.59
   06:47:38.433.11-Nov-2020 4617.01 4138.60 79.75 8.00 139.04 2426.59
   06:47:38.633.11-Nov-2020 4617.01 4138.60 79.75 8.00 139.24 2426.59
   06:47:38.833.11-Nov-2020 4617.01 4138.45 79.75 8.00 139.44 2426.59
   06:47:39.033.11-Nov-2020 4617.01 4138.57 79.75 8.00 139.64 2426.59
   06:47:39.233.11-Nov-2020 4617.01 4138.38 79.75 8.00 139.84 2426.59
   06:47:39.434.11-Nov-2020 4617.01 4138.42 79.75 8.00 140.04 2426.59
   06:47:39.634.11-Nov-2020 4617.01 4138.45 79.75 8.00 140.24 2426.59
   06:47:39.834.11-Nov-2020 4617.01 4138.52 79.75 8.00 140.44 2426.59
   06:47:40.034.11-Nov-2020 4617.01 4138.48 79.75 8.00 140.64 2426.59
   06:47:40.234.11-Nov-2020 4617.01 4138.18 79.75 8.00 140.84 2426.59
   06:47:40.434.11-Nov-2020 4617.01 4138.28 79.75 8.00 141.04 2426.59
   06:47:40.634.11-Nov-2020 4617.01 4138.15 79.74 8.00 141.24 2426.59
   06:47:40.834.11-Nov-2020 4617.01 4137.80 79.74 8.00 141.44 2426.59
   06:47:41.034.11-Nov-2020 4617.01 4137.91 79.74 8.00 141.64 2426.59
   06:47:41.234.11-Nov-2020 4617.01 4137.84 79.74 8.00 141.84 2426.59
   06:47:41.434.11-Nov-2020 4617.01 4138.22 79.74 8.00 142.04 2426.59
   06:47:41.634.11-Nov-2020 4617.01 4138.22 79.74 8.00 142.24 2426.59
   06:47:41.834.11-Nov-2020 4617.01 4137.96 79.74 8.00 142.44 2426.59
   06:47:42.034.11-Nov-2020 4617.01 4137.43 79.74 8.00 142.64 2426.59
   06:47:42.234.11-Nov-2020 4617.01 4137.41 79.74 8.00 142.84 2426.59
   06:47:42.434.11-Nov-2020 4617.01 4137.44 79.74 8.00 143.04 2426.59
   06:47:42.635.11-Nov-2020 4617.01 4137.44 79.74 8.00 143.24 2426.59
   06:47:42.835.11-Nov-2020 4617.01 4137.11 79.74 8.00 143.45 2426.59
   06:47:43.035.11-Nov-2020 4617.01 4137.13 79.74 8.00 143.65 2426.59
   06:47:43.235.11-Nov-2020 4617.01 4137.43 79.73 8.00 143.85 2426.59
   06:47:43.435.11-Nov-2020 4617.01 4137.34 79.73 8.00 144.05 2426.59
   06:47:43.635.11-Nov-2020 4617.01 4137.25 79.73 8.00 144.25 2426.59
   06:47:43.835.11-Nov-2020 4617.01 4137.32 79.73 8.00 144.45 2426.59
   06:47:44.035.11-Nov-2020 4617.01 4137.30 79.73 8.00 144.65 2426.59
   06:47:44.235.11-Nov-2020 4617.01 4137.23 79.73 8.00 144.85 2426.59
   06:47:44.435.11-Nov-2020 4617.01 4137.44 79.73 8.00 145.05 2426.59
   06:47:44.635.11-Nov-2020 4617.01 4137.52 79.73 8.00 145.25 2426.59
   06:47:44.835.11-Nov-2020 4617.01 4137.40 79.73 8.00 145.45 2426.59
   06:47:45.035.11-Nov-2020 4617.01 4137.47 79.73 8.00 145.65 2426.59
   06:47:45.235.11-Nov-2020 4617.01 4137.32 79.73 8.00 145.85 2426.59
   06:47:45.435.11-Nov-2020 4617.01 4137.86 79.73 8.00 146.05 2426.59
   06:47:45.635.11-Nov-2020 4617.01 4137.76 79.73 8.00 146.25 2426.59
   06:47:45.836.11-Nov-2020 4617.01 4137.62 79.72 8.00 146.45 2426.59
   06:47:46.036.11-Nov-2020 4617.01 4137.87 79.72 8.00 146.65 2426.59
   06:47:46.236.11-Nov-2020 4617.01 4137.73 79.72 8.00 146.85 2426.59
   06:47:46.436.11-Nov-2020 4617.01 4137.61 79.72 8.00 147.05 2426.59
   06:47:46.636.11-Nov-2020 4617.01 4137.61 79.72 8.00 147.25 2426.59
   06:47:46.836.11-Nov-2020 4617.01 4137.72 79.72 8.00 147.45 2426.59
   06:47:47.036.11-Nov-2020 4617.01 4137.72 79.72 8.00 147.65 2426.59
   06:47:47.236.11-Nov-2020 4617.01 4137.53 79.72 8.00 147.85 2426.59
   06:47:47.436.11-Nov-2020 4617.01 4137.65 79.72 8.00 148.05 2426.59
   06:47:47.636.11-Nov-2020 4617.01 4137.67 79.72 8.00 148.25 2426.59
   06:47:47.836.11-Nov-2020 4617.01 4137.32 79.72 8.00 148.45 2426.59
   06:47:48.036.11-Nov-2020 4617.01 4137.76 79.72 8.00 148.65 2426.59
   06:47:48.236.11-Nov-2020 4617.01 4137.64 79.72 8.00 148.85 2426.59
   06:47:48.436.11-Nov-2020 4617.01 4137.74 79.71 8.00 149.05 2426.59
   06:47:48.636.11-Nov-2020 4617.01 4137.18 79.71 8.00 149.25 2426.59
   06:47:48.836.11-Nov-2020 4617.01 4137.32 79.71 8.00 149.45 2426.59
   06:47:49.037.11-Nov-2020 4617.01 4137.35 79.71 8.00 149.65 2426.59
   06:47:49.237.11-Nov-2020 4617.01 4137.81 79.71 8.00 149.85 2426.59
   06:47:49.437.11-Nov-2020 4617.01 4137.31 79.71 8.00 150.05 2426.59
   06:47:49.637.11-Nov-2020 4617.01 4137.31 79.71 8.00 150.25 2426.59
   06:47:49.837.11-Nov-2020 4617.01 4137.05 79.71 8.00 150.45 2426.59
   06:47:50.037.11-Nov-2020 4617.01 4137.29 79.71 8.00 150.65 2426.59
   06:47:50.237.11-Nov-2020 4617.01 4137.30 79.71 8.00 150.85 2426.59
   06:47:50.437.11-Nov-2020 4617.01 4137.51 79.71 8.00 151.05 2426.59
   06:47:50.637.11-Nov-2020 4617.01 4137.51 79.71 8.00 151.25 2426.59
   06:47:50.837.11-Nov-2020 4617.01 4137.09 79.71 8.00 151.45 2426.59
   06:47:51.037.11-Nov-2020 4617.01 4137.14 79.71 8.00 151.65 2426.59
   06:47:51.237.11-Nov-2020 4617.01 4137.21 79.70 8.00 151.85 2426.59
   06:47:51.437.11-Nov-2020 4617.01 4137.28 79.70 8.00 152.05 2426.59
   06:47:51.637.11-Nov-2020 4617.01 4137.28 79.70 8.00 152.25 2426.59
   06:47:51.837.11-Nov-2020 4617.01 4089.22 79.70 8.00 152.45 2426.59
   06:47:52.038.11-Nov-2020 4617.01 4093.26 79.70 8.00 152.65 2426.59
   06:47:52.238.11-Nov-2020 4617.01 4094.11 79.70 8.00 152.85 2426.59
   06:47:52.438.11-Nov-2020 4617.01 4094.56 79.70 8.00 153.05 2426.59
   06:47:52.638.11-Nov-2020 4617.01 4094.56 79.70 8.00 153.25 2426.59
   06:47:52.838.11-Nov-2020 4617.01 4095.45 79.70 8.00 153.45 2426.59
   06:47:53.038.11-Nov-2020 4617.01 4096.79 79.70 8.00 153.65 2426.59
   06:47:53.238.11-Nov-2020 4617.01 4096.21 79.70 8.00 153.85 2426.59
   06:47:53.438.11-Nov-2020 4617.01 4097.92 79.70 8.00 154.05 2426.59
   06:47:53.638.11-Nov-2020 4617.01 4097.92 79.70 8.00 154.25 2426.59
   06:47:53.838.11-Nov-2020 4617.01 4098.88 79.69 8.00 154.45 2426.59
   06:47:54.038.11-Nov-2020 4617.01 4099.01 79.69 8.00 154.65 2426.59
   06:47:54.238.11-Nov-2020 4617.01 4098.98 79.69 8.00 154.85 2426.59
   06:47:54.438.11-Nov-2020 4617.01 4099.63 79.69 8.00 155.05 2426.59
   06:47:54.638.11-Nov-2020 4617.01 4099.63 79.69 8.00 155.25 2426.59
   06:47:54.838.11-Nov-2020 4617.01 4099.75 79.69 8.00 155.45 2426.59
   06:47:55.038.11-Nov-2020 4617.01 4099.97 79.69 8.00 155.65 2426.59
   06:47:55.239.11-Nov-2020 4617.01 4100.08 79.69 8.00 155.85 2426.59
   06:47:55.439.11-Nov-2020 4617.01 4100.02 79.69 8.00 156.05 2426.59
   06:47:55.639.11-Nov-2020 4617.01 4101.03 79.69 8.00 156.25 2426.59
   06:47:55.839.11-Nov-2020 4617.01 4100.05 79.69 8.00 156.45 2426.59
   06:47:56.039.11-Nov-2020 4617.01 4101.15 79.69 8.00 156.65 2426.59
   06:47:56.239.11-Nov-2020 4617.01 4100.96 79.68 8.00 156.85 2426.59
   06:47:56.439.11-Nov-2020 4617.01 4101.02 79.68 8.00 157.05 2426.59
   06:47:56.639.11-Nov-2020 4617.01 4101.02 79.68 8.00 157.25 2426.59
   06:47:56.839.11-Nov-2020 4617.01 4101.84 79.68 8.00 157.45 2426.59
   06:47:57.039.11-Nov-2020 4617.01 4101.42 79.68 8.00 157.65 2426.59
   06:47:57.239.11-Nov-2020 4617.01 4102.66 79.68 8.00 157.85 2426.59
   06:47:57.439.11-Nov-2020 4617.01 4102.34 79.68 8.00 158.05 2426.59
   06:47:57.639.11-Nov-2020 4617.01 4102.34 79.68 8.00 158.25 2426.59
   06:47:57.839.11-Nov-2020 4617.01 4102.04 79.68 8.00 158.45 2426.59
   06:47:58.039.11-Nov-2020 4617.01 4102.31 79.68 8.00 158.65 2426.59
   06:47:58.239.11-Nov-2020 4617.01 4103.07 79.68 8.00 158.85 2426.59
   06:47:58.440.11-Nov-2020 4617.01 4102.04 79.68 8.00 159.05 2426.59
   06:47:58.640.11-Nov-2020 4617.01 4102.04 79.68 8.00 159.25 2426.59
   06:47:58.840.11-Nov-2020 4617.01 4102.78 79.68 8.00 159.45 2426.59
   06:47:59.040.11-Nov-2020 4617.01 4102.71 79.67 8.00 159.65 2426.59
   06:47:59.240.11-Nov-2020 4617.01 4102.69 79.67 8.00 159.85 2426.59
   06:47:59.440.11-Nov-2020 4617.01 4102.80 79.67 8.00 160.05 2426.59
   06:47:59.640.11-Nov-2020 4617.01 4103.04 79.67 8.00 160.25 2426.59
   06:47:59.840.11-Nov-2020 4617.01 4102.84 79.67 8.00 160.45 2426.59
   06:48:00.040.11-Nov-2020 4617.01 4102.81 79.67 8.00 160.65 2426.59
   06:48:00.240.11-Nov-2020 4617.01 4103.04 79.67 8.00 160.85 2426.59
