~Version Information
 VERS.                  2.0:   CWLS log ASCII Standard -VERSION 2.0
 WRAP.                   NO:   One line per depth step
~Well Information Block
#MNEM.UNIT     VALUE/NAME     DESCRIPTION
#---------     -----------    ---------------------------
 STRT.S             21:54:12 08-Nov-20: START TIME 21:54:12 08-Nov-20
 STOP.S             22:00:43 08-Nov-20: STOP TIME  22:00:43 08-Nov-20
 STEP.S                   0.00: STEP TIME
 NULL.                 -999.25: NULL VALUE
 DFWT.                        :  DIST FWL TEXT
 DFST.                        :  DIST FSL TEXT
 DMF .             Drill Floor:  DRILL MEAS FROM
 STIM.      04.54.24 22-Sep-20:  START TIME
 DATE.      04.54.24 21-Nov-20:  END TIME
 SPUD.               21-Nov-20:  SPUD DATE
 NREF.                    Grid:  NORTH REFERENCE
 HPTY.       Minimum Curvature:  HOLE POS TYPE
 DMOD.             Drill Model:  DRILL MOD DESC
 SVYD.                  Survey:  SURVEY DESC
 ILTD.               Lithology:  INTERP LTH DESC
 FTOP.          Formation Tops:  FORM TOPS DESC
 SON .        AZ-XX-0906571587:  JOB NUMBER
 COMP.     BP Exploration (Caspian Sea) Ltd:  COMPANY
 UWI .                     N/A:  UNIQUE WELL IDENTIFIER
 API .                     N/A:  API NUMBER
 BASE.              Azerbaijan:  LOGGING EQUIPMENT BASE LOCATION
 REGN.                   EESSA:  REGION
 PROV.                    Baku:  PROVINCE
 STAT.                    Baku:  STATE NAME
 CTRY.              Azerbaijan:  COUNTRY NAME
 FLD .                     ACG:  FIELD NAME
 SRVC.     TURAN Drilling & Engineering:  CONTRACTOR
 WELL.                     J27:  WELL NAME
 RIG .             West Chirag:  RIG NAME
 DOE .                     N/A:  DOE NUMBER
 DCON.         Sperry Drilling:  DIRECTNL CONTR
 PDAT.          Mean Sea Level:  PERMANENT DATUM
 WTYP.                Deviated:  WELL TYPE
 MWDS.                    Baku:  MWD SHOP
 JOBN.        AZ-XX-0906571587:  JOB TICKET NUMB
 UNIT.                     N/A:  LOGGING EQUIPMENT ID
 MDS .        Operator Entered:  MAG DATA SOURCE
 CNTY.                        :  COUNTY
 LOC .                        :  LOCATION
 LMF .             Drill Floor:  LOG MEASURED FROM
 TVDS.m                  43.00:  TVDSS CORRECTN
 LATI.deg                40.13:  LATITUDE
 LONG.deg                51.22:  LONGITUDE
 WHNS.m                   7.72:  WELL HEAD N/S
 WHEW.m                 -14.24:  WELL HEAD E/W
 UTMX.m              519005.06:  UTM X
 UTMY.m             4443793.85:  UTM Y
 DFWL.m                   0.00:  DISTANCE FWL
 DFSL.m                   0.00:  DISTANCE FSL
 SDEP.m                 347.00:  START DEPTH
 TDD .m                 581.00:  TOTAL DEPTH (DRILLER)
 VSDR.deg               159.72:  VERT SEC DIRECT
 GVFD.g                   1.00:  GRAVITY FIELD
 MFLD.nT              50313.00:  MAGNETIC FIELD
 MDIP.deg                59.58:  MAGNETIC DIP
 MDEC.deg                 6.45:  MAGNETIC DECL
 GRDC.deg                 0.15:  GRID CORRECTION
 AZTC.deg                 6.30:  AZM TOTAL CORR
 EPD .m                   0.00:  ELEVATION
 EGL .m                   0.00:  GROUND ELEVATION
 WDMS.m                 169.80:  WD ELEV
 APD .m                  43.00:  DEPTH ABOVE PD
 AGAP.m                  43.00:  AIR GAP
 VSEW.m                 -14.24:  VERT SEC E/W
 VSNS.m                   7.72:  VERT SEC N/S
 DEP .m                 342.45:  DEPTH
 EKB .m                   0.00:  KB ELEVATION
 EDF .m                  43.00:  DF ELEVATION
 TDL .m                1313.00:  TOTAL DEPTH (LOGGER)
 VSC .                       0:  VS TO CLOSURE
 MAGU.                 1851396:  MAGUTM CHECKSUM
~Parameter Information Block
#MNEM.UNIT       Value        Description
#---------     -----------    ---------------------------
 AV  .mps                 0.65:  Ann Velocity 
 AVMX.mps                 0.75:  Max Ann Veloc 
 AZIF.deg               115.08:  Azm, Final 
 BHAT.        Rotary Steerable:  BHA Type 
 BROT.∞/30m               1.50:  Build Rotating 
 BS  .in                 12.25:  Bit Size 
 BSZ .in                 12.25:  Bit Size 
 BTPL.psig              700.00:  Bit Press Loss 
 CABU.                     Yes:  Customer Abuse 
 COMM.                     „J:  Run Comments 1 
 TCS .hr                121.00:  Time Ciculation Ended 
 CV  .mps                 1.83:  Crit Velocity 
 CVMX.mps                 1.83:  Max Crit Veloc 
 DD1 .          Rashad Habibov:  Direct Drillr 1 
 DD2 .         Rasim Ibrahimov:  Direct Drillr 2 
 DDSV.                 iCruise:  DD Service 
 DEFF.%                 100.00:  % Det Eff 
 DLRX.∞/30m               3.60:  Dogleg Rot Max 
 DLSO.∞/30m               3.10:  Dogleg Oriented 
 DLSX.∞/30m               3.60:  Dogleg Str Max 
 DRET.      13.41.20 12-Nov-20:  Drill End Time 
 DRST.      13.41.20 07-Nov-20:  Drill Start Tim 
 DTIM.hr                 54.16:  Time Drilling 
 EDEP.m                4762.01:  End Depth 
 ENG1.           Amrah Tahirov:  Engineer 1 
 ENG2.      Bakhtiyar Jabbarli:  Engineer 2 
 ENG3.          Ruslan Safarov:  Engineer 3 
 ETIM.      13.41.20 14-Nov-20:  End Time 
 FLOI.gpm              1200.00:  Flow In 
 FLON.gpm              1100.00:  Flow In Min 
 FLOS.cptm                0.00:  Fluid Loss 
 FLOX.gpm              1200.00:  Flow In Max 
 HFLO.                      No:  High Flow 
 HPRE.                      No:  High Pressure 
 HTEM.                      No:  High Temp 
 HYDO.m                   2.00:  Hydro Offset 
 IFIN.deg                66.14:  Inc, Final 
 IMAX.deg                69.03:  Inc Max 
 IMIN.deg                64.64:  Inc Min 
 IMND.m                4450.16:  Inc Min Depth 
 IMXD.m                3996.00:  Inc Max Depth 
 JARR.                     Yes:  Jarring 
 LETM.      13.41.20 14-Nov-20:  Log End Time 
 LOST.hr                     0:  Lost Rig Time 
 LSTM.      13.41.20 06-Nov-20:  Log Start Time 
 MDCL.ppm             42500.00:  Mud Chlorides 
 MDES.     Inversion Oil/Synthetic:  Mud Desc 
 DFD .sg                  1.45:  Mud Density 
 MDMN.sg                  1.45:  Dens Mud Min 
 MDMX.sg                  1.45:  Dens Mud Max 
 MOIL.                      70:  Run Mud Oil % 
 MOWR.                   70:30:  Run Mud OWR 
 MSND.                       0:  Run Mud Sand % 
 MSOL.                    19.3:  Run Mud Solids% 
 DFV .spqt               77.00:  Mud Viscosity 
 MWOD.in                  8.00:  MWD Tool OD 
 MWSI.                      No:  Serv Intrp, MWD 
 OTIM.hr                201.88:  Time Operating 
 PCON.           Look Like New:  Pad Condition 
 PMAX.psia             9250.94:  Press Op, Max 
 PV  .cP                 29.00:  Mud PV 
 RUN .                     800:  Run Number 
 ROPA.m/hr               28.00:  ROP Avg 
 ROPN.m/hr               25.00:  ROP Min 
 ROPX.m/hr               30.00:  ROP Max 
 RPMA.rpm               160.00:  RPM Surface Avg 
 RPMN.rpm               160.00:  RPM Surface Min 
 RPMX.rpm               160.00:  RPM Surface Max 
 RRUN.                    0800:  Rig Run Number 
 RTIM.hr                 12.00:  Time Reaming 
 SAZI.deg               169.33:  Azm, Start 
 SDEP.m                3449.01:  Start Depth 
 SIDD.                      No:  Serv Intrp, DD 
 SINC.deg                68.01:  Inc, Start 
 SPPA.psig             4900.00:  SPP Avg 
 SPPN.psig             4800.00:  SPP Min 
 SPPX.psig             5050.00:  SPP Max 
 STIM.      13.41.20 06-Nov-20:  Start Time 
 SVCS.                 DD, MWD:  Services 
 SVER.                    9.20:  Sperry Version 
 TDAT.m                4762.01:  Tot Depth Attmp 
 TDDF.                      No:  Trip for DD 
 TDLG.m                1313.00:  Tot Depth Loggd 
 TFF .                      No:  Trip for Fail 
 TQAA.f-kp               13.00:  Torque Abs Avg 
 TQAN.f-kp               13.00:  Torque Abs Min 
 TQAX.f-kp               13.00:  Torque Abs Max 
 TRRT.∞/30m               1.70:  Turn Rotating 
 MRT .                  EWR-M5:  Maximum Recorded Temperature 
 TTMX.degC               86.00:  Max Tool Temp 
 VS01.                90622122:  Virtual Str1 SN 
 VS02.                90577298:  Virtual Str2 SN 
 VS03.                90563623:  Virtual Str3 SN 
 VS04.                90617559:  Virtual Str4 SN 
 VS05.                11339492:  Virtual Str5 SN 
 VS06.                12385033:  Virtual Str6 SN 
 WBMN.klb                 0.00:  WOB Min 
 WOBA.klb                22.00:  WOB Avg 
 WOBX.klb                26.00:  WOB Max 
 YP  .lhf2               30.00:  Yield Point 
~Curve Information Block
#MNEM.UNIT                 API CODE     Curve Description
#---------               -----------    ---------------------------
 TIME.HHMMSS            00 000 000 000:  GT Time & Date
 GTDEPTH.m              00 000 000 000:  GT Depth
 GTPQH.psia             00 000 000 000:  GT HR Quartz Pressure
 GTTQ.degC              00 000 000 000:  GT Quartz Temperature
 GTTN.NONE              00 000 000 000:  GT Test Number
 GTET.sec               00 000 000 000:  GT Elapsed Test Time
 GTTVD.m                00 000 000 000:  GT True Vertical Depth
#Other Information
#
#WARRANTY: Halliburton will use its best efforts to furnish customers with 
#accurate information and interpretations that are part of, and incident to, the services 
#provided.  However, Halliburton cannot and does not warrant the accuracy 
#or correctness of such information and interpretations.  Under no circumstances should any 
#such information or interpretation be relied upon as the sole basis for any drilling, 
#completion, production, or financial decision or any procedure involving any risk to the 
#safety of any drilling venture, drilling rig or its crew or any other third party.  The 
#Customer has full responsibility for all drilling, completion and production operation.  
#Halliburton makes no representations or warranties, either expressed or 
#implied, including, but not limited to, the implied warranties of merchantability or fitness 
#for a particular purpose, with respect to the services rendered.  In no event will 
#Halliburton be liable for failure to obtain any particular results or for 
#any damages, including, but not limited to, indirect, special or consequential damages, 
#resulting from the use of any information or interpretation provided by Halliburton.
#
~A           TIME           GTDEPTH  GTPQH  GTTQ  GTTN  GTET   GTTVD  
   21:54:12.653.08-Nov-2020 3686.01 4397.47 72.75 4.00   0.00 2071.13
   21:54:12.853.08-Nov-2020 3686.01 4397.47 72.75 4.00   0.20 2071.13
   21:54:13.053.08-Nov-2020 3686.01 4402.79 72.75 4.00   0.40 2071.13
   21:54:13.253.08-Nov-2020 3686.01 4408.47 72.75 4.00   0.60 2071.13
   21:54:13.453.08-Nov-2020 3686.01 4407.69 72.75 4.00   0.80 2071.13
   21:54:13.653.08-Nov-2020 3686.01 4410.09 72.75 4.00   1.00 2071.13
   21:54:13.853.08-Nov-2020 3686.01 4413.47 72.75 4.00   1.20 2071.13
   21:54:14.053.08-Nov-2020 3686.01 4415.60 72.75 4.00   1.40 2071.13
   21:54:14.253.08-Nov-2020 3686.01 4413.86 72.75 4.00   1.60 2071.13
   21:54:14.453.08-Nov-2020 3686.01 4412.30 72.75 4.00   1.80 2071.13
   21:54:14.653.08-Nov-2020 3686.01 4413.15 72.75 4.00   2.00 2071.13
   21:54:14.854.08-Nov-2020 3686.01 4412.21 72.74 4.00   2.20 2071.13
   21:54:15.054.08-Nov-2020 3686.01 4410.89 72.74 4.00   2.40 2071.13
   21:54:15.254.08-Nov-2020 3686.01 4411.75 72.74 4.00   2.60 2071.13
   21:54:15.454.08-Nov-2020 3686.01 4411.91 72.74 4.00   2.80 2071.13
   21:54:15.654.08-Nov-2020 3686.01 4411.99 72.74 4.00   3.00 2071.13
   21:54:15.854.08-Nov-2020 3686.01 4412.76 72.74 4.00   3.20 2071.13
   21:54:16.054.08-Nov-2020 3686.01 4412.45 72.74 4.00   3.40 2071.13
   21:54:16.254.08-Nov-2020 3686.01 4411.96 72.74 4.00   3.60 2071.13
   21:54:16.454.08-Nov-2020 3686.01 4412.04 72.74 4.00   3.80 2071.13
   21:54:16.654.08-Nov-2020 3686.01 4412.83 72.74 4.00   4.00 2071.13
   21:54:16.854.08-Nov-2020 3686.01 4417.80 72.73 4.00   4.20 2071.13
   21:54:17.054.08-Nov-2020 3686.01 4410.86 72.73 4.00   4.40 2071.13
   21:54:17.254.08-Nov-2020 3686.01 4411.60 72.73 4.00   4.60 2071.13
   21:54:17.454.08-Nov-2020 3686.01 4414.09 72.73 4.00   4.80 2071.13
   21:54:17.654.08-Nov-2020 3686.01 4412.05 72.73 4.00   5.00 2071.13
   21:54:17.854.08-Nov-2020 3686.01 4412.05 72.73 4.00   5.20 2071.13
   21:54:18.054.08-Nov-2020 3686.01 4411.92 72.73 4.00   5.40 2071.13
   21:54:18.254.08-Nov-2020 3686.01 4412.16 72.73 4.00   5.60 2071.13
   21:54:18.454.08-Nov-2020 3686.01 4412.33 72.73 4.00   5.80 2071.13
   21:54:18.654.08-Nov-2020 3686.01 4411.98 72.73 4.00   6.00 2071.13
   21:54:18.854.08-Nov-2020 3686.01 4411.98 72.73 4.00   6.20 2071.13
   21:54:19.054.08-Nov-2020 3686.01 4410.68 72.72 4.00   6.40 2071.13
   21:54:19.254.08-Nov-2020 3686.01 4413.56 72.72 4.00   6.60 2071.13
   21:54:19.455.08-Nov-2020 3686.01 4414.03 72.72 4.00   6.80 2071.13
   21:54:19.655.08-Nov-2020 3686.01 4409.92 72.72 4.00   7.00 2071.13
   21:54:19.855.08-Nov-2020 3686.01 4409.92 72.72 4.00   7.20 2071.13
   21:54:20.055.08-Nov-2020 3686.01 4411.30 72.72 4.00   7.40 2071.13
   21:54:20.255.08-Nov-2020 3686.01 4415.33 72.72 4.00   7.60 2071.13
   21:54:20.455.08-Nov-2020 3686.01 4410.11 72.72 4.00   7.80 2071.13
   21:54:20.655.08-Nov-2020 3686.01 4408.41 72.72 4.00   8.00 2071.13
   21:54:20.855.08-Nov-2020 3686.01 4408.45 72.72 4.00   8.20 2071.13
   21:54:21.055.08-Nov-2020 3686.01 4407.81 72.72 4.00   8.40 2071.13
   21:54:21.255.08-Nov-2020 3686.01 4407.22 72.71 4.00   8.60 2071.13
   21:54:21.455.08-Nov-2020 3686.01 4401.81 72.71 4.00   8.80 2071.13
   21:54:21.655.08-Nov-2020 3686.01 4401.97 72.71 4.00   9.00 2071.13
   21:54:21.855.08-Nov-2020 3686.01 4401.97 72.71 4.00   9.20 2071.13
   21:54:22.055.08-Nov-2020 3686.01 4405.14 72.71 4.00   9.40 2071.13
   21:54:22.255.08-Nov-2020 3686.01 4398.90 72.71 4.00   9.60 2071.13
   21:54:22.455.08-Nov-2020 3686.01 4402.23 72.71 4.00   9.80 2071.13
   21:54:22.655.08-Nov-2020 3686.01 4402.44 72.71 4.00  10.00 2071.13
   21:54:22.855.08-Nov-2020 3686.01 4402.44 72.71 4.00  10.20 2071.13
   21:54:23.055.08-Nov-2020 3686.01 4400.03 72.71 4.00  10.40 2071.13
   21:54:23.255.08-Nov-2020 3686.01 4399.62 72.70 4.00  10.60 2071.13
   21:54:23.455.08-Nov-2020 3686.01 4400.14 72.70 4.00  10.80 2071.13
   21:54:23.655.08-Nov-2020 3686.01 4401.45 72.70 4.00  11.00 2071.13
   21:54:23.855.08-Nov-2020 3686.01 4401.45 72.70 4.00  11.20 2071.13
   21:54:24.056.08-Nov-2020 3686.01 4399.23 72.70 4.00  11.40 2071.13
   21:54:24.256.08-Nov-2020 3686.01 4399.18 72.70 4.00  11.60 2071.13
   21:54:24.456.08-Nov-2020 3686.01 4397.83 72.70 4.00  11.80 2071.13
   21:54:24.656.08-Nov-2020 3686.01 4396.56 72.70 4.00  12.00 2071.13
   21:54:24.856.08-Nov-2020 3686.01 4397.63 72.70 4.00  12.20 2071.13
   21:54:25.056.08-Nov-2020 3686.01 4397.63 72.70 4.00  12.40 2071.13
   21:54:25.256.08-Nov-2020 3686.01 4397.60 72.70 4.00  12.60 2071.13
   21:54:25.456.08-Nov-2020 3686.01 4397.85 72.69 4.00  12.80 2071.13
   21:54:25.656.08-Nov-2020 3686.01 4397.76 72.69 4.00  13.00 2071.13
   21:54:25.856.08-Nov-2020 3686.01 4397.76 72.69 4.00  13.20 2071.13
   21:54:26.056.08-Nov-2020 3686.01 4397.98 72.69 4.00  13.40 2071.13
   21:54:26.256.08-Nov-2020 3686.01 4398.00 72.69 4.00  13.60 2071.13
   21:54:26.456.08-Nov-2020 3686.01 4403.10 72.69 4.00  13.80 2071.13
   21:54:26.656.08-Nov-2020 3686.01 4397.77 72.69 4.00  14.00 2071.13
   21:54:26.856.08-Nov-2020 3686.01 4397.77 72.69 4.00  14.20 2071.13
   21:54:27.056.08-Nov-2020 3686.01 4397.15 72.69 4.00  14.40 2071.13
   21:54:27.256.08-Nov-2020 3686.01 4398.35 72.69 4.00  14.60 2071.13
   21:54:27.456.08-Nov-2020 3686.01 4397.34 72.68 4.00  14.80 2071.13
   21:54:27.656.08-Nov-2020 3686.01 4397.41 72.68 4.00  15.00 2071.13
   21:54:27.856.08-Nov-2020 3686.01 4397.41 72.68 4.00  15.20 2071.13
   21:54:28.056.08-Nov-2020 3686.01 4397.41 72.68 4.00  15.40 2071.13
   21:54:28.256.08-Nov-2020 3686.01 4397.98 72.68 4.00  15.60 2071.13
   21:54:28.457.08-Nov-2020 3686.01 4398.17 72.68 4.00  15.80 2071.13
   21:54:28.657.08-Nov-2020 3686.01 4397.94 72.68 4.00  16.00 2071.13
   21:54:28.857.08-Nov-2020 3686.01 4397.94 72.68 4.00  16.20 2071.13
   21:54:29.057.08-Nov-2020 3686.01 4402.91 72.68 4.00  16.40 2071.13
   21:54:29.257.08-Nov-2020 3686.01 4402.33 72.68 4.00  16.60 2071.13
   21:54:29.457.08-Nov-2020 3686.01 4400.61 72.68 4.00  16.80 2071.13
   21:54:29.657.08-Nov-2020 3686.01 4406.91 72.67 4.00  17.00 2071.13
   21:54:29.857.08-Nov-2020 3686.01 4406.91 72.67 4.00  17.20 2071.13
   21:54:30.057.08-Nov-2020 3686.01 4401.90 72.67 4.00  17.40 2071.13
   21:54:30.257.08-Nov-2020 3686.01 4402.24 72.67 4.00  17.60 2071.13
   21:54:30.457.08-Nov-2020 3686.01 4408.61 72.67 4.00  17.80 2071.13
   21:54:30.657.08-Nov-2020 3686.01 4402.84 72.67 4.00  18.00 2071.13
   21:54:30.857.08-Nov-2020 3686.01 4404.72 72.67 4.00  18.20 2071.13
   21:54:31.057.08-Nov-2020 3686.01 4409.35 72.67 4.00  18.40 2071.13
   21:54:31.257.08-Nov-2020 3686.01 4403.08 72.67 4.00  18.60 2071.13
   21:54:31.457.08-Nov-2020 3686.01 4402.86 72.67 4.00  18.80 2071.13
   21:54:31.657.08-Nov-2020 3686.01 4405.96 72.66 4.00  19.00 2071.13
   21:54:31.857.08-Nov-2020 3686.01 4405.96 72.66 4.00  19.20 2071.13
   21:54:32.057.08-Nov-2020 3686.01 4407.98 72.66 4.00  19.40 2071.13
   21:54:32.257.08-Nov-2020 3686.01 4404.84 72.66 4.00  19.60 2071.13
   21:54:32.457.08-Nov-2020 3686.01 4407.25 72.66 4.00  19.80 2071.13
   21:54:32.657.08-Nov-2020 3686.01 4406.57 72.66 4.00  20.00 2071.13
   21:54:32.857.08-Nov-2020 3686.01 4406.57 72.66 4.00  20.20 2071.13
   21:54:33.058.08-Nov-2020 3686.01 4406.07 72.66 4.00  20.40 2071.13
   21:54:33.258.08-Nov-2020 3686.01 4406.51 72.66 4.00  20.60 2071.13
   21:54:33.458.08-Nov-2020 3686.01 4407.09 72.66 4.00  20.80 2071.13
   21:54:33.658.08-Nov-2020 3686.01 4406.26 72.66 4.00  21.00 2071.13
   21:54:33.858.08-Nov-2020 3686.01 4406.26 72.66 4.00  21.20 2071.13
   21:54:34.058.08-Nov-2020 3686.01 4406.26 72.66 4.00  21.40 2071.13
   21:54:34.258.08-Nov-2020 3686.01 4406.26 72.66 4.00  21.60 2071.13
   21:54:34.458.08-Nov-2020 3686.01 4405.76 72.65 4.00  21.80 2071.13
   21:54:34.658.08-Nov-2020 3686.01 4411.48 72.65 4.00  22.00 2071.13
   21:54:34.858.08-Nov-2020 3686.01 4405.32 72.65 4.00  22.20 2071.13
   21:54:35.058.08-Nov-2020 3686.01 4405.88 72.65 4.00  22.40 2071.13
   21:54:35.258.08-Nov-2020 3686.01 4407.97 72.65 4.00  22.61 2071.13
   21:54:35.458.08-Nov-2020 3686.01 4407.11 72.65 4.00  22.81 2071.13
