~Version Information
 VERS.                  2.0:   CWLS log ASCII Standard -VERSION 2.0
 WRAP.                   NO:   One line per depth step
~Well Information Block
#MNEM.UNIT     VALUE/NAME     DESCRIPTION
#---------     -----------    ---------------------------
 STRT.S             18:53:27 10-Nov-20: START TIME 18:53:27 10-Nov-20
 STOP.S             19:00:00 10-Nov-20: STOP TIME  19:00:00 10-Nov-20
 STEP.S                   0.00: STEP TIME
 NULL.                 -999.25: NULL VALUE
 DFWT.                        :  DIST FWL TEXT
 DFST.                        :  DIST FSL TEXT
 DMF .             Drill Floor:  DRILL MEAS FROM
 STIM.      04.54.24 22-Sep-20:  START TIME
 DATE.      04.54.24 21-Nov-20:  END TIME
 SPUD.               21-Nov-20:  SPUD DATE
 NREF.                    Grid:  NORTH REFERENCE
 HPTY.       Minimum Curvature:  HOLE POS TYPE
 DMOD.             Drill Model:  DRILL MOD DESC
 SVYD.                  Survey:  SURVEY DESC
 ILTD.               Lithology:  INTERP LTH DESC
 FTOP.          Formation Tops:  FORM TOPS DESC
 SON .        AZ-XX-0906571587:  JOB NUMBER
 COMP.     BP Exploration (Caspian Sea) Ltd:  COMPANY
 UWI .                     N/A:  UNIQUE WELL IDENTIFIER
 API .                     N/A:  API NUMBER
 BASE.              Azerbaijan:  LOGGING EQUIPMENT BASE LOCATION
 REGN.                   EESSA:  REGION
 PROV.                    Baku:  PROVINCE
 STAT.                    Baku:  STATE NAME
 CTRY.              Azerbaijan:  COUNTRY NAME
 FLD .                     ACG:  FIELD NAME
 SRVC.     TURAN Drilling & Engineering:  CONTRACTOR
 WELL.                     J27:  WELL NAME
 RIG .             West Chirag:  RIG NAME
 DOE .                     N/A:  DOE NUMBER
 DCON.         Sperry Drilling:  DIRECTNL CONTR
 PDAT.          Mean Sea Level:  PERMANENT DATUM
 WTYP.                Deviated:  WELL TYPE
 MWDS.                    Baku:  MWD SHOP
 JOBN.        AZ-XX-0906571587:  JOB TICKET NUMB
 UNIT.                     N/A:  LOGGING EQUIPMENT ID
 MDS .        Operator Entered:  MAG DATA SOURCE
 CNTY.                        :  COUNTY
 LOC .                        :  LOCATION
 LMF .             Drill Floor:  LOG MEASURED FROM
 TVDS.m                  43.00:  TVDSS CORRECTN
 LATI.deg                40.13:  LATITUDE
 LONG.deg                51.22:  LONGITUDE
 WHNS.m                   7.72:  WELL HEAD N/S
 WHEW.m                 -14.24:  WELL HEAD E/W
 UTMX.m              519005.06:  UTM X
 UTMY.m             4443793.85:  UTM Y
 DFWL.m                   0.00:  DISTANCE FWL
 DFSL.m                   0.00:  DISTANCE FSL
 SDEP.m                 347.00:  START DEPTH
 TDD .m                 581.00:  TOTAL DEPTH (DRILLER)
 VSDR.deg               159.72:  VERT SEC DIRECT
 GVFD.g                   1.00:  GRAVITY FIELD
 MFLD.nT              50313.00:  MAGNETIC FIELD
 MDIP.deg                59.58:  MAGNETIC DIP
 MDEC.deg                 6.45:  MAGNETIC DECL
 GRDC.deg                 0.15:  GRID CORRECTION
 AZTC.deg                 6.30:  AZM TOTAL CORR
 EPD .m                   0.00:  ELEVATION
 EGL .m                   0.00:  GROUND ELEVATION
 WDMS.m                 169.80:  WD ELEV
 APD .m                  43.00:  DEPTH ABOVE PD
 AGAP.m                  43.00:  AIR GAP
 VSEW.m                 -14.24:  VERT SEC E/W
 VSNS.m                   7.72:  VERT SEC N/S
 DEP .m                 342.45:  DEPTH
 EKB .m                   0.00:  KB ELEVATION
 EDF .m                  43.00:  DF ELEVATION
 TDL .m                1313.00:  TOTAL DEPTH (LOGGER)
 VSC .                       0:  VS TO CLOSURE
 MAGU.                 1851396:  MAGUTM CHECKSUM
~Parameter Information Block
#MNEM.UNIT       Value        Description
#---------     -----------    ---------------------------
 AV  .mps                 0.65:  Ann Velocity 
 AVMX.mps                 0.75:  Max Ann Veloc 
 AZIF.deg               115.08:  Azm, Final 
 BHAT.        Rotary Steerable:  BHA Type 
 BROT.°/30m               1.50:  Build Rotating 
 BS  .in                 12.25:  Bit Size 
 BSZ .in                 12.25:  Bit Size 
 BTPL.psig              700.00:  Bit Press Loss 
 CABU.                     Yes:  Customer Abuse 
 COMM.                     ”Ú:  Run Comments 1 
 TCS .hr                121.00:  Time Ciculation Ended 
 CV  .mps                 1.83:  Crit Velocity 
 CVMX.mps                 1.83:  Max Crit Veloc 
 DD1 .          Rashad Habibov:  Direct Drillr 1 
 DD2 .         Rasim Ibrahimov:  Direct Drillr 2 
 DDSV.                 iCruise:  DD Service 
 DEFF.%                 100.00:  % Det Eff 
 DLRX.°/30m               3.60:  Dogleg Rot Max 
 DLSO.°/30m               3.10:  Dogleg Oriented 
 DLSX.°/30m               3.60:  Dogleg Str Max 
 DRET.      13.41.20 12-Nov-20:  Drill End Time 
 DRST.      13.41.20 07-Nov-20:  Drill Start Tim 
 DTIM.hr                 54.16:  Time Drilling 
 EDEP.m                4762.01:  End Depth 
 ENG1.           Amrah Tahirov:  Engineer 1 
 ENG2.      Bakhtiyar Jabbarli:  Engineer 2 
 ENG3.          Ruslan Safarov:  Engineer 3 
 ETIM.      13.41.20 14-Nov-20:  End Time 
 FLOI.gpm              1200.00:  Flow In 
 FLON.gpm              1100.00:  Flow In Min 
 FLOS.cptm                0.00:  Fluid Loss 
 FLOX.gpm              1200.00:  Flow In Max 
 HFLO.                      No:  High Flow 
 HPRE.                      No:  High Pressure 
 HTEM.                      No:  High Temp 
 HYDO.m                   2.00:  Hydro Offset 
 IFIN.deg                66.14:  Inc, Final 
 IMAX.deg                69.03:  Inc Max 
 IMIN.deg                64.64:  Inc Min 
 IMND.m                4450.16:  Inc Min Depth 
 IMXD.m                3996.00:  Inc Max Depth 
 JARR.                     Yes:  Jarring 
 LETM.      13.41.20 14-Nov-20:  Log End Time 
 LOST.hr                     0:  Lost Rig Time 
 LSTM.      13.41.20 06-Nov-20:  Log Start Time 
 MDCL.ppm             42500.00:  Mud Chlorides 
 MDES.     Inversion Oil/Synthetic:  Mud Desc 
 DFD .sg                  1.45:  Mud Density 
 MDMN.sg                  1.45:  Dens Mud Min 
 MDMX.sg                  1.45:  Dens Mud Max 
 MOIL.                      70:  Run Mud Oil % 
 MOWR.                   70:30:  Run Mud OWR 
 MSND.                       0:  Run Mud Sand % 
 MSOL.                    19.3:  Run Mud Solids% 
 DFV .spqt               77.00:  Mud Viscosity 
 MWOD.in                  8.00:  MWD Tool OD 
 MWSI.                      No:  Serv Intrp, MWD 
 OTIM.hr                201.88:  Time Operating 
 PCON.           Look Like New:  Pad Condition 
 PMAX.psia             9250.94:  Press Op, Max 
 PV  .cP                 29.00:  Mud PV 
 RUN .                     800:  Run Number 
 ROPA.m/hr               28.00:  ROP Avg 
 ROPN.m/hr               25.00:  ROP Min 
 ROPX.m/hr               30.00:  ROP Max 
 RPMA.rpm               160.00:  RPM Surface Avg 
 RPMN.rpm               160.00:  RPM Surface Min 
 RPMX.rpm               160.00:  RPM Surface Max 
 RRUN.                    0800:  Rig Run Number 
 RTIM.hr                 12.00:  Time Reaming 
 SAZI.deg               169.33:  Azm, Start 
 SDEP.m                3449.01:  Start Depth 
 SIDD.                      No:  Serv Intrp, DD 
 SINC.deg                68.01:  Inc, Start 
 SPPA.psig             4900.00:  SPP Avg 
 SPPN.psig             4800.00:  SPP Min 
 SPPX.psig             5050.00:  SPP Max 
 STIM.      13.41.20 06-Nov-20:  Start Time 
 SVCS.                 DD, MWD:  Services 
 SVER.                    9.20:  Sperry Version 
 TDAT.m                4762.01:  Tot Depth Attmp 
 TDDF.                      No:  Trip for DD 
 TDLG.m                1313.00:  Tot Depth Loggd 
 TFF .                      No:  Trip for Fail 
 TQAA.f-kp               13.00:  Torque Abs Avg 
 TQAN.f-kp               13.00:  Torque Abs Min 
 TQAX.f-kp               13.00:  Torque Abs Max 
 TRRT.°/30m               1.70:  Turn Rotating 
 MRT .                  EWR-M5:  Maximum Recorded Temperature 
 TTMX.degC               86.00:  Max Tool Temp 
 VS01.                90622122:  Virtual Str1 SN 
 VS02.                90577298:  Virtual Str2 SN 
 VS03.                90563623:  Virtual Str3 SN 
 VS04.                90617559:  Virtual Str4 SN 
 VS05.                11339492:  Virtual Str5 SN 
 VS06.                12385033:  Virtual Str6 SN 
 WBMN.klb                 0.00:  WOB Min 
 WOBA.klb                22.00:  WOB Avg 
 WOBX.klb                26.00:  WOB Max 
 YP  .lhf2               30.00:  Yield Point 
~Curve Information Block
#MNEM.UNIT                 API CODE     Curve Description
#---------               -----------    ---------------------------
 TIME.HHMMSS            00 000 000 000:  GT Time & Date
 GTDEPTH.m              00 000 000 000:  GT Depth
 GTPQH.psia             00 000 000 000:  GT HR Quartz Pressure
 GTTQ.degC              00 000 000 000:  GT Quartz Temperature
 GTTN.NONE              00 000 000 000:  GT Test Number
 GTET.sec               00 000 000 000:  GT Elapsed Test Time
 GTTVD.m                00 000 000 000:  GT True Vertical Depth
#Other Information
#
#WARRANTY: Halliburton will use its best efforts to furnish customers with 
#accurate information and interpretations that are part of, and incident to, the services 
#provided.  However, Halliburton cannot and does not warrant the accuracy 
#or correctness of such information and interpretations.  Under no circumstances should any 
#such information or interpretation be relied upon as the sole basis for any drilling, 
#completion, production, or financial decision or any procedure involving any risk to the 
#safety of any drilling venture, drilling rig or its crew or any other third party.  The 
#Customer has full responsibility for all drilling, completion and production operation.  
#Halliburton makes no representations or warranties, either expressed or 
#implied, including, but not limited to, the implied warranties of merchantability or fitness 
#for a particular purpose, with respect to the services rendered.  In no event will 
#Halliburton be liable for failure to obtain any particular results or for 
#any damages, including, but not limited to, indirect, special or consequential damages, 
#resulting from the use of any information or interpretation provided by Halliburton.
#
~A           TIME           GTDEPTH  GTPQH  GTTQ  GTTN  GTET   GTTVD  
# ...
   18:54:36.515.10-Nov-2020 4475.51 4009.85 80.58 5.00  69.02 2369.25
   18:54:36.715.10-Nov-2020 4475.51 4009.85 80.58 5.00  69.22 2369.25
   18:54:36.915.10-Nov-2020 4475.51 4010.00 80.58 5.00  69.42 2369.25
   18:54:37.115.10-Nov-2020 4475.51 4010.03 80.57 5.00  69.62 2369.25
   18:54:37.315.10-Nov-2020 4475.51 4010.05 80.57 5.00  69.82 2369.25
   18:54:37.515.10-Nov-2020 4475.51 4010.18 80.57 5.00  70.02 2369.25
   18:54:37.715.10-Nov-2020 4475.51 4010.19 80.57 5.00  70.22 2369.25
   18:54:37.915.10-Nov-2020 4475.51 4010.34 80.57 5.00  70.42 2369.25
   18:54:38.115.10-Nov-2020 4475.51 4010.42 80.57 5.00  70.62 2369.25
   18:54:38.315.10-Nov-2020 4475.51 4010.44 80.57 5.00  70.82 2369.25
   18:54:38.515.10-Nov-2020 4475.51 4010.56 80.57 5.00  71.02 2369.25
   18:54:38.715.10-Nov-2020 4475.51 4010.56 80.57 5.00  71.22 2369.25
   18:54:38.915.10-Nov-2020 4475.51 4010.91 80.57 5.00  71.42 2369.25
   18:54:39.116.10-Nov-2020 4475.51 4010.76 80.57 5.00  71.62 2369.25
   18:54:39.316.10-Nov-2020 4475.51 4010.87 80.57 5.00  71.82 2369.25
   18:54:39.516.10-Nov-2020 4475.51 4011.39 80.57 5.00  72.02 2369.25
   18:54:39.716.10-Nov-2020 4475.51 4011.39 80.57 5.00  72.22 2369.25
   18:54:39.916.10-Nov-2020 4475.51 4010.97 80.57 5.00  72.42 2369.25
   18:54:40.116.10-Nov-2020 4475.51 4011.04 80.57 5.00  72.62 2369.25
   18:54:40.316.10-Nov-2020 4475.51 4011.05 80.57 5.00  72.82 2369.25
   18:54:40.516.10-Nov-2020 4475.51 4011.57 80.57 5.00  73.02 2369.25
   18:54:40.716.10-Nov-2020 4475.51 4011.57 80.57 5.00  73.22 2369.25
   18:54:40.916.10-Nov-2020 4475.51 4011.21 80.56 5.00  73.42 2369.25
   18:54:41.116.10-Nov-2020 4475.51 4011.82 80.56 5.00  73.62 2369.25
   18:54:41.316.10-Nov-2020 4475.51 4011.42 80.56 5.00  73.82 2369.25
   18:54:41.516.10-Nov-2020 4475.51 4011.49 80.56 5.00  74.02 2369.25
   18:54:41.716.10-Nov-2020 4475.51 4011.83 80.56 5.00  74.22 2369.25
   18:54:41.916.10-Nov-2020 4475.51 4012.07 80.56 5.00  74.42 2369.25
   18:54:42.116.10-Nov-2020 4475.51 4011.70 80.56 5.00  74.62 2369.25
   18:54:42.316.10-Nov-2020 4475.51 4011.68 80.56 5.00  74.82 2369.25
   18:54:42.516.10-Nov-2020 4475.51 4011.79 80.56 5.00  75.02 2369.25
   18:54:42.717.10-Nov-2020 4475.51 4011.79 80.56 5.00  75.22 2369.25
   18:54:42.917.10-Nov-2020 4475.51 4011.77 80.56 5.00  75.42 2369.25
   18:54:43.117.10-Nov-2020 4475.51 4011.82 80.56 5.00  75.62 2369.25
   18:54:43.317.10-Nov-2020 4475.51 4011.88 80.56 5.00  75.82 2369.25
   18:54:43.517.10-Nov-2020 4475.51 4011.93 80.56 5.00  76.02 2369.25
   18:54:43.717.10-Nov-2020 4475.51 4011.98 80.56 5.00  76.22 2369.25
   18:54:43.917.10-Nov-2020 4475.51 4012.00 80.56 5.00  76.42 2369.25
   18:54:44.117.10-Nov-2020 4475.51 4012.12 80.56 5.00  76.62 2369.25
   18:54:44.317.10-Nov-2020 4475.51 4012.12 80.56 5.00  76.82 2369.25
   18:54:44.517.10-Nov-2020 4475.51 4012.07 80.56 5.00  77.02 2369.25
   18:54:44.717.10-Nov-2020 4475.51 4012.47 80.55 5.00  77.22 2369.25
   18:54:44.917.10-Nov-2020 4475.51 4012.31 80.55 5.00  77.42 2369.25
   18:54:45.117.10-Nov-2020 4475.51 4012.25 80.55 5.00  77.62 2369.25
   18:54:45.317.10-Nov-2020 4475.51 4012.24 80.55 5.00  77.82 2369.25
   18:54:45.517.10-Nov-2020 4475.51 4012.37 80.55 5.00  78.02 2369.25
   18:54:45.717.10-Nov-2020 4475.51 4012.37 80.55 5.00  78.22 2369.25
   18:54:45.917.10-Nov-2020 4475.51 4012.35 80.55 5.00  78.42 2369.25
   18:54:46.117.10-Nov-2020 4475.51 4012.42 80.55 5.00  78.62 2369.25
   18:54:46.318.10-Nov-2020 4475.51 4012.52 80.55 5.00  78.82 2369.25
   18:54:46.518.10-Nov-2020 4475.51 4012.52 80.55 5.00  79.02 2369.25
   18:54:46.718.10-Nov-2020 4475.51 4012.52 80.55 5.00  79.22 2369.25
   18:54:46.918.10-Nov-2020 4475.51 4012.65 80.55 5.00  79.42 2369.25
   18:54:47.118.10-Nov-2020 4475.51 4012.82 80.55 5.00  79.62 2369.25
   18:54:47.318.10-Nov-2020 4475.51 4012.92 80.55 5.00  79.82 2369.25
   18:54:47.518.10-Nov-2020 4475.51 4012.72 80.55 5.00  80.02 2369.25
   18:54:47.718.10-Nov-2020 4475.51 4012.72 80.55 5.00  80.22 2369.25
   18:54:47.918.10-Nov-2020 4475.51 4013.24 80.55 5.00  80.42 2369.25
   18:54:48.118.10-Nov-2020 4475.51 4012.82 80.55 5.00  80.62 2369.25
   18:54:48.318.10-Nov-2020 4475.51 4012.86 80.55 5.00  80.82 2369.25
   18:54:48.518.10-Nov-2020 4475.51 4012.94 80.54 5.00  81.02 2369.25
   18:54:48.718.10-Nov-2020 4475.51 4012.94 80.54 5.00  81.22 2369.25
   18:54:48.918.10-Nov-2020 4475.51 4013.64 80.54 5.00  81.42 2369.25
   18:54:49.118.10-Nov-2020 4475.51 4013.23 80.54 5.00  81.62 2369.25
   18:54:49.318.10-Nov-2020 4475.51 4013.37 80.54 5.00  81.82 2369.25
   18:54:49.518.10-Nov-2020 4475.51 4013.59 80.54 5.00  82.02 2369.25
   18:54:49.718.10-Nov-2020 4475.51 4013.30 80.54 5.00  82.22 2369.25
   18:54:49.919.10-Nov-2020 4475.51 4013.18 80.54 5.00  82.42 2369.25
   18:54:50.119.10-Nov-2020 4475.51 4013.68 80.54 5.00  82.62 2369.25
   18:54:50.319.10-Nov-2020 4475.51 4013.95 80.54 5.00  82.82 2369.25
   18:54:50.519.10-Nov-2020 4475.51 4013.36 80.54 5.00  83.02 2369.25
   18:54:50.719.10-Nov-2020 4475.51 4013.36 80.54 5.00  83.22 2369.25
   18:54:50.919.10-Nov-2020 4475.51 4013.45 80.54 5.00  83.42 2369.25
   18:54:51.119.10-Nov-2020 4475.51 4013.36 80.54 5.00  83.62 2369.25
   18:54:51.319.10-Nov-2020 4475.51 4013.39 80.54 5.00  83.82 2369.25
   18:54:51.519.10-Nov-2020 4475.51 4013.39 80.54 5.00  84.02 2369.25
   18:54:51.719.10-Nov-2020 4475.51 4013.39 80.54 5.00  84.22 2369.25
   18:54:51.919.10-Nov-2020 4475.51 4013.49 80.54 5.00  84.42 2369.25
   18:54:52.119.10-Nov-2020 4475.51 4013.53 80.54 5.00  84.62 2369.25
   18:54:52.319.10-Nov-2020 4475.51 4013.50 80.53 5.00  84.82 2369.25
   18:54:52.519.10-Nov-2020 4475.51 4013.58 80.53 5.00  85.02 2369.25
   18:54:52.719.10-Nov-2020 4475.51 4013.58 80.53 5.00  85.22 2369.25
   18:54:52.919.10-Nov-2020 4475.51 4013.55 80.53 5.00  85.42 2369.25
   18:54:53.119.10-Nov-2020 4475.51 4013.82 80.53 5.00  85.62 2369.25
   18:54:53.319.10-Nov-2020 4475.51 4013.72 80.53 5.00  85.82 2369.25
   18:54:53.520.10-Nov-2020 4475.51 4013.67 80.53 5.00  86.02 2369.25
   18:54:53.720.10-Nov-2020 4475.51 4013.59 80.53 5.00  86.22 2369.25
   18:54:53.920.10-Nov-2020 4475.51 4013.75 80.53 5.00  86.42 2369.25
   18:54:54.120.10-Nov-2020 4475.51 4013.69 80.53 5.00  86.62 2369.25
   18:54:54.320.10-Nov-2020 4475.51 4013.69 80.53 5.00  86.82 2369.25
   18:54:54.520.10-Nov-2020 4475.51 4013.77 80.53 5.00  87.02 2369.25
   18:54:54.720.10-Nov-2020 4475.51 4013.77 80.53 5.00  87.22 2369.25
   18:54:54.920.10-Nov-2020 4475.51 4013.77 80.53 5.00  87.42 2369.25
   18:54:55.120.10-Nov-2020 4475.51 4013.84 80.53 5.00  87.62 2369.25
   18:54:55.320.10-Nov-2020 4475.51 4013.93 80.53 5.00  87.82 2369.25
   18:54:55.520.10-Nov-2020 4475.51 4014.05 80.53 5.00  88.02 2369.25
   18:54:55.720.10-Nov-2020 4475.51 4014.05 80.53 5.00  88.22 2369.25
   18:54:55.920.10-Nov-2020 4475.51 4013.92 80.53 5.00  88.42 2369.25
   18:54:56.120.10-Nov-2020 4475.51 4014.15 80.52 5.00  88.62 2369.25
   18:54:56.320.10-Nov-2020 4475.51 4014.53 80.52 5.00  88.82 2369.25
   18:54:56.520.10-Nov-2020 4475.51 4014.03 80.52 5.00  89.02 2369.25
   18:54:56.720.10-Nov-2020 4475.51 4014.03 80.52 5.00  89.22 2369.25
   18:54:56.920.10-Nov-2020 4475.51 4014.07 80.52 5.00  89.42 2369.25
   18:54:57.121.10-Nov-2020 4475.51 4013.94 80.52 5.00  89.62 2369.25
   18:54:57.321.10-Nov-2020 4475.51 4014.40 80.52 5.00  89.82 2369.25
   18:54:57.521.10-Nov-2020 4475.51 4014.33 80.52 5.00  90.02 2369.25
   18:54:57.721.10-Nov-2020 4475.51 4014.12 80.52 5.00  90.23 2369.25
   18:54:57.921.10-Nov-2020 4475.51 4014.58 80.52 5.00  90.43 2369.25
   18:54:58.121.10-Nov-2020 4475.51 4014.72 80.52 5.00  90.63 2369.25
   18:54:58.321.10-Nov-2020 4475.51 4014.62 80.52 5.00  90.83 2369.25
   18:54:58.521.10-Nov-2020 4475.51 4014.43 80.52 5.00  91.03 2369.25
   18:54:58.721.10-Nov-2020 4475.51 4014.43 80.52 5.00  91.23 2369.25
   18:54:58.921.10-Nov-2020 4475.51 4014.34 80.52 5.00  91.43 2369.25
   18:54:59.121.10-Nov-2020 4475.51 4014.31 80.52 5.00  91.63 2369.25
   18:54:59.321.10-Nov-2020 4475.51 4014.31 80.52 5.00  91.83 2369.25
