~Version Information
 VERS.                  2.0:   CWLS log ASCII Standard -VERSION 2.0
 WRAP.                   NO:   One line per depth step
~Well Information Block
#MNEM.UNIT     VALUE/NAME     DESCRIPTION
#---------     -----------    ---------------------------
 STRT.S             13:56:13 08-Nov-20: START TIME 13:56:13 08-Nov-20
 STOP.S             14:02:43 08-Nov-20: STOP TIME  14:02:43 08-Nov-20
 STEP.S                   0.00: STEP TIME
 NULL.                 -999.25: NULL VALUE
 DFWT.                        :  DIST FWL TEXT
 DFST.                        :  DIST FSL TEXT
 DMF .             Drill Floor:  DRILL MEAS FROM
 STIM.      04.54.24 22-Sep-20:  START TIME
 DATE.      04.54.24 21-Nov-20:  END TIME
 SPUD.               21-Nov-20:  SPUD DATE
 NREF.                    Grid:  NORTH REFERENCE
 HPTY.       Minimum Curvature:  HOLE POS TYPE
 DMOD.             Drill Model:  DRILL MOD DESC
 SVYD.                  Survey:  SURVEY DESC
 ILTD.               Lithology:  INTERP LTH DESC
 FTOP.          Formation Tops:  FORM TOPS DESC
 SON .        AZ-XX-0906571587:  JOB NUMBER
 COMP.     BP Exploration (Caspian Sea) Ltd:  COMPANY
 UWI .                     N/A:  UNIQUE WELL IDENTIFIER
 API .                     N/A:  API NUMBER
 BASE.              Azerbaijan:  LOGGING EQUIPMENT BASE LOCATION
 REGN.                   EESSA:  REGION
 PROV.                    Baku:  PROVINCE
 STAT.                    Baku:  STATE NAME
 CTRY.              Azerbaijan:  COUNTRY NAME
 FLD .                     ACG:  FIELD NAME
 SRVC.     TURAN Drilling & Engineering:  CONTRACTOR
 WELL.                     J27:  WELL NAME
 RIG .             West Chirag:  RIG NAME
 DOE .                     N/A:  DOE NUMBER
 DCON.         Sperry Drilling:  DIRECTNL CONTR
 PDAT.          Mean Sea Level:  PERMANENT DATUM
 WTYP.                Deviated:  WELL TYPE
 MWDS.                    Baku:  MWD SHOP
 JOBN.        AZ-XX-0906571587:  JOB TICKET NUMB
 UNIT.                     N/A:  LOGGING EQUIPMENT ID
 MDS .        Operator Entered:  MAG DATA SOURCE
 CNTY.                        :  COUNTY
 LOC .                        :  LOCATION
 LMF .             Drill Floor:  LOG MEASURED FROM
 TVDS.m                  43.00:  TVDSS CORRECTN
 LATI.deg                40.13:  LATITUDE
 LONG.deg                51.22:  LONGITUDE
 WHNS.m                   7.72:  WELL HEAD N/S
 WHEW.m                 -14.24:  WELL HEAD E/W
 UTMX.m              519005.06:  UTM X
 UTMY.m             4443793.85:  UTM Y
 DFWL.m                   0.00:  DISTANCE FWL
 DFSL.m                   0.00:  DISTANCE FSL
 SDEP.m                 347.00:  START DEPTH
 TDD .m                 581.00:  TOTAL DEPTH (DRILLER)
 VSDR.deg               159.72:  VERT SEC DIRECT
 GVFD.g                   1.00:  GRAVITY FIELD
 MFLD.nT              50313.00:  MAGNETIC FIELD
 MDIP.deg                59.58:  MAGNETIC DIP
 MDEC.deg                 6.45:  MAGNETIC DECL
 GRDC.deg                 0.15:  GRID CORRECTION
 AZTC.deg                 6.30:  AZM TOTAL CORR
 EPD .m                   0.00:  ELEVATION
 EGL .m                   0.00:  GROUND ELEVATION
 WDMS.m                 169.80:  WD ELEV
 APD .m                  43.00:  DEPTH ABOVE PD
 AGAP.m                  43.00:  AIR GAP
 VSEW.m                 -14.24:  VERT SEC E/W
 VSNS.m                   7.72:  VERT SEC N/S
 DEP .m                 342.45:  DEPTH
 EKB .m                   0.00:  KB ELEVATION
 EDF .m                  43.00:  DF ELEVATION
 TDL .m                1313.00:  TOTAL DEPTH (LOGGER)
 VSC .                       0:  VS TO CLOSURE
 MAGU.                 1851396:  MAGUTM CHECKSUM
~Parameter Information Block
#MNEM.UNIT       Value        Description
#---------     -----------    ---------------------------
 AV  .mps                 0.65:  Ann Velocity 
 AVMX.mps                 0.75:  Max Ann Veloc 
 AZIF.deg               115.08:  Azm, Final 
 BHAT.        Rotary Steerable:  BHA Type 
 BROT.°/30m               1.50:  Build Rotating 
 BS  .in                 12.25:  Bit Size 
 BSZ .in                 12.25:  Bit Size 
 BTPL.psig              700.00:  Bit Press Loss 
 CABU.                     Yes:  Customer Abuse 
 COMM.                     ì¹^:  Run Comments 1 
 TCS .hr                121.00:  Time Ciculation Ended 
 CV  .mps                 1.83:  Crit Velocity 
 CVMX.mps                 1.83:  Max Crit Veloc 
 DD1 .          Rashad Habibov:  Direct Drillr 1 
 DD2 .         Rasim Ibrahimov:  Direct Drillr 2 
 DDSV.                 iCruise:  DD Service 
 DEFF.%                 100.00:  % Det Eff 
 DLRX.°/30m               3.60:  Dogleg Rot Max 
 DLSO.°/30m               3.10:  Dogleg Oriented 
 DLSX.°/30m               3.60:  Dogleg Str Max 
 DRET.      13.41.20 12-Nov-20:  Drill End Time 
 DRST.      13.41.20 07-Nov-20:  Drill Start Tim 
 DTIM.hr                 54.16:  Time Drilling 
 EDEP.m                4762.01:  End Depth 
 ENG1.           Amrah Tahirov:  Engineer 1 
 ENG2.      Bakhtiyar Jabbarli:  Engineer 2 
 ENG3.          Ruslan Safarov:  Engineer 3 
 ETIM.      13.41.20 14-Nov-20:  End Time 
 FLOI.gpm              1200.00:  Flow In 
 FLON.gpm              1100.00:  Flow In Min 
 FLOS.cptm                0.00:  Fluid Loss 
 FLOX.gpm              1200.00:  Flow In Max 
 HFLO.                      No:  High Flow 
 HPRE.                      No:  High Pressure 
 HTEM.                      No:  High Temp 
 HYDO.m                   2.00:  Hydro Offset 
 IFIN.deg                66.14:  Inc, Final 
 IMAX.deg                69.03:  Inc Max 
 IMIN.deg                64.64:  Inc Min 
 IMND.m                4450.16:  Inc Min Depth 
 IMXD.m                3996.00:  Inc Max Depth 
 JARR.                     Yes:  Jarring 
 LETM.      13.41.20 14-Nov-20:  Log End Time 
 LOST.hr                     0:  Lost Rig Time 
 LSTM.      13.41.20 06-Nov-20:  Log Start Time 
 MDCL.ppm             42500.00:  Mud Chlorides 
 MDES.     Inversion Oil/Synthetic:  Mud Desc 
 DFD .sg                  1.45:  Mud Density 
 MDMN.sg                  1.45:  Dens Mud Min 
 MDMX.sg                  1.45:  Dens Mud Max 
 MOIL.                      70:  Run Mud Oil % 
 MOWR.                   70:30:  Run Mud OWR 
 MSND.                       0:  Run Mud Sand % 
 MSOL.                    19.3:  Run Mud Solids% 
 DFV .spqt               77.00:  Mud Viscosity 
 MWOD.in                  8.00:  MWD Tool OD 
 MWSI.                      No:  Serv Intrp, MWD 
 OTIM.hr                201.88:  Time Operating 
 PCON.           Look Like New:  Pad Condition 
 PMAX.psia             9250.94:  Press Op, Max 
 PV  .cP                 29.00:  Mud PV 
 RUN .                     800:  Run Number 
 ROPA.m/hr               28.00:  ROP Avg 
 ROPN.m/hr               25.00:  ROP Min 
 ROPX.m/hr               30.00:  ROP Max 
 RPMA.rpm               160.00:  RPM Surface Avg 
 RPMN.rpm               160.00:  RPM Surface Min 
 RPMX.rpm               160.00:  RPM Surface Max 
 RRUN.                    0800:  Rig Run Number 
 RTIM.hr                 12.00:  Time Reaming 
 SAZI.deg               169.33:  Azm, Start 
 SDEP.m                3449.01:  Start Depth 
 SIDD.                      No:  Serv Intrp, DD 
 SINC.deg                68.01:  Inc, Start 
 SPPA.psig             4900.00:  SPP Avg 
 SPPN.psig             4800.00:  SPP Min 
 SPPX.psig             5050.00:  SPP Max 
 STIM.      13.41.20 06-Nov-20:  Start Time 
 SVCS.                 DD, MWD:  Services 
 SVER.                    9.20:  Sperry Version 
 TDAT.m                4762.01:  Tot Depth Attmp 
 TDDF.                      No:  Trip for DD 
 TDLG.m                1313.00:  Tot Depth Loggd 
 TFF .                      No:  Trip for Fail 
 TQAA.f-kp               13.00:  Torque Abs Avg 
 TQAN.f-kp               13.00:  Torque Abs Min 
 TQAX.f-kp               13.00:  Torque Abs Max 
 TRRT.°/30m               1.70:  Turn Rotating 
 MRT .                  EWR-M5:  Maximum Recorded Temperature 
 TTMX.degC               86.00:  Max Tool Temp 
 VS01.                90622122:  Virtual Str1 SN 
 VS02.                90577298:  Virtual Str2 SN 
 VS03.                90563623:  Virtual Str3 SN 
 VS04.                90617559:  Virtual Str4 SN 
 VS05.                11339492:  Virtual Str5 SN 
 VS06.                12385033:  Virtual Str6 SN 
 WBMN.klb                 0.00:  WOB Min 
 WOBA.klb                22.00:  WOB Avg 
 WOBX.klb                26.00:  WOB Max 
 YP  .lhf2               30.00:  Yield Point 
~Curve Information Block
#MNEM.UNIT                 API CODE     Curve Description
#---------               -----------    ---------------------------
 TIME.HHMMSS            00 000 000 000:  GT Time & Date
 GTDEPTH.m              00 000 000 000:  GT Depth
 GTPQH.psia             00 000 000 000:  GT HR Quartz Pressure
 GTTQ.degC              00 000 000 000:  GT Quartz Temperature
 GTTN.NONE              00 000 000 000:  GT Test Number
 GTET.sec               00 000 000 000:  GT Elapsed Test Time
 GTTVD.m                00 000 000 000:  GT True Vertical Depth
#Other Information
#
#WARRANTY: Halliburton will use its best efforts to furnish customers with 
#accurate information and interpretations that are part of, and incident to, the services 
#provided.  However, Halliburton cannot and does not warrant the accuracy 
#or correctness of such information and interpretations.  Under no circumstances should any 
#such information or interpretation be relied upon as the sole basis for any drilling, 
#completion, production, or financial decision or any procedure involving any risk to the 
#safety of any drilling venture, drilling rig or its crew or any other third party.  The 
#Customer has full responsibility for all drilling, completion and production operation.  
#Halliburton makes no representations or warranties, either expressed or 
#implied, including, but not limited to, the implied warranties of merchantability or fitness 
#for a particular purpose, with respect to the services rendered.  In no event will 
#Halliburton be liable for failure to obtain any particular results or for 
#any damages, including, but not limited to, indirect, special or consequential damages, 
#resulting from the use of any information or interpretation provided by Halliburton.
#
~A           TIME           GTDEPTH  GTPQH  GTTQ  GTTN  GTET   GTTVD  
# ...
   14:01:57.841.08-Nov-2020 3585.71 3292.57 70.34 3.00 344.67 2034.99
   14:01:58.041.08-Nov-2020 3585.71 3292.57 70.34 3.00 344.87 2034.99
   14:01:58.241.08-Nov-2020 3585.71 3292.65 70.33 3.00 345.07 2034.99
   14:01:58.441.08-Nov-2020 3585.71 3292.61 70.33 3.00 345.27 2034.99
   14:01:58.640.08-Nov-2020 3585.71 3292.60 70.33 3.00 345.47 2034.99
   14:01:58.840.08-Nov-2020 3585.71 3292.60 70.33 3.00 345.67 2034.99
   14:01:59.040.08-Nov-2020 3585.71 3292.60 70.33 3.00 345.87 2034.99
   14:01:59.240.08-Nov-2020 3585.71 3292.54 70.33 3.00 346.07 2034.99
   14:01:59.440.08-Nov-2020 3585.71 3292.67 70.33 3.00 346.27 2034.99
   14:01:59.639.08-Nov-2020 3585.71 3292.63 70.33 3.00 346.47 2034.99
   14:01:59.839.08-Nov-2020 3585.71 3292.61 70.33 3.00 346.67 2034.99
   14:02:00.039.08-Nov-2020 3585.71 3292.61 70.33 3.00 346.87 2034.99
   14:02:00.239.08-Nov-2020 3585.71 3292.62 70.32 3.00 347.07 2034.99
   14:02:00.439.08-Nov-2020 3585.71 3292.66 70.32 3.00 347.27 2034.99
   14:02:00.638.08-Nov-2020 3585.71 3292.62 70.32 3.00 347.47 2034.99
   14:02:00.838.08-Nov-2020 3585.71 3292.62 70.32 3.00 347.67 2034.99
   14:02:01.038.08-Nov-2020 3585.71 3292.62 70.32 3.00 347.86 2034.99
   14:02:01.238.08-Nov-2020 3585.71 3292.58 70.32 3.00 348.06 2034.99
   14:02:01.438.08-Nov-2020 3585.71 3292.57 70.32 3.00 348.26 2034.99
   14:02:01.637.08-Nov-2020 3585.71 3292.55 70.32 3.00 348.46 2034.99
   14:02:01.837.08-Nov-2020 3585.71 3292.55 70.32 3.00 348.66 2034.99
   14:02:02.037.08-Nov-2020 3585.71 3292.55 70.32 3.00 348.86 2034.99
   14:02:02.237.08-Nov-2020 3585.71 3292.54 70.31 3.00 349.06 2034.99
   14:02:02.437.08-Nov-2020 3585.71 3292.53 70.31 3.00 349.26 2034.99
   14:02:02.637.08-Nov-2020 3585.71 3292.53 70.31 3.00 349.46 2034.99
   14:02:02.836.08-Nov-2020 3585.71 3292.52 70.31 3.00 349.66 2034.99
   14:02:03.036.08-Nov-2020 3585.71 3292.54 70.31 3.00 349.86 2034.99
   14:02:03.236.08-Nov-2020 3585.71 3292.68 70.31 3.00 350.06 2034.99
   14:02:03.436.08-Nov-2020 3585.71 3292.63 70.31 3.00 350.26 2034.99
   14:02:03.636.08-Nov-2020 3585.71 3292.60 70.31 3.00 350.46 2034.99
   14:02:03.835.08-Nov-2020 3585.71 3292.62 70.31 3.00 350.66 2034.99
   14:02:04.035.08-Nov-2020 3585.71 3292.62 70.31 3.00 350.86 2034.99
   14:02:04.235.08-Nov-2020 3585.71 3292.56 70.30 3.00 351.06 2034.99
   14:02:04.435.08-Nov-2020 3585.71 3292.55 70.30 3.00 351.26 2034.99
   14:02:04.635.08-Nov-2020 3585.71 3292.53 70.30 3.00 351.46 2034.99
   14:02:04.834.08-Nov-2020 3585.71 3292.52 70.30 3.00 351.66 2034.99
   14:02:05.034.08-Nov-2020 3585.71 3292.52 70.30 3.00 351.86 2034.99
   14:02:05.234.08-Nov-2020 3585.71 3292.51 70.30 3.00 352.06 2034.99
   14:02:05.434.08-Nov-2020 3585.71 3292.44 70.30 3.00 352.26 2034.99
   14:02:05.634.08-Nov-2020 3585.71 3292.71 70.30 3.00 352.46 2034.99
   14:02:05.833.08-Nov-2020 3585.71 3292.68 70.30 3.00 352.66 2034.99
   14:02:06.033.08-Nov-2020 3585.71 3292.68 70.30 3.00 352.86 2034.99
   14:02:06.233.08-Nov-2020 3585.71 3292.76 70.29 3.00 353.06 2034.99
   14:02:06.433.08-Nov-2020 3585.71 3292.72 70.29 3.00 353.26 2034.99
   14:02:06.633.08-Nov-2020 3585.71 3292.69 70.29 3.00 353.46 2034.99
   14:02:06.832.08-Nov-2020 3585.71 3292.71 70.29 3.00 353.66 2034.99
   14:02:07.032.08-Nov-2020 3585.71 3292.66 70.29 3.00 353.86 2034.99
   14:02:07.232.08-Nov-2020 3585.71 3292.79 70.29 3.00 354.06 2034.99
   14:02:07.432.08-Nov-2020 3585.71 3292.71 70.29 3.00 354.26 2034.99
   14:02:07.632.08-Nov-2020 3585.71 3292.68 70.29 3.00 354.46 2034.99
   14:02:07.832.08-Nov-2020 3585.71 3292.69 70.29 3.00 354.66 2034.99
   14:02:08.031.08-Nov-2020 3585.71 3292.69 70.29 3.00 354.86 2034.99
   14:02:08.231.08-Nov-2020 3585.71 3292.78 70.28 3.00 355.06 2034.99
   14:02:08.431.08-Nov-2020 3585.71 3292.74 70.28 3.00 355.26 2034.99
   14:02:08.631.08-Nov-2020 3585.71 3292.68 70.28 3.00 355.46 2034.99
   14:02:08.831.08-Nov-2020 3585.71 3292.69 70.28 3.00 355.66 2034.99
   14:02:09.030.08-Nov-2020 3585.71 3292.69 70.28 3.00 355.86 2034.99
   14:02:09.230.08-Nov-2020 3585.71 3292.78 70.28 3.00 356.06 2034.99
   14:02:09.430.08-Nov-2020 3585.71 3292.76 70.28 3.00 356.26 2034.99
   14:02:09.630.08-Nov-2020 3585.71 3292.71 70.28 3.00 356.46 2034.99
   14:02:09.830.08-Nov-2020 3585.71 3292.73 70.27 3.00 356.66 2034.99
   14:02:10.029.08-Nov-2020 3585.71 3292.73 70.27 3.00 356.86 2034.99
   14:02:10.229.08-Nov-2020 3585.71 3292.66 70.27 3.00 357.06 2034.99
   14:02:10.429.08-Nov-2020 3585.71 3292.66 70.27 3.00 357.26 2034.99
   14:02:10.629.08-Nov-2020 3585.71 3292.64 70.27 3.00 357.46 2034.99
   14:02:10.829.08-Nov-2020 3585.71 3292.62 70.27 3.00 357.66 2034.99
   14:02:11.028.08-Nov-2020 3585.71 3292.61 70.27 3.00 357.86 2034.99
   14:02:11.228.08-Nov-2020 3585.71 3292.59 70.27 3.00 358.06 2034.99
   14:02:11.428.08-Nov-2020 3585.71 3292.59 70.27 3.00 358.25 2034.99
   14:02:11.628.08-Nov-2020 3585.71 3292.57 70.27 3.00 358.45 2034.99
   14:02:11.828.08-Nov-2020 3585.71 3292.55 70.26 3.00 358.65 2034.99
   14:02:12.027.08-Nov-2020 3585.71 3292.55 70.26 3.00 358.85 2034.99
   14:02:12.227.08-Nov-2020 3585.71 3292.76 70.26 3.00 359.05 2034.99
   14:02:12.427.08-Nov-2020 3585.71 3292.70 70.26 3.00 359.25 2034.99
   14:02:12.627.08-Nov-2020 3585.71 3292.70 70.26 3.00 359.45 2034.99
   14:02:12.827.08-Nov-2020 3585.71 3292.64 70.26 3.00 359.65 2034.99
   14:02:13.027.08-Nov-2020 3585.71 3292.64 70.26 3.00 359.85 2034.99
   14:02:13.226.08-Nov-2020 3585.71 3292.61 70.26 3.00 360.05 2034.99
   14:02:13.426.08-Nov-2020 3585.71 3292.59 70.26 3.00 360.25 2034.99
   14:02:13.626.08-Nov-2020 3585.71 3292.59 70.26 3.00 360.45 2034.99
   14:02:13.826.08-Nov-2020 3585.71 3292.57 70.25 3.00 360.65 2034.99
   14:02:14.026.08-Nov-2020 3585.71 3292.57 70.25 3.00 360.85 2034.99
   14:02:14.225.08-Nov-2020 3585.71 3292.92 70.25 3.00 361.05 2034.99
   14:02:14.425.08-Nov-2020 3585.71 3297.45 70.25 3.00 361.25 2034.99
   14:02:14.625.08-Nov-2020 3585.71 3299.93 70.25 3.00 361.45 2034.99
   14:02:14.825.08-Nov-2020 3585.71 3245.53 70.25 3.00 361.65 2034.99
   14:02:15.025.08-Nov-2020 3585.71 3189.67 70.25 3.00 361.85 2034.99
   14:02:15.224.08-Nov-2020 3585.71 3169.23 70.25 3.00 362.05 2034.99
   14:02:15.424.08-Nov-2020 3585.71 3173.38 70.25 3.00 362.25 2034.99
   14:02:15.624.08-Nov-2020 3585.71 3242.33 70.25 3.00 362.45 2034.99
   14:02:15.824.08-Nov-2020 3585.71 3253.86 70.24 3.00 362.65 2034.99
   14:02:16.024.08-Nov-2020 3585.71 3253.86 70.24 3.00 362.85 2034.99
   14:02:16.223.08-Nov-2020 3585.71 3148.13 70.24 3.00 363.05 2034.99
   14:02:16.423.08-Nov-2020 3585.71 3168.34 70.24 3.00 363.25 2034.99
   14:02:16.623.08-Nov-2020 3585.71 3630.46 70.24 3.00 363.45 2034.99
   14:02:16.823.08-Nov-2020 3585.71 4313.41 70.24 3.00 363.65 2034.99
   14:02:17.023.08-Nov-2020 3585.71 4313.41 70.24 3.00 363.85 2034.99
   14:02:17.222.08-Nov-2020 3585.71 4342.61 70.24 3.00 364.05 2034.99
   14:02:17.422.08-Nov-2020 3585.71 4342.30 70.24 3.00 364.25 2034.99
   14:02:17.622.08-Nov-2020 3585.71 4341.94 70.24 3.00 364.45 2034.99
   14:02:17.822.08-Nov-2020 3585.71 4347.56 70.23 3.00 364.65 2034.99
   14:02:18.022.08-Nov-2020 3585.71 4347.56 70.23 3.00 364.85 2034.99
   14:02:18.222.08-Nov-2020 3585.71 4346.07 70.23 3.00 365.05 2034.99
   14:02:18.421.08-Nov-2020 3585.71 4344.63 70.23 3.00 365.25 2034.99
   14:02:18.621.08-Nov-2020 3585.71 4345.07 70.23 3.00 365.45 2034.99
   14:02:18.821.08-Nov-2020 3585.71 4345.22 70.23 3.00 365.65 2034.99
   14:02:19.021.08-Nov-2020 3585.71 4345.22 70.23 3.00 365.85 2034.99
   14:02:19.221.08-Nov-2020 3585.71 4343.71 70.23 3.00 366.05 2034.99
   14:02:19.420.08-Nov-2020 3585.71 4343.42 70.23 3.00 366.25 2034.99
   14:02:19.620.08-Nov-2020 3585.71 4343.72 70.23 3.00 366.45 2034.99
   14:02:19.820.08-Nov-2020 3585.71 4344.24 70.23 3.00 366.65 2034.99
   14:02:20.020.08-Nov-2020 3585.71 4344.24 70.23 3.00 366.85 2034.99
   14:02:20.220.08-Nov-2020 3585.71 4344.99 70.23 3.00 367.05 2034.99
   14:02:20.419.08-Nov-2020 3585.71 4345.27 70.23 3.00 367.25 2034.99
   14:02:20.619.08-Nov-2020 3585.71 4345.79 70.23 3.00 367.45 2034.99
