~Version Information
 VERS.                  2.0:   CWLS log ASCII Standard -VERSION 2.0
 WRAP.                   NO:   One line per depth step
~Well Information Block
#MNEM.UNIT     VALUE/NAME     DESCRIPTION
#---------     -----------    ---------------------------
 STRT.S             22:31:45 10-Nov-20: START TIME 22:31:45 10-Nov-20
 STOP.S             22:38:18 10-Nov-20: STOP TIME  22:38:18 10-Nov-20
 STEP.S                   0.00: STEP TIME
 NULL.                 -999.25: NULL VALUE
 DFWT.                        :  DIST FWL TEXT
 DFST.                        :  DIST FSL TEXT
 DMF .             Drill Floor:  DRILL MEAS FROM
 STIM.      04.54.24 22-Sep-20:  START TIME
 DATE.      04.54.24 21-Nov-20:  END TIME
 SPUD.               21-Nov-20:  SPUD DATE
 NREF.                    Grid:  NORTH REFERENCE
 HPTY.       Minimum Curvature:  HOLE POS TYPE
 DMOD.             Drill Model:  DRILL MOD DESC
 SVYD.                  Survey:  SURVEY DESC
 ILTD.               Lithology:  INTERP LTH DESC
 FTOP.          Formation Tops:  FORM TOPS DESC
 SON .        AZ-XX-0906571587:  JOB NUMBER
 COMP.     BP Exploration (Caspian Sea) Ltd:  COMPANY
 UWI .                     N/A:  UNIQUE WELL IDENTIFIER
 API .                     N/A:  API NUMBER
 BASE.              Azerbaijan:  LOGGING EQUIPMENT BASE LOCATION
 REGN.                   EESSA:  REGION
 PROV.                    Baku:  PROVINCE
 STAT.                    Baku:  STATE NAME
 CTRY.              Azerbaijan:  COUNTRY NAME
 FLD .                     ACG:  FIELD NAME
 SRVC.     TURAN Drilling & Engineering:  CONTRACTOR
 WELL.                     J27:  WELL NAME
 RIG .             West Chirag:  RIG NAME
 DOE .                     N/A:  DOE NUMBER
 DCON.         Sperry Drilling:  DIRECTNL CONTR
 PDAT.          Mean Sea Level:  PERMANENT DATUM
 WTYP.                Deviated:  WELL TYPE
 MWDS.                    Baku:  MWD SHOP
 JOBN.        AZ-XX-0906571587:  JOB TICKET NUMB
 UNIT.                     N/A:  LOGGING EQUIPMENT ID
 MDS .        Operator Entered:  MAG DATA SOURCE
 CNTY.                        :  COUNTY
 LOC .                        :  LOCATION
 LMF .             Drill Floor:  LOG MEASURED FROM
 TVDS.m                  43.00:  TVDSS CORRECTN
 LATI.deg                40.13:  LATITUDE
 LONG.deg                51.22:  LONGITUDE
 WHNS.m                   7.72:  WELL HEAD N/S
 WHEW.m                 -14.24:  WELL HEAD E/W
 UTMX.m              519005.06:  UTM X
 UTMY.m             4443793.85:  UTM Y
 DFWL.m                   0.00:  DISTANCE FWL
 DFSL.m                   0.00:  DISTANCE FSL
 SDEP.m                 347.00:  START DEPTH
 TDD .m                 581.00:  TOTAL DEPTH (DRILLER)
 VSDR.deg               159.72:  VERT SEC DIRECT
 GVFD.g                   1.00:  GRAVITY FIELD
 MFLD.nT              50313.00:  MAGNETIC FIELD
 MDIP.deg                59.58:  MAGNETIC DIP
 MDEC.deg                 6.45:  MAGNETIC DECL
 GRDC.deg                 0.15:  GRID CORRECTION
 AZTC.deg                 6.30:  AZM TOTAL CORR
 EPD .m                   0.00:  ELEVATION
 EGL .m                   0.00:  GROUND ELEVATION
 WDMS.m                 169.80:  WD ELEV
 APD .m                  43.00:  DEPTH ABOVE PD
 AGAP.m                  43.00:  AIR GAP
 VSEW.m                 -14.24:  VERT SEC E/W
 VSNS.m                   7.72:  VERT SEC N/S
 DEP .m                 342.45:  DEPTH
 EKB .m                   0.00:  KB ELEVATION
 EDF .m                  43.00:  DF ELEVATION
 TDL .m                1313.00:  TOTAL DEPTH (LOGGER)
 VSC .                       0:  VS TO CLOSURE
 MAGU.                 1851396:  MAGUTM CHECKSUM
~Parameter Information Block
#MNEM.UNIT       Value        Description
#---------     -----------    ---------------------------
 AV  .mps                 0.65:  Ann Velocity 
 AVMX.mps                 0.75:  Max Ann Veloc 
 AZIF.deg               115.08:  Azm, Final 
 BHAT.        Rotary Steerable:  BHA Type 
 BROT.°/30m               1.50:  Build Rotating 
 BS  .in                 12.25:  Bit Size 
 BSZ .in                 12.25:  Bit Size 
 BTPL.psig              700.00:  Bit Press Loss 
 CABU.                     Yes:  Customer Abuse 
 COMM.                     ”Õ`:  Run Comments 1 
 TCS .hr                121.00:  Time Ciculation Ended 
 CV  .mps                 1.83:  Crit Velocity 
 CVMX.mps                 1.83:  Max Crit Veloc 
 DD1 .          Rashad Habibov:  Direct Drillr 1 
 DD2 .         Rasim Ibrahimov:  Direct Drillr 2 
 DDSV.                 iCruise:  DD Service 
 DEFF.%                 100.00:  % Det Eff 
 DLRX.°/30m               3.60:  Dogleg Rot Max 
 DLSO.°/30m               3.10:  Dogleg Oriented 
 DLSX.°/30m               3.60:  Dogleg Str Max 
 DRET.      13.41.20 12-Nov-20:  Drill End Time 
 DRST.      13.41.20 07-Nov-20:  Drill Start Tim 
 DTIM.hr                 54.16:  Time Drilling 
 EDEP.m                4762.01:  End Depth 
 ENG1.           Amrah Tahirov:  Engineer 1 
 ENG2.      Bakhtiyar Jabbarli:  Engineer 2 
 ENG3.          Ruslan Safarov:  Engineer 3 
 ETIM.      13.41.20 14-Nov-20:  End Time 
 FLOI.gpm              1200.00:  Flow In 
 FLON.gpm              1100.00:  Flow In Min 
 FLOS.cptm                0.00:  Fluid Loss 
 FLOX.gpm              1200.00:  Flow In Max 
 HFLO.                      No:  High Flow 
 HPRE.                      No:  High Pressure 
 HTEM.                      No:  High Temp 
 HYDO.m                   2.00:  Hydro Offset 
 IFIN.deg                66.14:  Inc, Final 
 IMAX.deg                69.03:  Inc Max 
 IMIN.deg                64.64:  Inc Min 
 IMND.m                4450.16:  Inc Min Depth 
 IMXD.m                3996.00:  Inc Max Depth 
 JARR.                     Yes:  Jarring 
 LETM.      13.41.20 14-Nov-20:  Log End Time 
 LOST.hr                     0:  Lost Rig Time 
 LSTM.      13.41.20 06-Nov-20:  Log Start Time 
 MDCL.ppm             42500.00:  Mud Chlorides 
 MDES.     Inversion Oil/Synthetic:  Mud Desc 
 DFD .sg                  1.45:  Mud Density 
 MDMN.sg                  1.45:  Dens Mud Min 
 MDMX.sg                  1.45:  Dens Mud Max 
 MOIL.                      70:  Run Mud Oil % 
 MOWR.                   70:30:  Run Mud OWR 
 MSND.                       0:  Run Mud Sand % 
 MSOL.                    19.3:  Run Mud Solids% 
 DFV .spqt               77.00:  Mud Viscosity 
 MWOD.in                  8.00:  MWD Tool OD 
 MWSI.                      No:  Serv Intrp, MWD 
 OTIM.hr                201.88:  Time Operating 
 PCON.           Look Like New:  Pad Condition 
 PMAX.psia             9250.94:  Press Op, Max 
 PV  .cP                 29.00:  Mud PV 
 RUN .                     800:  Run Number 
 ROPA.m/hr               28.00:  ROP Avg 
 ROPN.m/hr               25.00:  ROP Min 
 ROPX.m/hr               30.00:  ROP Max 
 RPMA.rpm               160.00:  RPM Surface Avg 
 RPMN.rpm               160.00:  RPM Surface Min 
 RPMX.rpm               160.00:  RPM Surface Max 
 RRUN.                    0800:  Rig Run Number 
 RTIM.hr                 12.00:  Time Reaming 
 SAZI.deg               169.33:  Azm, Start 
 SDEP.m                3449.01:  Start Depth 
 SIDD.                      No:  Serv Intrp, DD 
 SINC.deg                68.01:  Inc, Start 
 SPPA.psig             4900.00:  SPP Avg 
 SPPN.psig             4800.00:  SPP Min 
 SPPX.psig             5050.00:  SPP Max 
 STIM.      13.41.20 06-Nov-20:  Start Time 
 SVCS.                 DD, MWD:  Services 
 SVER.                    9.20:  Sperry Version 
 TDAT.m                4762.01:  Tot Depth Attmp 
 TDDF.                      No:  Trip for DD 
 TDLG.m                1313.00:  Tot Depth Loggd 
 TFF .                      No:  Trip for Fail 
 TQAA.f-kp               13.00:  Torque Abs Avg 
 TQAN.f-kp               13.00:  Torque Abs Min 
 TQAX.f-kp               13.00:  Torque Abs Max 
 TRRT.°/30m               1.70:  Turn Rotating 
 MRT .                  EWR-M5:  Maximum Recorded Temperature 
 TTMX.degC               86.00:  Max Tool Temp 
 VS01.                90622122:  Virtual Str1 SN 
 VS02.                90577298:  Virtual Str2 SN 
 VS03.                90563623:  Virtual Str3 SN 
 VS04.                90617559:  Virtual Str4 SN 
 VS05.                11339492:  Virtual Str5 SN 
 VS06.                12385033:  Virtual Str6 SN 
 WBMN.klb                 0.00:  WOB Min 
 WOBA.klb                22.00:  WOB Avg 
 WOBX.klb                26.00:  WOB Max 
 YP  .lhf2               30.00:  Yield Point 
~Curve Information Block
#MNEM.UNIT                 API CODE     Curve Description
#---------               -----------    ---------------------------
 TIME.HHMMSS            00 000 000 000:  GT Time & Date
 GTDEPTH.m              00 000 000 000:  GT Depth
 GTPQH.psia             00 000 000 000:  GT HR Quartz Pressure
 GTTQ.degC              00 000 000 000:  GT Quartz Temperature
 GTTN.NONE              00 000 000 000:  GT Test Number
 GTET.sec               00 000 000 000:  GT Elapsed Test Time
 GTTVD.m                00 000 000 000:  GT True Vertical Depth
#Other Information
#
#WARRANTY: Halliburton will use its best efforts to furnish customers with 
#accurate information and interpretations that are part of, and incident to, the services 
#provided.  However, Halliburton cannot and does not warrant the accuracy 
#or correctness of such information and interpretations.  Under no circumstances should any 
#such information or interpretation be relied upon as the sole basis for any drilling, 
#completion, production, or financial decision or any procedure involving any risk to the 
#safety of any drilling venture, drilling rig or its crew or any other third party.  The 
#Customer has full responsibility for all drilling, completion and production operation.  
#Halliburton makes no representations or warranties, either expressed or 
#implied, including, but not limited to, the implied warranties of merchantability or fitness 
#for a particular purpose, with respect to the services rendered.  In no event will 
#Halliburton be liable for failure to obtain any particular results or for 
#any damages, including, but not limited to, indirect, special or consequential damages, 
#resulting from the use of any information or interpretation provided by Halliburton.
#
~A           TIME           GTDEPTH  GTPQH  GTTQ  GTTN  GTET   GTTVD  
# ...
   22:36:44.802.10-Nov-2020 4535.01 4060.91 81.70 6.00 299.04 2393.67
   22:36:45.002.10-Nov-2020 4535.01 4060.80 81.70 6.00 299.24 2393.67
   22:36:45.202.10-Nov-2020 4535.01 4060.88 81.70 6.00 299.44 2393.67
   22:36:45.402.10-Nov-2020 4535.01 4060.93 81.70 6.00 299.64 2393.67
   22:36:45.602.10-Nov-2020 4535.01 4060.88 81.69 6.00 299.84 2393.67
   22:36:45.802.10-Nov-2020 4535.01 4060.92 81.69 6.00 300.04 2393.67
   22:36:46.002.10-Nov-2020 4535.01 4060.92 81.69 6.00 300.24 2393.67
   22:36:46.202.10-Nov-2020 4535.01 4060.86 81.69 6.00 300.44 2393.67
   22:36:46.402.10-Nov-2020 4535.01 4060.94 81.69 6.00 300.64 2393.67
   22:36:46.602.10-Nov-2020 4535.01 4061.09 81.69 6.00 300.84 2393.67
   22:36:46.802.10-Nov-2020 4535.01 4060.85 81.69 6.00 301.04 2393.67
   22:36:47.002.10-Nov-2020 4535.01 4060.85 81.69 6.00 301.24 2393.67
   22:36:47.202.10-Nov-2020 4535.01 4060.71 81.69 6.00 301.44 2393.67
   22:36:47.402.10-Nov-2020 4535.01 4060.86 81.68 6.00 301.64 2393.67
   22:36:47.603.10-Nov-2020 4535.01 4060.86 81.68 6.00 301.84 2393.67
   22:36:47.803.10-Nov-2020 4535.01 4060.88 81.68 6.00 302.04 2393.67
   22:36:48.003.10-Nov-2020 4535.01 4060.88 81.68 6.00 302.24 2393.67
   22:36:48.203.10-Nov-2020 4535.01 4060.86 81.68 6.00 302.44 2393.67
   22:36:48.403.10-Nov-2020 4535.01 4060.84 81.68 6.00 302.64 2393.67
   22:36:48.603.10-Nov-2020 4535.01 4061.02 81.68 6.00 302.84 2393.67
   22:36:48.803.10-Nov-2020 4535.01 4060.99 81.68 6.00 303.04 2393.67
   22:36:49.003.10-Nov-2020 4535.01 4061.06 81.68 6.00 303.24 2393.67
   22:36:49.203.10-Nov-2020 4535.01 4060.90 81.68 6.00 303.44 2393.67
   22:36:49.403.10-Nov-2020 4535.01 4060.96 81.67 6.00 303.64 2393.67
   22:36:49.603.10-Nov-2020 4535.01 4061.00 81.67 6.00 303.84 2393.67
   22:36:49.803.10-Nov-2020 4535.01 4060.93 81.67 6.00 304.04 2393.67
   22:36:50.003.10-Nov-2020 4535.01 4061.00 81.67 6.00 304.24 2393.67
   22:36:50.203.10-Nov-2020 4535.01 4060.82 81.67 6.00 304.44 2393.67
   22:36:50.403.10-Nov-2020 4535.01 4060.89 81.67 6.00 304.64 2393.67
   22:36:50.603.10-Nov-2020 4535.01 4060.96 81.67 6.00 304.84 2393.67
   22:36:50.803.10-Nov-2020 4535.01 4060.93 81.67 6.00 305.04 2393.67
   22:36:51.003.10-Nov-2020 4535.01 4060.93 81.67 6.00 305.24 2393.67
   22:36:51.203.10-Nov-2020 4535.01 4060.92 81.67 6.00 305.44 2393.67
   22:36:51.403.10-Nov-2020 4535.01 4060.95 81.66 6.00 305.64 2393.67
   22:36:51.603.10-Nov-2020 4535.01 4060.97 81.66 6.00 305.84 2393.67
   22:36:51.803.10-Nov-2020 4535.01 4060.93 81.66 6.00 306.04 2393.67
   22:36:52.003.10-Nov-2020 4535.01 4060.93 81.66 6.00 306.24 2393.67
   22:36:52.203.10-Nov-2020 4535.01 4060.89 81.66 6.00 306.44 2393.67
   22:36:52.403.10-Nov-2020 4535.01 4060.95 81.66 6.00 306.64 2393.67
   22:36:52.603.10-Nov-2020 4535.01 4060.90 81.66 6.00 306.84 2393.67
   22:36:52.803.10-Nov-2020 4535.01 4060.83 81.66 6.00 307.04 2393.67
   22:36:53.003.10-Nov-2020 4535.01 4060.83 81.66 6.00 307.24 2393.67
   22:36:53.203.10-Nov-2020 4535.01 4060.83 81.66 6.00 307.44 2393.67
   22:36:53.403.10-Nov-2020 4535.01 4060.95 81.65 6.00 307.64 2393.67
   22:36:53.603.10-Nov-2020 4535.01 4060.95 81.65 6.00 307.84 2393.67
   22:36:53.803.10-Nov-2020 4535.01 4060.82 81.65 6.00 308.04 2393.67
   22:36:54.003.10-Nov-2020 4535.01 4060.82 81.65 6.00 308.24 2393.67
   22:36:54.203.10-Nov-2020 4535.01 4060.92 81.65 6.00 308.44 2393.67
   22:36:54.403.10-Nov-2020 4535.01 4060.88 81.65 6.00 308.64 2393.67
   22:36:54.603.10-Nov-2020 4535.01 4060.93 81.65 6.00 308.84 2393.67
   22:36:54.803.10-Nov-2020 4535.01 4060.88 81.65 6.00 309.04 2393.67
   22:36:55.004.10-Nov-2020 4535.01 4060.88 81.65 6.00 309.24 2393.67
   22:36:55.204.10-Nov-2020 4535.01 4060.94 81.65 6.00 309.44 2393.67
   22:36:55.404.10-Nov-2020 4535.01 4061.14 81.64 6.00 309.64 2393.67
   22:36:55.604.10-Nov-2020 4535.01 4060.94 81.64 6.00 309.84 2393.67
   22:36:55.804.10-Nov-2020 4535.01 4060.92 81.64 6.00 310.04 2393.67
   22:36:56.004.10-Nov-2020 4535.01 4060.94 81.64 6.00 310.24 2393.67
   22:36:56.204.10-Nov-2020 4535.01 4060.84 81.64 6.00 310.44 2393.67
   22:36:56.404.10-Nov-2020 4535.01 4060.79 81.64 6.00 310.64 2393.67
   22:36:56.604.10-Nov-2020 4535.01 4060.90 81.64 6.00 310.84 2393.67
   22:36:56.804.10-Nov-2020 4535.01 4060.98 81.64 6.00 311.04 2393.67
   22:36:57.004.10-Nov-2020 4535.01 4060.71 81.64 6.00 311.24 2393.67
   22:36:57.204.10-Nov-2020 4535.01 4060.94 81.64 6.00 311.44 2393.67
   22:36:57.404.10-Nov-2020 4535.01 4060.97 81.63 6.00 311.64 2393.67
   22:36:57.604.10-Nov-2020 4535.01 4060.93 81.63 6.00 311.84 2393.67
   22:36:57.804.10-Nov-2020 4535.01 4060.99 81.63 6.00 312.04 2393.67
   22:36:58.004.10-Nov-2020 4535.01 4060.99 81.63 6.00 312.24 2393.67
   22:36:58.204.10-Nov-2020 4535.01 4060.92 81.63 6.00 312.44 2393.67
   22:36:58.404.10-Nov-2020 4535.01 4061.00 81.63 6.00 312.64 2393.67
   22:36:58.604.10-Nov-2020 4535.01 4060.93 81.63 6.00 312.84 2393.67
   22:36:58.804.10-Nov-2020 4535.01 4061.08 81.63 6.00 313.04 2393.67
   22:36:59.004.10-Nov-2020 4535.01 4061.08 81.63 6.00 313.24 2393.67
   22:36:59.204.10-Nov-2020 4535.01 4060.85 81.62 6.00 313.44 2393.67
   22:36:59.404.10-Nov-2020 4535.01 4060.96 81.62 6.00 313.64 2393.67
   22:36:59.604.10-Nov-2020 4535.01 4060.92 81.62 6.00 313.84 2393.67
   22:36:59.804.10-Nov-2020 4535.01 4060.87 81.62 6.00 314.04 2393.67
   22:37:00.004.10-Nov-2020 4535.01 4060.87 81.62 6.00 314.24 2393.67
   22:37:00.204.10-Nov-2020 4535.01 4060.98 81.62 6.00 314.44 2393.67
   22:37:00.404.10-Nov-2020 4535.01 4060.98 81.62 6.00 314.64 2393.67
   22:37:00.604.10-Nov-2020 4535.01 4060.96 81.62 6.00 314.84 2393.67
   22:37:00.804.10-Nov-2020 4535.01 4060.93 81.62 6.00 315.04 2393.67
   22:37:01.004.10-Nov-2020 4535.01 4060.89 81.62 6.00 315.24 2393.67
   22:37:01.204.10-Nov-2020 4535.01 4060.95 81.61 6.00 315.44 2393.67
   22:37:01.404.10-Nov-2020 4535.01 4060.90 81.61 6.00 315.64 2393.67
   22:37:01.604.10-Nov-2020 4535.01 4060.88 81.61 6.00 315.84 2393.67
   22:37:01.804.10-Nov-2020 4535.01 4060.84 81.61 6.00 316.04 2393.67
   22:37:02.004.10-Nov-2020 4535.01 4060.84 81.61 6.00 316.24 2393.67
   22:37:02.204.10-Nov-2020 4535.01 4060.92 81.61 6.00 316.44 2393.67
   22:37:02.405.10-Nov-2020 4535.01 4060.87 81.61 6.00 316.64 2393.67
   22:37:02.605.10-Nov-2020 4535.01 4060.88 81.61 6.00 316.84 2393.67
   22:37:02.805.10-Nov-2020 4535.01 4060.92 81.61 6.00 317.04 2393.67
   22:37:03.005.10-Nov-2020 4535.01 4060.92 81.61 6.00 317.24 2393.67
   22:37:03.205.10-Nov-2020 4535.01 4060.92 81.60 6.00 317.44 2393.67
   22:37:03.405.10-Nov-2020 4535.01 4060.95 81.60 6.00 317.64 2393.67
   22:37:03.605.10-Nov-2020 4535.01 4060.89 81.60 6.00 317.84 2393.67
   22:37:03.805.10-Nov-2020 4535.01 4060.90 81.60 6.00 318.04 2393.67
   22:37:04.005.10-Nov-2020 4535.01 4060.90 81.60 6.00 318.24 2393.67
   22:37:04.205.10-Nov-2020 4535.01 4060.94 81.60 6.00 318.44 2393.67
   22:37:04.405.10-Nov-2020 4535.01 4060.95 81.60 6.00 318.64 2393.67
   22:37:04.605.10-Nov-2020 4535.01 4060.85 81.60 6.00 318.84 2393.67
   22:37:04.805.10-Nov-2020 4535.01 4061.16 81.60 6.00 319.04 2393.67
   22:37:05.005.10-Nov-2020 4535.01 4060.91 81.60 6.00 319.24 2393.67
   22:37:05.205.10-Nov-2020 4535.01 4060.76 81.59 6.00 319.44 2393.67
   22:37:05.405.10-Nov-2020 4535.01 4060.85 81.59 6.00 319.64 2393.67
   22:37:05.605.10-Nov-2020 4535.01 4061.08 81.59 6.00 319.84 2393.67
   22:37:05.805.10-Nov-2020 4535.01 4060.65 81.59 6.00 320.04 2393.67
   22:37:06.005.10-Nov-2020 4535.01 4060.96 81.59 6.00 320.24 2393.67
   22:37:06.205.10-Nov-2020 4535.01 4060.96 81.59 6.00 320.44 2393.67
   22:37:06.405.10-Nov-2020 4535.01 4060.93 81.59 6.00 320.64 2393.67
   22:37:06.605.10-Nov-2020 4535.01 4061.03 81.59 6.00 320.84 2393.67
   22:37:06.805.10-Nov-2020 4535.01 4061.14 81.59 6.00 321.04 2393.67
   22:37:07.005.10-Nov-2020 4535.01 4060.97 81.59 6.00 321.24 2393.67
   22:37:07.205.10-Nov-2020 4535.01 4060.89 81.58 6.00 321.44 2393.67
   22:37:07.405.10-Nov-2020 4535.01 4060.90 81.58 6.00 321.64 2393.67
   22:37:07.605.10-Nov-2020 4535.01 4060.96 81.58 6.00 321.84 2393.67
