~Version Information
 VERS.                  2.0:   CWLS log ASCII Standard -VERSION 2.0
 WRAP.                   NO:   One line per depth step
~Well Information Block
#MNEM.UNIT     VALUE/NAME     DESCRIPTION
#---------     -----------    ---------------------------
 STRT.S             13:56:13 08-Nov-20: START TIME 13:56:13 08-Nov-20
 STOP.S             14:02:43 08-Nov-20: STOP TIME  14:02:43 08-Nov-20
 STEP.S                   0.00: STEP TIME
 NULL.                 -999.25: NULL VALUE
 DFWT.                        :  DIST FWL TEXT
 DFST.                        :  DIST FSL TEXT
 DMF .             Drill Floor:  DRILL MEAS FROM
 STIM.      04.54.24 22-Sep-20:  START TIME
 DATE.      04.54.24 21-Nov-20:  END TIME
 SPUD.               21-Nov-20:  SPUD DATE
 NREF.                    Grid:  NORTH REFERENCE
 HPTY.       Minimum Curvature:  HOLE POS TYPE
 DMOD.             Drill Model:  DRILL MOD DESC
 SVYD.                  Survey:  SURVEY DESC
 ILTD.               Lithology:  INTERP LTH DESC
 FTOP.          Formation Tops:  FORM TOPS DESC
 SON .        AZ-XX-0906571587:  JOB NUMBER
 COMP.     BP Exploration (Caspian Sea) Ltd:  COMPANY
 UWI .                     N/A:  UNIQUE WELL IDENTIFIER
 API .                     N/A:  API NUMBER
 BASE.              Azerbaijan:  LOGGING EQUIPMENT BASE LOCATION
 REGN.                   EESSA:  REGION
 PROV.                    Baku:  PROVINCE
 STAT.                    Baku:  STATE NAME
 CTRY.              Azerbaijan:  COUNTRY NAME
 FLD .                     ACG:  FIELD NAME
 SRVC.     TURAN Drilling & Engineering:  CONTRACTOR
 WELL.                     J27:  WELL NAME
 RIG .             West Chirag:  RIG NAME
 DOE .                     N/A:  DOE NUMBER
 DCON.         Sperry Drilling:  DIRECTNL CONTR
 PDAT.          Mean Sea Level:  PERMANENT DATUM
 WTYP.                Deviated:  WELL TYPE
 MWDS.                    Baku:  MWD SHOP
 JOBN.        AZ-XX-0906571587:  JOB TICKET NUMB
 UNIT.                     N/A:  LOGGING EQUIPMENT ID
 MDS .        Operator Entered:  MAG DATA SOURCE
 CNTY.                        :  COUNTY
 LOC .                        :  LOCATION
 LMF .             Drill Floor:  LOG MEASURED FROM
 TVDS.m                  43.00:  TVDSS CORRECTN
 LATI.deg                40.13:  LATITUDE
 LONG.deg                51.22:  LONGITUDE
 WHNS.m                   7.72:  WELL HEAD N/S
 WHEW.m                 -14.24:  WELL HEAD E/W
 UTMX.m              519005.06:  UTM X
 UTMY.m             4443793.85:  UTM Y
 DFWL.m                   0.00:  DISTANCE FWL
 DFSL.m                   0.00:  DISTANCE FSL
 SDEP.m                 347.00:  START DEPTH
 TDD .m                 581.00:  TOTAL DEPTH (DRILLER)
 VSDR.deg               159.72:  VERT SEC DIRECT
 GVFD.g                   1.00:  GRAVITY FIELD
 MFLD.nT              50313.00:  MAGNETIC FIELD
 MDIP.deg                59.58:  MAGNETIC DIP
 MDEC.deg                 6.45:  MAGNETIC DECL
 GRDC.deg                 0.15:  GRID CORRECTION
 AZTC.deg                 6.30:  AZM TOTAL CORR
 EPD .m                   0.00:  ELEVATION
 EGL .m                   0.00:  GROUND ELEVATION
 WDMS.m                 169.80:  WD ELEV
 APD .m                  43.00:  DEPTH ABOVE PD
 AGAP.m                  43.00:  AIR GAP
 VSEW.m                 -14.24:  VERT SEC E/W
 VSNS.m                   7.72:  VERT SEC N/S
 DEP .m                 342.45:  DEPTH
 EKB .m                   0.00:  KB ELEVATION
 EDF .m                  43.00:  DF ELEVATION
 TDL .m                1313.00:  TOTAL DEPTH (LOGGER)
 VSC .                       0:  VS TO CLOSURE
 MAGU.                 1851396:  MAGUTM CHECKSUM
~Parameter Information Block
#MNEM.UNIT       Value        Description
#---------     -----------    ---------------------------
 AV  .mps                 0.65:  Ann Velocity 
 AVMX.mps                 0.75:  Max Ann Veloc 
 AZIF.deg               115.08:  Azm, Final 
 BHAT.        Rotary Steerable:  BHA Type 
 BROT.°/30m               1.50:  Build Rotating 
 BS  .in                 12.25:  Bit Size 
 BSZ .in                 12.25:  Bit Size 
 BTPL.psig              700.00:  Bit Press Loss 
 CABU.                     Yes:  Customer Abuse 
 COMM.                     ì¹^:  Run Comments 1 
 TCS .hr                121.00:  Time Ciculation Ended 
 CV  .mps                 1.83:  Crit Velocity 
 CVMX.mps                 1.83:  Max Crit Veloc 
 DD1 .          Rashad Habibov:  Direct Drillr 1 
 DD2 .         Rasim Ibrahimov:  Direct Drillr 2 
 DDSV.                 iCruise:  DD Service 
 DEFF.%                 100.00:  % Det Eff 
 DLRX.°/30m               3.60:  Dogleg Rot Max 
 DLSO.°/30m               3.10:  Dogleg Oriented 
 DLSX.°/30m               3.60:  Dogleg Str Max 
 DRET.      13.41.20 12-Nov-20:  Drill End Time 
 DRST.      13.41.20 07-Nov-20:  Drill Start Tim 
 DTIM.hr                 54.16:  Time Drilling 
 EDEP.m                4762.01:  End Depth 
 ENG1.           Amrah Tahirov:  Engineer 1 
 ENG2.      Bakhtiyar Jabbarli:  Engineer 2 
 ENG3.          Ruslan Safarov:  Engineer 3 
 ETIM.      13.41.20 14-Nov-20:  End Time 
 FLOI.gpm              1200.00:  Flow In 
 FLON.gpm              1100.00:  Flow In Min 
 FLOS.cptm                0.00:  Fluid Loss 
 FLOX.gpm              1200.00:  Flow In Max 
 HFLO.                      No:  High Flow 
 HPRE.                      No:  High Pressure 
 HTEM.                      No:  High Temp 
 HYDO.m                   2.00:  Hydro Offset 
 IFIN.deg                66.14:  Inc, Final 
 IMAX.deg                69.03:  Inc Max 
 IMIN.deg                64.64:  Inc Min 
 IMND.m                4450.16:  Inc Min Depth 
 IMXD.m                3996.00:  Inc Max Depth 
 JARR.                     Yes:  Jarring 
 LETM.      13.41.20 14-Nov-20:  Log End Time 
 LOST.hr                     0:  Lost Rig Time 
 LSTM.      13.41.20 06-Nov-20:  Log Start Time 
 MDCL.ppm             42500.00:  Mud Chlorides 
 MDES.     Inversion Oil/Synthetic:  Mud Desc 
 DFD .sg                  1.45:  Mud Density 
 MDMN.sg                  1.45:  Dens Mud Min 
 MDMX.sg                  1.45:  Dens Mud Max 
 MOIL.                      70:  Run Mud Oil % 
 MOWR.                   70:30:  Run Mud OWR 
 MSND.                       0:  Run Mud Sand % 
 MSOL.                    19.3:  Run Mud Solids% 
 DFV .spqt               77.00:  Mud Viscosity 
 MWOD.in                  8.00:  MWD Tool OD 
 MWSI.                      No:  Serv Intrp, MWD 
 OTIM.hr                201.88:  Time Operating 
 PCON.           Look Like New:  Pad Condition 
 PMAX.psia             9250.94:  Press Op, Max 
 PV  .cP                 29.00:  Mud PV 
 RUN .                     800:  Run Number 
 ROPA.m/hr               28.00:  ROP Avg 
 ROPN.m/hr               25.00:  ROP Min 
 ROPX.m/hr               30.00:  ROP Max 
 RPMA.rpm               160.00:  RPM Surface Avg 
 RPMN.rpm               160.00:  RPM Surface Min 
 RPMX.rpm               160.00:  RPM Surface Max 
 RRUN.                    0800:  Rig Run Number 
 RTIM.hr                 12.00:  Time Reaming 
 SAZI.deg               169.33:  Azm, Start 
 SDEP.m                3449.01:  Start Depth 
 SIDD.                      No:  Serv Intrp, DD 
 SINC.deg                68.01:  Inc, Start 
 SPPA.psig             4900.00:  SPP Avg 
 SPPN.psig             4800.00:  SPP Min 
 SPPX.psig             5050.00:  SPP Max 
 STIM.      13.41.20 06-Nov-20:  Start Time 
 SVCS.                 DD, MWD:  Services 
 SVER.                    9.20:  Sperry Version 
 TDAT.m                4762.01:  Tot Depth Attmp 
 TDDF.                      No:  Trip for DD 
 TDLG.m                1313.00:  Tot Depth Loggd 
 TFF .                      No:  Trip for Fail 
 TQAA.f-kp               13.00:  Torque Abs Avg 
 TQAN.f-kp               13.00:  Torque Abs Min 
 TQAX.f-kp               13.00:  Torque Abs Max 
 TRRT.°/30m               1.70:  Turn Rotating 
 MRT .                  EWR-M5:  Maximum Recorded Temperature 
 TTMX.degC               86.00:  Max Tool Temp 
 VS01.                90622122:  Virtual Str1 SN 
 VS02.                90577298:  Virtual Str2 SN 
 VS03.                90563623:  Virtual Str3 SN 
 VS04.                90617559:  Virtual Str4 SN 
 VS05.                11339492:  Virtual Str5 SN 
 VS06.                12385033:  Virtual Str6 SN 
 WBMN.klb                 0.00:  WOB Min 
 WOBA.klb                22.00:  WOB Avg 
 WOBX.klb                26.00:  WOB Max 
 YP  .lhf2               30.00:  Yield Point 
~Curve Information Block
#MNEM.UNIT                 API CODE     Curve Description
#---------               -----------    ---------------------------
 TIME.HHMMSS            00 000 000 000:  GT Time & Date
 GTDEPTH.m              00 000 000 000:  GT Depth
 GTPQH.psia             00 000 000 000:  GT HR Quartz Pressure
 GTTQ.degC              00 000 000 000:  GT Quartz Temperature
 GTTN.NONE              00 000 000 000:  GT Test Number
 GTET.sec               00 000 000 000:  GT Elapsed Test Time
 GTTVD.m                00 000 000 000:  GT True Vertical Depth
#Other Information
#
#WARRANTY: Halliburton will use its best efforts to furnish customers with 
#accurate information and interpretations that are part of, and incident to, the services 
#provided.  However, Halliburton cannot and does not warrant the accuracy 
#or correctness of such information and interpretations.  Under no circumstances should any 
#such information or interpretation be relied upon as the sole basis for any drilling, 
#completion, production, or financial decision or any procedure involving any risk to the 
#safety of any drilling venture, drilling rig or its crew or any other third party.  The 
#Customer has full responsibility for all drilling, completion and production operation.  
#Halliburton makes no representations or warranties, either expressed or 
#implied, including, but not limited to, the implied warranties of merchantability or fitness 
#for a particular purpose, with respect to the services rendered.  In no event will 
#Halliburton be liable for failure to obtain any particular results or for 
#any damages, including, but not limited to, indirect, special or consequential damages, 
#resulting from the use of any information or interpretation provided by Halliburton.
#
~A           TIME           GTDEPTH  GTPQH  GTTQ  GTTN  GTET   GTTVD  
# ...
   13:57:45.085.08-Nov-2020 3585.71 3292.58 71.66 3.00  91.91 2034.99
   13:57:45.284.08-Nov-2020 3585.71 3292.58 71.66 3.00  92.11 2034.99
   13:57:45.484.08-Nov-2020 3585.71 3292.58 71.66 3.00  92.31 2034.99
   13:57:45.684.08-Nov-2020 3585.71 3292.55 71.66 3.00  92.51 2034.99
   13:57:45.884.08-Nov-2020 3585.71 3292.63 71.66 3.00  92.71 2034.99
   13:57:46.084.08-Nov-2020 3585.71 3292.62 71.66 3.00  92.91 2034.99
   13:57:46.283.08-Nov-2020 3585.71 3292.62 71.66 3.00  93.11 2034.99
   13:57:46.483.08-Nov-2020 3585.71 3292.62 71.66 3.00  93.31 2034.99
   13:57:46.683.08-Nov-2020 3585.71 3292.60 71.65 3.00  93.51 2034.99
   13:57:46.883.08-Nov-2020 3585.71 3292.60 71.65 3.00  93.71 2034.99
   13:57:47.083.08-Nov-2020 3585.71 3292.59 71.65 3.00  93.91 2034.99
   13:57:47.282.08-Nov-2020 3585.71 3292.58 71.65 3.00  94.11 2034.99
   13:57:47.482.08-Nov-2020 3585.71 3292.58 71.65 3.00  94.31 2034.99
   13:57:47.682.08-Nov-2020 3585.71 3292.58 71.65 3.00  94.51 2034.99
   13:57:47.882.08-Nov-2020 3585.71 3292.58 71.65 3.00  94.71 2034.99
   13:57:48.082.08-Nov-2020 3585.71 3292.57 71.65 3.00  94.91 2034.99
   13:57:48.282.08-Nov-2020 3585.71 3292.57 71.65 3.00  95.11 2034.99
   13:57:48.481.08-Nov-2020 3585.71 3292.59 71.64 3.00  95.31 2034.99
   13:57:48.681.08-Nov-2020 3585.71 3292.62 71.64 3.00  95.51 2034.99
   13:57:48.881.08-Nov-2020 3585.71 3292.58 71.64 3.00  95.71 2034.99
   13:57:49.081.08-Nov-2020 3585.71 3292.64 71.64 3.00  95.91 2034.99
   13:57:49.281.08-Nov-2020 3585.71 3292.64 71.64 3.00  96.11 2034.99
   13:57:49.480.08-Nov-2020 3585.71 3292.58 71.64 3.00  96.31 2034.99
   13:57:49.680.08-Nov-2020 3585.71 3292.58 71.64 3.00  96.51 2034.99
   13:57:49.880.08-Nov-2020 3585.71 3292.66 71.64 3.00  96.71 2034.99
   13:57:50.080.08-Nov-2020 3585.71 3292.60 71.64 3.00  96.91 2034.99
   13:57:50.280.08-Nov-2020 3585.71 3292.60 71.63 3.00  97.11 2034.99
   13:57:50.479.08-Nov-2020 3585.71 3292.62 71.63 3.00  97.31 2034.99
   13:57:50.679.08-Nov-2020 3585.71 3292.60 71.63 3.00  97.51 2034.99
   13:57:50.879.08-Nov-2020 3585.71 3292.58 71.63 3.00  97.71 2034.99
   13:57:51.079.08-Nov-2020 3585.71 3292.63 71.63 3.00  97.91 2034.99
   13:57:51.279.08-Nov-2020 3585.71 3292.62 71.63 3.00  98.11 2034.99
   13:57:51.478.08-Nov-2020 3585.71 3292.59 71.63 3.00  98.31 2034.99
   13:57:51.678.08-Nov-2020 3585.71 3292.63 71.63 3.00  98.51 2034.99
   13:57:51.878.08-Nov-2020 3585.71 3292.57 71.63 3.00  98.70 2034.99
   13:57:52.078.08-Nov-2020 3585.71 3292.65 71.63 3.00  98.90 2034.99
   13:57:52.278.08-Nov-2020 3585.71 3292.65 71.63 3.00  99.10 2034.99
   13:57:52.477.08-Nov-2020 3585.71 3292.60 71.62 3.00  99.30 2034.99
   13:57:52.677.08-Nov-2020 3585.71 3292.61 71.62 3.00  99.50 2034.99
   13:57:52.877.08-Nov-2020 3585.71 3292.59 71.62 3.00  99.70 2034.99
   13:57:53.077.08-Nov-2020 3585.71 3292.59 71.62 3.00  99.90 2034.99
   13:57:53.277.08-Nov-2020 3585.71 3292.59 71.62 3.00 100.10 2034.99
   13:57:53.477.08-Nov-2020 3585.71 3292.57 71.62 3.00 100.30 2034.99
   13:57:53.676.08-Nov-2020 3585.71 3292.58 71.62 3.00 100.50 2034.99
   13:57:53.876.08-Nov-2020 3585.71 3292.57 71.62 3.00 100.70 2034.99
   13:57:54.076.08-Nov-2020 3585.71 3292.57 71.61 3.00 100.90 2034.99
   13:57:54.276.08-Nov-2020 3585.71 3292.57 71.61 3.00 101.10 2034.99
   13:57:54.476.08-Nov-2020 3585.71 3292.56 71.61 3.00 101.30 2034.99
   13:57:54.675.08-Nov-2020 3585.71 3292.56 71.61 3.00 101.50 2034.99
   13:57:54.875.08-Nov-2020 3585.71 3292.62 71.61 3.00 101.70 2034.99
   13:57:55.075.08-Nov-2020 3585.71 3292.62 71.61 3.00 101.90 2034.99
   13:57:55.275.08-Nov-2020 3585.71 3292.57 71.61 3.00 102.10 2034.99
   13:57:55.475.08-Nov-2020 3585.71 3292.60 71.61 3.00 102.30 2034.99
   13:57:55.674.08-Nov-2020 3585.71 3292.58 71.61 3.00 102.50 2034.99
   13:57:55.874.08-Nov-2020 3585.71 3292.57 71.61 3.00 102.70 2034.99
   13:57:56.074.08-Nov-2020 3585.71 3292.57 71.60 3.00 102.90 2034.99
   13:57:56.274.08-Nov-2020 3585.71 3292.57 71.60 3.00 103.10 2034.99
   13:57:56.474.08-Nov-2020 3585.71 3292.56 71.60 3.00 103.30 2034.99
   13:57:56.673.08-Nov-2020 3585.71 3292.56 71.60 3.00 103.50 2034.99
   13:57:56.873.08-Nov-2020 3585.71 3292.55 71.60 3.00 103.70 2034.99
   13:57:57.073.08-Nov-2020 3585.71 3292.50 71.60 3.00 103.90 2034.99
   13:57:57.273.08-Nov-2020 3585.71 3292.50 71.60 3.00 104.10 2034.99
   13:57:57.473.08-Nov-2020 3585.71 3292.58 71.60 3.00 104.30 2034.99
   13:57:57.672.08-Nov-2020 3585.71 3292.56 71.60 3.00 104.50 2034.99
   13:57:57.872.08-Nov-2020 3585.71 3292.65 71.59 3.00 104.70 2034.99
   13:57:58.072.08-Nov-2020 3585.71 3292.60 71.59 3.00 104.90 2034.99
   13:57:58.272.08-Nov-2020 3585.71 3292.60 71.59 3.00 105.10 2034.99
   13:57:58.472.08-Nov-2020 3585.71 3292.61 71.59 3.00 105.30 2034.99
   13:57:58.672.08-Nov-2020 3585.71 3292.53 71.59 3.00 105.50 2034.99
   13:57:58.871.08-Nov-2020 3585.71 3292.64 71.59 3.00 105.70 2034.99
   13:57:59.071.08-Nov-2020 3585.71 3292.61 71.59 3.00 105.90 2034.99
   13:57:59.271.08-Nov-2020 3585.71 3292.61 71.59 3.00 106.10 2034.99
   13:57:59.471.08-Nov-2020 3585.71 3292.61 71.59 3.00 106.30 2034.99
   13:57:59.671.08-Nov-2020 3585.71 3292.56 71.59 3.00 106.50 2034.99
   13:57:59.870.08-Nov-2020 3585.71 3292.62 71.58 3.00 106.70 2034.99
   13:58:00.070.08-Nov-2020 3585.71 3292.58 71.58 3.00 106.90 2034.99
   13:58:00.270.08-Nov-2020 3585.71 3292.58 71.58 3.00 107.10 2034.99
   13:58:00.470.08-Nov-2020 3585.71 3292.62 71.58 3.00 107.30 2034.99
   13:58:00.670.08-Nov-2020 3585.71 3292.57 71.58 3.00 107.50 2034.99
   13:58:00.869.08-Nov-2020 3585.71 3292.58 71.58 3.00 107.70 2034.99
   13:58:01.069.08-Nov-2020 3585.71 3292.64 71.58 3.00 107.90 2034.99
   13:58:01.269.08-Nov-2020 3585.71 3292.64 71.58 3.00 108.10 2034.99
   13:58:01.469.08-Nov-2020 3585.71 3292.61 71.58 3.00 108.30 2034.99
   13:58:01.669.08-Nov-2020 3585.71 3292.60 71.57 3.00 108.50 2034.99
   13:58:01.868.08-Nov-2020 3585.71 3292.58 71.57 3.00 108.70 2034.99
   13:58:02.068.08-Nov-2020 3585.71 3292.57 71.57 3.00 108.90 2034.99
   13:58:02.268.08-Nov-2020 3585.71 3292.57 71.57 3.00 109.09 2034.99
   13:58:02.468.08-Nov-2020 3585.71 3292.56 71.57 3.00 109.29 2034.99
   13:58:02.668.08-Nov-2020 3585.71 3292.55 71.57 3.00 109.49 2034.99
   13:58:02.867.08-Nov-2020 3585.71 3292.56 71.57 3.00 109.69 2034.99
   13:58:03.067.08-Nov-2020 3585.71 3292.54 71.57 3.00 109.89 2034.99
   13:58:03.267.08-Nov-2020 3585.71 3292.55 71.57 3.00 110.09 2034.99
   13:58:03.467.08-Nov-2020 3585.71 3292.52 71.56 3.00 110.29 2034.99
   13:58:03.667.08-Nov-2020 3585.71 3292.61 71.56 3.00 110.49 2034.99
   13:58:03.867.08-Nov-2020 3585.71 3292.60 71.56 3.00 110.69 2034.99
   13:58:04.066.08-Nov-2020 3585.71 3292.61 71.56 3.00 110.89 2034.99
   13:58:04.266.08-Nov-2020 3585.71 3292.61 71.56 3.00 111.09 2034.99
   13:58:04.466.08-Nov-2020 3585.71 3292.55 71.56 3.00 111.29 2034.99
   13:58:04.666.08-Nov-2020 3585.71 3292.59 71.56 3.00 111.49 2034.99
   13:58:04.866.08-Nov-2020 3585.71 3292.56 71.56 3.00 111.69 2034.99
   13:58:05.065.08-Nov-2020 3585.71 3292.57 71.56 3.00 111.89 2034.99
   13:58:05.265.08-Nov-2020 3585.71 3292.57 71.56 3.00 112.09 2034.99
   13:58:05.465.08-Nov-2020 3585.71 3292.53 71.55 3.00 112.29 2034.99
   13:58:05.665.08-Nov-2020 3585.71 3292.55 71.55 3.00 112.49 2034.99
   13:58:05.865.08-Nov-2020 3585.71 3292.52 71.55 3.00 112.69 2034.99
   13:58:06.064.08-Nov-2020 3585.71 3292.52 71.55 3.00 112.89 2034.99
   13:58:06.264.08-Nov-2020 3585.71 3292.52 71.55 3.00 113.09 2034.99
   13:58:06.464.08-Nov-2020 3585.71 3292.63 71.55 3.00 113.29 2034.99
   13:58:06.664.08-Nov-2020 3585.71 3292.53 71.55 3.00 113.49 2034.99
   13:58:06.864.08-Nov-2020 3585.71 3292.69 71.55 3.00 113.69 2034.99
   13:58:07.063.08-Nov-2020 3585.71 3292.61 71.55 3.00 113.89 2034.99
   13:58:07.263.08-Nov-2020 3585.71 3292.58 71.54 3.00 114.09 2034.99
   13:58:07.463.08-Nov-2020 3585.71 3292.61 71.54 3.00 114.29 2034.99
   13:58:07.663.08-Nov-2020 3585.71 3292.62 71.54 3.00 114.49 2034.99
   13:58:07.863.08-Nov-2020 3585.71 3292.61 71.54 3.00 114.69 2034.99
