~Version Information
 VERS.                  2.0:   CWLS log ASCII Standard -VERSION 2.0
 WRAP.                   NO:   One line per depth step
~Well Information Block
#MNEM.UNIT     VALUE/NAME     DESCRIPTION
#---------     -----------    ---------------------------
 STRT.S             06:45:19 11-Nov-20: START TIME 06:45:19 11-Nov-20
 STOP.S             06:51:53 11-Nov-20: STOP TIME  06:51:53 11-Nov-20
 STEP.S                   0.00: STEP TIME
 NULL.                 -999.25: NULL VALUE
 DFWT.                        :  DIST FWL TEXT
 DFST.                        :  DIST FSL TEXT
 DMF .             Drill Floor:  DRILL MEAS FROM
 STIM.      04.54.24 22-Sep-20:  START TIME
 DATE.      04.54.24 21-Nov-20:  END TIME
 SPUD.               21-Nov-20:  SPUD DATE
 NREF.                    Grid:  NORTH REFERENCE
 HPTY.       Minimum Curvature:  HOLE POS TYPE
 DMOD.             Drill Model:  DRILL MOD DESC
 SVYD.                  Survey:  SURVEY DESC
 ILTD.               Lithology:  INTERP LTH DESC
 FTOP.          Formation Tops:  FORM TOPS DESC
 SON .        AZ-XX-0906571587:  JOB NUMBER
 COMP.     BP Exploration (Caspian Sea) Ltd:  COMPANY
 UWI .                     N/A:  UNIQUE WELL IDENTIFIER
 API .                     N/A:  API NUMBER
 BASE.              Azerbaijan:  LOGGING EQUIPMENT BASE LOCATION
 REGN.                   EESSA:  REGION
 PROV.                    Baku:  PROVINCE
 STAT.                    Baku:  STATE NAME
 CTRY.              Azerbaijan:  COUNTRY NAME
 FLD .                     ACG:  FIELD NAME
 SRVC.     TURAN Drilling & Engineering:  CONTRACTOR
 WELL.                     J27:  WELL NAME
 RIG .             West Chirag:  RIG NAME
 DOE .                     N/A:  DOE NUMBER
 DCON.         Sperry Drilling:  DIRECTNL CONTR
 PDAT.          Mean Sea Level:  PERMANENT DATUM
 WTYP.                Deviated:  WELL TYPE
 MWDS.                    Baku:  MWD SHOP
 JOBN.        AZ-XX-0906571587:  JOB TICKET NUMB
 UNIT.                     N/A:  LOGGING EQUIPMENT ID
 MDS .        Operator Entered:  MAG DATA SOURCE
 CNTY.                        :  COUNTY
 LOC .                        :  LOCATION
 LMF .             Drill Floor:  LOG MEASURED FROM
 TVDS.m                  43.00:  TVDSS CORRECTN
 LATI.deg                40.13:  LATITUDE
 LONG.deg                51.22:  LONGITUDE
 WHNS.m                   7.72:  WELL HEAD N/S
 WHEW.m                 -14.24:  WELL HEAD E/W
 UTMX.m              519005.06:  UTM X
 UTMY.m             4443793.85:  UTM Y
 DFWL.m                   0.00:  DISTANCE FWL
 DFSL.m                   0.00:  DISTANCE FSL
 SDEP.m                 347.00:  START DEPTH
 TDD .m                 581.00:  TOTAL DEPTH (DRILLER)
 VSDR.deg               159.72:  VERT SEC DIRECT
 GVFD.g                   1.00:  GRAVITY FIELD
 MFLD.nT              50313.00:  MAGNETIC FIELD
 MDIP.deg                59.58:  MAGNETIC DIP
 MDEC.deg                 6.45:  MAGNETIC DECL
 GRDC.deg                 0.15:  GRID CORRECTION
 AZTC.deg                 6.30:  AZM TOTAL CORR
 EPD .m                   0.00:  ELEVATION
 EGL .m                   0.00:  GROUND ELEVATION
 WDMS.m                 169.80:  WD ELEV
 APD .m                  43.00:  DEPTH ABOVE PD
 AGAP.m                  43.00:  AIR GAP
 VSEW.m                 -14.24:  VERT SEC E/W
 VSNS.m                   7.72:  VERT SEC N/S
 DEP .m                 342.45:  DEPTH
 EKB .m                   0.00:  KB ELEVATION
 EDF .m                  43.00:  DF ELEVATION
 TDL .m                1313.00:  TOTAL DEPTH (LOGGER)
 VSC .                       0:  VS TO CLOSURE
 MAGU.                 1851396:  MAGUTM CHECKSUM
~Parameter Information Block
#MNEM.UNIT       Value        Description
#---------     -----------    ---------------------------
 AV  .mps                 0.65:  Ann Velocity 
 AVMX.mps                 0.75:  Max Ann Veloc 
 AZIF.deg               115.08:  Azm, Final 
 BHAT.        Rotary Steerable:  BHA Type 
 BROT.°/30m               1.50:  Build Rotating 
 BS  .in                 12.25:  Bit Size 
 BSZ .in                 12.25:  Bit Size 
 BTPL.psig              700.00:  Bit Press Loss 
 CABU.                     Yes:  Customer Abuse 
 COMM.                     LNw:  Run Comments 1 
 TCS .hr                121.00:  Time Ciculation Ended 
 CV  .mps                 1.83:  Crit Velocity 
 CVMX.mps                 1.83:  Max Crit Veloc 
 DD1 .          Rashad Habibov:  Direct Drillr 1 
 DD2 .         Rasim Ibrahimov:  Direct Drillr 2 
 DDSV.                 iCruise:  DD Service 
 DEFF.%                 100.00:  % Det Eff 
 DLRX.°/30m               3.60:  Dogleg Rot Max 
 DLSO.°/30m               3.10:  Dogleg Oriented 
 DLSX.°/30m               3.60:  Dogleg Str Max 
 DRET.      13.41.20 12-Nov-20:  Drill End Time 
 DRST.      13.41.20 07-Nov-20:  Drill Start Tim 
 DTIM.hr                 54.16:  Time Drilling 
 EDEP.m                4762.01:  End Depth 
 ENG1.           Amrah Tahirov:  Engineer 1 
 ENG2.      Bakhtiyar Jabbarli:  Engineer 2 
 ENG3.          Ruslan Safarov:  Engineer 3 
 ETIM.      13.41.20 14-Nov-20:  End Time 
 FLOI.gpm              1200.00:  Flow In 
 FLON.gpm              1100.00:  Flow In Min 
 FLOS.cptm                0.00:  Fluid Loss 
 FLOX.gpm              1200.00:  Flow In Max 
 HFLO.                      No:  High Flow 
 HPRE.                      No:  High Pressure 
 HTEM.                      No:  High Temp 
 HYDO.m                   2.00:  Hydro Offset 
 IFIN.deg                66.14:  Inc, Final 
 IMAX.deg                69.03:  Inc Max 
 IMIN.deg                64.64:  Inc Min 
 IMND.m                4450.16:  Inc Min Depth 
 IMXD.m                3996.00:  Inc Max Depth 
 JARR.                     Yes:  Jarring 
 LETM.      13.41.20 14-Nov-20:  Log End Time 
 LOST.hr                     0:  Lost Rig Time 
 LSTM.      13.41.20 06-Nov-20:  Log Start Time 
 MDCL.ppm             42500.00:  Mud Chlorides 
 MDES.     Inversion Oil/Synthetic:  Mud Desc 
 DFD .sg                  1.45:  Mud Density 
 MDMN.sg                  1.45:  Dens Mud Min 
 MDMX.sg                  1.45:  Dens Mud Max 
 MOIL.                      70:  Run Mud Oil % 
 MOWR.                   70:30:  Run Mud OWR 
 MSND.                       0:  Run Mud Sand % 
 MSOL.                    19.3:  Run Mud Solids% 
 DFV .spqt               77.00:  Mud Viscosity 
 MWOD.in                  8.00:  MWD Tool OD 
 MWSI.                      No:  Serv Intrp, MWD 
 OTIM.hr                201.88:  Time Operating 
 PCON.           Look Like New:  Pad Condition 
 PMAX.psia             9250.94:  Press Op, Max 
 PV  .cP                 29.00:  Mud PV 
 RUN .                     800:  Run Number 
 ROPA.m/hr               28.00:  ROP Avg 
 ROPN.m/hr               25.00:  ROP Min 
 ROPX.m/hr               30.00:  ROP Max 
 RPMA.rpm               160.00:  RPM Surface Avg 
 RPMN.rpm               160.00:  RPM Surface Min 
 RPMX.rpm               160.00:  RPM Surface Max 
 RRUN.                    0800:  Rig Run Number 
 RTIM.hr                 12.00:  Time Reaming 
 SAZI.deg               169.33:  Azm, Start 
 SDEP.m                3449.01:  Start Depth 
 SIDD.                      No:  Serv Intrp, DD 
 SINC.deg                68.01:  Inc, Start 
 SPPA.psig             4900.00:  SPP Avg 
 SPPN.psig             4800.00:  SPP Min 
 SPPX.psig             5050.00:  SPP Max 
 STIM.      13.41.20 06-Nov-20:  Start Time 
 SVCS.                 DD, MWD:  Services 
 SVER.                    9.20:  Sperry Version 
 TDAT.m                4762.01:  Tot Depth Attmp 
 TDDF.                      No:  Trip for DD 
 TDLG.m                1313.00:  Tot Depth Loggd 
 TFF .                      No:  Trip for Fail 
 TQAA.f-kp               13.00:  Torque Abs Avg 
 TQAN.f-kp               13.00:  Torque Abs Min 
 TQAX.f-kp               13.00:  Torque Abs Max 
 TRRT.°/30m               1.70:  Turn Rotating 
 MRT .                  EWR-M5:  Maximum Recorded Temperature 
 TTMX.degC               86.00:  Max Tool Temp 
 VS01.                90622122:  Virtual Str1 SN 
 VS02.                90577298:  Virtual Str2 SN 
 VS03.                90563623:  Virtual Str3 SN 
 VS04.                90617559:  Virtual Str4 SN 
 VS05.                11339492:  Virtual Str5 SN 
 VS06.                12385033:  Virtual Str6 SN 
 WBMN.klb                 0.00:  WOB Min 
 WOBA.klb                22.00:  WOB Avg 
 WOBX.klb                26.00:  WOB Max 
 YP  .lhf2               30.00:  Yield Point 
~Curve Information Block
#MNEM.UNIT                 API CODE     Curve Description
#---------               -----------    ---------------------------
 TIME.HHMMSS            00 000 000 000:  GT Time & Date
 GTDEPTH.m              00 000 000 000:  GT Depth
 GTPQH.psia             00 000 000 000:  GT HR Quartz Pressure
 GTTQ.degC              00 000 000 000:  GT Quartz Temperature
 GTTN.NONE              00 000 000 000:  GT Test Number
 GTET.sec               00 000 000 000:  GT Elapsed Test Time
 GTTVD.m                00 000 000 000:  GT True Vertical Depth
#Other Information
#
#WARRANTY: Halliburton will use its best efforts to furnish customers with 
#accurate information and interpretations that are part of, and incident to, the services 
#provided.  However, Halliburton cannot and does not warrant the accuracy 
#or correctness of such information and interpretations.  Under no circumstances should any 
#such information or interpretation be relied upon as the sole basis for any drilling, 
#completion, production, or financial decision or any procedure involving any risk to the 
#safety of any drilling venture, drilling rig or its crew or any other third party.  The 
#Customer has full responsibility for all drilling, completion and production operation.  
#Halliburton makes no representations or warranties, either expressed or 
#implied, including, but not limited to, the implied warranties of merchantability or fitness 
#for a particular purpose, with respect to the services rendered.  In no event will 
#Halliburton be liable for failure to obtain any particular results or for 
#any damages, including, but not limited to, indirect, special or consequential damages, 
#resulting from the use of any information or interpretation provided by Halliburton.
#
~A           TIME           GTDEPTH  GTPQH  GTTQ  GTTN  GTET   GTTVD  
# ...
   06:47:14.426.11-Nov-2020 4617.01 4140.80 79.84 8.00 115.04 2426.59
   06:47:14.626.11-Nov-2020 4617.01 4140.80 79.84 8.00 115.24 2426.59
   06:47:14.826.11-Nov-2020 4617.01 4140.56 79.84 8.00 115.44 2426.59
   06:47:15.026.11-Nov-2020 4617.01 4140.56 79.84 8.00 115.64 2426.59
   06:47:15.226.11-Nov-2020 4617.01 4140.62 79.84 8.00 115.84 2426.59
   06:47:15.426.11-Nov-2020 4617.01 4140.57 79.84 8.00 116.04 2426.59
   06:47:15.626.11-Nov-2020 4617.01 4140.56 79.84 8.00 116.24 2426.59
   06:47:15.826.11-Nov-2020 4617.01 4140.64 79.84 8.00 116.44 2426.59
   06:47:16.026.11-Nov-2020 4617.01 4140.52 79.84 8.00 116.64 2426.59
   06:47:16.226.11-Nov-2020 4617.01 4140.19 79.84 8.00 116.84 2426.59
   06:47:16.426.11-Nov-2020 4617.01 4140.74 79.84 8.00 117.04 2426.59
   06:47:16.626.11-Nov-2020 4617.01 4140.74 79.84 8.00 117.24 2426.59
   06:47:16.826.11-Nov-2020 4617.01 4140.66 79.83 8.00 117.44 2426.59
   06:47:17.027.11-Nov-2020 4617.01 4139.93 79.83 8.00 117.64 2426.59
   06:47:17.227.11-Nov-2020 4617.01 4140.02 79.83 8.00 117.84 2426.59
   06:47:17.427.11-Nov-2020 4617.01 4139.85 79.83 8.00 118.04 2426.59
   06:47:17.627.11-Nov-2020 4617.01 4139.85 79.83 8.00 118.24 2426.59
   06:47:17.827.11-Nov-2020 4617.01 4140.48 79.83 8.00 118.44 2426.59
   06:47:18.027.11-Nov-2020 4617.01 4140.26 79.83 8.00 118.64 2426.59
   06:47:18.227.11-Nov-2020 4617.01 4140.50 79.83 8.00 118.84 2426.59
   06:47:18.427.11-Nov-2020 4617.01 4140.45 79.83 8.00 119.04 2426.59
   06:47:18.627.11-Nov-2020 4617.01 4140.45 79.83 8.00 119.24 2426.59
   06:47:18.827.11-Nov-2020 4617.01 4140.33 79.83 8.00 119.44 2426.59
   06:47:19.027.11-Nov-2020 4617.01 4139.93 79.83 8.00 119.64 2426.59
   06:47:19.227.11-Nov-2020 4617.01 4139.99 79.83 8.00 119.84 2426.59
   06:47:19.427.11-Nov-2020 4617.01 4139.81 79.82 8.00 120.04 2426.59
   06:47:19.627.11-Nov-2020 4617.01 4140.23 79.82 8.00 120.24 2426.59
   06:47:19.827.11-Nov-2020 4617.01 4140.23 79.82 8.00 120.44 2426.59
   06:47:20.027.11-Nov-2020 4617.01 4139.83 79.82 8.00 120.64 2426.59
   06:47:20.228.11-Nov-2020 4617.01 4140.00 79.82 8.00 120.84 2426.59
   06:47:20.428.11-Nov-2020 4617.01 4140.06 79.82 8.00 121.04 2426.59
   06:47:20.628.11-Nov-2020 4617.01 4140.04 79.82 8.00 121.24 2426.59
   06:47:20.828.11-Nov-2020 4617.01 4140.07 79.82 8.00 121.44 2426.59
   06:47:21.028.11-Nov-2020 4617.01 4140.19 79.82 8.00 121.64 2426.59
   06:47:21.228.11-Nov-2020 4617.01 4140.15 79.82 8.00 121.84 2426.59
   06:47:21.428.11-Nov-2020 4617.01 4140.14 79.82 8.00 122.04 2426.59
   06:47:21.628.11-Nov-2020 4617.01 4140.14 79.82 8.00 122.24 2426.59
   06:47:21.828.11-Nov-2020 4617.01 4139.97 79.82 8.00 122.44 2426.59
   06:47:22.028.11-Nov-2020 4617.01 4139.89 79.81 8.00 122.64 2426.59
   06:47:22.228.11-Nov-2020 4617.01 4139.99 79.81 8.00 122.84 2426.59
   06:47:22.428.11-Nov-2020 4617.01 4140.12 79.81 8.00 123.04 2426.59
   06:47:22.628.11-Nov-2020 4617.01 4140.12 79.81 8.00 123.24 2426.59
   06:47:22.828.11-Nov-2020 4617.01 4140.05 79.81 8.00 123.44 2426.59
   06:47:23.028.11-Nov-2020 4617.01 4139.94 79.81 8.00 123.64 2426.59
   06:47:23.228.11-Nov-2020 4617.01 4140.05 79.81 8.00 123.84 2426.59
   06:47:23.429.11-Nov-2020 4617.01 4140.02 79.81 8.00 124.04 2426.59
   06:47:23.629.11-Nov-2020 4617.01 4140.04 79.81 8.00 124.24 2426.59
   06:47:23.829.11-Nov-2020 4617.01 4139.96 79.81 8.00 124.44 2426.59
   06:47:24.029.11-Nov-2020 4617.01 4140.01 79.81 8.00 124.64 2426.59
   06:47:24.229.11-Nov-2020 4617.01 4139.92 79.81 8.00 124.84 2426.59
   06:47:24.429.11-Nov-2020 4617.01 4139.83 79.81 8.00 125.04 2426.59
   06:47:24.629.11-Nov-2020 4617.01 4139.83 79.81 8.00 125.24 2426.59
   06:47:24.829.11-Nov-2020 4617.01 4139.33 79.80 8.00 125.44 2426.59
   06:47:25.029.11-Nov-2020 4617.01 4139.24 79.80 8.00 125.64 2426.59
   06:47:25.229.11-Nov-2020 4617.01 4139.25 79.80 8.00 125.84 2426.59
   06:47:25.429.11-Nov-2020 4617.01 4139.37 79.80 8.00 126.04 2426.59
   06:47:25.629.11-Nov-2020 4617.01 4139.37 79.80 8.00 126.24 2426.59
   06:47:25.829.11-Nov-2020 4617.01 4139.48 79.80 8.00 126.44 2426.59
   06:47:26.029.11-Nov-2020 4617.01 4139.56 79.80 8.00 126.64 2426.59
   06:47:26.229.11-Nov-2020 4617.01 4139.69 79.80 8.00 126.84 2426.59
   06:47:26.429.11-Nov-2020 4617.01 4139.38 79.80 8.00 127.04 2426.59
   06:47:26.630.11-Nov-2020 4617.01 4139.38 79.80 8.00 127.24 2426.59
   06:47:26.830.11-Nov-2020 4617.01 4139.46 79.80 8.00 127.44 2426.59
   06:47:27.030.11-Nov-2020 4617.01 4139.34 79.80 8.00 127.64 2426.59
   06:47:27.230.11-Nov-2020 4617.01 4139.34 79.79 8.00 127.84 2426.59
   06:47:27.430.11-Nov-2020 4617.01 4139.80 79.79 8.00 128.04 2426.59
   06:47:27.630.11-Nov-2020 4617.01 4139.23 79.79 8.00 128.24 2426.59
   06:47:27.830.11-Nov-2020 4617.01 4139.31 79.79 8.00 128.44 2426.59
   06:47:28.030.11-Nov-2020 4617.01 4139.55 79.79 8.00 128.64 2426.59
   06:47:28.230.11-Nov-2020 4617.01 4139.62 79.79 8.00 128.84 2426.59
   06:47:28.430.11-Nov-2020 4617.01 4139.45 79.79 8.00 129.04 2426.59
   06:47:28.630.11-Nov-2020 4617.01 4139.45 79.79 8.00 129.24 2426.59
   06:47:28.830.11-Nov-2020 4617.01 4139.53 79.79 8.00 129.44 2426.59
   06:47:29.030.11-Nov-2020 4617.01 4139.51 79.79 8.00 129.64 2426.59
   06:47:29.230.11-Nov-2020 4617.01 4139.55 79.79 8.00 129.84 2426.59
   06:47:29.430.11-Nov-2020 4617.01 4139.43 79.79 8.00 130.04 2426.59
   06:47:29.630.11-Nov-2020 4617.01 4139.43 79.79 8.00 130.24 2426.59
   06:47:29.831.11-Nov-2020 4617.01 4139.34 79.79 8.00 130.44 2426.59
   06:47:30.031.11-Nov-2020 4617.01 4139.34 79.78 8.00 130.64 2426.59
   06:47:30.231.11-Nov-2020 4617.01 4139.57 79.78 8.00 130.84 2426.59
   06:47:30.431.11-Nov-2020 4617.01 4139.32 79.78 8.00 131.04 2426.59
   06:47:30.631.11-Nov-2020 4617.01 4139.32 79.78 8.00 131.24 2426.59
   06:47:30.831.11-Nov-2020 4617.01 4139.38 79.78 8.00 131.44 2426.59
   06:47:31.031.11-Nov-2020 4617.01 4139.30 79.78 8.00 131.64 2426.59
   06:47:31.231.11-Nov-2020 4617.01 4139.26 79.78 8.00 131.84 2426.59
   06:47:31.431.11-Nov-2020 4617.01 4139.25 79.78 8.00 132.04 2426.59
   06:47:31.631.11-Nov-2020 4617.01 4139.25 79.78 8.00 132.24 2426.59
   06:47:31.831.11-Nov-2020 4617.01 4139.33 79.78 8.00 132.44 2426.59
   06:47:32.031.11-Nov-2020 4617.01 4138.94 79.78 8.00 132.64 2426.59
   06:47:32.231.11-Nov-2020 4617.01 4139.15 79.78 8.00 132.84 2426.59
   06:47:32.431.11-Nov-2020 4617.01 4139.09 79.78 8.00 133.04 2426.59
   06:47:32.631.11-Nov-2020 4617.01 4139.09 79.78 8.00 133.24 2426.59
   06:47:32.831.11-Nov-2020 4617.01 4138.78 79.77 8.00 133.44 2426.59
   06:47:33.032.11-Nov-2020 4617.01 4138.49 79.77 8.00 133.64 2426.59
   06:47:33.232.11-Nov-2020 4617.01 4138.42 79.77 8.00 133.84 2426.59
   06:47:33.432.11-Nov-2020 4617.01 4139.25 79.77 8.00 134.04 2426.59
   06:47:33.632.11-Nov-2020 4617.01 4139.25 79.77 8.00 134.24 2426.59
   06:47:33.832.11-Nov-2020 4617.01 4138.92 79.77 8.00 134.44 2426.59
   06:47:34.032.11-Nov-2020 4617.01 4139.04 79.77 8.00 134.64 2426.59
   06:47:34.232.11-Nov-2020 4617.01 4138.59 79.77 8.00 134.84 2426.59
   06:47:34.432.11-Nov-2020 4617.01 4138.72 79.77 8.00 135.04 2426.59
   06:47:34.632.11-Nov-2020 4617.01 4138.72 79.77 8.00 135.24 2426.59
   06:47:34.832.11-Nov-2020 4617.01 4138.98 79.77 8.00 135.44 2426.59
   06:47:35.032.11-Nov-2020 4617.01 4138.83 79.77 8.00 135.64 2426.59
   06:47:35.232.11-Nov-2020 4617.01 4138.73 79.76 8.00 135.84 2426.59
   06:47:35.432.11-Nov-2020 4617.01 4138.67 79.76 8.00 136.04 2426.59
   06:47:35.632.11-Nov-2020 4617.01 4138.64 79.76 8.00 136.24 2426.59
   06:47:35.832.11-Nov-2020 4617.01 4138.69 79.76 8.00 136.44 2426.59
   06:47:36.032.11-Nov-2020 4617.01 4138.57 79.76 8.00 136.64 2426.59
   06:47:36.233.11-Nov-2020 4617.01 4138.72 79.76 8.00 136.84 2426.59
   06:47:36.433.11-Nov-2020 4617.01 4138.81 79.76 8.00 137.04 2426.59
   06:47:36.633.11-Nov-2020 4617.01 4138.81 79.76 8.00 137.24 2426.59
   06:47:36.833.11-Nov-2020 4617.01 4138.82 79.76 8.00 137.44 2426.59
   06:47:37.033.11-Nov-2020 4617.01 4138.78 79.76 8.00 137.64 2426.59
   06:47:37.233.11-Nov-2020 4617.01 4138.79 79.76 8.00 137.84 2426.59
