~Version Information
 VERS.                  2.0:   CWLS log ASCII Standard -VERSION 2.0
 WRAP.                   NO:   One line per depth step
~Well Information Block
#MNEM.UNIT     VALUE/NAME     DESCRIPTION
#---------     -----------    ---------------------------
 STRT.S             13:56:13 08-Nov-20: START TIME 13:56:13 08-Nov-20
 STOP.S             14:02:43 08-Nov-20: STOP TIME  14:02:43 08-Nov-20
 STEP.S                   0.00: STEP TIME
 NULL.                 -999.25: NULL VALUE
 DFWT.                        :  DIST FWL TEXT
 DFST.                        :  DIST FSL TEXT
 DMF .             Drill Floor:  DRILL MEAS FROM
 STIM.      04.54.24 22-Sep-20:  START TIME
 DATE.      04.54.24 21-Nov-20:  END TIME
 SPUD.               21-Nov-20:  SPUD DATE
 NREF.                    Grid:  NORTH REFERENCE
 HPTY.       Minimum Curvature:  HOLE POS TYPE
 DMOD.             Drill Model:  DRILL MOD DESC
 SVYD.                  Survey:  SURVEY DESC
 ILTD.               Lithology:  INTERP LTH DESC
 FTOP.          Formation Tops:  FORM TOPS DESC
 SON .        AZ-XX-0906571587:  JOB NUMBER
 COMP.     BP Exploration (Caspian Sea) Ltd:  COMPANY
 UWI .                     N/A:  UNIQUE WELL IDENTIFIER
 API .                     N/A:  API NUMBER
 BASE.              Azerbaijan:  LOGGING EQUIPMENT BASE LOCATION
 REGN.                   EESSA:  REGION
 PROV.                    Baku:  PROVINCE
 STAT.                    Baku:  STATE NAME
 CTRY.              Azerbaijan:  COUNTRY NAME
 FLD .                     ACG:  FIELD NAME
 SRVC.     TURAN Drilling & Engineering:  CONTRACTOR
 WELL.                     J27:  WELL NAME
 RIG .             West Chirag:  RIG NAME
 DOE .                     N/A:  DOE NUMBER
 DCON.         Sperry Drilling:  DIRECTNL CONTR
 PDAT.          Mean Sea Level:  PERMANENT DATUM
 WTYP.                Deviated:  WELL TYPE
 MWDS.                    Baku:  MWD SHOP
 JOBN.        AZ-XX-0906571587:  JOB TICKET NUMB
 UNIT.                     N/A:  LOGGING EQUIPMENT ID
 MDS .        Operator Entered:  MAG DATA SOURCE
 CNTY.                        :  COUNTY
 LOC .                        :  LOCATION
 LMF .             Drill Floor:  LOG MEASURED FROM
 TVDS.m                  43.00:  TVDSS CORRECTN
 LATI.deg                40.13:  LATITUDE
 LONG.deg                51.22:  LONGITUDE
 WHNS.m                   7.72:  WELL HEAD N/S
 WHEW.m                 -14.24:  WELL HEAD E/W
 UTMX.m              519005.06:  UTM X
 UTMY.m             4443793.85:  UTM Y
 DFWL.m                   0.00:  DISTANCE FWL
 DFSL.m                   0.00:  DISTANCE FSL
 SDEP.m                 347.00:  START DEPTH
 TDD .m                 581.00:  TOTAL DEPTH (DRILLER)
 VSDR.deg               159.72:  VERT SEC DIRECT
 GVFD.g                   1.00:  GRAVITY FIELD
 MFLD.nT              50313.00:  MAGNETIC FIELD
 MDIP.deg                59.58:  MAGNETIC DIP
 MDEC.deg                 6.45:  MAGNETIC DECL
 GRDC.deg                 0.15:  GRID CORRECTION
 AZTC.deg                 6.30:  AZM TOTAL CORR
 EPD .m                   0.00:  ELEVATION
 EGL .m                   0.00:  GROUND ELEVATION
 WDMS.m                 169.80:  WD ELEV
 APD .m                  43.00:  DEPTH ABOVE PD
 AGAP.m                  43.00:  AIR GAP
 VSEW.m                 -14.24:  VERT SEC E/W
 VSNS.m                   7.72:  VERT SEC N/S
 DEP .m                 342.45:  DEPTH
 EKB .m                   0.00:  KB ELEVATION
 EDF .m                  43.00:  DF ELEVATION
 TDL .m                1313.00:  TOTAL DEPTH (LOGGER)
 VSC .                       0:  VS TO CLOSURE
 MAGU.                 1851396:  MAGUTM CHECKSUM
~Parameter Information Block
#MNEM.UNIT       Value        Description
#---------     -----------    ---------------------------
 AV  .mps                 0.65:  Ann Velocity 
 AVMX.mps                 0.75:  Max Ann Veloc 
 AZIF.deg               115.08:  Azm, Final 
 BHAT.        Rotary Steerable:  BHA Type 
 BROT.°/30m               1.50:  Build Rotating 
 BS  .in                 12.25:  Bit Size 
 BSZ .in                 12.25:  Bit Size 
 BTPL.psig              700.00:  Bit Press Loss 
 CABU.                     Yes:  Customer Abuse 
 COMM.                     ì¹^:  Run Comments 1 
 TCS .hr                121.00:  Time Ciculation Ended 
 CV  .mps                 1.83:  Crit Velocity 
 CVMX.mps                 1.83:  Max Crit Veloc 
 DD1 .          Rashad Habibov:  Direct Drillr 1 
 DD2 .         Rasim Ibrahimov:  Direct Drillr 2 
 DDSV.                 iCruise:  DD Service 
 DEFF.%                 100.00:  % Det Eff 
 DLRX.°/30m               3.60:  Dogleg Rot Max 
 DLSO.°/30m               3.10:  Dogleg Oriented 
 DLSX.°/30m               3.60:  Dogleg Str Max 
 DRET.      13.41.20 12-Nov-20:  Drill End Time 
 DRST.      13.41.20 07-Nov-20:  Drill Start Tim 
 DTIM.hr                 54.16:  Time Drilling 
 EDEP.m                4762.01:  End Depth 
 ENG1.           Amrah Tahirov:  Engineer 1 
 ENG2.      Bakhtiyar Jabbarli:  Engineer 2 
 ENG3.          Ruslan Safarov:  Engineer 3 
 ETIM.      13.41.20 14-Nov-20:  End Time 
 FLOI.gpm              1200.00:  Flow In 
 FLON.gpm              1100.00:  Flow In Min 
 FLOS.cptm                0.00:  Fluid Loss 
 FLOX.gpm              1200.00:  Flow In Max 
 HFLO.                      No:  High Flow 
 HPRE.                      No:  High Pressure 
 HTEM.                      No:  High Temp 
 HYDO.m                   2.00:  Hydro Offset 
 IFIN.deg                66.14:  Inc, Final 
 IMAX.deg                69.03:  Inc Max 
 IMIN.deg                64.64:  Inc Min 
 IMND.m                4450.16:  Inc Min Depth 
 IMXD.m                3996.00:  Inc Max Depth 
 JARR.                     Yes:  Jarring 
 LETM.      13.41.20 14-Nov-20:  Log End Time 
 LOST.hr                     0:  Lost Rig Time 
 LSTM.      13.41.20 06-Nov-20:  Log Start Time 
 MDCL.ppm             42500.00:  Mud Chlorides 
 MDES.     Inversion Oil/Synthetic:  Mud Desc 
 DFD .sg                  1.45:  Mud Density 
 MDMN.sg                  1.45:  Dens Mud Min 
 MDMX.sg                  1.45:  Dens Mud Max 
 MOIL.                      70:  Run Mud Oil % 
 MOWR.                   70:30:  Run Mud OWR 
 MSND.                       0:  Run Mud Sand % 
 MSOL.                    19.3:  Run Mud Solids% 
 DFV .spqt               77.00:  Mud Viscosity 
 MWOD.in                  8.00:  MWD Tool OD 
 MWSI.                      No:  Serv Intrp, MWD 
 OTIM.hr                201.88:  Time Operating 
 PCON.           Look Like New:  Pad Condition 
 PMAX.psia             9250.94:  Press Op, Max 
 PV  .cP                 29.00:  Mud PV 
 RUN .                     800:  Run Number 
 ROPA.m/hr               28.00:  ROP Avg 
 ROPN.m/hr               25.00:  ROP Min 
 ROPX.m/hr               30.00:  ROP Max 
 RPMA.rpm               160.00:  RPM Surface Avg 
 RPMN.rpm               160.00:  RPM Surface Min 
 RPMX.rpm               160.00:  RPM Surface Max 
 RRUN.                    0800:  Rig Run Number 
 RTIM.hr                 12.00:  Time Reaming 
 SAZI.deg               169.33:  Azm, Start 
 SDEP.m                3449.01:  Start Depth 
 SIDD.                      No:  Serv Intrp, DD 
 SINC.deg                68.01:  Inc, Start 
 SPPA.psig             4900.00:  SPP Avg 
 SPPN.psig             4800.00:  SPP Min 
 SPPX.psig             5050.00:  SPP Max 
 STIM.      13.41.20 06-Nov-20:  Start Time 
 SVCS.                 DD, MWD:  Services 
 SVER.                    9.20:  Sperry Version 
 TDAT.m                4762.01:  Tot Depth Attmp 
 TDDF.                      No:  Trip for DD 
 TDLG.m                1313.00:  Tot Depth Loggd 
 TFF .                      No:  Trip for Fail 
 TQAA.f-kp               13.00:  Torque Abs Avg 
 TQAN.f-kp               13.00:  Torque Abs Min 
 TQAX.f-kp               13.00:  Torque Abs Max 
 TRRT.°/30m               1.70:  Turn Rotating 
 MRT .                  EWR-M5:  Maximum Recorded Temperature 
 TTMX.degC               86.00:  Max Tool Temp 
 VS01.                90622122:  Virtual Str1 SN 
 VS02.                90577298:  Virtual Str2 SN 
 VS03.                90563623:  Virtual Str3 SN 
 VS04.                90617559:  Virtual Str4 SN 
 VS05.                11339492:  Virtual Str5 SN 
 VS06.                12385033:  Virtual Str6 SN 
 WBMN.klb                 0.00:  WOB Min 
 WOBA.klb                22.00:  WOB Avg 
 WOBX.klb                26.00:  WOB Max 
 YP  .lhf2               30.00:  Yield Point 
~Curve Information Block
#MNEM.UNIT                 API CODE     Curve Description
#---------               -----------    ---------------------------
 TIME.HHMMSS            00 000 000 000:  GT Time & Date
 GTDEPTH.m              00 000 000 000:  GT Depth
 GTPQH.psia             00 000 000 000:  GT HR Quartz Pressure
 GTTQ.degC              00 000 000 000:  GT Quartz Temperature
 GTTN.NONE              00 000 000 000:  GT Test Number
 GTET.sec               00 000 000 000:  GT Elapsed Test Time
 GTTVD.m                00 000 000 000:  GT True Vertical Depth
#Other Information
#
#WARRANTY: Halliburton will use its best efforts to furnish customers with 
#accurate information and interpretations that are part of, and incident to, the services 
#provided.  However, Halliburton cannot and does not warrant the accuracy 
#or correctness of such information and interpretations.  Under no circumstances should any 
#such information or interpretation be relied upon as the sole basis for any drilling, 
#completion, production, or financial decision or any procedure involving any risk to the 
#safety of any drilling venture, drilling rig or its crew or any other third party.  The 
#Customer has full responsibility for all drilling, completion and production operation.  
#Halliburton makes no representations or warranties, either expressed or 
#implied, including, but not limited to, the implied warranties of merchantability or fitness 
#for a particular purpose, with respect to the services rendered.  In no event will 
#Halliburton be liable for failure to obtain any particular results or for 
#any damages, including, but not limited to, indirect, special or consequential damages, 
#resulting from the use of any information or interpretation provided by Halliburton.
#
~A           TIME           GTDEPTH  GTPQH  GTTQ  GTTN  GTET   GTTVD  
# ...
   14:01:11.885.08-Nov-2020 3585.71 3292.53 70.57 3.00 298.71 2034.99
   14:01:12.085.08-Nov-2020 3585.71 3292.53 70.57 3.00 298.91 2034.99
   14:01:12.285.08-Nov-2020 3585.71 3292.49 70.57 3.00 299.11 2034.99
   14:01:12.485.08-Nov-2020 3585.71 3292.61 70.57 3.00 299.31 2034.99
   14:01:12.685.08-Nov-2020 3585.71 3292.61 70.57 3.00 299.51 2034.99
   14:01:12.884.08-Nov-2020 3585.71 3292.50 70.57 3.00 299.71 2034.99
   14:01:13.084.08-Nov-2020 3585.71 3292.50 70.57 3.00 299.91 2034.99
   14:01:13.284.08-Nov-2020 3585.71 3292.61 70.57 3.00 300.11 2034.99
   14:01:13.484.08-Nov-2020 3585.71 3292.60 70.57 3.00 300.31 2034.99
   14:01:13.684.08-Nov-2020 3585.71 3292.55 70.57 3.00 300.51 2034.99
   14:01:13.883.08-Nov-2020 3585.71 3292.62 70.56 3.00 300.71 2034.99
   14:01:14.083.08-Nov-2020 3585.71 3292.62 70.56 3.00 300.91 2034.99
   14:01:14.283.08-Nov-2020 3585.71 3292.63 70.56 3.00 301.11 2034.99
   14:01:14.483.08-Nov-2020 3585.71 3292.62 70.56 3.00 301.31 2034.99
   14:01:14.683.08-Nov-2020 3585.71 3292.58 70.56 3.00 301.51 2034.99
   14:01:14.883.08-Nov-2020 3585.71 3292.55 70.56 3.00 301.71 2034.99
   14:01:15.082.08-Nov-2020 3585.71 3292.67 70.56 3.00 301.91 2034.99
   14:01:15.282.08-Nov-2020 3585.71 3292.63 70.56 3.00 302.11 2034.99
   14:01:15.482.08-Nov-2020 3585.71 3292.61 70.56 3.00 302.31 2034.99
   14:01:15.682.08-Nov-2020 3585.71 3292.59 70.55 3.00 302.51 2034.99
   14:01:15.882.08-Nov-2020 3585.71 3292.60 70.55 3.00 302.71 2034.99
   14:01:16.081.08-Nov-2020 3585.71 3292.60 70.55 3.00 302.91 2034.99
   14:01:16.281.08-Nov-2020 3585.71 3292.61 70.55 3.00 303.11 2034.99
   14:01:16.481.08-Nov-2020 3585.71 3292.63 70.55 3.00 303.31 2034.99
   14:01:16.681.08-Nov-2020 3585.71 3292.62 70.55 3.00 303.51 2034.99
   14:01:16.881.08-Nov-2020 3585.71 3292.59 70.55 3.00 303.71 2034.99
   14:01:17.080.08-Nov-2020 3585.71 3292.59 70.55 3.00 303.91 2034.99
   14:01:17.280.08-Nov-2020 3585.71 3292.56 70.55 3.00 304.11 2034.99
   14:01:17.480.08-Nov-2020 3585.71 3292.57 70.55 3.00 304.31 2034.99
   14:01:17.680.08-Nov-2020 3585.71 3292.56 70.54 3.00 304.51 2034.99
   14:01:17.880.08-Nov-2020 3585.71 3292.56 70.54 3.00 304.71 2034.99
   14:01:18.079.08-Nov-2020 3585.71 3292.56 70.54 3.00 304.91 2034.99
   14:01:18.279.08-Nov-2020 3585.71 3292.55 70.54 3.00 305.11 2034.99
   14:01:18.479.08-Nov-2020 3585.71 3292.53 70.54 3.00 305.31 2034.99
   14:01:18.679.08-Nov-2020 3585.71 3292.52 70.54 3.00 305.51 2034.99
   14:01:18.879.08-Nov-2020 3585.71 3292.65 70.54 3.00 305.71 2034.99
   14:01:19.078.08-Nov-2020 3585.71 3292.65 70.54 3.00 305.91 2034.99
   14:01:19.278.08-Nov-2020 3585.71 3292.59 70.54 3.00 306.11 2034.99
   14:01:19.478.08-Nov-2020 3585.71 3292.60 70.54 3.00 306.30 2034.99
   14:01:19.678.08-Nov-2020 3585.71 3292.56 70.53 3.00 306.50 2034.99
   14:01:19.878.08-Nov-2020 3585.71 3292.56 70.53 3.00 306.70 2034.99
   14:01:20.078.08-Nov-2020 3585.71 3292.56 70.53 3.00 306.90 2034.99
   14:01:20.277.08-Nov-2020 3585.71 3292.53 70.53 3.00 307.10 2034.99
   14:01:20.477.08-Nov-2020 3585.71 3292.54 70.53 3.00 307.30 2034.99
   14:01:20.677.08-Nov-2020 3585.71 3292.52 70.53 3.00 307.50 2034.99
   14:01:20.877.08-Nov-2020 3585.71 3292.52 70.53 3.00 307.70 2034.99
   14:01:21.077.08-Nov-2020 3585.71 3292.45 70.53 3.00 307.90 2034.99
   14:01:21.276.08-Nov-2020 3585.71 3292.62 70.53 3.00 308.10 2034.99
   14:01:21.476.08-Nov-2020 3585.71 3292.60 70.52 3.00 308.30 2034.99
   14:01:21.676.08-Nov-2020 3585.71 3292.57 70.52 3.00 308.50 2034.99
   14:01:21.876.08-Nov-2020 3585.71 3292.63 70.52 3.00 308.70 2034.99
   14:01:22.076.08-Nov-2020 3585.71 3292.61 70.52 3.00 308.90 2034.99
   14:01:22.275.08-Nov-2020 3585.71 3292.62 70.52 3.00 309.10 2034.99
   14:01:22.475.08-Nov-2020 3585.71 3292.60 70.52 3.00 309.30 2034.99
   14:01:22.675.08-Nov-2020 3585.71 3292.55 70.52 3.00 309.50 2034.99
   14:01:22.875.08-Nov-2020 3585.71 3292.66 70.52 3.00 309.70 2034.99
   14:01:23.075.08-Nov-2020 3585.71 3292.60 70.52 3.00 309.90 2034.99
   14:01:23.274.08-Nov-2020 3585.71 3292.62 70.52 3.00 310.10 2034.99
   14:01:23.474.08-Nov-2020 3585.71 3292.61 70.51 3.00 310.30 2034.99
   14:01:23.674.08-Nov-2020 3585.71 3292.55 70.51 3.00 310.50 2034.99
   14:01:23.874.08-Nov-2020 3585.71 3292.61 70.51 3.00 310.70 2034.99
   14:01:24.074.08-Nov-2020 3585.71 3292.61 70.51 3.00 310.90 2034.99
   14:01:24.273.08-Nov-2020 3585.71 3292.61 70.51 3.00 311.10 2034.99
   14:01:24.473.08-Nov-2020 3585.71 3292.63 70.51 3.00 311.30 2034.99
   14:01:24.673.08-Nov-2020 3585.71 3292.55 70.51 3.00 311.50 2034.99
   14:01:24.873.08-Nov-2020 3585.71 3292.64 70.51 3.00 311.70 2034.99
   14:01:25.073.08-Nov-2020 3585.71 3292.64 70.51 3.00 311.90 2034.99
   14:01:25.273.08-Nov-2020 3585.71 3292.61 70.50 3.00 312.10 2034.99
   14:01:25.472.08-Nov-2020 3585.71 3292.63 70.50 3.00 312.30 2034.99
   14:01:25.672.08-Nov-2020 3585.71 3292.61 70.50 3.00 312.50 2034.99
   14:01:25.872.08-Nov-2020 3585.71 3292.58 70.50 3.00 312.70 2034.99
   14:01:26.072.08-Nov-2020 3585.71 3292.58 70.50 3.00 312.90 2034.99
   14:01:26.272.08-Nov-2020 3585.71 3292.57 70.50 3.00 313.10 2034.99
   14:01:26.471.08-Nov-2020 3585.71 3292.56 70.50 3.00 313.30 2034.99
   14:01:26.671.08-Nov-2020 3585.71 3292.55 70.50 3.00 313.50 2034.99
   14:01:26.871.08-Nov-2020 3585.71 3292.54 70.50 3.00 313.70 2034.99
   14:01:27.071.08-Nov-2020 3585.71 3292.54 70.50 3.00 313.90 2034.99
   14:01:27.271.08-Nov-2020 3585.71 3292.54 70.49 3.00 314.10 2034.99
   14:01:27.470.08-Nov-2020 3585.71 3292.50 70.49 3.00 314.30 2034.99
   14:01:27.670.08-Nov-2020 3585.71 3292.62 70.49 3.00 314.50 2034.99
   14:01:27.870.08-Nov-2020 3585.71 3292.62 70.49 3.00 314.70 2034.99
   14:01:28.070.08-Nov-2020 3585.71 3292.62 70.49 3.00 314.90 2034.99
   14:01:28.270.08-Nov-2020 3585.71 3292.60 70.49 3.00 315.10 2034.99
   14:01:28.469.08-Nov-2020 3585.71 3292.58 70.49 3.00 315.30 2034.99
   14:01:28.669.08-Nov-2020 3585.71 3292.56 70.49 3.00 315.50 2034.99
   14:01:28.869.08-Nov-2020 3585.71 3292.56 70.49 3.00 315.70 2034.99
   14:01:29.069.08-Nov-2020 3585.71 3292.56 70.49 3.00 315.90 2034.99
   14:01:29.269.08-Nov-2020 3585.71 3292.54 70.48 3.00 316.10 2034.99
   14:01:29.468.08-Nov-2020 3585.71 3292.53 70.48 3.00 316.30 2034.99
   14:01:29.668.08-Nov-2020 3585.71 3292.53 70.48 3.00 316.50 2034.99
   14:01:29.868.08-Nov-2020 3585.71 3292.51 70.48 3.00 316.69 2034.99
   14:01:30.068.08-Nov-2020 3585.71 3292.51 70.48 3.00 316.89 2034.99
   14:01:30.268.08-Nov-2020 3585.71 3292.64 70.48 3.00 317.09 2034.99
   14:01:30.468.08-Nov-2020 3585.71 3292.56 70.48 3.00 317.29 2034.99
   14:01:30.667.08-Nov-2020 3585.71 3292.60 70.48 3.00 317.49 2034.99
   14:01:30.867.08-Nov-2020 3585.71 3292.65 70.48 3.00 317.69 2034.99
   14:01:31.067.08-Nov-2020 3585.71 3292.60 70.47 3.00 317.89 2034.99
   14:01:31.267.08-Nov-2020 3585.71 3292.62 70.47 3.00 318.09 2034.99
   14:01:31.467.08-Nov-2020 3585.71 3292.58 70.47 3.00 318.29 2034.99
   14:01:31.666.08-Nov-2020 3585.71 3292.63 70.47 3.00 318.49 2034.99
   14:01:31.866.08-Nov-2020 3585.71 3292.65 70.47 3.00 318.69 2034.99
   14:01:32.066.08-Nov-2020 3585.71 3292.65 70.47 3.00 318.89 2034.99
   14:01:32.266.08-Nov-2020 3585.71 3292.62 70.47 3.00 319.09 2034.99
   14:01:32.466.08-Nov-2020 3585.71 3292.58 70.47 3.00 319.29 2034.99
   14:01:32.665.08-Nov-2020 3585.71 3292.60 70.47 3.00 319.49 2034.99
   14:01:32.865.08-Nov-2020 3585.71 3292.65 70.47 3.00 319.69 2034.99
   14:01:33.065.08-Nov-2020 3585.71 3292.65 70.47 3.00 319.89 2034.99
   14:01:33.265.08-Nov-2020 3585.71 3292.62 70.46 3.00 320.09 2034.99
   14:01:33.465.08-Nov-2020 3585.71 3292.54 70.46 3.00 320.29 2034.99
   14:01:33.664.08-Nov-2020 3585.71 3292.68 70.46 3.00 320.49 2034.99
   14:01:33.864.08-Nov-2020 3585.71 3292.64 70.46 3.00 320.69 2034.99
   14:01:34.064.08-Nov-2020 3585.71 3292.64 70.46 3.00 320.89 2034.99
   14:01:34.264.08-Nov-2020 3585.71 3292.63 70.46 3.00 321.09 2034.99
   14:01:34.464.08-Nov-2020 3585.71 3292.58 70.46 3.00 321.29 2034.99
   14:01:34.663.08-Nov-2020 3585.71 3292.60 70.46 3.00 321.49 2034.99
