~Version Information
 VERS.                  2.0:   CWLS log ASCII Standard -VERSION 2.0
 WRAP.                   NO:   One line per depth step
~Well Information Block
#MNEM.UNIT     VALUE/NAME     DESCRIPTION
#---------     -----------    ---------------------------
 STRT.S             21:54:12 08-Nov-20: START TIME 21:54:12 08-Nov-20
 STOP.S             22:00:43 08-Nov-20: STOP TIME  22:00:43 08-Nov-20
 STEP.S                   0.00: STEP TIME
 NULL.                 -999.25: NULL VALUE
 DFWT.                        :  DIST FWL TEXT
 DFST.                        :  DIST FSL TEXT
 DMF .             Drill Floor:  DRILL MEAS FROM
 STIM.      04.54.24 22-Sep-20:  START TIME
 DATE.      04.54.24 21-Nov-20:  END TIME
 SPUD.               21-Nov-20:  SPUD DATE
 NREF.                    Grid:  NORTH REFERENCE
 HPTY.       Minimum Curvature:  HOLE POS TYPE
 DMOD.             Drill Model:  DRILL MOD DESC
 SVYD.                  Survey:  SURVEY DESC
 ILTD.               Lithology:  INTERP LTH DESC
 FTOP.          Formation Tops:  FORM TOPS DESC
 SON .        AZ-XX-0906571587:  JOB NUMBER
 COMP.     BP Exploration (Caspian Sea) Ltd:  COMPANY
 UWI .                     N/A:  UNIQUE WELL IDENTIFIER
 API .                     N/A:  API NUMBER
 BASE.              Azerbaijan:  LOGGING EQUIPMENT BASE LOCATION
 REGN.                   EESSA:  REGION
 PROV.                    Baku:  PROVINCE
 STAT.                    Baku:  STATE NAME
 CTRY.              Azerbaijan:  COUNTRY NAME
 FLD .                     ACG:  FIELD NAME
 SRVC.     TURAN Drilling & Engineering:  CONTRACTOR
 WELL.                     J27:  WELL NAME
 RIG .             West Chirag:  RIG NAME
 DOE .                     N/A:  DOE NUMBER
 DCON.         Sperry Drilling:  DIRECTNL CONTR
 PDAT.          Mean Sea Level:  PERMANENT DATUM
 WTYP.                Deviated:  WELL TYPE
 MWDS.                    Baku:  MWD SHOP
 JOBN.        AZ-XX-0906571587:  JOB TICKET NUMB
 UNIT.                     N/A:  LOGGING EQUIPMENT ID
 MDS .        Operator Entered:  MAG DATA SOURCE
 CNTY.                        :  COUNTY
 LOC .                        :  LOCATION
 LMF .             Drill Floor:  LOG MEASURED FROM
 TVDS.m                  43.00:  TVDSS CORRECTN
 LATI.deg                40.13:  LATITUDE
 LONG.deg                51.22:  LONGITUDE
 WHNS.m                   7.72:  WELL HEAD N/S
 WHEW.m                 -14.24:  WELL HEAD E/W
 UTMX.m              519005.06:  UTM X
 UTMY.m             4443793.85:  UTM Y
 DFWL.m                   0.00:  DISTANCE FWL
 DFSL.m                   0.00:  DISTANCE FSL
 SDEP.m                 347.00:  START DEPTH
 TDD .m                 581.00:  TOTAL DEPTH (DRILLER)
 VSDR.deg               159.72:  VERT SEC DIRECT
 GVFD.g                   1.00:  GRAVITY FIELD
 MFLD.nT              50313.00:  MAGNETIC FIELD
 MDIP.deg                59.58:  MAGNETIC DIP
 MDEC.deg                 6.45:  MAGNETIC DECL
 GRDC.deg                 0.15:  GRID CORRECTION
 AZTC.deg                 6.30:  AZM TOTAL CORR
 EPD .m                   0.00:  ELEVATION
 EGL .m                   0.00:  GROUND ELEVATION
 WDMS.m                 169.80:  WD ELEV
 APD .m                  43.00:  DEPTH ABOVE PD
 AGAP.m                  43.00:  AIR GAP
 VSEW.m                 -14.24:  VERT SEC E/W
 VSNS.m                   7.72:  VERT SEC N/S
 DEP .m                 342.45:  DEPTH
 EKB .m                   0.00:  KB ELEVATION
 EDF .m                  43.00:  DF ELEVATION
 TDL .m                1313.00:  TOTAL DEPTH (LOGGER)
 VSC .                       0:  VS TO CLOSURE
 MAGU.                 1851396:  MAGUTM CHECKSUM
~Parameter Information Block
#MNEM.UNIT       Value        Description
#---------     -----------    ---------------------------
 AV  .mps                 0.65:  Ann Velocity 
 AVMX.mps                 0.75:  Max Ann Veloc 
 AZIF.deg               115.08:  Azm, Final 
 BHAT.        Rotary Steerable:  BHA Type 
 BROT.∞/30m               1.50:  Build Rotating 
 BS  .in                 12.25:  Bit Size 
 BSZ .in                 12.25:  Bit Size 
 BTPL.psig              700.00:  Bit Press Loss 
 CABU.                     Yes:  Customer Abuse 
 COMM.                     „J:  Run Comments 1 
 TCS .hr                121.00:  Time Ciculation Ended 
 CV  .mps                 1.83:  Crit Velocity 
 CVMX.mps                 1.83:  Max Crit Veloc 
 DD1 .          Rashad Habibov:  Direct Drillr 1 
 DD2 .         Rasim Ibrahimov:  Direct Drillr 2 
 DDSV.                 iCruise:  DD Service 
 DEFF.%                 100.00:  % Det Eff 
 DLRX.∞/30m               3.60:  Dogleg Rot Max 
 DLSO.∞/30m               3.10:  Dogleg Oriented 
 DLSX.∞/30m               3.60:  Dogleg Str Max 
 DRET.      13.41.20 12-Nov-20:  Drill End Time 
 DRST.      13.41.20 07-Nov-20:  Drill Start Tim 
 DTIM.hr                 54.16:  Time Drilling 
 EDEP.m                4762.01:  End Depth 
 ENG1.           Amrah Tahirov:  Engineer 1 
 ENG2.      Bakhtiyar Jabbarli:  Engineer 2 
 ENG3.          Ruslan Safarov:  Engineer 3 
 ETIM.      13.41.20 14-Nov-20:  End Time 
 FLOI.gpm              1200.00:  Flow In 
 FLON.gpm              1100.00:  Flow In Min 
 FLOS.cptm                0.00:  Fluid Loss 
 FLOX.gpm              1200.00:  Flow In Max 
 HFLO.                      No:  High Flow 
 HPRE.                      No:  High Pressure 
 HTEM.                      No:  High Temp 
 HYDO.m                   2.00:  Hydro Offset 
 IFIN.deg                66.14:  Inc, Final 
 IMAX.deg                69.03:  Inc Max 
 IMIN.deg                64.64:  Inc Min 
 IMND.m                4450.16:  Inc Min Depth 
 IMXD.m                3996.00:  Inc Max Depth 
 JARR.                     Yes:  Jarring 
 LETM.      13.41.20 14-Nov-20:  Log End Time 
 LOST.hr                     0:  Lost Rig Time 
 LSTM.      13.41.20 06-Nov-20:  Log Start Time 
 MDCL.ppm             42500.00:  Mud Chlorides 
 MDES.     Inversion Oil/Synthetic:  Mud Desc 
 DFD .sg                  1.45:  Mud Density 
 MDMN.sg                  1.45:  Dens Mud Min 
 MDMX.sg                  1.45:  Dens Mud Max 
 MOIL.                      70:  Run Mud Oil % 
 MOWR.                   70:30:  Run Mud OWR 
 MSND.                       0:  Run Mud Sand % 
 MSOL.                    19.3:  Run Mud Solids% 
 DFV .spqt               77.00:  Mud Viscosity 
 MWOD.in                  8.00:  MWD Tool OD 
 MWSI.                      No:  Serv Intrp, MWD 
 OTIM.hr                201.88:  Time Operating 
 PCON.           Look Like New:  Pad Condition 
 PMAX.psia             9250.94:  Press Op, Max 
 PV  .cP                 29.00:  Mud PV 
 RUN .                     800:  Run Number 
 ROPA.m/hr               28.00:  ROP Avg 
 ROPN.m/hr               25.00:  ROP Min 
 ROPX.m/hr               30.00:  ROP Max 
 RPMA.rpm               160.00:  RPM Surface Avg 
 RPMN.rpm               160.00:  RPM Surface Min 
 RPMX.rpm               160.00:  RPM Surface Max 
 RRUN.                    0800:  Rig Run Number 
 RTIM.hr                 12.00:  Time Reaming 
 SAZI.deg               169.33:  Azm, Start 
 SDEP.m                3449.01:  Start Depth 
 SIDD.                      No:  Serv Intrp, DD 
 SINC.deg                68.01:  Inc, Start 
 SPPA.psig             4900.00:  SPP Avg 
 SPPN.psig             4800.00:  SPP Min 
 SPPX.psig             5050.00:  SPP Max 
 STIM.      13.41.20 06-Nov-20:  Start Time 
 SVCS.                 DD, MWD:  Services 
 SVER.                    9.20:  Sperry Version 
 TDAT.m                4762.01:  Tot Depth Attmp 
 TDDF.                      No:  Trip for DD 
 TDLG.m                1313.00:  Tot Depth Loggd 
 TFF .                      No:  Trip for Fail 
 TQAA.f-kp               13.00:  Torque Abs Avg 
 TQAN.f-kp               13.00:  Torque Abs Min 
 TQAX.f-kp               13.00:  Torque Abs Max 
 TRRT.∞/30m               1.70:  Turn Rotating 
 MRT .                  EWR-M5:  Maximum Recorded Temperature 
 TTMX.degC               86.00:  Max Tool Temp 
 VS01.                90622122:  Virtual Str1 SN 
 VS02.                90577298:  Virtual Str2 SN 
 VS03.                90563623:  Virtual Str3 SN 
 VS04.                90617559:  Virtual Str4 SN 
 VS05.                11339492:  Virtual Str5 SN 
 VS06.                12385033:  Virtual Str6 SN 
 WBMN.klb                 0.00:  WOB Min 
 WOBA.klb                22.00:  WOB Avg 
 WOBX.klb                26.00:  WOB Max 
 YP  .lhf2               30.00:  Yield Point 
~Curve Information Block
#MNEM.UNIT                 API CODE     Curve Description
#---------               -----------    ---------------------------
 TIME.HHMMSS            00 000 000 000:  GT Time & Date
 GTDEPTH.m              00 000 000 000:  GT Depth
 GTPQH.psia             00 000 000 000:  GT HR Quartz Pressure
 GTTQ.degC              00 000 000 000:  GT Quartz Temperature
 GTTN.NONE              00 000 000 000:  GT Test Number
 GTET.sec               00 000 000 000:  GT Elapsed Test Time
 GTTVD.m                00 000 000 000:  GT True Vertical Depth
#Other Information
#
#WARRANTY: Halliburton will use its best efforts to furnish customers with 
#accurate information and interpretations that are part of, and incident to, the services 
#provided.  However, Halliburton cannot and does not warrant the accuracy 
#or correctness of such information and interpretations.  Under no circumstances should any 
#such information or interpretation be relied upon as the sole basis for any drilling, 
#completion, production, or financial decision or any procedure involving any risk to the 
#safety of any drilling venture, drilling rig or its crew or any other third party.  The 
#Customer has full responsibility for all drilling, completion and production operation.  
#Halliburton makes no representations or warranties, either expressed or 
#implied, including, but not limited to, the implied warranties of merchantability or fitness 
#for a particular purpose, with respect to the services rendered.  In no event will 
#Halliburton be liable for failure to obtain any particular results or for 
#any damages, including, but not limited to, indirect, special or consequential damages, 
#resulting from the use of any information or interpretation provided by Halliburton.
#
~A           TIME           GTDEPTH  GTPQH  GTTQ  GTTN  GTET   GTTVD  
# ...
   21:56:07.679.08-Nov-2020 3686.01 3544.23 72.19 4.00 115.03 2071.13
   21:56:07.879.08-Nov-2020 3686.01 3544.23 72.19 4.00 115.23 2071.13
   21:56:08.079.08-Nov-2020 3686.01 3544.19 72.19 4.00 115.43 2071.13
   21:56:08.279.08-Nov-2020 3686.01 3544.21 72.19 4.00 115.63 2071.13
   21:56:08.479.08-Nov-2020 3686.01 3544.19 72.19 4.00 115.83 2071.13
   21:56:08.679.08-Nov-2020 3686.01 3544.17 72.19 4.00 116.03 2071.13
   21:56:08.879.08-Nov-2020 3686.01 3544.17 72.19 4.00 116.23 2071.13
   21:56:09.079.08-Nov-2020 3686.01 3544.17 72.19 4.00 116.43 2071.13
   21:56:09.279.08-Nov-2020 3686.01 3544.16 72.19 4.00 116.63 2071.13
   21:56:09.479.08-Nov-2020 3686.01 3544.16 72.19 4.00 116.83 2071.13
   21:56:09.679.08-Nov-2020 3686.01 3544.16 72.19 4.00 117.03 2071.13
   21:56:09.879.08-Nov-2020 3686.01 3544.16 72.19 4.00 117.23 2071.13
   21:56:10.079.08-Nov-2020 3686.01 3544.28 72.18 4.00 117.43 2071.13
   21:56:10.279.08-Nov-2020 3686.01 3544.21 72.18 4.00 117.63 2071.13
   21:56:10.479.08-Nov-2020 3686.01 3544.21 72.18 4.00 117.83 2071.13
   21:56:10.679.08-Nov-2020 3686.01 3544.21 72.18 4.00 118.03 2071.13
   21:56:10.879.08-Nov-2020 3686.01 3544.21 72.18 4.00 118.23 2071.13
   21:56:11.079.08-Nov-2020 3686.01 3544.17 72.18 4.00 118.43 2071.13
   21:56:11.279.08-Nov-2020 3686.01 3544.18 72.18 4.00 118.63 2071.13
   21:56:11.479.08-Nov-2020 3686.01 3544.17 72.18 4.00 118.83 2071.13
   21:56:11.679.08-Nov-2020 3686.01 3544.15 72.18 4.00 119.03 2071.13
   21:56:11.879.08-Nov-2020 3686.01 3544.15 72.18 4.00 119.23 2071.13
   21:56:12.079.08-Nov-2020 3686.01 3544.16 72.17 4.00 119.43 2071.13
   21:56:12.280.08-Nov-2020 3686.01 3544.14 72.17 4.00 119.63 2071.13
   21:56:12.480.08-Nov-2020 3686.01 3544.14 72.17 4.00 119.83 2071.13
   21:56:12.680.08-Nov-2020 3686.01 3544.20 72.17 4.00 120.03 2071.13
   21:56:12.880.08-Nov-2020 3686.01 3544.20 72.17 4.00 120.23 2071.13
   21:56:13.080.08-Nov-2020 3686.01 3544.28 72.17 4.00 120.43 2071.13
   21:56:13.280.08-Nov-2020 3686.01 3544.20 72.17 4.00 120.63 2071.13
   21:56:13.480.08-Nov-2020 3686.01 3544.20 72.17 4.00 120.83 2071.13
   21:56:13.680.08-Nov-2020 3686.01 3544.22 72.17 4.00 121.03 2071.13
   21:56:13.880.08-Nov-2020 3686.01 3544.22 72.17 4.00 121.23 2071.13
   21:56:14.080.08-Nov-2020 3686.01 3544.25 72.17 4.00 121.43 2071.13
   21:56:14.280.08-Nov-2020 3686.01 3544.24 72.16 4.00 121.63 2071.13
   21:56:14.480.08-Nov-2020 3686.01 3544.19 72.16 4.00 121.83 2071.13
   21:56:14.680.08-Nov-2020 3686.01 3544.20 72.16 4.00 122.03 2071.13
   21:56:14.880.08-Nov-2020 3686.01 3544.20 72.16 4.00 122.23 2071.13
   21:56:15.080.08-Nov-2020 3686.01 3544.19 72.16 4.00 122.43 2071.13
   21:56:15.280.08-Nov-2020 3686.01 3544.27 72.16 4.00 122.63 2071.13
   21:56:15.480.08-Nov-2020 3686.01 3544.20 72.16 4.00 122.83 2071.13
   21:56:15.680.08-Nov-2020 3686.01 3544.20 72.16 4.00 123.03 2071.13
   21:56:15.880.08-Nov-2020 3686.01 3544.24 72.16 4.00 123.23 2071.13
   21:56:16.080.08-Nov-2020 3686.01 3544.20 72.16 4.00 123.43 2071.13
   21:56:16.280.08-Nov-2020 3686.01 3544.22 72.16 4.00 123.63 2071.13
   21:56:16.480.08-Nov-2020 3686.01 3544.24 72.15 4.00 123.83 2071.13
   21:56:16.681.08-Nov-2020 3686.01 3544.19 72.15 4.00 124.03 2071.13
   21:56:16.881.08-Nov-2020 3686.01 3544.19 72.15 4.00 124.23 2071.13
   21:56:17.081.08-Nov-2020 3686.01 3544.19 72.15 4.00 124.43 2071.13
   21:56:17.281.08-Nov-2020 3686.01 3544.16 72.15 4.00 124.63 2071.13
   21:56:17.481.08-Nov-2020 3686.01 3544.16 72.15 4.00 124.83 2071.13
   21:56:17.681.08-Nov-2020 3686.01 3544.18 72.15 4.00 125.03 2071.13
   21:56:17.881.08-Nov-2020 3686.01 3544.18 72.15 4.00 125.23 2071.13
   21:56:18.081.08-Nov-2020 3686.01 3544.15 72.15 4.00 125.43 2071.13
   21:56:18.281.08-Nov-2020 3686.01 3544.16 72.15 4.00 125.63 2071.13
   21:56:18.481.08-Nov-2020 3686.01 3544.14 72.15 4.00 125.83 2071.13
   21:56:18.681.08-Nov-2020 3686.01 3544.14 72.14 4.00 126.03 2071.13
   21:56:18.881.08-Nov-2020 3686.01 3544.14 72.14 4.00 126.23 2071.13
   21:56:19.081.08-Nov-2020 3686.01 3544.22 72.14 4.00 126.43 2071.13
   21:56:19.281.08-Nov-2020 3686.01 3544.20 72.14 4.00 126.63 2071.13
   21:56:19.481.08-Nov-2020 3686.01 3544.21 72.14 4.00 126.83 2071.13
   21:56:19.681.08-Nov-2020 3686.01 3544.21 72.14 4.00 127.03 2071.13
   21:56:19.881.08-Nov-2020 3686.01 3544.13 72.14 4.00 127.23 2071.13
   21:56:20.081.08-Nov-2020 3686.01 3544.18 72.14 4.00 127.43 2071.13
   21:56:20.281.08-Nov-2020 3686.01 3544.15 72.14 4.00 127.63 2071.13
   21:56:20.481.08-Nov-2020 3686.01 3544.16 72.14 4.00 127.83 2071.13
   21:56:20.681.08-Nov-2020 3686.01 3544.14 72.14 4.00 128.03 2071.13
   21:56:20.881.08-Nov-2020 3686.01 3544.14 72.14 4.00 128.23 2071.13
   21:56:21.081.08-Nov-2020 3686.01 3544.15 72.13 4.00 128.43 2071.13
   21:56:21.282.08-Nov-2020 3686.01 3544.13 72.13 4.00 128.63 2071.13
   21:56:21.482.08-Nov-2020 3686.01 3544.17 72.13 4.00 128.83 2071.13
   21:56:21.682.08-Nov-2020 3686.01 3544.17 72.13 4.00 129.03 2071.13
   21:56:21.882.08-Nov-2020 3686.01 3544.17 72.13 4.00 129.23 2071.13
   21:56:22.082.08-Nov-2020 3686.01 3544.23 72.13 4.00 129.43 2071.13
   21:56:22.282.08-Nov-2020 3686.01 3544.21 72.13 4.00 129.63 2071.13
   21:56:22.482.08-Nov-2020 3686.01 3544.25 72.13 4.00 129.83 2071.13
   21:56:22.682.08-Nov-2020 3686.01 3544.18 72.13 4.00 130.03 2071.13
   21:56:22.882.08-Nov-2020 3686.01 3544.18 72.13 4.00 130.23 2071.13
   21:56:23.082.08-Nov-2020 3686.01 3544.31 72.12 4.00 130.43 2071.13
   21:56:23.282.08-Nov-2020 3686.01 3544.19 72.12 4.00 130.63 2071.13
   21:56:23.482.08-Nov-2020 3686.01 3544.19 72.12 4.00 130.83 2071.13
   21:56:23.682.08-Nov-2020 3686.01 3544.21 72.12 4.00 131.03 2071.13
   21:56:23.882.08-Nov-2020 3686.01 3544.11 72.12 4.00 131.23 2071.13
   21:56:24.082.08-Nov-2020 3686.01 3544.26 72.12 4.00 131.43 2071.13
   21:56:24.282.08-Nov-2020 3686.01 3544.20 72.12 4.00 131.63 2071.13
   21:56:24.482.08-Nov-2020 3686.01 3544.20 72.12 4.00 131.83 2071.13
   21:56:24.682.08-Nov-2020 3686.01 3544.21 72.12 4.00 132.03 2071.13
   21:56:24.882.08-Nov-2020 3686.01 3544.21 72.12 4.00 132.23 2071.13
   21:56:25.082.08-Nov-2020 3686.01 3544.19 72.11 4.00 132.43 2071.13
   21:56:25.282.08-Nov-2020 3686.01 3544.27 72.11 4.00 132.63 2071.13
   21:56:25.482.08-Nov-2020 3686.01 3544.22 72.11 4.00 132.83 2071.13
   21:56:25.682.08-Nov-2020 3686.01 3544.19 72.11 4.00 133.03 2071.13
   21:56:25.883.08-Nov-2020 3686.01 3544.19 72.11 4.00 133.23 2071.13
   21:56:26.083.08-Nov-2020 3686.01 3544.19 72.11 4.00 133.43 2071.13
   21:56:26.283.08-Nov-2020 3686.01 3544.18 72.11 4.00 133.63 2071.13
   21:56:26.483.08-Nov-2020 3686.01 3544.17 72.11 4.00 133.83 2071.13
   21:56:26.683.08-Nov-2020 3686.01 3544.15 72.11 4.00 134.03 2071.13
   21:56:26.883.08-Nov-2020 3686.01 3544.15 72.11 4.00 134.23 2071.13
   21:56:27.083.08-Nov-2020 3686.01 3544.14 72.11 4.00 134.43 2071.13
   21:56:27.283.08-Nov-2020 3686.01 3544.15 72.10 4.00 134.63 2071.13
   21:56:27.483.08-Nov-2020 3686.01 3544.15 72.10 4.00 134.83 2071.13
   21:56:27.683.08-Nov-2020 3686.01 3544.12 72.10 4.00 135.03 2071.13
   21:56:27.883.08-Nov-2020 3686.01 3544.12 72.10 4.00 135.23 2071.13
   21:56:28.083.08-Nov-2020 3686.01 3544.19 72.10 4.00 135.43 2071.13
   21:56:28.283.08-Nov-2020 3686.01 3544.23 72.10 4.00 135.63 2071.13
   21:56:28.483.08-Nov-2020 3686.01 3544.20 72.10 4.00 135.83 2071.13
   21:56:28.683.08-Nov-2020 3686.01 3544.17 72.10 4.00 136.03 2071.13
   21:56:28.883.08-Nov-2020 3686.01 3544.17 72.10 4.00 136.23 2071.13
   21:56:29.083.08-Nov-2020 3686.01 3544.17 72.10 4.00 136.43 2071.13
   21:56:29.283.08-Nov-2020 3686.01 3544.15 72.10 4.00 136.63 2071.13
   21:56:29.483.08-Nov-2020 3686.01 3544.17 72.09 4.00 136.83 2071.13
   21:56:29.683.08-Nov-2020 3686.01 3544.13 72.09 4.00 137.03 2071.13
   21:56:29.883.08-Nov-2020 3686.01 3544.13 72.09 4.00 137.23 2071.13
   21:56:30.083.08-Nov-2020 3686.01 3544.16 72.09 4.00 137.43 2071.13
   21:56:30.284.08-Nov-2020 3686.01 3544.12 72.09 4.00 137.63 2071.13
   21:56:30.484.08-Nov-2020 3686.01 3544.11 72.09 4.00 137.83 2071.13
