~Version Information
 VERS.                  2.0:   CWLS log ASCII Standard -VERSION 2.0
 WRAP.                   NO:   One line per depth step
~Well Information Block
#MNEM.UNIT     VALUE/NAME     DESCRIPTION
#---------     -----------    ---------------------------
 STRT.S             13:56:13 08-Nov-20: START TIME 13:56:13 08-Nov-20
 STOP.S             14:02:43 08-Nov-20: STOP TIME  14:02:43 08-Nov-20
 STEP.S                   0.00: STEP TIME
 NULL.                 -999.25: NULL VALUE
 DFWT.                        :  DIST FWL TEXT
 DFST.                        :  DIST FSL TEXT
 DMF .             Drill Floor:  DRILL MEAS FROM
 STIM.      04.54.24 22-Sep-20:  START TIME
 DATE.      04.54.24 21-Nov-20:  END TIME
 SPUD.               21-Nov-20:  SPUD DATE
 NREF.                    Grid:  NORTH REFERENCE
 HPTY.       Minimum Curvature:  HOLE POS TYPE
 DMOD.             Drill Model:  DRILL MOD DESC
 SVYD.                  Survey:  SURVEY DESC
 ILTD.               Lithology:  INTERP LTH DESC
 FTOP.          Formation Tops:  FORM TOPS DESC
 SON .        AZ-XX-0906571587:  JOB NUMBER
 COMP.     BP Exploration (Caspian Sea) Ltd:  COMPANY
 UWI .                     N/A:  UNIQUE WELL IDENTIFIER
 API .                     N/A:  API NUMBER
 BASE.              Azerbaijan:  LOGGING EQUIPMENT BASE LOCATION
 REGN.                   EESSA:  REGION
 PROV.                    Baku:  PROVINCE
 STAT.                    Baku:  STATE NAME
 CTRY.              Azerbaijan:  COUNTRY NAME
 FLD .                     ACG:  FIELD NAME
 SRVC.     TURAN Drilling & Engineering:  CONTRACTOR
 WELL.                     J27:  WELL NAME
 RIG .             West Chirag:  RIG NAME
 DOE .                     N/A:  DOE NUMBER
 DCON.         Sperry Drilling:  DIRECTNL CONTR
 PDAT.          Mean Sea Level:  PERMANENT DATUM
 WTYP.                Deviated:  WELL TYPE
 MWDS.                    Baku:  MWD SHOP
 JOBN.        AZ-XX-0906571587:  JOB TICKET NUMB
 UNIT.                     N/A:  LOGGING EQUIPMENT ID
 MDS .        Operator Entered:  MAG DATA SOURCE
 CNTY.                        :  COUNTY
 LOC .                        :  LOCATION
 LMF .             Drill Floor:  LOG MEASURED FROM
 TVDS.m                  43.00:  TVDSS CORRECTN
 LATI.deg                40.13:  LATITUDE
 LONG.deg                51.22:  LONGITUDE
 WHNS.m                   7.72:  WELL HEAD N/S
 WHEW.m                 -14.24:  WELL HEAD E/W
 UTMX.m              519005.06:  UTM X
 UTMY.m             4443793.85:  UTM Y
 DFWL.m                   0.00:  DISTANCE FWL
 DFSL.m                   0.00:  DISTANCE FSL
 SDEP.m                 347.00:  START DEPTH
 TDD .m                 581.00:  TOTAL DEPTH (DRILLER)
 VSDR.deg               159.72:  VERT SEC DIRECT
 GVFD.g                   1.00:  GRAVITY FIELD
 MFLD.nT              50313.00:  MAGNETIC FIELD
 MDIP.deg                59.58:  MAGNETIC DIP
 MDEC.deg                 6.45:  MAGNETIC DECL
 GRDC.deg                 0.15:  GRID CORRECTION
 AZTC.deg                 6.30:  AZM TOTAL CORR
 EPD .m                   0.00:  ELEVATION
 EGL .m                   0.00:  GROUND ELEVATION
 WDMS.m                 169.80:  WD ELEV
 APD .m                  43.00:  DEPTH ABOVE PD
 AGAP.m                  43.00:  AIR GAP
 VSEW.m                 -14.24:  VERT SEC E/W
 VSNS.m                   7.72:  VERT SEC N/S
 DEP .m                 342.45:  DEPTH
 EKB .m                   0.00:  KB ELEVATION
 EDF .m                  43.00:  DF ELEVATION
 TDL .m                1313.00:  TOTAL DEPTH (LOGGER)
 VSC .                       0:  VS TO CLOSURE
 MAGU.                 1851396:  MAGUTM CHECKSUM
~Parameter Information Block
#MNEM.UNIT       Value        Description
#---------     -----------    ---------------------------
 AV  .mps                 0.65:  Ann Velocity 
 AVMX.mps                 0.75:  Max Ann Veloc 
 AZIF.deg               115.08:  Azm, Final 
 BHAT.        Rotary Steerable:  BHA Type 
 BROT.°/30m               1.50:  Build Rotating 
 BS  .in                 12.25:  Bit Size 
 BSZ .in                 12.25:  Bit Size 
 BTPL.psig              700.00:  Bit Press Loss 
 CABU.                     Yes:  Customer Abuse 
 COMM.                     ì¹^:  Run Comments 1 
 TCS .hr                121.00:  Time Ciculation Ended 
 CV  .mps                 1.83:  Crit Velocity 
 CVMX.mps                 1.83:  Max Crit Veloc 
 DD1 .          Rashad Habibov:  Direct Drillr 1 
 DD2 .         Rasim Ibrahimov:  Direct Drillr 2 
 DDSV.                 iCruise:  DD Service 
 DEFF.%                 100.00:  % Det Eff 
 DLRX.°/30m               3.60:  Dogleg Rot Max 
 DLSO.°/30m               3.10:  Dogleg Oriented 
 DLSX.°/30m               3.60:  Dogleg Str Max 
 DRET.      13.41.20 12-Nov-20:  Drill End Time 
 DRST.      13.41.20 07-Nov-20:  Drill Start Tim 
 DTIM.hr                 54.16:  Time Drilling 
 EDEP.m                4762.01:  End Depth 
 ENG1.           Amrah Tahirov:  Engineer 1 
 ENG2.      Bakhtiyar Jabbarli:  Engineer 2 
 ENG3.          Ruslan Safarov:  Engineer 3 
 ETIM.      13.41.20 14-Nov-20:  End Time 
 FLOI.gpm              1200.00:  Flow In 
 FLON.gpm              1100.00:  Flow In Min 
 FLOS.cptm                0.00:  Fluid Loss 
 FLOX.gpm              1200.00:  Flow In Max 
 HFLO.                      No:  High Flow 
 HPRE.                      No:  High Pressure 
 HTEM.                      No:  High Temp 
 HYDO.m                   2.00:  Hydro Offset 
 IFIN.deg                66.14:  Inc, Final 
 IMAX.deg                69.03:  Inc Max 
 IMIN.deg                64.64:  Inc Min 
 IMND.m                4450.16:  Inc Min Depth 
 IMXD.m                3996.00:  Inc Max Depth 
 JARR.                     Yes:  Jarring 
 LETM.      13.41.20 14-Nov-20:  Log End Time 
 LOST.hr                     0:  Lost Rig Time 
 LSTM.      13.41.20 06-Nov-20:  Log Start Time 
 MDCL.ppm             42500.00:  Mud Chlorides 
 MDES.     Inversion Oil/Synthetic:  Mud Desc 
 DFD .sg                  1.45:  Mud Density 
 MDMN.sg                  1.45:  Dens Mud Min 
 MDMX.sg                  1.45:  Dens Mud Max 
 MOIL.                      70:  Run Mud Oil % 
 MOWR.                   70:30:  Run Mud OWR 
 MSND.                       0:  Run Mud Sand % 
 MSOL.                    19.3:  Run Mud Solids% 
 DFV .spqt               77.00:  Mud Viscosity 
 MWOD.in                  8.00:  MWD Tool OD 
 MWSI.                      No:  Serv Intrp, MWD 
 OTIM.hr                201.88:  Time Operating 
 PCON.           Look Like New:  Pad Condition 
 PMAX.psia             9250.94:  Press Op, Max 
 PV  .cP                 29.00:  Mud PV 
 RUN .                     800:  Run Number 
 ROPA.m/hr               28.00:  ROP Avg 
 ROPN.m/hr               25.00:  ROP Min 
 ROPX.m/hr               30.00:  ROP Max 
 RPMA.rpm               160.00:  RPM Surface Avg 
 RPMN.rpm               160.00:  RPM Surface Min 
 RPMX.rpm               160.00:  RPM Surface Max 
 RRUN.                    0800:  Rig Run Number 
 RTIM.hr                 12.00:  Time Reaming 
 SAZI.deg               169.33:  Azm, Start 
 SDEP.m                3449.01:  Start Depth 
 SIDD.                      No:  Serv Intrp, DD 
 SINC.deg                68.01:  Inc, Start 
 SPPA.psig             4900.00:  SPP Avg 
 SPPN.psig             4800.00:  SPP Min 
 SPPX.psig             5050.00:  SPP Max 
 STIM.      13.41.20 06-Nov-20:  Start Time 
 SVCS.                 DD, MWD:  Services 
 SVER.                    9.20:  Sperry Version 
 TDAT.m                4762.01:  Tot Depth Attmp 
 TDDF.                      No:  Trip for DD 
 TDLG.m                1313.00:  Tot Depth Loggd 
 TFF .                      No:  Trip for Fail 
 TQAA.f-kp               13.00:  Torque Abs Avg 
 TQAN.f-kp               13.00:  Torque Abs Min 
 TQAX.f-kp               13.00:  Torque Abs Max 
 TRRT.°/30m               1.70:  Turn Rotating 
 MRT .                  EWR-M5:  Maximum Recorded Temperature 
 TTMX.degC               86.00:  Max Tool Temp 
 VS01.                90622122:  Virtual Str1 SN 
 VS02.                90577298:  Virtual Str2 SN 
 VS03.                90563623:  Virtual Str3 SN 
 VS04.                90617559:  Virtual Str4 SN 
 VS05.                11339492:  Virtual Str5 SN 
 VS06.                12385033:  Virtual Str6 SN 
 WBMN.klb                 0.00:  WOB Min 
 WOBA.klb                22.00:  WOB Avg 
 WOBX.klb                26.00:  WOB Max 
 YP  .lhf2               30.00:  Yield Point 
~Curve Information Block
#MNEM.UNIT                 API CODE     Curve Description
#---------               -----------    ---------------------------
 TIME.HHMMSS            00 000 000 000:  GT Time & Date
 GTDEPTH.m              00 000 000 000:  GT Depth
 GTPQH.psia             00 000 000 000:  GT HR Quartz Pressure
 GTTQ.degC              00 000 000 000:  GT Quartz Temperature
 GTTN.NONE              00 000 000 000:  GT Test Number
 GTET.sec               00 000 000 000:  GT Elapsed Test Time
 GTTVD.m                00 000 000 000:  GT True Vertical Depth
#Other Information
#
#WARRANTY: Halliburton will use its best efforts to furnish customers with 
#accurate information and interpretations that are part of, and incident to, the services 
#provided.  However, Halliburton cannot and does not warrant the accuracy 
#or correctness of such information and interpretations.  Under no circumstances should any 
#such information or interpretation be relied upon as the sole basis for any drilling, 
#completion, production, or financial decision or any procedure involving any risk to the 
#safety of any drilling venture, drilling rig or its crew or any other third party.  The 
#Customer has full responsibility for all drilling, completion and production operation.  
#Halliburton makes no representations or warranties, either expressed or 
#implied, including, but not limited to, the implied warranties of merchantability or fitness 
#for a particular purpose, with respect to the services rendered.  In no event will 
#Halliburton be liable for failure to obtain any particular results or for 
#any damages, including, but not limited to, indirect, special or consequential damages, 
#resulting from the use of any information or interpretation provided by Halliburton.
#
~A           TIME           GTDEPTH  GTPQH  GTTQ  GTTN  GTET   GTTVD  
# ...
   13:59:39.974.08-Nov-2020 3585.71 3292.58 71.06 3.00 206.80 2034.99
   13:59:40.174.08-Nov-2020 3585.71 3292.58 71.06 3.00 207.00 2034.99
   13:59:40.374.08-Nov-2020 3585.71 3292.56 71.05 3.00 207.20 2034.99
   13:59:40.573.08-Nov-2020 3585.71 3292.56 71.05 3.00 207.40 2034.99
   13:59:40.773.08-Nov-2020 3585.71 3292.54 71.05 3.00 207.60 2034.99
   13:59:40.973.08-Nov-2020 3585.71 3292.52 71.05 3.00 207.80 2034.99
   13:59:41.173.08-Nov-2020 3585.71 3292.52 71.05 3.00 208.00 2034.99
   13:59:41.373.08-Nov-2020 3585.71 3292.61 71.05 3.00 208.20 2034.99
   13:59:41.572.08-Nov-2020 3585.71 3292.59 71.05 3.00 208.40 2034.99
   13:59:41.772.08-Nov-2020 3585.71 3292.60 71.05 3.00 208.60 2034.99
   13:59:41.972.08-Nov-2020 3585.71 3292.59 71.05 3.00 208.80 2034.99
   13:59:42.172.08-Nov-2020 3585.71 3292.59 71.04 3.00 209.00 2034.99
   13:59:42.372.08-Nov-2020 3585.71 3292.56 71.04 3.00 209.20 2034.99
   13:59:42.571.08-Nov-2020 3585.71 3292.55 71.04 3.00 209.40 2034.99
   13:59:42.771.08-Nov-2020 3585.71 3292.54 71.04 3.00 209.60 2034.99
   13:59:42.971.08-Nov-2020 3585.71 3292.55 71.04 3.00 209.80 2034.99
   13:59:43.171.08-Nov-2020 3585.71 3292.53 71.04 3.00 210.00 2034.99
   13:59:43.371.08-Nov-2020 3585.71 3292.54 71.04 3.00 210.20 2034.99
   13:59:43.570.08-Nov-2020 3585.71 3292.51 71.04 3.00 210.40 2034.99
   13:59:43.770.08-Nov-2020 3585.71 3292.55 71.04 3.00 210.60 2034.99
   13:59:43.970.08-Nov-2020 3585.71 3292.61 71.03 3.00 210.80 2034.99
   13:59:44.170.08-Nov-2020 3585.71 3292.61 71.03 3.00 211.00 2034.99
   13:59:44.370.08-Nov-2020 3585.71 3292.62 71.03 3.00 211.20 2034.99
   13:59:44.570.08-Nov-2020 3585.71 3292.63 71.03 3.00 211.40 2034.99
   13:59:44.769.08-Nov-2020 3585.71 3292.58 71.03 3.00 211.60 2034.99
   13:59:44.969.08-Nov-2020 3585.71 3292.58 71.03 3.00 211.80 2034.99
   13:59:45.169.08-Nov-2020 3585.71 3292.58 71.03 3.00 212.00 2034.99
   13:59:45.369.08-Nov-2020 3585.71 3292.61 71.03 3.00 212.20 2034.99
   13:59:45.569.08-Nov-2020 3585.71 3292.61 71.03 3.00 212.40 2034.99
   13:59:45.768.08-Nov-2020 3585.71 3292.61 71.03 3.00 212.60 2034.99
   13:59:45.968.08-Nov-2020 3585.71 3292.60 71.02 3.00 212.80 2034.99
   13:59:46.168.08-Nov-2020 3585.71 3292.60 71.02 3.00 212.99 2034.99
   13:59:46.368.08-Nov-2020 3585.71 3292.62 71.02 3.00 213.19 2034.99
   13:59:46.568.08-Nov-2020 3585.71 3292.62 71.02 3.00 213.39 2034.99
   13:59:46.767.08-Nov-2020 3585.71 3292.59 71.02 3.00 213.59 2034.99
   13:59:46.967.08-Nov-2020 3585.71 3292.61 71.02 3.00 213.79 2034.99
   13:59:47.167.08-Nov-2020 3585.71 3292.55 71.02 3.00 213.99 2034.99
   13:59:47.367.08-Nov-2020 3585.71 3292.65 71.02 3.00 214.19 2034.99
   13:59:47.567.08-Nov-2020 3585.71 3292.60 71.02 3.00 214.39 2034.99
   13:59:47.766.08-Nov-2020 3585.71 3292.60 71.01 3.00 214.59 2034.99
   13:59:47.966.08-Nov-2020 3585.71 3292.62 71.01 3.00 214.79 2034.99
   13:59:48.166.08-Nov-2020 3585.71 3292.62 71.01 3.00 214.99 2034.99
   13:59:48.366.08-Nov-2020 3585.71 3292.59 71.01 3.00 215.19 2034.99
   13:59:48.566.08-Nov-2020 3585.71 3292.58 71.01 3.00 215.39 2034.99
   13:59:48.765.08-Nov-2020 3585.71 3292.57 71.01 3.00 215.59 2034.99
   13:59:48.965.08-Nov-2020 3585.71 3292.57 71.01 3.00 215.79 2034.99
   13:59:49.165.08-Nov-2020 3585.71 3292.57 71.01 3.00 215.99 2034.99
   13:59:49.365.08-Nov-2020 3585.71 3292.55 71.01 3.00 216.19 2034.99
   13:59:49.565.08-Nov-2020 3585.71 3292.53 71.01 3.00 216.39 2034.99
   13:59:49.765.08-Nov-2020 3585.71 3292.55 71.00 3.00 216.59 2034.99
   13:59:49.964.08-Nov-2020 3585.71 3292.51 71.00 3.00 216.79 2034.99
   13:59:50.164.08-Nov-2020 3585.71 3292.51 71.00 3.00 216.99 2034.99
   13:59:50.364.08-Nov-2020 3585.71 3292.62 71.00 3.00 217.19 2034.99
   13:59:50.564.08-Nov-2020 3585.71 3292.57 71.00 3.00 217.39 2034.99
   13:59:50.764.08-Nov-2020 3585.71 3292.60 71.00 3.00 217.59 2034.99
   13:59:50.963.08-Nov-2020 3585.71 3292.57 71.00 3.00 217.79 2034.99
   13:59:51.163.08-Nov-2020 3585.71 3292.56 71.00 3.00 217.99 2034.99
   13:59:51.363.08-Nov-2020 3585.71 3292.56 71.00 3.00 218.19 2034.99
   13:59:51.563.08-Nov-2020 3585.71 3292.54 70.99 3.00 218.39 2034.99
   13:59:51.763.08-Nov-2020 3585.71 3292.54 70.99 3.00 218.59 2034.99
   13:59:51.962.08-Nov-2020 3585.71 3292.53 70.99 3.00 218.79 2034.99
   13:59:52.162.08-Nov-2020 3585.71 3292.52 70.99 3.00 218.99 2034.99
   13:59:52.362.08-Nov-2020 3585.71 3292.49 70.99 3.00 219.19 2034.99
   13:59:52.562.08-Nov-2020 3585.71 3292.57 70.99 3.00 219.39 2034.99
   13:59:52.762.08-Nov-2020 3585.71 3292.59 70.99 3.00 219.59 2034.99
   13:59:52.961.08-Nov-2020 3585.71 3292.53 70.99 3.00 219.79 2034.99
   13:59:53.161.08-Nov-2020 3585.71 3292.53 70.99 3.00 219.99 2034.99
   13:59:53.361.08-Nov-2020 3585.71 3292.60 70.99 3.00 220.19 2034.99
   13:59:53.561.08-Nov-2020 3585.71 3292.61 70.98 3.00 220.39 2034.99
   13:59:53.761.08-Nov-2020 3585.71 3292.61 70.98 3.00 220.59 2034.99
   13:59:53.960.08-Nov-2020 3585.71 3292.51 70.98 3.00 220.79 2034.99
   13:59:54.160.08-Nov-2020 3585.71 3292.51 70.98 3.00 220.99 2034.99
   13:59:54.360.08-Nov-2020 3585.71 3292.61 70.98 3.00 221.19 2034.99
   13:59:54.560.08-Nov-2020 3585.71 3292.58 70.98 3.00 221.39 2034.99
   13:59:54.760.08-Nov-2020 3585.71 3292.62 70.98 3.00 221.59 2034.99
   13:59:54.960.08-Nov-2020 3585.71 3292.53 70.98 3.00 221.79 2034.99
   13:59:55.159.08-Nov-2020 3585.71 3292.62 70.98 3.00 221.99 2034.99
   13:59:55.359.08-Nov-2020 3585.71 3292.59 70.97 3.00 222.19 2034.99
   13:59:55.559.08-Nov-2020 3585.71 3292.60 70.97 3.00 222.39 2034.99
   13:59:55.759.08-Nov-2020 3585.71 3292.62 70.97 3.00 222.59 2034.99
   13:59:55.959.08-Nov-2020 3585.71 3292.54 70.97 3.00 222.79 2034.99
   13:59:56.158.08-Nov-2020 3585.71 3292.54 70.97 3.00 222.99 2034.99
   13:59:56.358.08-Nov-2020 3585.71 3292.62 70.97 3.00 223.19 2034.99
   13:59:56.558.08-Nov-2020 3585.71 3292.60 70.97 3.00 223.38 2034.99
   13:59:56.758.08-Nov-2020 3585.71 3292.60 70.97 3.00 223.58 2034.99
   13:59:56.958.08-Nov-2020 3585.71 3292.58 70.97 3.00 223.78 2034.99
   13:59:57.157.08-Nov-2020 3585.71 3292.58 70.97 3.00 223.98 2034.99
   13:59:57.357.08-Nov-2020 3585.71 3292.57 70.96 3.00 224.18 2034.99
   13:59:57.557.08-Nov-2020 3585.71 3292.56 70.96 3.00 224.38 2034.99
   13:59:57.757.08-Nov-2020 3585.71 3292.56 70.96 3.00 224.58 2034.99
   13:59:57.957.08-Nov-2020 3585.71 3292.54 70.96 3.00 224.78 2034.99
   13:59:58.156.08-Nov-2020 3585.71 3292.55 70.96 3.00 224.98 2034.99
   13:59:58.356.08-Nov-2020 3585.71 3292.53 70.96 3.00 225.18 2034.99
   13:59:58.556.08-Nov-2020 3585.71 3292.54 70.96 3.00 225.38 2034.99
   13:59:58.756.08-Nov-2020 3585.71 3292.47 70.96 3.00 225.58 2034.99
   13:59:58.956.08-Nov-2020 3585.71 3292.62 70.96 3.00 225.78 2034.99
   13:59:59.155.08-Nov-2020 3585.71 3292.62 70.96 3.00 225.98 2034.99
   13:59:59.355.08-Nov-2020 3585.71 3292.59 70.95 3.00 226.18 2034.99
   13:59:59.555.08-Nov-2020 3585.71 3292.58 70.95 3.00 226.38 2034.99
   13:59:59.755.08-Nov-2020 3585.71 3292.55 70.95 3.00 226.58 2034.99
   13:59:59.955.08-Nov-2020 3585.71 3292.58 70.95 3.00 226.78 2034.99
   14:00:00.155.08-Nov-2020 3585.71 3292.55 70.95 3.00 226.98 2034.99
   14:00:00.354.08-Nov-2020 3585.71 3292.56 70.95 3.00 227.18 2034.99
   14:00:00.554.08-Nov-2020 3585.71 3292.53 70.95 3.00 227.38 2034.99
   14:00:00.754.08-Nov-2020 3585.71 3292.54 70.95 3.00 227.58 2034.99
   14:00:00.954.08-Nov-2020 3585.71 3292.53 70.95 3.00 227.78 2034.99
   14:00:01.154.08-Nov-2020 3585.71 3292.53 70.95 3.00 227.98 2034.99
   14:00:01.353.08-Nov-2020 3585.71 3292.46 70.94 3.00 228.18 2034.99
   14:00:01.553.08-Nov-2020 3585.71 3292.57 70.94 3.00 228.38 2034.99
   14:00:01.753.08-Nov-2020 3585.71 3292.60 70.94 3.00 228.58 2034.99
   14:00:01.953.08-Nov-2020 3585.71 3292.44 70.94 3.00 228.78 2034.99
   14:00:02.153.08-Nov-2020 3585.71 3292.44 70.94 3.00 228.98 2034.99
   14:00:02.352.08-Nov-2020 3585.71 3292.60 70.94 3.00 229.18 2034.99
   14:00:02.552.08-Nov-2020 3585.71 3292.58 70.94 3.00 229.38 2034.99
   14:00:02.752.08-Nov-2020 3585.71 3292.57 70.94 3.00 229.58 2034.99
