~Version Information
 VERS.                  2.0:   CWLS log ASCII Standard -VERSION 2.0
 WRAP.                   NO:   One line per depth step
~Well Information Block
#MNEM.UNIT     VALUE/NAME     DESCRIPTION
#---------     -----------    ---------------------------
 STRT.S             12:15:13 08-Nov-20: START TIME 12:15:13 08-Nov-20
 STOP.S             12:21:45 08-Nov-20: STOP TIME  12:21:45 08-Nov-20
 STEP.S                   0.00: STEP TIME
 NULL.                 -999.25: NULL VALUE
 DFWT.                        :  DIST FWL TEXT
 DFST.                        :  DIST FSL TEXT
 DMF .             Drill Floor:  DRILL MEAS FROM
 STIM.      04.54.24 22-Sep-20:  START TIME
 DATE.      04.54.24 21-Nov-20:  END TIME
 SPUD.               21-Nov-20:  SPUD DATE
 NREF.                    Grid:  NORTH REFERENCE
 HPTY.       Minimum Curvature:  HOLE POS TYPE
 DMOD.             Drill Model:  DRILL MOD DESC
 SVYD.                  Survey:  SURVEY DESC
 ILTD.               Lithology:  INTERP LTH DESC
 FTOP.          Formation Tops:  FORM TOPS DESC
 SON .        AZ-XX-0906571587:  JOB NUMBER
 COMP.     BP Exploration (Caspian Sea) Ltd:  COMPANY
 UWI .                     N/A:  UNIQUE WELL IDENTIFIER
 API .                     N/A:  API NUMBER
 BASE.              Azerbaijan:  LOGGING EQUIPMENT BASE LOCATION
 REGN.                   EESSA:  REGION
 PROV.                    Baku:  PROVINCE
 STAT.                    Baku:  STATE NAME
 CTRY.              Azerbaijan:  COUNTRY NAME
 FLD .                     ACG:  FIELD NAME
 SRVC.     TURAN Drilling & Engineering:  CONTRACTOR
 WELL.                     J27:  WELL NAME
 RIG .             West Chirag:  RIG NAME
 DOE .                     N/A:  DOE NUMBER
 DCON.         Sperry Drilling:  DIRECTNL CONTR
 PDAT.          Mean Sea Level:  PERMANENT DATUM
 WTYP.                Deviated:  WELL TYPE
 MWDS.                    Baku:  MWD SHOP
 JOBN.        AZ-XX-0906571587:  JOB TICKET NUMB
 UNIT.                     N/A:  LOGGING EQUIPMENT ID
 MDS .        Operator Entered:  MAG DATA SOURCE
 CNTY.                        :  COUNTY
 LOC .                        :  LOCATION
 LMF .             Drill Floor:  LOG MEASURED FROM
 TVDS.m                  43.00:  TVDSS CORRECTN
 LATI.deg                40.13:  LATITUDE
 LONG.deg                51.22:  LONGITUDE
 WHNS.m                   7.72:  WELL HEAD N/S
 WHEW.m                 -14.24:  WELL HEAD E/W
 UTMX.m              519005.06:  UTM X
 UTMY.m             4443793.85:  UTM Y
 DFWL.m                   0.00:  DISTANCE FWL
 DFSL.m                   0.00:  DISTANCE FSL
 SDEP.m                 347.00:  START DEPTH
 TDD .m                 581.00:  TOTAL DEPTH (DRILLER)
 VSDR.deg               159.72:  VERT SEC DIRECT
 GVFD.g                   1.00:  GRAVITY FIELD
 MFLD.nT              50313.00:  MAGNETIC FIELD
 MDIP.deg                59.58:  MAGNETIC DIP
 MDEC.deg                 6.45:  MAGNETIC DECL
 GRDC.deg                 0.15:  GRID CORRECTION
 AZTC.deg                 6.30:  AZM TOTAL CORR
 EPD .m                   0.00:  ELEVATION
 EGL .m                   0.00:  GROUND ELEVATION
 WDMS.m                 169.80:  WD ELEV
 APD .m                  43.00:  DEPTH ABOVE PD
 AGAP.m                  43.00:  AIR GAP
 VSEW.m                 -14.24:  VERT SEC E/W
 VSNS.m                   7.72:  VERT SEC N/S
 DEP .m                 342.45:  DEPTH
 EKB .m                   0.00:  KB ELEVATION
 EDF .m                  43.00:  DF ELEVATION
 TDL .m                1313.00:  TOTAL DEPTH (LOGGER)
 VSC .                       0:  VS TO CLOSURE
 MAGU.                 1851396:  MAGUTM CHECKSUM
~Parameter Information Block
#MNEM.UNIT       Value        Description
#---------     -----------    ---------------------------
 AV  .mps                 0.65:  Ann Velocity 
 AVMX.mps                 0.75:  Max Ann Veloc 
 AZIF.deg               115.08:  Azm, Final 
 BHAT.        Rotary Steerable:  BHA Type 
 BROT.°/30m               1.50:  Build Rotating 
 BS  .in                 12.25:  Bit Size 
 BSZ .in                 12.25:  Bit Size 
 BTPL.psig              700.00:  Bit Press Loss 
 CABU.                     Yes:  Customer Abuse 
 COMM.                     „*[:  Run Comments 1 
 TCS .hr                121.00:  Time Ciculation Ended 
 CV  .mps                 1.83:  Crit Velocity 
 CVMX.mps                 1.83:  Max Crit Veloc 
 DD1 .          Rashad Habibov:  Direct Drillr 1 
 DD2 .         Rasim Ibrahimov:  Direct Drillr 2 
 DDSV.                 iCruise:  DD Service 
 DEFF.%                 100.00:  % Det Eff 
 DLRX.°/30m               3.60:  Dogleg Rot Max 
 DLSO.°/30m               3.10:  Dogleg Oriented 
 DLSX.°/30m               3.60:  Dogleg Str Max 
 DRET.      13.41.20 12-Nov-20:  Drill End Time 
 DRST.      13.41.20 07-Nov-20:  Drill Start Tim 
 DTIM.hr                 54.16:  Time Drilling 
 EDEP.m                4762.01:  End Depth 
 ENG1.           Amrah Tahirov:  Engineer 1 
 ENG2.      Bakhtiyar Jabbarli:  Engineer 2 
 ENG3.          Ruslan Safarov:  Engineer 3 
 ETIM.      13.41.20 14-Nov-20:  End Time 
 FLOI.gpm              1200.00:  Flow In 
 FLON.gpm              1100.00:  Flow In Min 
 FLOS.cptm                0.00:  Fluid Loss 
 FLOX.gpm              1200.00:  Flow In Max 
 HFLO.                      No:  High Flow 
 HPRE.                      No:  High Pressure 
 HTEM.                      No:  High Temp 
 HYDO.m                   2.00:  Hydro Offset 
 IFIN.deg                66.14:  Inc, Final 
 IMAX.deg                69.03:  Inc Max 
 IMIN.deg                64.64:  Inc Min 
 IMND.m                4450.16:  Inc Min Depth 
 IMXD.m                3996.00:  Inc Max Depth 
 JARR.                     Yes:  Jarring 
 LETM.      13.41.20 14-Nov-20:  Log End Time 
 LOST.hr                     0:  Lost Rig Time 
 LSTM.      13.41.20 06-Nov-20:  Log Start Time 
 MDCL.ppm             42500.00:  Mud Chlorides 
 MDES.     Inversion Oil/Synthetic:  Mud Desc 
 DFD .sg                  1.45:  Mud Density 
 MDMN.sg                  1.45:  Dens Mud Min 
 MDMX.sg                  1.45:  Dens Mud Max 
 MOIL.                      70:  Run Mud Oil % 
 MOWR.                   70:30:  Run Mud OWR 
 MSND.                       0:  Run Mud Sand % 
 MSOL.                    19.3:  Run Mud Solids% 
 DFV .spqt               77.00:  Mud Viscosity 
 MWOD.in                  8.00:  MWD Tool OD 
 MWSI.                      No:  Serv Intrp, MWD 
 OTIM.hr                201.88:  Time Operating 
 PCON.           Look Like New:  Pad Condition 
 PMAX.psia             9250.94:  Press Op, Max 
 PV  .cP                 29.00:  Mud PV 
 RUN .                     800:  Run Number 
 ROPA.m/hr               28.00:  ROP Avg 
 ROPN.m/hr               25.00:  ROP Min 
 ROPX.m/hr               30.00:  ROP Max 
 RPMA.rpm               160.00:  RPM Surface Avg 
 RPMN.rpm               160.00:  RPM Surface Min 
 RPMX.rpm               160.00:  RPM Surface Max 
 RRUN.                    0800:  Rig Run Number 
 RTIM.hr                 12.00:  Time Reaming 
 SAZI.deg               169.33:  Azm, Start 
 SDEP.m                3449.01:  Start Depth 
 SIDD.                      No:  Serv Intrp, DD 
 SINC.deg                68.01:  Inc, Start 
 SPPA.psig             4900.00:  SPP Avg 
 SPPN.psig             4800.00:  SPP Min 
 SPPX.psig             5050.00:  SPP Max 
 STIM.      13.41.20 06-Nov-20:  Start Time 
 SVCS.                 DD, MWD:  Services 
 SVER.                    9.20:  Sperry Version 
 TDAT.m                4762.01:  Tot Depth Attmp 
 TDDF.                      No:  Trip for DD 
 TDLG.m                1313.00:  Tot Depth Loggd 
 TFF .                      No:  Trip for Fail 
 TQAA.f-kp               13.00:  Torque Abs Avg 
 TQAN.f-kp               13.00:  Torque Abs Min 
 TQAX.f-kp               13.00:  Torque Abs Max 
 TRRT.°/30m               1.70:  Turn Rotating 
 MRT .                  EWR-M5:  Maximum Recorded Temperature 
 TTMX.degC               86.00:  Max Tool Temp 
 VS01.                90622122:  Virtual Str1 SN 
 VS02.                90577298:  Virtual Str2 SN 
 VS03.                90563623:  Virtual Str3 SN 
 VS04.                90617559:  Virtual Str4 SN 
 VS05.                11339492:  Virtual Str5 SN 
 VS06.                12385033:  Virtual Str6 SN 
 WBMN.klb                 0.00:  WOB Min 
 WOBA.klb                22.00:  WOB Avg 
 WOBX.klb                26.00:  WOB Max 
 YP  .lhf2               30.00:  Yield Point 
~Curve Information Block
#MNEM.UNIT                 API CODE     Curve Description
#---------               -----------    ---------------------------
 TIME.HHMMSS            00 000 000 000:  GT Time & Date
 GTDEPTH.m              00 000 000 000:  GT Depth
 GTPQH.psia             00 000 000 000:  GT HR Quartz Pressure
 GTTQ.degC              00 000 000 000:  GT Quartz Temperature
 GTTN.NONE              00 000 000 000:  GT Test Number
 GTET.sec               00 000 000 000:  GT Elapsed Test Time
 GTTVD.m                00 000 000 000:  GT True Vertical Depth
#Other Information
#
#WARRANTY: Halliburton will use its best efforts to furnish customers with 
#accurate information and interpretations that are part of, and incident to, the services 
#provided.  However, Halliburton cannot and does not warrant the accuracy 
#or correctness of such information and interpretations.  Under no circumstances should any 
#such information or interpretation be relied upon as the sole basis for any drilling, 
#completion, production, or financial decision or any procedure involving any risk to the 
#safety of any drilling venture, drilling rig or its crew or any other third party.  The 
#Customer has full responsibility for all drilling, completion and production operation.  
#Halliburton makes no representations or warranties, either expressed or 
#implied, including, but not limited to, the implied warranties of merchantability or fitness 
#for a particular purpose, with respect to the services rendered.  In no event will 
#Halliburton be liable for failure to obtain any particular results or for 
#any damages, including, but not limited to, indirect, special or consequential damages, 
#resulting from the use of any information or interpretation provided by Halliburton.
#
~A           TIME           GTDEPTH  GTPQH  GTTQ  GTTN  GTET   GTTVD  
# ...
   12:19:49.000.08-Nov-2020 3568.06 3289.73 69.83 2.00 276.00 2028.53
   12:19:49.200.08-Nov-2020 3568.06 3289.73 69.83 2.00 276.20 2028.53
   12:19:49.400.08-Nov-2020 3568.06 3289.72 69.83 2.00 276.40 2028.53
   12:19:49.600.08-Nov-2020 3568.06 3289.71 69.83 2.00 276.60 2028.53
   12:19:49.800.08-Nov-2020 3568.06 3289.71 69.82 2.00 276.80 2028.53
   12:19:50.000.08-Nov-2020 3568.06 3289.71 69.82 2.00 277.00 2028.53
   12:19:50.200.08-Nov-2020 3568.06 3289.71 69.82 2.00 277.20 2028.53
   12:19:50.400.08-Nov-2020 3568.06 3289.76 69.82 2.00 277.40 2028.53
   12:19:50.600.08-Nov-2020 3568.06 3289.76 69.82 2.00 277.60 2028.53
   12:19:50.800.08-Nov-2020 3568.06 3289.72 69.82 2.00 277.80 2028.53
   12:19:51.000.08-Nov-2020 3568.06 3289.79 69.82 2.00 278.00 2028.53
   12:19:51.200.08-Nov-2020 3568.06 3289.79 69.82 2.00 278.20 2028.53
   12:19:51.400.08-Nov-2020 3568.06 3289.76 69.82 2.00 278.40 2028.53
   12:19:51.600.08-Nov-2020 3568.06 3289.78 69.82 2.00 278.60 2028.53
   12:19:51.800.08-Nov-2020 3568.06 3289.71 69.82 2.00 278.80 2028.53
   12:19:52.000.08-Nov-2020 3568.06 3289.79 69.81 2.00 279.00 2028.53
   12:19:52.200.08-Nov-2020 3568.06 3289.79 69.81 2.00 279.20 2028.53
   12:19:52.400.08-Nov-2020 3568.06 3289.76 69.81 2.00 279.40 2028.53
   12:19:52.600.08-Nov-2020 3568.06 3289.76 69.81 2.00 279.60 2028.53
   12:19:52.800.08-Nov-2020 3568.06 3289.72 69.81 2.00 279.80 2028.53
   12:19:53.000.08-Nov-2020 3568.06 3289.79 69.81 2.00 280.00 2028.53
   12:19:53.200.08-Nov-2020 3568.06 3289.79 69.81 2.00 280.20 2028.53
   12:19:53.400.08-Nov-2020 3568.06 3289.77 69.81 2.00 280.40 2028.53
   12:19:53.600.08-Nov-2020 3568.06 3289.77 69.81 2.00 280.60 2028.53
   12:19:53.800.08-Nov-2020 3568.06 3289.74 69.81 2.00 280.80 2028.53
   12:19:54.000.08-Nov-2020 3568.06 3289.79 69.81 2.00 281.00 2028.53
   12:19:54.200.08-Nov-2020 3568.06 3289.79 69.81 2.00 281.20 2028.53
   12:19:54.400.08-Nov-2020 3568.06 3289.77 69.80 2.00 281.40 2028.53
   12:19:54.600.08-Nov-2020 3568.06 3289.78 69.80 2.00 281.60 2028.53
   12:19:54.800.08-Nov-2020 3568.06 3289.75 69.80 2.00 281.80 2028.53
   12:19:55.000.08-Nov-2020 3568.06 3289.75 69.80 2.00 282.00 2028.53
   12:19:55.200.08-Nov-2020 3568.06 3289.75 69.80 2.00 282.20 2028.53
   12:19:55.400.08-Nov-2020 3568.06 3289.73 69.80 2.00 282.40 2028.53
   12:19:55.600.08-Nov-2020 3568.06 3289.74 69.80 2.00 282.60 2028.53
   12:19:55.800.08-Nov-2020 3568.06 3289.74 69.80 2.00 282.80 2028.53
   12:19:56.000.08-Nov-2020 3568.06 3289.72 69.80 2.00 283.00 2028.53
   12:19:56.200.08-Nov-2020 3568.06 3289.72 69.80 2.00 283.20 2028.53
   12:19:56.400.08-Nov-2020 3568.06 3289.72 69.80 2.00 283.40 2028.53
   12:19:56.600.08-Nov-2020 3568.06 3289.67 69.79 2.00 283.60 2028.53
   12:19:56.800.08-Nov-2020 3568.06 3289.78 69.79 2.00 283.80 2028.53
   12:19:57.000.08-Nov-2020 3568.06 3289.77 69.79 2.00 284.00 2028.53
   12:19:57.200.08-Nov-2020 3568.06 3289.77 69.79 2.00 284.20 2028.53
   12:19:57.400.08-Nov-2020 3568.06 3289.77 69.79 2.00 284.40 2028.53
   12:19:57.600.08-Nov-2020 3568.06 3289.74 69.79 2.00 284.60 2028.53
   12:19:57.800.08-Nov-2020 3568.06 3289.74 69.79 2.00 284.80 2028.53
   12:19:58.000.08-Nov-2020 3568.06 3289.74 69.79 2.00 285.00 2028.53
   12:19:58.200.08-Nov-2020 3568.06 3289.74 69.79 2.00 285.20 2028.53
   12:19:58.400.08-Nov-2020 3568.06 3289.72 69.79 2.00 285.40 2028.53
   12:19:58.600.08-Nov-2020 3568.06 3289.72 69.79 2.00 285.60 2028.53
   12:19:58.800.08-Nov-2020 3568.06 3289.72 69.79 2.00 285.80 2028.53
   12:19:59.000.08-Nov-2020 3568.06 3289.71 69.78 2.00 286.00 2028.53
   12:19:59.200.08-Nov-2020 3568.06 3289.71 69.78 2.00 286.20 2028.53
   12:19:59.400.08-Nov-2020 3568.06 3289.78 69.78 2.00 286.40 2028.53
   12:19:59.600.08-Nov-2020 3568.06 3289.75 69.78 2.00 286.60 2028.53
   12:19:59.800.08-Nov-2020 3568.06 3289.71 69.78 2.00 286.80 2028.53
   12:20:00.000.08-Nov-2020 3568.06 3289.80 69.78 2.00 287.00 2028.53
   12:20:00.200.08-Nov-2020 3568.06 3289.80 69.78 2.00 287.20 2028.53
   12:20:00.400.08-Nov-2020 3568.06 3289.77 69.78 2.00 287.40 2028.53
   12:20:00.600.08-Nov-2020 3568.06 3289.71 69.78 2.00 287.60 2028.53
   12:20:00.800.08-Nov-2020 3568.06 3289.79 69.78 2.00 287.80 2028.53
   12:20:01.000.08-Nov-2020 3568.06 3289.78 69.78 2.00 288.00 2028.53
   12:20:01.200.08-Nov-2020 3568.06 3289.78 69.78 2.00 288.20 2028.53
   12:20:01.400.08-Nov-2020 3568.06 3289.79 69.77 2.00 288.40 2028.53
   12:20:01.600.08-Nov-2020 3568.06 3289.76 69.77 2.00 288.60 2028.53
   12:20:01.800.08-Nov-2020 3568.06 3289.72 69.77 2.00 288.80 2028.53
   12:20:02.000.08-Nov-2020 3568.06 3289.80 69.77 2.00 289.00 2028.53
   12:20:02.200.08-Nov-2020 3568.06 3289.80 69.77 2.00 289.20 2028.53
   12:20:02.400.08-Nov-2020 3568.06 3289.78 69.77 2.00 289.40 2028.53
   12:20:02.600.08-Nov-2020 3568.06 3289.79 69.77 2.00 289.60 2028.53
   12:20:02.800.08-Nov-2020 3568.06 3289.73 69.77 2.00 289.80 2028.53
   12:20:03.000.08-Nov-2020 3568.06 3289.81 69.77 2.00 290.00 2028.53
   12:20:03.200.08-Nov-2020 3568.06 3289.81 69.77 2.00 290.20 2028.53
   12:20:03.400.08-Nov-2020 3568.06 3289.77 69.77 2.00 290.40 2028.53
   12:20:03.600.08-Nov-2020 3568.06 3289.78 69.76 2.00 290.60 2028.53
   12:20:03.800.08-Nov-2020 3568.06 3289.77 69.76 2.00 290.80 2028.53
   12:20:04.000.08-Nov-2020 3568.06 3289.76 69.76 2.00 291.00 2028.53
   12:20:04.200.08-Nov-2020 3568.06 3289.76 69.76 2.00 291.20 2028.53
   12:20:04.400.08-Nov-2020 3568.06 3289.75 69.76 2.00 291.40 2028.53
   12:20:04.600.08-Nov-2020 3568.06 3289.74 69.76 2.00 291.60 2028.53
   12:20:04.800.08-Nov-2020 3568.06 3289.74 69.76 2.00 291.80 2028.53
   12:20:05.000.08-Nov-2020 3568.06 3289.74 69.76 2.00 292.00 2028.53
   12:20:05.200.08-Nov-2020 3568.06 3289.74 69.76 2.00 292.20 2028.53
   12:20:05.400.08-Nov-2020 3568.06 3289.73 69.76 2.00 292.40 2028.53
   12:20:05.600.08-Nov-2020 3568.06 3289.69 69.76 2.00 292.60 2028.53
   12:20:05.800.08-Nov-2020 3568.06 3289.79 69.76 2.00 292.80 2028.53
   12:20:06.000.08-Nov-2020 3568.06 3289.77 69.75 2.00 293.00 2028.53
   12:20:06.200.08-Nov-2020 3568.06 3289.77 69.75 2.00 293.20 2028.53
   12:20:06.400.08-Nov-2020 3568.06 3289.76 69.75 2.00 293.40 2028.53
   12:20:06.600.08-Nov-2020 3568.06 3289.75 69.75 2.00 293.60 2028.53
   12:20:06.800.08-Nov-2020 3568.06 3289.75 69.75 2.00 293.80 2028.53
   12:20:07.000.08-Nov-2020 3568.06 3289.74 69.75 2.00 294.00 2028.53
   12:20:07.200.08-Nov-2020 3568.06 3289.74 69.75 2.00 294.20 2028.53
   12:20:07.400.08-Nov-2020 3568.06 3289.73 69.75 2.00 294.40 2028.53
   12:20:07.600.08-Nov-2020 3568.06 3289.73 69.75 2.00 294.60 2028.53
   12:20:07.800.08-Nov-2020 3568.06 3289.73 69.75 2.00 294.80 2028.53
   12:20:08.000.08-Nov-2020 3568.06 3289.72 69.75 2.00 295.00 2028.53
   12:20:08.200.08-Nov-2020 3568.06 3289.72 69.75 2.00 295.20 2028.53
   12:20:08.400.08-Nov-2020 3568.06 3289.79 69.74 2.00 295.40 2028.53
   12:20:08.600.08-Nov-2020 3568.06 3289.71 69.74 2.00 295.60 2028.53
   12:20:08.800.08-Nov-2020 3568.06 3289.79 69.74 2.00 295.80 2028.53
   12:20:09.000.08-Nov-2020 3568.06 3289.79 69.74 2.00 296.00 2028.53
   12:20:09.200.08-Nov-2020 3568.06 3289.79 69.74 2.00 296.20 2028.53
   12:20:09.400.08-Nov-2020 3568.06 3289.78 69.74 2.00 296.40 2028.53
   12:20:09.600.08-Nov-2020 3568.06 3289.72 69.74 2.00 296.60 2028.53
   12:20:09.800.08-Nov-2020 3568.06 3289.80 69.74 2.00 296.80 2028.53
   12:20:10.000.08-Nov-2020 3568.06 3289.78 69.74 2.00 297.00 2028.53
   12:20:10.200.08-Nov-2020 3568.06 3289.78 69.74 2.00 297.20 2028.53
   12:20:10.400.08-Nov-2020 3568.06 3289.77 69.74 2.00 297.40 2028.53
   12:20:10.600.08-Nov-2020 3568.06 3289.73 69.73 2.00 297.60 2028.53
   12:20:10.800.08-Nov-2020 3568.06 3289.80 69.73 2.00 297.80 2028.53
   12:20:11.000.08-Nov-2020 3568.06 3289.77 69.73 2.00 298.00 2028.53
   12:20:11.200.08-Nov-2020 3568.06 3289.77 69.73 2.00 298.20 2028.53
   12:20:11.400.08-Nov-2020 3568.06 3289.78 69.73 2.00 298.40 2028.53
   12:20:11.600.08-Nov-2020 3568.06 3289.71 69.73 2.00 298.60 2028.53
   12:20:11.800.08-Nov-2020 3568.06 3289.80 69.73 2.00 298.80 2028.53
