~Version Information
 VERS.                  2.0:   CWLS log ASCII Standard -VERSION 2.0
 WRAP.                   NO:   One line per depth step
~Well Information Block
#MNEM.UNIT     VALUE/NAME     DESCRIPTION
#---------     -----------    ---------------------------
 STRT.S             21:54:12 08-Nov-20: START TIME 21:54:12 08-Nov-20
 STOP.S             22:00:43 08-Nov-20: STOP TIME  22:00:43 08-Nov-20
 STEP.S                   0.00: STEP TIME
 NULL.                 -999.25: NULL VALUE
 DFWT.                        :  DIST FWL TEXT
 DFST.                        :  DIST FSL TEXT
 DMF .             Drill Floor:  DRILL MEAS FROM
 STIM.      04.54.24 22-Sep-20:  START TIME
 DATE.      04.54.24 21-Nov-20:  END TIME
 SPUD.               21-Nov-20:  SPUD DATE
 NREF.                    Grid:  NORTH REFERENCE
 HPTY.       Minimum Curvature:  HOLE POS TYPE
 DMOD.             Drill Model:  DRILL MOD DESC
 SVYD.                  Survey:  SURVEY DESC
 ILTD.               Lithology:  INTERP LTH DESC
 FTOP.          Formation Tops:  FORM TOPS DESC
 SON .        AZ-XX-0906571587:  JOB NUMBER
 COMP.     BP Exploration (Caspian Sea) Ltd:  COMPANY
 UWI .                     N/A:  UNIQUE WELL IDENTIFIER
 API .                     N/A:  API NUMBER
 BASE.              Azerbaijan:  LOGGING EQUIPMENT BASE LOCATION
 REGN.                   EESSA:  REGION
 PROV.                    Baku:  PROVINCE
 STAT.                    Baku:  STATE NAME
 CTRY.              Azerbaijan:  COUNTRY NAME
 FLD .                     ACG:  FIELD NAME
 SRVC.     TURAN Drilling & Engineering:  CONTRACTOR
 WELL.                     J27:  WELL NAME
 RIG .             West Chirag:  RIG NAME
 DOE .                     N/A:  DOE NUMBER
 DCON.         Sperry Drilling:  DIRECTNL CONTR
 PDAT.          Mean Sea Level:  PERMANENT DATUM
 WTYP.                Deviated:  WELL TYPE
 MWDS.                    Baku:  MWD SHOP
 JOBN.        AZ-XX-0906571587:  JOB TICKET NUMB
 UNIT.                     N/A:  LOGGING EQUIPMENT ID
 MDS .        Operator Entered:  MAG DATA SOURCE
 CNTY.                        :  COUNTY
 LOC .                        :  LOCATION
 LMF .             Drill Floor:  LOG MEASURED FROM
 TVDS.m                  43.00:  TVDSS CORRECTN
 LATI.deg                40.13:  LATITUDE
 LONG.deg                51.22:  LONGITUDE
 WHNS.m                   7.72:  WELL HEAD N/S
 WHEW.m                 -14.24:  WELL HEAD E/W
 UTMX.m              519005.06:  UTM X
 UTMY.m             4443793.85:  UTM Y
 DFWL.m                   0.00:  DISTANCE FWL
 DFSL.m                   0.00:  DISTANCE FSL
 SDEP.m                 347.00:  START DEPTH
 TDD .m                 581.00:  TOTAL DEPTH (DRILLER)
 VSDR.deg               159.72:  VERT SEC DIRECT
 GVFD.g                   1.00:  GRAVITY FIELD
 MFLD.nT              50313.00:  MAGNETIC FIELD
 MDIP.deg                59.58:  MAGNETIC DIP
 MDEC.deg                 6.45:  MAGNETIC DECL
 GRDC.deg                 0.15:  GRID CORRECTION
 AZTC.deg                 6.30:  AZM TOTAL CORR
 EPD .m                   0.00:  ELEVATION
 EGL .m                   0.00:  GROUND ELEVATION
 WDMS.m                 169.80:  WD ELEV
 APD .m                  43.00:  DEPTH ABOVE PD
 AGAP.m                  43.00:  AIR GAP
 VSEW.m                 -14.24:  VERT SEC E/W
 VSNS.m                   7.72:  VERT SEC N/S
 DEP .m                 342.45:  DEPTH
 EKB .m                   0.00:  KB ELEVATION
 EDF .m                  43.00:  DF ELEVATION
 TDL .m                1313.00:  TOTAL DEPTH (LOGGER)
 VSC .                       0:  VS TO CLOSURE
 MAGU.                 1851396:  MAGUTM CHECKSUM
~Parameter Information Block
#MNEM.UNIT       Value        Description
#---------     -----------    ---------------------------
 AV  .mps                 0.65:  Ann Velocity 
 AVMX.mps                 0.75:  Max Ann Veloc 
 AZIF.deg               115.08:  Azm, Final 
 BHAT.        Rotary Steerable:  BHA Type 
 BROT.∞/30m               1.50:  Build Rotating 
 BS  .in                 12.25:  Bit Size 
 BSZ .in                 12.25:  Bit Size 
 BTPL.psig              700.00:  Bit Press Loss 
 CABU.                     Yes:  Customer Abuse 
 COMM.                     „J:  Run Comments 1 
 TCS .hr                121.00:  Time Ciculation Ended 
 CV  .mps                 1.83:  Crit Velocity 
 CVMX.mps                 1.83:  Max Crit Veloc 
 DD1 .          Rashad Habibov:  Direct Drillr 1 
 DD2 .         Rasim Ibrahimov:  Direct Drillr 2 
 DDSV.                 iCruise:  DD Service 
 DEFF.%                 100.00:  % Det Eff 
 DLRX.∞/30m               3.60:  Dogleg Rot Max 
 DLSO.∞/30m               3.10:  Dogleg Oriented 
 DLSX.∞/30m               3.60:  Dogleg Str Max 
 DRET.      13.41.20 12-Nov-20:  Drill End Time 
 DRST.      13.41.20 07-Nov-20:  Drill Start Tim 
 DTIM.hr                 54.16:  Time Drilling 
 EDEP.m                4762.01:  End Depth 
 ENG1.           Amrah Tahirov:  Engineer 1 
 ENG2.      Bakhtiyar Jabbarli:  Engineer 2 
 ENG3.          Ruslan Safarov:  Engineer 3 
 ETIM.      13.41.20 14-Nov-20:  End Time 
 FLOI.gpm              1200.00:  Flow In 
 FLON.gpm              1100.00:  Flow In Min 
 FLOS.cptm                0.00:  Fluid Loss 
 FLOX.gpm              1200.00:  Flow In Max 
 HFLO.                      No:  High Flow 
 HPRE.                      No:  High Pressure 
 HTEM.                      No:  High Temp 
 HYDO.m                   2.00:  Hydro Offset 
 IFIN.deg                66.14:  Inc, Final 
 IMAX.deg                69.03:  Inc Max 
 IMIN.deg                64.64:  Inc Min 
 IMND.m                4450.16:  Inc Min Depth 
 IMXD.m                3996.00:  Inc Max Depth 
 JARR.                     Yes:  Jarring 
 LETM.      13.41.20 14-Nov-20:  Log End Time 
 LOST.hr                     0:  Lost Rig Time 
 LSTM.      13.41.20 06-Nov-20:  Log Start Time 
 MDCL.ppm             42500.00:  Mud Chlorides 
 MDES.     Inversion Oil/Synthetic:  Mud Desc 
 DFD .sg                  1.45:  Mud Density 
 MDMN.sg                  1.45:  Dens Mud Min 
 MDMX.sg                  1.45:  Dens Mud Max 
 MOIL.                      70:  Run Mud Oil % 
 MOWR.                   70:30:  Run Mud OWR 
 MSND.                       0:  Run Mud Sand % 
 MSOL.                    19.3:  Run Mud Solids% 
 DFV .spqt               77.00:  Mud Viscosity 
 MWOD.in                  8.00:  MWD Tool OD 
 MWSI.                      No:  Serv Intrp, MWD 
 OTIM.hr                201.88:  Time Operating 
 PCON.           Look Like New:  Pad Condition 
 PMAX.psia             9250.94:  Press Op, Max 
 PV  .cP                 29.00:  Mud PV 
 RUN .                     800:  Run Number 
 ROPA.m/hr               28.00:  ROP Avg 
 ROPN.m/hr               25.00:  ROP Min 
 ROPX.m/hr               30.00:  ROP Max 
 RPMA.rpm               160.00:  RPM Surface Avg 
 RPMN.rpm               160.00:  RPM Surface Min 
 RPMX.rpm               160.00:  RPM Surface Max 
 RRUN.                    0800:  Rig Run Number 
 RTIM.hr                 12.00:  Time Reaming 
 SAZI.deg               169.33:  Azm, Start 
 SDEP.m                3449.01:  Start Depth 
 SIDD.                      No:  Serv Intrp, DD 
 SINC.deg                68.01:  Inc, Start 
 SPPA.psig             4900.00:  SPP Avg 
 SPPN.psig             4800.00:  SPP Min 
 SPPX.psig             5050.00:  SPP Max 
 STIM.      13.41.20 06-Nov-20:  Start Time 
 SVCS.                 DD, MWD:  Services 
 SVER.                    9.20:  Sperry Version 
 TDAT.m                4762.01:  Tot Depth Attmp 
 TDDF.                      No:  Trip for DD 
 TDLG.m                1313.00:  Tot Depth Loggd 
 TFF .                      No:  Trip for Fail 
 TQAA.f-kp               13.00:  Torque Abs Avg 
 TQAN.f-kp               13.00:  Torque Abs Min 
 TQAX.f-kp               13.00:  Torque Abs Max 
 TRRT.∞/30m               1.70:  Turn Rotating 
 MRT .                  EWR-M5:  Maximum Recorded Temperature 
 TTMX.degC               86.00:  Max Tool Temp 
 VS01.                90622122:  Virtual Str1 SN 
 VS02.                90577298:  Virtual Str2 SN 
 VS03.                90563623:  Virtual Str3 SN 
 VS04.                90617559:  Virtual Str4 SN 
 VS05.                11339492:  Virtual Str5 SN 
 VS06.                12385033:  Virtual Str6 SN 
 WBMN.klb                 0.00:  WOB Min 
 WOBA.klb                22.00:  WOB Avg 
 WOBX.klb                26.00:  WOB Max 
 YP  .lhf2               30.00:  Yield Point 
~Curve Information Block
#MNEM.UNIT                 API CODE     Curve Description
#---------               -----------    ---------------------------
 TIME.HHMMSS            00 000 000 000:  GT Time & Date
 GTDEPTH.m              00 000 000 000:  GT Depth
 GTPQH.psia             00 000 000 000:  GT HR Quartz Pressure
 GTTQ.degC              00 000 000 000:  GT Quartz Temperature
 GTTN.NONE              00 000 000 000:  GT Test Number
 GTET.sec               00 000 000 000:  GT Elapsed Test Time
 GTTVD.m                00 000 000 000:  GT True Vertical Depth
#Other Information
#
#WARRANTY: Halliburton will use its best efforts to furnish customers with 
#accurate information and interpretations that are part of, and incident to, the services 
#provided.  However, Halliburton cannot and does not warrant the accuracy 
#or correctness of such information and interpretations.  Under no circumstances should any 
#such information or interpretation be relied upon as the sole basis for any drilling, 
#completion, production, or financial decision or any procedure involving any risk to the 
#safety of any drilling venture, drilling rig or its crew or any other third party.  The 
#Customer has full responsibility for all drilling, completion and production operation.  
#Halliburton makes no representations or warranties, either expressed or 
#implied, including, but not limited to, the implied warranties of merchantability or fitness 
#for a particular purpose, with respect to the services rendered.  In no event will 
#Halliburton be liable for failure to obtain any particular results or for 
#any damages, including, but not limited to, indirect, special or consequential damages, 
#resulting from the use of any information or interpretation provided by Halliburton.
#
~A           TIME           GTDEPTH  GTPQH  GTTQ  GTTN  GTET   GTTVD  
# ...
   21:54:35.658.08-Nov-2020 3686.01 4407.39 72.65 4.00  23.01 2071.13
   21:54:35.858.08-Nov-2020 3686.01 4407.39 72.64 4.00  23.21 2071.13
   21:54:36.058.08-Nov-2020 3686.01 4407.38 72.64 4.00  23.41 2071.13
   21:54:36.258.08-Nov-2020 3686.01 4407.22 72.64 4.00  23.61 2071.13
   21:54:36.458.08-Nov-2020 3686.01 4406.09 72.64 4.00  23.81 2071.13
   21:54:36.658.08-Nov-2020 3686.01 4405.19 72.64 4.00  24.01 2071.13
   21:54:36.858.08-Nov-2020 3686.01 4405.07 72.64 4.00  24.21 2071.13
   21:54:37.058.08-Nov-2020 3686.01 4404.24 72.64 4.00  24.41 2071.13
   21:54:37.258.08-Nov-2020 3686.01 4405.34 72.64 4.00  24.61 2071.13
   21:54:37.459.08-Nov-2020 3686.01 4406.81 72.64 4.00  24.81 2071.13
   21:54:37.659.08-Nov-2020 3686.01 4403.34 72.64 4.00  25.01 2071.13
   21:54:37.859.08-Nov-2020 3686.01 4403.34 72.64 4.00  25.21 2071.13
   21:54:38.059.08-Nov-2020 3686.01 4401.61 72.63 4.00  25.41 2071.13
   21:54:38.259.08-Nov-2020 3686.01 4403.02 72.63 4.00  25.61 2071.13
   21:54:38.459.08-Nov-2020 3686.01 4403.64 72.63 4.00  25.81 2071.13
   21:54:38.659.08-Nov-2020 3686.01 4405.62 72.63 4.00  26.01 2071.13
   21:54:38.859.08-Nov-2020 3686.01 4405.62 72.63 4.00  26.21 2071.13
   21:54:39.059.08-Nov-2020 3686.01 4402.19 72.63 4.00  26.41 2071.13
   21:54:39.259.08-Nov-2020 3686.01 4408.65 72.63 4.00  26.61 2071.13
   21:54:39.459.08-Nov-2020 3686.01 4400.01 72.63 4.00  26.81 2071.13
   21:54:39.659.08-Nov-2020 3686.01 4399.79 72.63 4.00  27.01 2071.13
   21:54:39.859.08-Nov-2020 3686.01 4405.64 72.63 4.00  27.21 2071.13
   21:54:40.059.08-Nov-2020 3686.01 4402.66 72.62 4.00  27.41 2071.13
   21:54:40.259.08-Nov-2020 3686.01 4400.99 72.62 4.00  27.61 2071.13
   21:54:40.459.08-Nov-2020 3686.01 4401.79 72.62 4.00  27.81 2071.13
   21:54:40.659.08-Nov-2020 3686.01 4401.15 72.62 4.00  28.01 2071.13
   21:54:40.859.08-Nov-2020 3686.01 4400.41 72.62 4.00  28.21 2071.13
   21:54:41.059.08-Nov-2020 3686.01 4400.81 72.62 4.00  28.41 2071.13
   21:54:41.259.08-Nov-2020 3686.01 4400.91 72.62 4.00  28.61 2071.13
   21:54:41.459.08-Nov-2020 3686.01 4401.02 72.62 4.00  28.81 2071.13
   21:54:41.659.08-Nov-2020 3686.01 4401.41 72.62 4.00  29.01 2071.13
   21:54:41.859.08-Nov-2020 3686.01 4401.41 72.62 4.00  29.21 2071.13
   21:54:42.060.08-Nov-2020 3686.01 4400.82 72.62 4.00  29.41 2071.13
   21:54:42.260.08-Nov-2020 3686.01 4400.01 72.61 4.00  29.61 2071.13
   21:54:42.460.08-Nov-2020 3686.01 4399.86 72.61 4.00  29.81 2071.13
   21:54:42.660.08-Nov-2020 3686.01 4405.30 72.61 4.00  30.01 2071.13
   21:54:42.860.08-Nov-2020 3686.01 4405.30 72.61 4.00  30.21 2071.13
   21:54:43.060.08-Nov-2020 3686.01 4400.90 72.61 4.00  30.41 2071.13
   21:54:43.260.08-Nov-2020 3686.01 4400.49 72.61 4.00  30.61 2071.13
   21:54:43.460.08-Nov-2020 3686.01 4401.24 72.61 4.00  30.81 2071.13
   21:54:43.660.08-Nov-2020 3686.01 4399.92 72.61 4.00  31.01 2071.13
   21:54:43.860.08-Nov-2020 3686.01 4399.92 72.61 4.00  31.21 2071.13
   21:54:44.060.08-Nov-2020 3686.01 4400.51 72.61 4.00  31.41 2071.13
   21:54:44.260.08-Nov-2020 3686.01 4400.40 72.60 4.00  31.61 2071.13
   21:54:44.460.08-Nov-2020 3686.01 4401.15 72.60 4.00  31.81 2071.13
   21:54:44.660.08-Nov-2020 3686.01 4400.85 72.60 4.00  32.01 2071.13
   21:54:44.860.08-Nov-2020 3686.01 4400.37 72.60 4.00  32.21 2071.13
   21:54:45.060.08-Nov-2020 3686.01 4400.23 72.60 4.00  32.41 2071.13
   21:54:45.260.08-Nov-2020 3686.01 4404.35 72.60 4.00  32.61 2071.13
   21:54:45.460.08-Nov-2020 3686.01 4402.98 72.60 4.00  32.81 2071.13
   21:54:45.660.08-Nov-2020 3686.01 4401.52 72.60 4.00  33.01 2071.13
   21:54:45.860.08-Nov-2020 3686.01 4401.52 72.60 4.00  33.21 2071.13
   21:54:46.060.08-Nov-2020 3686.01 4401.40 72.60 4.00  33.41 2071.13
   21:54:46.260.08-Nov-2020 3686.01 4401.58 72.60 4.00  33.61 2071.13
   21:54:46.461.08-Nov-2020 3686.01 4401.96 72.59 4.00  33.81 2071.13
   21:54:46.661.08-Nov-2020 3686.01 4407.49 72.59 4.00  34.01 2071.13
   21:54:46.861.08-Nov-2020 3686.01 4407.49 72.59 4.00  34.21 2071.13
   21:54:47.061.08-Nov-2020 3686.01 4402.30 72.59 4.00  34.41 2071.13
   21:54:47.261.08-Nov-2020 3686.01 4407.53 72.59 4.00  34.61 2071.13
   21:54:47.461.08-Nov-2020 3686.01 4401.04 72.59 4.00  34.81 2071.13
   21:54:47.661.08-Nov-2020 3686.01 4400.81 72.59 4.00  35.01 2071.13
   21:54:47.861.08-Nov-2020 3686.01 4400.81 72.59 4.00  35.21 2071.13
   21:54:48.061.08-Nov-2020 3686.01 4405.02 72.59 4.00  35.41 2071.13
   21:54:48.261.08-Nov-2020 3686.01 4405.86 72.59 4.00  35.61 2071.13
   21:54:48.461.08-Nov-2020 3686.01 4402.38 72.58 4.00  35.81 2071.13
   21:54:48.661.08-Nov-2020 3686.01 4395.51 72.58 4.00  36.01 2071.13
   21:54:48.861.08-Nov-2020 3686.01 4395.51 72.58 4.00  36.21 2071.13
   21:54:49.061.08-Nov-2020 3686.01 4536.84 72.58 4.00  36.41 2071.13
   21:54:49.261.08-Nov-2020 3686.01 4520.42 72.58 4.00  36.61 2071.13
   21:54:49.461.08-Nov-2020 3686.01 4514.01 72.58 4.00  36.81 2071.13
   21:54:49.661.08-Nov-2020 3686.01 4516.59 72.58 4.00  37.01 2071.13
   21:54:49.861.08-Nov-2020 3686.01 4516.59 72.58 4.00  37.21 2071.13
   21:54:50.061.08-Nov-2020 3686.01 4515.44 72.58 4.00  37.41 2071.13
   21:54:50.261.08-Nov-2020 3686.01 4509.60 72.58 4.00  37.61 2071.13
   21:54:50.461.08-Nov-2020 3686.01 4504.97 72.58 4.00  37.81 2071.13
   21:54:50.661.08-Nov-2020 3686.01 4494.64 72.57 4.00  38.01 2071.13
   21:54:50.861.08-Nov-2020 3686.01 4494.64 72.57 4.00  38.21 2071.13
   21:54:51.062.08-Nov-2020 3686.01 4482.53 72.57 4.00  38.41 2071.13
   21:54:51.262.08-Nov-2020 3686.01 4480.11 72.57 4.00  38.61 2071.13
   21:54:51.462.08-Nov-2020 3686.01 4475.15 72.57 4.00  38.81 2071.13
   21:54:51.662.08-Nov-2020 3686.01 4470.75 72.57 4.00  39.01 2071.13
   21:54:51.862.08-Nov-2020 3686.01 4467.91 72.57 4.00  39.21 2071.13
   21:54:52.062.08-Nov-2020 3686.01 4465.15 72.57 4.00  39.41 2071.13
   21:54:52.262.08-Nov-2020 3686.01 4463.80 72.57 4.00  39.61 2071.13
   21:54:52.462.08-Nov-2020 3686.01 4462.85 72.57 4.00  39.81 2071.13
   21:54:52.662.08-Nov-2020 3686.01 4461.96 72.57 4.00  40.01 2071.13
   21:54:52.862.08-Nov-2020 3686.01 4461.96 72.57 4.00  40.21 2071.13
   21:54:53.062.08-Nov-2020 3686.01 4460.91 72.56 4.00  40.41 2071.13
   21:54:53.262.08-Nov-2020 3686.01 4460.75 72.56 4.00  40.61 2071.13
   21:54:53.462.08-Nov-2020 3686.01 4465.29 72.56 4.00  40.81 2071.13
   21:54:53.662.08-Nov-2020 3686.01 4462.55 72.56 4.00  41.01 2071.13
   21:54:53.862.08-Nov-2020 3686.01 4463.74 72.56 4.00  41.21 2071.13
   21:54:54.062.08-Nov-2020 3686.01 4463.14 72.56 4.00  41.41 2071.13
   21:54:54.262.08-Nov-2020 3686.01 4462.17 72.56 4.00  41.61 2071.13
   21:54:54.462.08-Nov-2020 3686.01 4464.67 72.56 4.00  41.81 2071.13
   21:54:54.662.08-Nov-2020 3686.01 4463.61 72.56 4.00  42.01 2071.13
   21:54:54.862.08-Nov-2020 3686.01 4462.60 72.55 4.00  42.21 2071.13
   21:54:55.062.08-Nov-2020 3686.01 4462.24 72.55 4.00  42.41 2071.13
   21:54:55.262.08-Nov-2020 3686.01 4467.67 72.55 4.00  42.61 2071.13
   21:54:55.463.08-Nov-2020 3686.01 4460.08 72.55 4.00  42.81 2071.13
   21:54:55.663.08-Nov-2020 3686.01 4461.56 72.55 4.00  43.01 2071.13
   21:54:55.863.08-Nov-2020 3686.01 4461.56 72.55 4.00  43.21 2071.13
   21:54:56.063.08-Nov-2020 3686.01 4462.08 72.55 4.00  43.41 2071.13
   21:54:56.263.08-Nov-2020 3686.01 4585.76 72.55 4.00  43.61 2071.13
   21:54:56.463.08-Nov-2020 3686.01 4416.75 72.55 4.00  43.81 2071.13
   21:54:56.663.08-Nov-2020 3686.01 4427.24 72.55 4.00  44.01 2071.13
   21:54:56.863.08-Nov-2020 3686.01 4418.00 72.55 4.00  44.21 2071.13
   21:54:57.063.08-Nov-2020 3686.01 4418.26 72.54 4.00  44.41 2071.13
   21:54:57.263.08-Nov-2020 3686.01 4419.14 72.54 4.00  44.61 2071.13
   21:54:57.463.08-Nov-2020 3686.01 4418.73 72.54 4.00  44.81 2071.13
   21:54:57.663.08-Nov-2020 3686.01 4417.04 72.54 4.00  45.01 2071.13
   21:54:57.863.08-Nov-2020 3686.01 4417.04 72.54 4.00  45.21 2071.13
   21:54:58.063.08-Nov-2020 3686.01 4418.66 72.54 4.00  45.41 2071.13
   21:54:58.263.08-Nov-2020 3686.01 4405.34 72.54 4.00  45.61 2071.13
   21:54:58.463.08-Nov-2020 3686.01 4293.36 72.54 4.00  45.81 2071.13
