~Version Information
 VERS.                  2.0:   CWLS log ASCII Standard -VERSION 2.0
 WRAP.                   NO:   One line per depth step
~Well Information Block
#MNEM.UNIT     VALUE/NAME     DESCRIPTION
#---------     -----------    ---------------------------
 STRT.S             06:45:19 11-Nov-20: START TIME 06:45:19 11-Nov-20
 STOP.S             06:51:53 11-Nov-20: STOP TIME  06:51:53 11-Nov-20
 STEP.S                   0.00: STEP TIME
 NULL.                 -999.25: NULL VALUE
 DFWT.                        :  DIST FWL TEXT
 DFST.                        :  DIST FSL TEXT
 DMF .             Drill Floor:  DRILL MEAS FROM
 STIM.      04.54.24 22-Sep-20:  START TIME
 DATE.      04.54.24 21-Nov-20:  END TIME
 SPUD.               21-Nov-20:  SPUD DATE
 NREF.                    Grid:  NORTH REFERENCE
 HPTY.       Minimum Curvature:  HOLE POS TYPE
 DMOD.             Drill Model:  DRILL MOD DESC
 SVYD.                  Survey:  SURVEY DESC
 ILTD.               Lithology:  INTERP LTH DESC
 FTOP.          Formation Tops:  FORM TOPS DESC
 SON .        AZ-XX-0906571587:  JOB NUMBER
 COMP.     BP Exploration (Caspian Sea) Ltd:  COMPANY
 UWI .                     N/A:  UNIQUE WELL IDENTIFIER
 API .                     N/A:  API NUMBER
 BASE.              Azerbaijan:  LOGGING EQUIPMENT BASE LOCATION
 REGN.                   EESSA:  REGION
 PROV.                    Baku:  PROVINCE
 STAT.                    Baku:  STATE NAME
 CTRY.              Azerbaijan:  COUNTRY NAME
 FLD .                     ACG:  FIELD NAME
 SRVC.     TURAN Drilling & Engineering:  CONTRACTOR
 WELL.                     J27:  WELL NAME
 RIG .             West Chirag:  RIG NAME
 DOE .                     N/A:  DOE NUMBER
 DCON.         Sperry Drilling:  DIRECTNL CONTR
 PDAT.          Mean Sea Level:  PERMANENT DATUM
 WTYP.                Deviated:  WELL TYPE
 MWDS.                    Baku:  MWD SHOP
 JOBN.        AZ-XX-0906571587:  JOB TICKET NUMB
 UNIT.                     N/A:  LOGGING EQUIPMENT ID
 MDS .        Operator Entered:  MAG DATA SOURCE
 CNTY.                        :  COUNTY
 LOC .                        :  LOCATION
 LMF .             Drill Floor:  LOG MEASURED FROM
 TVDS.m                  43.00:  TVDSS CORRECTN
 LATI.deg                40.13:  LATITUDE
 LONG.deg                51.22:  LONGITUDE
 WHNS.m                   7.72:  WELL HEAD N/S
 WHEW.m                 -14.24:  WELL HEAD E/W
 UTMX.m              519005.06:  UTM X
 UTMY.m             4443793.85:  UTM Y
 DFWL.m                   0.00:  DISTANCE FWL
 DFSL.m                   0.00:  DISTANCE FSL
 SDEP.m                 347.00:  START DEPTH
 TDD .m                 581.00:  TOTAL DEPTH (DRILLER)
 VSDR.deg               159.72:  VERT SEC DIRECT
 GVFD.g                   1.00:  GRAVITY FIELD
 MFLD.nT              50313.00:  MAGNETIC FIELD
 MDIP.deg                59.58:  MAGNETIC DIP
 MDEC.deg                 6.45:  MAGNETIC DECL
 GRDC.deg                 0.15:  GRID CORRECTION
 AZTC.deg                 6.30:  AZM TOTAL CORR
 EPD .m                   0.00:  ELEVATION
 EGL .m                   0.00:  GROUND ELEVATION
 WDMS.m                 169.80:  WD ELEV
 APD .m                  43.00:  DEPTH ABOVE PD
 AGAP.m                  43.00:  AIR GAP
 VSEW.m                 -14.24:  VERT SEC E/W
 VSNS.m                   7.72:  VERT SEC N/S
 DEP .m                 342.45:  DEPTH
 EKB .m                   0.00:  KB ELEVATION
 EDF .m                  43.00:  DF ELEVATION
 TDL .m                1313.00:  TOTAL DEPTH (LOGGER)
 VSC .                       0:  VS TO CLOSURE
 MAGU.                 1851396:  MAGUTM CHECKSUM
~Parameter Information Block
#MNEM.UNIT       Value        Description
#---------     -----------    ---------------------------
 AV  .mps                 0.65:  Ann Velocity 
 AVMX.mps                 0.75:  Max Ann Veloc 
 AZIF.deg               115.08:  Azm, Final 
 BHAT.        Rotary Steerable:  BHA Type 
 BROT.°/30m               1.50:  Build Rotating 
 BS  .in                 12.25:  Bit Size 
 BSZ .in                 12.25:  Bit Size 
 BTPL.psig              700.00:  Bit Press Loss 
 CABU.                     Yes:  Customer Abuse 
 COMM.                     LNw:  Run Comments 1 
 TCS .hr                121.00:  Time Ciculation Ended 
 CV  .mps                 1.83:  Crit Velocity 
 CVMX.mps                 1.83:  Max Crit Veloc 
 DD1 .          Rashad Habibov:  Direct Drillr 1 
 DD2 .         Rasim Ibrahimov:  Direct Drillr 2 
 DDSV.                 iCruise:  DD Service 
 DEFF.%                 100.00:  % Det Eff 
 DLRX.°/30m               3.60:  Dogleg Rot Max 
 DLSO.°/30m               3.10:  Dogleg Oriented 
 DLSX.°/30m               3.60:  Dogleg Str Max 
 DRET.      13.41.20 12-Nov-20:  Drill End Time 
 DRST.      13.41.20 07-Nov-20:  Drill Start Tim 
 DTIM.hr                 54.16:  Time Drilling 
 EDEP.m                4762.01:  End Depth 
 ENG1.           Amrah Tahirov:  Engineer 1 
 ENG2.      Bakhtiyar Jabbarli:  Engineer 2 
 ENG3.          Ruslan Safarov:  Engineer 3 
 ETIM.      13.41.20 14-Nov-20:  End Time 
 FLOI.gpm              1200.00:  Flow In 
 FLON.gpm              1100.00:  Flow In Min 
 FLOS.cptm                0.00:  Fluid Loss 
 FLOX.gpm              1200.00:  Flow In Max 
 HFLO.                      No:  High Flow 
 HPRE.                      No:  High Pressure 
 HTEM.                      No:  High Temp 
 HYDO.m                   2.00:  Hydro Offset 
 IFIN.deg                66.14:  Inc, Final 
 IMAX.deg                69.03:  Inc Max 
 IMIN.deg                64.64:  Inc Min 
 IMND.m                4450.16:  Inc Min Depth 
 IMXD.m                3996.00:  Inc Max Depth 
 JARR.                     Yes:  Jarring 
 LETM.      13.41.20 14-Nov-20:  Log End Time 
 LOST.hr                     0:  Lost Rig Time 
 LSTM.      13.41.20 06-Nov-20:  Log Start Time 
 MDCL.ppm             42500.00:  Mud Chlorides 
 MDES.     Inversion Oil/Synthetic:  Mud Desc 
 DFD .sg                  1.45:  Mud Density 
 MDMN.sg                  1.45:  Dens Mud Min 
 MDMX.sg                  1.45:  Dens Mud Max 
 MOIL.                      70:  Run Mud Oil % 
 MOWR.                   70:30:  Run Mud OWR 
 MSND.                       0:  Run Mud Sand % 
 MSOL.                    19.3:  Run Mud Solids% 
 DFV .spqt               77.00:  Mud Viscosity 
 MWOD.in                  8.00:  MWD Tool OD 
 MWSI.                      No:  Serv Intrp, MWD 
 OTIM.hr                201.88:  Time Operating 
 PCON.           Look Like New:  Pad Condition 
 PMAX.psia             9250.94:  Press Op, Max 
 PV  .cP                 29.00:  Mud PV 
 RUN .                     800:  Run Number 
 ROPA.m/hr               28.00:  ROP Avg 
 ROPN.m/hr               25.00:  ROP Min 
 ROPX.m/hr               30.00:  ROP Max 
 RPMA.rpm               160.00:  RPM Surface Avg 
 RPMN.rpm               160.00:  RPM Surface Min 
 RPMX.rpm               160.00:  RPM Surface Max 
 RRUN.                    0800:  Rig Run Number 
 RTIM.hr                 12.00:  Time Reaming 
 SAZI.deg               169.33:  Azm, Start 
 SDEP.m                3449.01:  Start Depth 
 SIDD.                      No:  Serv Intrp, DD 
 SINC.deg                68.01:  Inc, Start 
 SPPA.psig             4900.00:  SPP Avg 
 SPPN.psig             4800.00:  SPP Min 
 SPPX.psig             5050.00:  SPP Max 
 STIM.      13.41.20 06-Nov-20:  Start Time 
 SVCS.                 DD, MWD:  Services 
 SVER.                    9.20:  Sperry Version 
 TDAT.m                4762.01:  Tot Depth Attmp 
 TDDF.                      No:  Trip for DD 
 TDLG.m                1313.00:  Tot Depth Loggd 
 TFF .                      No:  Trip for Fail 
 TQAA.f-kp               13.00:  Torque Abs Avg 
 TQAN.f-kp               13.00:  Torque Abs Min 
 TQAX.f-kp               13.00:  Torque Abs Max 
 TRRT.°/30m               1.70:  Turn Rotating 
 MRT .                  EWR-M5:  Maximum Recorded Temperature 
 TTMX.degC               86.00:  Max Tool Temp 
 VS01.                90622122:  Virtual Str1 SN 
 VS02.                90577298:  Virtual Str2 SN 
 VS03.                90563623:  Virtual Str3 SN 
 VS04.                90617559:  Virtual Str4 SN 
 VS05.                11339492:  Virtual Str5 SN 
 VS06.                12385033:  Virtual Str6 SN 
 WBMN.klb                 0.00:  WOB Min 
 WOBA.klb                22.00:  WOB Avg 
 WOBX.klb                26.00:  WOB Max 
 YP  .lhf2               30.00:  Yield Point 
~Curve Information Block
#MNEM.UNIT                 API CODE     Curve Description
#---------               -----------    ---------------------------
 TIME.HHMMSS            00 000 000 000:  GT Time & Date
 GTDEPTH.m              00 000 000 000:  GT Depth
 GTPQH.psia             00 000 000 000:  GT HR Quartz Pressure
 GTTQ.degC              00 000 000 000:  GT Quartz Temperature
 GTTN.NONE              00 000 000 000:  GT Test Number
 GTET.sec               00 000 000 000:  GT Elapsed Test Time
 GTTVD.m                00 000 000 000:  GT True Vertical Depth
#Other Information
#
#WARRANTY: Halliburton will use its best efforts to furnish customers with 
#accurate information and interpretations that are part of, and incident to, the services 
#provided.  However, Halliburton cannot and does not warrant the accuracy 
#or correctness of such information and interpretations.  Under no circumstances should any 
#such information or interpretation be relied upon as the sole basis for any drilling, 
#completion, production, or financial decision or any procedure involving any risk to the 
#safety of any drilling venture, drilling rig or its crew or any other third party.  The 
#Customer has full responsibility for all drilling, completion and production operation.  
#Halliburton makes no representations or warranties, either expressed or 
#implied, including, but not limited to, the implied warranties of merchantability or fitness 
#for a particular purpose, with respect to the services rendered.  In no event will 
#Halliburton be liable for failure to obtain any particular results or for 
#any damages, including, but not limited to, indirect, special or consequential damages, 
#resulting from the use of any information or interpretation provided by Halliburton.
#
~A           TIME           GTDEPTH  GTPQH  GTTQ  GTTN  GTET   GTTVD  
# ...
   06:51:04.498.11-Nov-2020 4617.01 4135.57 78.95 8.00 345.11 2426.59
   06:51:04.698.11-Nov-2020 4617.01 4135.57 78.95 8.00 345.31 2426.59
   06:51:04.898.11-Nov-2020 4617.01 4135.59 78.95 8.00 345.51 2426.59
   06:51:05.098.11-Nov-2020 4617.01 4135.58 78.95 8.00 345.71 2426.59
   06:51:05.298.11-Nov-2020 4617.01 4135.55 78.94 8.00 345.91 2426.59
   06:51:05.498.11-Nov-2020 4617.01 4135.60 78.94 8.00 346.11 2426.59
   06:51:05.698.11-Nov-2020 4617.01 4135.60 78.94 8.00 346.31 2426.59
   06:51:05.898.11-Nov-2020 4617.01 4135.82 78.94 8.00 346.51 2426.59
   06:51:06.098.11-Nov-2020 4617.01 4135.44 78.94 8.00 346.71 2426.59
   06:51:06.298.11-Nov-2020 4617.01 4135.53 78.94 8.00 346.91 2426.59
   06:51:06.499.11-Nov-2020 4617.01 4135.52 78.94 8.00 347.11 2426.59
   06:51:06.699.11-Nov-2020 4617.01 4135.52 78.94 8.00 347.31 2426.59
   06:51:06.899.11-Nov-2020 4617.01 4135.58 78.94 8.00 347.51 2426.59
   06:51:07.099.11-Nov-2020 4617.01 4135.62 78.94 8.00 347.71 2426.59
   06:51:07.299.11-Nov-2020 4617.01 4135.84 78.94 8.00 347.91 2426.59
   06:51:07.499.11-Nov-2020 4617.01 4135.34 78.94 8.00 348.11 2426.59
   06:51:07.699.11-Nov-2020 4617.01 4135.59 78.93 8.00 348.31 2426.59
   06:51:07.899.11-Nov-2020 4617.01 4135.39 78.93 8.00 348.51 2426.59
   06:51:08.099.11-Nov-2020 4617.01 4135.69 78.93 8.00 348.71 2426.59
   06:51:08.299.11-Nov-2020 4617.01 4135.64 78.93 8.00 348.91 2426.59
   06:51:08.499.11-Nov-2020 4617.01 4135.65 78.93 8.00 349.11 2426.59
   06:51:08.699.11-Nov-2020 4617.01 4135.65 78.93 8.00 349.31 2426.59
   06:51:08.899.11-Nov-2020 4617.01 4135.45 78.93 8.00 349.51 2426.59
   06:51:09.099.11-Nov-2020 4617.01 4135.68 78.93 8.00 349.71 2426.59
   06:51:09.299.11-Nov-2020 4617.01 4135.61 78.93 8.00 349.91 2426.59
   06:51:09.500.11-Nov-2020 4617.01 4135.63 78.93 8.00 350.11 2426.59
   06:51:09.700.11-Nov-2020 4617.01 4135.63 78.93 8.00 350.31 2426.59
   06:51:09.900.11-Nov-2020 4617.01 4135.66 78.93 8.00 350.51 2426.59
   06:51:10.100.11-Nov-2020 4617.01 4135.65 78.92 8.00 350.71 2426.59
   06:51:10.300.11-Nov-2020 4617.01 4135.57 78.92 8.00 350.91 2426.59
   06:51:10.500.11-Nov-2020 4617.01 4135.59 78.92 8.00 351.11 2426.59
   06:51:10.700.11-Nov-2020 4617.01 4135.59 78.92 8.00 351.31 2426.59
   06:51:10.900.11-Nov-2020 4617.01 4135.61 78.92 8.00 351.51 2426.59
   06:51:11.100.11-Nov-2020 4617.01 4135.55 78.92 8.00 351.71 2426.59
   06:51:11.300.11-Nov-2020 4617.01 4135.60 78.92 8.00 351.91 2426.59
   06:51:11.500.11-Nov-2020 4617.01 4135.58 78.92 8.00 352.11 2426.59
   06:51:11.700.11-Nov-2020 4617.01 4135.58 78.92 8.00 352.31 2426.59
   06:51:11.900.11-Nov-2020 4617.01 4135.71 78.92 8.00 352.51 2426.59
   06:51:12.100.11-Nov-2020 4617.01 4135.65 78.92 8.00 352.71 2426.59
   06:51:12.300.11-Nov-2020 4617.01 4135.56 78.92 8.00 352.91 2426.59
   06:51:12.500.11-Nov-2020 4617.01 4135.59 78.92 8.00 353.11 2426.59
   06:51:12.701.11-Nov-2020 4617.01 4135.59 78.92 8.00 353.31 2426.59
   06:51:12.901.11-Nov-2020 4617.01 4135.58 78.91 8.00 353.51 2426.59
   06:51:13.101.11-Nov-2020 4617.01 4135.57 78.91 8.00 353.71 2426.59
   06:51:13.301.11-Nov-2020 4617.01 4135.57 78.91 8.00 353.91 2426.59
   06:51:13.501.11-Nov-2020 4617.01 4135.55 78.91 8.00 354.11 2426.59
   06:51:13.701.11-Nov-2020 4617.01 4135.55 78.91 8.00 354.31 2426.59
   06:51:13.901.11-Nov-2020 4617.01 4135.62 78.91 8.00 354.51 2426.59
   06:51:14.101.11-Nov-2020 4617.01 4135.62 78.91 8.00 354.71 2426.59
   06:51:14.301.11-Nov-2020 4617.01 4135.50 78.91 8.00 354.91 2426.59
   06:51:14.501.11-Nov-2020 4617.01 4135.68 78.91 8.00 355.11 2426.59
   06:51:14.701.11-Nov-2020 4617.01 4135.68 78.91 8.00 355.31 2426.59
   06:51:14.901.11-Nov-2020 4617.01 4135.71 78.91 8.00 355.51 2426.59
   06:51:15.101.11-Nov-2020 4617.01 4135.44 78.90 8.00 355.71 2426.59
   06:51:15.301.11-Nov-2020 4617.01 4135.58 78.90 8.00 355.91 2426.59
   06:51:15.501.11-Nov-2020 4617.01 4135.71 78.90 8.00 356.11 2426.59
   06:51:15.701.11-Nov-2020 4617.01 4135.42 78.90 8.00 356.31 2426.59
   06:51:15.902.11-Nov-2020 4617.01 4135.56 78.90 8.00 356.51 2426.59
   06:51:16.102.11-Nov-2020 4617.01 4135.65 78.90 8.00 356.71 2426.59
   06:51:16.302.11-Nov-2020 4617.01 4135.59 78.90 8.00 356.91 2426.59
   06:51:16.502.11-Nov-2020 4617.01 4135.55 78.90 8.00 357.11 2426.59
   06:51:16.702.11-Nov-2020 4617.01 4135.55 78.90 8.00 357.31 2426.59
   06:51:16.902.11-Nov-2020 4617.01 4135.68 78.90 8.00 357.51 2426.59
   06:51:17.102.11-Nov-2020 4617.01 4135.60 78.90 8.00 357.71 2426.59
   06:51:17.302.11-Nov-2020 4617.01 4135.75 78.90 8.00 357.91 2426.59
   06:51:17.502.11-Nov-2020 4617.01 4135.43 78.89 8.00 358.11 2426.59
   06:51:17.702.11-Nov-2020 4617.01 4135.43 78.89 8.00 358.31 2426.59
   06:51:17.902.11-Nov-2020 4617.01 4135.53 78.89 8.00 358.51 2426.59
   06:51:18.102.11-Nov-2020 4617.01 4135.68 78.89 8.00 358.71 2426.59
   06:51:18.302.11-Nov-2020 4617.01 4135.65 78.89 8.00 358.91 2426.59
   06:51:18.502.11-Nov-2020 4617.01 4135.63 78.89 8.00 359.11 2426.59
   06:51:18.702.11-Nov-2020 4617.01 4135.63 78.89 8.00 359.31 2426.59
   06:51:18.902.11-Nov-2020 4617.01 4135.63 78.89 8.00 359.51 2426.59
   06:51:19.103.11-Nov-2020 4617.01 4135.61 78.89 8.00 359.71 2426.59
   06:51:19.303.11-Nov-2020 4617.01 4135.60 78.89 8.00 359.91 2426.59
   06:51:19.503.11-Nov-2020 4617.01 4135.60 78.89 8.00 360.11 2426.59
   06:51:19.703.11-Nov-2020 4617.01 4135.57 78.89 8.00 360.31 2426.59
   06:51:19.903.11-Nov-2020 4617.01 4135.68 78.88 8.00 360.51 2426.59
   06:51:20.103.11-Nov-2020 4617.01 4135.66 78.88 8.00 360.71 2426.59
   06:51:20.303.11-Nov-2020 4617.01 4135.53 78.88 8.00 360.91 2426.59
   06:51:20.503.11-Nov-2020 4617.01 4135.57 78.88 8.00 361.11 2426.59
   06:51:20.703.11-Nov-2020 4617.01 4135.57 78.88 8.00 361.31 2426.59
   06:51:20.903.11-Nov-2020 4617.01 4135.56 78.88 8.00 361.51 2426.59
   06:51:21.103.11-Nov-2020 4617.01 4135.59 78.88 8.00 361.71 2426.59
   06:51:21.303.11-Nov-2020 4617.01 4135.57 78.88 8.00 361.91 2426.59
   06:51:21.503.11-Nov-2020 4617.01 4135.61 78.88 8.00 362.11 2426.59
   06:51:21.703.11-Nov-2020 4617.01 4135.61 78.88 8.00 362.31 2426.59
   06:51:21.903.11-Nov-2020 4617.01 4135.60 78.88 8.00 362.51 2426.59
   06:51:22.103.11-Nov-2020 4617.01 4135.58 78.88 8.00 362.71 2426.59
   06:51:22.304.11-Nov-2020 4617.01 4135.57 78.87 8.00 362.91 2426.59
   06:51:22.504.11-Nov-2020 4617.01 4135.75 78.87 8.00 363.11 2426.59
   06:51:22.704.11-Nov-2020 4617.01 4135.75 78.87 8.00 363.31 2426.59
   06:51:22.904.11-Nov-2020 4617.01 4135.55 78.87 8.00 363.51 2426.59
   06:51:23.104.11-Nov-2020 4617.01 4135.79 78.87 8.00 363.71 2426.59
   06:51:23.304.11-Nov-2020 4617.01 4135.32 78.87 8.00 363.91 2426.59
   06:51:23.504.11-Nov-2020 4617.01 4136.19 78.87 8.00 364.11 2426.59
   06:51:23.704.11-Nov-2020 4617.01 4128.06 78.87 8.00 364.31 2426.59
   06:51:23.904.11-Nov-2020 4617.01 3906.97 78.87 8.00 364.51 2426.59
   06:51:24.104.11-Nov-2020 4617.01 3666.57 78.87 8.00 364.71 2426.59
   06:51:24.304.11-Nov-2020 4617.01 3674.61 78.87 8.00 364.91 2426.59
   06:51:24.504.11-Nov-2020 4617.01 3776.18 78.87 8.00 365.11 2426.59
   06:51:24.704.11-Nov-2020 4617.01 3776.18 78.87 8.00 365.31 2426.59
   06:51:24.904.11-Nov-2020 4617.01 4096.97 78.86 8.00 365.51 2426.59
   06:51:25.104.11-Nov-2020 4617.01 4379.16 78.86 8.00 365.71 2426.59
   06:51:25.304.11-Nov-2020 4617.01 4668.19 78.86 8.00 365.91 2426.59
   06:51:25.505.11-Nov-2020 4617.01 4778.37 78.86 8.00 366.11 2426.59
   06:51:25.705.11-Nov-2020 4617.01 4778.37 78.86 8.00 366.32 2426.59
   06:51:25.905.11-Nov-2020 4617.01 5049.61 78.86 8.00 366.52 2426.59
   06:51:26.105.11-Nov-2020 4617.01 5121.63 78.86 8.00 366.72 2426.59
   06:51:26.305.11-Nov-2020 4617.01 5121.92 78.86 8.00 366.92 2426.59
   06:51:26.505.11-Nov-2020 4617.01 5123.55 78.86 8.00 367.12 2426.59
   06:51:26.705.11-Nov-2020 4617.01 5123.55 78.86 8.00 367.32 2426.59
   06:51:26.905.11-Nov-2020 4617.01 5123.13 78.86 8.00 367.52 2426.59
   06:51:27.105.11-Nov-2020 4617.01 5123.32 78.86 8.00 367.72 2426.59
   06:51:27.305.11-Nov-2020 4617.01 5124.05 78.86 8.00 367.92 2426.59
