~Version Information
 VERS.                  2.0:   CWLS log ASCII Standard -VERSION 2.0
 WRAP.                   NO:   One line per depth step
~Well Information Block
#MNEM.UNIT     VALUE/NAME     DESCRIPTION
#---------     -----------    ---------------------------
 STRT.S             09:21:26 08-Nov-20: START TIME 09:21:26 08-Nov-20
 STOP.S             09:27:58 08-Nov-20: STOP TIME  09:27:58 08-Nov-20
 STEP.S                   0.00: STEP TIME
 NULL.                 -999.25: NULL VALUE
 DFWT.                        :  DIST FWL TEXT
 DFST.                        :  DIST FSL TEXT
 DMF .             Drill Floor:  DRILL MEAS FROM
 STIM.      04.54.24 22-Sep-20:  START TIME
 DATE.      04.54.24 21-Nov-20:  END TIME
 SPUD.               21-Nov-20:  SPUD DATE
 NREF.                    Grid:  NORTH REFERENCE
 HPTY.       Minimum Curvature:  HOLE POS TYPE
 DMOD.             Drill Model:  DRILL MOD DESC
 SVYD.                  Survey:  SURVEY DESC
 ILTD.               Lithology:  INTERP LTH DESC
 FTOP.          Formation Tops:  FORM TOPS DESC
 SON .        AZ-XX-0906571587:  JOB NUMBER
 COMP.     BP Exploration (Caspian Sea) Ltd:  COMPANY
 UWI .                     N/A:  UNIQUE WELL IDENTIFIER
 API .                     N/A:  API NUMBER
 BASE.              Azerbaijan:  LOGGING EQUIPMENT BASE LOCATION
 REGN.                   EESSA:  REGION
 PROV.                    Baku:  PROVINCE
 STAT.                    Baku:  STATE NAME
 CTRY.              Azerbaijan:  COUNTRY NAME
 FLD .                     ACG:  FIELD NAME
 SRVC.     TURAN Drilling & Engineering:  CONTRACTOR
 WELL.                     J27:  WELL NAME
 RIG .             West Chirag:  RIG NAME
 DOE .                     N/A:  DOE NUMBER
 DCON.         Sperry Drilling:  DIRECTNL CONTR
 PDAT.          Mean Sea Level:  PERMANENT DATUM
 WTYP.                Deviated:  WELL TYPE
 MWDS.                    Baku:  MWD SHOP
 JOBN.        AZ-XX-0906571587:  JOB TICKET NUMB
 UNIT.                     N/A:  LOGGING EQUIPMENT ID
 MDS .        Operator Entered:  MAG DATA SOURCE
 CNTY.                        :  COUNTY
 LOC .                        :  LOCATION
 LMF .             Drill Floor:  LOG MEASURED FROM
 TVDS.m                  43.00:  TVDSS CORRECTN
 LATI.deg                40.13:  LATITUDE
 LONG.deg                51.22:  LONGITUDE
 WHNS.m                   7.72:  WELL HEAD N/S
 WHEW.m                 -14.24:  WELL HEAD E/W
 UTMX.m              519005.06:  UTM X
 UTMY.m             4443793.85:  UTM Y
 DFWL.m                   0.00:  DISTANCE FWL
 DFSL.m                   0.00:  DISTANCE FSL
 SDEP.m                 347.00:  START DEPTH
 TDD .m                 581.00:  TOTAL DEPTH (DRILLER)
 VSDR.deg               159.72:  VERT SEC DIRECT
 GVFD.g                   1.00:  GRAVITY FIELD
 MFLD.nT              50313.00:  MAGNETIC FIELD
 MDIP.deg                59.58:  MAGNETIC DIP
 MDEC.deg                 6.45:  MAGNETIC DECL
 GRDC.deg                 0.15:  GRID CORRECTION
 AZTC.deg                 6.30:  AZM TOTAL CORR
 EPD .m                   0.00:  ELEVATION
 EGL .m                   0.00:  GROUND ELEVATION
 WDMS.m                 169.80:  WD ELEV
 APD .m                  43.00:  DEPTH ABOVE PD
 AGAP.m                  43.00:  AIR GAP
 VSEW.m                 -14.24:  VERT SEC E/W
 VSNS.m                   7.72:  VERT SEC N/S
 DEP .m                 342.45:  DEPTH
 EKB .m                   0.00:  KB ELEVATION
 EDF .m                  43.00:  DF ELEVATION
 TDL .m                1313.00:  TOTAL DEPTH (LOGGER)
 VSC .                       0:  VS TO CLOSURE
 MAGU.                 1851396:  MAGUTM CHECKSUM
~Parameter Information Block
#MNEM.UNIT       Value        Description
#---------     -----------    ---------------------------
 AV  .mps                 0.65:  Ann Velocity 
 AVMX.mps                 0.75:  Max Ann Veloc 
 AZIF.deg               115.08:  Azm, Final 
 BHAT.        Rotary Steerable:  BHA Type 
 BROT.°/30m               1.50:  Build Rotating 
 BS  .in                 12.25:  Bit Size 
 BSZ .in                 12.25:  Bit Size 
 BTPL.psig              700.00:  Bit Press Loss 
 CABU.                     Yes:  Customer Abuse 
 COMM.                     <
V:  Run Comments 1 
 TCS .hr                121.00:  Time Ciculation Ended 
 CV  .mps                 1.83:  Crit Velocity 
 CVMX.mps                 1.83:  Max Crit Veloc 
 DD1 .          Rashad Habibov:  Direct Drillr 1 
 DD2 .         Rasim Ibrahimov:  Direct Drillr 2 
 DDSV.                 iCruise:  DD Service 
 DEFF.%                 100.00:  % Det Eff 
 DLRX.°/30m               3.60:  Dogleg Rot Max 
 DLSO.°/30m               3.10:  Dogleg Oriented 
 DLSX.°/30m               3.60:  Dogleg Str Max 
 DRET.      13.41.20 12-Nov-20:  Drill End Time 
 DRST.      13.41.20 07-Nov-20:  Drill Start Tim 
 DTIM.hr                 54.16:  Time Drilling 
 EDEP.m                4762.01:  End Depth 
 ENG1.           Amrah Tahirov:  Engineer 1 
 ENG2.      Bakhtiyar Jabbarli:  Engineer 2 
 ENG3.          Ruslan Safarov:  Engineer 3 
 ETIM.      13.41.20 14-Nov-20:  End Time 
 FLOI.gpm              1200.00:  Flow In 
 FLON.gpm              1100.00:  Flow In Min 
 FLOS.cptm                0.00:  Fluid Loss 
 FLOX.gpm              1200.00:  Flow In Max 
 HFLO.                      No:  High Flow 
 HPRE.                      No:  High Pressure 
 HTEM.                      No:  High Temp 
 HYDO.m                   2.00:  Hydro Offset 
 IFIN.deg                66.14:  Inc, Final 
 IMAX.deg                69.03:  Inc Max 
 IMIN.deg                64.64:  Inc Min 
 IMND.m                4450.16:  Inc Min Depth 
 IMXD.m                3996.00:  Inc Max Depth 
 JARR.                     Yes:  Jarring 
 LETM.      13.41.20 14-Nov-20:  Log End Time 
 LOST.hr                     0:  Lost Rig Time 
 LSTM.      13.41.20 06-Nov-20:  Log Start Time 
 MDCL.ppm             42500.00:  Mud Chlorides 
 MDES.     Inversion Oil/Synthetic:  Mud Desc 
 DFD .sg                  1.45:  Mud Density 
 MDMN.sg                  1.45:  Dens Mud Min 
 MDMX.sg                  1.45:  Dens Mud Max 
 MOIL.                      70:  Run Mud Oil % 
 MOWR.                   70:30:  Run Mud OWR 
 MSND.                       0:  Run Mud Sand % 
 MSOL.                    19.3:  Run Mud Solids% 
 DFV .spqt               77.00:  Mud Viscosity 
 MWOD.in                  8.00:  MWD Tool OD 
 MWSI.                      No:  Serv Intrp, MWD 
 OTIM.hr                201.88:  Time Operating 
 PCON.           Look Like New:  Pad Condition 
 PMAX.psia             9250.94:  Press Op, Max 
 PV  .cP                 29.00:  Mud PV 
 RUN .                     800:  Run Number 
 ROPA.m/hr               28.00:  ROP Avg 
 ROPN.m/hr               25.00:  ROP Min 
 ROPX.m/hr               30.00:  ROP Max 
 RPMA.rpm               160.00:  RPM Surface Avg 
 RPMN.rpm               160.00:  RPM Surface Min 
 RPMX.rpm               160.00:  RPM Surface Max 
 RRUN.                    0800:  Rig Run Number 
 RTIM.hr                 12.00:  Time Reaming 
 SAZI.deg               169.33:  Azm, Start 
 SDEP.m                3449.01:  Start Depth 
 SIDD.                      No:  Serv Intrp, DD 
 SINC.deg                68.01:  Inc, Start 
 SPPA.psig             4900.00:  SPP Avg 
 SPPN.psig             4800.00:  SPP Min 
 SPPX.psig             5050.00:  SPP Max 
 STIM.      13.41.20 06-Nov-20:  Start Time 
 SVCS.                 DD, MWD:  Services 
 SVER.                    9.20:  Sperry Version 
 TDAT.m                4762.01:  Tot Depth Attmp 
 TDDF.                      No:  Trip for DD 
 TDLG.m                1313.00:  Tot Depth Loggd 
 TFF .                      No:  Trip for Fail 
 TQAA.f-kp               13.00:  Torque Abs Avg 
 TQAN.f-kp               13.00:  Torque Abs Min 
 TQAX.f-kp               13.00:  Torque Abs Max 
 TRRT.°/30m               1.70:  Turn Rotating 
 MRT .                  EWR-M5:  Maximum Recorded Temperature 
 TTMX.degC               86.00:  Max Tool Temp 
 VS01.                90622122:  Virtual Str1 SN 
 VS02.                90577298:  Virtual Str2 SN 
 VS03.                90563623:  Virtual Str3 SN 
 VS04.                90617559:  Virtual Str4 SN 
 VS05.                11339492:  Virtual Str5 SN 
 VS06.                12385033:  Virtual Str6 SN 
 WBMN.klb                 0.00:  WOB Min 
 WOBA.klb                22.00:  WOB Avg 
 WOBX.klb                26.00:  WOB Max 
 YP  .lhf2               30.00:  Yield Point 
~Curve Information Block
#MNEM.UNIT                 API CODE     Curve Description
#---------               -----------    ---------------------------
 TIME.HHMMSS            00 000 000 000:  GT Time & Date
 GTDEPTH.m              00 000 000 000:  GT Depth
 GTPQH.psia             00 000 000 000:  GT HR Quartz Pressure
 GTTQ.degC              00 000 000 000:  GT Quartz Temperature
 GTTN.NONE              00 000 000 000:  GT Test Number
 GTET.sec               00 000 000 000:  GT Elapsed Test Time
 GTTVD.m                00 000 000 000:  GT True Vertical Depth
#Other Information
#
#WARRANTY: Halliburton will use its best efforts to furnish customers with 
#accurate information and interpretations that are part of, and incident to, the services 
#provided.  However, Halliburton cannot and does not warrant the accuracy 
#or correctness of such information and interpretations.  Under no circumstances should any 
#such information or interpretation be relied upon as the sole basis for any drilling, 
#completion, production, or financial decision or any procedure involving any risk to the 
#safety of any drilling venture, drilling rig or its crew or any other third party.  The 
#Customer has full responsibility for all drilling, completion and production operation.  
#Halliburton makes no representations or warranties, either expressed or 
#implied, including, but not limited to, the implied warranties of merchantability or fitness 
#for a particular purpose, with respect to the services rendered.  In no event will 
#Halliburton be liable for failure to obtain any particular results or for 
#any damages, including, but not limited to, indirect, special or consequential damages, 
#resulting from the use of any information or interpretation provided by Halliburton.
#
~A           TIME           GTDEPTH  GTPQH  GTTQ  GTTN  GTET   GTTVD  
# ...
   09:22:58.193.08-Nov-2020 3525.51 3323.44 70.34 1.00  92.02 2012.77
   09:22:58.393.08-Nov-2020 3525.51 3323.44 70.34 1.00  92.22 2012.77
   09:22:58.593.08-Nov-2020 3525.51 3323.45 70.34 1.00  92.42 2012.77
   09:22:58.793.08-Nov-2020 3525.51 3323.43 70.34 1.00  92.62 2012.77
   09:22:58.993.08-Nov-2020 3525.51 3323.43 70.34 1.00  92.82 2012.77
   09:22:59.193.08-Nov-2020 3525.51 3323.46 70.34 1.00  93.02 2012.77
   09:22:59.393.08-Nov-2020 3525.51 3323.46 70.34 1.00  93.22 2012.77
   09:22:59.593.08-Nov-2020 3525.51 3323.44 70.34 1.00  93.42 2012.77
   09:22:59.793.08-Nov-2020 3525.51 3323.43 70.34 1.00  93.62 2012.77
   09:22:59.993.08-Nov-2020 3525.51 3323.42 70.34 1.00  93.82 2012.77
   09:23:00.193.08-Nov-2020 3525.51 3323.47 70.34 1.00  94.02 2012.77
   09:23:00.394.08-Nov-2020 3525.51 3323.47 70.34 1.00  94.22 2012.77
   09:23:00.594.08-Nov-2020 3525.51 3323.44 70.34 1.00  94.42 2012.77
   09:23:00.794.08-Nov-2020 3525.51 3323.41 70.34 1.00  94.62 2012.77
   09:23:00.994.08-Nov-2020 3525.51 3323.49 70.34 1.00  94.82 2012.77
   09:23:01.194.08-Nov-2020 3525.51 3323.45 70.34 1.00  95.02 2012.77
   09:23:01.394.08-Nov-2020 3525.51 3323.45 70.34 1.00  95.22 2012.77
   09:23:01.594.08-Nov-2020 3525.51 3323.46 70.34 1.00  95.42 2012.77
   09:23:01.794.08-Nov-2020 3525.51 3323.43 70.34 1.00  95.62 2012.77
   09:23:01.994.08-Nov-2020 3525.51 3323.43 70.34 1.00  95.82 2012.77
   09:23:02.194.08-Nov-2020 3525.51 3323.43 70.34 1.00  96.02 2012.77
   09:23:02.394.08-Nov-2020 3525.51 3323.43 70.34 1.00  96.22 2012.77
   09:23:02.594.08-Nov-2020 3525.51 3323.43 70.34 1.00  96.42 2012.77
   09:23:02.794.08-Nov-2020 3525.51 3323.43 70.34 1.00  96.62 2012.77
   09:23:02.994.08-Nov-2020 3525.51 3323.43 70.34 1.00  96.82 2012.77
   09:23:03.194.08-Nov-2020 3525.51 3323.43 70.33 1.00  97.02 2012.77
   09:23:03.394.08-Nov-2020 3525.51 3323.43 70.33 1.00  97.22 2012.77
   09:23:03.594.08-Nov-2020 3525.51 3323.41 70.33 1.00  97.42 2012.77
   09:23:03.794.08-Nov-2020 3525.51 3323.49 70.33 1.00  97.62 2012.77
   09:23:03.994.08-Nov-2020 3525.51 3323.44 70.33 1.00  97.82 2012.77
   09:23:04.194.08-Nov-2020 3525.51 3323.45 70.33 1.00  98.02 2012.77
   09:23:04.394.08-Nov-2020 3525.51 3323.45 70.33 1.00  98.22 2012.77
   09:23:04.594.08-Nov-2020 3525.51 3323.43 70.33 1.00  98.42 2012.77
   09:23:04.794.08-Nov-2020 3525.51 3323.43 70.33 1.00  98.62 2012.77
   09:23:04.994.08-Nov-2020 3525.51 3323.43 70.33 1.00  98.82 2012.77
   09:23:05.194.08-Nov-2020 3525.51 3323.43 70.33 1.00  99.02 2012.77
   09:23:05.394.08-Nov-2020 3525.51 3323.43 70.33 1.00  99.22 2012.77
   09:23:05.594.08-Nov-2020 3525.51 3323.42 70.33 1.00  99.42 2012.77
   09:23:05.794.08-Nov-2020 3525.51 3323.43 70.33 1.00  99.62 2012.77
   09:23:05.994.08-Nov-2020 3525.51 3323.43 70.33 1.00  99.82 2012.77
   09:23:06.194.08-Nov-2020 3525.51 3323.44 70.33 1.00 100.02 2012.77
   09:23:06.395.08-Nov-2020 3525.51 3323.44 70.33 1.00 100.22 2012.77
   09:23:06.595.08-Nov-2020 3525.51 3323.47 70.33 1.00 100.42 2012.77
   09:23:06.795.08-Nov-2020 3525.51 3323.47 70.33 1.00 100.62 2012.77
   09:23:06.995.08-Nov-2020 3525.51 3323.51 70.33 1.00 100.82 2012.77
   09:23:07.195.08-Nov-2020 3525.51 3323.49 70.33 1.00 101.02 2012.77
   09:23:07.395.08-Nov-2020 3525.51 3323.49 70.33 1.00 101.22 2012.77
   09:23:07.595.08-Nov-2020 3525.51 3323.46 70.33 1.00 101.42 2012.77
   09:23:07.795.08-Nov-2020 3525.51 3323.42 70.33 1.00 101.62 2012.77
   09:23:07.995.08-Nov-2020 3525.51 3323.52 70.33 1.00 101.82 2012.77
   09:23:08.195.08-Nov-2020 3525.51 3323.47 70.32 1.00 102.02 2012.77
   09:23:08.395.08-Nov-2020 3525.51 3323.47 70.32 1.00 102.22 2012.77
   09:23:08.595.08-Nov-2020 3525.51 3323.47 70.32 1.00 102.42 2012.77
   09:23:08.795.08-Nov-2020 3525.51 3323.46 70.32 1.00 102.62 2012.77
   09:23:08.995.08-Nov-2020 3525.51 3323.50 70.32 1.00 102.82 2012.77
   09:23:09.195.08-Nov-2020 3525.51 3323.51 70.32 1.00 103.02 2012.77
   09:23:09.395.08-Nov-2020 3525.51 3323.51 70.32 1.00 103.22 2012.77
   09:23:09.595.08-Nov-2020 3525.51 3323.46 70.32 1.00 103.42 2012.77
   09:23:09.795.08-Nov-2020 3525.51 3323.52 70.32 1.00 103.62 2012.77
   09:23:09.995.08-Nov-2020 3525.51 3323.55 70.32 1.00 103.82 2012.77
   09:23:10.195.08-Nov-2020 3525.51 3323.51 70.32 1.00 104.02 2012.77
   09:23:10.395.08-Nov-2020 3525.51 3323.51 70.32 1.00 104.22 2012.77
   09:23:10.595.08-Nov-2020 3525.51 3323.46 70.32 1.00 104.42 2012.77
   09:23:10.795.08-Nov-2020 3525.51 3323.46 70.32 1.00 104.62 2012.77
   09:23:10.995.08-Nov-2020 3525.51 3323.45 70.32 1.00 104.82 2012.77
   09:23:11.195.08-Nov-2020 3525.51 3323.45 70.32 1.00 105.02 2012.77
   09:23:11.395.08-Nov-2020 3525.51 3323.45 70.32 1.00 105.22 2012.77
   09:23:11.595.08-Nov-2020 3525.51 3323.45 70.32 1.00 105.42 2012.77
   09:23:11.795.08-Nov-2020 3525.51 3323.45 70.32 1.00 105.62 2012.77
   09:23:11.995.08-Nov-2020 3525.51 3323.44 70.32 1.00 105.82 2012.77
   09:23:12.196.08-Nov-2020 3525.51 3323.45 70.32 1.00 106.02 2012.77
   09:23:12.396.08-Nov-2020 3525.51 3323.45 70.32 1.00 106.22 2012.77
   09:23:12.596.08-Nov-2020 3525.51 3323.45 70.32 1.00 106.42 2012.77
   09:23:12.796.08-Nov-2020 3525.51 3323.53 70.32 1.00 106.62 2012.77
   09:23:12.996.08-Nov-2020 3525.51 3323.50 70.32 1.00 106.82 2012.77
   09:23:13.196.08-Nov-2020 3525.51 3323.46 70.31 1.00 107.02 2012.77
   09:23:13.396.08-Nov-2020 3525.51 3323.46 70.31 1.00 107.22 2012.77
   09:23:13.596.08-Nov-2020 3525.51 3323.45 70.31 1.00 107.42 2012.77
   09:23:13.796.08-Nov-2020 3525.51 3323.45 70.31 1.00 107.62 2012.77
   09:23:13.996.08-Nov-2020 3525.51 3323.46 70.31 1.00 107.82 2012.77
   09:23:14.196.08-Nov-2020 3525.51 3323.44 70.31 1.00 108.02 2012.77
   09:23:14.396.08-Nov-2020 3525.51 3323.44 70.31 1.00 108.22 2012.77
   09:23:14.596.08-Nov-2020 3525.51 3323.44 70.31 1.00 108.42 2012.77
   09:23:14.796.08-Nov-2020 3525.51 3323.44 70.31 1.00 108.62 2012.77
   09:23:14.996.08-Nov-2020 3525.51 3323.45 70.31 1.00 108.82 2012.77
   09:23:15.196.08-Nov-2020 3525.51 3323.48 70.31 1.00 109.02 2012.77
   09:23:15.396.08-Nov-2020 3525.51 3323.48 70.31 1.00 109.22 2012.77
   09:23:15.596.08-Nov-2020 3525.51 3323.45 70.31 1.00 109.42 2012.77
   09:23:15.796.08-Nov-2020 3525.51 3323.53 70.31 1.00 109.62 2012.77
   09:23:15.996.08-Nov-2020 3525.51 3323.49 70.31 1.00 109.82 2012.77
   09:23:16.196.08-Nov-2020 3525.51 3323.46 70.31 1.00 110.02 2012.77
   09:23:16.396.08-Nov-2020 3525.51 3323.46 70.31 1.00 110.22 2012.77
   09:23:16.596.08-Nov-2020 3525.51 3323.45 70.31 1.00 110.42 2012.77
   09:23:16.796.08-Nov-2020 3525.51 3323.46 70.31 1.00 110.62 2012.77
   09:23:16.996.08-Nov-2020 3525.51 3323.52 70.31 1.00 110.82 2012.77
   09:23:17.196.08-Nov-2020 3525.51 3323.49 70.31 1.00 111.02 2012.77
   09:23:17.396.08-Nov-2020 3525.51 3323.49 70.31 1.00 111.22 2012.77
   09:23:17.596.08-Nov-2020 3525.51 3323.49 70.31 1.00 111.42 2012.77
   09:23:17.796.08-Nov-2020 3525.51 3323.47 70.31 1.00 111.62 2012.77
   09:23:17.996.08-Nov-2020 3525.51 3323.57 70.31 1.00 111.82 2012.77
   09:23:18.197.08-Nov-2020 3525.51 3323.52 70.30 1.00 112.02 2012.77
   09:23:18.397.08-Nov-2020 3525.51 3323.52 70.30 1.00 112.22 2012.77
   09:23:18.597.08-Nov-2020 3525.51 3323.48 70.30 1.00 112.42 2012.77
   09:23:18.797.08-Nov-2020 3525.51 3323.59 70.30 1.00 112.62 2012.77
   09:23:18.997.08-Nov-2020 3525.51 3323.52 70.30 1.00 112.82 2012.77
   09:23:19.197.08-Nov-2020 3525.51 3323.51 70.30 1.00 113.02 2012.77
   09:23:19.397.08-Nov-2020 3525.51 3323.51 70.30 1.00 113.22 2012.77
   09:23:19.597.08-Nov-2020 3525.51 3323.46 70.30 1.00 113.42 2012.77
   09:23:19.797.08-Nov-2020 3525.51 3323.48 70.30 1.00 113.62 2012.77
   09:23:19.997.08-Nov-2020 3525.51 3323.47 70.30 1.00 113.82 2012.77
   09:23:20.197.08-Nov-2020 3525.51 3323.47 70.30 1.00 114.02 2012.77
   09:23:20.397.08-Nov-2020 3525.51 3323.47 70.30 1.00 114.22 2012.77
   09:23:20.597.08-Nov-2020 3525.51 3323.46 70.30 1.00 114.42 2012.77
   09:23:20.797.08-Nov-2020 3525.51 3323.45 70.30 1.00 114.62 2012.77
   09:23:20.997.08-Nov-2020 3525.51 3323.46 70.30 1.00 114.82 2012.77
