~Version Information
 VERS.                  2.0:   CWLS log ASCII Standard -VERSION 2.0
 WRAP.                   NO:   One line per depth step
~Well Information Block
#MNEM.UNIT     VALUE/NAME     DESCRIPTION
#---------     -----------    ---------------------------
 STRT.S             06:45:19 11-Nov-20: START TIME 06:45:19 11-Nov-20
 STOP.S             06:51:53 11-Nov-20: STOP TIME  06:51:53 11-Nov-20
 STEP.S                   0.00: STEP TIME
 NULL.                 -999.25: NULL VALUE
 DFWT.                        :  DIST FWL TEXT
 DFST.                        :  DIST FSL TEXT
 DMF .             Drill Floor:  DRILL MEAS FROM
 STIM.      04.54.24 22-Sep-20:  START TIME
 DATE.      04.54.24 21-Nov-20:  END TIME
 SPUD.               21-Nov-20:  SPUD DATE
 NREF.                    Grid:  NORTH REFERENCE
 HPTY.       Minimum Curvature:  HOLE POS TYPE
 DMOD.             Drill Model:  DRILL MOD DESC
 SVYD.                  Survey:  SURVEY DESC
 ILTD.               Lithology:  INTERP LTH DESC
 FTOP.          Formation Tops:  FORM TOPS DESC
 SON .        AZ-XX-0906571587:  JOB NUMBER
 COMP.     BP Exploration (Caspian Sea) Ltd:  COMPANY
 UWI .                     N/A:  UNIQUE WELL IDENTIFIER
 API .                     N/A:  API NUMBER
 BASE.              Azerbaijan:  LOGGING EQUIPMENT BASE LOCATION
 REGN.                   EESSA:  REGION
 PROV.                    Baku:  PROVINCE
 STAT.                    Baku:  STATE NAME
 CTRY.              Azerbaijan:  COUNTRY NAME
 FLD .                     ACG:  FIELD NAME
 SRVC.     TURAN Drilling & Engineering:  CONTRACTOR
 WELL.                     J27:  WELL NAME
 RIG .             West Chirag:  RIG NAME
 DOE .                     N/A:  DOE NUMBER
 DCON.         Sperry Drilling:  DIRECTNL CONTR
 PDAT.          Mean Sea Level:  PERMANENT DATUM
 WTYP.                Deviated:  WELL TYPE
 MWDS.                    Baku:  MWD SHOP
 JOBN.        AZ-XX-0906571587:  JOB TICKET NUMB
 UNIT.                     N/A:  LOGGING EQUIPMENT ID
 MDS .        Operator Entered:  MAG DATA SOURCE
 CNTY.                        :  COUNTY
 LOC .                        :  LOCATION
 LMF .             Drill Floor:  LOG MEASURED FROM
 TVDS.m                  43.00:  TVDSS CORRECTN
 LATI.deg                40.13:  LATITUDE
 LONG.deg                51.22:  LONGITUDE
 WHNS.m                   7.72:  WELL HEAD N/S
 WHEW.m                 -14.24:  WELL HEAD E/W
 UTMX.m              519005.06:  UTM X
 UTMY.m             4443793.85:  UTM Y
 DFWL.m                   0.00:  DISTANCE FWL
 DFSL.m                   0.00:  DISTANCE FSL
 SDEP.m                 347.00:  START DEPTH
 TDD .m                 581.00:  TOTAL DEPTH (DRILLER)
 VSDR.deg               159.72:  VERT SEC DIRECT
 GVFD.g                   1.00:  GRAVITY FIELD
 MFLD.nT              50313.00:  MAGNETIC FIELD
 MDIP.deg                59.58:  MAGNETIC DIP
 MDEC.deg                 6.45:  MAGNETIC DECL
 GRDC.deg                 0.15:  GRID CORRECTION
 AZTC.deg                 6.30:  AZM TOTAL CORR
 EPD .m                   0.00:  ELEVATION
 EGL .m                   0.00:  GROUND ELEVATION
 WDMS.m                 169.80:  WD ELEV
 APD .m                  43.00:  DEPTH ABOVE PD
 AGAP.m                  43.00:  AIR GAP
 VSEW.m                 -14.24:  VERT SEC E/W
 VSNS.m                   7.72:  VERT SEC N/S
 DEP .m                 342.45:  DEPTH
 EKB .m                   0.00:  KB ELEVATION
 EDF .m                  43.00:  DF ELEVATION
 TDL .m                1313.00:  TOTAL DEPTH (LOGGER)
 VSC .                       0:  VS TO CLOSURE
 MAGU.                 1851396:  MAGUTM CHECKSUM
~Parameter Information Block
#MNEM.UNIT       Value        Description
#---------     -----------    ---------------------------
 AV  .mps                 0.65:  Ann Velocity 
 AVMX.mps                 0.75:  Max Ann Veloc 
 AZIF.deg               115.08:  Azm, Final 
 BHAT.        Rotary Steerable:  BHA Type 
 BROT.°/30m               1.50:  Build Rotating 
 BS  .in                 12.25:  Bit Size 
 BSZ .in                 12.25:  Bit Size 
 BTPL.psig              700.00:  Bit Press Loss 
 CABU.                     Yes:  Customer Abuse 
 COMM.                     LNw:  Run Comments 1 
 TCS .hr                121.00:  Time Ciculation Ended 
 CV  .mps                 1.83:  Crit Velocity 
 CVMX.mps                 1.83:  Max Crit Veloc 
 DD1 .          Rashad Habibov:  Direct Drillr 1 
 DD2 .         Rasim Ibrahimov:  Direct Drillr 2 
 DDSV.                 iCruise:  DD Service 
 DEFF.%                 100.00:  % Det Eff 
 DLRX.°/30m               3.60:  Dogleg Rot Max 
 DLSO.°/30m               3.10:  Dogleg Oriented 
 DLSX.°/30m               3.60:  Dogleg Str Max 
 DRET.      13.41.20 12-Nov-20:  Drill End Time 
 DRST.      13.41.20 07-Nov-20:  Drill Start Tim 
 DTIM.hr                 54.16:  Time Drilling 
 EDEP.m                4762.01:  End Depth 
 ENG1.           Amrah Tahirov:  Engineer 1 
 ENG2.      Bakhtiyar Jabbarli:  Engineer 2 
 ENG3.          Ruslan Safarov:  Engineer 3 
 ETIM.      13.41.20 14-Nov-20:  End Time 
 FLOI.gpm              1200.00:  Flow In 
 FLON.gpm              1100.00:  Flow In Min 
 FLOS.cptm                0.00:  Fluid Loss 
 FLOX.gpm              1200.00:  Flow In Max 
 HFLO.                      No:  High Flow 
 HPRE.                      No:  High Pressure 
 HTEM.                      No:  High Temp 
 HYDO.m                   2.00:  Hydro Offset 
 IFIN.deg                66.14:  Inc, Final 
 IMAX.deg                69.03:  Inc Max 
 IMIN.deg                64.64:  Inc Min 
 IMND.m                4450.16:  Inc Min Depth 
 IMXD.m                3996.00:  Inc Max Depth 
 JARR.                     Yes:  Jarring 
 LETM.      13.41.20 14-Nov-20:  Log End Time 
 LOST.hr                     0:  Lost Rig Time 
 LSTM.      13.41.20 06-Nov-20:  Log Start Time 
 MDCL.ppm             42500.00:  Mud Chlorides 
 MDES.     Inversion Oil/Synthetic:  Mud Desc 
 DFD .sg                  1.45:  Mud Density 
 MDMN.sg                  1.45:  Dens Mud Min 
 MDMX.sg                  1.45:  Dens Mud Max 
 MOIL.                      70:  Run Mud Oil % 
 MOWR.                   70:30:  Run Mud OWR 
 MSND.                       0:  Run Mud Sand % 
 MSOL.                    19.3:  Run Mud Solids% 
 DFV .spqt               77.00:  Mud Viscosity 
 MWOD.in                  8.00:  MWD Tool OD 
 MWSI.                      No:  Serv Intrp, MWD 
 OTIM.hr                201.88:  Time Operating 
 PCON.           Look Like New:  Pad Condition 
 PMAX.psia             9250.94:  Press Op, Max 
 PV  .cP                 29.00:  Mud PV 
 RUN .                     800:  Run Number 
 ROPA.m/hr               28.00:  ROP Avg 
 ROPN.m/hr               25.00:  ROP Min 
 ROPX.m/hr               30.00:  ROP Max 
 RPMA.rpm               160.00:  RPM Surface Avg 
 RPMN.rpm               160.00:  RPM Surface Min 
 RPMX.rpm               160.00:  RPM Surface Max 
 RRUN.                    0800:  Rig Run Number 
 RTIM.hr                 12.00:  Time Reaming 
 SAZI.deg               169.33:  Azm, Start 
 SDEP.m                3449.01:  Start Depth 
 SIDD.                      No:  Serv Intrp, DD 
 SINC.deg                68.01:  Inc, Start 
 SPPA.psig             4900.00:  SPP Avg 
 SPPN.psig             4800.00:  SPP Min 
 SPPX.psig             5050.00:  SPP Max 
 STIM.      13.41.20 06-Nov-20:  Start Time 
 SVCS.                 DD, MWD:  Services 
 SVER.                    9.20:  Sperry Version 
 TDAT.m                4762.01:  Tot Depth Attmp 
 TDDF.                      No:  Trip for DD 
 TDLG.m                1313.00:  Tot Depth Loggd 
 TFF .                      No:  Trip for Fail 
 TQAA.f-kp               13.00:  Torque Abs Avg 
 TQAN.f-kp               13.00:  Torque Abs Min 
 TQAX.f-kp               13.00:  Torque Abs Max 
 TRRT.°/30m               1.70:  Turn Rotating 
 MRT .                  EWR-M5:  Maximum Recorded Temperature 
 TTMX.degC               86.00:  Max Tool Temp 
 VS01.                90622122:  Virtual Str1 SN 
 VS02.                90577298:  Virtual Str2 SN 
 VS03.                90563623:  Virtual Str3 SN 
 VS04.                90617559:  Virtual Str4 SN 
 VS05.                11339492:  Virtual Str5 SN 
 VS06.                12385033:  Virtual Str6 SN 
 WBMN.klb                 0.00:  WOB Min 
 WOBA.klb                22.00:  WOB Avg 
 WOBX.klb                26.00:  WOB Max 
 YP  .lhf2               30.00:  Yield Point 
~Curve Information Block
#MNEM.UNIT                 API CODE     Curve Description
#---------               -----------    ---------------------------
 TIME.HHMMSS            00 000 000 000:  GT Time & Date
 GTDEPTH.m              00 000 000 000:  GT Depth
 GTPQH.psia             00 000 000 000:  GT HR Quartz Pressure
 GTTQ.degC              00 000 000 000:  GT Quartz Temperature
 GTTN.NONE              00 000 000 000:  GT Test Number
 GTET.sec               00 000 000 000:  GT Elapsed Test Time
 GTTVD.m                00 000 000 000:  GT True Vertical Depth
#Other Information
#
#WARRANTY: Halliburton will use its best efforts to furnish customers with 
#accurate information and interpretations that are part of, and incident to, the services 
#provided.  However, Halliburton cannot and does not warrant the accuracy 
#or correctness of such information and interpretations.  Under no circumstances should any 
#such information or interpretation be relied upon as the sole basis for any drilling, 
#completion, production, or financial decision or any procedure involving any risk to the 
#safety of any drilling venture, drilling rig or its crew or any other third party.  The 
#Customer has full responsibility for all drilling, completion and production operation.  
#Halliburton makes no representations or warranties, either expressed or 
#implied, including, but not limited to, the implied warranties of merchantability or fitness 
#for a particular purpose, with respect to the services rendered.  In no event will 
#Halliburton be liable for failure to obtain any particular results or for 
#any damages, including, but not limited to, indirect, special or consequential damages, 
#resulting from the use of any information or interpretation provided by Halliburton.
#
~A           TIME           GTDEPTH  GTPQH  GTTQ  GTTN  GTET   GTTVD  
# ...
   06:49:32.469.11-Nov-2020 4617.01 4135.60 79.32 8.00 253.08 2426.59
   06:49:32.669.11-Nov-2020 4617.01 4135.60 79.32 8.00 253.28 2426.59
   06:49:32.869.11-Nov-2020 4617.01 4135.59 79.31 8.00 253.48 2426.59
   06:49:33.069.11-Nov-2020 4617.01 4135.59 79.31 8.00 253.68 2426.59
   06:49:33.269.11-Nov-2020 4617.01 4135.55 79.31 8.00 253.88 2426.59
   06:49:33.469.11-Nov-2020 4617.01 4135.54 79.31 8.00 254.08 2426.59
   06:49:33.669.11-Nov-2020 4617.01 4135.54 79.31 8.00 254.28 2426.59
   06:49:33.869.11-Nov-2020 4617.01 4135.54 79.31 8.00 254.48 2426.59
   06:49:34.070.11-Nov-2020 4617.01 4135.54 79.31 8.00 254.68 2426.59
   06:49:34.270.11-Nov-2020 4617.01 4135.58 79.31 8.00 254.88 2426.59
   06:49:34.470.11-Nov-2020 4617.01 4135.52 79.31 8.00 255.08 2426.59
   06:49:34.670.11-Nov-2020 4617.01 4135.52 79.31 8.00 255.28 2426.59
   06:49:34.870.11-Nov-2020 4617.01 4135.43 79.31 8.00 255.48 2426.59
   06:49:35.070.11-Nov-2020 4617.01 4135.66 79.31 8.00 255.68 2426.59
   06:49:35.270.11-Nov-2020 4617.01 4135.48 79.31 8.00 255.88 2426.59
   06:49:35.470.11-Nov-2020 4617.01 4135.58 79.30 8.00 256.08 2426.59
   06:49:35.670.11-Nov-2020 4617.01 4135.55 79.30 8.00 256.28 2426.59
   06:49:35.870.11-Nov-2020 4617.01 4135.46 79.30 8.00 256.48 2426.59
   06:49:36.070.11-Nov-2020 4617.01 4135.64 79.30 8.00 256.68 2426.59
   06:49:36.270.11-Nov-2020 4617.01 4135.51 79.30 8.00 256.88 2426.59
   06:49:36.470.11-Nov-2020 4617.01 4135.83 79.30 8.00 257.08 2426.59
   06:49:36.670.11-Nov-2020 4617.01 4135.83 79.30 8.00 257.28 2426.59
   06:49:36.870.11-Nov-2020 4617.01 4135.43 79.30 8.00 257.48 2426.59
   06:49:37.070.11-Nov-2020 4617.01 4135.59 79.30 8.00 257.68 2426.59
   06:49:37.271.11-Nov-2020 4617.01 4135.68 79.30 8.00 257.88 2426.59
   06:49:37.471.11-Nov-2020 4617.01 4135.61 79.30 8.00 258.08 2426.59
   06:49:37.671.11-Nov-2020 4617.01 4135.61 79.30 8.00 258.28 2426.59
   06:49:37.871.11-Nov-2020 4617.01 4135.59 79.29 8.00 258.48 2426.59
   06:49:38.071.11-Nov-2020 4617.01 4135.49 79.29 8.00 258.68 2426.59
   06:49:38.271.11-Nov-2020 4617.01 4135.57 79.29 8.00 258.88 2426.59
   06:49:38.471.11-Nov-2020 4617.01 4134.56 79.29 8.00 259.08 2426.59
   06:49:38.671.11-Nov-2020 4617.01 4134.56 79.29 8.00 259.28 2426.59
   06:49:38.871.11-Nov-2020 4617.01 4102.09 79.29 8.00 259.48 2426.59
   06:49:39.071.11-Nov-2020 4617.01 4102.26 79.29 8.00 259.68 2426.59
   06:49:39.271.11-Nov-2020 4617.01 4102.24 79.29 8.00 259.88 2426.59
   06:49:39.471.11-Nov-2020 4617.01 4102.25 79.29 8.00 260.08 2426.59
   06:49:39.671.11-Nov-2020 4617.01 4102.25 79.29 8.00 260.28 2426.59
   06:49:39.871.11-Nov-2020 4617.01 4102.32 79.29 8.00 260.48 2426.59
   06:49:40.071.11-Nov-2020 4617.01 4102.59 79.29 8.00 260.68 2426.59
   06:49:40.271.11-Nov-2020 4617.01 4103.34 79.29 8.00 260.88 2426.59
   06:49:40.472.11-Nov-2020 4617.01 4102.20 79.28 8.00 261.08 2426.59
   06:49:40.672.11-Nov-2020 4617.01 4102.20 79.28 8.00 261.28 2426.59
   06:49:40.872.11-Nov-2020 4617.01 4103.23 79.28 8.00 261.48 2426.59
   06:49:41.072.11-Nov-2020 4617.01 4103.33 79.28 8.00 261.68 2426.59
   06:49:41.272.11-Nov-2020 4617.01 4103.01 79.28 8.00 261.88 2426.59
   06:49:41.472.11-Nov-2020 4617.01 4102.99 79.28 8.00 262.08 2426.59
   06:49:41.672.11-Nov-2020 4617.01 4102.99 79.28 8.00 262.28 2426.59
   06:49:41.872.11-Nov-2020 4617.01 4103.02 79.28 8.00 262.48 2426.59
   06:49:42.072.11-Nov-2020 4617.01 4103.18 79.28 8.00 262.68 2426.59
   06:49:42.272.11-Nov-2020 4617.01 4103.16 79.28 8.00 262.88 2426.59
   06:49:42.472.11-Nov-2020 4617.01 4102.82 79.28 8.00 263.08 2426.59
   06:49:42.672.11-Nov-2020 4617.01 4102.82 79.28 8.00 263.28 2426.59
   06:49:42.872.11-Nov-2020 4617.01 4104.07 79.28 8.00 263.48 2426.59
   06:49:43.072.11-Nov-2020 4617.01 4102.38 79.27 8.00 263.68 2426.59
   06:49:43.272.11-Nov-2020 4617.01 4103.58 79.27 8.00 263.88 2426.59
   06:49:43.472.11-Nov-2020 4617.01 4103.79 79.27 8.00 264.08 2426.59
   06:49:43.673.11-Nov-2020 4617.01 4103.74 79.27 8.00 264.28 2426.59
   06:49:43.873.11-Nov-2020 4617.01 4103.87 79.27 8.00 264.48 2426.59
   06:49:44.073.11-Nov-2020 4617.01 4104.23 79.27 8.00 264.68 2426.59
   06:49:44.273.11-Nov-2020 4617.01 4104.60 79.27 8.00 264.88 2426.59
   06:49:44.473.11-Nov-2020 4617.01 4103.66 79.27 8.00 265.08 2426.59
   06:49:44.673.11-Nov-2020 4617.01 4103.66 79.27 8.00 265.28 2426.59
   06:49:44.873.11-Nov-2020 4617.01 4103.63 79.27 8.00 265.48 2426.59
   06:49:45.073.11-Nov-2020 4617.01 4105.08 79.27 8.00 265.68 2426.59
   06:49:45.273.11-Nov-2020 4617.01 4104.61 79.27 8.00 265.88 2426.59
   06:49:45.473.11-Nov-2020 4617.01 4104.78 79.26 8.00 266.08 2426.59
   06:49:45.673.11-Nov-2020 4617.01 4104.78 79.26 8.00 266.28 2426.59
   06:49:45.873.11-Nov-2020 4617.01 4104.82 79.26 8.00 266.48 2426.59
   06:49:46.073.11-Nov-2020 4617.01 4104.79 79.26 8.00 266.68 2426.59
   06:49:46.273.11-Nov-2020 4617.01 4105.03 79.26 8.00 266.88 2426.59
   06:49:46.473.11-Nov-2020 4617.01 4105.21 79.26 8.00 267.08 2426.59
   06:49:46.673.11-Nov-2020 4617.01 4105.21 79.26 8.00 267.28 2426.59
   06:49:46.874.11-Nov-2020 4617.01 4105.51 79.26 8.00 267.48 2426.59
   06:49:47.074.11-Nov-2020 4617.01 4114.71 79.26 8.00 267.68 2426.59
   06:49:47.274.11-Nov-2020 4617.01 4134.78 79.26 8.00 267.88 2426.59
   06:49:47.474.11-Nov-2020 4617.01 4135.00 79.26 8.00 268.08 2426.59
   06:49:47.674.11-Nov-2020 4617.01 4135.13 79.26 8.00 268.28 2426.59
   06:49:47.874.11-Nov-2020 4617.01 4135.19 79.26 8.00 268.48 2426.59
   06:49:48.074.11-Nov-2020 4617.01 4135.20 79.25 8.00 268.68 2426.59
   06:49:48.274.11-Nov-2020 4617.01 4135.27 79.25 8.00 268.88 2426.59
   06:49:48.474.11-Nov-2020 4617.01 4135.30 79.25 8.00 269.08 2426.59
   06:49:48.674.11-Nov-2020 4617.01 4135.30 79.25 8.00 269.28 2426.59
   06:49:48.874.11-Nov-2020 4617.01 4135.53 79.25 8.00 269.48 2426.59
   06:49:49.074.11-Nov-2020 4617.01 4135.46 79.25 8.00 269.68 2426.59
   06:49:49.274.11-Nov-2020 4617.01 4135.43 79.25 8.00 269.88 2426.59
   06:49:49.474.11-Nov-2020 4617.01 4135.51 79.25 8.00 270.08 2426.59
   06:49:49.674.11-Nov-2020 4617.01 4135.51 79.25 8.00 270.28 2426.59
   06:49:49.875.11-Nov-2020 4617.01 4135.44 79.25 8.00 270.48 2426.59
   06:49:50.075.11-Nov-2020 4617.01 4135.46 79.25 8.00 270.68 2426.59
   06:49:50.275.11-Nov-2020 4617.01 4135.45 79.25 8.00 270.89 2426.59
   06:49:50.475.11-Nov-2020 4617.01 4135.50 79.25 8.00 271.09 2426.59
   06:49:50.675.11-Nov-2020 4617.01 4135.50 79.25 8.00 271.29 2426.59
   06:49:50.875.11-Nov-2020 4617.01 4135.51 79.24 8.00 271.49 2426.59
   06:49:51.075.11-Nov-2020 4617.01 4135.47 79.24 8.00 271.69 2426.59
   06:49:51.275.11-Nov-2020 4617.01 4135.55 79.24 8.00 271.89 2426.59
   06:49:51.475.11-Nov-2020 4617.01 4135.56 79.24 8.00 272.09 2426.59
   06:49:51.675.11-Nov-2020 4617.01 4135.56 79.24 8.00 272.29 2426.59
   06:49:51.875.11-Nov-2020 4617.01 4135.69 79.24 8.00 272.49 2426.59
   06:49:52.075.11-Nov-2020 4617.01 4135.38 79.24 8.00 272.69 2426.59
   06:49:52.275.11-Nov-2020 4617.01 4135.62 79.24 8.00 272.89 2426.59
   06:49:52.475.11-Nov-2020 4617.01 4135.43 79.24 8.00 273.09 2426.59
   06:49:52.675.11-Nov-2020 4617.01 4135.43 79.24 8.00 273.29 2426.59
   06:49:52.875.11-Nov-2020 4617.01 4135.50 79.24 8.00 273.49 2426.59
   06:49:53.076.11-Nov-2020 4617.01 4135.75 79.23 8.00 273.69 2426.59
   06:49:53.276.11-Nov-2020 4617.01 4135.34 79.23 8.00 273.89 2426.59
   06:49:53.476.11-Nov-2020 4617.01 4135.59 79.23 8.00 274.09 2426.59
   06:49:53.676.11-Nov-2020 4617.01 4135.50 79.23 8.00 274.29 2426.59
   06:49:53.876.11-Nov-2020 4617.01 4135.64 79.23 8.00 274.49 2426.59
   06:49:54.076.11-Nov-2020 4617.01 4135.77 79.23 8.00 274.69 2426.59
   06:49:54.276.11-Nov-2020 4617.01 4135.36 79.23 8.00 274.89 2426.59
   06:49:54.476.11-Nov-2020 4617.01 4135.59 79.23 8.00 275.09 2426.59
   06:49:54.676.11-Nov-2020 4617.01 4135.52 79.23 8.00 275.29 2426.59
   06:49:54.876.11-Nov-2020 4617.01 4135.63 79.23 8.00 275.49 2426.59
   06:49:55.076.11-Nov-2020 4617.01 4135.65 79.23 8.00 275.69 2426.59
   06:49:55.276.11-Nov-2020 4617.01 4135.55 79.23 8.00 275.89 2426.59
