~Version Information
 VERS.                  2.0:   CWLS log ASCII Standard -VERSION 2.0
 WRAP.                   NO:   One line per depth step
~Well Information Block
#MNEM.UNIT     VALUE/NAME     DESCRIPTION
#---------     -----------    ---------------------------
 STRT.S             22:31:45 10-Nov-20: START TIME 22:31:45 10-Nov-20
 STOP.S             22:38:18 10-Nov-20: STOP TIME  22:38:18 10-Nov-20
 STEP.S                   0.00: STEP TIME
 NULL.                 -999.25: NULL VALUE
 DFWT.                        :  DIST FWL TEXT
 DFST.                        :  DIST FSL TEXT
 DMF .             Drill Floor:  DRILL MEAS FROM
 STIM.      04.54.24 22-Sep-20:  START TIME
 DATE.      04.54.24 21-Nov-20:  END TIME
 SPUD.               21-Nov-20:  SPUD DATE
 NREF.                    Grid:  NORTH REFERENCE
 HPTY.       Minimum Curvature:  HOLE POS TYPE
 DMOD.             Drill Model:  DRILL MOD DESC
 SVYD.                  Survey:  SURVEY DESC
 ILTD.               Lithology:  INTERP LTH DESC
 FTOP.          Formation Tops:  FORM TOPS DESC
 SON .        AZ-XX-0906571587:  JOB NUMBER
 COMP.     BP Exploration (Caspian Sea) Ltd:  COMPANY
 UWI .                     N/A:  UNIQUE WELL IDENTIFIER
 API .                     N/A:  API NUMBER
 BASE.              Azerbaijan:  LOGGING EQUIPMENT BASE LOCATION
 REGN.                   EESSA:  REGION
 PROV.                    Baku:  PROVINCE
 STAT.                    Baku:  STATE NAME
 CTRY.              Azerbaijan:  COUNTRY NAME
 FLD .                     ACG:  FIELD NAME
 SRVC.     TURAN Drilling & Engineering:  CONTRACTOR
 WELL.                     J27:  WELL NAME
 RIG .             West Chirag:  RIG NAME
 DOE .                     N/A:  DOE NUMBER
 DCON.         Sperry Drilling:  DIRECTNL CONTR
 PDAT.          Mean Sea Level:  PERMANENT DATUM
 WTYP.                Deviated:  WELL TYPE
 MWDS.                    Baku:  MWD SHOP
 JOBN.        AZ-XX-0906571587:  JOB TICKET NUMB
 UNIT.                     N/A:  LOGGING EQUIPMENT ID
 MDS .        Operator Entered:  MAG DATA SOURCE
 CNTY.                        :  COUNTY
 LOC .                        :  LOCATION
 LMF .             Drill Floor:  LOG MEASURED FROM
 TVDS.m                  43.00:  TVDSS CORRECTN
 LATI.deg                40.13:  LATITUDE
 LONG.deg                51.22:  LONGITUDE
 WHNS.m                   7.72:  WELL HEAD N/S
 WHEW.m                 -14.24:  WELL HEAD E/W
 UTMX.m              519005.06:  UTM X
 UTMY.m             4443793.85:  UTM Y
 DFWL.m                   0.00:  DISTANCE FWL
 DFSL.m                   0.00:  DISTANCE FSL
 SDEP.m                 347.00:  START DEPTH
 TDD .m                 581.00:  TOTAL DEPTH (DRILLER)
 VSDR.deg               159.72:  VERT SEC DIRECT
 GVFD.g                   1.00:  GRAVITY FIELD
 MFLD.nT              50313.00:  MAGNETIC FIELD
 MDIP.deg                59.58:  MAGNETIC DIP
 MDEC.deg                 6.45:  MAGNETIC DECL
 GRDC.deg                 0.15:  GRID CORRECTION
 AZTC.deg                 6.30:  AZM TOTAL CORR
 EPD .m                   0.00:  ELEVATION
 EGL .m                   0.00:  GROUND ELEVATION
 WDMS.m                 169.80:  WD ELEV
 APD .m                  43.00:  DEPTH ABOVE PD
 AGAP.m                  43.00:  AIR GAP
 VSEW.m                 -14.24:  VERT SEC E/W
 VSNS.m                   7.72:  VERT SEC N/S
 DEP .m                 342.45:  DEPTH
 EKB .m                   0.00:  KB ELEVATION
 EDF .m                  43.00:  DF ELEVATION
 TDL .m                1313.00:  TOTAL DEPTH (LOGGER)
 VSC .                       0:  VS TO CLOSURE
 MAGU.                 1851396:  MAGUTM CHECKSUM
~Parameter Information Block
#MNEM.UNIT       Value        Description
#---------     -----------    ---------------------------
 AV  .mps                 0.65:  Ann Velocity 
 AVMX.mps                 0.75:  Max Ann Veloc 
 AZIF.deg               115.08:  Azm, Final 
 BHAT.        Rotary Steerable:  BHA Type 
 BROT.°/30m               1.50:  Build Rotating 
 BS  .in                 12.25:  Bit Size 
 BSZ .in                 12.25:  Bit Size 
 BTPL.psig              700.00:  Bit Press Loss 
 CABU.                     Yes:  Customer Abuse 
 COMM.                     ”Õ`:  Run Comments 1 
 TCS .hr                121.00:  Time Ciculation Ended 
 CV  .mps                 1.83:  Crit Velocity 
 CVMX.mps                 1.83:  Max Crit Veloc 
 DD1 .          Rashad Habibov:  Direct Drillr 1 
 DD2 .         Rasim Ibrahimov:  Direct Drillr 2 
 DDSV.                 iCruise:  DD Service 
 DEFF.%                 100.00:  % Det Eff 
 DLRX.°/30m               3.60:  Dogleg Rot Max 
 DLSO.°/30m               3.10:  Dogleg Oriented 
 DLSX.°/30m               3.60:  Dogleg Str Max 
 DRET.      13.41.20 12-Nov-20:  Drill End Time 
 DRST.      13.41.20 07-Nov-20:  Drill Start Tim 
 DTIM.hr                 54.16:  Time Drilling 
 EDEP.m                4762.01:  End Depth 
 ENG1.           Amrah Tahirov:  Engineer 1 
 ENG2.      Bakhtiyar Jabbarli:  Engineer 2 
 ENG3.          Ruslan Safarov:  Engineer 3 
 ETIM.      13.41.20 14-Nov-20:  End Time 
 FLOI.gpm              1200.00:  Flow In 
 FLON.gpm              1100.00:  Flow In Min 
 FLOS.cptm                0.00:  Fluid Loss 
 FLOX.gpm              1200.00:  Flow In Max 
 HFLO.                      No:  High Flow 
 HPRE.                      No:  High Pressure 
 HTEM.                      No:  High Temp 
 HYDO.m                   2.00:  Hydro Offset 
 IFIN.deg                66.14:  Inc, Final 
 IMAX.deg                69.03:  Inc Max 
 IMIN.deg                64.64:  Inc Min 
 IMND.m                4450.16:  Inc Min Depth 
 IMXD.m                3996.00:  Inc Max Depth 
 JARR.                     Yes:  Jarring 
 LETM.      13.41.20 14-Nov-20:  Log End Time 
 LOST.hr                     0:  Lost Rig Time 
 LSTM.      13.41.20 06-Nov-20:  Log Start Time 
 MDCL.ppm             42500.00:  Mud Chlorides 
 MDES.     Inversion Oil/Synthetic:  Mud Desc 
 DFD .sg                  1.45:  Mud Density 
 MDMN.sg                  1.45:  Dens Mud Min 
 MDMX.sg                  1.45:  Dens Mud Max 
 MOIL.                      70:  Run Mud Oil % 
 MOWR.                   70:30:  Run Mud OWR 
 MSND.                       0:  Run Mud Sand % 
 MSOL.                    19.3:  Run Mud Solids% 
 DFV .spqt               77.00:  Mud Viscosity 
 MWOD.in                  8.00:  MWD Tool OD 
 MWSI.                      No:  Serv Intrp, MWD 
 OTIM.hr                201.88:  Time Operating 
 PCON.           Look Like New:  Pad Condition 
 PMAX.psia             9250.94:  Press Op, Max 
 PV  .cP                 29.00:  Mud PV 
 RUN .                     800:  Run Number 
 ROPA.m/hr               28.00:  ROP Avg 
 ROPN.m/hr               25.00:  ROP Min 
 ROPX.m/hr               30.00:  ROP Max 
 RPMA.rpm               160.00:  RPM Surface Avg 
 RPMN.rpm               160.00:  RPM Surface Min 
 RPMX.rpm               160.00:  RPM Surface Max 
 RRUN.                    0800:  Rig Run Number 
 RTIM.hr                 12.00:  Time Reaming 
 SAZI.deg               169.33:  Azm, Start 
 SDEP.m                3449.01:  Start Depth 
 SIDD.                      No:  Serv Intrp, DD 
 SINC.deg                68.01:  Inc, Start 
 SPPA.psig             4900.00:  SPP Avg 
 SPPN.psig             4800.00:  SPP Min 
 SPPX.psig             5050.00:  SPP Max 
 STIM.      13.41.20 06-Nov-20:  Start Time 
 SVCS.                 DD, MWD:  Services 
 SVER.                    9.20:  Sperry Version 
 TDAT.m                4762.01:  Tot Depth Attmp 
 TDDF.                      No:  Trip for DD 
 TDLG.m                1313.00:  Tot Depth Loggd 
 TFF .                      No:  Trip for Fail 
 TQAA.f-kp               13.00:  Torque Abs Avg 
 TQAN.f-kp               13.00:  Torque Abs Min 
 TQAX.f-kp               13.00:  Torque Abs Max 
 TRRT.°/30m               1.70:  Turn Rotating 
 MRT .                  EWR-M5:  Maximum Recorded Temperature 
 TTMX.degC               86.00:  Max Tool Temp 
 VS01.                90622122:  Virtual Str1 SN 
 VS02.                90577298:  Virtual Str2 SN 
 VS03.                90563623:  Virtual Str3 SN 
 VS04.                90617559:  Virtual Str4 SN 
 VS05.                11339492:  Virtual Str5 SN 
 VS06.                12385033:  Virtual Str6 SN 
 WBMN.klb                 0.00:  WOB Min 
 WOBA.klb                22.00:  WOB Avg 
 WOBX.klb                26.00:  WOB Max 
 YP  .lhf2               30.00:  Yield Point 
~Curve Information Block
#MNEM.UNIT                 API CODE     Curve Description
#---------               -----------    ---------------------------
 TIME.HHMMSS            00 000 000 000:  GT Time & Date
 GTDEPTH.m              00 000 000 000:  GT Depth
 GTPQH.psia             00 000 000 000:  GT HR Quartz Pressure
 GTTQ.degC              00 000 000 000:  GT Quartz Temperature
 GTTN.NONE              00 000 000 000:  GT Test Number
 GTET.sec               00 000 000 000:  GT Elapsed Test Time
 GTTVD.m                00 000 000 000:  GT True Vertical Depth
#Other Information
#
#WARRANTY: Halliburton will use its best efforts to furnish customers with 
#accurate information and interpretations that are part of, and incident to, the services 
#provided.  However, Halliburton cannot and does not warrant the accuracy 
#or correctness of such information and interpretations.  Under no circumstances should any 
#such information or interpretation be relied upon as the sole basis for any drilling, 
#completion, production, or financial decision or any procedure involving any risk to the 
#safety of any drilling venture, drilling rig or its crew or any other third party.  The 
#Customer has full responsibility for all drilling, completion and production operation.  
#Halliburton makes no representations or warranties, either expressed or 
#implied, including, but not limited to, the implied warranties of merchantability or fitness 
#for a particular purpose, with respect to the services rendered.  In no event will 
#Halliburton be liable for failure to obtain any particular results or for 
#any damages, including, but not limited to, indirect, special or consequential damages, 
#resulting from the use of any information or interpretation provided by Halliburton.
#
~A           TIME           GTDEPTH  GTPQH  GTTQ  GTTN  GTET   GTTVD  
# ...
   22:37:53.811.10-Nov-2020 4535.01 5048.84 81.35 6.00 368.05 2393.67
   22:37:54.011.10-Nov-2020 4535.01 5048.84 81.35 6.00 368.25 2393.67
   22:37:54.212.10-Nov-2020 4535.01 5049.35 81.35 6.00 368.45 2393.67
   22:37:54.412.10-Nov-2020 4535.01 5049.73 81.35 6.00 368.65 2393.67
   22:37:54.612.10-Nov-2020 4535.01 5055.77 81.35 6.00 368.85 2393.67
   22:37:54.812.10-Nov-2020 4535.01 5047.59 81.35 6.00 369.05 2393.67
   22:37:55.012.10-Nov-2020 4535.01 5047.59 81.35 6.00 369.25 2393.67
   22:37:55.212.10-Nov-2020 4535.01 5048.84 81.35 6.00 369.45 2393.67
   22:37:55.412.10-Nov-2020 4535.01 5048.19 81.35 6.00 369.65 2393.67
   22:37:55.612.10-Nov-2020 4535.01 5048.50 81.35 6.00 369.85 2393.67
   22:37:55.812.10-Nov-2020 4535.01 5048.12 81.35 6.00 370.05 2393.67
   22:37:56.012.10-Nov-2020 4535.01 5048.12 81.34 6.00 370.25 2393.67
   22:37:56.212.10-Nov-2020 4535.01 5049.27 81.34 6.00 370.45 2393.67
   22:37:56.412.10-Nov-2020 4535.01 5049.48 81.34 6.00 370.65 2393.67
   22:37:56.612.10-Nov-2020 4535.01 5049.49 81.34 6.00 370.85 2393.67
   22:37:56.812.10-Nov-2020 4535.01 5049.72 81.34 6.00 371.05 2393.67
   22:37:57.012.10-Nov-2020 4535.01 5049.94 81.34 6.00 371.25 2393.67
   22:37:57.212.10-Nov-2020 4535.01 5054.64 81.34 6.00 371.45 2393.67
   22:37:57.412.10-Nov-2020 4535.01 5051.29 81.34 6.00 371.65 2393.67
   22:37:57.612.10-Nov-2020 4535.01 5049.98 81.34 6.00 371.85 2393.67
   22:37:57.812.10-Nov-2020 4535.01 5052.77 81.34 6.00 372.05 2393.67
   22:37:58.012.10-Nov-2020 4535.01 5052.77 81.34 6.00 372.25 2393.67
   22:37:58.212.10-Nov-2020 4535.01 5047.89 81.34 6.00 372.45 2393.67
   22:37:58.412.10-Nov-2020 4535.01 5047.46 81.34 6.00 372.65 2393.67
   22:37:58.612.10-Nov-2020 4535.01 5052.68 81.34 6.00 372.85 2393.67
   22:37:58.812.10-Nov-2020 4535.01 5048.42 81.34 6.00 373.05 2393.67
   22:37:59.012.10-Nov-2020 4535.01 5048.42 81.33 6.00 373.25 2393.67
   22:37:59.212.10-Nov-2020 4535.01 5048.84 81.33 6.00 373.45 2393.67
   22:37:59.412.10-Nov-2020 4535.01 5048.51 81.33 6.00 373.65 2393.67
   22:37:59.612.10-Nov-2020 4535.01 5049.83 81.33 6.00 373.85 2393.67
   22:37:59.812.10-Nov-2020 4535.01 5053.46 81.33 6.00 374.05 2393.67
   22:38:00.012.10-Nov-2020 4535.01 5053.46 81.33 6.00 374.25 2393.67
   22:38:00.212.10-Nov-2020 4535.01 5050.31 81.33 6.00 374.45 2393.67
   22:38:00.412.10-Nov-2020 4535.01 5049.69 81.33 6.00 374.65 2393.67
   22:38:00.612.10-Nov-2020 4535.01 5054.24 81.33 6.00 374.85 2393.67
   22:38:00.812.10-Nov-2020 4535.01 5048.40 81.33 6.00 375.05 2393.67
   22:38:01.012.10-Nov-2020 4535.01 5048.39 81.33 6.00 375.25 2393.67
   22:38:01.212.10-Nov-2020 4535.01 5049.32 81.33 6.00 375.45 2393.67
   22:38:01.412.10-Nov-2020 4535.01 5048.90 81.32 6.00 375.65 2393.67
   22:38:01.613.10-Nov-2020 4535.01 5048.11 81.32 6.00 375.85 2393.67
   22:38:01.813.10-Nov-2020 4535.01 5048.70 81.32 6.00 376.05 2393.67
   22:38:02.013.10-Nov-2020 4535.01 5048.70 81.32 6.00 376.25 2393.67
   22:38:02.213.10-Nov-2020 4535.01 5049.97 81.32 6.00 376.45 2393.67
   22:38:02.413.10-Nov-2020 4535.01 5050.54 81.32 6.00 376.65 2393.67
   22:38:02.613.10-Nov-2020 4535.01 5050.18 81.32 6.00 376.85 2393.67
   22:38:02.813.10-Nov-2020 4535.01 5049.87 81.32 6.00 377.05 2393.67
   22:38:03.013.10-Nov-2020 4535.01 5049.87 81.32 6.00 377.25 2393.67
   22:38:03.213.10-Nov-2020 4535.01 5050.91 81.32 6.00 377.45 2393.67
   22:38:03.413.10-Nov-2020 4535.01 5053.94 81.32 6.00 377.65 2393.67
   22:38:03.613.10-Nov-2020 4535.01 5050.43 81.31 6.00 377.85 2393.67
   22:38:03.813.10-Nov-2020 4535.01 5049.37 81.31 6.00 378.05 2393.67
   22:38:04.013.10-Nov-2020 4535.01 5049.37 81.31 6.00 378.25 2393.67
   22:38:04.213.10-Nov-2020 4535.01 5049.02 81.31 6.00 378.45 2393.67
   22:38:04.413.10-Nov-2020 4535.01 5047.98 81.31 6.00 378.65 2393.67
   22:38:04.613.10-Nov-2020 4535.01 5048.28 81.31 6.00 378.85 2393.67
   22:38:04.813.10-Nov-2020 4535.01 5048.65 81.31 6.00 379.05 2393.67
   22:38:05.013.10-Nov-2020 4535.01 5049.31 81.31 6.00 379.25 2393.67
   22:38:05.213.10-Nov-2020 4535.01 5049.49 81.31 6.00 379.45 2393.67
   22:38:05.413.10-Nov-2020 4535.01 5049.64 81.31 6.00 379.65 2393.67
   22:38:05.613.10-Nov-2020 4535.01 5049.76 81.31 6.00 379.85 2393.67
   22:38:05.813.10-Nov-2020 4535.01 5050.27 81.30 6.00 380.05 2393.67
   22:38:06.013.10-Nov-2020 4535.01 5057.50 81.30 6.00 380.25 2393.67
   22:38:06.213.10-Nov-2020 4535.01 5049.49 81.30 6.00 380.45 2393.67
   22:38:06.413.10-Nov-2020 4535.01 5050.09 81.30 6.00 380.65 2393.67
   22:38:06.613.10-Nov-2020 4535.01 5053.51 81.30 6.00 380.85 2393.67
   22:38:06.813.10-Nov-2020 4535.01 5049.67 81.30 6.00 381.05 2393.67
   22:38:07.013.10-Nov-2020 4535.01 5048.54 81.30 6.00 381.25 2393.67
   22:38:07.213.10-Nov-2020 4535.01 5047.29 81.30 6.00 381.45 2393.67
   22:38:07.413.10-Nov-2020 4535.01 5047.98 81.30 6.00 381.65 2393.67
   22:38:07.613.10-Nov-2020 4535.01 5051.14 81.29 6.00 381.85 2393.67
   22:38:07.813.10-Nov-2020 4535.01 5049.65 81.29 6.00 382.05 2393.67
   22:38:08.013.10-Nov-2020 4535.01 5049.65 81.29 6.00 382.25 2393.67
   22:38:08.213.10-Nov-2020 4535.01 5048.24 81.29 6.00 382.45 2393.67
   22:38:08.413.10-Nov-2020 4535.01 5052.30 81.29 6.00 382.65 2393.67
   22:38:08.613.10-Nov-2020 4535.01 5051.08 81.29 6.00 382.85 2393.67
   22:38:08.813.10-Nov-2020 4535.01 5048.87 81.29 6.00 383.05 2393.67
   22:38:09.014.10-Nov-2020 4535.01 5049.35 81.29 6.00 383.25 2393.67
   22:38:09.214.10-Nov-2020 4535.01 5051.00 81.29 6.00 383.45 2393.67
   22:38:09.414.10-Nov-2020 4535.01 5055.01 81.29 6.00 383.65 2393.67
   22:38:09.614.10-Nov-2020 4535.01 5046.64 81.28 6.00 383.85 2393.67
   22:38:09.814.10-Nov-2020 4535.01 5047.56 81.28 6.00 384.05 2393.67
   22:38:10.014.10-Nov-2020 4535.01 5047.84 81.28 6.00 384.25 2393.67
   22:38:10.214.10-Nov-2020 4535.01 5048.45 81.28 6.00 384.45 2393.67
   22:38:10.414.10-Nov-2020 4535.01 5048.63 81.28 6.00 384.65 2393.67
   22:38:10.614.10-Nov-2020 4535.01 5047.92 81.28 6.00 384.85 2393.67
   22:38:10.814.10-Nov-2020 4535.01 5049.17 81.28 6.00 385.05 2393.67
   22:38:11.014.10-Nov-2020 4535.01 5049.17 81.28 6.00 385.25 2393.67
   22:38:11.214.10-Nov-2020 4535.01 5049.82 81.28 6.00 385.45 2393.67
   22:38:11.414.10-Nov-2020 4535.01 5049.54 81.28 6.00 385.65 2393.67
   22:38:11.614.10-Nov-2020 4535.01 5049.31 81.27 6.00 385.85 2393.67
   22:38:11.814.10-Nov-2020 4535.01 5049.76 81.27 6.00 386.05 2393.67
   22:38:12.014.10-Nov-2020 4535.01 5049.76 81.27 6.00 386.25 2393.67
   22:38:12.214.10-Nov-2020 4535.01 5056.59 81.27 6.00 386.45 2393.67
   22:38:12.414.10-Nov-2020 4535.01 5047.77 81.27 6.00 386.65 2393.67
   22:38:12.614.10-Nov-2020 4535.01 5048.90 81.27 6.00 386.85 2393.67
   22:38:12.814.10-Nov-2020 4535.01 5048.77 81.27 6.00 387.05 2393.67
   22:38:13.014.10-Nov-2020 4535.01 5048.77 81.27 6.00 387.25 2393.67
   22:38:13.214.10-Nov-2020 4535.01 5048.43 81.27 6.00 387.45 2393.67
   22:38:13.414.10-Nov-2020 4535.01 5048.17 81.27 6.00 387.65 2393.67
   22:38:13.614.10-Nov-2020 4535.01 5048.78 81.26 6.00 387.85 2393.67
   22:38:13.814.10-Nov-2020 4535.01 5049.21 81.26 6.00 388.05 2393.67
   22:38:14.014.10-Nov-2020 4535.01 5049.21 81.26 6.00 388.25 2393.67
   22:38:14.214.10-Nov-2020 4535.01 5049.58 81.26 6.00 388.45 2393.67
   22:38:14.414.10-Nov-2020 4535.01 5049.76 81.26 6.00 388.65 2393.67
   22:38:14.614.10-Nov-2020 4535.01 5050.21 81.26 6.00 388.85 2393.67
   22:38:14.814.10-Nov-2020 4535.01 5054.73 81.26 6.00 389.05 2393.67
   22:38:15.014.10-Nov-2020 4535.01 5054.73 81.26 6.00 389.25 2393.67
   22:38:15.214.10-Nov-2020 4535.01 5050.07 81.26 6.00 389.45 2393.67
   22:38:15.414.10-Nov-2020 4535.01 5056.24 81.26 6.00 389.65 2393.67
   22:38:15.614.10-Nov-2020 4535.01 5047.37 81.25 6.00 389.85 2393.67
   22:38:15.814.10-Nov-2020 4535.01 5048.38 81.25 6.00 390.05 2393.67
   22:38:16.014.10-Nov-2020 4535.01 5048.38 81.25 6.00 390.25 2393.67
   22:38:16.214.10-Nov-2020 4535.01 5047.19 81.25 6.00 390.45 2393.67
   22:38:16.415.10-Nov-2020 4535.01 5047.95 81.25 6.00 390.65 2393.67
   22:38:16.615.10-Nov-2020 4535.01 5052.66 81.25 6.00 390.85 2393.67
