~Version Information
 VERS.                  2.0:   CWLS log ASCII Standard -VERSION 2.0
 WRAP.                   NO:   One line per depth step
~Well Information Block
#MNEM.UNIT     VALUE/NAME     DESCRIPTION
#---------     -----------    ---------------------------
 STRT.S             22:31:45 10-Nov-20: START TIME 22:31:45 10-Nov-20
 STOP.S             22:38:18 10-Nov-20: STOP TIME  22:38:18 10-Nov-20
 STEP.S                   0.00: STEP TIME
 NULL.                 -999.25: NULL VALUE
 DFWT.                        :  DIST FWL TEXT
 DFST.                        :  DIST FSL TEXT
 DMF .             Drill Floor:  DRILL MEAS FROM
 STIM.      04.54.24 22-Sep-20:  START TIME
 DATE.      04.54.24 21-Nov-20:  END TIME
 SPUD.               21-Nov-20:  SPUD DATE
 NREF.                    Grid:  NORTH REFERENCE
 HPTY.       Minimum Curvature:  HOLE POS TYPE
 DMOD.             Drill Model:  DRILL MOD DESC
 SVYD.                  Survey:  SURVEY DESC
 ILTD.               Lithology:  INTERP LTH DESC
 FTOP.          Formation Tops:  FORM TOPS DESC
 SON .        AZ-XX-0906571587:  JOB NUMBER
 COMP.     BP Exploration (Caspian Sea) Ltd:  COMPANY
 UWI .                     N/A:  UNIQUE WELL IDENTIFIER
 API .                     N/A:  API NUMBER
 BASE.              Azerbaijan:  LOGGING EQUIPMENT BASE LOCATION
 REGN.                   EESSA:  REGION
 PROV.                    Baku:  PROVINCE
 STAT.                    Baku:  STATE NAME
 CTRY.              Azerbaijan:  COUNTRY NAME
 FLD .                     ACG:  FIELD NAME
 SRVC.     TURAN Drilling & Engineering:  CONTRACTOR
 WELL.                     J27:  WELL NAME
 RIG .             West Chirag:  RIG NAME
 DOE .                     N/A:  DOE NUMBER
 DCON.         Sperry Drilling:  DIRECTNL CONTR
 PDAT.          Mean Sea Level:  PERMANENT DATUM
 WTYP.                Deviated:  WELL TYPE
 MWDS.                    Baku:  MWD SHOP
 JOBN.        AZ-XX-0906571587:  JOB TICKET NUMB
 UNIT.                     N/A:  LOGGING EQUIPMENT ID
 MDS .        Operator Entered:  MAG DATA SOURCE
 CNTY.                        :  COUNTY
 LOC .                        :  LOCATION
 LMF .             Drill Floor:  LOG MEASURED FROM
 TVDS.m                  43.00:  TVDSS CORRECTN
 LATI.deg                40.13:  LATITUDE
 LONG.deg                51.22:  LONGITUDE
 WHNS.m                   7.72:  WELL HEAD N/S
 WHEW.m                 -14.24:  WELL HEAD E/W
 UTMX.m              519005.06:  UTM X
 UTMY.m             4443793.85:  UTM Y
 DFWL.m                   0.00:  DISTANCE FWL
 DFSL.m                   0.00:  DISTANCE FSL
 SDEP.m                 347.00:  START DEPTH
 TDD .m                 581.00:  TOTAL DEPTH (DRILLER)
 VSDR.deg               159.72:  VERT SEC DIRECT
 GVFD.g                   1.00:  GRAVITY FIELD
 MFLD.nT              50313.00:  MAGNETIC FIELD
 MDIP.deg                59.58:  MAGNETIC DIP
 MDEC.deg                 6.45:  MAGNETIC DECL
 GRDC.deg                 0.15:  GRID CORRECTION
 AZTC.deg                 6.30:  AZM TOTAL CORR
 EPD .m                   0.00:  ELEVATION
 EGL .m                   0.00:  GROUND ELEVATION
 WDMS.m                 169.80:  WD ELEV
 APD .m                  43.00:  DEPTH ABOVE PD
 AGAP.m                  43.00:  AIR GAP
 VSEW.m                 -14.24:  VERT SEC E/W
 VSNS.m                   7.72:  VERT SEC N/S
 DEP .m                 342.45:  DEPTH
 EKB .m                   0.00:  KB ELEVATION
 EDF .m                  43.00:  DF ELEVATION
 TDL .m                1313.00:  TOTAL DEPTH (LOGGER)
 VSC .                       0:  VS TO CLOSURE
 MAGU.                 1851396:  MAGUTM CHECKSUM
~Parameter Information Block
#MNEM.UNIT       Value        Description
#---------     -----------    ---------------------------
 AV  .mps                 0.65:  Ann Velocity 
 AVMX.mps                 0.75:  Max Ann Veloc 
 AZIF.deg               115.08:  Azm, Final 
 BHAT.        Rotary Steerable:  BHA Type 
 BROT.°/30m               1.50:  Build Rotating 
 BS  .in                 12.25:  Bit Size 
 BSZ .in                 12.25:  Bit Size 
 BTPL.psig              700.00:  Bit Press Loss 
 CABU.                     Yes:  Customer Abuse 
 COMM.                     ”Õ`:  Run Comments 1 
 TCS .hr                121.00:  Time Ciculation Ended 
 CV  .mps                 1.83:  Crit Velocity 
 CVMX.mps                 1.83:  Max Crit Veloc 
 DD1 .          Rashad Habibov:  Direct Drillr 1 
 DD2 .         Rasim Ibrahimov:  Direct Drillr 2 
 DDSV.                 iCruise:  DD Service 
 DEFF.%                 100.00:  % Det Eff 
 DLRX.°/30m               3.60:  Dogleg Rot Max 
 DLSO.°/30m               3.10:  Dogleg Oriented 
 DLSX.°/30m               3.60:  Dogleg Str Max 
 DRET.      13.41.20 12-Nov-20:  Drill End Time 
 DRST.      13.41.20 07-Nov-20:  Drill Start Tim 
 DTIM.hr                 54.16:  Time Drilling 
 EDEP.m                4762.01:  End Depth 
 ENG1.           Amrah Tahirov:  Engineer 1 
 ENG2.      Bakhtiyar Jabbarli:  Engineer 2 
 ENG3.          Ruslan Safarov:  Engineer 3 
 ETIM.      13.41.20 14-Nov-20:  End Time 
 FLOI.gpm              1200.00:  Flow In 
 FLON.gpm              1100.00:  Flow In Min 
 FLOS.cptm                0.00:  Fluid Loss 
 FLOX.gpm              1200.00:  Flow In Max 
 HFLO.                      No:  High Flow 
 HPRE.                      No:  High Pressure 
 HTEM.                      No:  High Temp 
 HYDO.m                   2.00:  Hydro Offset 
 IFIN.deg                66.14:  Inc, Final 
 IMAX.deg                69.03:  Inc Max 
 IMIN.deg                64.64:  Inc Min 
 IMND.m                4450.16:  Inc Min Depth 
 IMXD.m                3996.00:  Inc Max Depth 
 JARR.                     Yes:  Jarring 
 LETM.      13.41.20 14-Nov-20:  Log End Time 
 LOST.hr                     0:  Lost Rig Time 
 LSTM.      13.41.20 06-Nov-20:  Log Start Time 
 MDCL.ppm             42500.00:  Mud Chlorides 
 MDES.     Inversion Oil/Synthetic:  Mud Desc 
 DFD .sg                  1.45:  Mud Density 
 MDMN.sg                  1.45:  Dens Mud Min 
 MDMX.sg                  1.45:  Dens Mud Max 
 MOIL.                      70:  Run Mud Oil % 
 MOWR.                   70:30:  Run Mud OWR 
 MSND.                       0:  Run Mud Sand % 
 MSOL.                    19.3:  Run Mud Solids% 
 DFV .spqt               77.00:  Mud Viscosity 
 MWOD.in                  8.00:  MWD Tool OD 
 MWSI.                      No:  Serv Intrp, MWD 
 OTIM.hr                201.88:  Time Operating 
 PCON.           Look Like New:  Pad Condition 
 PMAX.psia             9250.94:  Press Op, Max 
 PV  .cP                 29.00:  Mud PV 
 RUN .                     800:  Run Number 
 ROPA.m/hr               28.00:  ROP Avg 
 ROPN.m/hr               25.00:  ROP Min 
 ROPX.m/hr               30.00:  ROP Max 
 RPMA.rpm               160.00:  RPM Surface Avg 
 RPMN.rpm               160.00:  RPM Surface Min 
 RPMX.rpm               160.00:  RPM Surface Max 
 RRUN.                    0800:  Rig Run Number 
 RTIM.hr                 12.00:  Time Reaming 
 SAZI.deg               169.33:  Azm, Start 
 SDEP.m                3449.01:  Start Depth 
 SIDD.                      No:  Serv Intrp, DD 
 SINC.deg                68.01:  Inc, Start 
 SPPA.psig             4900.00:  SPP Avg 
 SPPN.psig             4800.00:  SPP Min 
 SPPX.psig             5050.00:  SPP Max 
 STIM.      13.41.20 06-Nov-20:  Start Time 
 SVCS.                 DD, MWD:  Services 
 SVER.                    9.20:  Sperry Version 
 TDAT.m                4762.01:  Tot Depth Attmp 
 TDDF.                      No:  Trip for DD 
 TDLG.m                1313.00:  Tot Depth Loggd 
 TFF .                      No:  Trip for Fail 
 TQAA.f-kp               13.00:  Torque Abs Avg 
 TQAN.f-kp               13.00:  Torque Abs Min 
 TQAX.f-kp               13.00:  Torque Abs Max 
 TRRT.°/30m               1.70:  Turn Rotating 
 MRT .                  EWR-M5:  Maximum Recorded Temperature 
 TTMX.degC               86.00:  Max Tool Temp 
 VS01.                90622122:  Virtual Str1 SN 
 VS02.                90577298:  Virtual Str2 SN 
 VS03.                90563623:  Virtual Str3 SN 
 VS04.                90617559:  Virtual Str4 SN 
 VS05.                11339492:  Virtual Str5 SN 
 VS06.                12385033:  Virtual Str6 SN 
 WBMN.klb                 0.00:  WOB Min 
 WOBA.klb                22.00:  WOB Avg 
 WOBX.klb                26.00:  WOB Max 
 YP  .lhf2               30.00:  Yield Point 
~Curve Information Block
#MNEM.UNIT                 API CODE     Curve Description
#---------               -----------    ---------------------------
 TIME.HHMMSS            00 000 000 000:  GT Time & Date
 GTDEPTH.m              00 000 000 000:  GT Depth
 GTPQH.psia             00 000 000 000:  GT HR Quartz Pressure
 GTTQ.degC              00 000 000 000:  GT Quartz Temperature
 GTTN.NONE              00 000 000 000:  GT Test Number
 GTET.sec               00 000 000 000:  GT Elapsed Test Time
 GTTVD.m                00 000 000 000:  GT True Vertical Depth
#Other Information
#
#WARRANTY: Halliburton will use its best efforts to furnish customers with 
#accurate information and interpretations that are part of, and incident to, the services 
#provided.  However, Halliburton cannot and does not warrant the accuracy 
#or correctness of such information and interpretations.  Under no circumstances should any 
#such information or interpretation be relied upon as the sole basis for any drilling, 
#completion, production, or financial decision or any procedure involving any risk to the 
#safety of any drilling venture, drilling rig or its crew or any other third party.  The 
#Customer has full responsibility for all drilling, completion and production operation.  
#Halliburton makes no representations or warranties, either expressed or 
#implied, including, but not limited to, the implied warranties of merchantability or fitness 
#for a particular purpose, with respect to the services rendered.  In no event will 
#Halliburton be liable for failure to obtain any particular results or for 
#any damages, including, but not limited to, indirect, special or consequential damages, 
#resulting from the use of any information or interpretation provided by Halliburton.
#
~A           TIME           GTDEPTH  GTPQH  GTTQ  GTTN  GTET   GTTVD  
# ...
   22:32:31.768.10-Nov-2020 4535.01 5068.79 83.07 6.00  46.01 2393.67
   22:32:31.968.10-Nov-2020 4535.01 5071.90 83.07 6.00  46.21 2393.67
   22:32:32.168.10-Nov-2020 4535.01 5063.79 83.06 6.00  46.41 2393.67
   22:32:32.368.10-Nov-2020 4535.01 5064.39 83.06 6.00  46.61 2393.67
   22:32:32.568.10-Nov-2020 4535.01 5067.36 83.06 6.00  46.81 2393.67
   22:32:32.768.10-Nov-2020 4535.01 5065.03 83.06 6.00  47.01 2393.67
   22:32:32.968.10-Nov-2020 4535.01 5065.03 83.06 6.00  47.21 2393.67
   22:32:33.168.10-Nov-2020 4535.01 5064.27 83.06 6.00  47.41 2393.67
   22:32:33.368.10-Nov-2020 4535.01 5064.43 83.06 6.00  47.61 2393.67
   22:32:33.568.10-Nov-2020 4535.01 5060.74 83.06 6.00  47.81 2393.67
   22:32:33.768.10-Nov-2020 4535.01 4988.67 83.06 6.00  48.01 2393.67
   22:32:33.968.10-Nov-2020 4535.01 4988.67 83.06 6.00  48.21 2393.67
   22:32:34.168.10-Nov-2020 4535.01 4602.06 83.05 6.00  48.41 2393.67
   22:32:34.368.10-Nov-2020 4535.01 4332.27 83.05 6.00  48.61 2393.67
   22:32:34.568.10-Nov-2020 4535.01 4047.96 83.05 6.00  48.81 2393.67
   22:32:34.768.10-Nov-2020 4535.01 3934.19 83.05 6.00  49.01 2393.67
   22:32:34.968.10-Nov-2020 4535.01 3934.19 83.05 6.00  49.21 2393.67
   22:32:35.168.10-Nov-2020 4535.01 3934.86 83.05 6.00  49.41 2393.67
   22:32:35.368.10-Nov-2020 4535.01 3936.23 83.05 6.00  49.61 2393.67
   22:32:35.568.10-Nov-2020 4535.01 3937.85 83.04 6.00  49.81 2393.67
   22:32:35.768.10-Nov-2020 4535.01 3939.34 83.04 6.00  50.01 2393.67
   22:32:35.968.10-Nov-2020 4535.01 3941.87 83.04 6.00  50.21 2393.67
   22:32:36.169.10-Nov-2020 4535.01 3942.08 83.04 6.00  50.41 2393.67
   22:32:36.369.10-Nov-2020 4535.01 3944.51 83.04 6.00  50.61 2393.67
   22:32:36.569.10-Nov-2020 4535.01 3945.55 83.04 6.00  50.81 2393.67
   22:32:36.769.10-Nov-2020 4535.01 3946.84 83.03 6.00  51.01 2393.67
   22:32:36.969.10-Nov-2020 4535.01 3948.04 83.03 6.00  51.21 2393.67
   22:32:37.169.10-Nov-2020 4535.01 3950.28 83.03 6.00  51.41 2393.67
   22:32:37.369.10-Nov-2020 4535.01 3951.29 83.03 6.00  51.61 2393.67
   22:32:37.569.10-Nov-2020 4535.01 3952.89 83.03 6.00  51.81 2393.67
   22:32:37.769.10-Nov-2020 4535.01 3952.31 83.03 6.00  52.01 2393.67
   22:32:37.969.10-Nov-2020 4535.01 3952.31 83.03 6.00  52.21 2393.67
   22:32:38.169.10-Nov-2020 4535.01 3955.92 83.02 6.00  52.41 2393.67
   22:32:38.369.10-Nov-2020 4535.01 3956.61 83.02 6.00  52.61 2393.67
   22:32:38.569.10-Nov-2020 4535.01 3957.39 83.02 6.00  52.81 2393.67
   22:32:38.769.10-Nov-2020 4535.01 3957.61 83.02 6.00  53.01 2393.67
   22:32:38.969.10-Nov-2020 4535.01 3957.61 83.02 6.00  53.21 2393.67
   22:32:39.169.10-Nov-2020 4535.01 3959.51 83.01 6.00  53.41 2393.67
   22:32:39.369.10-Nov-2020 4535.01 3960.70 83.01 6.00  53.61 2393.67
   22:32:39.569.10-Nov-2020 4535.01 3961.26 83.01 6.00  53.81 2393.67
   22:32:39.769.10-Nov-2020 4535.01 3961.42 83.01 6.00  54.01 2393.67
   22:32:39.969.10-Nov-2020 4535.01 3962.00 83.01 6.00  54.21 2393.67
   22:32:40.169.10-Nov-2020 4535.01 3963.06 83.01 6.00  54.41 2393.67
   22:32:40.369.10-Nov-2020 4535.01 3962.68 83.00 6.00  54.61 2393.67
   22:32:40.569.10-Nov-2020 4535.01 3963.40 83.00 6.00  54.81 2393.67
   22:32:40.769.10-Nov-2020 4535.01 3975.56 83.00 6.00  55.01 2393.67
   22:32:40.969.10-Nov-2020 4535.01 4052.81 83.00 6.00  55.21 2393.67
   22:32:41.169.10-Nov-2020 4535.01 4058.09 83.00 6.00  55.41 2393.67
   22:32:41.369.10-Nov-2020 4535.01 4058.99 83.00 6.00  55.61 2393.67
   22:32:41.569.10-Nov-2020 4535.01 4059.59 83.00 6.00  55.81 2393.67
   22:32:41.769.10-Nov-2020 4535.01 4059.40 82.99 6.00  56.01 2393.67
   22:32:41.969.10-Nov-2020 4535.01 4059.40 82.99 6.00  56.21 2393.67
   22:32:42.169.10-Nov-2020 4535.01 4059.87 82.99 6.00  56.41 2393.67
   22:32:42.369.10-Nov-2020 4535.01 4059.91 82.99 6.00  56.61 2393.67
   22:32:42.569.10-Nov-2020 4535.01 4060.16 82.99 6.00  56.81 2393.67
   22:32:42.769.10-Nov-2020 4535.01 4060.59 82.99 6.00  57.01 2393.67
   22:32:42.969.10-Nov-2020 4535.01 4060.59 82.99 6.00  57.21 2393.67
   22:32:43.169.10-Nov-2020 4535.01 4060.43 82.99 6.00  57.41 2393.67
   22:32:43.369.10-Nov-2020 4535.01 4060.37 82.98 6.00  57.61 2393.67
   22:32:43.570.10-Nov-2020 4535.01 4060.48 82.98 6.00  57.81 2393.67
   22:32:43.770.10-Nov-2020 4535.01 4060.56 82.98 6.00  58.01 2393.67
   22:32:43.970.10-Nov-2020 4535.01 4060.56 82.98 6.00  58.21 2393.67
   22:32:44.170.10-Nov-2020 4535.01 4060.62 82.98 6.00  58.41 2393.67
   22:32:44.370.10-Nov-2020 4535.01 4060.64 82.98 6.00  58.61 2393.67
   22:32:44.570.10-Nov-2020 4535.01 4060.65 82.98 6.00  58.81 2393.67
   22:32:44.770.10-Nov-2020 4535.01 4060.72 82.98 6.00  59.01 2393.67
   22:32:44.970.10-Nov-2020 4535.01 4060.72 82.97 6.00  59.21 2393.67
   22:32:45.170.10-Nov-2020 4535.01 4060.80 82.97 6.00  59.41 2393.67
   22:32:45.370.10-Nov-2020 4535.01 4060.83 82.97 6.00  59.61 2393.67
   22:32:45.570.10-Nov-2020 4535.01 4061.23 82.97 6.00  59.81 2393.67
   22:32:45.770.10-Nov-2020 4535.01 4060.50 82.97 6.00  60.01 2393.67
   22:32:45.970.10-Nov-2020 4535.01 4060.50 82.97 6.00  60.21 2393.67
   22:32:46.170.10-Nov-2020 4535.01 4060.78 82.97 6.00  60.41 2393.67
   22:32:46.370.10-Nov-2020 4535.01 4060.83 82.97 6.00  60.61 2393.67
   22:32:46.570.10-Nov-2020 4535.01 4060.73 82.96 6.00  60.81 2393.67
   22:32:46.770.10-Nov-2020 4535.01 4060.85 82.96 6.00  61.01 2393.67
   22:32:46.970.10-Nov-2020 4535.01 4060.85 82.96 6.00  61.21 2393.67
   22:32:47.170.10-Nov-2020 4535.01 4060.77 82.96 6.00  61.41 2393.67
   22:32:47.370.10-Nov-2020 4535.01 4060.83 82.96 6.00  61.61 2393.67
   22:32:47.570.10-Nov-2020 4535.01 4060.77 82.96 6.00  61.81 2393.67
   22:32:47.770.10-Nov-2020 4535.01 4060.87 82.96 6.00  62.01 2393.67
   22:32:47.970.10-Nov-2020 4535.01 4060.87 82.96 6.00  62.21 2393.67
   22:32:48.170.10-Nov-2020 4535.01 4061.06 82.96 6.00  62.41 2393.67
   22:32:48.370.10-Nov-2020 4535.01 4060.95 82.95 6.00  62.61 2393.67
   22:32:48.570.10-Nov-2020 4535.01 4060.84 82.95 6.00  62.81 2393.67
   22:32:48.770.10-Nov-2020 4535.01 4061.03 82.95 6.00  63.01 2393.67
   22:32:48.970.10-Nov-2020 4535.01 4060.85 82.95 6.00  63.21 2393.67
   22:32:49.170.10-Nov-2020 4535.01 4060.90 82.95 6.00  63.41 2393.67
   22:32:49.370.10-Nov-2020 4535.01 4061.30 82.95 6.00  63.61 2393.67
   22:32:49.570.10-Nov-2020 4535.01 4060.51 82.95 6.00  63.81 2393.67
   22:32:49.770.10-Nov-2020 4535.01 4060.77 82.95 6.00  64.01 2393.67
   22:32:49.970.10-Nov-2020 4535.01 4060.79 82.95 6.00  64.21 2393.67
   22:32:50.170.10-Nov-2020 4535.01 4060.90 82.94 6.00  64.41 2393.67
   22:32:50.370.10-Nov-2020 4535.01 4061.11 82.94 6.00  64.61 2393.67
   22:32:50.570.10-Nov-2020 4535.01 4060.61 82.94 6.00  64.81 2393.67
   22:32:50.770.10-Nov-2020 4535.01 4060.84 82.94 6.00  65.01 2393.67
   22:32:50.971.10-Nov-2020 4535.01 4060.84 82.94 6.00  65.21 2393.67
   22:32:51.171.10-Nov-2020 4535.01 4061.44 82.94 6.00  65.41 2393.67
   22:32:51.371.10-Nov-2020 4535.01 4060.50 82.94 6.00  65.61 2393.67
   22:32:51.571.10-Nov-2020 4535.01 4060.80 82.94 6.00  65.81 2393.67
   22:32:51.771.10-Nov-2020 4535.01 4060.92 82.93 6.00  66.01 2393.67
   22:32:51.971.10-Nov-2020 4535.01 4061.01 82.93 6.00  66.21 2393.67
   22:32:52.171.10-Nov-2020 4535.01 4060.86 82.93 6.00  66.41 2393.67
   22:32:52.371.10-Nov-2020 4535.01 4060.93 82.93 6.00  66.61 2393.67
   22:32:52.571.10-Nov-2020 4535.01 4060.83 82.93 6.00  66.81 2393.67
   22:32:52.771.10-Nov-2020 4535.01 4060.95 82.93 6.00  67.01 2393.67
   22:32:52.971.10-Nov-2020 4535.01 4060.95 82.93 6.00  67.21 2393.67
   22:32:53.171.10-Nov-2020 4535.01 4060.93 82.93 6.00  67.41 2393.67
   22:32:53.371.10-Nov-2020 4535.01 4060.94 82.93 6.00  67.61 2393.67
   22:32:53.571.10-Nov-2020 4535.01 4060.99 82.92 6.00  67.81 2393.67
   22:32:53.771.10-Nov-2020 4535.01 4061.01 82.92 6.00  68.01 2393.67
   22:32:53.971.10-Nov-2020 4535.01 4061.01 82.92 6.00  68.21 2393.67
   22:32:54.171.10-Nov-2020 4535.01 4061.27 82.92 6.00  68.41 2393.67
   22:32:54.371.10-Nov-2020 4535.01 4060.91 82.92 6.00  68.61 2393.67
   22:32:54.571.10-Nov-2020 4535.01 4060.89 82.92 6.00  68.81 2393.67
