~Version Information
 VERS.                  2.0:   CWLS log ASCII Standard -VERSION 2.0
 WRAP.                   NO:   One line per depth step
~Well Information Block
#MNEM.UNIT     VALUE/NAME     DESCRIPTION
#---------     -----------    ---------------------------
 STRT.S             18:53:27 10-Nov-20: START TIME 18:53:27 10-Nov-20
 STOP.S             19:00:00 10-Nov-20: STOP TIME  19:00:00 10-Nov-20
 STEP.S                   0.00: STEP TIME
 NULL.                 -999.25: NULL VALUE
 DFWT.                        :  DIST FWL TEXT
 DFST.                        :  DIST FSL TEXT
 DMF .             Drill Floor:  DRILL MEAS FROM
 STIM.      04.54.24 22-Sep-20:  START TIME
 DATE.      04.54.24 21-Nov-20:  END TIME
 SPUD.               21-Nov-20:  SPUD DATE
 NREF.                    Grid:  NORTH REFERENCE
 HPTY.       Minimum Curvature:  HOLE POS TYPE
 DMOD.             Drill Model:  DRILL MOD DESC
 SVYD.                  Survey:  SURVEY DESC
 ILTD.               Lithology:  INTERP LTH DESC
 FTOP.          Formation Tops:  FORM TOPS DESC
 SON .        AZ-XX-0906571587:  JOB NUMBER
 COMP.     BP Exploration (Caspian Sea) Ltd:  COMPANY
 UWI .                     N/A:  UNIQUE WELL IDENTIFIER
 API .                     N/A:  API NUMBER
 BASE.              Azerbaijan:  LOGGING EQUIPMENT BASE LOCATION
 REGN.                   EESSA:  REGION
 PROV.                    Baku:  PROVINCE
 STAT.                    Baku:  STATE NAME
 CTRY.              Azerbaijan:  COUNTRY NAME
 FLD .                     ACG:  FIELD NAME
 SRVC.     TURAN Drilling & Engineering:  CONTRACTOR
 WELL.                     J27:  WELL NAME
 RIG .             West Chirag:  RIG NAME
 DOE .                     N/A:  DOE NUMBER
 DCON.         Sperry Drilling:  DIRECTNL CONTR
 PDAT.          Mean Sea Level:  PERMANENT DATUM
 WTYP.                Deviated:  WELL TYPE
 MWDS.                    Baku:  MWD SHOP
 JOBN.        AZ-XX-0906571587:  JOB TICKET NUMB
 UNIT.                     N/A:  LOGGING EQUIPMENT ID
 MDS .        Operator Entered:  MAG DATA SOURCE
 CNTY.                        :  COUNTY
 LOC .                        :  LOCATION
 LMF .             Drill Floor:  LOG MEASURED FROM
 TVDS.m                  43.00:  TVDSS CORRECTN
 LATI.deg                40.13:  LATITUDE
 LONG.deg                51.22:  LONGITUDE
 WHNS.m                   7.72:  WELL HEAD N/S
 WHEW.m                 -14.24:  WELL HEAD E/W
 UTMX.m              519005.06:  UTM X
 UTMY.m             4443793.85:  UTM Y
 DFWL.m                   0.00:  DISTANCE FWL
 DFSL.m                   0.00:  DISTANCE FSL
 SDEP.m                 347.00:  START DEPTH
 TDD .m                 581.00:  TOTAL DEPTH (DRILLER)
 VSDR.deg               159.72:  VERT SEC DIRECT
 GVFD.g                   1.00:  GRAVITY FIELD
 MFLD.nT              50313.00:  MAGNETIC FIELD
 MDIP.deg                59.58:  MAGNETIC DIP
 MDEC.deg                 6.45:  MAGNETIC DECL
 GRDC.deg                 0.15:  GRID CORRECTION
 AZTC.deg                 6.30:  AZM TOTAL CORR
 EPD .m                   0.00:  ELEVATION
 EGL .m                   0.00:  GROUND ELEVATION
 WDMS.m                 169.80:  WD ELEV
 APD .m                  43.00:  DEPTH ABOVE PD
 AGAP.m                  43.00:  AIR GAP
 VSEW.m                 -14.24:  VERT SEC E/W
 VSNS.m                   7.72:  VERT SEC N/S
 DEP .m                 342.45:  DEPTH
 EKB .m                   0.00:  KB ELEVATION
 EDF .m                  43.00:  DF ELEVATION
 TDL .m                1313.00:  TOTAL DEPTH (LOGGER)
 VSC .                       0:  VS TO CLOSURE
 MAGU.                 1851396:  MAGUTM CHECKSUM
~Parameter Information Block
#MNEM.UNIT       Value        Description
#---------     -----------    ---------------------------
 AV  .mps                 0.65:  Ann Velocity 
 AVMX.mps                 0.75:  Max Ann Veloc 
 AZIF.deg               115.08:  Azm, Final 
 BHAT.        Rotary Steerable:  BHA Type 
 BROT.°/30m               1.50:  Build Rotating 
 BS  .in                 12.25:  Bit Size 
 BSZ .in                 12.25:  Bit Size 
 BTPL.psig              700.00:  Bit Press Loss 
 CABU.                     Yes:  Customer Abuse 
 COMM.                     ”Ú:  Run Comments 1 
 TCS .hr                121.00:  Time Ciculation Ended 
 CV  .mps                 1.83:  Crit Velocity 
 CVMX.mps                 1.83:  Max Crit Veloc 
 DD1 .          Rashad Habibov:  Direct Drillr 1 
 DD2 .         Rasim Ibrahimov:  Direct Drillr 2 
 DDSV.                 iCruise:  DD Service 
 DEFF.%                 100.00:  % Det Eff 
 DLRX.°/30m               3.60:  Dogleg Rot Max 
 DLSO.°/30m               3.10:  Dogleg Oriented 
 DLSX.°/30m               3.60:  Dogleg Str Max 
 DRET.      13.41.20 12-Nov-20:  Drill End Time 
 DRST.      13.41.20 07-Nov-20:  Drill Start Tim 
 DTIM.hr                 54.16:  Time Drilling 
 EDEP.m                4762.01:  End Depth 
 ENG1.           Amrah Tahirov:  Engineer 1 
 ENG2.      Bakhtiyar Jabbarli:  Engineer 2 
 ENG3.          Ruslan Safarov:  Engineer 3 
 ETIM.      13.41.20 14-Nov-20:  End Time 
 FLOI.gpm              1200.00:  Flow In 
 FLON.gpm              1100.00:  Flow In Min 
 FLOS.cptm                0.00:  Fluid Loss 
 FLOX.gpm              1200.00:  Flow In Max 
 HFLO.                      No:  High Flow 
 HPRE.                      No:  High Pressure 
 HTEM.                      No:  High Temp 
 HYDO.m                   2.00:  Hydro Offset 
 IFIN.deg                66.14:  Inc, Final 
 IMAX.deg                69.03:  Inc Max 
 IMIN.deg                64.64:  Inc Min 
 IMND.m                4450.16:  Inc Min Depth 
 IMXD.m                3996.00:  Inc Max Depth 
 JARR.                     Yes:  Jarring 
 LETM.      13.41.20 14-Nov-20:  Log End Time 
 LOST.hr                     0:  Lost Rig Time 
 LSTM.      13.41.20 06-Nov-20:  Log Start Time 
 MDCL.ppm             42500.00:  Mud Chlorides 
 MDES.     Inversion Oil/Synthetic:  Mud Desc 
 DFD .sg                  1.45:  Mud Density 
 MDMN.sg                  1.45:  Dens Mud Min 
 MDMX.sg                  1.45:  Dens Mud Max 
 MOIL.                      70:  Run Mud Oil % 
 MOWR.                   70:30:  Run Mud OWR 
 MSND.                       0:  Run Mud Sand % 
 MSOL.                    19.3:  Run Mud Solids% 
 DFV .spqt               77.00:  Mud Viscosity 
 MWOD.in                  8.00:  MWD Tool OD 
 MWSI.                      No:  Serv Intrp, MWD 
 OTIM.hr                201.88:  Time Operating 
 PCON.           Look Like New:  Pad Condition 
 PMAX.psia             9250.94:  Press Op, Max 
 PV  .cP                 29.00:  Mud PV 
 RUN .                     800:  Run Number 
 ROPA.m/hr               28.00:  ROP Avg 
 ROPN.m/hr               25.00:  ROP Min 
 ROPX.m/hr               30.00:  ROP Max 
 RPMA.rpm               160.00:  RPM Surface Avg 
 RPMN.rpm               160.00:  RPM Surface Min 
 RPMX.rpm               160.00:  RPM Surface Max 
 RRUN.                    0800:  Rig Run Number 
 RTIM.hr                 12.00:  Time Reaming 
 SAZI.deg               169.33:  Azm, Start 
 SDEP.m                3449.01:  Start Depth 
 SIDD.                      No:  Serv Intrp, DD 
 SINC.deg                68.01:  Inc, Start 
 SPPA.psig             4900.00:  SPP Avg 
 SPPN.psig             4800.00:  SPP Min 
 SPPX.psig             5050.00:  SPP Max 
 STIM.      13.41.20 06-Nov-20:  Start Time 
 SVCS.                 DD, MWD:  Services 
 SVER.                    9.20:  Sperry Version 
 TDAT.m                4762.01:  Tot Depth Attmp 
 TDDF.                      No:  Trip for DD 
 TDLG.m                1313.00:  Tot Depth Loggd 
 TFF .                      No:  Trip for Fail 
 TQAA.f-kp               13.00:  Torque Abs Avg 
 TQAN.f-kp               13.00:  Torque Abs Min 
 TQAX.f-kp               13.00:  Torque Abs Max 
 TRRT.°/30m               1.70:  Turn Rotating 
 MRT .                  EWR-M5:  Maximum Recorded Temperature 
 TTMX.degC               86.00:  Max Tool Temp 
 VS01.                90622122:  Virtual Str1 SN 
 VS02.                90577298:  Virtual Str2 SN 
 VS03.                90563623:  Virtual Str3 SN 
 VS04.                90617559:  Virtual Str4 SN 
 VS05.                11339492:  Virtual Str5 SN 
 VS06.                12385033:  Virtual Str6 SN 
 WBMN.klb                 0.00:  WOB Min 
 WOBA.klb                22.00:  WOB Avg 
 WOBX.klb                26.00:  WOB Max 
 YP  .lhf2               30.00:  Yield Point 
~Curve Information Block
#MNEM.UNIT                 API CODE     Curve Description
#---------               -----------    ---------------------------
 TIME.HHMMSS            00 000 000 000:  GT Time & Date
 GTDEPTH.m              00 000 000 000:  GT Depth
 GTPQH.psia             00 000 000 000:  GT HR Quartz Pressure
 GTTQ.degC              00 000 000 000:  GT Quartz Temperature
 GTTN.NONE              00 000 000 000:  GT Test Number
 GTET.sec               00 000 000 000:  GT Elapsed Test Time
 GTTVD.m                00 000 000 000:  GT True Vertical Depth
#Other Information
#
#WARRANTY: Halliburton will use its best efforts to furnish customers with 
#accurate information and interpretations that are part of, and incident to, the services 
#provided.  However, Halliburton cannot and does not warrant the accuracy 
#or correctness of such information and interpretations.  Under no circumstances should any 
#such information or interpretation be relied upon as the sole basis for any drilling, 
#completion, production, or financial decision or any procedure involving any risk to the 
#safety of any drilling venture, drilling rig or its crew or any other third party.  The 
#Customer has full responsibility for all drilling, completion and production operation.  
#Halliburton makes no representations or warranties, either expressed or 
#implied, including, but not limited to, the implied warranties of merchantability or fitness 
#for a particular purpose, with respect to the services rendered.  In no event will 
#Halliburton be liable for failure to obtain any particular results or for 
#any damages, including, but not limited to, indirect, special or consequential damages, 
#resulting from the use of any information or interpretation provided by Halliburton.
#
~A           TIME           GTDEPTH  GTPQH  GTTQ  GTTN  GTET   GTTVD  
   18:53:27.496.10-Nov-2020 4475.51 4996.41 80.79 5.00   0.00 2369.25
   18:53:27.696.10-Nov-2020 4475.51 4996.41 80.79 5.00   0.20 2369.25
   18:53:27.896.10-Nov-2020 4475.51 4997.69 80.79 5.00   0.40 2369.25
   18:53:28.096.10-Nov-2020 4475.51 5000.76 80.79 5.00   0.60 2369.25
   18:53:28.296.10-Nov-2020 4475.51 5003.52 80.79 5.00   0.80 2369.25
   18:53:28.496.10-Nov-2020 4475.51 5005.83 80.79 5.00   1.00 2369.25
   18:53:28.696.10-Nov-2020 4475.51 5005.83 80.79 5.00   1.20 2369.25
   18:53:28.896.10-Nov-2020 4475.51 5005.83 80.79 5.00   1.40 2369.25
   18:53:29.096.10-Nov-2020 4475.51 5016.09 80.78 5.00   1.60 2369.25
   18:53:29.296.10-Nov-2020 4475.51 5012.83 80.78 5.00   1.80 2369.25
   18:53:29.496.10-Nov-2020 4475.51 5011.21 80.78 5.00   2.00 2369.25
   18:53:29.696.10-Nov-2020 4475.51 5013.58 80.78 5.00   2.20 2369.25
   18:53:29.896.10-Nov-2020 4475.51 5012.34 80.78 5.00   2.40 2369.25
   18:53:30.096.10-Nov-2020 4475.51 5008.64 80.78 5.00   2.60 2369.25
   18:53:30.296.10-Nov-2020 4475.51 5013.91 80.78 5.00   2.80 2369.25
   18:53:30.496.10-Nov-2020 4475.51 5010.89 80.78 5.00   3.00 2369.25
   18:53:30.697.10-Nov-2020 4475.51 5010.89 80.78 5.00   3.20 2369.25
   18:53:30.897.10-Nov-2020 4475.51 5010.00 80.78 5.00   3.40 2369.25
   18:53:31.097.10-Nov-2020 4475.51 5013.29 80.78 5.00   3.60 2369.25
   18:53:31.297.10-Nov-2020 4475.51 5013.02 80.78 5.00   3.80 2369.25
   18:53:31.497.10-Nov-2020 4475.51 5010.77 80.78 5.00   4.00 2369.25
   18:53:31.697.10-Nov-2020 4475.51 5010.77 80.78 5.00   4.20 2369.25
   18:53:31.897.10-Nov-2020 4475.51 5010.81 80.77 5.00   4.40 2369.25
   18:53:32.097.10-Nov-2020 4475.51 5010.09 80.77 5.00   4.60 2369.25
   18:53:32.297.10-Nov-2020 4475.51 5010.46 80.77 5.00   4.80 2369.25
   18:53:32.497.10-Nov-2020 4475.51 5011.45 80.77 5.00   5.00 2369.25
   18:53:32.697.10-Nov-2020 4475.51 5011.45 80.77 5.00   5.20 2369.25
   18:53:32.897.10-Nov-2020 4475.51 5010.38 80.77 5.00   5.40 2369.25
   18:53:33.097.10-Nov-2020 4475.51 5009.42 80.77 5.00   5.60 2369.25
   18:53:33.297.10-Nov-2020 4475.51 5009.27 80.77 5.00   5.80 2369.25
   18:53:33.497.10-Nov-2020 4475.51 5011.57 80.77 5.00   6.00 2369.25
   18:53:33.697.10-Nov-2020 4475.51 5011.57 80.77 5.00   6.20 2369.25
   18:53:33.897.10-Nov-2020 4475.51 5011.75 80.77 5.00   6.40 2369.25
   18:53:34.097.10-Nov-2020 4475.51 5012.99 80.77 5.00   6.60 2369.25
   18:53:34.298.10-Nov-2020 4475.51 5012.99 80.77 5.00   6.80 2369.25
   18:53:34.498.10-Nov-2020 4475.51 5012.47 80.77 5.00   7.00 2369.25
   18:53:34.698.10-Nov-2020 4475.51 5012.38 80.77 5.00   7.20 2369.25
   18:53:34.898.10-Nov-2020 4475.51 5014.11 80.77 5.00   7.40 2369.25
   18:53:35.098.10-Nov-2020 4475.51 5015.26 80.77 5.00   7.60 2369.25
   18:53:35.298.10-Nov-2020 4475.51 5015.05 80.76 5.00   7.80 2369.25
   18:53:35.498.10-Nov-2020 4475.51 5018.00 80.76 5.00   8.00 2369.25
   18:53:35.698.10-Nov-2020 4475.51 5018.00 80.76 5.00   8.20 2369.25
   18:53:35.898.10-Nov-2020 4475.51 5014.27 80.76 5.00   8.40 2369.25
   18:53:36.098.10-Nov-2020 4475.51 5014.45 80.76 5.00   8.60 2369.25
   18:53:36.298.10-Nov-2020 4475.51 5015.70 80.76 5.00   8.80 2369.25
   18:53:36.498.10-Nov-2020 4475.51 5014.58 80.76 5.00   9.00 2369.25
   18:53:36.698.10-Nov-2020 4475.51 5014.58 80.76 5.00   9.20 2369.25
   18:53:36.898.10-Nov-2020 4475.51 5013.82 80.76 5.00   9.40 2369.25
   18:53:37.098.10-Nov-2020 4475.51 5012.46 80.76 5.00   9.60 2369.25
   18:53:37.298.10-Nov-2020 4475.51 5011.38 80.76 5.00   9.80 2369.25
   18:53:37.498.10-Nov-2020 4475.51 5009.84 80.76 5.00  10.00 2369.25
   18:53:37.698.10-Nov-2020 4475.51 5008.85 80.76 5.00  10.20 2369.25
   18:53:37.899.10-Nov-2020 4475.51 5012.65 80.76 5.00  10.40 2369.25
   18:53:38.099.10-Nov-2020 4475.51 5008.50 80.76 5.00  10.60 2369.25
   18:53:38.299.10-Nov-2020 4475.51 5005.83 80.76 5.00  10.80 2369.25
   18:53:38.499.10-Nov-2020 4475.51 5004.84 80.76 5.00  11.00 2369.25
   18:53:38.699.10-Nov-2020 4475.51 5004.84 80.76 5.00  11.20 2369.25
   18:53:38.899.10-Nov-2020 4475.51 5010.17 80.75 5.00  11.40 2369.25
   18:53:39.099.10-Nov-2020 4475.51 5005.25 80.75 5.00  11.60 2369.25
   18:53:39.299.10-Nov-2020 4475.51 5005.29 80.75 5.00  11.80 2369.25
   18:53:39.499.10-Nov-2020 4475.51 5004.96 80.75 5.00  12.00 2369.25
   18:53:39.699.10-Nov-2020 4475.51 5004.96 80.75 5.00  12.20 2369.25
   18:53:39.899.10-Nov-2020 4475.51 5005.31 80.75 5.00  12.40 2369.25
   18:53:40.099.10-Nov-2020 4475.51 5004.63 80.75 5.00  12.60 2369.25
   18:53:40.299.10-Nov-2020 4475.51 5006.01 80.75 5.00  12.80 2369.25
   18:53:40.499.10-Nov-2020 4475.51 5010.41 80.75 5.00  13.00 2369.25
   18:53:40.699.10-Nov-2020 4475.51 5010.41 80.75 5.00  13.20 2369.25
   18:53:40.899.10-Nov-2020 4475.51 5003.74 80.75 5.00  13.40 2369.25
   18:53:41.099.10-Nov-2020 4475.51 5008.48 80.75 5.00  13.60 2369.25
   18:53:41.299.10-Nov-2020 4475.51 5005.73 80.75 5.00  13.80 2369.25
   18:53:41.500.10-Nov-2020 4475.51 5004.46 80.75 5.00  14.00 2369.25
   18:53:41.700.10-Nov-2020 4475.51 5003.93 80.75 5.00  14.20 2369.25
   18:53:41.900.10-Nov-2020 4475.51 5004.54 80.75 5.00  14.40 2369.25
   18:53:42.100.10-Nov-2020 4475.51 5007.10 80.75 5.00  14.60 2369.25
   18:53:42.300.10-Nov-2020 4475.51 5007.54 80.74 5.00  14.80 2369.25
   18:53:42.500.10-Nov-2020 4475.51 5004.44 80.74 5.00  15.00 2369.25
   18:53:42.700.10-Nov-2020 4475.51 5004.44 80.74 5.00  15.20 2369.25
   18:53:42.900.10-Nov-2020 4475.51 5005.92 80.74 5.00  15.40 2369.25
   18:53:43.100.10-Nov-2020 4475.51 5006.39 80.74 5.00  15.60 2369.25
   18:53:43.300.10-Nov-2020 4475.51 5005.10 80.74 5.00  15.80 2369.25
   18:53:43.500.10-Nov-2020 4475.51 5005.97 80.74 5.00  16.00 2369.25
   18:53:43.700.10-Nov-2020 4475.51 5005.97 80.74 5.00  16.20 2369.25
   18:53:43.900.10-Nov-2020 4475.51 5004.73 80.74 5.00  16.40 2369.25
   18:53:44.100.10-Nov-2020 4475.51 5004.23 80.74 5.00  16.60 2369.25
   18:53:44.300.10-Nov-2020 4475.51 5003.69 80.74 5.00  16.80 2369.25
   18:53:44.500.10-Nov-2020 4475.51 5004.37 80.74 5.00  17.00 2369.25
   18:53:44.700.10-Nov-2020 4475.51 5004.37 80.74 5.00  17.20 2369.25
   18:53:44.900.10-Nov-2020 4475.51 5003.81 80.74 5.00  17.40 2369.25
   18:53:45.101.10-Nov-2020 4475.51 5004.01 80.74 5.00  17.60 2369.25
   18:53:45.301.10-Nov-2020 4475.51 5000.91 80.74 5.00  17.80 2369.25
   18:53:45.501.10-Nov-2020 4475.51 5001.45 80.74 5.00  18.00 2369.25
   18:53:45.701.10-Nov-2020 4475.51 5001.45 80.74 5.00  18.21 2369.25
   18:53:45.901.10-Nov-2020 4475.51 5002.19 80.73 5.00  18.41 2369.25
   18:53:46.101.10-Nov-2020 4475.51 5001.28 80.73 5.00  18.61 2369.25
   18:53:46.301.10-Nov-2020 4475.51 5001.59 80.73 5.00  18.81 2369.25
   18:53:46.501.10-Nov-2020 4475.51 5001.81 80.73 5.00  19.01 2369.25
   18:53:46.701.10-Nov-2020 4475.51 5001.81 80.73 5.00  19.21 2369.25
   18:53:46.901.10-Nov-2020 4475.51 5002.49 80.73 5.00  19.41 2369.25
   18:53:47.101.10-Nov-2020 4475.51 5002.50 80.73 5.00  19.61 2369.25
   18:53:47.301.10-Nov-2020 4475.51 5003.36 80.73 5.00  19.81 2369.25
   18:53:47.501.10-Nov-2020 4475.51 5003.43 80.73 5.00  20.01 2369.25
   18:53:47.701.10-Nov-2020 4475.51 5003.43 80.73 5.00  20.21 2369.25
   18:53:47.901.10-Nov-2020 4475.51 5003.27 80.73 5.00  20.41 2369.25
   18:53:48.101.10-Nov-2020 4475.51 5006.08 80.73 5.00  20.61 2369.25
   18:53:48.301.10-Nov-2020 4475.51 5006.76 80.73 5.00  20.81 2369.25
   18:53:48.501.10-Nov-2020 4475.51 5004.64 80.73 5.00  21.01 2369.25
   18:53:48.702.10-Nov-2020 4475.51 5004.64 80.73 5.00  21.21 2369.25
   18:53:48.902.10-Nov-2020 4475.51 5004.81 80.73 5.00  21.41 2369.25
   18:53:49.102.10-Nov-2020 4475.51 5010.36 80.73 5.00  21.61 2369.25
   18:53:49.302.10-Nov-2020 4475.51 5003.91 80.72 5.00  21.81 2369.25
   18:53:49.502.10-Nov-2020 4475.51 5004.85 80.72 5.00  22.01 2369.25
   18:53:49.702.10-Nov-2020 4475.51 5006.24 80.72 5.00  22.21 2369.25
   18:53:49.902.10-Nov-2020 4475.51 5009.64 80.72 5.00  22.41 2369.25
   18:53:50.102.10-Nov-2020 4475.51 5005.14 80.72 5.00  22.61 2369.25
   18:53:50.302.10-Nov-2020 4475.51 5004.59 80.72 5.00  22.81 2369.25
