~Version Information
 VERS.                  2.0:   CWLS log ASCII Standard -VERSION 2.0
 WRAP.                   NO:   One line per depth step
~Well Information Block
#MNEM.UNIT     VALUE/NAME     DESCRIPTION
#---------     -----------    ---------------------------
 STRT.S             09:21:26 08-Nov-20: START TIME 09:21:26 08-Nov-20
 STOP.S             09:27:58 08-Nov-20: STOP TIME  09:27:58 08-Nov-20
 STEP.S                   0.00: STEP TIME
 NULL.                 -999.25: NULL VALUE
 DFWT.                        :  DIST FWL TEXT
 DFST.                        :  DIST FSL TEXT
 DMF .             Drill Floor:  DRILL MEAS FROM
 STIM.      04.54.24 22-Sep-20:  START TIME
 DATE.      04.54.24 21-Nov-20:  END TIME
 SPUD.               21-Nov-20:  SPUD DATE
 NREF.                    Grid:  NORTH REFERENCE
 HPTY.       Minimum Curvature:  HOLE POS TYPE
 DMOD.             Drill Model:  DRILL MOD DESC
 SVYD.                  Survey:  SURVEY DESC
 ILTD.               Lithology:  INTERP LTH DESC
 FTOP.          Formation Tops:  FORM TOPS DESC
 SON .        AZ-XX-0906571587:  JOB NUMBER
 COMP.     BP Exploration (Caspian Sea) Ltd:  COMPANY
 UWI .                     N/A:  UNIQUE WELL IDENTIFIER
 API .                     N/A:  API NUMBER
 BASE.              Azerbaijan:  LOGGING EQUIPMENT BASE LOCATION
 REGN.                   EESSA:  REGION
 PROV.                    Baku:  PROVINCE
 STAT.                    Baku:  STATE NAME
 CTRY.              Azerbaijan:  COUNTRY NAME
 FLD .                     ACG:  FIELD NAME
 SRVC.     TURAN Drilling & Engineering:  CONTRACTOR
 WELL.                     J27:  WELL NAME
 RIG .             West Chirag:  RIG NAME
 DOE .                     N/A:  DOE NUMBER
 DCON.         Sperry Drilling:  DIRECTNL CONTR
 PDAT.          Mean Sea Level:  PERMANENT DATUM
 WTYP.                Deviated:  WELL TYPE
 MWDS.                    Baku:  MWD SHOP
 JOBN.        AZ-XX-0906571587:  JOB TICKET NUMB
 UNIT.                     N/A:  LOGGING EQUIPMENT ID
 MDS .        Operator Entered:  MAG DATA SOURCE
 CNTY.                        :  COUNTY
 LOC .                        :  LOCATION
 LMF .             Drill Floor:  LOG MEASURED FROM
 TVDS.m                  43.00:  TVDSS CORRECTN
 LATI.deg                40.13:  LATITUDE
 LONG.deg                51.22:  LONGITUDE
 WHNS.m                   7.72:  WELL HEAD N/S
 WHEW.m                 -14.24:  WELL HEAD E/W
 UTMX.m              519005.06:  UTM X
 UTMY.m             4443793.85:  UTM Y
 DFWL.m                   0.00:  DISTANCE FWL
 DFSL.m                   0.00:  DISTANCE FSL
 SDEP.m                 347.00:  START DEPTH
 TDD .m                 581.00:  TOTAL DEPTH (DRILLER)
 VSDR.deg               159.72:  VERT SEC DIRECT
 GVFD.g                   1.00:  GRAVITY FIELD
 MFLD.nT              50313.00:  MAGNETIC FIELD
 MDIP.deg                59.58:  MAGNETIC DIP
 MDEC.deg                 6.45:  MAGNETIC DECL
 GRDC.deg                 0.15:  GRID CORRECTION
 AZTC.deg                 6.30:  AZM TOTAL CORR
 EPD .m                   0.00:  ELEVATION
 EGL .m                   0.00:  GROUND ELEVATION
 WDMS.m                 169.80:  WD ELEV
 APD .m                  43.00:  DEPTH ABOVE PD
 AGAP.m                  43.00:  AIR GAP
 VSEW.m                 -14.24:  VERT SEC E/W
 VSNS.m                   7.72:  VERT SEC N/S
 DEP .m                 342.45:  DEPTH
 EKB .m                   0.00:  KB ELEVATION
 EDF .m                  43.00:  DF ELEVATION
 TDL .m                1313.00:  TOTAL DEPTH (LOGGER)
 VSC .                       0:  VS TO CLOSURE
 MAGU.                 1851396:  MAGUTM CHECKSUM
~Parameter Information Block
#MNEM.UNIT       Value        Description
#---------     -----------    ---------------------------
 AV  .mps                 0.65:  Ann Velocity 
 AVMX.mps                 0.75:  Max Ann Veloc 
 AZIF.deg               115.08:  Azm, Final 
 BHAT.        Rotary Steerable:  BHA Type 
 BROT.°/30m               1.50:  Build Rotating 
 BS  .in                 12.25:  Bit Size 
 BSZ .in                 12.25:  Bit Size 
 BTPL.psig              700.00:  Bit Press Loss 
 CABU.                     Yes:  Customer Abuse 
 COMM.                     <
V:  Run Comments 1 
 TCS .hr                121.00:  Time Ciculation Ended 
 CV  .mps                 1.83:  Crit Velocity 
 CVMX.mps                 1.83:  Max Crit Veloc 
 DD1 .          Rashad Habibov:  Direct Drillr 1 
 DD2 .         Rasim Ibrahimov:  Direct Drillr 2 
 DDSV.                 iCruise:  DD Service 
 DEFF.%                 100.00:  % Det Eff 
 DLRX.°/30m               3.60:  Dogleg Rot Max 
 DLSO.°/30m               3.10:  Dogleg Oriented 
 DLSX.°/30m               3.60:  Dogleg Str Max 
 DRET.      13.41.20 12-Nov-20:  Drill End Time 
 DRST.      13.41.20 07-Nov-20:  Drill Start Tim 
 DTIM.hr                 54.16:  Time Drilling 
 EDEP.m                4762.01:  End Depth 
 ENG1.           Amrah Tahirov:  Engineer 1 
 ENG2.      Bakhtiyar Jabbarli:  Engineer 2 
 ENG3.          Ruslan Safarov:  Engineer 3 
 ETIM.      13.41.20 14-Nov-20:  End Time 
 FLOI.gpm              1200.00:  Flow In 
 FLON.gpm              1100.00:  Flow In Min 
 FLOS.cptm                0.00:  Fluid Loss 
 FLOX.gpm              1200.00:  Flow In Max 
 HFLO.                      No:  High Flow 
 HPRE.                      No:  High Pressure 
 HTEM.                      No:  High Temp 
 HYDO.m                   2.00:  Hydro Offset 
 IFIN.deg                66.14:  Inc, Final 
 IMAX.deg                69.03:  Inc Max 
 IMIN.deg                64.64:  Inc Min 
 IMND.m                4450.16:  Inc Min Depth 
 IMXD.m                3996.00:  Inc Max Depth 
 JARR.                     Yes:  Jarring 
 LETM.      13.41.20 14-Nov-20:  Log End Time 
 LOST.hr                     0:  Lost Rig Time 
 LSTM.      13.41.20 06-Nov-20:  Log Start Time 
 MDCL.ppm             42500.00:  Mud Chlorides 
 MDES.     Inversion Oil/Synthetic:  Mud Desc 
 DFD .sg                  1.45:  Mud Density 
 MDMN.sg                  1.45:  Dens Mud Min 
 MDMX.sg                  1.45:  Dens Mud Max 
 MOIL.                      70:  Run Mud Oil % 
 MOWR.                   70:30:  Run Mud OWR 
 MSND.                       0:  Run Mud Sand % 
 MSOL.                    19.3:  Run Mud Solids% 
 DFV .spqt               77.00:  Mud Viscosity 
 MWOD.in                  8.00:  MWD Tool OD 
 MWSI.                      No:  Serv Intrp, MWD 
 OTIM.hr                201.88:  Time Operating 
 PCON.           Look Like New:  Pad Condition 
 PMAX.psia             9250.94:  Press Op, Max 
 PV  .cP                 29.00:  Mud PV 
 RUN .                     800:  Run Number 
 ROPA.m/hr               28.00:  ROP Avg 
 ROPN.m/hr               25.00:  ROP Min 
 ROPX.m/hr               30.00:  ROP Max 
 RPMA.rpm               160.00:  RPM Surface Avg 
 RPMN.rpm               160.00:  RPM Surface Min 
 RPMX.rpm               160.00:  RPM Surface Max 
 RRUN.                    0800:  Rig Run Number 
 RTIM.hr                 12.00:  Time Reaming 
 SAZI.deg               169.33:  Azm, Start 
 SDEP.m                3449.01:  Start Depth 
 SIDD.                      No:  Serv Intrp, DD 
 SINC.deg                68.01:  Inc, Start 
 SPPA.psig             4900.00:  SPP Avg 
 SPPN.psig             4800.00:  SPP Min 
 SPPX.psig             5050.00:  SPP Max 
 STIM.      13.41.20 06-Nov-20:  Start Time 
 SVCS.                 DD, MWD:  Services 
 SVER.                    9.20:  Sperry Version 
 TDAT.m                4762.01:  Tot Depth Attmp 
 TDDF.                      No:  Trip for DD 
 TDLG.m                1313.00:  Tot Depth Loggd 
 TFF .                      No:  Trip for Fail 
 TQAA.f-kp               13.00:  Torque Abs Avg 
 TQAN.f-kp               13.00:  Torque Abs Min 
 TQAX.f-kp               13.00:  Torque Abs Max 
 TRRT.°/30m               1.70:  Turn Rotating 
 MRT .                  EWR-M5:  Maximum Recorded Temperature 
 TTMX.degC               86.00:  Max Tool Temp 
 VS01.                90622122:  Virtual Str1 SN 
 VS02.                90577298:  Virtual Str2 SN 
 VS03.                90563623:  Virtual Str3 SN 
 VS04.                90617559:  Virtual Str4 SN 
 VS05.                11339492:  Virtual Str5 SN 
 VS06.                12385033:  Virtual Str6 SN 
 WBMN.klb                 0.00:  WOB Min 
 WOBA.klb                22.00:  WOB Avg 
 WOBX.klb                26.00:  WOB Max 
 YP  .lhf2               30.00:  Yield Point 
~Curve Information Block
#MNEM.UNIT                 API CODE     Curve Description
#---------               -----------    ---------------------------
 TIME.HHMMSS            00 000 000 000:  GT Time & Date
 GTDEPTH.m              00 000 000 000:  GT Depth
 GTPQH.psia             00 000 000 000:  GT HR Quartz Pressure
 GTTQ.degC              00 000 000 000:  GT Quartz Temperature
 GTTN.NONE              00 000 000 000:  GT Test Number
 GTET.sec               00 000 000 000:  GT Elapsed Test Time
 GTTVD.m                00 000 000 000:  GT True Vertical Depth
#Other Information
#
#WARRANTY: Halliburton will use its best efforts to furnish customers with 
#accurate information and interpretations that are part of, and incident to, the services 
#provided.  However, Halliburton cannot and does not warrant the accuracy 
#or correctness of such information and interpretations.  Under no circumstances should any 
#such information or interpretation be relied upon as the sole basis for any drilling, 
#completion, production, or financial decision or any procedure involving any risk to the 
#safety of any drilling venture, drilling rig or its crew or any other third party.  The 
#Customer has full responsibility for all drilling, completion and production operation.  
#Halliburton makes no representations or warranties, either expressed or 
#implied, including, but not limited to, the implied warranties of merchantability or fitness 
#for a particular purpose, with respect to the services rendered.  In no event will 
#Halliburton be liable for failure to obtain any particular results or for 
#any damages, including, but not limited to, indirect, special or consequential damages, 
#resulting from the use of any information or interpretation provided by Halliburton.
#
~A           TIME           GTDEPTH  GTPQH  GTTQ  GTTN  GTET   GTTVD  
# ...
   09:23:21.197.08-Nov-2020 3525.51 3323.45 70.30 1.00 115.02 2012.77
   09:23:21.397.08-Nov-2020 3525.51 3323.45 70.30 1.00 115.22 2012.77
   09:23:21.597.08-Nov-2020 3525.51 3323.51 70.30 1.00 115.42 2012.77
   09:23:21.797.08-Nov-2020 3525.51 3323.52 70.30 1.00 115.62 2012.77
   09:23:21.997.08-Nov-2020 3525.51 3323.49 70.30 1.00 115.82 2012.77
   09:23:22.197.08-Nov-2020 3525.51 3323.48 70.30 1.00 116.02 2012.77
   09:23:22.397.08-Nov-2020 3525.51 3323.48 70.30 1.00 116.22 2012.77
   09:23:22.597.08-Nov-2020 3525.51 3323.47 70.30 1.00 116.42 2012.77
   09:23:22.797.08-Nov-2020 3525.51 3323.46 70.30 1.00 116.62 2012.77
   09:23:22.997.08-Nov-2020 3525.51 3323.45 70.30 1.00 116.82 2012.77
   09:23:23.197.08-Nov-2020 3525.51 3323.45 70.29 1.00 117.02 2012.77
   09:23:23.397.08-Nov-2020 3525.51 3323.45 70.29 1.00 117.22 2012.77
   09:23:23.597.08-Nov-2020 3525.51 3323.44 70.29 1.00 117.42 2012.77
   09:23:23.797.08-Nov-2020 3525.51 3323.45 70.29 1.00 117.62 2012.77
   09:23:23.998.08-Nov-2020 3525.51 3323.41 70.29 1.00 117.82 2012.77
   09:23:24.198.08-Nov-2020 3525.51 3323.53 70.29 1.00 118.02 2012.77
   09:23:24.398.08-Nov-2020 3525.51 3323.53 70.29 1.00 118.22 2012.77
   09:23:24.598.08-Nov-2020 3525.51 3323.48 70.29 1.00 118.42 2012.77
   09:23:24.798.08-Nov-2020 3525.51 3323.57 70.29 1.00 118.62 2012.77
   09:23:24.998.08-Nov-2020 3525.51 3323.51 70.29 1.00 118.82 2012.77
   09:23:25.198.08-Nov-2020 3525.51 3323.49 70.29 1.00 119.02 2012.77
   09:23:25.398.08-Nov-2020 3525.51 3323.49 70.29 1.00 119.22 2012.77
   09:23:25.598.08-Nov-2020 3525.51 3323.48 70.29 1.00 119.42 2012.77
   09:23:25.798.08-Nov-2020 3525.51 3323.51 70.29 1.00 119.62 2012.77
   09:23:25.998.08-Nov-2020 3525.51 3323.51 70.29 1.00 119.82 2012.77
   09:23:26.198.08-Nov-2020 3525.51 3323.49 70.29 1.00 120.02 2012.77
   09:23:26.398.08-Nov-2020 3525.51 3323.49 70.29 1.00 120.22 2012.77
   09:23:26.598.08-Nov-2020 3525.51 3323.49 70.29 1.00 120.42 2012.77
   09:23:26.798.08-Nov-2020 3525.51 3323.49 70.29 1.00 120.62 2012.77
   09:23:26.998.08-Nov-2020 3525.51 3323.52 70.29 1.00 120.82 2012.77
   09:23:27.198.08-Nov-2020 3525.51 3323.51 70.29 1.00 121.02 2012.77
   09:23:27.398.08-Nov-2020 3525.51 3323.51 70.29 1.00 121.22 2012.77
   09:23:27.598.08-Nov-2020 3525.51 3323.48 70.29 1.00 121.42 2012.77
   09:23:27.798.08-Nov-2020 3525.51 3323.54 70.29 1.00 121.62 2012.77
   09:23:27.998.08-Nov-2020 3525.51 3323.51 70.29 1.00 121.82 2012.77
   09:23:28.198.08-Nov-2020 3525.51 3323.48 70.28 1.00 122.02 2012.77
   09:23:28.398.08-Nov-2020 3525.51 3323.48 70.28 1.00 122.22 2012.77
   09:23:28.598.08-Nov-2020 3525.51 3323.51 70.28 1.00 122.42 2012.77
   09:23:28.798.08-Nov-2020 3525.51 3323.50 70.28 1.00 122.62 2012.77
   09:23:28.998.08-Nov-2020 3525.51 3323.49 70.28 1.00 122.82 2012.77
   09:23:29.198.08-Nov-2020 3525.51 3323.48 70.28 1.00 123.02 2012.77
   09:23:29.398.08-Nov-2020 3525.51 3323.48 70.28 1.00 123.22 2012.77
   09:23:29.598.08-Nov-2020 3525.51 3323.47 70.28 1.00 123.42 2012.77
   09:23:29.798.08-Nov-2020 3525.51 3323.46 70.28 1.00 123.62 2012.77
   09:23:29.999.08-Nov-2020 3525.51 3323.48 70.28 1.00 123.82 2012.77
   09:23:30.199.08-Nov-2020 3525.51 3323.46 70.28 1.00 124.02 2012.77
   09:23:30.399.08-Nov-2020 3525.51 3323.46 70.28 1.00 124.22 2012.77
   09:23:30.599.08-Nov-2020 3525.51 3323.56 70.28 1.00 124.42 2012.77
   09:23:30.799.08-Nov-2020 3525.51 3323.52 70.28 1.00 124.62 2012.77
   09:23:30.999.08-Nov-2020 3525.51 3323.49 70.28 1.00 124.82 2012.77
   09:23:31.199.08-Nov-2020 3525.51 3323.52 70.28 1.00 125.02 2012.77
   09:23:31.399.08-Nov-2020 3525.51 3323.52 70.28 1.00 125.22 2012.77
   09:23:31.599.08-Nov-2020 3525.51 3323.49 70.28 1.00 125.42 2012.77
   09:23:31.799.08-Nov-2020 3525.51 3323.48 70.28 1.00 125.62 2012.77
   09:23:31.999.08-Nov-2020 3525.51 3323.48 70.28 1.00 125.82 2012.77
   09:23:32.199.08-Nov-2020 3525.51 3323.48 70.28 1.00 126.02 2012.77
   09:23:32.399.08-Nov-2020 3525.51 3323.48 70.28 1.00 126.22 2012.77
   09:23:32.599.08-Nov-2020 3525.51 3323.47 70.28 1.00 126.42 2012.77
   09:23:32.799.08-Nov-2020 3525.51 3323.46 70.28 1.00 126.62 2012.77
   09:23:32.999.08-Nov-2020 3525.51 3323.48 70.28 1.00 126.82 2012.77
   09:23:33.199.08-Nov-2020 3525.51 3323.54 70.27 1.00 127.02 2012.77
   09:23:33.399.08-Nov-2020 3525.51 3323.54 70.27 1.00 127.22 2012.77
   09:23:33.599.08-Nov-2020 3525.51 3323.52 70.27 1.00 127.42 2012.77
   09:23:33.799.08-Nov-2020 3525.51 3323.53 70.27 1.00 127.62 2012.77
   09:23:33.999.08-Nov-2020 3525.51 3323.51 70.27 1.00 127.82 2012.77
   09:23:34.199.08-Nov-2020 3525.51 3323.49 70.27 1.00 128.02 2012.77
   09:23:34.399.08-Nov-2020 3525.51 3323.49 70.27 1.00 128.22 2012.77
   09:23:34.599.08-Nov-2020 3525.51 3323.48 70.27 1.00 128.42 2012.77
   09:23:34.799.08-Nov-2020 3525.51 3323.55 70.27 1.00 128.62 2012.77
   09:23:34.999.08-Nov-2020 3525.51 3323.52 70.27 1.00 128.82 2012.77
   09:23:35.199.08-Nov-2020 3525.51 3323.51 70.27 1.00 129.02 2012.77
   09:23:35.399.08-Nov-2020 3525.51 3323.51 70.27 1.00 129.22 2012.77
   09:23:35.599.08-Nov-2020 3525.51 3323.46 70.27 1.00 129.42 2012.77
   09:23:35.800.08-Nov-2020 3525.51 3323.58 70.27 1.00 129.62 2012.77
   09:23:36.000.08-Nov-2020 3525.51 3323.52 70.27 1.00 129.82 2012.77
   09:23:36.200.08-Nov-2020 3525.51 3323.51 70.27 1.00 130.02 2012.77
   09:23:36.400.08-Nov-2020 3525.51 3323.51 70.27 1.00 130.22 2012.77
   09:23:36.600.08-Nov-2020 3525.51 3323.53 70.27 1.00 130.42 2012.77
   09:23:36.800.08-Nov-2020 3525.51 3323.53 70.27 1.00 130.62 2012.77
   09:23:37.000.08-Nov-2020 3525.51 3323.52 70.27 1.00 130.82 2012.77
   09:23:37.200.08-Nov-2020 3525.51 3323.50 70.27 1.00 131.02 2012.77
   09:23:37.400.08-Nov-2020 3525.51 3323.50 70.27 1.00 131.22 2012.77
   09:23:37.600.08-Nov-2020 3525.51 3323.50 70.27 1.00 131.42 2012.77
   09:23:37.800.08-Nov-2020 3525.51 3323.49 70.27 1.00 131.62 2012.77
   09:23:38.000.08-Nov-2020 3525.51 3323.50 70.27 1.00 131.82 2012.77
   09:23:38.200.08-Nov-2020 3525.51 3323.49 70.26 1.00 132.02 2012.77
   09:23:38.400.08-Nov-2020 3525.51 3323.49 70.26 1.00 132.22 2012.77
   09:23:38.600.08-Nov-2020 3525.51 3323.48 70.26 1.00 132.42 2012.77
   09:23:38.800.08-Nov-2020 3525.51 3323.48 70.26 1.00 132.62 2012.77
   09:23:39.000.08-Nov-2020 3525.51 3323.48 70.26 1.00 132.82 2012.77
   09:23:39.200.08-Nov-2020 3525.51 3323.48 70.26 1.00 133.02 2012.77
   09:23:39.400.08-Nov-2020 3525.51 3323.48 70.26 1.00 133.22 2012.77
   09:23:39.600.08-Nov-2020 3525.51 3323.57 70.26 1.00 133.42 2012.77
   09:23:39.800.08-Nov-2020 3525.51 3323.53 70.26 1.00 133.62 2012.77
   09:23:40.000.08-Nov-2020 3525.51 3323.51 70.26 1.00 133.82 2012.77
   09:23:40.200.08-Nov-2020 3525.51 3323.51 70.26 1.00 134.02 2012.77
   09:23:40.400.08-Nov-2020 3525.51 3323.51 70.26 1.00 134.22 2012.77
   09:23:40.600.08-Nov-2020 3525.51 3323.49 70.26 1.00 134.42 2012.77
   09:23:40.800.08-Nov-2020 3525.51 3323.50 70.26 1.00 134.62 2012.77
   09:23:41.000.08-Nov-2020 3525.51 3323.49 70.26 1.00 134.82 2012.77
   09:23:41.200.08-Nov-2020 3525.51 3323.49 70.26 1.00 135.02 2012.77
   09:23:41.400.08-Nov-2020 3525.51 3323.49 70.26 1.00 135.22 2012.77
   09:23:41.600.08-Nov-2020 3525.51 3323.48 70.26 1.00 135.42 2012.77
   09:23:41.801.08-Nov-2020 3525.51 3323.45 70.26 1.00 135.62 2012.77
   09:23:42.001.08-Nov-2020 3525.51 3323.55 70.26 1.00 135.82 2012.77
   09:23:42.201.08-Nov-2020 3525.51 3323.51 70.26 1.00 136.02 2012.77
   09:23:42.401.08-Nov-2020 3525.51 3323.51 70.26 1.00 136.22 2012.77
   09:23:42.601.08-Nov-2020 3525.51 3323.57 70.26 1.00 136.42 2012.77
   09:23:42.801.08-Nov-2020 3525.51 3323.52 70.26 1.00 136.62 2012.77
   09:23:43.001.08-Nov-2020 3525.51 3323.51 70.26 1.00 136.82 2012.77
   09:23:43.201.08-Nov-2020 3525.51 3323.52 70.25 1.00 137.02 2012.77
   09:23:43.401.08-Nov-2020 3525.51 3323.52 70.25 1.00 137.22 2012.77
   09:23:43.601.08-Nov-2020 3525.51 3323.50 70.25 1.00 137.42 2012.77
   09:23:43.801.08-Nov-2020 3525.51 3323.53 70.25 1.00 137.62 2012.77
   09:23:44.001.08-Nov-2020 3525.51 3323.52 70.25 1.00 137.82 2012.77
