~Version Information
 VERS.                  2.0:   CWLS log ASCII Standard -VERSION 2.0
 WRAP.                   NO:   One line per depth step
~Well Information Block
#MNEM.UNIT     VALUE/NAME     DESCRIPTION
#---------     -----------    ---------------------------
 STRT.S             18:53:27 10-Nov-20: START TIME 18:53:27 10-Nov-20
 STOP.S             19:00:00 10-Nov-20: STOP TIME  19:00:00 10-Nov-20
 STEP.S                   0.00: STEP TIME
 NULL.                 -999.25: NULL VALUE
 DFWT.                        :  DIST FWL TEXT
 DFST.                        :  DIST FSL TEXT
 DMF .             Drill Floor:  DRILL MEAS FROM
 STIM.      04.54.24 22-Sep-20:  START TIME
 DATE.      04.54.24 21-Nov-20:  END TIME
 SPUD.               21-Nov-20:  SPUD DATE
 NREF.                    Grid:  NORTH REFERENCE
 HPTY.       Minimum Curvature:  HOLE POS TYPE
 DMOD.             Drill Model:  DRILL MOD DESC
 SVYD.                  Survey:  SURVEY DESC
 ILTD.               Lithology:  INTERP LTH DESC
 FTOP.          Formation Tops:  FORM TOPS DESC
 SON .        AZ-XX-0906571587:  JOB NUMBER
 COMP.     BP Exploration (Caspian Sea) Ltd:  COMPANY
 UWI .                     N/A:  UNIQUE WELL IDENTIFIER
 API .                     N/A:  API NUMBER
 BASE.              Azerbaijan:  LOGGING EQUIPMENT BASE LOCATION
 REGN.                   EESSA:  REGION
 PROV.                    Baku:  PROVINCE
 STAT.                    Baku:  STATE NAME
 CTRY.              Azerbaijan:  COUNTRY NAME
 FLD .                     ACG:  FIELD NAME
 SRVC.     TURAN Drilling & Engineering:  CONTRACTOR
 WELL.                     J27:  WELL NAME
 RIG .             West Chirag:  RIG NAME
 DOE .                     N/A:  DOE NUMBER
 DCON.         Sperry Drilling:  DIRECTNL CONTR
 PDAT.          Mean Sea Level:  PERMANENT DATUM
 WTYP.                Deviated:  WELL TYPE
 MWDS.                    Baku:  MWD SHOP
 JOBN.        AZ-XX-0906571587:  JOB TICKET NUMB
 UNIT.                     N/A:  LOGGING EQUIPMENT ID
 MDS .        Operator Entered:  MAG DATA SOURCE
 CNTY.                        :  COUNTY
 LOC .                        :  LOCATION
 LMF .             Drill Floor:  LOG MEASURED FROM
 TVDS.m                  43.00:  TVDSS CORRECTN
 LATI.deg                40.13:  LATITUDE
 LONG.deg                51.22:  LONGITUDE
 WHNS.m                   7.72:  WELL HEAD N/S
 WHEW.m                 -14.24:  WELL HEAD E/W
 UTMX.m              519005.06:  UTM X
 UTMY.m             4443793.85:  UTM Y
 DFWL.m                   0.00:  DISTANCE FWL
 DFSL.m                   0.00:  DISTANCE FSL
 SDEP.m                 347.00:  START DEPTH
 TDD .m                 581.00:  TOTAL DEPTH (DRILLER)
 VSDR.deg               159.72:  VERT SEC DIRECT
 GVFD.g                   1.00:  GRAVITY FIELD
 MFLD.nT              50313.00:  MAGNETIC FIELD
 MDIP.deg                59.58:  MAGNETIC DIP
 MDEC.deg                 6.45:  MAGNETIC DECL
 GRDC.deg                 0.15:  GRID CORRECTION
 AZTC.deg                 6.30:  AZM TOTAL CORR
 EPD .m                   0.00:  ELEVATION
 EGL .m                   0.00:  GROUND ELEVATION
 WDMS.m                 169.80:  WD ELEV
 APD .m                  43.00:  DEPTH ABOVE PD
 AGAP.m                  43.00:  AIR GAP
 VSEW.m                 -14.24:  VERT SEC E/W
 VSNS.m                   7.72:  VERT SEC N/S
 DEP .m                 342.45:  DEPTH
 EKB .m                   0.00:  KB ELEVATION
 EDF .m                  43.00:  DF ELEVATION
 TDL .m                1313.00:  TOTAL DEPTH (LOGGER)
 VSC .                       0:  VS TO CLOSURE
 MAGU.                 1851396:  MAGUTM CHECKSUM
~Parameter Information Block
#MNEM.UNIT       Value        Description
#---------     -----------    ---------------------------
 AV  .mps                 0.65:  Ann Velocity 
 AVMX.mps                 0.75:  Max Ann Veloc 
 AZIF.deg               115.08:  Azm, Final 
 BHAT.        Rotary Steerable:  BHA Type 
 BROT.°/30m               1.50:  Build Rotating 
 BS  .in                 12.25:  Bit Size 
 BSZ .in                 12.25:  Bit Size 
 BTPL.psig              700.00:  Bit Press Loss 
 CABU.                     Yes:  Customer Abuse 
 COMM.                     ”Ú:  Run Comments 1 
 TCS .hr                121.00:  Time Ciculation Ended 
 CV  .mps                 1.83:  Crit Velocity 
 CVMX.mps                 1.83:  Max Crit Veloc 
 DD1 .          Rashad Habibov:  Direct Drillr 1 
 DD2 .         Rasim Ibrahimov:  Direct Drillr 2 
 DDSV.                 iCruise:  DD Service 
 DEFF.%                 100.00:  % Det Eff 
 DLRX.°/30m               3.60:  Dogleg Rot Max 
 DLSO.°/30m               3.10:  Dogleg Oriented 
 DLSX.°/30m               3.60:  Dogleg Str Max 
 DRET.      13.41.20 12-Nov-20:  Drill End Time 
 DRST.      13.41.20 07-Nov-20:  Drill Start Tim 
 DTIM.hr                 54.16:  Time Drilling 
 EDEP.m                4762.01:  End Depth 
 ENG1.           Amrah Tahirov:  Engineer 1 
 ENG2.      Bakhtiyar Jabbarli:  Engineer 2 
 ENG3.          Ruslan Safarov:  Engineer 3 
 ETIM.      13.41.20 14-Nov-20:  End Time 
 FLOI.gpm              1200.00:  Flow In 
 FLON.gpm              1100.00:  Flow In Min 
 FLOS.cptm                0.00:  Fluid Loss 
 FLOX.gpm              1200.00:  Flow In Max 
 HFLO.                      No:  High Flow 
 HPRE.                      No:  High Pressure 
 HTEM.                      No:  High Temp 
 HYDO.m                   2.00:  Hydro Offset 
 IFIN.deg                66.14:  Inc, Final 
 IMAX.deg                69.03:  Inc Max 
 IMIN.deg                64.64:  Inc Min 
 IMND.m                4450.16:  Inc Min Depth 
 IMXD.m                3996.00:  Inc Max Depth 
 JARR.                     Yes:  Jarring 
 LETM.      13.41.20 14-Nov-20:  Log End Time 
 LOST.hr                     0:  Lost Rig Time 
 LSTM.      13.41.20 06-Nov-20:  Log Start Time 
 MDCL.ppm             42500.00:  Mud Chlorides 
 MDES.     Inversion Oil/Synthetic:  Mud Desc 
 DFD .sg                  1.45:  Mud Density 
 MDMN.sg                  1.45:  Dens Mud Min 
 MDMX.sg                  1.45:  Dens Mud Max 
 MOIL.                      70:  Run Mud Oil % 
 MOWR.                   70:30:  Run Mud OWR 
 MSND.                       0:  Run Mud Sand % 
 MSOL.                    19.3:  Run Mud Solids% 
 DFV .spqt               77.00:  Mud Viscosity 
 MWOD.in                  8.00:  MWD Tool OD 
 MWSI.                      No:  Serv Intrp, MWD 
 OTIM.hr                201.88:  Time Operating 
 PCON.           Look Like New:  Pad Condition 
 PMAX.psia             9250.94:  Press Op, Max 
 PV  .cP                 29.00:  Mud PV 
 RUN .                     800:  Run Number 
 ROPA.m/hr               28.00:  ROP Avg 
 ROPN.m/hr               25.00:  ROP Min 
 ROPX.m/hr               30.00:  ROP Max 
 RPMA.rpm               160.00:  RPM Surface Avg 
 RPMN.rpm               160.00:  RPM Surface Min 
 RPMX.rpm               160.00:  RPM Surface Max 
 RRUN.                    0800:  Rig Run Number 
 RTIM.hr                 12.00:  Time Reaming 
 SAZI.deg               169.33:  Azm, Start 
 SDEP.m                3449.01:  Start Depth 
 SIDD.                      No:  Serv Intrp, DD 
 SINC.deg                68.01:  Inc, Start 
 SPPA.psig             4900.00:  SPP Avg 
 SPPN.psig             4800.00:  SPP Min 
 SPPX.psig             5050.00:  SPP Max 
 STIM.      13.41.20 06-Nov-20:  Start Time 
 SVCS.                 DD, MWD:  Services 
 SVER.                    9.20:  Sperry Version 
 TDAT.m                4762.01:  Tot Depth Attmp 
 TDDF.                      No:  Trip for DD 
 TDLG.m                1313.00:  Tot Depth Loggd 
 TFF .                      No:  Trip for Fail 
 TQAA.f-kp               13.00:  Torque Abs Avg 
 TQAN.f-kp               13.00:  Torque Abs Min 
 TQAX.f-kp               13.00:  Torque Abs Max 
 TRRT.°/30m               1.70:  Turn Rotating 
 MRT .                  EWR-M5:  Maximum Recorded Temperature 
 TTMX.degC               86.00:  Max Tool Temp 
 VS01.                90622122:  Virtual Str1 SN 
 VS02.                90577298:  Virtual Str2 SN 
 VS03.                90563623:  Virtual Str3 SN 
 VS04.                90617559:  Virtual Str4 SN 
 VS05.                11339492:  Virtual Str5 SN 
 VS06.                12385033:  Virtual Str6 SN 
 WBMN.klb                 0.00:  WOB Min 
 WOBA.klb                22.00:  WOB Avg 
 WOBX.klb                26.00:  WOB Max 
 YP  .lhf2               30.00:  Yield Point 
~Curve Information Block
#MNEM.UNIT                 API CODE     Curve Description
#---------               -----------    ---------------------------
 TIME.HHMMSS            00 000 000 000:  GT Time & Date
 GTDEPTH.m              00 000 000 000:  GT Depth
 GTPQH.psia             00 000 000 000:  GT HR Quartz Pressure
 GTTQ.degC              00 000 000 000:  GT Quartz Temperature
 GTTN.NONE              00 000 000 000:  GT Test Number
 GTET.sec               00 000 000 000:  GT Elapsed Test Time
 GTTVD.m                00 000 000 000:  GT True Vertical Depth
#Other Information
#
#WARRANTY: Halliburton will use its best efforts to furnish customers with 
#accurate information and interpretations that are part of, and incident to, the services 
#provided.  However, Halliburton cannot and does not warrant the accuracy 
#or correctness of such information and interpretations.  Under no circumstances should any 
#such information or interpretation be relied upon as the sole basis for any drilling, 
#completion, production, or financial decision or any procedure involving any risk to the 
#safety of any drilling venture, drilling rig or its crew or any other third party.  The 
#Customer has full responsibility for all drilling, completion and production operation.  
#Halliburton makes no representations or warranties, either expressed or 
#implied, including, but not limited to, the implied warranties of merchantability or fitness 
#for a particular purpose, with respect to the services rendered.  In no event will 
#Halliburton be liable for failure to obtain any particular results or for 
#any damages, including, but not limited to, indirect, special or consequential damages, 
#resulting from the use of any information or interpretation provided by Halliburton.
#
~A           TIME           GTDEPTH  GTPQH  GTTQ  GTTN  GTET   GTTVD  
# ...
   18:55:45.534.10-Nov-2020 4475.51 4016.85 80.40 5.00 138.04 2369.25
   18:55:45.734.10-Nov-2020 4475.51 4016.95 80.40 5.00 138.24 2369.25
   18:55:45.934.10-Nov-2020 4475.51 4016.93 80.40 5.00 138.44 2369.25
   18:55:46.134.10-Nov-2020 4475.51 4017.17 80.40 5.00 138.64 2369.25
   18:55:46.334.10-Nov-2020 4475.51 4016.95 80.40 5.00 138.84 2369.25
   18:55:46.534.10-Nov-2020 4475.51 4017.02 80.40 5.00 139.04 2369.25
   18:55:46.734.10-Nov-2020 4475.51 4017.02 80.40 5.00 139.24 2369.25
   18:55:46.934.10-Nov-2020 4475.51 4016.98 80.40 5.00 139.44 2369.25
   18:55:47.134.10-Nov-2020 4475.51 4016.83 80.40 5.00 139.64 2369.25
   18:55:47.334.10-Nov-2020 4475.51 4016.94 80.40 5.00 139.84 2369.25
   18:55:47.534.10-Nov-2020 4475.51 4016.97 80.39 5.00 140.04 2369.25
   18:55:47.735.10-Nov-2020 4475.51 4016.97 80.39 5.00 140.24 2369.25
   18:55:47.935.10-Nov-2020 4475.51 4016.99 80.39 5.00 140.44 2369.25
   18:55:48.135.10-Nov-2020 4475.51 4017.15 80.39 5.00 140.64 2369.25
   18:55:48.335.10-Nov-2020 4475.51 4017.14 80.39 5.00 140.84 2369.25
   18:55:48.535.10-Nov-2020 4475.51 4016.90 80.39 5.00 141.04 2369.25
   18:55:48.735.10-Nov-2020 4475.51 4016.90 80.39 5.00 141.24 2369.25
   18:55:48.935.10-Nov-2020 4475.51 4017.43 80.39 5.00 141.44 2369.25
   18:55:49.135.10-Nov-2020 4475.51 4017.02 80.39 5.00 141.64 2369.25
   18:55:49.335.10-Nov-2020 4475.51 4017.00 80.39 5.00 141.84 2369.25
   18:55:49.535.10-Nov-2020 4475.51 4016.98 80.39 5.00 142.04 2369.25
   18:55:49.735.10-Nov-2020 4475.51 4017.07 80.39 5.00 142.24 2369.25
   18:55:49.935.10-Nov-2020 4475.51 4017.09 80.39 5.00 142.44 2369.25
   18:55:50.135.10-Nov-2020 4475.51 4017.04 80.39 5.00 142.64 2369.25
   18:55:50.335.10-Nov-2020 4475.51 4017.05 80.39 5.00 142.84 2369.25
   18:55:50.535.10-Nov-2020 4475.51 4017.13 80.39 5.00 143.04 2369.25
   18:55:50.735.10-Nov-2020 4475.51 4017.13 80.39 5.00 143.24 2369.25
   18:55:50.935.10-Nov-2020 4475.51 4017.07 80.39 5.00 143.44 2369.25
   18:55:51.135.10-Nov-2020 4475.51 4017.13 80.39 5.00 143.64 2369.25
   18:55:51.336.10-Nov-2020 4475.51 4017.12 80.39 5.00 143.84 2369.25
   18:55:51.536.10-Nov-2020 4475.51 4017.12 80.38 5.00 144.04 2369.25
   18:55:51.736.10-Nov-2020 4475.51 4017.12 80.38 5.00 144.24 2369.25
   18:55:51.936.10-Nov-2020 4475.51 4017.40 80.38 5.00 144.44 2369.25
   18:55:52.136.10-Nov-2020 4475.51 4017.17 80.38 5.00 144.64 2369.25
   18:55:52.336.10-Nov-2020 4475.51 4017.12 80.38 5.00 144.84 2369.25
   18:55:52.536.10-Nov-2020 4475.51 4017.19 80.38 5.00 145.04 2369.25
   18:55:52.736.10-Nov-2020 4475.51 4017.19 80.38 5.00 145.24 2369.25
   18:55:52.936.10-Nov-2020 4475.51 4017.11 80.38 5.00 145.44 2369.25
   18:55:53.136.10-Nov-2020 4475.51 4017.13 80.38 5.00 145.64 2369.25
   18:55:53.336.10-Nov-2020 4475.51 4017.19 80.38 5.00 145.84 2369.25
   18:55:53.536.10-Nov-2020 4475.51 4017.18 80.38 5.00 146.04 2369.25
   18:55:53.736.10-Nov-2020 4475.51 4017.15 80.38 5.00 146.24 2369.25
   18:55:53.936.10-Nov-2020 4475.51 4017.23 80.38 5.00 146.44 2369.25
   18:55:54.136.10-Nov-2020 4475.51 4017.26 80.38 5.00 146.64 2369.25
   18:55:54.336.10-Nov-2020 4475.51 4017.36 80.38 5.00 146.84 2369.25
   18:55:54.536.10-Nov-2020 4475.51 4017.37 80.38 5.00 147.04 2369.25
   18:55:54.736.10-Nov-2020 4475.51 4017.37 80.38 5.00 147.24 2369.25
   18:55:54.937.10-Nov-2020 4475.51 4017.45 80.38 5.00 147.44 2369.25
   18:55:55.137.10-Nov-2020 4475.51 4017.39 80.38 5.00 147.64 2369.25
   18:55:55.337.10-Nov-2020 4475.51 4017.20 80.38 5.00 147.84 2369.25
   18:55:55.537.10-Nov-2020 4475.51 4017.13 80.38 5.00 148.04 2369.25
   18:55:55.737.10-Nov-2020 4475.51 4017.13 80.38 5.00 148.24 2369.25
   18:55:55.937.10-Nov-2020 4475.51 4017.49 80.37 5.00 148.44 2369.25
   18:55:56.137.10-Nov-2020 4475.51 4017.23 80.37 5.00 148.64 2369.25
   18:55:56.337.10-Nov-2020 4475.51 4017.23 80.37 5.00 148.84 2369.25
   18:55:56.537.10-Nov-2020 4475.51 4017.33 80.37 5.00 149.04 2369.25
   18:55:56.737.10-Nov-2020 4475.51 4017.33 80.37 5.00 149.24 2369.25
   18:55:56.937.10-Nov-2020 4475.51 4017.33 80.37 5.00 149.44 2369.25
   18:55:57.137.10-Nov-2020 4475.51 4017.49 80.37 5.00 149.64 2369.25
   18:55:57.337.10-Nov-2020 4475.51 4017.46 80.37 5.00 149.84 2369.25
   18:55:57.537.10-Nov-2020 4475.51 4017.25 80.37 5.00 150.04 2369.25
   18:55:57.737.10-Nov-2020 4475.51 4017.30 80.37 5.00 150.24 2369.25
   18:55:57.937.10-Nov-2020 4475.51 4017.34 80.37 5.00 150.44 2369.25
   18:55:58.137.10-Nov-2020 4475.51 4017.33 80.37 5.00 150.64 2369.25
   18:55:58.337.10-Nov-2020 4475.51 4017.32 80.37 5.00 150.84 2369.25
   18:55:58.538.10-Nov-2020 4475.51 4017.33 80.37 5.00 151.04 2369.25
   18:55:58.738.10-Nov-2020 4475.51 4017.33 80.37 5.00 151.24 2369.25
   18:55:58.938.10-Nov-2020 4475.51 3969.59 80.37 5.00 151.44 2369.25
   18:55:59.138.10-Nov-2020 4475.51 3953.56 80.37 5.00 151.64 2369.25
   18:55:59.338.10-Nov-2020 4475.51 3949.78 80.37 5.00 151.84 2369.25
   18:55:59.538.10-Nov-2020 4475.51 3947.20 80.37 5.00 152.04 2369.25
   18:55:59.738.10-Nov-2020 4475.51 3945.05 80.36 5.00 152.24 2369.25
   18:55:59.938.10-Nov-2020 4475.51 3943.57 80.36 5.00 152.44 2369.25
   18:56:00.138.10-Nov-2020 4475.51 3941.69 80.36 5.00 152.64 2369.25
   18:56:00.338.10-Nov-2020 4475.51 3940.62 80.36 5.00 152.84 2369.25
   18:56:00.538.10-Nov-2020 4475.51 3939.96 80.36 5.00 153.04 2369.25
   18:56:00.738.10-Nov-2020 4475.51 3939.96 80.36 5.00 153.24 2369.25
   18:56:00.938.10-Nov-2020 4475.51 3937.59 80.36 5.00 153.44 2369.25
   18:56:01.138.10-Nov-2020 4475.51 3937.18 80.36 5.00 153.64 2369.25
   18:56:01.338.10-Nov-2020 4475.51 3936.41 80.36 5.00 153.84 2369.25
   18:56:01.538.10-Nov-2020 4475.51 3935.65 80.36 5.00 154.04 2369.25
   18:56:01.738.10-Nov-2020 4475.51 3935.14 80.36 5.00 154.24 2369.25
   18:56:01.938.10-Nov-2020 4475.51 3934.22 80.36 5.00 154.44 2369.25
   18:56:02.139.10-Nov-2020 4475.51 3933.87 80.36 5.00 154.64 2369.25
   18:56:02.339.10-Nov-2020 4475.51 3933.40 80.36 5.00 154.84 2369.25
   18:56:02.539.10-Nov-2020 4475.51 3932.34 80.36 5.00 155.04 2369.25
   18:56:02.739.10-Nov-2020 4475.51 3932.34 80.36 5.00 155.24 2369.25
   18:56:02.939.10-Nov-2020 4475.51 3932.00 80.36 5.00 155.44 2369.25
   18:56:03.139.10-Nov-2020 4475.51 3931.86 80.36 5.00 155.64 2369.25
   18:56:03.339.10-Nov-2020 4475.51 3931.17 80.36 5.00 155.84 2369.25
   18:56:03.539.10-Nov-2020 4475.51 3930.71 80.35 5.00 156.04 2369.25
   18:56:03.739.10-Nov-2020 4475.51 3930.71 80.35 5.00 156.24 2369.25
   18:56:03.939.10-Nov-2020 4475.51 3929.61 80.35 5.00 156.44 2369.25
   18:56:04.139.10-Nov-2020 4475.51 3929.56 80.35 5.00 156.64 2369.25
   18:56:04.339.10-Nov-2020 4475.51 3928.44 80.35 5.00 156.84 2369.25
   18:56:04.539.10-Nov-2020 4475.51 3928.67 80.35 5.00 157.04 2369.25
   18:56:04.739.10-Nov-2020 4475.51 3928.67 80.35 5.00 157.24 2369.25
   18:56:04.939.10-Nov-2020 4475.51 3927.78 80.35 5.00 157.44 2369.25
   18:56:05.139.10-Nov-2020 4475.51 3927.12 80.35 5.00 157.64 2369.25
   18:56:05.339.10-Nov-2020 4475.51 3926.67 80.35 5.00 157.84 2369.25
   18:56:05.539.10-Nov-2020 4475.51 3926.54 80.35 5.00 158.04 2369.25
   18:56:05.740.10-Nov-2020 4475.51 3926.54 80.35 5.00 158.24 2369.25
   18:56:05.940.10-Nov-2020 4475.51 3925.95 80.35 5.00 158.44 2369.25
   18:56:06.140.10-Nov-2020 4475.51 3925.42 80.35 5.00 158.64 2369.25
   18:56:06.340.10-Nov-2020 4475.51 3924.92 80.35 5.00 158.84 2369.25
   18:56:06.540.10-Nov-2020 4475.51 3924.89 80.35 5.00 159.04 2369.25
   18:56:06.740.10-Nov-2020 4475.51 3924.43 80.35 5.00 159.24 2369.25
   18:56:06.940.10-Nov-2020 4475.51 3924.21 80.35 5.00 159.44 2369.25
   18:56:07.140.10-Nov-2020 4475.51 3924.32 80.35 5.00 159.64 2369.25
   18:56:07.340.10-Nov-2020 4475.51 3924.31 80.34 5.00 159.84 2369.25
   18:56:07.540.10-Nov-2020 4475.51 3924.04 80.34 5.00 160.04 2369.25
   18:56:07.740.10-Nov-2020 4475.51 3924.04 80.34 5.00 160.24 2369.25
   18:56:07.940.10-Nov-2020 4475.51 3923.54 80.34 5.00 160.44 2369.25
   18:56:08.140.10-Nov-2020 4475.51 3923.25 80.34 5.00 160.64 2369.25
   18:56:08.340.10-Nov-2020 4475.51 3922.71 80.34 5.00 160.84 2369.25
