~Version Information
 VERS.                  2.0:   CWLS log ASCII Standard -VERSION 2.0
 WRAP.                   NO:   One line per depth step
~Well Information Block
#MNEM.UNIT     VALUE/NAME     DESCRIPTION
#---------     -----------    ---------------------------
 STRT.S             06:45:19 11-Nov-20: START TIME 06:45:19 11-Nov-20
 STOP.S             06:51:53 11-Nov-20: STOP TIME  06:51:53 11-Nov-20
 STEP.S                   0.00: STEP TIME
 NULL.                 -999.25: NULL VALUE
 DFWT.                        :  DIST FWL TEXT
 DFST.                        :  DIST FSL TEXT
 DMF .             Drill Floor:  DRILL MEAS FROM
 STIM.      04.54.24 22-Sep-20:  START TIME
 DATE.      04.54.24 21-Nov-20:  END TIME
 SPUD.               21-Nov-20:  SPUD DATE
 NREF.                    Grid:  NORTH REFERENCE
 HPTY.       Minimum Curvature:  HOLE POS TYPE
 DMOD.             Drill Model:  DRILL MOD DESC
 SVYD.                  Survey:  SURVEY DESC
 ILTD.               Lithology:  INTERP LTH DESC
 FTOP.          Formation Tops:  FORM TOPS DESC
 SON .        AZ-XX-0906571587:  JOB NUMBER
 COMP.     BP Exploration (Caspian Sea) Ltd:  COMPANY
 UWI .                     N/A:  UNIQUE WELL IDENTIFIER
 API .                     N/A:  API NUMBER
 BASE.              Azerbaijan:  LOGGING EQUIPMENT BASE LOCATION
 REGN.                   EESSA:  REGION
 PROV.                    Baku:  PROVINCE
 STAT.                    Baku:  STATE NAME
 CTRY.              Azerbaijan:  COUNTRY NAME
 FLD .                     ACG:  FIELD NAME
 SRVC.     TURAN Drilling & Engineering:  CONTRACTOR
 WELL.                     J27:  WELL NAME
 RIG .             West Chirag:  RIG NAME
 DOE .                     N/A:  DOE NUMBER
 DCON.         Sperry Drilling:  DIRECTNL CONTR
 PDAT.          Mean Sea Level:  PERMANENT DATUM
 WTYP.                Deviated:  WELL TYPE
 MWDS.                    Baku:  MWD SHOP
 JOBN.        AZ-XX-0906571587:  JOB TICKET NUMB
 UNIT.                     N/A:  LOGGING EQUIPMENT ID
 MDS .        Operator Entered:  MAG DATA SOURCE
 CNTY.                        :  COUNTY
 LOC .                        :  LOCATION
 LMF .             Drill Floor:  LOG MEASURED FROM
 TVDS.m                  43.00:  TVDSS CORRECTN
 LATI.deg                40.13:  LATITUDE
 LONG.deg                51.22:  LONGITUDE
 WHNS.m                   7.72:  WELL HEAD N/S
 WHEW.m                 -14.24:  WELL HEAD E/W
 UTMX.m              519005.06:  UTM X
 UTMY.m             4443793.85:  UTM Y
 DFWL.m                   0.00:  DISTANCE FWL
 DFSL.m                   0.00:  DISTANCE FSL
 SDEP.m                 347.00:  START DEPTH
 TDD .m                 581.00:  TOTAL DEPTH (DRILLER)
 VSDR.deg               159.72:  VERT SEC DIRECT
 GVFD.g                   1.00:  GRAVITY FIELD
 MFLD.nT              50313.00:  MAGNETIC FIELD
 MDIP.deg                59.58:  MAGNETIC DIP
 MDEC.deg                 6.45:  MAGNETIC DECL
 GRDC.deg                 0.15:  GRID CORRECTION
 AZTC.deg                 6.30:  AZM TOTAL CORR
 EPD .m                   0.00:  ELEVATION
 EGL .m                   0.00:  GROUND ELEVATION
 WDMS.m                 169.80:  WD ELEV
 APD .m                  43.00:  DEPTH ABOVE PD
 AGAP.m                  43.00:  AIR GAP
 VSEW.m                 -14.24:  VERT SEC E/W
 VSNS.m                   7.72:  VERT SEC N/S
 DEP .m                 342.45:  DEPTH
 EKB .m                   0.00:  KB ELEVATION
 EDF .m                  43.00:  DF ELEVATION
 TDL .m                1313.00:  TOTAL DEPTH (LOGGER)
 VSC .                       0:  VS TO CLOSURE
 MAGU.                 1851396:  MAGUTM CHECKSUM
~Parameter Information Block
#MNEM.UNIT       Value        Description
#---------     -----------    ---------------------------
 AV  .mps                 0.65:  Ann Velocity 
 AVMX.mps                 0.75:  Max Ann Veloc 
 AZIF.deg               115.08:  Azm, Final 
 BHAT.        Rotary Steerable:  BHA Type 
 BROT.°/30m               1.50:  Build Rotating 
 BS  .in                 12.25:  Bit Size 
 BSZ .in                 12.25:  Bit Size 
 BTPL.psig              700.00:  Bit Press Loss 
 CABU.                     Yes:  Customer Abuse 
 COMM.                     LNw:  Run Comments 1 
 TCS .hr                121.00:  Time Ciculation Ended 
 CV  .mps                 1.83:  Crit Velocity 
 CVMX.mps                 1.83:  Max Crit Veloc 
 DD1 .          Rashad Habibov:  Direct Drillr 1 
 DD2 .         Rasim Ibrahimov:  Direct Drillr 2 
 DDSV.                 iCruise:  DD Service 
 DEFF.%                 100.00:  % Det Eff 
 DLRX.°/30m               3.60:  Dogleg Rot Max 
 DLSO.°/30m               3.10:  Dogleg Oriented 
 DLSX.°/30m               3.60:  Dogleg Str Max 
 DRET.      13.41.20 12-Nov-20:  Drill End Time 
 DRST.      13.41.20 07-Nov-20:  Drill Start Tim 
 DTIM.hr                 54.16:  Time Drilling 
 EDEP.m                4762.01:  End Depth 
 ENG1.           Amrah Tahirov:  Engineer 1 
 ENG2.      Bakhtiyar Jabbarli:  Engineer 2 
 ENG3.          Ruslan Safarov:  Engineer 3 
 ETIM.      13.41.20 14-Nov-20:  End Time 
 FLOI.gpm              1200.00:  Flow In 
 FLON.gpm              1100.00:  Flow In Min 
 FLOS.cptm                0.00:  Fluid Loss 
 FLOX.gpm              1200.00:  Flow In Max 
 HFLO.                      No:  High Flow 
 HPRE.                      No:  High Pressure 
 HTEM.                      No:  High Temp 
 HYDO.m                   2.00:  Hydro Offset 
 IFIN.deg                66.14:  Inc, Final 
 IMAX.deg                69.03:  Inc Max 
 IMIN.deg                64.64:  Inc Min 
 IMND.m                4450.16:  Inc Min Depth 
 IMXD.m                3996.00:  Inc Max Depth 
 JARR.                     Yes:  Jarring 
 LETM.      13.41.20 14-Nov-20:  Log End Time 
 LOST.hr                     0:  Lost Rig Time 
 LSTM.      13.41.20 06-Nov-20:  Log Start Time 
 MDCL.ppm             42500.00:  Mud Chlorides 
 MDES.     Inversion Oil/Synthetic:  Mud Desc 
 DFD .sg                  1.45:  Mud Density 
 MDMN.sg                  1.45:  Dens Mud Min 
 MDMX.sg                  1.45:  Dens Mud Max 
 MOIL.                      70:  Run Mud Oil % 
 MOWR.                   70:30:  Run Mud OWR 
 MSND.                       0:  Run Mud Sand % 
 MSOL.                    19.3:  Run Mud Solids% 
 DFV .spqt               77.00:  Mud Viscosity 
 MWOD.in                  8.00:  MWD Tool OD 
 MWSI.                      No:  Serv Intrp, MWD 
 OTIM.hr                201.88:  Time Operating 
 PCON.           Look Like New:  Pad Condition 
 PMAX.psia             9250.94:  Press Op, Max 
 PV  .cP                 29.00:  Mud PV 
 RUN .                     800:  Run Number 
 ROPA.m/hr               28.00:  ROP Avg 
 ROPN.m/hr               25.00:  ROP Min 
 ROPX.m/hr               30.00:  ROP Max 
 RPMA.rpm               160.00:  RPM Surface Avg 
 RPMN.rpm               160.00:  RPM Surface Min 
 RPMX.rpm               160.00:  RPM Surface Max 
 RRUN.                    0800:  Rig Run Number 
 RTIM.hr                 12.00:  Time Reaming 
 SAZI.deg               169.33:  Azm, Start 
 SDEP.m                3449.01:  Start Depth 
 SIDD.                      No:  Serv Intrp, DD 
 SINC.deg                68.01:  Inc, Start 
 SPPA.psig             4900.00:  SPP Avg 
 SPPN.psig             4800.00:  SPP Min 
 SPPX.psig             5050.00:  SPP Max 
 STIM.      13.41.20 06-Nov-20:  Start Time 
 SVCS.                 DD, MWD:  Services 
 SVER.                    9.20:  Sperry Version 
 TDAT.m                4762.01:  Tot Depth Attmp 
 TDDF.                      No:  Trip for DD 
 TDLG.m                1313.00:  Tot Depth Loggd 
 TFF .                      No:  Trip for Fail 
 TQAA.f-kp               13.00:  Torque Abs Avg 
 TQAN.f-kp               13.00:  Torque Abs Min 
 TQAX.f-kp               13.00:  Torque Abs Max 
 TRRT.°/30m               1.70:  Turn Rotating 
 MRT .                  EWR-M5:  Maximum Recorded Temperature 
 TTMX.degC               86.00:  Max Tool Temp 
 VS01.                90622122:  Virtual Str1 SN 
 VS02.                90577298:  Virtual Str2 SN 
 VS03.                90563623:  Virtual Str3 SN 
 VS04.                90617559:  Virtual Str4 SN 
 VS05.                11339492:  Virtual Str5 SN 
 VS06.                12385033:  Virtual Str6 SN 
 WBMN.klb                 0.00:  WOB Min 
 WOBA.klb                22.00:  WOB Avg 
 WOBX.klb                26.00:  WOB Max 
 YP  .lhf2               30.00:  Yield Point 
~Curve Information Block
#MNEM.UNIT                 API CODE     Curve Description
#---------               -----------    ---------------------------
 TIME.HHMMSS            00 000 000 000:  GT Time & Date
 GTDEPTH.m              00 000 000 000:  GT Depth
 GTPQH.psia             00 000 000 000:  GT HR Quartz Pressure
 GTTQ.degC              00 000 000 000:  GT Quartz Temperature
 GTTN.NONE              00 000 000 000:  GT Test Number
 GTET.sec               00 000 000 000:  GT Elapsed Test Time
 GTTVD.m                00 000 000 000:  GT True Vertical Depth
#Other Information
#
#WARRANTY: Halliburton will use its best efforts to furnish customers with 
#accurate information and interpretations that are part of, and incident to, the services 
#provided.  However, Halliburton cannot and does not warrant the accuracy 
#or correctness of such information and interpretations.  Under no circumstances should any 
#such information or interpretation be relied upon as the sole basis for any drilling, 
#completion, production, or financial decision or any procedure involving any risk to the 
#safety of any drilling venture, drilling rig or its crew or any other third party.  The 
#Customer has full responsibility for all drilling, completion and production operation.  
#Halliburton makes no representations or warranties, either expressed or 
#implied, including, but not limited to, the implied warranties of merchantability or fitness 
#for a particular purpose, with respect to the services rendered.  In no event will 
#Halliburton be liable for failure to obtain any particular results or for 
#any damages, including, but not limited to, indirect, special or consequential damages, 
#resulting from the use of any information or interpretation provided by Halliburton.
#
~A           TIME           GTDEPTH  GTPQH  GTTQ  GTTN  GTET   GTTVD  
# ...
   06:45:42.397.11-Nov-2020 4617.01 5136.47 80.22 8.00  23.01 2426.59
   06:45:42.597.11-Nov-2020 4617.01 5136.47 80.21 8.00  23.21 2426.59
   06:45:42.797.11-Nov-2020 4617.01 5136.16 80.21 8.00  23.41 2426.59
   06:45:42.997.11-Nov-2020 4617.01 5136.10 80.21 8.00  23.61 2426.59
   06:45:43.197.11-Nov-2020 4617.01 5135.82 80.21 8.00  23.81 2426.59
   06:45:43.397.11-Nov-2020 4617.01 5136.58 80.21 8.00  24.01 2426.59
   06:45:43.597.11-Nov-2020 4617.01 5139.72 80.21 8.00  24.21 2426.59
   06:45:43.797.11-Nov-2020 4617.01 5137.08 80.21 8.00  24.41 2426.59
   06:45:43.997.11-Nov-2020 4617.01 5134.99 80.21 8.00  24.61 2426.59
   06:45:44.197.11-Nov-2020 4617.01 5134.68 80.21 8.00  24.81 2426.59
   06:45:44.397.11-Nov-2020 4617.01 5136.20 80.21 8.00  25.01 2426.59
   06:45:44.597.11-Nov-2020 4617.01 5136.20 80.21 8.00  25.21 2426.59
   06:45:44.798.11-Nov-2020 4617.01 5135.98 80.21 8.00  25.41 2426.59
   06:45:44.998.11-Nov-2020 4617.01 5136.02 80.20 8.00  25.61 2426.59
   06:45:45.198.11-Nov-2020 4617.01 5136.48 80.20 8.00  25.81 2426.59
   06:45:45.398.11-Nov-2020 4617.01 5136.96 80.20 8.00  26.01 2426.59
   06:45:45.598.11-Nov-2020 4617.01 5136.96 80.20 8.00  26.21 2426.59
   06:45:45.798.11-Nov-2020 4617.01 5137.16 80.20 8.00  26.41 2426.59
   06:45:45.998.11-Nov-2020 4617.01 5137.17 80.20 8.00  26.61 2426.59
   06:45:46.198.11-Nov-2020 4617.01 5143.42 80.20 8.00  26.81 2426.59
   06:45:46.398.11-Nov-2020 4617.01 5136.65 80.20 8.00  27.01 2426.59
   06:45:46.598.11-Nov-2020 4617.01 5136.65 80.20 8.00  27.21 2426.59
   06:45:46.798.11-Nov-2020 4617.01 5140.65 80.20 8.00  27.41 2426.59
   06:45:46.998.11-Nov-2020 4617.01 5138.25 80.20 8.00  27.61 2426.59
   06:45:47.198.11-Nov-2020 4617.01 5137.40 80.20 8.00  27.81 2426.59
   06:45:47.398.11-Nov-2020 4617.01 5140.87 80.20 8.00  28.01 2426.59
   06:45:47.598.11-Nov-2020 4617.01 5138.60 80.19 8.00  28.21 2426.59
   06:45:47.798.11-Nov-2020 4617.01 5137.89 80.19 8.00  28.41 2426.59
   06:45:47.999.11-Nov-2020 4617.01 5144.06 80.19 8.00  28.61 2426.59
   06:45:48.199.11-Nov-2020 4617.01 5136.76 80.19 8.00  28.81 2426.59
   06:45:48.399.11-Nov-2020 4617.01 5138.00 80.19 8.00  29.01 2426.59
   06:45:48.599.11-Nov-2020 4617.01 5138.00 80.19 8.00  29.21 2426.59
   06:45:48.799.11-Nov-2020 4617.01 5137.08 80.19 8.00  29.41 2426.59
   06:45:48.999.11-Nov-2020 4617.01 5138.85 80.19 8.00  29.61 2426.59
   06:45:49.199.11-Nov-2020 4617.01 5137.44 80.19 8.00  29.81 2426.59
   06:45:49.399.11-Nov-2020 4617.01 5137.74 80.19 8.00  30.01 2426.59
   06:45:49.599.11-Nov-2020 4617.01 5137.74 80.19 8.00  30.21 2426.59
   06:45:49.799.11-Nov-2020 4617.01 5137.51 80.19 8.00  30.41 2426.59
   06:45:49.999.11-Nov-2020 4617.01 5138.04 80.19 8.00  30.61 2426.59
   06:45:50.199.11-Nov-2020 4617.01 5138.59 80.18 8.00  30.81 2426.59
   06:45:50.399.11-Nov-2020 4617.01 5137.62 80.18 8.00  31.01 2426.59
   06:45:50.599.11-Nov-2020 4617.01 5137.62 80.18 8.00  31.21 2426.59
   06:45:50.799.11-Nov-2020 4617.01 5137.41 80.18 8.00  31.41 2426.59
   06:45:51.000.11-Nov-2020 4617.01 5136.88 80.18 8.00  31.61 2426.59
   06:45:51.200.11-Nov-2020 4617.01 5137.28 80.18 8.00  31.81 2426.59
   06:45:51.400.11-Nov-2020 4617.01 5141.71 80.18 8.00  32.01 2426.59
   06:45:51.600.11-Nov-2020 4617.01 5141.71 80.18 8.00  32.21 2426.59
   06:45:51.800.11-Nov-2020 4617.01 5136.73 80.18 8.00  32.41 2426.59
   06:45:52.000.11-Nov-2020 4617.01 5136.71 80.18 8.00  32.61 2426.59
   06:45:52.200.11-Nov-2020 4617.01 5137.15 80.18 8.00  32.81 2426.59
   06:45:52.400.11-Nov-2020 4617.01 5136.93 80.18 8.00  33.01 2426.59
   06:45:52.600.11-Nov-2020 4617.01 5136.93 80.18 8.00  33.21 2426.59
   06:45:52.800.11-Nov-2020 4617.01 5137.66 80.17 8.00  33.41 2426.59
   06:45:53.000.11-Nov-2020 4617.01 5137.54 80.17 8.00  33.61 2426.59
   06:45:53.200.11-Nov-2020 4617.01 5136.76 80.17 8.00  33.81 2426.59
   06:45:53.400.11-Nov-2020 4617.01 5135.76 80.17 8.00  34.01 2426.59
   06:45:53.600.11-Nov-2020 4617.01 5135.76 80.17 8.00  34.21 2426.59
   06:45:53.800.11-Nov-2020 4617.01 5135.88 80.17 8.00  34.41 2426.59
   06:45:54.000.11-Nov-2020 4617.01 5139.46 80.17 8.00  34.61 2426.59
   06:45:54.201.11-Nov-2020 4617.01 5139.70 80.17 8.00  34.81 2426.59
   06:45:54.401.11-Nov-2020 4617.01 5136.98 80.17 8.00  35.01 2426.59
   06:45:54.601.11-Nov-2020 4617.01 5136.98 80.17 8.00  35.21 2426.59
   06:45:54.801.11-Nov-2020 4617.01 5113.98 80.17 8.00  35.41 2426.59
   06:45:55.001.11-Nov-2020 4617.01 5101.52 80.17 8.00  35.61 2426.59
   06:45:55.201.11-Nov-2020 4617.01 5115.00 80.16 8.00  35.81 2426.59
   06:45:55.401.11-Nov-2020 4617.01 5101.09 80.16 8.00  36.01 2426.59
   06:45:55.601.11-Nov-2020 4617.01 5066.04 80.16 8.00  36.21 2426.59
   06:45:55.801.11-Nov-2020 4617.01 5050.95 80.16 8.00  36.41 2426.59
   06:45:56.001.11-Nov-2020 4617.01 5008.88 80.16 8.00  36.61 2426.59
   06:45:56.201.11-Nov-2020 4617.01 5026.25 80.16 8.00  36.81 2426.59
   06:45:56.401.11-Nov-2020 4617.01 5168.36 80.16 8.00  37.01 2426.59
   06:45:56.601.11-Nov-2020 4617.01 5168.36 80.16 8.00  37.21 2426.59
   06:45:56.801.11-Nov-2020 4617.01 5254.42 80.16 8.00  37.41 2426.59
   06:45:57.001.11-Nov-2020 4617.01 5264.89 80.16 8.00  37.61 2426.59
   06:45:57.201.11-Nov-2020 4617.01 5265.08 80.16 8.00  37.81 2426.59
   06:45:57.402.11-Nov-2020 4617.01 5253.76 80.16 8.00  38.01 2426.59
   06:45:57.602.11-Nov-2020 4617.01 5253.76 80.16 8.00  38.21 2426.59
   06:45:57.802.11-Nov-2020 4617.01 5239.41 80.15 8.00  38.41 2426.59
   06:45:58.002.11-Nov-2020 4617.01 5235.27 80.15 8.00  38.61 2426.59
   06:45:58.202.11-Nov-2020 4617.01 5229.42 80.15 8.00  38.81 2426.59
   06:45:58.402.11-Nov-2020 4617.01 5232.96 80.15 8.00  39.01 2426.59
   06:45:58.602.11-Nov-2020 4617.01 5232.96 80.15 8.00  39.21 2426.59
   06:45:58.802.11-Nov-2020 4617.01 5220.13 80.15 8.00  39.41 2426.59
   06:45:59.002.11-Nov-2020 4617.01 5218.29 80.15 8.00  39.61 2426.59
   06:45:59.202.11-Nov-2020 4617.01 5202.83 80.15 8.00  39.81 2426.59
   06:45:59.402.11-Nov-2020 4617.01 5204.25 80.15 8.00  40.01 2426.59
   06:45:59.602.11-Nov-2020 4617.01 5200.17 80.15 8.00  40.21 2426.59
   06:45:59.802.11-Nov-2020 4617.01 5197.41 80.15 8.00  40.41 2426.59
   06:46:00.002.11-Nov-2020 4617.01 5196.75 80.15 8.00  40.61 2426.59
   06:46:00.202.11-Nov-2020 4617.01 5197.12 80.15 8.00  40.81 2426.59
   06:46:00.402.11-Nov-2020 4617.01 5197.76 80.14 8.00  41.01 2426.59
   06:46:00.603.11-Nov-2020 4617.01 5196.76 80.14 8.00  41.21 2426.59
   06:46:00.803.11-Nov-2020 4617.01 5196.71 80.14 8.00  41.41 2426.59
   06:46:01.003.11-Nov-2020 4617.01 5196.56 80.14 8.00  41.61 2426.59
   06:46:01.203.11-Nov-2020 4617.01 5195.97 80.14 8.00  41.81 2426.59
   06:46:01.403.11-Nov-2020 4617.01 5195.52 80.14 8.00  42.01 2426.59
   06:46:01.603.11-Nov-2020 4617.01 5195.52 80.14 8.00  42.21 2426.59
   06:46:01.803.11-Nov-2020 4617.01 5198.26 80.14 8.00  42.41 2426.59
   06:46:02.003.11-Nov-2020 4617.01 5199.50 80.14 8.00  42.61 2426.59
   06:46:02.203.11-Nov-2020 4617.01 5199.36 80.14 8.00  42.81 2426.59
   06:46:02.403.11-Nov-2020 4617.01 5198.81 80.14 8.00  43.01 2426.59
   06:46:02.603.11-Nov-2020 4617.01 5199.01 80.14 8.00  43.21 2426.59
   06:46:02.803.11-Nov-2020 4617.01 5200.31 80.14 8.00  43.41 2426.59
   06:46:03.003.11-Nov-2020 4617.01 5200.05 80.14 8.00  43.61 2426.59
   06:46:03.203.11-Nov-2020 4617.01 5199.44 80.13 8.00  43.81 2426.59
   06:46:03.403.11-Nov-2020 4617.01 5199.10 80.13 8.00  44.01 2426.59
   06:46:03.603.11-Nov-2020 4617.01 5201.76 80.13 8.00  44.21 2426.59
   06:46:03.804.11-Nov-2020 4617.01 5198.74 80.13 8.00  44.41 2426.59
   06:46:04.004.11-Nov-2020 4617.01 5198.07 80.13 8.00  44.61 2426.59
   06:46:04.204.11-Nov-2020 4617.01 5197.63 80.13 8.00  44.81 2426.59
   06:46:04.404.11-Nov-2020 4617.01 5197.00 80.13 8.00  45.01 2426.59
   06:46:04.604.11-Nov-2020 4617.01 5199.41 80.13 8.00  45.21 2426.59
   06:46:04.804.11-Nov-2020 4617.01 5277.46 80.13 8.00  45.41 2426.59
   06:46:05.004.11-Nov-2020 4617.01 5224.81 80.13 8.00  45.61 2426.59
   06:46:05.204.11-Nov-2020 4617.01 5144.26 80.13 8.00  45.81 2426.59
