~Version Information
 VERS.                  2.0:   CWLS log ASCII Standard -VERSION 2.0
 WRAP.                   NO:   One line per depth step
~Well Information Block
#MNEM.UNIT     VALUE/NAME     DESCRIPTION
#---------     -----------    ---------------------------
 STRT.S             09:21:26 08-Nov-20: START TIME 09:21:26 08-Nov-20
 STOP.S             09:27:58 08-Nov-20: STOP TIME  09:27:58 08-Nov-20
 STEP.S                   0.00: STEP TIME
 NULL.                 -999.25: NULL VALUE
 DFWT.                        :  DIST FWL TEXT
 DFST.                        :  DIST FSL TEXT
 DMF .             Drill Floor:  DRILL MEAS FROM
 STIM.      04.54.24 22-Sep-20:  START TIME
 DATE.      04.54.24 21-Nov-20:  END TIME
 SPUD.               21-Nov-20:  SPUD DATE
 NREF.                    Grid:  NORTH REFERENCE
 HPTY.       Minimum Curvature:  HOLE POS TYPE
 DMOD.             Drill Model:  DRILL MOD DESC
 SVYD.                  Survey:  SURVEY DESC
 ILTD.               Lithology:  INTERP LTH DESC
 FTOP.          Formation Tops:  FORM TOPS DESC
 SON .        AZ-XX-0906571587:  JOB NUMBER
 COMP.     BP Exploration (Caspian Sea) Ltd:  COMPANY
 UWI .                     N/A:  UNIQUE WELL IDENTIFIER
 API .                     N/A:  API NUMBER
 BASE.              Azerbaijan:  LOGGING EQUIPMENT BASE LOCATION
 REGN.                   EESSA:  REGION
 PROV.                    Baku:  PROVINCE
 STAT.                    Baku:  STATE NAME
 CTRY.              Azerbaijan:  COUNTRY NAME
 FLD .                     ACG:  FIELD NAME
 SRVC.     TURAN Drilling & Engineering:  CONTRACTOR
 WELL.                     J27:  WELL NAME
 RIG .             West Chirag:  RIG NAME
 DOE .                     N/A:  DOE NUMBER
 DCON.         Sperry Drilling:  DIRECTNL CONTR
 PDAT.          Mean Sea Level:  PERMANENT DATUM
 WTYP.                Deviated:  WELL TYPE
 MWDS.                    Baku:  MWD SHOP
 JOBN.        AZ-XX-0906571587:  JOB TICKET NUMB
 UNIT.                     N/A:  LOGGING EQUIPMENT ID
 MDS .        Operator Entered:  MAG DATA SOURCE
 CNTY.                        :  COUNTY
 LOC .                        :  LOCATION
 LMF .             Drill Floor:  LOG MEASURED FROM
 TVDS.m                  43.00:  TVDSS CORRECTN
 LATI.deg                40.13:  LATITUDE
 LONG.deg                51.22:  LONGITUDE
 WHNS.m                   7.72:  WELL HEAD N/S
 WHEW.m                 -14.24:  WELL HEAD E/W
 UTMX.m              519005.06:  UTM X
 UTMY.m             4443793.85:  UTM Y
 DFWL.m                   0.00:  DISTANCE FWL
 DFSL.m                   0.00:  DISTANCE FSL
 SDEP.m                 347.00:  START DEPTH
 TDD .m                 581.00:  TOTAL DEPTH (DRILLER)
 VSDR.deg               159.72:  VERT SEC DIRECT
 GVFD.g                   1.00:  GRAVITY FIELD
 MFLD.nT              50313.00:  MAGNETIC FIELD
 MDIP.deg                59.58:  MAGNETIC DIP
 MDEC.deg                 6.45:  MAGNETIC DECL
 GRDC.deg                 0.15:  GRID CORRECTION
 AZTC.deg                 6.30:  AZM TOTAL CORR
 EPD .m                   0.00:  ELEVATION
 EGL .m                   0.00:  GROUND ELEVATION
 WDMS.m                 169.80:  WD ELEV
 APD .m                  43.00:  DEPTH ABOVE PD
 AGAP.m                  43.00:  AIR GAP
 VSEW.m                 -14.24:  VERT SEC E/W
 VSNS.m                   7.72:  VERT SEC N/S
 DEP .m                 342.45:  DEPTH
 EKB .m                   0.00:  KB ELEVATION
 EDF .m                  43.00:  DF ELEVATION
 TDL .m                1313.00:  TOTAL DEPTH (LOGGER)
 VSC .                       0:  VS TO CLOSURE
 MAGU.                 1851396:  MAGUTM CHECKSUM
~Parameter Information Block
#MNEM.UNIT       Value        Description
#---------     -----------    ---------------------------
 AV  .mps                 0.65:  Ann Velocity 
 AVMX.mps                 0.75:  Max Ann Veloc 
 AZIF.deg               115.08:  Azm, Final 
 BHAT.        Rotary Steerable:  BHA Type 
 BROT.°/30m               1.50:  Build Rotating 
 BS  .in                 12.25:  Bit Size 
 BSZ .in                 12.25:  Bit Size 
 BTPL.psig              700.00:  Bit Press Loss 
 CABU.                     Yes:  Customer Abuse 
 COMM.                     <
V:  Run Comments 1 
 TCS .hr                121.00:  Time Ciculation Ended 
 CV  .mps                 1.83:  Crit Velocity 
 CVMX.mps                 1.83:  Max Crit Veloc 
 DD1 .          Rashad Habibov:  Direct Drillr 1 
 DD2 .         Rasim Ibrahimov:  Direct Drillr 2 
 DDSV.                 iCruise:  DD Service 
 DEFF.%                 100.00:  % Det Eff 
 DLRX.°/30m               3.60:  Dogleg Rot Max 
 DLSO.°/30m               3.10:  Dogleg Oriented 
 DLSX.°/30m               3.60:  Dogleg Str Max 
 DRET.      13.41.20 12-Nov-20:  Drill End Time 
 DRST.      13.41.20 07-Nov-20:  Drill Start Tim 
 DTIM.hr                 54.16:  Time Drilling 
 EDEP.m                4762.01:  End Depth 
 ENG1.           Amrah Tahirov:  Engineer 1 
 ENG2.      Bakhtiyar Jabbarli:  Engineer 2 
 ENG3.          Ruslan Safarov:  Engineer 3 
 ETIM.      13.41.20 14-Nov-20:  End Time 
 FLOI.gpm              1200.00:  Flow In 
 FLON.gpm              1100.00:  Flow In Min 
 FLOS.cptm                0.00:  Fluid Loss 
 FLOX.gpm              1200.00:  Flow In Max 
 HFLO.                      No:  High Flow 
 HPRE.                      No:  High Pressure 
 HTEM.                      No:  High Temp 
 HYDO.m                   2.00:  Hydro Offset 
 IFIN.deg                66.14:  Inc, Final 
 IMAX.deg                69.03:  Inc Max 
 IMIN.deg                64.64:  Inc Min 
 IMND.m                4450.16:  Inc Min Depth 
 IMXD.m                3996.00:  Inc Max Depth 
 JARR.                     Yes:  Jarring 
 LETM.      13.41.20 14-Nov-20:  Log End Time 
 LOST.hr                     0:  Lost Rig Time 
 LSTM.      13.41.20 06-Nov-20:  Log Start Time 
 MDCL.ppm             42500.00:  Mud Chlorides 
 MDES.     Inversion Oil/Synthetic:  Mud Desc 
 DFD .sg                  1.45:  Mud Density 
 MDMN.sg                  1.45:  Dens Mud Min 
 MDMX.sg                  1.45:  Dens Mud Max 
 MOIL.                      70:  Run Mud Oil % 
 MOWR.                   70:30:  Run Mud OWR 
 MSND.                       0:  Run Mud Sand % 
 MSOL.                    19.3:  Run Mud Solids% 
 DFV .spqt               77.00:  Mud Viscosity 
 MWOD.in                  8.00:  MWD Tool OD 
 MWSI.                      No:  Serv Intrp, MWD 
 OTIM.hr                201.88:  Time Operating 
 PCON.           Look Like New:  Pad Condition 
 PMAX.psia             9250.94:  Press Op, Max 
 PV  .cP                 29.00:  Mud PV 
 RUN .                     800:  Run Number 
 ROPA.m/hr               28.00:  ROP Avg 
 ROPN.m/hr               25.00:  ROP Min 
 ROPX.m/hr               30.00:  ROP Max 
 RPMA.rpm               160.00:  RPM Surface Avg 
 RPMN.rpm               160.00:  RPM Surface Min 
 RPMX.rpm               160.00:  RPM Surface Max 
 RRUN.                    0800:  Rig Run Number 
 RTIM.hr                 12.00:  Time Reaming 
 SAZI.deg               169.33:  Azm, Start 
 SDEP.m                3449.01:  Start Depth 
 SIDD.                      No:  Serv Intrp, DD 
 SINC.deg                68.01:  Inc, Start 
 SPPA.psig             4900.00:  SPP Avg 
 SPPN.psig             4800.00:  SPP Min 
 SPPX.psig             5050.00:  SPP Max 
 STIM.      13.41.20 06-Nov-20:  Start Time 
 SVCS.                 DD, MWD:  Services 
 SVER.                    9.20:  Sperry Version 
 TDAT.m                4762.01:  Tot Depth Attmp 
 TDDF.                      No:  Trip for DD 
 TDLG.m                1313.00:  Tot Depth Loggd 
 TFF .                      No:  Trip for Fail 
 TQAA.f-kp               13.00:  Torque Abs Avg 
 TQAN.f-kp               13.00:  Torque Abs Min 
 TQAX.f-kp               13.00:  Torque Abs Max 
 TRRT.°/30m               1.70:  Turn Rotating 
 MRT .                  EWR-M5:  Maximum Recorded Temperature 
 TTMX.degC               86.00:  Max Tool Temp 
 VS01.                90622122:  Virtual Str1 SN 
 VS02.                90577298:  Virtual Str2 SN 
 VS03.                90563623:  Virtual Str3 SN 
 VS04.                90617559:  Virtual Str4 SN 
 VS05.                11339492:  Virtual Str5 SN 
 VS06.                12385033:  Virtual Str6 SN 
 WBMN.klb                 0.00:  WOB Min 
 WOBA.klb                22.00:  WOB Avg 
 WOBX.klb                26.00:  WOB Max 
 YP  .lhf2               30.00:  Yield Point 
~Curve Information Block
#MNEM.UNIT                 API CODE     Curve Description
#---------               -----------    ---------------------------
 TIME.HHMMSS            00 000 000 000:  GT Time & Date
 GTDEPTH.m              00 000 000 000:  GT Depth
 GTPQH.psia             00 000 000 000:  GT HR Quartz Pressure
 GTTQ.degC              00 000 000 000:  GT Quartz Temperature
 GTTN.NONE              00 000 000 000:  GT Test Number
 GTET.sec               00 000 000 000:  GT Elapsed Test Time
 GTTVD.m                00 000 000 000:  GT True Vertical Depth
#Other Information
#
#WARRANTY: Halliburton will use its best efforts to furnish customers with 
#accurate information and interpretations that are part of, and incident to, the services 
#provided.  However, Halliburton cannot and does not warrant the accuracy 
#or correctness of such information and interpretations.  Under no circumstances should any 
#such information or interpretation be relied upon as the sole basis for any drilling, 
#completion, production, or financial decision or any procedure involving any risk to the 
#safety of any drilling venture, drilling rig or its crew or any other third party.  The 
#Customer has full responsibility for all drilling, completion and production operation.  
#Halliburton makes no representations or warranties, either expressed or 
#implied, including, but not limited to, the implied warranties of merchantability or fitness 
#for a particular purpose, with respect to the services rendered.  In no event will 
#Halliburton be liable for failure to obtain any particular results or for 
#any damages, including, but not limited to, indirect, special or consequential damages, 
#resulting from the use of any information or interpretation provided by Halliburton.
#
~A           TIME           GTDEPTH  GTPQH  GTTQ  GTTN  GTET   GTTVD  
# ...
   09:26:48.232.08-Nov-2020 3525.51 3323.38 69.86 1.00 322.05 2012.77
   09:26:48.432.08-Nov-2020 3525.51 3323.38 69.86 1.00 322.25 2012.77
   09:26:48.632.08-Nov-2020 3525.51 3323.37 69.86 1.00 322.45 2012.77
   09:26:48.832.08-Nov-2020 3525.51 3323.37 69.86 1.00 322.65 2012.77
   09:26:49.032.08-Nov-2020 3525.51 3323.36 69.86 1.00 322.85 2012.77
   09:26:49.232.08-Nov-2020 3525.51 3323.36 69.86 1.00 323.05 2012.77
   09:26:49.432.08-Nov-2020 3525.51 3323.36 69.86 1.00 323.25 2012.77
   09:26:49.632.08-Nov-2020 3525.51 3323.38 69.86 1.00 323.45 2012.77
   09:26:49.832.08-Nov-2020 3525.51 3323.38 69.86 1.00 323.65 2012.77
   09:26:50.032.08-Nov-2020 3525.51 3323.32 69.86 1.00 323.85 2012.77
   09:26:50.232.08-Nov-2020 3525.51 3323.41 69.85 1.00 324.05 2012.77
   09:26:50.432.08-Nov-2020 3525.51 3323.41 69.85 1.00 324.25 2012.77
   09:26:50.632.08-Nov-2020 3525.51 3323.38 69.85 1.00 324.45 2012.77
   09:26:50.833.08-Nov-2020 3525.51 3323.39 69.85 1.00 324.65 2012.77
   09:26:51.033.08-Nov-2020 3525.51 3323.38 69.85 1.00 324.85 2012.77
   09:26:51.233.08-Nov-2020 3525.51 3323.32 69.85 1.00 325.06 2012.77
   09:26:51.433.08-Nov-2020 3525.51 3323.32 69.85 1.00 325.26 2012.77
   09:26:51.633.08-Nov-2020 3525.51 3323.39 69.85 1.00 325.46 2012.77
   09:26:51.833.08-Nov-2020 3525.51 3323.38 69.85 1.00 325.66 2012.77
   09:26:52.033.08-Nov-2020 3525.51 3323.40 69.85 1.00 325.86 2012.77
   09:26:52.233.08-Nov-2020 3525.51 3323.33 69.85 1.00 326.06 2012.77
   09:26:52.433.08-Nov-2020 3525.51 3323.33 69.85 1.00 326.26 2012.77
   09:26:52.633.08-Nov-2020 3525.51 3323.40 69.85 1.00 326.46 2012.77
   09:26:52.833.08-Nov-2020 3525.51 3323.39 69.85 1.00 326.66 2012.77
   09:26:53.033.08-Nov-2020 3525.51 3323.33 69.85 1.00 326.86 2012.77
   09:26:53.233.08-Nov-2020 3525.51 3323.40 69.85 1.00 327.06 2012.77
   09:26:53.433.08-Nov-2020 3525.51 3323.40 69.85 1.00 327.26 2012.77
   09:26:53.633.08-Nov-2020 3525.51 3323.39 69.85 1.00 327.46 2012.77
   09:26:53.833.08-Nov-2020 3525.51 3323.40 69.85 1.00 327.66 2012.77
   09:26:54.033.08-Nov-2020 3525.51 3323.38 69.85 1.00 327.86 2012.77
   09:26:54.233.08-Nov-2020 3525.51 3323.37 69.85 1.00 328.06 2012.77
   09:26:54.433.08-Nov-2020 3525.51 3323.37 69.85 1.00 328.26 2012.77
   09:26:54.633.08-Nov-2020 3525.51 3323.36 69.84 1.00 328.46 2012.77
   09:26:54.833.08-Nov-2020 3525.51 3323.38 69.84 1.00 328.66 2012.77
   09:26:55.033.08-Nov-2020 3525.51 3323.38 69.84 1.00 328.86 2012.77
   09:26:55.233.08-Nov-2020 3525.51 3323.36 69.84 1.00 329.06 2012.77
   09:26:55.433.08-Nov-2020 3525.51 3323.36 69.84 1.00 329.26 2012.77
   09:26:55.633.08-Nov-2020 3525.51 3323.36 69.84 1.00 329.46 2012.77
   09:26:55.833.08-Nov-2020 3525.51 3323.31 69.84 1.00 329.66 2012.77
   09:26:56.033.08-Nov-2020 3525.51 3323.40 69.84 1.00 329.86 2012.77
   09:26:56.233.08-Nov-2020 3525.51 3323.38 69.84 1.00 330.06 2012.77
   09:26:56.433.08-Nov-2020 3525.51 3323.38 69.84 1.00 330.26 2012.77
   09:26:56.633.08-Nov-2020 3525.51 3323.40 69.84 1.00 330.46 2012.77
   09:26:56.834.08-Nov-2020 3525.51 3323.37 69.84 1.00 330.66 2012.77
   09:26:57.034.08-Nov-2020 3525.51 3323.37 69.84 1.00 330.86 2012.77
   09:26:57.234.08-Nov-2020 3525.51 3323.37 69.84 1.00 331.06 2012.77
   09:26:57.434.08-Nov-2020 3525.51 3323.37 69.84 1.00 331.26 2012.77
   09:26:57.634.08-Nov-2020 3525.51 3323.38 69.84 1.00 331.46 2012.77
   09:26:57.834.08-Nov-2020 3525.51 3323.37 69.84 1.00 331.66 2012.77
   09:26:58.034.08-Nov-2020 3525.51 3323.36 69.84 1.00 331.86 2012.77
   09:26:58.234.08-Nov-2020 3525.51 3323.36 69.84 1.00 332.06 2012.77
   09:26:58.434.08-Nov-2020 3525.51 3323.36 69.84 1.00 332.26 2012.77
   09:26:58.634.08-Nov-2020 3525.51 3323.39 69.84 1.00 332.46 2012.77
   09:26:58.834.08-Nov-2020 3525.51 3323.39 69.83 1.00 332.66 2012.77
   09:26:59.034.08-Nov-2020 3525.51 3323.34 69.83 1.00 332.86 2012.77
   09:26:59.234.08-Nov-2020 3525.51 3323.38 69.83 1.00 333.06 2012.77
   09:26:59.434.08-Nov-2020 3525.51 3323.38 69.83 1.00 333.26 2012.77
   09:26:59.634.08-Nov-2020 3525.51 3323.39 69.83 1.00 333.46 2012.77
   09:26:59.834.08-Nov-2020 3525.51 3323.40 69.83 1.00 333.66 2012.77
   09:27:00.034.08-Nov-2020 3525.51 3323.33 69.83 1.00 333.86 2012.77
   09:27:00.234.08-Nov-2020 3525.51 3323.41 69.83 1.00 334.06 2012.77
   09:27:00.434.08-Nov-2020 3525.51 3323.41 69.83 1.00 334.26 2012.77
   09:27:00.634.08-Nov-2020 3525.51 3323.39 69.83 1.00 334.46 2012.77
   09:27:00.834.08-Nov-2020 3525.51 3323.41 69.83 1.00 334.66 2012.77
   09:27:01.034.08-Nov-2020 3525.51 3323.33 69.83 1.00 334.86 2012.77
   09:27:01.234.08-Nov-2020 3525.51 3323.37 69.83 1.00 335.06 2012.77
   09:27:01.434.08-Nov-2020 3525.51 3323.37 69.83 1.00 335.26 2012.77
   09:27:01.634.08-Nov-2020 3525.51 3323.39 69.83 1.00 335.46 2012.77
   09:27:01.834.08-Nov-2020 3525.51 3323.40 69.83 1.00 335.66 2012.77
   09:27:02.034.08-Nov-2020 3525.51 3323.31 69.83 1.00 335.86 2012.77
   09:27:02.234.08-Nov-2020 3525.51 3323.39 69.83 1.00 336.06 2012.77
   09:27:02.434.08-Nov-2020 3525.51 3323.39 69.83 1.00 336.26 2012.77
   09:27:02.635.08-Nov-2020 3525.51 3323.39 69.83 1.00 336.46 2012.77
   09:27:02.835.08-Nov-2020 3525.51 3323.41 69.83 1.00 336.66 2012.77
   09:27:03.035.08-Nov-2020 3525.51 3323.40 69.82 1.00 336.86 2012.77
   09:27:03.235.08-Nov-2020 3525.51 3323.39 69.82 1.00 337.06 2012.77
   09:27:03.435.08-Nov-2020 3525.51 3323.39 69.82 1.00 337.26 2012.77
   09:27:03.635.08-Nov-2020 3525.51 3323.40 69.82 1.00 337.46 2012.77
   09:27:03.835.08-Nov-2020 3525.51 3323.39 69.82 1.00 337.66 2012.77
   09:27:04.035.08-Nov-2020 3525.51 3323.39 69.82 1.00 337.86 2012.77
   09:27:04.235.08-Nov-2020 3525.51 3323.39 69.82 1.00 338.06 2012.77
   09:27:04.435.08-Nov-2020 3525.51 3323.39 69.82 1.00 338.26 2012.77
   09:27:04.635.08-Nov-2020 3525.51 3323.38 69.82 1.00 338.46 2012.77
   09:27:04.835.08-Nov-2020 3525.51 3323.32 69.82 1.00 338.66 2012.77
   09:27:05.035.08-Nov-2020 3525.51 3323.40 69.82 1.00 338.86 2012.77
   09:27:05.235.08-Nov-2020 3525.51 3323.39 69.82 1.00 339.06 2012.77
   09:27:05.435.08-Nov-2020 3525.51 3323.39 69.82 1.00 339.26 2012.77
   09:27:05.635.08-Nov-2020 3525.51 3323.39 69.82 1.00 339.46 2012.77
   09:27:05.835.08-Nov-2020 3525.51 3323.39 69.82 1.00 339.66 2012.77
   09:27:06.035.08-Nov-2020 3525.51 3323.38 69.82 1.00 339.86 2012.77
   09:27:06.235.08-Nov-2020 3525.51 3323.37 69.82 1.00 340.06 2012.77
   09:27:06.435.08-Nov-2020 3525.51 3323.37 69.82 1.00 340.26 2012.77
   09:27:06.635.08-Nov-2020 3525.51 3323.39 69.82 1.00 340.46 2012.77
   09:27:06.835.08-Nov-2020 3525.51 3323.38 69.82 1.00 340.66 2012.77
   09:27:07.035.08-Nov-2020 3525.51 3323.38 69.81 1.00 340.86 2012.77
   09:27:07.235.08-Nov-2020 3525.51 3323.33 69.81 1.00 341.06 2012.77
   09:27:07.435.08-Nov-2020 3525.51 3323.35 69.81 1.00 341.26 2012.77
   09:27:07.635.08-Nov-2020 3525.51 3323.38 69.81 1.00 341.46 2012.77
   09:27:07.835.08-Nov-2020 3525.51 3323.33 69.81 1.00 341.66 2012.77
   09:27:08.035.08-Nov-2020 3525.51 3323.39 69.81 1.00 341.86 2012.77
   09:27:08.235.08-Nov-2020 3525.51 3323.39 69.81 1.00 342.06 2012.77
   09:27:08.435.08-Nov-2020 3525.51 3323.39 69.81 1.00 342.26 2012.77
   09:27:08.636.08-Nov-2020 3525.51 3323.42 69.81 1.00 342.46 2012.77
   09:27:08.836.08-Nov-2020 3525.51 3323.39 69.81 1.00 342.66 2012.77
   09:27:09.036.08-Nov-2020 3525.51 3323.32 69.81 1.00 342.86 2012.77
   09:27:09.236.08-Nov-2020 3525.51 3323.40 69.81 1.00 343.06 2012.77
   09:27:09.436.08-Nov-2020 3525.51 3323.40 69.81 1.00 343.26 2012.77
   09:27:09.636.08-Nov-2020 3525.51 3323.41 69.81 1.00 343.46 2012.77
   09:27:09.836.08-Nov-2020 3525.51 3323.41 69.81 1.00 343.66 2012.77
   09:27:10.036.08-Nov-2020 3525.51 3323.34 69.81 1.00 343.86 2012.77
   09:27:10.236.08-Nov-2020 3525.51 3323.38 69.81 1.00 344.06 2012.77
   09:27:10.436.08-Nov-2020 3525.51 3323.42 69.81 1.00 344.26 2012.77
   09:27:10.636.08-Nov-2020 3525.51 3323.42 69.81 1.00 344.46 2012.77
   09:27:10.836.08-Nov-2020 3525.51 3323.36 69.81 1.00 344.66 2012.77
   09:27:11.036.08-Nov-2020 3525.51 3323.40 69.81 1.00 344.86 2012.77
