~Version Information
 VERS.                  2.0:   CWLS log ASCII Standard -VERSION 2.0
 WRAP.                   NO:   One line per depth step
~Well Information Block
#MNEM.UNIT     VALUE/NAME     DESCRIPTION
#---------     -----------    ---------------------------
 STRT.S             18:53:27 10-Nov-20: START TIME 18:53:27 10-Nov-20
 STOP.S             19:00:00 10-Nov-20: STOP TIME  19:00:00 10-Nov-20
 STEP.S                   0.00: STEP TIME
 NULL.                 -999.25: NULL VALUE
 DFWT.                        :  DIST FWL TEXT
 DFST.                        :  DIST FSL TEXT
 DMF .             Drill Floor:  DRILL MEAS FROM
 STIM.      04.54.24 22-Sep-20:  START TIME
 DATE.      04.54.24 21-Nov-20:  END TIME
 SPUD.               21-Nov-20:  SPUD DATE
 NREF.                    Grid:  NORTH REFERENCE
 HPTY.       Minimum Curvature:  HOLE POS TYPE
 DMOD.             Drill Model:  DRILL MOD DESC
 SVYD.                  Survey:  SURVEY DESC
 ILTD.               Lithology:  INTERP LTH DESC
 FTOP.          Formation Tops:  FORM TOPS DESC
 SON .        AZ-XX-0906571587:  JOB NUMBER
 COMP.     BP Exploration (Caspian Sea) Ltd:  COMPANY
 UWI .                     N/A:  UNIQUE WELL IDENTIFIER
 API .                     N/A:  API NUMBER
 BASE.              Azerbaijan:  LOGGING EQUIPMENT BASE LOCATION
 REGN.                   EESSA:  REGION
 PROV.                    Baku:  PROVINCE
 STAT.                    Baku:  STATE NAME
 CTRY.              Azerbaijan:  COUNTRY NAME
 FLD .                     ACG:  FIELD NAME
 SRVC.     TURAN Drilling & Engineering:  CONTRACTOR
 WELL.                     J27:  WELL NAME
 RIG .             West Chirag:  RIG NAME
 DOE .                     N/A:  DOE NUMBER
 DCON.         Sperry Drilling:  DIRECTNL CONTR
 PDAT.          Mean Sea Level:  PERMANENT DATUM
 WTYP.                Deviated:  WELL TYPE
 MWDS.                    Baku:  MWD SHOP
 JOBN.        AZ-XX-0906571587:  JOB TICKET NUMB
 UNIT.                     N/A:  LOGGING EQUIPMENT ID
 MDS .        Operator Entered:  MAG DATA SOURCE
 CNTY.                        :  COUNTY
 LOC .                        :  LOCATION
 LMF .             Drill Floor:  LOG MEASURED FROM
 TVDS.m                  43.00:  TVDSS CORRECTN
 LATI.deg                40.13:  LATITUDE
 LONG.deg                51.22:  LONGITUDE
 WHNS.m                   7.72:  WELL HEAD N/S
 WHEW.m                 -14.24:  WELL HEAD E/W
 UTMX.m              519005.06:  UTM X
 UTMY.m             4443793.85:  UTM Y
 DFWL.m                   0.00:  DISTANCE FWL
 DFSL.m                   0.00:  DISTANCE FSL
 SDEP.m                 347.00:  START DEPTH
 TDD .m                 581.00:  TOTAL DEPTH (DRILLER)
 VSDR.deg               159.72:  VERT SEC DIRECT
 GVFD.g                   1.00:  GRAVITY FIELD
 MFLD.nT              50313.00:  MAGNETIC FIELD
 MDIP.deg                59.58:  MAGNETIC DIP
 MDEC.deg                 6.45:  MAGNETIC DECL
 GRDC.deg                 0.15:  GRID CORRECTION
 AZTC.deg                 6.30:  AZM TOTAL CORR
 EPD .m                   0.00:  ELEVATION
 EGL .m                   0.00:  GROUND ELEVATION
 WDMS.m                 169.80:  WD ELEV
 APD .m                  43.00:  DEPTH ABOVE PD
 AGAP.m                  43.00:  AIR GAP
 VSEW.m                 -14.24:  VERT SEC E/W
 VSNS.m                   7.72:  VERT SEC N/S
 DEP .m                 342.45:  DEPTH
 EKB .m                   0.00:  KB ELEVATION
 EDF .m                  43.00:  DF ELEVATION
 TDL .m                1313.00:  TOTAL DEPTH (LOGGER)
 VSC .                       0:  VS TO CLOSURE
 MAGU.                 1851396:  MAGUTM CHECKSUM
~Parameter Information Block
#MNEM.UNIT       Value        Description
#---------     -----------    ---------------------------
 AV  .mps                 0.65:  Ann Velocity 
 AVMX.mps                 0.75:  Max Ann Veloc 
 AZIF.deg               115.08:  Azm, Final 
 BHAT.        Rotary Steerable:  BHA Type 
 BROT.°/30m               1.50:  Build Rotating 
 BS  .in                 12.25:  Bit Size 
 BSZ .in                 12.25:  Bit Size 
 BTPL.psig              700.00:  Bit Press Loss 
 CABU.                     Yes:  Customer Abuse 
 COMM.                     ”Ú:  Run Comments 1 
 TCS .hr                121.00:  Time Ciculation Ended 
 CV  .mps                 1.83:  Crit Velocity 
 CVMX.mps                 1.83:  Max Crit Veloc 
 DD1 .          Rashad Habibov:  Direct Drillr 1 
 DD2 .         Rasim Ibrahimov:  Direct Drillr 2 
 DDSV.                 iCruise:  DD Service 
 DEFF.%                 100.00:  % Det Eff 
 DLRX.°/30m               3.60:  Dogleg Rot Max 
 DLSO.°/30m               3.10:  Dogleg Oriented 
 DLSX.°/30m               3.60:  Dogleg Str Max 
 DRET.      13.41.20 12-Nov-20:  Drill End Time 
 DRST.      13.41.20 07-Nov-20:  Drill Start Tim 
 DTIM.hr                 54.16:  Time Drilling 
 EDEP.m                4762.01:  End Depth 
 ENG1.           Amrah Tahirov:  Engineer 1 
 ENG2.      Bakhtiyar Jabbarli:  Engineer 2 
 ENG3.          Ruslan Safarov:  Engineer 3 
 ETIM.      13.41.20 14-Nov-20:  End Time 
 FLOI.gpm              1200.00:  Flow In 
 FLON.gpm              1100.00:  Flow In Min 
 FLOS.cptm                0.00:  Fluid Loss 
 FLOX.gpm              1200.00:  Flow In Max 
 HFLO.                      No:  High Flow 
 HPRE.                      No:  High Pressure 
 HTEM.                      No:  High Temp 
 HYDO.m                   2.00:  Hydro Offset 
 IFIN.deg                66.14:  Inc, Final 
 IMAX.deg                69.03:  Inc Max 
 IMIN.deg                64.64:  Inc Min 
 IMND.m                4450.16:  Inc Min Depth 
 IMXD.m                3996.00:  Inc Max Depth 
 JARR.                     Yes:  Jarring 
 LETM.      13.41.20 14-Nov-20:  Log End Time 
 LOST.hr                     0:  Lost Rig Time 
 LSTM.      13.41.20 06-Nov-20:  Log Start Time 
 MDCL.ppm             42500.00:  Mud Chlorides 
 MDES.     Inversion Oil/Synthetic:  Mud Desc 
 DFD .sg                  1.45:  Mud Density 
 MDMN.sg                  1.45:  Dens Mud Min 
 MDMX.sg                  1.45:  Dens Mud Max 
 MOIL.                      70:  Run Mud Oil % 
 MOWR.                   70:30:  Run Mud OWR 
 MSND.                       0:  Run Mud Sand % 
 MSOL.                    19.3:  Run Mud Solids% 
 DFV .spqt               77.00:  Mud Viscosity 
 MWOD.in                  8.00:  MWD Tool OD 
 MWSI.                      No:  Serv Intrp, MWD 
 OTIM.hr                201.88:  Time Operating 
 PCON.           Look Like New:  Pad Condition 
 PMAX.psia             9250.94:  Press Op, Max 
 PV  .cP                 29.00:  Mud PV 
 RUN .                     800:  Run Number 
 ROPA.m/hr               28.00:  ROP Avg 
 ROPN.m/hr               25.00:  ROP Min 
 ROPX.m/hr               30.00:  ROP Max 
 RPMA.rpm               160.00:  RPM Surface Avg 
 RPMN.rpm               160.00:  RPM Surface Min 
 RPMX.rpm               160.00:  RPM Surface Max 
 RRUN.                    0800:  Rig Run Number 
 RTIM.hr                 12.00:  Time Reaming 
 SAZI.deg               169.33:  Azm, Start 
 SDEP.m                3449.01:  Start Depth 
 SIDD.                      No:  Serv Intrp, DD 
 SINC.deg                68.01:  Inc, Start 
 SPPA.psig             4900.00:  SPP Avg 
 SPPN.psig             4800.00:  SPP Min 
 SPPX.psig             5050.00:  SPP Max 
 STIM.      13.41.20 06-Nov-20:  Start Time 
 SVCS.                 DD, MWD:  Services 
 SVER.                    9.20:  Sperry Version 
 TDAT.m                4762.01:  Tot Depth Attmp 
 TDDF.                      No:  Trip for DD 
 TDLG.m                1313.00:  Tot Depth Loggd 
 TFF .                      No:  Trip for Fail 
 TQAA.f-kp               13.00:  Torque Abs Avg 
 TQAN.f-kp               13.00:  Torque Abs Min 
 TQAX.f-kp               13.00:  Torque Abs Max 
 TRRT.°/30m               1.70:  Turn Rotating 
 MRT .                  EWR-M5:  Maximum Recorded Temperature 
 TTMX.degC               86.00:  Max Tool Temp 
 VS01.                90622122:  Virtual Str1 SN 
 VS02.                90577298:  Virtual Str2 SN 
 VS03.                90563623:  Virtual Str3 SN 
 VS04.                90617559:  Virtual Str4 SN 
 VS05.                11339492:  Virtual Str5 SN 
 VS06.                12385033:  Virtual Str6 SN 
 WBMN.klb                 0.00:  WOB Min 
 WOBA.klb                22.00:  WOB Avg 
 WOBX.klb                26.00:  WOB Max 
 YP  .lhf2               30.00:  Yield Point 
~Curve Information Block
#MNEM.UNIT                 API CODE     Curve Description
#---------               -----------    ---------------------------
 TIME.HHMMSS            00 000 000 000:  GT Time & Date
 GTDEPTH.m              00 000 000 000:  GT Depth
 GTPQH.psia             00 000 000 000:  GT HR Quartz Pressure
 GTTQ.degC              00 000 000 000:  GT Quartz Temperature
 GTTN.NONE              00 000 000 000:  GT Test Number
 GTET.sec               00 000 000 000:  GT Elapsed Test Time
 GTTVD.m                00 000 000 000:  GT True Vertical Depth
#Other Information
#
#WARRANTY: Halliburton will use its best efforts to furnish customers with 
#accurate information and interpretations that are part of, and incident to, the services 
#provided.  However, Halliburton cannot and does not warrant the accuracy 
#or correctness of such information and interpretations.  Under no circumstances should any 
#such information or interpretation be relied upon as the sole basis for any drilling, 
#completion, production, or financial decision or any procedure involving any risk to the 
#safety of any drilling venture, drilling rig or its crew or any other third party.  The 
#Customer has full responsibility for all drilling, completion and production operation.  
#Halliburton makes no representations or warranties, either expressed or 
#implied, including, but not limited to, the implied warranties of merchantability or fitness 
#for a particular purpose, with respect to the services rendered.  In no event will 
#Halliburton be liable for failure to obtain any particular results or for 
#any damages, including, but not limited to, indirect, special or consequential damages, 
#resulting from the use of any information or interpretation provided by Halliburton.
#
~A           TIME           GTDEPTH  GTPQH  GTTQ  GTTN  GTET   GTTVD  
# ...
   18:59:35.598.10-Nov-2020 4475.51 5002.32 79.83 5.00 368.10 2369.25
   18:59:35.798.10-Nov-2020 4475.51 5002.32 79.83 5.00 368.30 2369.25
   18:59:35.998.10-Nov-2020 4475.51 5000.54 79.83 5.00 368.50 2369.25
   18:59:36.198.10-Nov-2020 4475.51 5004.48 79.83 5.00 368.70 2369.25
   18:59:36.398.10-Nov-2020 4475.51 5001.95 79.83 5.00 368.90 2369.25
   18:59:36.598.10-Nov-2020 4475.51 4999.71 79.83 5.00 369.10 2369.25
   18:59:36.798.10-Nov-2020 4475.51 4999.71 79.83 5.00 369.30 2369.25
   18:59:36.998.10-Nov-2020 4475.51 5001.04 79.83 5.00 369.50 2369.25
   18:59:37.198.10-Nov-2020 4475.51 5000.19 79.83 5.00 369.70 2369.25
   18:59:37.398.10-Nov-2020 4475.51 5000.14 79.83 5.00 369.90 2369.25
   18:59:37.598.10-Nov-2020 4475.51 4999.74 79.83 5.00 370.10 2369.25
   18:59:37.798.10-Nov-2020 4475.51 4999.74 79.83 5.00 370.30 2369.25
   18:59:37.998.10-Nov-2020 4475.51 5002.27 79.83 5.00 370.50 2369.25
   18:59:38.198.10-Nov-2020 4475.51 5001.44 79.83 5.00 370.70 2369.25
   18:59:38.398.10-Nov-2020 4475.51 5001.81 79.83 5.00 370.90 2369.25
   18:59:38.599.10-Nov-2020 4475.51 5003.00 79.83 5.00 371.10 2369.25
   18:59:38.799.10-Nov-2020 4475.51 5003.00 79.83 5.00 371.30 2369.25
   18:59:38.999.10-Nov-2020 4475.51 5006.56 79.83 5.00 371.50 2369.25
   18:59:39.199.10-Nov-2020 4475.51 5001.76 79.83 5.00 371.70 2369.25
   18:59:39.399.10-Nov-2020 4475.51 5001.37 79.83 5.00 371.90 2369.25
   18:59:39.599.10-Nov-2020 4475.51 5001.47 79.83 5.00 372.10 2369.25
   18:59:39.799.10-Nov-2020 4475.51 5001.47 79.83 5.00 372.30 2369.25
   18:59:39.999.10-Nov-2020 4475.51 5001.02 79.83 5.00 372.50 2369.25
   18:59:40.199.10-Nov-2020 4475.51 5000.00 79.83 5.00 372.70 2369.25
   18:59:40.399.10-Nov-2020 4475.51 5000.35 79.83 5.00 372.90 2369.25
   18:59:40.599.10-Nov-2020 4475.51 5000.72 79.83 5.00 373.10 2369.25
   18:59:40.799.10-Nov-2020 4475.51 5000.72 79.83 5.00 373.30 2369.25
   18:59:40.999.10-Nov-2020 4475.51 5001.30 79.83 5.00 373.50 2369.25
   18:59:41.199.10-Nov-2020 4475.51 5001.47 79.83 5.00 373.70 2369.25
   18:59:41.399.10-Nov-2020 4475.51 5002.74 79.82 5.00 373.90 2369.25
   18:59:41.599.10-Nov-2020 4475.51 5006.12 79.82 5.00 374.10 2369.25
   18:59:41.799.10-Nov-2020 4475.51 5006.12 79.82 5.00 374.30 2369.25
   18:59:41.999.10-Nov-2020 4475.51 5001.78 79.82 5.00 374.50 2369.25
   18:59:42.200.10-Nov-2020 4475.51 5005.91 79.82 5.00 374.70 2369.25
   18:59:42.400.10-Nov-2020 4475.51 5001.73 79.82 5.00 374.90 2369.25
   18:59:42.600.10-Nov-2020 4475.51 4999.85 79.82 5.00 375.10 2369.25
   18:59:42.800.10-Nov-2020 4475.51 4999.85 79.82 5.00 375.30 2369.25
   18:59:43.000.10-Nov-2020 4475.51 5000.64 79.82 5.00 375.50 2369.25
   18:59:43.200.10-Nov-2020 4475.51 5004.14 79.82 5.00 375.70 2369.25
   18:59:43.400.10-Nov-2020 4475.51 5000.09 79.82 5.00 375.90 2369.25
   18:59:43.600.10-Nov-2020 4475.51 4999.48 79.82 5.00 376.10 2369.25
   18:59:43.800.10-Nov-2020 4475.51 5000.75 79.82 5.00 376.30 2369.25
   18:59:44.000.10-Nov-2020 4475.51 5002.14 79.82 5.00 376.50 2369.25
   18:59:44.200.10-Nov-2020 4475.51 5002.99 79.82 5.00 376.70 2369.25
   18:59:44.400.10-Nov-2020 4475.51 5004.31 79.82 5.00 376.90 2369.25
   18:59:44.600.10-Nov-2020 4475.51 5001.46 79.82 5.00 377.10 2369.25
   18:59:44.800.10-Nov-2020 4475.51 5001.46 79.82 5.00 377.30 2369.25
   18:59:45.000.10-Nov-2020 4475.51 4999.94 79.82 5.00 377.50 2369.25
   18:59:45.200.10-Nov-2020 4475.51 5004.63 79.82 5.00 377.70 2369.25
   18:59:45.400.10-Nov-2020 4475.51 5000.49 79.82 5.00 377.90 2369.25
   18:59:45.600.10-Nov-2020 4475.51 5000.36 79.82 5.00 378.10 2369.25
   18:59:45.801.10-Nov-2020 4475.51 5000.36 79.82 5.00 378.30 2369.25
   18:59:46.001.10-Nov-2020 4475.51 5000.01 79.82 5.00 378.50 2369.25
   18:59:46.201.10-Nov-2020 4475.51 5000.68 79.81 5.00 378.70 2369.25
   18:59:46.401.10-Nov-2020 4475.51 5000.98 79.81 5.00 378.91 2369.25
   18:59:46.601.10-Nov-2020 4475.51 5002.23 79.81 5.00 379.11 2369.25
   18:59:46.801.10-Nov-2020 4475.51 5002.23 79.81 5.00 379.31 2369.25
   18:59:47.001.10-Nov-2020 4475.51 5002.15 79.81 5.00 379.51 2369.25
   18:59:47.201.10-Nov-2020 4475.51 5001.73 79.81 5.00 379.71 2369.25
   18:59:47.401.10-Nov-2020 4475.51 5001.67 79.81 5.00 379.91 2369.25
   18:59:47.601.10-Nov-2020 4475.51 5002.57 79.81 5.00 380.11 2369.25
   18:59:47.801.10-Nov-2020 4475.51 5002.57 79.81 5.00 380.31 2369.25
   18:59:48.001.10-Nov-2020 4475.51 5006.17 79.81 5.00 380.51 2369.25
   18:59:48.201.10-Nov-2020 4475.51 5002.10 79.81 5.00 380.71 2369.25
   18:59:48.401.10-Nov-2020 4475.51 5000.33 79.81 5.00 380.91 2369.25
   18:59:48.601.10-Nov-2020 4475.51 5000.03 79.81 5.00 381.11 2369.25
   18:59:48.801.10-Nov-2020 4475.51 5000.03 79.81 5.00 381.31 2369.25
   18:59:49.001.10-Nov-2020 4475.51 5000.69 79.81 5.00 381.51 2369.25
   18:59:49.201.10-Nov-2020 4475.51 5001.12 79.81 5.00 381.71 2369.25
   18:59:49.402.10-Nov-2020 4475.51 5001.36 79.81 5.00 381.91 2369.25
   18:59:49.602.10-Nov-2020 4475.51 5001.48 79.81 5.00 382.11 2369.25
   18:59:49.802.10-Nov-2020 4475.51 5001.48 79.81 5.00 382.31 2369.25
   18:59:50.002.10-Nov-2020 4475.51 5001.66 79.81 5.00 382.51 2369.25
   18:59:50.202.10-Nov-2020 4475.51 5001.91 79.80 5.00 382.71 2369.25
   18:59:50.402.10-Nov-2020 4475.51 5002.72 79.80 5.00 382.91 2369.25
   18:59:50.602.10-Nov-2020 4475.51 5007.05 79.80 5.00 383.11 2369.25
   18:59:50.802.10-Nov-2020 4475.51 5007.05 79.80 5.00 383.31 2369.25
   18:59:51.002.10-Nov-2020 4475.51 5001.94 79.80 5.00 383.51 2369.25
   18:59:51.202.10-Nov-2020 4475.51 5003.85 79.80 5.00 383.71 2369.25
   18:59:51.402.10-Nov-2020 4475.51 5000.12 79.80 5.00 383.91 2369.25
   18:59:51.602.10-Nov-2020 4475.51 4999.27 79.80 5.00 384.11 2369.25
   18:59:51.802.10-Nov-2020 4475.51 4999.27 79.80 5.00 384.31 2369.25
   18:59:52.002.10-Nov-2020 4475.51 4999.89 79.80 5.00 384.51 2369.25
   18:59:52.202.10-Nov-2020 4475.51 5005.40 79.80 5.00 384.71 2369.25
   18:59:52.402.10-Nov-2020 4475.51 5000.74 79.80 5.00 384.91 2369.25
   18:59:52.602.10-Nov-2020 4475.51 5005.81 79.80 5.00 385.11 2369.25
   18:59:52.802.10-Nov-2020 4475.51 5005.81 79.80 5.00 385.31 2369.25
   18:59:53.003.10-Nov-2020 4475.51 5002.21 79.80 5.00 385.51 2369.25
   18:59:53.203.10-Nov-2020 4475.51 5000.72 79.80 5.00 385.71 2369.25
   18:59:53.403.10-Nov-2020 4475.51 5006.03 79.80 5.00 385.91 2369.25
   18:59:53.603.10-Nov-2020 4475.51 5002.52 79.80 5.00 386.11 2369.25
   18:59:53.803.10-Nov-2020 4475.51 5002.52 79.80 5.00 386.31 2369.25
   18:59:54.003.10-Nov-2020 4475.51 4999.93 79.79 5.00 386.51 2369.25
   18:59:54.203.10-Nov-2020 4475.51 4999.39 79.79 5.00 386.71 2369.25
   18:59:54.403.10-Nov-2020 4475.51 5001.24 79.79 5.00 386.91 2369.25
   18:59:54.603.10-Nov-2020 4475.51 5001.18 79.79 5.00 387.11 2369.25
   18:59:54.803.10-Nov-2020 4475.51 5001.18 79.79 5.00 387.31 2369.25
   18:59:55.003.10-Nov-2020 4475.51 5001.26 79.79 5.00 387.51 2369.25
   18:59:55.203.10-Nov-2020 4475.51 5001.40 79.79 5.00 387.71 2369.25
   18:59:55.403.10-Nov-2020 4475.51 5001.41 79.79 5.00 387.91 2369.25
   18:59:55.603.10-Nov-2020 4475.51 5001.25 79.79 5.00 388.11 2369.25
   18:59:55.803.10-Nov-2020 4475.51 5001.25 79.79 5.00 388.31 2369.25
   18:59:56.003.10-Nov-2020 4475.51 5002.56 79.79 5.00 388.51 2369.25
   18:59:56.203.10-Nov-2020 4475.51 5006.43 79.79 5.00 388.71 2369.25
   18:59:56.403.10-Nov-2020 4475.51 5001.62 79.79 5.00 388.91 2369.25
   18:59:56.604.10-Nov-2020 4475.51 5000.90 79.79 5.00 389.11 2369.25
   18:59:56.804.10-Nov-2020 4475.51 5000.90 79.79 5.00 389.31 2369.25
   18:59:57.004.10-Nov-2020 4475.51 5001.41 79.79 5.00 389.51 2369.25
   18:59:57.204.10-Nov-2020 4475.51 5001.94 79.79 5.00 389.71 2369.25
   18:59:57.404.10-Nov-2020 4475.51 5000.90 79.78 5.00 389.91 2369.25
   18:59:57.604.10-Nov-2020 4475.51 5000.62 79.78 5.00 390.11 2369.25
   18:59:57.804.10-Nov-2020 4475.51 5000.62 79.78 5.00 390.31 2369.25
   18:59:58.004.10-Nov-2020 4475.51 5000.60 79.78 5.00 390.51 2369.25
   18:59:58.204.10-Nov-2020 4475.51 5001.13 79.78 5.00 390.71 2369.25
   18:59:58.404.10-Nov-2020 4475.51 5001.51 79.78 5.00 390.91 2369.25
