~Version Information
 VERS.                  2.0:   CWLS log ASCII Standard -VERSION 2.0
 WRAP.                   NO:   One line per depth step
~Well Information Block
#MNEM.UNIT     VALUE/NAME     DESCRIPTION
#---------     -----------    ---------------------------
 STRT.S             09:21:26 08-Nov-20: START TIME 09:21:26 08-Nov-20
 STOP.S             09:27:58 08-Nov-20: STOP TIME  09:27:58 08-Nov-20
 STEP.S                   0.00: STEP TIME
 NULL.                 -999.25: NULL VALUE
 DFWT.                        :  DIST FWL TEXT
 DFST.                        :  DIST FSL TEXT
 DMF .             Drill Floor:  DRILL MEAS FROM
 STIM.      04.54.24 22-Sep-20:  START TIME
 DATE.      04.54.24 21-Nov-20:  END TIME
 SPUD.               21-Nov-20:  SPUD DATE
 NREF.                    Grid:  NORTH REFERENCE
 HPTY.       Minimum Curvature:  HOLE POS TYPE
 DMOD.             Drill Model:  DRILL MOD DESC
 SVYD.                  Survey:  SURVEY DESC
 ILTD.               Lithology:  INTERP LTH DESC
 FTOP.          Formation Tops:  FORM TOPS DESC
 SON .        AZ-XX-0906571587:  JOB NUMBER
 COMP.     BP Exploration (Caspian Sea) Ltd:  COMPANY
 UWI .                     N/A:  UNIQUE WELL IDENTIFIER
 API .                     N/A:  API NUMBER
 BASE.              Azerbaijan:  LOGGING EQUIPMENT BASE LOCATION
 REGN.                   EESSA:  REGION
 PROV.                    Baku:  PROVINCE
 STAT.                    Baku:  STATE NAME
 CTRY.              Azerbaijan:  COUNTRY NAME
 FLD .                     ACG:  FIELD NAME
 SRVC.     TURAN Drilling & Engineering:  CONTRACTOR
 WELL.                     J27:  WELL NAME
 RIG .             West Chirag:  RIG NAME
 DOE .                     N/A:  DOE NUMBER
 DCON.         Sperry Drilling:  DIRECTNL CONTR
 PDAT.          Mean Sea Level:  PERMANENT DATUM
 WTYP.                Deviated:  WELL TYPE
 MWDS.                    Baku:  MWD SHOP
 JOBN.        AZ-XX-0906571587:  JOB TICKET NUMB
 UNIT.                     N/A:  LOGGING EQUIPMENT ID
 MDS .        Operator Entered:  MAG DATA SOURCE
 CNTY.                        :  COUNTY
 LOC .                        :  LOCATION
 LMF .             Drill Floor:  LOG MEASURED FROM
 TVDS.m                  43.00:  TVDSS CORRECTN
 LATI.deg                40.13:  LATITUDE
 LONG.deg                51.22:  LONGITUDE
 WHNS.m                   7.72:  WELL HEAD N/S
 WHEW.m                 -14.24:  WELL HEAD E/W
 UTMX.m              519005.06:  UTM X
 UTMY.m             4443793.85:  UTM Y
 DFWL.m                   0.00:  DISTANCE FWL
 DFSL.m                   0.00:  DISTANCE FSL
 SDEP.m                 347.00:  START DEPTH
 TDD .m                 581.00:  TOTAL DEPTH (DRILLER)
 VSDR.deg               159.72:  VERT SEC DIRECT
 GVFD.g                   1.00:  GRAVITY FIELD
 MFLD.nT              50313.00:  MAGNETIC FIELD
 MDIP.deg                59.58:  MAGNETIC DIP
 MDEC.deg                 6.45:  MAGNETIC DECL
 GRDC.deg                 0.15:  GRID CORRECTION
 AZTC.deg                 6.30:  AZM TOTAL CORR
 EPD .m                   0.00:  ELEVATION
 EGL .m                   0.00:  GROUND ELEVATION
 WDMS.m                 169.80:  WD ELEV
 APD .m                  43.00:  DEPTH ABOVE PD
 AGAP.m                  43.00:  AIR GAP
 VSEW.m                 -14.24:  VERT SEC E/W
 VSNS.m                   7.72:  VERT SEC N/S
 DEP .m                 342.45:  DEPTH
 EKB .m                   0.00:  KB ELEVATION
 EDF .m                  43.00:  DF ELEVATION
 TDL .m                1313.00:  TOTAL DEPTH (LOGGER)
 VSC .                       0:  VS TO CLOSURE
 MAGU.                 1851396:  MAGUTM CHECKSUM
~Parameter Information Block
#MNEM.UNIT       Value        Description
#---------     -----------    ---------------------------
 AV  .mps                 0.65:  Ann Velocity 
 AVMX.mps                 0.75:  Max Ann Veloc 
 AZIF.deg               115.08:  Azm, Final 
 BHAT.        Rotary Steerable:  BHA Type 
 BROT.°/30m               1.50:  Build Rotating 
 BS  .in                 12.25:  Bit Size 
 BSZ .in                 12.25:  Bit Size 
 BTPL.psig              700.00:  Bit Press Loss 
 CABU.                     Yes:  Customer Abuse 
 COMM.                     <
V:  Run Comments 1 
 TCS .hr                121.00:  Time Ciculation Ended 
 CV  .mps                 1.83:  Crit Velocity 
 CVMX.mps                 1.83:  Max Crit Veloc 
 DD1 .          Rashad Habibov:  Direct Drillr 1 
 DD2 .         Rasim Ibrahimov:  Direct Drillr 2 
 DDSV.                 iCruise:  DD Service 
 DEFF.%                 100.00:  % Det Eff 
 DLRX.°/30m               3.60:  Dogleg Rot Max 
 DLSO.°/30m               3.10:  Dogleg Oriented 
 DLSX.°/30m               3.60:  Dogleg Str Max 
 DRET.      13.41.20 12-Nov-20:  Drill End Time 
 DRST.      13.41.20 07-Nov-20:  Drill Start Tim 
 DTIM.hr                 54.16:  Time Drilling 
 EDEP.m                4762.01:  End Depth 
 ENG1.           Amrah Tahirov:  Engineer 1 
 ENG2.      Bakhtiyar Jabbarli:  Engineer 2 
 ENG3.          Ruslan Safarov:  Engineer 3 
 ETIM.      13.41.20 14-Nov-20:  End Time 
 FLOI.gpm              1200.00:  Flow In 
 FLON.gpm              1100.00:  Flow In Min 
 FLOS.cptm                0.00:  Fluid Loss 
 FLOX.gpm              1200.00:  Flow In Max 
 HFLO.                      No:  High Flow 
 HPRE.                      No:  High Pressure 
 HTEM.                      No:  High Temp 
 HYDO.m                   2.00:  Hydro Offset 
 IFIN.deg                66.14:  Inc, Final 
 IMAX.deg                69.03:  Inc Max 
 IMIN.deg                64.64:  Inc Min 
 IMND.m                4450.16:  Inc Min Depth 
 IMXD.m                3996.00:  Inc Max Depth 
 JARR.                     Yes:  Jarring 
 LETM.      13.41.20 14-Nov-20:  Log End Time 
 LOST.hr                     0:  Lost Rig Time 
 LSTM.      13.41.20 06-Nov-20:  Log Start Time 
 MDCL.ppm             42500.00:  Mud Chlorides 
 MDES.     Inversion Oil/Synthetic:  Mud Desc 
 DFD .sg                  1.45:  Mud Density 
 MDMN.sg                  1.45:  Dens Mud Min 
 MDMX.sg                  1.45:  Dens Mud Max 
 MOIL.                      70:  Run Mud Oil % 
 MOWR.                   70:30:  Run Mud OWR 
 MSND.                       0:  Run Mud Sand % 
 MSOL.                    19.3:  Run Mud Solids% 
 DFV .spqt               77.00:  Mud Viscosity 
 MWOD.in                  8.00:  MWD Tool OD 
 MWSI.                      No:  Serv Intrp, MWD 
 OTIM.hr                201.88:  Time Operating 
 PCON.           Look Like New:  Pad Condition 
 PMAX.psia             9250.94:  Press Op, Max 
 PV  .cP                 29.00:  Mud PV 
 RUN .                     800:  Run Number 
 ROPA.m/hr               28.00:  ROP Avg 
 ROPN.m/hr               25.00:  ROP Min 
 ROPX.m/hr               30.00:  ROP Max 
 RPMA.rpm               160.00:  RPM Surface Avg 
 RPMN.rpm               160.00:  RPM Surface Min 
 RPMX.rpm               160.00:  RPM Surface Max 
 RRUN.                    0800:  Rig Run Number 
 RTIM.hr                 12.00:  Time Reaming 
 SAZI.deg               169.33:  Azm, Start 
 SDEP.m                3449.01:  Start Depth 
 SIDD.                      No:  Serv Intrp, DD 
 SINC.deg                68.01:  Inc, Start 
 SPPA.psig             4900.00:  SPP Avg 
 SPPN.psig             4800.00:  SPP Min 
 SPPX.psig             5050.00:  SPP Max 
 STIM.      13.41.20 06-Nov-20:  Start Time 
 SVCS.                 DD, MWD:  Services 
 SVER.                    9.20:  Sperry Version 
 TDAT.m                4762.01:  Tot Depth Attmp 
 TDDF.                      No:  Trip for DD 
 TDLG.m                1313.00:  Tot Depth Loggd 
 TFF .                      No:  Trip for Fail 
 TQAA.f-kp               13.00:  Torque Abs Avg 
 TQAN.f-kp               13.00:  Torque Abs Min 
 TQAX.f-kp               13.00:  Torque Abs Max 
 TRRT.°/30m               1.70:  Turn Rotating 
 MRT .                  EWR-M5:  Maximum Recorded Temperature 
 TTMX.degC               86.00:  Max Tool Temp 
 VS01.                90622122:  Virtual Str1 SN 
 VS02.                90577298:  Virtual Str2 SN 
 VS03.                90563623:  Virtual Str3 SN 
 VS04.                90617559:  Virtual Str4 SN 
 VS05.                11339492:  Virtual Str5 SN 
 VS06.                12385033:  Virtual Str6 SN 
 WBMN.klb                 0.00:  WOB Min 
 WOBA.klb                22.00:  WOB Avg 
 WOBX.klb                26.00:  WOB Max 
 YP  .lhf2               30.00:  Yield Point 
~Curve Information Block
#MNEM.UNIT                 API CODE     Curve Description
#---------               -----------    ---------------------------
 TIME.HHMMSS            00 000 000 000:  GT Time & Date
 GTDEPTH.m              00 000 000 000:  GT Depth
 GTPQH.psia             00 000 000 000:  GT HR Quartz Pressure
 GTTQ.degC              00 000 000 000:  GT Quartz Temperature
 GTTN.NONE              00 000 000 000:  GT Test Number
 GTET.sec               00 000 000 000:  GT Elapsed Test Time
 GTTVD.m                00 000 000 000:  GT True Vertical Depth
#Other Information
#
#WARRANTY: Halliburton will use its best efforts to furnish customers with 
#accurate information and interpretations that are part of, and incident to, the services 
#provided.  However, Halliburton cannot and does not warrant the accuracy 
#or correctness of such information and interpretations.  Under no circumstances should any 
#such information or interpretation be relied upon as the sole basis for any drilling, 
#completion, production, or financial decision or any procedure involving any risk to the 
#safety of any drilling venture, drilling rig or its crew or any other third party.  The 
#Customer has full responsibility for all drilling, completion and production operation.  
#Halliburton makes no representations or warranties, either expressed or 
#implied, including, but not limited to, the implied warranties of merchantability or fitness 
#for a particular purpose, with respect to the services rendered.  In no event will 
#Halliburton be liable for failure to obtain any particular results or for 
#any damages, including, but not limited to, indirect, special or consequential damages, 
#resulting from the use of any information or interpretation provided by Halliburton.
#
~A           TIME           GTDEPTH  GTPQH  GTTQ  GTTN  GTET   GTTVD  
# ...
   09:27:11.236.08-Nov-2020 3525.51 3323.41 69.80 1.00 345.06 2012.77
   09:27:11.436.08-Nov-2020 3525.51 3323.41 69.80 1.00 345.26 2012.77
   09:27:11.636.08-Nov-2020 3525.51 3323.44 69.80 1.00 345.46 2012.77
   09:27:11.836.08-Nov-2020 3525.51 3323.41 69.80 1.00 345.66 2012.77
   09:27:12.036.08-Nov-2020 3525.51 3323.41 69.80 1.00 345.86 2012.77
   09:27:12.236.08-Nov-2020 3525.51 3323.41 69.80 1.00 346.06 2012.77
   09:27:12.436.08-Nov-2020 3525.51 3323.41 69.80 1.00 346.26 2012.77
   09:27:12.636.08-Nov-2020 3525.51 3323.40 69.80 1.00 346.46 2012.77
   09:27:12.836.08-Nov-2020 3525.51 3323.41 69.80 1.00 346.66 2012.77
   09:27:13.036.08-Nov-2020 3525.51 3323.39 69.80 1.00 346.86 2012.77
   09:27:13.236.08-Nov-2020 3525.51 3323.40 69.80 1.00 347.06 2012.77
   09:27:13.436.08-Nov-2020 3525.51 3323.40 69.80 1.00 347.26 2012.77
   09:27:13.636.08-Nov-2020 3525.51 3323.34 69.80 1.00 347.46 2012.77
   09:27:13.836.08-Nov-2020 3525.51 3323.38 69.80 1.00 347.66 2012.77
   09:27:14.036.08-Nov-2020 3525.51 3323.39 69.80 1.00 347.86 2012.77
   09:27:14.236.08-Nov-2020 3525.51 3323.40 69.80 1.00 348.06 2012.77
   09:27:14.437.08-Nov-2020 3525.51 3323.40 69.80 1.00 348.26 2012.77
   09:27:14.637.08-Nov-2020 3525.51 3323.40 69.80 1.00 348.46 2012.77
   09:27:14.837.08-Nov-2020 3525.51 3323.40 69.80 1.00 348.66 2012.77
   09:27:15.037.08-Nov-2020 3525.51 3323.40 69.80 1.00 348.86 2012.77
   09:27:15.237.08-Nov-2020 3525.51 3323.39 69.80 1.00 349.06 2012.77
   09:27:15.437.08-Nov-2020 3525.51 3323.39 69.80 1.00 349.26 2012.77
   09:27:15.637.08-Nov-2020 3525.51 3323.40 69.79 1.00 349.46 2012.77
   09:27:15.837.08-Nov-2020 3525.51 3323.39 69.79 1.00 349.66 2012.77
   09:27:16.037.08-Nov-2020 3525.51 3323.39 69.79 1.00 349.86 2012.77
   09:27:16.237.08-Nov-2020 3525.51 3323.33 69.79 1.00 350.06 2012.77
   09:27:16.437.08-Nov-2020 3525.51 3323.33 69.79 1.00 350.26 2012.77
   09:27:16.637.08-Nov-2020 3525.51 3323.41 69.79 1.00 350.46 2012.77
   09:27:16.837.08-Nov-2020 3525.51 3323.34 69.79 1.00 350.66 2012.77
   09:27:17.037.08-Nov-2020 3525.51 3323.41 69.79 1.00 350.86 2012.77
   09:27:17.237.08-Nov-2020 3525.51 3323.40 69.79 1.00 351.06 2012.77
   09:27:17.437.08-Nov-2020 3525.51 3323.40 69.79 1.00 351.26 2012.77
   09:27:17.637.08-Nov-2020 3525.51 3323.41 69.79 1.00 351.46 2012.77
   09:27:17.837.08-Nov-2020 3525.51 3323.36 69.79 1.00 351.66 2012.77
   09:27:18.037.08-Nov-2020 3525.51 3323.37 69.79 1.00 351.86 2012.77
   09:27:18.237.08-Nov-2020 3525.51 3323.40 69.79 1.00 352.06 2012.77
   09:27:18.437.08-Nov-2020 3525.51 3323.40 69.79 1.00 352.26 2012.77
   09:27:18.637.08-Nov-2020 3525.51 3323.43 69.79 1.00 352.46 2012.77
   09:27:18.837.08-Nov-2020 3525.51 3323.42 69.79 1.00 352.66 2012.77
   09:27:19.037.08-Nov-2020 3525.51 3323.34 69.79 1.00 352.86 2012.77
   09:27:19.237.08-Nov-2020 3525.51 3323.40 69.79 1.00 353.06 2012.77
   09:27:19.437.08-Nov-2020 3525.51 3323.40 69.79 1.00 353.26 2012.77
   09:27:19.637.08-Nov-2020 3525.51 3323.41 69.78 1.00 353.46 2012.77
   09:27:19.837.08-Nov-2020 3525.51 3323.34 69.78 1.00 353.66 2012.77
   09:27:20.037.08-Nov-2020 3525.51 3323.41 69.78 1.00 353.86 2012.77
   09:27:20.237.08-Nov-2020 3525.51 3323.43 69.78 1.00 354.06 2012.77
   09:27:20.438.08-Nov-2020 3525.51 3323.43 69.78 1.00 354.26 2012.77
   09:27:20.638.08-Nov-2020 3525.51 3323.43 69.78 1.00 354.46 2012.77
   09:27:20.838.08-Nov-2020 3525.51 3323.42 69.78 1.00 354.66 2012.77
   09:27:21.038.08-Nov-2020 3525.51 3323.41 69.78 1.00 354.86 2012.77
   09:27:21.238.08-Nov-2020 3525.51 3323.42 69.78 1.00 355.06 2012.77
   09:27:21.438.08-Nov-2020 3525.51 3323.42 69.78 1.00 355.26 2012.77
   09:27:21.638.08-Nov-2020 3525.51 3323.42 69.78 1.00 355.46 2012.77
   09:27:21.838.08-Nov-2020 3525.51 3323.42 69.78 1.00 355.66 2012.77
   09:27:22.038.08-Nov-2020 3525.51 3323.40 69.78 1.00 355.86 2012.77
   09:27:22.238.08-Nov-2020 3525.51 3323.42 69.78 1.00 356.06 2012.77
   09:27:22.438.08-Nov-2020 3525.51 3323.42 69.78 1.00 356.26 2012.77
   09:27:22.638.08-Nov-2020 3525.51 3323.33 69.78 1.00 356.46 2012.77
   09:27:22.838.08-Nov-2020 3525.51 3323.39 69.78 1.00 356.66 2012.77
   09:27:23.038.08-Nov-2020 3525.51 3323.42 69.78 1.00 356.86 2012.77
   09:27:23.238.08-Nov-2020 3525.51 3323.41 69.78 1.00 357.06 2012.77
   09:27:23.438.08-Nov-2020 3525.51 3323.41 69.78 1.00 357.26 2012.77
   09:27:23.638.08-Nov-2020 3525.51 3323.41 69.77 1.00 357.46 2012.77
   09:27:23.838.08-Nov-2020 3525.51 3323.42 69.77 1.00 357.66 2012.77
   09:27:24.038.08-Nov-2020 3525.51 3323.41 69.77 1.00 357.86 2012.77
   09:27:24.238.08-Nov-2020 3525.51 3323.41 69.77 1.00 358.06 2012.77
   09:27:24.438.08-Nov-2020 3525.51 3323.41 69.77 1.00 358.26 2012.77
   09:27:24.638.08-Nov-2020 3525.51 3323.41 69.77 1.00 358.46 2012.77
   09:27:24.838.08-Nov-2020 3525.51 3323.40 69.77 1.00 358.66 2012.77
   09:27:25.038.08-Nov-2020 3525.51 3323.40 69.77 1.00 358.86 2012.77
   09:27:25.238.08-Nov-2020 3525.51 3323.33 69.77 1.00 359.06 2012.77
   09:27:25.438.08-Nov-2020 3525.51 3323.33 69.77 1.00 359.26 2012.77
   09:27:25.638.08-Nov-2020 3525.51 3323.38 69.77 1.00 359.46 2012.77
   09:27:25.838.08-Nov-2020 3525.51 3323.42 69.77 1.00 359.66 2012.77
   09:27:26.038.08-Nov-2020 3525.51 3323.42 69.77 1.00 359.86 2012.77
   09:27:26.238.08-Nov-2020 3525.51 3323.43 69.77 1.00 360.06 2012.77
   09:27:26.439.08-Nov-2020 3525.51 3323.43 69.77 1.00 360.26 2012.77
   09:27:26.639.08-Nov-2020 3525.51 3323.42 69.77 1.00 360.46 2012.77
   09:27:26.839.08-Nov-2020 3525.51 3323.37 69.77 1.00 360.66 2012.77
   09:27:27.039.08-Nov-2020 3525.51 3323.42 69.77 1.00 360.86 2012.77
   09:27:27.239.08-Nov-2020 3525.51 3323.43 69.77 1.00 361.06 2012.77
   09:27:27.439.08-Nov-2020 3525.51 3323.43 69.77 1.00 361.26 2012.77
   09:27:27.639.08-Nov-2020 3525.51 3323.43 69.76 1.00 361.46 2012.77
   09:27:27.839.08-Nov-2020 3525.51 3323.35 69.76 1.00 361.66 2012.77
   09:27:28.039.08-Nov-2020 3525.51 3323.43 69.76 1.00 361.86 2012.77
   09:27:28.239.08-Nov-2020 3525.51 3323.43 69.76 1.00 362.06 2012.77
   09:27:28.439.08-Nov-2020 3525.51 3323.43 69.76 1.00 362.26 2012.77
   09:27:28.639.08-Nov-2020 3525.51 3323.33 69.76 1.00 362.46 2012.77
   09:27:28.839.08-Nov-2020 3525.51 3314.17 69.76 1.00 362.66 2012.77
   09:27:29.039.08-Nov-2020 3525.51 3287.42 69.76 1.00 362.86 2012.77
   09:27:29.239.08-Nov-2020 3525.51 3302.35 69.76 1.00 363.06 2012.77
   09:27:29.439.08-Nov-2020 3525.51 3302.35 69.76 1.00 363.26 2012.77
   09:27:29.639.08-Nov-2020 3525.51 3322.67 69.76 1.00 363.46 2012.77
   09:27:29.839.08-Nov-2020 3525.51 3323.51 69.76 1.00 363.66 2012.77
   09:27:30.039.08-Nov-2020 3525.51 3323.80 69.76 1.00 363.86 2012.77
   09:27:30.239.08-Nov-2020 3525.51 3326.75 69.76 1.00 364.06 2012.77
   09:27:30.439.08-Nov-2020 3525.51 3326.75 69.76 1.00 364.26 2012.77
   09:27:30.639.08-Nov-2020 3525.51 3358.41 69.76 1.00 364.46 2012.77
   09:27:30.839.08-Nov-2020 3525.51 3438.63 69.76 1.00 364.66 2012.77
   09:27:31.039.08-Nov-2020 3525.51 3620.46 69.76 1.00 364.86 2012.77
   09:27:31.239.08-Nov-2020 3525.51 3853.48 69.76 1.00 365.06 2012.77
   09:27:31.439.08-Nov-2020 3525.51 3853.48 69.76 1.00 365.26 2012.77
   09:27:31.639.08-Nov-2020 3525.51 4311.54 69.75 1.00 365.46 2012.77
   09:27:31.839.08-Nov-2020 3525.51 4306.48 69.75 1.00 365.66 2012.77
   09:27:32.039.08-Nov-2020 3525.51 4305.63 69.75 1.00 365.86 2012.77
   09:27:32.240.08-Nov-2020 3525.51 4303.82 69.75 1.00 366.06 2012.77
   09:27:32.440.08-Nov-2020 3525.51 4303.82 69.75 1.00 366.26 2012.77
   09:27:32.640.08-Nov-2020 3525.51 4303.65 69.75 1.00 366.46 2012.77
   09:27:32.840.08-Nov-2020 3525.51 4303.50 69.75 1.00 366.66 2012.77
   09:27:33.040.08-Nov-2020 3525.51 4303.43 69.75 1.00 366.86 2012.77
   09:27:33.240.08-Nov-2020 3525.51 4304.07 69.75 1.00 367.06 2012.77
   09:27:33.440.08-Nov-2020 3525.51 4304.07 69.75 1.00 367.26 2012.77
   09:27:33.640.08-Nov-2020 3525.51 4306.70 69.75 1.00 367.46 2012.77
   09:27:33.840.08-Nov-2020 3525.51 4307.00 69.75 1.00 367.66 2012.77
   09:27:34.040.08-Nov-2020 3525.51 4312.21 69.75 1.00 367.86 2012.77
