~Version Information
 VERS.                  2.0:   CWLS log ASCII Standard -VERSION 2.0
 WRAP.                   NO:   One line per depth step
~Well Information Block
#MNEM.UNIT     VALUE/NAME     DESCRIPTION
#---------     -----------    ---------------------------
 STRT.S             01:27:57 11-Nov-20: START TIME 01:27:57 11-Nov-20
 STOP.S             01:34:34 11-Nov-20: STOP TIME  01:34:34 11-Nov-20
 STEP.S                   0.00: STEP TIME
 NULL.                 -999.25: NULL VALUE
 DFWT.                        :  DIST FWL TEXT
 DFST.                        :  DIST FSL TEXT
 DMF .             Drill Floor:  DRILL MEAS FROM
 STIM.      04.54.24 22-Sep-20:  START TIME
 DATE.      04.54.24 21-Nov-20:  END TIME
 SPUD.               21-Nov-20:  SPUD DATE
 NREF.                    Grid:  NORTH REFERENCE
 HPTY.       Minimum Curvature:  HOLE POS TYPE
 DMOD.             Drill Model:  DRILL MOD DESC
 SVYD.                  Survey:  SURVEY DESC
 ILTD.               Lithology:  INTERP LTH DESC
 FTOP.          Formation Tops:  FORM TOPS DESC
 SON .        AZ-XX-0906571587:  JOB NUMBER
 COMP.     BP Exploration (Caspian Sea) Ltd:  COMPANY
 UWI .                     N/A:  UNIQUE WELL IDENTIFIER
 API .                     N/A:  API NUMBER
 BASE.              Azerbaijan:  LOGGING EQUIPMENT BASE LOCATION
 REGN.                   EESSA:  REGION
 PROV.                    Baku:  PROVINCE
 STAT.                    Baku:  STATE NAME
 CTRY.              Azerbaijan:  COUNTRY NAME
 FLD .                     ACG:  FIELD NAME
 SRVC.     TURAN Drilling & Engineering:  CONTRACTOR
 WELL.                     J27:  WELL NAME
 RIG .             West Chirag:  RIG NAME
 DOE .                     N/A:  DOE NUMBER
 DCON.         Sperry Drilling:  DIRECTNL CONTR
 PDAT.          Mean Sea Level:  PERMANENT DATUM
 WTYP.                Deviated:  WELL TYPE
 MWDS.                    Baku:  MWD SHOP
 JOBN.        AZ-XX-0906571587:  JOB TICKET NUMB
 UNIT.                     N/A:  LOGGING EQUIPMENT ID
 MDS .        Operator Entered:  MAG DATA SOURCE
 CNTY.                        :  COUNTY
 LOC .                        :  LOCATION
 LMF .             Drill Floor:  LOG MEASURED FROM
 TVDS.m                  43.00:  TVDSS CORRECTN
 LATI.deg                40.13:  LATITUDE
 LONG.deg                51.22:  LONGITUDE
 WHNS.m                   7.72:  WELL HEAD N/S
 WHEW.m                 -14.24:  WELL HEAD E/W
 UTMX.m              519005.06:  UTM X
 UTMY.m             4443793.85:  UTM Y
 DFWL.m                   0.00:  DISTANCE FWL
 DFSL.m                   0.00:  DISTANCE FSL
 SDEP.m                 347.00:  START DEPTH
 TDD .m                 581.00:  TOTAL DEPTH (DRILLER)
 VSDR.deg               159.72:  VERT SEC DIRECT
 GVFD.g                   1.00:  GRAVITY FIELD
 MFLD.nT              50313.00:  MAGNETIC FIELD
 MDIP.deg                59.58:  MAGNETIC DIP
 MDEC.deg                 6.45:  MAGNETIC DECL
 GRDC.deg                 0.15:  GRID CORRECTION
 AZTC.deg                 6.30:  AZM TOTAL CORR
 EPD .m                   0.00:  ELEVATION
 EGL .m                   0.00:  GROUND ELEVATION
 WDMS.m                 169.80:  WD ELEV
 APD .m                  43.00:  DEPTH ABOVE PD
 AGAP.m                  43.00:  AIR GAP
 VSEW.m                 -14.24:  VERT SEC E/W
 VSNS.m                   7.72:  VERT SEC N/S
 DEP .m                 342.45:  DEPTH
 EKB .m                   0.00:  KB ELEVATION
 EDF .m                  43.00:  DF ELEVATION
 TDL .m                1313.00:  TOTAL DEPTH (LOGGER)
 VSC .                       0:  VS TO CLOSURE
 MAGU.                 1851396:  MAGUTM CHECKSUM
~Parameter Information Block
#MNEM.UNIT       Value        Description
#---------     -----------    ---------------------------
 AV  .mps                 0.65:  Ann Velocity 
 AVMX.mps                 0.75:  Max Ann Veloc 
 AZIF.deg               115.08:  Azm, Final 
 BHAT.        Rotary Steerable:  BHA Type 
 BROT.∞/30m               1.50:  Build Rotating 
 BS  .in                 12.25:  Bit Size 
 BSZ .in                 12.25:  Bit Size 
 BTPL.psig              700.00:  Bit Press Loss 
 CABU.                     Yes:  Customer Abuse 
 COMM.                     ÏSu:  Run Comments 1 
 TCS .hr                121.00:  Time Ciculation Ended 
 CV  .mps                 1.83:  Crit Velocity 
 CVMX.mps                 1.83:  Max Crit Veloc 
 DD1 .          Rashad Habibov:  Direct Drillr 1 
 DD2 .         Rasim Ibrahimov:  Direct Drillr 2 
 DDSV.                 iCruise:  DD Service 
 DEFF.%                 100.00:  % Det Eff 
 DLRX.∞/30m               3.60:  Dogleg Rot Max 
 DLSO.∞/30m               3.10:  Dogleg Oriented 
 DLSX.∞/30m               3.60:  Dogleg Str Max 
 DRET.      13.41.20 12-Nov-20:  Drill End Time 
 DRST.      13.41.20 07-Nov-20:  Drill Start Tim 
 DTIM.hr                 54.16:  Time Drilling 
 EDEP.m                4762.01:  End Depth 
 ENG1.           Amrah Tahirov:  Engineer 1 
 ENG2.      Bakhtiyar Jabbarli:  Engineer 2 
 ENG3.          Ruslan Safarov:  Engineer 3 
 ETIM.      13.41.20 14-Nov-20:  End Time 
 FLOI.gpm              1200.00:  Flow In 
 FLON.gpm              1100.00:  Flow In Min 
 FLOS.cptm                0.00:  Fluid Loss 
 FLOX.gpm              1200.00:  Flow In Max 
 HFLO.                      No:  High Flow 
 HPRE.                      No:  High Pressure 
 HTEM.                      No:  High Temp 
 HYDO.m                   2.00:  Hydro Offset 
 IFIN.deg                66.14:  Inc, Final 
 IMAX.deg                69.03:  Inc Max 
 IMIN.deg                64.64:  Inc Min 
 IMND.m                4450.16:  Inc Min Depth 
 IMXD.m                3996.00:  Inc Max Depth 
 JARR.                     Yes:  Jarring 
 LETM.      13.41.20 14-Nov-20:  Log End Time 
 LOST.hr                     0:  Lost Rig Time 
 LSTM.      13.41.20 06-Nov-20:  Log Start Time 
 MDCL.ppm             42500.00:  Mud Chlorides 
 MDES.     Inversion Oil/Synthetic:  Mud Desc 
 DFD .sg                  1.45:  Mud Density 
 MDMN.sg                  1.45:  Dens Mud Min 
 MDMX.sg                  1.45:  Dens Mud Max 
 MOIL.                      70:  Run Mud Oil % 
 MOWR.                   70:30:  Run Mud OWR 
 MSND.                       0:  Run Mud Sand % 
 MSOL.                    19.3:  Run Mud Solids% 
 DFV .spqt               77.00:  Mud Viscosity 
 MWOD.in                  8.00:  MWD Tool OD 
 MWSI.                      No:  Serv Intrp, MWD 
 OTIM.hr                201.88:  Time Operating 
 PCON.           Look Like New:  Pad Condition 
 PMAX.psia             9250.94:  Press Op, Max 
 PV  .cP                 29.00:  Mud PV 
 RUN .                     800:  Run Number 
 ROPA.m/hr               28.00:  ROP Avg 
 ROPN.m/hr               25.00:  ROP Min 
 ROPX.m/hr               30.00:  ROP Max 
 RPMA.rpm               160.00:  RPM Surface Avg 
 RPMN.rpm               160.00:  RPM Surface Min 
 RPMX.rpm               160.00:  RPM Surface Max 
 RRUN.                    0800:  Rig Run Number 
 RTIM.hr                 12.00:  Time Reaming 
 SAZI.deg               169.33:  Azm, Start 
 SDEP.m                3449.01:  Start Depth 
 SIDD.                      No:  Serv Intrp, DD 
 SINC.deg                68.01:  Inc, Start 
 SPPA.psig             4900.00:  SPP Avg 
 SPPN.psig             4800.00:  SPP Min 
 SPPX.psig             5050.00:  SPP Max 
 STIM.      13.41.20 06-Nov-20:  Start Time 
 SVCS.                 DD, MWD:  Services 
 SVER.                    9.20:  Sperry Version 
 TDAT.m                4762.01:  Tot Depth Attmp 
 TDDF.                      No:  Trip for DD 
 TDLG.m                1313.00:  Tot Depth Loggd 
 TFF .                      No:  Trip for Fail 
 TQAA.f-kp               13.00:  Torque Abs Avg 
 TQAN.f-kp               13.00:  Torque Abs Min 
 TQAX.f-kp               13.00:  Torque Abs Max 
 TRRT.∞/30m               1.70:  Turn Rotating 
 MRT .                  EWR-M5:  Maximum Recorded Temperature 
 TTMX.degC               86.00:  Max Tool Temp 
 VS01.                90622122:  Virtual Str1 SN 
 VS02.                90577298:  Virtual Str2 SN 
 VS03.                90563623:  Virtual Str3 SN 
 VS04.                90617559:  Virtual Str4 SN 
 VS05.                11339492:  Virtual Str5 SN 
 VS06.                12385033:  Virtual Str6 SN 
 WBMN.klb                 0.00:  WOB Min 
 WOBA.klb                22.00:  WOB Avg 
 WOBX.klb                26.00:  WOB Max 
 YP  .lhf2               30.00:  Yield Point 
~Curve Information Block
#MNEM.UNIT                 API CODE     Curve Description
#---------               -----------    ---------------------------
 TIME.HHMMSS            00 000 000 000:  GT Time & Date
 GTDEPTH.m              00 000 000 000:  GT Depth
 GTPQH.psia             00 000 000 000:  GT HR Quartz Pressure
 GTTQ.degC              00 000 000 000:  GT Quartz Temperature
 GTTN.NONE              00 000 000 000:  GT Test Number
 GTET.sec               00 000 000 000:  GT Elapsed Test Time
 GTTVD.m                00 000 000 000:  GT True Vertical Depth
#Other Information
#
#WARRANTY: Halliburton will use its best efforts to furnish customers with 
#accurate information and interpretations that are part of, and incident to, the services 
#provided.  However, Halliburton cannot and does not warrant the accuracy 
#or correctness of such information and interpretations.  Under no circumstances should any 
#such information or interpretation be relied upon as the sole basis for any drilling, 
#completion, production, or financial decision or any procedure involving any risk to the 
#safety of any drilling venture, drilling rig or its crew or any other third party.  The 
#Customer has full responsibility for all drilling, completion and production operation.  
#Halliburton makes no representations or warranties, either expressed or 
#implied, including, but not limited to, the implied warranties of merchantability or fitness 
#for a particular purpose, with respect to the services rendered.  In no event will 
#Halliburton be liable for failure to obtain any particular results or for 
#any damages, including, but not limited to, indirect, special or consequential damages, 
#resulting from the use of any information or interpretation provided by Halliburton.
#
~A           TIME           GTDEPTH  GTPQH  GTTQ  GTTN  GTET   GTTVD  
# ...
   01:30:38.000.11-Nov-2020 4560.01 4022.73 77.49 7.00 161.00 2403.77
   01:30:38.200.11-Nov-2020 4560.01 4022.76 77.49 7.00 161.20 2403.77
   01:30:38.400.11-Nov-2020 4560.01 4022.78 77.49 7.00 161.40 2403.77
   01:30:38.600.11-Nov-2020 4560.01 4022.74 77.49 7.00 161.60 2403.77
   01:30:38.800.11-Nov-2020 4560.01 4022.77 77.49 7.00 161.80 2403.77
   01:30:39.000.11-Nov-2020 4560.01 4022.77 77.49 7.00 162.00 2403.77
   01:30:39.200.11-Nov-2020 4560.01 4022.77 77.49 7.00 162.20 2403.77
   01:30:39.400.11-Nov-2020 4560.01 4022.87 77.49 7.00 162.40 2403.77
   01:30:39.600.11-Nov-2020 4560.01 4022.72 77.49 7.00 162.60 2403.77
   01:30:39.800.11-Nov-2020 4560.01 4022.83 77.49 7.00 162.80 2403.77
   01:30:40.000.11-Nov-2020 4560.01 4022.85 77.49 7.00 163.00 2403.77
   01:30:40.200.11-Nov-2020 4560.01 4022.85 77.49 7.00 163.20 2403.77
   01:30:40.400.11-Nov-2020 4560.01 4022.87 77.49 7.00 163.40 2403.77
   01:30:40.600.11-Nov-2020 4560.01 4022.88 77.49 7.00 163.60 2403.77
   01:30:40.800.11-Nov-2020 4560.01 4022.88 77.49 7.00 163.80 2403.77
   01:30:41.000.11-Nov-2020 4560.01 4022.77 77.49 7.00 164.00 2403.77
   01:30:41.200.11-Nov-2020 4560.01 4022.89 77.49 7.00 164.20 2403.77
   01:30:41.400.11-Nov-2020 4560.01 4022.89 77.49 7.00 164.40 2403.77
   01:30:41.600.11-Nov-2020 4560.01 4022.89 77.49 7.00 164.60 2403.77
   01:30:41.800.11-Nov-2020 4560.01 4022.92 77.49 7.00 164.80 2403.77
   01:30:42.000.11-Nov-2020 4560.01 4022.94 77.49 7.00 165.00 2403.77
   01:30:42.200.11-Nov-2020 4560.01 4022.93 77.49 7.00 165.20 2403.77
   01:30:42.400.11-Nov-2020 4560.01 4022.97 77.49 7.00 165.40 2403.77
   01:30:42.600.11-Nov-2020 4560.01 4022.93 77.49 7.00 165.60 2403.77
   01:30:42.800.11-Nov-2020 4560.01 4023.95 77.49 7.00 165.80 2403.77
   01:30:43.000.11-Nov-2020 4560.01 4025.50 77.49 7.00 166.00 2403.77
   01:30:43.200.11-Nov-2020 4560.01 4025.54 77.49 7.00 166.20 2403.77
   01:30:43.400.11-Nov-2020 4560.01 4025.54 77.49 7.00 166.40 2403.77
   01:30:43.600.11-Nov-2020 4560.01 4025.58 77.49 7.00 166.60 2403.77
   01:30:43.800.11-Nov-2020 4560.01 4025.57 77.49 7.00 166.80 2403.77
   01:30:44.000.11-Nov-2020 4560.01 4025.58 77.49 7.00 167.00 2403.77
   01:30:44.200.11-Nov-2020 4560.01 4025.58 77.49 7.00 167.20 2403.77
   01:30:44.400.11-Nov-2020 4560.01 4025.58 77.49 7.00 167.40 2403.77
   01:30:44.600.11-Nov-2020 4560.01 4025.59 77.49 7.00 167.60 2403.77
   01:30:44.800.11-Nov-2020 4560.01 4025.73 77.49 7.00 167.80 2403.77
   01:30:45.000.11-Nov-2020 4560.01 4025.52 77.49 7.00 168.00 2403.77
   01:30:45.200.11-Nov-2020 4560.01 4025.52 77.49 7.00 168.20 2403.77
   01:30:45.400.11-Nov-2020 4560.01 4025.65 77.49 7.00 168.40 2403.77
   01:30:45.600.11-Nov-2020 4560.01 4025.60 77.49 7.00 168.60 2403.77
   01:30:45.800.11-Nov-2020 4560.01 4025.58 77.49 7.00 168.80 2403.77
   01:30:46.000.11-Nov-2020 4560.01 4025.64 77.49 7.00 169.00 2403.77
   01:30:46.200.11-Nov-2020 4560.01 4025.64 77.49 7.00 169.20 2403.77
   01:30:46.400.11-Nov-2020 4560.01 4025.73 77.49 7.00 169.40 2403.77
   01:30:46.600.11-Nov-2020 4560.01 4025.54 77.49 7.00 169.60 2403.77
   01:30:46.800.11-Nov-2020 4560.01 4025.63 77.48 7.00 169.80 2403.77
   01:30:47.000.11-Nov-2020 4560.01 4025.63 77.48 7.00 170.00 2403.77
   01:30:47.200.11-Nov-2020 4560.01 4025.63 77.48 7.00 170.20 2403.77
   01:30:47.400.11-Nov-2020 4560.01 4025.59 77.48 7.00 170.40 2403.77
   01:30:47.600.11-Nov-2020 4560.01 4025.64 77.48 7.00 170.60 2403.77
   01:30:47.800.11-Nov-2020 4560.01 4025.68 77.48 7.00 170.80 2403.77
   01:30:48.000.11-Nov-2020 4560.01 4025.64 77.48 7.00 171.00 2403.77
   01:30:48.200.11-Nov-2020 4560.01 4025.64 77.48 7.00 171.20 2403.77
   01:30:48.400.11-Nov-2020 4560.01 4025.64 77.48 7.00 171.40 2403.77
   01:30:48.600.11-Nov-2020 4560.01 4025.64 77.48 7.00 171.60 2403.77
   01:30:48.800.11-Nov-2020 4560.01 4025.66 77.48 7.00 171.80 2403.77
   01:30:49.000.11-Nov-2020 4560.01 4025.66 77.48 7.00 172.00 2403.77
   01:30:49.200.11-Nov-2020 4560.01 4025.66 77.48 7.00 172.20 2403.77
   01:30:49.400.11-Nov-2020 4560.01 4025.64 77.48 7.00 172.40 2403.77
   01:30:49.600.11-Nov-2020 4560.01 4025.65 77.48 7.00 172.60 2403.77
   01:30:49.800.11-Nov-2020 4560.01 4025.66 77.48 7.00 172.80 2403.77
   01:30:50.000.11-Nov-2020 4560.01 4025.65 77.48 7.00 173.00 2403.77
   01:30:50.200.11-Nov-2020 4560.01 4025.65 77.48 7.00 173.20 2403.77
   01:30:50.400.11-Nov-2020 4560.01 4025.66 77.48 7.00 173.40 2403.77
   01:30:50.600.11-Nov-2020 4560.01 4025.65 77.48 7.00 173.60 2403.77
   01:30:50.800.11-Nov-2020 4560.01 4025.59 77.48 7.00 173.80 2403.77
   01:30:51.000.11-Nov-2020 4560.01 4025.69 77.48 7.00 174.00 2403.77
   01:30:51.200.11-Nov-2020 4560.01 4025.69 77.48 7.00 174.20 2403.77
   01:30:51.400.11-Nov-2020 4560.01 4025.63 77.48 7.00 174.40 2403.77
   01:30:51.600.11-Nov-2020 4560.01 4025.68 77.48 7.00 174.60 2403.77
   01:30:51.800.11-Nov-2020 4560.01 4025.62 77.48 7.00 174.80 2403.77
   01:30:52.000.11-Nov-2020 4560.01 4025.64 77.48 7.00 175.00 2403.77
   01:30:52.200.11-Nov-2020 4560.01 4025.64 77.48 7.00 175.20 2403.77
   01:30:52.400.11-Nov-2020 4560.01 4025.65 77.48 7.00 175.40 2403.77
   01:30:52.600.11-Nov-2020 4560.01 4025.65 77.48 7.00 175.60 2403.77
   01:30:52.800.11-Nov-2020 4560.01 4025.66 77.48 7.00 175.80 2403.77
   01:30:53.000.11-Nov-2020 4560.01 4025.64 77.48 7.00 176.00 2403.77
   01:30:53.200.11-Nov-2020 4560.01 4025.66 77.48 7.00 176.20 2403.77
   01:30:53.400.11-Nov-2020 4560.01 4025.71 77.48 7.00 176.40 2403.77
   01:30:53.600.11-Nov-2020 4560.01 4025.58 77.48 7.00 176.60 2403.77
   01:30:53.800.11-Nov-2020 4560.01 4025.66 77.48 7.00 176.80 2403.77
   01:30:54.000.11-Nov-2020 4560.01 4025.63 77.48 7.00 177.00 2403.77
   01:30:54.200.11-Nov-2020 4560.01 4025.68 77.48 7.00 177.20 2403.77
   01:30:54.400.11-Nov-2020 4560.01 4025.60 77.48 7.00 177.40 2403.77
   01:30:54.600.11-Nov-2020 4560.01 4025.65 77.48 7.00 177.60 2403.77
   01:30:54.800.11-Nov-2020 4560.01 4025.66 77.48 7.00 177.80 2403.77
   01:30:55.000.11-Nov-2020 4560.01 4025.59 77.48 7.00 178.00 2403.77
   01:30:55.200.11-Nov-2020 4560.01 4025.59 77.48 7.00 178.20 2403.77
   01:30:55.400.11-Nov-2020 4560.01 4025.66 77.48 7.00 178.40 2403.77
   01:30:55.600.11-Nov-2020 4560.01 4025.66 77.48 7.00 178.60 2403.77
   01:30:55.800.11-Nov-2020 4560.01 4025.71 77.47 7.00 178.80 2403.77
   01:30:56.000.11-Nov-2020 4560.01 4025.63 77.47 7.00 179.00 2403.77
   01:30:56.200.11-Nov-2020 4560.01 4025.63 77.47 7.00 179.20 2403.77
   01:30:56.400.11-Nov-2020 4560.01 4025.68 77.47 7.00 179.40 2403.77
   01:30:56.600.11-Nov-2020 4560.01 4025.67 77.47 7.00 179.60 2403.77
   01:30:56.800.11-Nov-2020 4560.01 4025.59 77.47 7.00 179.80 2403.77
   01:30:57.000.11-Nov-2020 4560.01 4025.69 77.47 7.00 180.00 2403.77
   01:30:57.200.11-Nov-2020 4560.01 4025.69 77.47 7.00 180.20 2403.77
   01:30:57.400.11-Nov-2020 4560.01 4025.64 77.47 7.00 180.40 2403.77
   01:30:57.600.11-Nov-2020 4560.01 4025.69 77.47 7.00 180.60 2403.77
   01:30:57.800.11-Nov-2020 4560.01 4025.63 77.47 7.00 180.80 2403.77
   01:30:58.000.11-Nov-2020 4560.01 4025.66 77.47 7.00 181.00 2403.77
   01:30:58.200.11-Nov-2020 4560.01 4025.66 77.47 7.00 181.20 2403.77
   01:30:58.400.11-Nov-2020 4560.01 4025.67 77.47 7.00 181.40 2403.77
   01:30:58.600.11-Nov-2020 4560.01 4025.65 77.47 7.00 181.60 2403.77
   01:30:58.800.11-Nov-2020 4560.01 4025.66 77.47 7.00 181.80 2403.77
   01:30:59.000.11-Nov-2020 4560.01 4025.64 77.47 7.00 182.00 2403.77
   01:30:59.200.11-Nov-2020 4560.01 4025.64 77.47 7.00 182.20 2403.77
   01:30:59.400.11-Nov-2020 4560.01 4025.67 77.47 7.00 182.40 2403.77
   01:30:59.600.11-Nov-2020 4560.01 4025.76 77.47 7.00 182.60 2403.77
   01:30:59.800.11-Nov-2020 4560.01 4025.54 77.47 7.00 182.80 2403.77
   01:31:00.000.11-Nov-2020 4560.01 4025.64 77.47 7.00 183.00 2403.77
   01:31:00.200.11-Nov-2020 4560.01 4025.64 77.47 7.00 183.20 2403.77
   01:31:00.400.11-Nov-2020 4560.01 4025.66 77.47 7.00 183.40 2403.77
   01:31:00.600.11-Nov-2020 4560.01 4025.62 77.47 7.00 183.60 2403.77
   01:31:00.800.11-Nov-2020 4560.01 4025.67 77.47 7.00 183.80 2403.77
