~Version Information
 VERS.                  2.0:   CWLS log ASCII Standard -VERSION 2.0
 WRAP.                   NO:   One line per depth step
~Well Information Block
#MNEM.UNIT     VALUE/NAME     DESCRIPTION
#---------     -----------    ---------------------------
 STRT.S             22:31:45 10-Nov-20: START TIME 22:31:45 10-Nov-20
 STOP.S             22:38:18 10-Nov-20: STOP TIME  22:38:18 10-Nov-20
 STEP.S                   0.00: STEP TIME
 NULL.                 -999.25: NULL VALUE
 DFWT.                        :  DIST FWL TEXT
 DFST.                        :  DIST FSL TEXT
 DMF .             Drill Floor:  DRILL MEAS FROM
 STIM.      04.54.24 22-Sep-20:  START TIME
 DATE.      04.54.24 21-Nov-20:  END TIME
 SPUD.               21-Nov-20:  SPUD DATE
 NREF.                    Grid:  NORTH REFERENCE
 HPTY.       Minimum Curvature:  HOLE POS TYPE
 DMOD.             Drill Model:  DRILL MOD DESC
 SVYD.                  Survey:  SURVEY DESC
 ILTD.               Lithology:  INTERP LTH DESC
 FTOP.          Formation Tops:  FORM TOPS DESC
 SON .        AZ-XX-0906571587:  JOB NUMBER
 COMP.     BP Exploration (Caspian Sea) Ltd:  COMPANY
 UWI .                     N/A:  UNIQUE WELL IDENTIFIER
 API .                     N/A:  API NUMBER
 BASE.              Azerbaijan:  LOGGING EQUIPMENT BASE LOCATION
 REGN.                   EESSA:  REGION
 PROV.                    Baku:  PROVINCE
 STAT.                    Baku:  STATE NAME
 CTRY.              Azerbaijan:  COUNTRY NAME
 FLD .                     ACG:  FIELD NAME
 SRVC.     TURAN Drilling & Engineering:  CONTRACTOR
 WELL.                     J27:  WELL NAME
 RIG .             West Chirag:  RIG NAME
 DOE .                     N/A:  DOE NUMBER
 DCON.         Sperry Drilling:  DIRECTNL CONTR
 PDAT.          Mean Sea Level:  PERMANENT DATUM
 WTYP.                Deviated:  WELL TYPE
 MWDS.                    Baku:  MWD SHOP
 JOBN.        AZ-XX-0906571587:  JOB TICKET NUMB
 UNIT.                     N/A:  LOGGING EQUIPMENT ID
 MDS .        Operator Entered:  MAG DATA SOURCE
 CNTY.                        :  COUNTY
 LOC .                        :  LOCATION
 LMF .             Drill Floor:  LOG MEASURED FROM
 TVDS.m                  43.00:  TVDSS CORRECTN
 LATI.deg                40.13:  LATITUDE
 LONG.deg                51.22:  LONGITUDE
 WHNS.m                   7.72:  WELL HEAD N/S
 WHEW.m                 -14.24:  WELL HEAD E/W
 UTMX.m              519005.06:  UTM X
 UTMY.m             4443793.85:  UTM Y
 DFWL.m                   0.00:  DISTANCE FWL
 DFSL.m                   0.00:  DISTANCE FSL
 SDEP.m                 347.00:  START DEPTH
 TDD .m                 581.00:  TOTAL DEPTH (DRILLER)
 VSDR.deg               159.72:  VERT SEC DIRECT
 GVFD.g                   1.00:  GRAVITY FIELD
 MFLD.nT              50313.00:  MAGNETIC FIELD
 MDIP.deg                59.58:  MAGNETIC DIP
 MDEC.deg                 6.45:  MAGNETIC DECL
 GRDC.deg                 0.15:  GRID CORRECTION
 AZTC.deg                 6.30:  AZM TOTAL CORR
 EPD .m                   0.00:  ELEVATION
 EGL .m                   0.00:  GROUND ELEVATION
 WDMS.m                 169.80:  WD ELEV
 APD .m                  43.00:  DEPTH ABOVE PD
 AGAP.m                  43.00:  AIR GAP
 VSEW.m                 -14.24:  VERT SEC E/W
 VSNS.m                   7.72:  VERT SEC N/S
 DEP .m                 342.45:  DEPTH
 EKB .m                   0.00:  KB ELEVATION
 EDF .m                  43.00:  DF ELEVATION
 TDL .m                1313.00:  TOTAL DEPTH (LOGGER)
 VSC .                       0:  VS TO CLOSURE
 MAGU.                 1851396:  MAGUTM CHECKSUM
~Parameter Information Block
#MNEM.UNIT       Value        Description
#---------     -----------    ---------------------------
 AV  .mps                 0.65:  Ann Velocity 
 AVMX.mps                 0.75:  Max Ann Veloc 
 AZIF.deg               115.08:  Azm, Final 
 BHAT.        Rotary Steerable:  BHA Type 
 BROT.°/30m               1.50:  Build Rotating 
 BS  .in                 12.25:  Bit Size 
 BSZ .in                 12.25:  Bit Size 
 BTPL.psig              700.00:  Bit Press Loss 
 CABU.                     Yes:  Customer Abuse 
 COMM.                     ”Õ`:  Run Comments 1 
 TCS .hr                121.00:  Time Ciculation Ended 
 CV  .mps                 1.83:  Crit Velocity 
 CVMX.mps                 1.83:  Max Crit Veloc 
 DD1 .          Rashad Habibov:  Direct Drillr 1 
 DD2 .         Rasim Ibrahimov:  Direct Drillr 2 
 DDSV.                 iCruise:  DD Service 
 DEFF.%                 100.00:  % Det Eff 
 DLRX.°/30m               3.60:  Dogleg Rot Max 
 DLSO.°/30m               3.10:  Dogleg Oriented 
 DLSX.°/30m               3.60:  Dogleg Str Max 
 DRET.      13.41.20 12-Nov-20:  Drill End Time 
 DRST.      13.41.20 07-Nov-20:  Drill Start Tim 
 DTIM.hr                 54.16:  Time Drilling 
 EDEP.m                4762.01:  End Depth 
 ENG1.           Amrah Tahirov:  Engineer 1 
 ENG2.      Bakhtiyar Jabbarli:  Engineer 2 
 ENG3.          Ruslan Safarov:  Engineer 3 
 ETIM.      13.41.20 14-Nov-20:  End Time 
 FLOI.gpm              1200.00:  Flow In 
 FLON.gpm              1100.00:  Flow In Min 
 FLOS.cptm                0.00:  Fluid Loss 
 FLOX.gpm              1200.00:  Flow In Max 
 HFLO.                      No:  High Flow 
 HPRE.                      No:  High Pressure 
 HTEM.                      No:  High Temp 
 HYDO.m                   2.00:  Hydro Offset 
 IFIN.deg                66.14:  Inc, Final 
 IMAX.deg                69.03:  Inc Max 
 IMIN.deg                64.64:  Inc Min 
 IMND.m                4450.16:  Inc Min Depth 
 IMXD.m                3996.00:  Inc Max Depth 
 JARR.                     Yes:  Jarring 
 LETM.      13.41.20 14-Nov-20:  Log End Time 
 LOST.hr                     0:  Lost Rig Time 
 LSTM.      13.41.20 06-Nov-20:  Log Start Time 
 MDCL.ppm             42500.00:  Mud Chlorides 
 MDES.     Inversion Oil/Synthetic:  Mud Desc 
 DFD .sg                  1.45:  Mud Density 
 MDMN.sg                  1.45:  Dens Mud Min 
 MDMX.sg                  1.45:  Dens Mud Max 
 MOIL.                      70:  Run Mud Oil % 
 MOWR.                   70:30:  Run Mud OWR 
 MSND.                       0:  Run Mud Sand % 
 MSOL.                    19.3:  Run Mud Solids% 
 DFV .spqt               77.00:  Mud Viscosity 
 MWOD.in                  8.00:  MWD Tool OD 
 MWSI.                      No:  Serv Intrp, MWD 
 OTIM.hr                201.88:  Time Operating 
 PCON.           Look Like New:  Pad Condition 
 PMAX.psia             9250.94:  Press Op, Max 
 PV  .cP                 29.00:  Mud PV 
 RUN .                     800:  Run Number 
 ROPA.m/hr               28.00:  ROP Avg 
 ROPN.m/hr               25.00:  ROP Min 
 ROPX.m/hr               30.00:  ROP Max 
 RPMA.rpm               160.00:  RPM Surface Avg 
 RPMN.rpm               160.00:  RPM Surface Min 
 RPMX.rpm               160.00:  RPM Surface Max 
 RRUN.                    0800:  Rig Run Number 
 RTIM.hr                 12.00:  Time Reaming 
 SAZI.deg               169.33:  Azm, Start 
 SDEP.m                3449.01:  Start Depth 
 SIDD.                      No:  Serv Intrp, DD 
 SINC.deg                68.01:  Inc, Start 
 SPPA.psig             4900.00:  SPP Avg 
 SPPN.psig             4800.00:  SPP Min 
 SPPX.psig             5050.00:  SPP Max 
 STIM.      13.41.20 06-Nov-20:  Start Time 
 SVCS.                 DD, MWD:  Services 
 SVER.                    9.20:  Sperry Version 
 TDAT.m                4762.01:  Tot Depth Attmp 
 TDDF.                      No:  Trip for DD 
 TDLG.m                1313.00:  Tot Depth Loggd 
 TFF .                      No:  Trip for Fail 
 TQAA.f-kp               13.00:  Torque Abs Avg 
 TQAN.f-kp               13.00:  Torque Abs Min 
 TQAX.f-kp               13.00:  Torque Abs Max 
 TRRT.°/30m               1.70:  Turn Rotating 
 MRT .                  EWR-M5:  Maximum Recorded Temperature 
 TTMX.degC               86.00:  Max Tool Temp 
 VS01.                90622122:  Virtual Str1 SN 
 VS02.                90577298:  Virtual Str2 SN 
 VS03.                90563623:  Virtual Str3 SN 
 VS04.                90617559:  Virtual Str4 SN 
 VS05.                11339492:  Virtual Str5 SN 
 VS06.                12385033:  Virtual Str6 SN 
 WBMN.klb                 0.00:  WOB Min 
 WOBA.klb                22.00:  WOB Avg 
 WOBX.klb                26.00:  WOB Max 
 YP  .lhf2               30.00:  Yield Point 
~Curve Information Block
#MNEM.UNIT                 API CODE     Curve Description
#---------               -----------    ---------------------------
 TIME.HHMMSS            00 000 000 000:  GT Time & Date
 GTDEPTH.m              00 000 000 000:  GT Depth
 GTPQH.psia             00 000 000 000:  GT HR Quartz Pressure
 GTTQ.degC              00 000 000 000:  GT Quartz Temperature
 GTTN.NONE              00 000 000 000:  GT Test Number
 GTET.sec               00 000 000 000:  GT Elapsed Test Time
 GTTVD.m                00 000 000 000:  GT True Vertical Depth
#Other Information
#
#WARRANTY: Halliburton will use its best efforts to furnish customers with 
#accurate information and interpretations that are part of, and incident to, the services 
#provided.  However, Halliburton cannot and does not warrant the accuracy 
#or correctness of such information and interpretations.  Under no circumstances should any 
#such information or interpretation be relied upon as the sole basis for any drilling, 
#completion, production, or financial decision or any procedure involving any risk to the 
#safety of any drilling venture, drilling rig or its crew or any other third party.  The 
#Customer has full responsibility for all drilling, completion and production operation.  
#Halliburton makes no representations or warranties, either expressed or 
#implied, including, but not limited to, the implied warranties of merchantability or fitness 
#for a particular purpose, with respect to the services rendered.  In no event will 
#Halliburton be liable for failure to obtain any particular results or for 
#any damages, including, but not limited to, indirect, special or consequential damages, 
#resulting from the use of any information or interpretation provided by Halliburton.
#
~A           TIME           GTDEPTH  GTPQH  GTTQ  GTTN  GTET   GTTVD  
# ...
   22:35:58.796.10-Nov-2020 4535.01 4061.05 81.93 6.00 253.03 2393.67
   22:35:58.996.10-Nov-2020 4535.01 4061.05 81.93 6.00 253.23 2393.67
   22:35:59.196.10-Nov-2020 4535.01 4061.04 81.93 6.00 253.43 2393.67
   22:35:59.396.10-Nov-2020 4535.01 4060.95 81.93 6.00 253.63 2393.67
   22:35:59.596.10-Nov-2020 4535.01 4061.01 81.93 6.00 253.83 2393.67
   22:35:59.796.10-Nov-2020 4535.01 4060.98 81.93 6.00 254.03 2393.67
   22:35:59.996.10-Nov-2020 4535.01 4060.98 81.93 6.00 254.23 2393.67
   22:36:00.196.10-Nov-2020 4535.01 4060.93 81.93 6.00 254.43 2393.67
   22:36:00.396.10-Nov-2020 4535.01 4060.98 81.93 6.00 254.63 2393.67
   22:36:00.596.10-Nov-2020 4535.01 4060.89 81.92 6.00 254.83 2393.67
   22:36:00.796.10-Nov-2020 4535.01 4061.03 81.92 6.00 255.03 2393.67
   22:36:00.996.10-Nov-2020 4535.01 4060.92 81.92 6.00 255.23 2393.67
   22:36:01.196.10-Nov-2020 4535.01 4060.96 81.92 6.00 255.43 2393.67
   22:36:01.396.10-Nov-2020 4535.01 4060.98 81.92 6.00 255.63 2393.67
   22:36:01.596.10-Nov-2020 4535.01 4060.99 81.92 6.00 255.83 2393.67
   22:36:01.796.10-Nov-2020 4535.01 4060.99 81.92 6.00 256.03 2393.67
   22:36:01.996.10-Nov-2020 4535.01 4060.99 81.92 6.00 256.23 2393.67
   22:36:02.196.10-Nov-2020 4535.01 4060.97 81.92 6.00 256.43 2393.67
   22:36:02.396.10-Nov-2020 4535.01 4060.97 81.92 6.00 256.63 2393.67
   22:36:02.596.10-Nov-2020 4535.01 4061.08 81.91 6.00 256.83 2393.67
   22:36:02.796.10-Nov-2020 4535.01 4061.13 81.91 6.00 257.03 2393.67
   22:36:02.996.10-Nov-2020 4535.01 4061.13 81.91 6.00 257.23 2393.67
   22:36:03.196.10-Nov-2020 4535.01 4061.09 81.91 6.00 257.43 2393.67
   22:36:03.397.10-Nov-2020 4535.01 4060.93 81.91 6.00 257.63 2393.67
   22:36:03.597.10-Nov-2020 4535.01 4060.88 81.91 6.00 257.83 2393.67
   22:36:03.797.10-Nov-2020 4535.01 4061.01 81.91 6.00 258.03 2393.67
   22:36:03.997.10-Nov-2020 4535.01 4061.01 81.91 6.00 258.23 2393.67
   22:36:04.197.10-Nov-2020 4535.01 3981.88 81.91 6.00 258.43 2393.67
   22:36:04.397.10-Nov-2020 4535.01 3975.12 81.91 6.00 258.63 2393.67
   22:36:04.597.10-Nov-2020 4535.01 3975.02 81.90 6.00 258.83 2393.67
   22:36:04.797.10-Nov-2020 4535.01 3973.81 81.90 6.00 259.04 2393.67
   22:36:04.997.10-Nov-2020 4535.01 3974.00 81.90 6.00 259.24 2393.67
   22:36:05.197.10-Nov-2020 4535.01 3973.73 81.90 6.00 259.44 2393.67
   22:36:05.397.10-Nov-2020 4535.01 3973.91 81.90 6.00 259.64 2393.67
   22:36:05.597.10-Nov-2020 4535.01 3974.02 81.90 6.00 259.84 2393.67
   22:36:05.797.10-Nov-2020 4535.01 3973.52 81.90 6.00 260.04 2393.67
   22:36:05.997.10-Nov-2020 4535.01 3973.52 81.90 6.00 260.24 2393.67
   22:36:06.197.10-Nov-2020 4535.01 3972.88 81.90 6.00 260.44 2393.67
   22:36:06.397.10-Nov-2020 4535.01 3974.13 81.90 6.00 260.64 2393.67
   22:36:06.597.10-Nov-2020 4535.01 3974.36 81.89 6.00 260.84 2393.67
   22:36:06.797.10-Nov-2020 4535.01 3973.97 81.89 6.00 261.04 2393.67
   22:36:06.997.10-Nov-2020 4535.01 3973.97 81.89 6.00 261.24 2393.67
   22:36:07.197.10-Nov-2020 4535.01 3973.94 81.89 6.00 261.44 2393.67
   22:36:07.397.10-Nov-2020 4535.01 3974.35 81.89 6.00 261.64 2393.67
   22:36:07.597.10-Nov-2020 4535.01 3974.22 81.89 6.00 261.84 2393.67
   22:36:07.797.10-Nov-2020 4535.01 3974.32 81.89 6.00 262.04 2393.67
   22:36:07.997.10-Nov-2020 4535.01 3974.32 81.89 6.00 262.24 2393.67
   22:36:08.197.10-Nov-2020 4535.01 3974.28 81.89 6.00 262.44 2393.67
   22:36:08.397.10-Nov-2020 4535.01 3974.80 81.88 6.00 262.64 2393.67
   22:36:08.597.10-Nov-2020 4535.01 3974.52 81.88 6.00 262.84 2393.67
   22:36:08.797.10-Nov-2020 4535.01 3974.26 81.88 6.00 263.04 2393.67
   22:36:08.997.10-Nov-2020 4535.01 3973.42 81.88 6.00 263.24 2393.67
   22:36:09.197.10-Nov-2020 4535.01 3974.29 81.88 6.00 263.44 2393.67
   22:36:09.397.10-Nov-2020 4535.01 3974.49 81.88 6.00 263.64 2393.67
   22:36:09.597.10-Nov-2020 4535.01 3974.31 81.88 6.00 263.84 2393.67
   22:36:09.797.10-Nov-2020 4535.01 3974.49 81.88 6.00 264.04 2393.67
   22:36:09.997.10-Nov-2020 4535.01 3974.44 81.88 6.00 264.24 2393.67
   22:36:10.197.10-Nov-2020 4535.01 3974.49 81.87 6.00 264.44 2393.67
   22:36:10.397.10-Nov-2020 4535.01 3974.65 81.87 6.00 264.64 2393.67
   22:36:10.597.10-Nov-2020 4535.01 3975.21 81.87 6.00 264.84 2393.67
   22:36:10.798.10-Nov-2020 4535.01 3975.13 81.87 6.00 265.04 2393.67
   22:36:10.998.10-Nov-2020 4535.01 3974.04 81.87 6.00 265.24 2393.67
   22:36:11.198.10-Nov-2020 4535.01 3974.70 81.87 6.00 265.44 2393.67
   22:36:11.398.10-Nov-2020 4535.01 3976.17 81.87 6.00 265.64 2393.67
   22:36:11.598.10-Nov-2020 4535.01 3973.48 81.87 6.00 265.84 2393.67
   22:36:11.798.10-Nov-2020 4535.01 3975.47 81.87 6.00 266.04 2393.67
   22:36:11.998.10-Nov-2020 4535.01 3975.47 81.87 6.00 266.24 2393.67
   22:36:12.198.10-Nov-2020 4535.01 3974.40 81.86 6.00 266.44 2393.67
   22:36:12.398.10-Nov-2020 4535.01 3975.33 81.86 6.00 266.64 2393.67
   22:36:12.598.10-Nov-2020 4535.01 4010.01 81.86 6.00 266.84 2393.67
   22:36:12.798.10-Nov-2020 4535.01 4055.93 81.86 6.00 267.04 2393.67
   22:36:12.998.10-Nov-2020 4535.01 4055.93 81.86 6.00 267.24 2393.67
   22:36:13.198.10-Nov-2020 4535.01 4059.08 81.86 6.00 267.44 2393.67
   22:36:13.398.10-Nov-2020 4535.01 4059.47 81.86 6.00 267.64 2393.67
   22:36:13.598.10-Nov-2020 4535.01 4059.54 81.86 6.00 267.84 2393.67
   22:36:13.798.10-Nov-2020 4535.01 4059.79 81.86 6.00 268.04 2393.67
   22:36:13.998.10-Nov-2020 4535.01 4059.79 81.86 6.00 268.24 2393.67
   22:36:14.198.10-Nov-2020 4535.01 4060.16 81.85 6.00 268.44 2393.67
   22:36:14.398.10-Nov-2020 4535.01 4060.17 81.85 6.00 268.64 2393.67
   22:36:14.598.10-Nov-2020 4535.01 4060.28 81.85 6.00 268.84 2393.67
   22:36:14.798.10-Nov-2020 4535.01 4060.43 81.85 6.00 269.04 2393.67
   22:36:14.998.10-Nov-2020 4535.01 4060.43 81.85 6.00 269.24 2393.67
   22:36:15.198.10-Nov-2020 4535.01 4060.40 81.85 6.00 269.44 2393.67
   22:36:15.398.10-Nov-2020 4535.01 4060.41 81.85 6.00 269.64 2393.67
   22:36:15.598.10-Nov-2020 4535.01 4060.47 81.85 6.00 269.84 2393.67
   22:36:15.798.10-Nov-2020 4535.01 4060.45 81.85 6.00 270.04 2393.67
   22:36:15.998.10-Nov-2020 4535.01 4060.45 81.84 6.00 270.24 2393.67
   22:36:16.198.10-Nov-2020 4535.01 4060.50 81.84 6.00 270.44 2393.67
   22:36:16.398.10-Nov-2020 4535.01 4060.53 81.84 6.00 270.64 2393.67
   22:36:16.598.10-Nov-2020 4535.01 4060.60 81.84 6.00 270.84 2393.67
   22:36:16.798.10-Nov-2020 4535.01 4060.55 81.84 6.00 271.04 2393.67
   22:36:16.998.10-Nov-2020 4535.01 4060.54 81.84 6.00 271.24 2393.67
   22:36:17.198.10-Nov-2020 4535.01 4060.57 81.84 6.00 271.44 2393.67
   22:36:17.398.10-Nov-2020 4535.01 4060.59 81.84 6.00 271.64 2393.67
   22:36:17.598.10-Nov-2020 4535.01 4060.53 81.84 6.00 271.84 2393.67
   22:36:17.798.10-Nov-2020 4535.01 4060.74 81.84 6.00 272.04 2393.67
   22:36:17.999.10-Nov-2020 4535.01 4060.74 81.84 6.00 272.24 2393.67
   22:36:18.199.10-Nov-2020 4535.01 4060.66 81.83 6.00 272.44 2393.67
   22:36:18.399.10-Nov-2020 4535.01 4060.63 81.83 6.00 272.64 2393.67
   22:36:18.599.10-Nov-2020 4535.01 4060.66 81.83 6.00 272.84 2393.67
   22:36:18.799.10-Nov-2020 4535.01 4060.63 81.83 6.00 273.04 2393.67
   22:36:18.999.10-Nov-2020 4535.01 4060.63 81.83 6.00 273.24 2393.67
   22:36:19.199.10-Nov-2020 4535.01 4060.70 81.83 6.00 273.44 2393.67
   22:36:19.399.10-Nov-2020 4535.01 4060.69 81.83 6.00 273.64 2393.67
   22:36:19.599.10-Nov-2020 4535.01 4060.67 81.83 6.00 273.84 2393.67
   22:36:19.799.10-Nov-2020 4535.01 4060.68 81.83 6.00 274.04 2393.67
   22:36:19.999.10-Nov-2020 4535.01 4060.68 81.82 6.00 274.24 2393.67
   22:36:20.199.10-Nov-2020 4535.01 4060.74 81.82 6.00 274.44 2393.67
   22:36:20.399.10-Nov-2020 4535.01 4060.87 81.82 6.00 274.64 2393.67
   22:36:20.599.10-Nov-2020 4535.01 4060.74 81.82 6.00 274.84 2393.67
   22:36:20.799.10-Nov-2020 4535.01 4060.92 81.82 6.00 275.04 2393.67
   22:36:20.999.10-Nov-2020 4535.01 4060.60 81.82 6.00 275.24 2393.67
   22:36:21.199.10-Nov-2020 4535.01 4060.75 81.82 6.00 275.44 2393.67
   22:36:21.399.10-Nov-2020 4535.01 4060.62 81.82 6.00 275.64 2393.67
   22:36:21.599.10-Nov-2020 4535.01 4060.76 81.82 6.00 275.84 2393.67
