~Version Information
 VERS.                  2.0:   CWLS log ASCII Standard -VERSION 2.0
 WRAP.                   NO:   One line per depth step
~Well Information Block
#MNEM.UNIT     VALUE/NAME     DESCRIPTION
#---------     -----------    ---------------------------
 STRT.S             22:31:45 10-Nov-20: START TIME 22:31:45 10-Nov-20
 STOP.S             22:38:18 10-Nov-20: STOP TIME  22:38:18 10-Nov-20
 STEP.S                   0.00: STEP TIME
 NULL.                 -999.25: NULL VALUE
 DFWT.                        :  DIST FWL TEXT
 DFST.                        :  DIST FSL TEXT
 DMF .             Drill Floor:  DRILL MEAS FROM
 STIM.      04.54.24 22-Sep-20:  START TIME
 DATE.      04.54.24 21-Nov-20:  END TIME
 SPUD.               21-Nov-20:  SPUD DATE
 NREF.                    Grid:  NORTH REFERENCE
 HPTY.       Minimum Curvature:  HOLE POS TYPE
 DMOD.             Drill Model:  DRILL MOD DESC
 SVYD.                  Survey:  SURVEY DESC
 ILTD.               Lithology:  INTERP LTH DESC
 FTOP.          Formation Tops:  FORM TOPS DESC
 SON .        AZ-XX-0906571587:  JOB NUMBER
 COMP.     BP Exploration (Caspian Sea) Ltd:  COMPANY
 UWI .                     N/A:  UNIQUE WELL IDENTIFIER
 API .                     N/A:  API NUMBER
 BASE.              Azerbaijan:  LOGGING EQUIPMENT BASE LOCATION
 REGN.                   EESSA:  REGION
 PROV.                    Baku:  PROVINCE
 STAT.                    Baku:  STATE NAME
 CTRY.              Azerbaijan:  COUNTRY NAME
 FLD .                     ACG:  FIELD NAME
 SRVC.     TURAN Drilling & Engineering:  CONTRACTOR
 WELL.                     J27:  WELL NAME
 RIG .             West Chirag:  RIG NAME
 DOE .                     N/A:  DOE NUMBER
 DCON.         Sperry Drilling:  DIRECTNL CONTR
 PDAT.          Mean Sea Level:  PERMANENT DATUM
 WTYP.                Deviated:  WELL TYPE
 MWDS.                    Baku:  MWD SHOP
 JOBN.        AZ-XX-0906571587:  JOB TICKET NUMB
 UNIT.                     N/A:  LOGGING EQUIPMENT ID
 MDS .        Operator Entered:  MAG DATA SOURCE
 CNTY.                        :  COUNTY
 LOC .                        :  LOCATION
 LMF .             Drill Floor:  LOG MEASURED FROM
 TVDS.m                  43.00:  TVDSS CORRECTN
 LATI.deg                40.13:  LATITUDE
 LONG.deg                51.22:  LONGITUDE
 WHNS.m                   7.72:  WELL HEAD N/S
 WHEW.m                 -14.24:  WELL HEAD E/W
 UTMX.m              519005.06:  UTM X
 UTMY.m             4443793.85:  UTM Y
 DFWL.m                   0.00:  DISTANCE FWL
 DFSL.m                   0.00:  DISTANCE FSL
 SDEP.m                 347.00:  START DEPTH
 TDD .m                 581.00:  TOTAL DEPTH (DRILLER)
 VSDR.deg               159.72:  VERT SEC DIRECT
 GVFD.g                   1.00:  GRAVITY FIELD
 MFLD.nT              50313.00:  MAGNETIC FIELD
 MDIP.deg                59.58:  MAGNETIC DIP
 MDEC.deg                 6.45:  MAGNETIC DECL
 GRDC.deg                 0.15:  GRID CORRECTION
 AZTC.deg                 6.30:  AZM TOTAL CORR
 EPD .m                   0.00:  ELEVATION
 EGL .m                   0.00:  GROUND ELEVATION
 WDMS.m                 169.80:  WD ELEV
 APD .m                  43.00:  DEPTH ABOVE PD
 AGAP.m                  43.00:  AIR GAP
 VSEW.m                 -14.24:  VERT SEC E/W
 VSNS.m                   7.72:  VERT SEC N/S
 DEP .m                 342.45:  DEPTH
 EKB .m                   0.00:  KB ELEVATION
 EDF .m                  43.00:  DF ELEVATION
 TDL .m                1313.00:  TOTAL DEPTH (LOGGER)
 VSC .                       0:  VS TO CLOSURE
 MAGU.                 1851396:  MAGUTM CHECKSUM
~Parameter Information Block
#MNEM.UNIT       Value        Description
#---------     -----------    ---------------------------
 AV  .mps                 0.65:  Ann Velocity 
 AVMX.mps                 0.75:  Max Ann Veloc 
 AZIF.deg               115.08:  Azm, Final 
 BHAT.        Rotary Steerable:  BHA Type 
 BROT.°/30m               1.50:  Build Rotating 
 BS  .in                 12.25:  Bit Size 
 BSZ .in                 12.25:  Bit Size 
 BTPL.psig              700.00:  Bit Press Loss 
 CABU.                     Yes:  Customer Abuse 
 COMM.                     ”Õ`:  Run Comments 1 
 TCS .hr                121.00:  Time Ciculation Ended 
 CV  .mps                 1.83:  Crit Velocity 
 CVMX.mps                 1.83:  Max Crit Veloc 
 DD1 .          Rashad Habibov:  Direct Drillr 1 
 DD2 .         Rasim Ibrahimov:  Direct Drillr 2 
 DDSV.                 iCruise:  DD Service 
 DEFF.%                 100.00:  % Det Eff 
 DLRX.°/30m               3.60:  Dogleg Rot Max 
 DLSO.°/30m               3.10:  Dogleg Oriented 
 DLSX.°/30m               3.60:  Dogleg Str Max 
 DRET.      13.41.20 12-Nov-20:  Drill End Time 
 DRST.      13.41.20 07-Nov-20:  Drill Start Tim 
 DTIM.hr                 54.16:  Time Drilling 
 EDEP.m                4762.01:  End Depth 
 ENG1.           Amrah Tahirov:  Engineer 1 
 ENG2.      Bakhtiyar Jabbarli:  Engineer 2 
 ENG3.          Ruslan Safarov:  Engineer 3 
 ETIM.      13.41.20 14-Nov-20:  End Time 
 FLOI.gpm              1200.00:  Flow In 
 FLON.gpm              1100.00:  Flow In Min 
 FLOS.cptm                0.00:  Fluid Loss 
 FLOX.gpm              1200.00:  Flow In Max 
 HFLO.                      No:  High Flow 
 HPRE.                      No:  High Pressure 
 HTEM.                      No:  High Temp 
 HYDO.m                   2.00:  Hydro Offset 
 IFIN.deg                66.14:  Inc, Final 
 IMAX.deg                69.03:  Inc Max 
 IMIN.deg                64.64:  Inc Min 
 IMND.m                4450.16:  Inc Min Depth 
 IMXD.m                3996.00:  Inc Max Depth 
 JARR.                     Yes:  Jarring 
 LETM.      13.41.20 14-Nov-20:  Log End Time 
 LOST.hr                     0:  Lost Rig Time 
 LSTM.      13.41.20 06-Nov-20:  Log Start Time 
 MDCL.ppm             42500.00:  Mud Chlorides 
 MDES.     Inversion Oil/Synthetic:  Mud Desc 
 DFD .sg                  1.45:  Mud Density 
 MDMN.sg                  1.45:  Dens Mud Min 
 MDMX.sg                  1.45:  Dens Mud Max 
 MOIL.                      70:  Run Mud Oil % 
 MOWR.                   70:30:  Run Mud OWR 
 MSND.                       0:  Run Mud Sand % 
 MSOL.                    19.3:  Run Mud Solids% 
 DFV .spqt               77.00:  Mud Viscosity 
 MWOD.in                  8.00:  MWD Tool OD 
 MWSI.                      No:  Serv Intrp, MWD 
 OTIM.hr                201.88:  Time Operating 
 PCON.           Look Like New:  Pad Condition 
 PMAX.psia             9250.94:  Press Op, Max 
 PV  .cP                 29.00:  Mud PV 
 RUN .                     800:  Run Number 
 ROPA.m/hr               28.00:  ROP Avg 
 ROPN.m/hr               25.00:  ROP Min 
 ROPX.m/hr               30.00:  ROP Max 
 RPMA.rpm               160.00:  RPM Surface Avg 
 RPMN.rpm               160.00:  RPM Surface Min 
 RPMX.rpm               160.00:  RPM Surface Max 
 RRUN.                    0800:  Rig Run Number 
 RTIM.hr                 12.00:  Time Reaming 
 SAZI.deg               169.33:  Azm, Start 
 SDEP.m                3449.01:  Start Depth 
 SIDD.                      No:  Serv Intrp, DD 
 SINC.deg                68.01:  Inc, Start 
 SPPA.psig             4900.00:  SPP Avg 
 SPPN.psig             4800.00:  SPP Min 
 SPPX.psig             5050.00:  SPP Max 
 STIM.      13.41.20 06-Nov-20:  Start Time 
 SVCS.                 DD, MWD:  Services 
 SVER.                    9.20:  Sperry Version 
 TDAT.m                4762.01:  Tot Depth Attmp 
 TDDF.                      No:  Trip for DD 
 TDLG.m                1313.00:  Tot Depth Loggd 
 TFF .                      No:  Trip for Fail 
 TQAA.f-kp               13.00:  Torque Abs Avg 
 TQAN.f-kp               13.00:  Torque Abs Min 
 TQAX.f-kp               13.00:  Torque Abs Max 
 TRRT.°/30m               1.70:  Turn Rotating 
 MRT .                  EWR-M5:  Maximum Recorded Temperature 
 TTMX.degC               86.00:  Max Tool Temp 
 VS01.                90622122:  Virtual Str1 SN 
 VS02.                90577298:  Virtual Str2 SN 
 VS03.                90563623:  Virtual Str3 SN 
 VS04.                90617559:  Virtual Str4 SN 
 VS05.                11339492:  Virtual Str5 SN 
 VS06.                12385033:  Virtual Str6 SN 
 WBMN.klb                 0.00:  WOB Min 
 WOBA.klb                22.00:  WOB Avg 
 WOBX.klb                26.00:  WOB Max 
 YP  .lhf2               30.00:  Yield Point 
~Curve Information Block
#MNEM.UNIT                 API CODE     Curve Description
#---------               -----------    ---------------------------
 TIME.HHMMSS            00 000 000 000:  GT Time & Date
 GTDEPTH.m              00 000 000 000:  GT Depth
 GTPQH.psia             00 000 000 000:  GT HR Quartz Pressure
 GTTQ.degC              00 000 000 000:  GT Quartz Temperature
 GTTN.NONE              00 000 000 000:  GT Test Number
 GTET.sec               00 000 000 000:  GT Elapsed Test Time
 GTTVD.m                00 000 000 000:  GT True Vertical Depth
#Other Information
#
#WARRANTY: Halliburton will use its best efforts to furnish customers with 
#accurate information and interpretations that are part of, and incident to, the services 
#provided.  However, Halliburton cannot and does not warrant the accuracy 
#or correctness of such information and interpretations.  Under no circumstances should any 
#such information or interpretation be relied upon as the sole basis for any drilling, 
#completion, production, or financial decision or any procedure involving any risk to the 
#safety of any drilling venture, drilling rig or its crew or any other third party.  The 
#Customer has full responsibility for all drilling, completion and production operation.  
#Halliburton makes no representations or warranties, either expressed or 
#implied, including, but not limited to, the implied warranties of merchantability or fitness 
#for a particular purpose, with respect to the services rendered.  In no event will 
#Halliburton be liable for failure to obtain any particular results or for 
#any damages, including, but not limited to, indirect, special or consequential damages, 
#resulting from the use of any information or interpretation provided by Halliburton.
#
~A           TIME           GTDEPTH  GTPQH  GTTQ  GTTN  GTET   GTTVD  
# ...
   22:37:30.808.10-Nov-2020 4535.01 4061.11 81.46 6.00 345.05 2393.67
   22:37:31.008.10-Nov-2020 4535.01 4061.11 81.46 6.00 345.25 2393.67
   22:37:31.208.10-Nov-2020 4535.01 4061.13 81.46 6.00 345.45 2393.67
   22:37:31.408.10-Nov-2020 4535.01 4060.67 81.46 6.00 345.65 2393.67
   22:37:31.608.10-Nov-2020 4535.01 4060.91 81.46 6.00 345.85 2393.67
   22:37:31.808.10-Nov-2020 4535.01 4060.85 81.46 6.00 346.05 2393.67
   22:37:32.009.10-Nov-2020 4535.01 4060.85 81.46 6.00 346.25 2393.67
   22:37:32.209.10-Nov-2020 4535.01 4060.89 81.46 6.00 346.45 2393.67
   22:37:32.409.10-Nov-2020 4535.01 4060.87 81.46 6.00 346.65 2393.67
   22:37:32.609.10-Nov-2020 4535.01 4060.87 81.46 6.00 346.85 2393.67
   22:37:32.809.10-Nov-2020 4535.01 4060.98 81.45 6.00 347.05 2393.67
   22:37:33.009.10-Nov-2020 4535.01 4060.98 81.45 6.00 347.25 2393.67
   22:37:33.209.10-Nov-2020 4535.01 4061.09 81.45 6.00 347.45 2393.67
   22:37:33.409.10-Nov-2020 4535.01 4060.88 81.45 6.00 347.65 2393.67
   22:37:33.609.10-Nov-2020 4535.01 4060.99 81.45 6.00 347.85 2393.67
   22:37:33.809.10-Nov-2020 4535.01 4060.95 81.45 6.00 348.05 2393.67
   22:37:34.009.10-Nov-2020 4535.01 4060.95 81.45 6.00 348.25 2393.67
   22:37:34.209.10-Nov-2020 4535.01 4060.92 81.45 6.00 348.45 2393.67
   22:37:34.409.10-Nov-2020 4535.01 4060.82 81.45 6.00 348.65 2393.67
   22:37:34.609.10-Nov-2020 4535.01 4060.94 81.45 6.00 348.85 2393.67
   22:37:34.809.10-Nov-2020 4535.01 4060.96 81.44 6.00 349.05 2393.67
   22:37:35.009.10-Nov-2020 4535.01 4060.96 81.44 6.00 349.25 2393.67
   22:37:35.209.10-Nov-2020 4535.01 4060.87 81.44 6.00 349.45 2393.67
   22:37:35.409.10-Nov-2020 4535.01 4060.96 81.44 6.00 349.65 2393.67
   22:37:35.609.10-Nov-2020 4535.01 4060.98 81.44 6.00 349.85 2393.67
   22:37:35.809.10-Nov-2020 4535.01 4060.95 81.44 6.00 350.05 2393.67
   22:37:36.009.10-Nov-2020 4535.01 4060.97 81.44 6.00 350.25 2393.67
   22:37:36.209.10-Nov-2020 4535.01 4060.95 81.44 6.00 350.45 2393.67
   22:37:36.409.10-Nov-2020 4535.01 4060.91 81.44 6.00 350.65 2393.67
   22:37:36.609.10-Nov-2020 4535.01 4060.96 81.44 6.00 350.85 2393.67
   22:37:36.809.10-Nov-2020 4535.01 4060.91 81.43 6.00 351.05 2393.67
   22:37:37.009.10-Nov-2020 4535.01 4060.85 81.43 6.00 351.25 2393.67
   22:37:37.209.10-Nov-2020 4535.01 4060.90 81.43 6.00 351.45 2393.67
   22:37:37.409.10-Nov-2020 4535.01 4060.87 81.43 6.00 351.65 2393.67
   22:37:37.609.10-Nov-2020 4535.01 4060.96 81.43 6.00 351.85 2393.67
   22:37:37.809.10-Nov-2020 4535.01 4060.96 81.43 6.00 352.05 2393.67
   22:37:38.009.10-Nov-2020 4535.01 4060.96 81.43 6.00 352.25 2393.67
   22:37:38.209.10-Nov-2020 4535.01 4060.92 81.43 6.00 352.45 2393.67
   22:37:38.409.10-Nov-2020 4535.01 4060.94 81.43 6.00 352.65 2393.67
   22:37:38.609.10-Nov-2020 4535.01 4060.90 81.42 6.00 352.85 2393.67
   22:37:38.809.10-Nov-2020 4535.01 4060.94 81.42 6.00 353.05 2393.67
   22:37:39.009.10-Nov-2020 4535.01 4060.94 81.42 6.00 353.25 2393.67
   22:37:39.209.10-Nov-2020 4535.01 4060.87 81.42 6.00 353.45 2393.67
   22:37:39.410.10-Nov-2020 4535.01 4060.94 81.42 6.00 353.65 2393.67
   22:37:39.610.10-Nov-2020 4535.01 4061.19 81.42 6.00 353.85 2393.67
   22:37:39.810.10-Nov-2020 4535.01 4060.92 81.42 6.00 354.05 2393.67
   22:37:40.010.10-Nov-2020 4535.01 4060.92 81.42 6.00 354.25 2393.67
   22:37:40.210.10-Nov-2020 4535.01 4061.00 81.42 6.00 354.45 2393.67
   22:37:40.410.10-Nov-2020 4535.01 4060.81 81.42 6.00 354.65 2393.67
   22:37:40.610.10-Nov-2020 4535.01 4060.80 81.42 6.00 354.85 2393.67
   22:37:40.810.10-Nov-2020 4535.01 4060.91 81.41 6.00 355.05 2393.67
   22:37:41.010.10-Nov-2020 4535.01 4060.96 81.41 6.00 355.25 2393.67
   22:37:41.210.10-Nov-2020 4535.01 4060.76 81.41 6.00 355.45 2393.67
   22:37:41.410.10-Nov-2020 4535.01 4060.94 81.41 6.00 355.65 2393.67
   22:37:41.610.10-Nov-2020 4535.01 4061.00 81.41 6.00 355.85 2393.67
   22:37:41.810.10-Nov-2020 4535.01 4060.94 81.41 6.00 356.05 2393.67
   22:37:42.010.10-Nov-2020 4535.01 4060.94 81.41 6.00 356.25 2393.67
   22:37:42.210.10-Nov-2020 4535.01 4061.04 81.41 6.00 356.45 2393.67
   22:37:42.410.10-Nov-2020 4535.01 4060.88 81.41 6.00 356.65 2393.67
   22:37:42.610.10-Nov-2020 4535.01 4061.00 81.40 6.00 356.85 2393.67
   22:37:42.810.10-Nov-2020 4535.01 4060.97 81.40 6.00 357.05 2393.67
   22:37:43.010.10-Nov-2020 4535.01 4060.97 81.40 6.00 357.25 2393.67
   22:37:43.210.10-Nov-2020 4535.01 4060.81 81.40 6.00 357.45 2393.67
   22:37:43.410.10-Nov-2020 4535.01 4060.88 81.40 6.00 357.65 2393.67
   22:37:43.610.10-Nov-2020 4535.01 4060.94 81.40 6.00 357.85 2393.67
   22:37:43.810.10-Nov-2020 4535.01 4060.94 81.40 6.00 358.05 2393.67
   22:37:44.010.10-Nov-2020 4535.01 4060.94 81.40 6.00 358.25 2393.67
   22:37:44.210.10-Nov-2020 4535.01 4060.92 81.40 6.00 358.45 2393.67
   22:37:44.410.10-Nov-2020 4535.01 4061.00 81.40 6.00 358.65 2393.67
   22:37:44.610.10-Nov-2020 4535.01 4060.99 81.39 6.00 358.85 2393.67
   22:37:44.810.10-Nov-2020 4535.01 4060.97 81.39 6.00 359.05 2393.67
   22:37:45.010.10-Nov-2020 4535.01 4060.94 81.39 6.00 359.25 2393.67
   22:37:45.210.10-Nov-2020 4535.01 4060.89 81.39 6.00 359.45 2393.67
   22:37:45.410.10-Nov-2020 4535.01 4060.96 81.39 6.00 359.65 2393.67
   22:37:45.610.10-Nov-2020 4535.01 4060.92 81.39 6.00 359.85 2393.67
   22:37:45.810.10-Nov-2020 4535.01 4060.87 81.39 6.00 360.05 2393.67
   22:37:46.010.10-Nov-2020 4535.01 4060.87 81.39 6.00 360.25 2393.67
   22:37:46.210.10-Nov-2020 4535.01 4060.92 81.39 6.00 360.45 2393.67
   22:37:46.410.10-Nov-2020 4535.01 4060.95 81.39 6.00 360.65 2393.67
   22:37:46.610.10-Nov-2020 4535.01 4060.88 81.38 6.00 360.85 2393.67
   22:37:46.811.10-Nov-2020 4535.01 4060.87 81.38 6.00 361.05 2393.67
   22:37:47.011.10-Nov-2020 4535.01 4060.87 81.38 6.00 361.25 2393.67
   22:37:47.211.10-Nov-2020 4535.01 4060.91 81.38 6.00 361.45 2393.67
   22:37:47.411.10-Nov-2020 4535.01 4060.93 81.38 6.00 361.65 2393.67
   22:37:47.611.10-Nov-2020 4535.01 4060.95 81.38 6.00 361.85 2393.67
   22:37:47.811.10-Nov-2020 4535.01 4060.93 81.38 6.00 362.05 2393.67
   22:37:48.011.10-Nov-2020 4535.01 4060.93 81.38 6.00 362.25 2393.67
   22:37:48.211.10-Nov-2020 4535.01 4060.92 81.38 6.00 362.45 2393.67
   22:37:48.411.10-Nov-2020 4535.01 4060.95 81.38 6.00 362.65 2393.67
   22:37:48.611.10-Nov-2020 4535.01 4060.98 81.37 6.00 362.85 2393.67
   22:37:48.811.10-Nov-2020 4535.01 4060.86 81.37 6.00 363.05 2393.67
   22:37:49.011.10-Nov-2020 4535.01 4064.79 81.37 6.00 363.25 2393.67
   22:37:49.211.10-Nov-2020 4535.01 3970.97 81.37 6.00 363.45 2393.67
   22:37:49.411.10-Nov-2020 4535.01 3716.17 81.37 6.00 363.65 2393.67
   22:37:49.611.10-Nov-2020 4535.01 3991.48 81.37 6.00 363.85 2393.67
   22:37:49.811.10-Nov-2020 4535.01 4044.29 81.37 6.00 364.05 2393.67
   22:37:50.011.10-Nov-2020 4535.01 4044.29 81.37 6.00 364.25 2393.67
   22:37:50.211.10-Nov-2020 4535.01 4028.39 81.37 6.00 364.45 2393.67
   22:37:50.411.10-Nov-2020 4535.01 4027.21 81.37 6.00 364.65 2393.67
   22:37:50.611.10-Nov-2020 4535.01 4028.58 81.36 6.00 364.85 2393.67
   22:37:50.811.10-Nov-2020 4535.01 3984.52 81.36 6.00 365.05 2393.67
   22:37:51.011.10-Nov-2020 4535.01 3984.52 81.36 6.00 365.25 2393.67
   22:37:51.211.10-Nov-2020 4535.01 4221.79 81.36 6.00 365.45 2393.67
   22:37:51.411.10-Nov-2020 4535.01 4862.89 81.36 6.00 365.65 2393.67
   22:37:51.611.10-Nov-2020 4535.01 5046.14 81.36 6.00 365.85 2393.67
   22:37:51.811.10-Nov-2020 4535.01 5050.50 81.36 6.00 366.05 2393.67
   22:37:52.011.10-Nov-2020 4535.01 5050.50 81.36 6.00 366.25 2393.67
   22:37:52.211.10-Nov-2020 4535.01 5045.61 81.36 6.00 366.45 2393.67
   22:37:52.411.10-Nov-2020 4535.01 5046.11 81.36 6.00 366.65 2393.67
   22:37:52.611.10-Nov-2020 4535.01 5046.99 81.35 6.00 366.85 2393.67
   22:37:52.811.10-Nov-2020 4535.01 5045.43 81.35 6.00 367.05 2393.67
   22:37:53.011.10-Nov-2020 4535.01 5045.43 81.35 6.00 367.25 2393.67
   22:37:53.211.10-Nov-2020 4535.01 5047.09 81.35 6.00 367.45 2393.67
   22:37:53.411.10-Nov-2020 4535.01 5048.54 81.35 6.00 367.65 2393.67
   22:37:53.611.10-Nov-2020 4535.01 5049.09 81.35 6.00 367.85 2393.67
