~Version Information
 VERS.                  2.0:   CWLS log ASCII Standard -VERSION 2.0
 WRAP.                   NO:   One line per depth step
~Well Information Block
#MNEM.UNIT     VALUE/NAME     DESCRIPTION
#---------     -----------    ---------------------------
 STRT.S             13:56:13 08-Nov-20: START TIME 13:56:13 08-Nov-20
 STOP.S             14:02:43 08-Nov-20: STOP TIME  14:02:43 08-Nov-20
 STEP.S                   0.00: STEP TIME
 NULL.                 -999.25: NULL VALUE
 DFWT.                        :  DIST FWL TEXT
 DFST.                        :  DIST FSL TEXT
 DMF .             Drill Floor:  DRILL MEAS FROM
 STIM.      04.54.24 22-Sep-20:  START TIME
 DATE.      04.54.24 21-Nov-20:  END TIME
 SPUD.               21-Nov-20:  SPUD DATE
 NREF.                    Grid:  NORTH REFERENCE
 HPTY.       Minimum Curvature:  HOLE POS TYPE
 DMOD.             Drill Model:  DRILL MOD DESC
 SVYD.                  Survey:  SURVEY DESC
 ILTD.               Lithology:  INTERP LTH DESC
 FTOP.          Formation Tops:  FORM TOPS DESC
 SON .        AZ-XX-0906571587:  JOB NUMBER
 COMP.     BP Exploration (Caspian Sea) Ltd:  COMPANY
 UWI .                     N/A:  UNIQUE WELL IDENTIFIER
 API .                     N/A:  API NUMBER
 BASE.              Azerbaijan:  LOGGING EQUIPMENT BASE LOCATION
 REGN.                   EESSA:  REGION
 PROV.                    Baku:  PROVINCE
 STAT.                    Baku:  STATE NAME
 CTRY.              Azerbaijan:  COUNTRY NAME
 FLD .                     ACG:  FIELD NAME
 SRVC.     TURAN Drilling & Engineering:  CONTRACTOR
 WELL.                     J27:  WELL NAME
 RIG .             West Chirag:  RIG NAME
 DOE .                     N/A:  DOE NUMBER
 DCON.         Sperry Drilling:  DIRECTNL CONTR
 PDAT.          Mean Sea Level:  PERMANENT DATUM
 WTYP.                Deviated:  WELL TYPE
 MWDS.                    Baku:  MWD SHOP
 JOBN.        AZ-XX-0906571587:  JOB TICKET NUMB
 UNIT.                     N/A:  LOGGING EQUIPMENT ID
 MDS .        Operator Entered:  MAG DATA SOURCE
 CNTY.                        :  COUNTY
 LOC .                        :  LOCATION
 LMF .             Drill Floor:  LOG MEASURED FROM
 TVDS.m                  43.00:  TVDSS CORRECTN
 LATI.deg                40.13:  LATITUDE
 LONG.deg                51.22:  LONGITUDE
 WHNS.m                   7.72:  WELL HEAD N/S
 WHEW.m                 -14.24:  WELL HEAD E/W
 UTMX.m              519005.06:  UTM X
 UTMY.m             4443793.85:  UTM Y
 DFWL.m                   0.00:  DISTANCE FWL
 DFSL.m                   0.00:  DISTANCE FSL
 SDEP.m                 347.00:  START DEPTH
 TDD .m                 581.00:  TOTAL DEPTH (DRILLER)
 VSDR.deg               159.72:  VERT SEC DIRECT
 GVFD.g                   1.00:  GRAVITY FIELD
 MFLD.nT              50313.00:  MAGNETIC FIELD
 MDIP.deg                59.58:  MAGNETIC DIP
 MDEC.deg                 6.45:  MAGNETIC DECL
 GRDC.deg                 0.15:  GRID CORRECTION
 AZTC.deg                 6.30:  AZM TOTAL CORR
 EPD .m                   0.00:  ELEVATION
 EGL .m                   0.00:  GROUND ELEVATION
 WDMS.m                 169.80:  WD ELEV
 APD .m                  43.00:  DEPTH ABOVE PD
 AGAP.m                  43.00:  AIR GAP
 VSEW.m                 -14.24:  VERT SEC E/W
 VSNS.m                   7.72:  VERT SEC N/S
 DEP .m                 342.45:  DEPTH
 EKB .m                   0.00:  KB ELEVATION
 EDF .m                  43.00:  DF ELEVATION
 TDL .m                1313.00:  TOTAL DEPTH (LOGGER)
 VSC .                       0:  VS TO CLOSURE
 MAGU.                 1851396:  MAGUTM CHECKSUM
~Parameter Information Block
#MNEM.UNIT       Value        Description
#---------     -----------    ---------------------------
 AV  .mps                 0.65:  Ann Velocity 
 AVMX.mps                 0.75:  Max Ann Veloc 
 AZIF.deg               115.08:  Azm, Final 
 BHAT.        Rotary Steerable:  BHA Type 
 BROT.°/30m               1.50:  Build Rotating 
 BS  .in                 12.25:  Bit Size 
 BSZ .in                 12.25:  Bit Size 
 BTPL.psig              700.00:  Bit Press Loss 
 CABU.                     Yes:  Customer Abuse 
 COMM.                     ì¹^:  Run Comments 1 
 TCS .hr                121.00:  Time Ciculation Ended 
 CV  .mps                 1.83:  Crit Velocity 
 CVMX.mps                 1.83:  Max Crit Veloc 
 DD1 .          Rashad Habibov:  Direct Drillr 1 
 DD2 .         Rasim Ibrahimov:  Direct Drillr 2 
 DDSV.                 iCruise:  DD Service 
 DEFF.%                 100.00:  % Det Eff 
 DLRX.°/30m               3.60:  Dogleg Rot Max 
 DLSO.°/30m               3.10:  Dogleg Oriented 
 DLSX.°/30m               3.60:  Dogleg Str Max 
 DRET.      13.41.20 12-Nov-20:  Drill End Time 
 DRST.      13.41.20 07-Nov-20:  Drill Start Tim 
 DTIM.hr                 54.16:  Time Drilling 
 EDEP.m                4762.01:  End Depth 
 ENG1.           Amrah Tahirov:  Engineer 1 
 ENG2.      Bakhtiyar Jabbarli:  Engineer 2 
 ENG3.          Ruslan Safarov:  Engineer 3 
 ETIM.      13.41.20 14-Nov-20:  End Time 
 FLOI.gpm              1200.00:  Flow In 
 FLON.gpm              1100.00:  Flow In Min 
 FLOS.cptm                0.00:  Fluid Loss 
 FLOX.gpm              1200.00:  Flow In Max 
 HFLO.                      No:  High Flow 
 HPRE.                      No:  High Pressure 
 HTEM.                      No:  High Temp 
 HYDO.m                   2.00:  Hydro Offset 
 IFIN.deg                66.14:  Inc, Final 
 IMAX.deg                69.03:  Inc Max 
 IMIN.deg                64.64:  Inc Min 
 IMND.m                4450.16:  Inc Min Depth 
 IMXD.m                3996.00:  Inc Max Depth 
 JARR.                     Yes:  Jarring 
 LETM.      13.41.20 14-Nov-20:  Log End Time 
 LOST.hr                     0:  Lost Rig Time 
 LSTM.      13.41.20 06-Nov-20:  Log Start Time 
 MDCL.ppm             42500.00:  Mud Chlorides 
 MDES.     Inversion Oil/Synthetic:  Mud Desc 
 DFD .sg                  1.45:  Mud Density 
 MDMN.sg                  1.45:  Dens Mud Min 
 MDMX.sg                  1.45:  Dens Mud Max 
 MOIL.                      70:  Run Mud Oil % 
 MOWR.                   70:30:  Run Mud OWR 
 MSND.                       0:  Run Mud Sand % 
 MSOL.                    19.3:  Run Mud Solids% 
 DFV .spqt               77.00:  Mud Viscosity 
 MWOD.in                  8.00:  MWD Tool OD 
 MWSI.                      No:  Serv Intrp, MWD 
 OTIM.hr                201.88:  Time Operating 
 PCON.           Look Like New:  Pad Condition 
 PMAX.psia             9250.94:  Press Op, Max 
 PV  .cP                 29.00:  Mud PV 
 RUN .                     800:  Run Number 
 ROPA.m/hr               28.00:  ROP Avg 
 ROPN.m/hr               25.00:  ROP Min 
 ROPX.m/hr               30.00:  ROP Max 
 RPMA.rpm               160.00:  RPM Surface Avg 
 RPMN.rpm               160.00:  RPM Surface Min 
 RPMX.rpm               160.00:  RPM Surface Max 
 RRUN.                    0800:  Rig Run Number 
 RTIM.hr                 12.00:  Time Reaming 
 SAZI.deg               169.33:  Azm, Start 
 SDEP.m                3449.01:  Start Depth 
 SIDD.                      No:  Serv Intrp, DD 
 SINC.deg                68.01:  Inc, Start 
 SPPA.psig             4900.00:  SPP Avg 
 SPPN.psig             4800.00:  SPP Min 
 SPPX.psig             5050.00:  SPP Max 
 STIM.      13.41.20 06-Nov-20:  Start Time 
 SVCS.                 DD, MWD:  Services 
 SVER.                    9.20:  Sperry Version 
 TDAT.m                4762.01:  Tot Depth Attmp 
 TDDF.                      No:  Trip for DD 
 TDLG.m                1313.00:  Tot Depth Loggd 
 TFF .                      No:  Trip for Fail 
 TQAA.f-kp               13.00:  Torque Abs Avg 
 TQAN.f-kp               13.00:  Torque Abs Min 
 TQAX.f-kp               13.00:  Torque Abs Max 
 TRRT.°/30m               1.70:  Turn Rotating 
 MRT .                  EWR-M5:  Maximum Recorded Temperature 
 TTMX.degC               86.00:  Max Tool Temp 
 VS01.                90622122:  Virtual Str1 SN 
 VS02.                90577298:  Virtual Str2 SN 
 VS03.                90563623:  Virtual Str3 SN 
 VS04.                90617559:  Virtual Str4 SN 
 VS05.                11339492:  Virtual Str5 SN 
 VS06.                12385033:  Virtual Str6 SN 
 WBMN.klb                 0.00:  WOB Min 
 WOBA.klb                22.00:  WOB Avg 
 WOBX.klb                26.00:  WOB Max 
 YP  .lhf2               30.00:  Yield Point 
~Curve Information Block
#MNEM.UNIT                 API CODE     Curve Description
#---------               -----------    ---------------------------
 TIME.HHMMSS            00 000 000 000:  GT Time & Date
 GTDEPTH.m              00 000 000 000:  GT Depth
 GTPQH.psia             00 000 000 000:  GT HR Quartz Pressure
 GTTQ.degC              00 000 000 000:  GT Quartz Temperature
 GTTN.NONE              00 000 000 000:  GT Test Number
 GTET.sec               00 000 000 000:  GT Elapsed Test Time
 GTTVD.m                00 000 000 000:  GT True Vertical Depth
#Other Information
#
#WARRANTY: Halliburton will use its best efforts to furnish customers with 
#accurate information and interpretations that are part of, and incident to, the services 
#provided.  However, Halliburton cannot and does not warrant the accuracy 
#or correctness of such information and interpretations.  Under no circumstances should any 
#such information or interpretation be relied upon as the sole basis for any drilling, 
#completion, production, or financial decision or any procedure involving any risk to the 
#safety of any drilling venture, drilling rig or its crew or any other third party.  The 
#Customer has full responsibility for all drilling, completion and production operation.  
#Halliburton makes no representations or warranties, either expressed or 
#implied, including, but not limited to, the implied warranties of merchantability or fitness 
#for a particular purpose, with respect to the services rendered.  In no event will 
#Halliburton be liable for failure to obtain any particular results or for 
#any damages, including, but not limited to, indirect, special or consequential damages, 
#resulting from the use of any information or interpretation provided by Halliburton.
#
~A           TIME           GTDEPTH  GTPQH  GTTQ  GTTN  GTET   GTTVD  
# ...
   13:58:54.018.08-Nov-2020 3585.71 3292.70 71.30 3.00 160.85 2034.99
   13:58:54.218.08-Nov-2020 3585.71 3292.70 71.30 3.00 161.04 2034.99
   13:58:54.418.08-Nov-2020 3585.71 3292.64 71.30 3.00 161.24 2034.99
   13:58:54.618.08-Nov-2020 3585.71 3292.65 71.29 3.00 161.44 2034.99
   13:58:54.817.08-Nov-2020 3585.71 3292.63 71.29 3.00 161.64 2034.99
   13:58:55.017.08-Nov-2020 3585.71 3292.62 71.29 3.00 161.84 2034.99
   13:58:55.217.08-Nov-2020 3585.71 3292.61 71.29 3.00 162.04 2034.99
   13:58:55.417.08-Nov-2020 3585.71 3292.59 71.29 3.00 162.24 2034.99
   13:58:55.617.08-Nov-2020 3585.71 3292.59 71.29 3.00 162.44 2034.99
   13:58:55.816.08-Nov-2020 3585.71 3292.58 71.29 3.00 162.64 2034.99
   13:58:56.016.08-Nov-2020 3585.71 3292.57 71.29 3.00 162.84 2034.99
   13:58:56.216.08-Nov-2020 3585.71 3292.57 71.29 3.00 163.04 2034.99
   13:58:56.416.08-Nov-2020 3585.71 3292.56 71.28 3.00 163.24 2034.99
   13:58:56.616.08-Nov-2020 3585.71 3292.55 71.28 3.00 163.44 2034.99
   13:58:56.816.08-Nov-2020 3585.71 3292.56 71.28 3.00 163.64 2034.99
   13:58:57.015.08-Nov-2020 3585.71 3292.64 71.28 3.00 163.84 2034.99
   13:58:57.215.08-Nov-2020 3585.71 3292.64 71.28 3.00 164.04 2034.99
   13:58:57.415.08-Nov-2020 3585.71 3292.58 71.28 3.00 164.24 2034.99
   13:58:57.615.08-Nov-2020 3585.71 3292.60 71.28 3.00 164.44 2034.99
   13:58:57.815.08-Nov-2020 3585.71 3292.56 71.28 3.00 164.64 2034.99
   13:58:58.014.08-Nov-2020 3585.71 3292.57 71.28 3.00 164.84 2034.99
   13:58:58.214.08-Nov-2020 3585.71 3292.55 71.28 3.00 165.04 2034.99
   13:58:58.414.08-Nov-2020 3585.71 3292.54 71.27 3.00 165.24 2034.99
   13:58:58.614.08-Nov-2020 3585.71 3292.55 71.27 3.00 165.44 2034.99
   13:58:58.814.08-Nov-2020 3585.71 3292.54 71.27 3.00 165.64 2034.99
   13:58:59.013.08-Nov-2020 3585.71 3292.52 71.27 3.00 165.84 2034.99
   13:58:59.213.08-Nov-2020 3585.71 3292.52 71.27 3.00 166.04 2034.99
   13:58:59.413.08-Nov-2020 3585.71 3292.63 71.27 3.00 166.24 2034.99
   13:58:59.613.08-Nov-2020 3585.71 3292.58 71.27 3.00 166.44 2034.99
   13:58:59.813.08-Nov-2020 3585.71 3292.58 71.27 3.00 166.64 2034.99
   13:59:00.012.08-Nov-2020 3585.71 3292.61 71.27 3.00 166.84 2034.99
   13:59:00.212.08-Nov-2020 3585.71 3292.61 71.27 3.00 167.04 2034.99
   13:59:00.412.08-Nov-2020 3585.71 3292.60 71.26 3.00 167.24 2034.99
   13:59:00.612.08-Nov-2020 3585.71 3292.61 71.26 3.00 167.44 2034.99
   13:59:00.812.08-Nov-2020 3585.71 3292.54 71.26 3.00 167.64 2034.99
   13:59:01.011.08-Nov-2020 3585.71 3292.63 71.26 3.00 167.84 2034.99
   13:59:01.211.08-Nov-2020 3585.71 3292.63 71.26 3.00 168.04 2034.99
   13:59:01.411.08-Nov-2020 3585.71 3292.60 71.26 3.00 168.24 2034.99
   13:59:01.611.08-Nov-2020 3585.71 3292.61 71.26 3.00 168.44 2034.99
   13:59:01.811.08-Nov-2020 3585.71 3292.56 71.26 3.00 168.64 2034.99
   13:59:02.011.08-Nov-2020 3585.71 3292.64 71.26 3.00 168.84 2034.99
   13:59:02.210.08-Nov-2020 3585.71 3292.65 71.25 3.00 169.04 2034.99
   13:59:02.410.08-Nov-2020 3585.71 3292.60 71.25 3.00 169.24 2034.99
   13:59:02.610.08-Nov-2020 3585.71 3292.62 71.25 3.00 169.44 2034.99
   13:59:02.810.08-Nov-2020 3585.71 3292.55 71.25 3.00 169.64 2034.99
   13:59:03.010.08-Nov-2020 3585.71 3292.67 71.25 3.00 169.84 2034.99
   13:59:03.209.08-Nov-2020 3585.71 3292.62 71.25 3.00 170.04 2034.99
   13:59:03.409.08-Nov-2020 3585.71 3292.61 71.25 3.00 170.24 2034.99
   13:59:03.609.08-Nov-2020 3585.71 3292.63 71.25 3.00 170.44 2034.99
   13:59:03.809.08-Nov-2020 3585.71 3292.60 71.25 3.00 170.64 2034.99
   13:59:04.009.08-Nov-2020 3585.71 3292.59 71.24 3.00 170.84 2034.99
   13:59:04.208.08-Nov-2020 3585.71 3292.59 71.24 3.00 171.04 2034.99
   13:59:04.408.08-Nov-2020 3585.71 3292.57 71.24 3.00 171.24 2034.99
   13:59:04.608.08-Nov-2020 3585.71 3292.57 71.24 3.00 171.43 2034.99
   13:59:04.808.08-Nov-2020 3585.71 3292.56 71.24 3.00 171.63 2034.99
   13:59:05.008.08-Nov-2020 3585.71 3292.55 71.24 3.00 171.83 2034.99
   13:59:05.207.08-Nov-2020 3585.71 3292.55 71.24 3.00 172.03 2034.99
   13:59:05.407.08-Nov-2020 3585.71 3292.54 71.24 3.00 172.23 2034.99
   13:59:05.607.08-Nov-2020 3585.71 3292.53 71.24 3.00 172.43 2034.99
   13:59:05.807.08-Nov-2020 3585.71 3292.62 71.24 3.00 172.63 2034.99
   13:59:06.007.08-Nov-2020 3585.71 3292.64 71.23 3.00 172.83 2034.99
   13:59:06.206.08-Nov-2020 3585.71 3292.64 71.23 3.00 173.03 2034.99
   13:59:06.406.08-Nov-2020 3585.71 3292.61 71.23 3.00 173.23 2034.99
   13:59:06.606.08-Nov-2020 3585.71 3292.60 71.23 3.00 173.43 2034.99
   13:59:06.806.08-Nov-2020 3585.71 3292.56 71.23 3.00 173.63 2034.99
   13:59:07.006.08-Nov-2020 3585.71 3292.57 71.23 3.00 173.83 2034.99
   13:59:07.206.08-Nov-2020 3585.71 3292.56 71.23 3.00 174.03 2034.99
   13:59:07.405.08-Nov-2020 3585.71 3292.56 71.23 3.00 174.23 2034.99
   13:59:07.605.08-Nov-2020 3585.71 3292.55 71.23 3.00 174.43 2034.99
   13:59:07.805.08-Nov-2020 3585.71 3292.54 71.23 3.00 174.63 2034.99
   13:59:08.005.08-Nov-2020 3585.71 3292.51 71.22 3.00 174.83 2034.99
   13:59:08.205.08-Nov-2020 3585.71 3292.51 71.22 3.00 175.03 2034.99
   13:59:08.404.08-Nov-2020 3585.71 3292.62 71.22 3.00 175.23 2034.99
   13:59:08.604.08-Nov-2020 3585.71 3292.57 71.22 3.00 175.43 2034.99
   13:59:08.804.08-Nov-2020 3585.71 3292.65 71.22 3.00 175.63 2034.99
   13:59:09.004.08-Nov-2020 3585.71 3292.64 71.22 3.00 175.83 2034.99
   13:59:09.204.08-Nov-2020 3585.71 3292.64 71.22 3.00 176.03 2034.99
   13:59:09.403.08-Nov-2020 3585.71 3292.62 71.22 3.00 176.23 2034.99
   13:59:09.603.08-Nov-2020 3585.71 3292.50 71.22 3.00 176.43 2034.99
   13:59:09.803.08-Nov-2020 3585.71 3292.66 71.21 3.00 176.63 2034.99
   13:59:10.003.08-Nov-2020 3585.71 3292.64 71.21 3.00 176.83 2034.99
   13:59:10.203.08-Nov-2020 3585.71 3292.64 71.21 3.00 177.03 2034.99
   13:59:10.402.08-Nov-2020 3585.71 3292.63 71.21 3.00 177.23 2034.99
   13:59:10.602.08-Nov-2020 3585.71 3292.55 71.21 3.00 177.43 2034.99
   13:59:10.802.08-Nov-2020 3585.71 3292.62 71.21 3.00 177.63 2034.99
   13:59:11.002.08-Nov-2020 3585.71 3292.62 71.21 3.00 177.83 2034.99
   13:59:11.202.08-Nov-2020 3585.71 3292.64 71.21 3.00 178.03 2034.99
   13:59:11.401.08-Nov-2020 3585.71 3292.61 71.21 3.00 178.23 2034.99
   13:59:11.601.08-Nov-2020 3585.71 3292.55 71.20 3.00 178.43 2034.99
   13:59:11.801.08-Nov-2020 3585.71 3292.62 71.20 3.00 178.63 2034.99
   13:59:12.001.08-Nov-2020 3585.71 3292.64 71.20 3.00 178.83 2034.99
   13:59:12.201.08-Nov-2020 3585.71 3292.64 71.20 3.00 179.03 2034.99
   13:59:12.401.08-Nov-2020 3585.71 3292.61 71.20 3.00 179.23 2034.99
   13:59:12.600.08-Nov-2020 3585.71 3292.59 71.20 3.00 179.43 2034.99
   13:59:12.800.08-Nov-2020 3585.71 3292.59 71.20 3.00 179.63 2034.99
   13:59:13.000.08-Nov-2020 3585.71 3292.56 71.20 3.00 179.83 2034.99
   13:59:13.200.08-Nov-2020 3585.71 3292.56 71.20 3.00 180.03 2034.99
   13:59:13.400.08-Nov-2020 3585.71 3292.55 71.20 3.00 180.23 2034.99
   13:59:13.599.08-Nov-2020 3585.71 3292.54 71.19 3.00 180.43 2034.99
   13:59:13.799.08-Nov-2020 3585.71 3292.54 71.19 3.00 180.63 2034.99
   13:59:13.999.08-Nov-2020 3585.71 3292.53 71.19 3.00 180.83 2034.99
   13:59:14.199.08-Nov-2020 3585.71 3292.53 71.19 3.00 181.03 2034.99
   13:59:14.399.08-Nov-2020 3585.71 3292.49 71.19 3.00 181.23 2034.99
   13:59:14.598.08-Nov-2020 3585.71 3292.60 71.19 3.00 181.43 2034.99
   13:59:14.798.08-Nov-2020 3585.71 3292.60 71.19 3.00 181.63 2034.99
   13:59:14.998.08-Nov-2020 3585.71 3292.60 71.19 3.00 181.82 2034.99
   13:59:15.198.08-Nov-2020 3585.71 3292.61 71.19 3.00 182.02 2034.99
   13:59:15.398.08-Nov-2020 3585.71 3292.56 71.18 3.00 182.22 2034.99
   13:59:15.597.08-Nov-2020 3585.71 3292.58 71.18 3.00 182.42 2034.99
   13:59:15.797.08-Nov-2020 3585.71 3292.55 71.18 3.00 182.62 2034.99
   13:59:15.997.08-Nov-2020 3585.71 3292.55 71.18 3.00 182.82 2034.99
   13:59:16.197.08-Nov-2020 3585.71 3292.55 71.18 3.00 183.02 2034.99
   13:59:16.397.08-Nov-2020 3585.71 3292.53 71.18 3.00 183.22 2034.99
   13:59:16.596.08-Nov-2020 3585.71 3292.54 71.18 3.00 183.42 2034.99
   13:59:16.796.08-Nov-2020 3585.71 3292.52 71.18 3.00 183.62 2034.99
