~Version Information
 VERS.                  2.0:   CWLS log ASCII Standard -VERSION 2.0
 WRAP.                   NO:   One line per depth step
~Well Information Block
#MNEM.UNIT     VALUE/NAME     DESCRIPTION
#---------     -----------    ---------------------------
 STRT.S             12:15:13 08-Nov-20: START TIME 12:15:13 08-Nov-20
 STOP.S             12:21:45 08-Nov-20: STOP TIME  12:21:45 08-Nov-20
 STEP.S                   0.00: STEP TIME
 NULL.                 -999.25: NULL VALUE
 DFWT.                        :  DIST FWL TEXT
 DFST.                        :  DIST FSL TEXT
 DMF .             Drill Floor:  DRILL MEAS FROM
 STIM.      04.54.24 22-Sep-20:  START TIME
 DATE.      04.54.24 21-Nov-20:  END TIME
 SPUD.               21-Nov-20:  SPUD DATE
 NREF.                    Grid:  NORTH REFERENCE
 HPTY.       Minimum Curvature:  HOLE POS TYPE
 DMOD.             Drill Model:  DRILL MOD DESC
 SVYD.                  Survey:  SURVEY DESC
 ILTD.               Lithology:  INTERP LTH DESC
 FTOP.          Formation Tops:  FORM TOPS DESC
 SON .        AZ-XX-0906571587:  JOB NUMBER
 COMP.     BP Exploration (Caspian Sea) Ltd:  COMPANY
 UWI .                     N/A:  UNIQUE WELL IDENTIFIER
 API .                     N/A:  API NUMBER
 BASE.              Azerbaijan:  LOGGING EQUIPMENT BASE LOCATION
 REGN.                   EESSA:  REGION
 PROV.                    Baku:  PROVINCE
 STAT.                    Baku:  STATE NAME
 CTRY.              Azerbaijan:  COUNTRY NAME
 FLD .                     ACG:  FIELD NAME
 SRVC.     TURAN Drilling & Engineering:  CONTRACTOR
 WELL.                     J27:  WELL NAME
 RIG .             West Chirag:  RIG NAME
 DOE .                     N/A:  DOE NUMBER
 DCON.         Sperry Drilling:  DIRECTNL CONTR
 PDAT.          Mean Sea Level:  PERMANENT DATUM
 WTYP.                Deviated:  WELL TYPE
 MWDS.                    Baku:  MWD SHOP
 JOBN.        AZ-XX-0906571587:  JOB TICKET NUMB
 UNIT.                     N/A:  LOGGING EQUIPMENT ID
 MDS .        Operator Entered:  MAG DATA SOURCE
 CNTY.                        :  COUNTY
 LOC .                        :  LOCATION
 LMF .             Drill Floor:  LOG MEASURED FROM
 TVDS.m                  43.00:  TVDSS CORRECTN
 LATI.deg                40.13:  LATITUDE
 LONG.deg                51.22:  LONGITUDE
 WHNS.m                   7.72:  WELL HEAD N/S
 WHEW.m                 -14.24:  WELL HEAD E/W
 UTMX.m              519005.06:  UTM X
 UTMY.m             4443793.85:  UTM Y
 DFWL.m                   0.00:  DISTANCE FWL
 DFSL.m                   0.00:  DISTANCE FSL
 SDEP.m                 347.00:  START DEPTH
 TDD .m                 581.00:  TOTAL DEPTH (DRILLER)
 VSDR.deg               159.72:  VERT SEC DIRECT
 GVFD.g                   1.00:  GRAVITY FIELD
 MFLD.nT              50313.00:  MAGNETIC FIELD
 MDIP.deg                59.58:  MAGNETIC DIP
 MDEC.deg                 6.45:  MAGNETIC DECL
 GRDC.deg                 0.15:  GRID CORRECTION
 AZTC.deg                 6.30:  AZM TOTAL CORR
 EPD .m                   0.00:  ELEVATION
 EGL .m                   0.00:  GROUND ELEVATION
 WDMS.m                 169.80:  WD ELEV
 APD .m                  43.00:  DEPTH ABOVE PD
 AGAP.m                  43.00:  AIR GAP
 VSEW.m                 -14.24:  VERT SEC E/W
 VSNS.m                   7.72:  VERT SEC N/S
 DEP .m                 342.45:  DEPTH
 EKB .m                   0.00:  KB ELEVATION
 EDF .m                  43.00:  DF ELEVATION
 TDL .m                1313.00:  TOTAL DEPTH (LOGGER)
 VSC .                       0:  VS TO CLOSURE
 MAGU.                 1851396:  MAGUTM CHECKSUM
~Parameter Information Block
#MNEM.UNIT       Value        Description
#---------     -----------    ---------------------------
 AV  .mps                 0.65:  Ann Velocity 
 AVMX.mps                 0.75:  Max Ann Veloc 
 AZIF.deg               115.08:  Azm, Final 
 BHAT.        Rotary Steerable:  BHA Type 
 BROT.°/30m               1.50:  Build Rotating 
 BS  .in                 12.25:  Bit Size 
 BSZ .in                 12.25:  Bit Size 
 BTPL.psig              700.00:  Bit Press Loss 
 CABU.                     Yes:  Customer Abuse 
 COMM.                     „*[:  Run Comments 1 
 TCS .hr                121.00:  Time Ciculation Ended 
 CV  .mps                 1.83:  Crit Velocity 
 CVMX.mps                 1.83:  Max Crit Veloc 
 DD1 .          Rashad Habibov:  Direct Drillr 1 
 DD2 .         Rasim Ibrahimov:  Direct Drillr 2 
 DDSV.                 iCruise:  DD Service 
 DEFF.%                 100.00:  % Det Eff 
 DLRX.°/30m               3.60:  Dogleg Rot Max 
 DLSO.°/30m               3.10:  Dogleg Oriented 
 DLSX.°/30m               3.60:  Dogleg Str Max 
 DRET.      13.41.20 12-Nov-20:  Drill End Time 
 DRST.      13.41.20 07-Nov-20:  Drill Start Tim 
 DTIM.hr                 54.16:  Time Drilling 
 EDEP.m                4762.01:  End Depth 
 ENG1.           Amrah Tahirov:  Engineer 1 
 ENG2.      Bakhtiyar Jabbarli:  Engineer 2 
 ENG3.          Ruslan Safarov:  Engineer 3 
 ETIM.      13.41.20 14-Nov-20:  End Time 
 FLOI.gpm              1200.00:  Flow In 
 FLON.gpm              1100.00:  Flow In Min 
 FLOS.cptm                0.00:  Fluid Loss 
 FLOX.gpm              1200.00:  Flow In Max 
 HFLO.                      No:  High Flow 
 HPRE.                      No:  High Pressure 
 HTEM.                      No:  High Temp 
 HYDO.m                   2.00:  Hydro Offset 
 IFIN.deg                66.14:  Inc, Final 
 IMAX.deg                69.03:  Inc Max 
 IMIN.deg                64.64:  Inc Min 
 IMND.m                4450.16:  Inc Min Depth 
 IMXD.m                3996.00:  Inc Max Depth 
 JARR.                     Yes:  Jarring 
 LETM.      13.41.20 14-Nov-20:  Log End Time 
 LOST.hr                     0:  Lost Rig Time 
 LSTM.      13.41.20 06-Nov-20:  Log Start Time 
 MDCL.ppm             42500.00:  Mud Chlorides 
 MDES.     Inversion Oil/Synthetic:  Mud Desc 
 DFD .sg                  1.45:  Mud Density 
 MDMN.sg                  1.45:  Dens Mud Min 
 MDMX.sg                  1.45:  Dens Mud Max 
 MOIL.                      70:  Run Mud Oil % 
 MOWR.                   70:30:  Run Mud OWR 
 MSND.                       0:  Run Mud Sand % 
 MSOL.                    19.3:  Run Mud Solids% 
 DFV .spqt               77.00:  Mud Viscosity 
 MWOD.in                  8.00:  MWD Tool OD 
 MWSI.                      No:  Serv Intrp, MWD 
 OTIM.hr                201.88:  Time Operating 
 PCON.           Look Like New:  Pad Condition 
 PMAX.psia             9250.94:  Press Op, Max 
 PV  .cP                 29.00:  Mud PV 
 RUN .                     800:  Run Number 
 ROPA.m/hr               28.00:  ROP Avg 
 ROPN.m/hr               25.00:  ROP Min 
 ROPX.m/hr               30.00:  ROP Max 
 RPMA.rpm               160.00:  RPM Surface Avg 
 RPMN.rpm               160.00:  RPM Surface Min 
 RPMX.rpm               160.00:  RPM Surface Max 
 RRUN.                    0800:  Rig Run Number 
 RTIM.hr                 12.00:  Time Reaming 
 SAZI.deg               169.33:  Azm, Start 
 SDEP.m                3449.01:  Start Depth 
 SIDD.                      No:  Serv Intrp, DD 
 SINC.deg                68.01:  Inc, Start 
 SPPA.psig             4900.00:  SPP Avg 
 SPPN.psig             4800.00:  SPP Min 
 SPPX.psig             5050.00:  SPP Max 
 STIM.      13.41.20 06-Nov-20:  Start Time 
 SVCS.                 DD, MWD:  Services 
 SVER.                    9.20:  Sperry Version 
 TDAT.m                4762.01:  Tot Depth Attmp 
 TDDF.                      No:  Trip for DD 
 TDLG.m                1313.00:  Tot Depth Loggd 
 TFF .                      No:  Trip for Fail 
 TQAA.f-kp               13.00:  Torque Abs Avg 
 TQAN.f-kp               13.00:  Torque Abs Min 
 TQAX.f-kp               13.00:  Torque Abs Max 
 TRRT.°/30m               1.70:  Turn Rotating 
 MRT .                  EWR-M5:  Maximum Recorded Temperature 
 TTMX.degC               86.00:  Max Tool Temp 
 VS01.                90622122:  Virtual Str1 SN 
 VS02.                90577298:  Virtual Str2 SN 
 VS03.                90563623:  Virtual Str3 SN 
 VS04.                90617559:  Virtual Str4 SN 
 VS05.                11339492:  Virtual Str5 SN 
 VS06.                12385033:  Virtual Str6 SN 
 WBMN.klb                 0.00:  WOB Min 
 WOBA.klb                22.00:  WOB Avg 
 WOBX.klb                26.00:  WOB Max 
 YP  .lhf2               30.00:  Yield Point 
~Curve Information Block
#MNEM.UNIT                 API CODE     Curve Description
#---------               -----------    ---------------------------
 TIME.HHMMSS            00 000 000 000:  GT Time & Date
 GTDEPTH.m              00 000 000 000:  GT Depth
 GTPQH.psia             00 000 000 000:  GT HR Quartz Pressure
 GTTQ.degC              00 000 000 000:  GT Quartz Temperature
 GTTN.NONE              00 000 000 000:  GT Test Number
 GTET.sec               00 000 000 000:  GT Elapsed Test Time
 GTTVD.m                00 000 000 000:  GT True Vertical Depth
#Other Information
#
#WARRANTY: Halliburton will use its best efforts to furnish customers with 
#accurate information and interpretations that are part of, and incident to, the services 
#provided.  However, Halliburton cannot and does not warrant the accuracy 
#or correctness of such information and interpretations.  Under no circumstances should any 
#such information or interpretation be relied upon as the sole basis for any drilling, 
#completion, production, or financial decision or any procedure involving any risk to the 
#safety of any drilling venture, drilling rig or its crew or any other third party.  The 
#Customer has full responsibility for all drilling, completion and production operation.  
#Halliburton makes no representations or warranties, either expressed or 
#implied, including, but not limited to, the implied warranties of merchantability or fitness 
#for a particular purpose, with respect to the services rendered.  In no event will 
#Halliburton be liable for failure to obtain any particular results or for 
#any damages, including, but not limited to, indirect, special or consequential damages, 
#resulting from the use of any information or interpretation provided by Halliburton.
#
~A           TIME           GTDEPTH  GTPQH  GTTQ  GTTN  GTET   GTTVD  
# ...
   12:15:36.000.08-Nov-2020 3568.06 4343.03 70.97 2.00  23.00 2028.53
   12:15:36.200.08-Nov-2020 3568.06 4343.03 70.97 2.00  23.20 2028.53
   12:15:36.400.08-Nov-2020 3568.06 4346.47 70.97 2.00  23.40 2028.53
   12:15:36.600.08-Nov-2020 3568.06 4344.10 70.97 2.00  23.60 2028.53
   12:15:36.800.08-Nov-2020 3568.06 4350.40 70.97 2.00  23.80 2028.53
   12:15:37.000.08-Nov-2020 3568.06 4343.34 70.97 2.00  24.00 2028.53
   12:15:37.200.08-Nov-2020 3568.06 4343.34 70.97 2.00  24.20 2028.53
   12:15:37.400.08-Nov-2020 3568.06 4344.06 70.97 2.00  24.40 2028.53
   12:15:37.600.08-Nov-2020 3568.06 4344.04 70.97 2.00  24.60 2028.53
   12:15:37.800.08-Nov-2020 3568.06 4343.79 70.96 2.00  24.80 2028.53
   12:15:38.000.08-Nov-2020 3568.06 4343.68 70.96 2.00  25.00 2028.53
   12:15:38.200.08-Nov-2020 3568.06 4343.68 70.96 2.00  25.20 2028.53
   12:15:38.400.08-Nov-2020 3568.06 4342.38 70.96 2.00  25.40 2028.53
   12:15:38.600.08-Nov-2020 3568.06 4343.07 70.96 2.00  25.60 2028.53
   12:15:38.800.08-Nov-2020 3568.06 4344.27 70.96 2.00  25.80 2028.53
   12:15:39.000.08-Nov-2020 3568.06 4344.81 70.96 2.00  26.00 2028.53
   12:15:39.200.08-Nov-2020 3568.06 4344.81 70.96 2.00  26.20 2028.53
   12:15:39.400.08-Nov-2020 3568.06 4345.79 70.96 2.00  26.40 2028.53
   12:15:39.600.08-Nov-2020 3568.06 4350.02 70.96 2.00  26.60 2028.53
   12:15:39.800.08-Nov-2020 3568.06 4349.44 70.95 2.00  26.80 2028.53
   12:15:40.000.08-Nov-2020 3568.06 4346.98 70.95 2.00  27.00 2028.53
   12:15:40.200.08-Nov-2020 3568.06 4346.98 70.95 2.00  27.20 2028.53
   12:15:40.400.08-Nov-2020 3568.06 4347.65 70.95 2.00  27.40 2028.53
   12:15:40.600.08-Nov-2020 3568.06 4346.66 70.95 2.00  27.60 2028.53
   12:15:40.800.08-Nov-2020 3568.06 4346.40 70.95 2.00  27.80 2028.53
   12:15:41.000.08-Nov-2020 3568.06 4345.54 70.95 2.00  28.00 2028.53
   12:15:41.200.08-Nov-2020 3568.06 4345.54 70.95 2.00  28.20 2028.53
   12:15:41.400.08-Nov-2020 3568.06 4345.38 70.95 2.00  28.40 2028.53
   12:15:41.600.08-Nov-2020 3568.06 4345.93 70.95 2.00  28.60 2028.53
   12:15:41.800.08-Nov-2020 3568.06 4347.02 70.95 2.00  28.80 2028.53
   12:15:42.000.08-Nov-2020 3568.06 4347.62 70.94 2.00  29.00 2028.53
   12:15:42.200.08-Nov-2020 3568.06 4351.27 70.94 2.00  29.20 2028.53
   12:15:42.400.08-Nov-2020 3568.06 4349.10 70.94 2.00  29.40 2028.53
   12:15:42.600.08-Nov-2020 3568.06 4346.62 70.94 2.00  29.60 2028.53
   12:15:42.800.08-Nov-2020 3568.06 4350.44 70.94 2.00  29.80 2028.53
   12:15:43.000.08-Nov-2020 3568.06 4351.09 70.94 2.00  30.00 2028.53
   12:15:43.200.08-Nov-2020 3568.06 4351.09 70.94 2.00  30.20 2028.53
   12:15:43.400.08-Nov-2020 3568.06 4347.00 70.94 2.00  30.40 2028.53
   12:15:43.600.08-Nov-2020 3568.06 4346.80 70.94 2.00  30.60 2028.53
   12:15:43.800.08-Nov-2020 3568.06 4349.64 70.94 2.00  30.80 2028.53
   12:15:44.000.08-Nov-2020 3568.06 4347.67 70.93 2.00  31.00 2028.53
   12:15:44.200.08-Nov-2020 3568.06 4347.67 70.93 2.00  31.20 2028.53
   12:15:44.400.08-Nov-2020 3568.06 4346.29 70.93 2.00  31.40 2028.53
   12:15:44.600.08-Nov-2020 3568.06 4346.51 70.93 2.00  31.60 2028.53
   12:15:44.800.08-Nov-2020 3568.06 4350.91 70.93 2.00  31.80 2028.53
   12:15:45.000.08-Nov-2020 3568.06 4348.42 70.93 2.00  32.00 2028.53
   12:15:45.200.08-Nov-2020 3568.06 4348.51 70.93 2.00  32.20 2028.53
   12:15:45.400.08-Nov-2020 3568.06 4346.78 70.93 2.00  32.40 2028.53
   12:15:45.600.08-Nov-2020 3568.06 4346.99 70.93 2.00  32.60 2028.53
   12:15:45.800.08-Nov-2020 3568.06 4353.41 70.93 2.00  32.80 2028.53
   12:15:46.000.08-Nov-2020 3568.06 4348.83 70.93 2.00  33.00 2028.53
   12:15:46.200.08-Nov-2020 3568.06 4348.83 70.93 2.00  33.20 2028.53
   12:15:46.400.08-Nov-2020 3568.06 4347.08 70.92 2.00  33.40 2028.53
   12:15:46.600.08-Nov-2020 3568.06 4347.30 70.92 2.00  33.60 2028.53
   12:15:46.800.08-Nov-2020 3568.06 4345.12 70.92 2.00  33.80 2028.53
   12:15:47.000.08-Nov-2020 3568.06 4344.55 70.92 2.00  34.00 2028.53
   12:15:47.200.08-Nov-2020 3568.06 4344.55 70.92 2.00  34.20 2028.53
   12:15:47.400.08-Nov-2020 3568.06 4344.63 70.92 2.00  34.40 2028.53
   12:15:47.600.08-Nov-2020 3568.06 4345.02 70.92 2.00  34.60 2028.53
   12:15:47.800.08-Nov-2020 3568.06 4343.70 70.92 2.00  34.80 2028.53
   12:15:48.000.08-Nov-2020 3568.06 4362.43 70.92 2.00  35.00 2028.53
   12:15:48.200.08-Nov-2020 3568.06 4362.43 70.92 2.00  35.20 2028.53
   12:15:48.400.08-Nov-2020 3568.06 4442.53 70.91 2.00  35.40 2028.53
   12:15:48.600.08-Nov-2020 3568.06 4451.48 70.91 2.00  35.60 2028.53
   12:15:48.800.08-Nov-2020 3568.06 4450.41 70.91 2.00  35.80 2028.53
   12:15:49.000.08-Nov-2020 3568.06 4441.38 70.91 2.00  36.00 2028.53
   12:15:49.200.08-Nov-2020 3568.06 4441.38 70.91 2.00  36.20 2028.53
   12:15:49.400.08-Nov-2020 3568.06 4448.99 70.91 2.00  36.40 2028.53
   12:15:49.600.08-Nov-2020 3568.06 4445.80 70.91 2.00  36.60 2028.53
   12:15:49.800.08-Nov-2020 3568.06 4442.98 70.91 2.00  36.80 2028.53
   12:15:50.000.08-Nov-2020 3568.06 4446.13 70.91 2.00  37.00 2028.53
   12:15:50.200.08-Nov-2020 3568.06 4446.13 70.91 2.00  37.20 2028.53
   12:15:50.400.08-Nov-2020 3568.06 4451.26 70.90 2.00  37.40 2028.53
   12:15:50.600.08-Nov-2020 3568.06 4450.79 70.90 2.00  37.60 2028.53
   12:15:50.800.08-Nov-2020 3568.06 4452.98 70.90 2.00  37.80 2028.53
   12:15:51.000.08-Nov-2020 3568.06 4437.68 70.90 2.00  38.00 2028.53
   12:15:51.200.08-Nov-2020 3568.06 4437.68 70.90 2.00  38.20 2028.53
   12:15:51.400.08-Nov-2020 3568.06 4412.26 70.90 2.00  38.40 2028.53
   12:15:51.600.08-Nov-2020 3568.06 4408.81 70.90 2.00  38.60 2028.53
   12:15:51.800.08-Nov-2020 3568.06 4409.52 70.90 2.00  38.80 2028.53
   12:15:52.000.08-Nov-2020 3568.06 4411.09 70.90 2.00  39.00 2028.53
   12:15:52.200.08-Nov-2020 3568.06 4411.09 70.90 2.00  39.20 2028.53
   12:15:52.400.08-Nov-2020 3568.06 4406.65 70.90 2.00  39.40 2028.53
   12:15:52.600.08-Nov-2020 3568.06 4404.65 70.89 2.00  39.60 2028.53
   12:15:52.800.08-Nov-2020 3568.06 4405.76 70.89 2.00  39.80 2028.53
   12:15:53.000.08-Nov-2020 3568.06 4406.94 70.89 2.00  40.00 2028.53
   12:15:53.200.08-Nov-2020 3568.06 4406.94 70.89 2.00  40.20 2028.53
   12:15:53.400.08-Nov-2020 3568.06 4404.72 70.89 2.00  40.40 2028.53
   12:15:53.600.08-Nov-2020 3568.06 4403.57 70.89 2.00  40.60 2028.53
   12:15:53.800.08-Nov-2020 3568.06 4409.79 70.89 2.00  40.80 2028.53
   12:15:54.000.08-Nov-2020 3568.06 4407.62 70.89 2.00  41.00 2028.53
   12:15:54.200.08-Nov-2020 3568.06 4407.62 70.89 2.00  41.20 2028.53
   12:15:54.400.08-Nov-2020 3568.06 4408.74 70.89 2.00  41.40 2028.53
   12:15:54.600.08-Nov-2020 3568.06 4409.03 70.89 2.00  41.60 2028.53
   12:15:54.800.08-Nov-2020 3568.06 4408.18 70.88 2.00  41.80 2028.53
   12:15:55.000.08-Nov-2020 3568.06 4408.07 70.88 2.00  42.00 2028.53
   12:15:55.200.08-Nov-2020 3568.06 4408.07 70.88 2.00  42.20 2028.53
   12:15:55.400.08-Nov-2020 3568.06 4410.24 70.88 2.00  42.40 2028.53
   12:15:55.600.08-Nov-2020 3568.06 4409.49 70.88 2.00  42.60 2028.53
   12:15:55.800.08-Nov-2020 3568.06 4409.07 70.88 2.00  42.80 2028.53
   12:15:56.000.08-Nov-2020 3568.06 4407.69 70.88 2.00  43.00 2028.53
   12:15:56.200.08-Nov-2020 3568.06 4407.69 70.88 2.00  43.20 2028.53
   12:15:56.400.08-Nov-2020 3568.06 4407.91 70.88 2.00  43.40 2028.53
   12:15:56.600.08-Nov-2020 3568.06 4408.19 70.88 2.00  43.60 2028.53
   12:15:56.800.08-Nov-2020 3568.06 4408.02 70.88 2.00  43.80 2028.53
   12:15:57.000.08-Nov-2020 3568.06 4418.40 70.87 2.00  44.00 2028.53
   12:15:57.200.08-Nov-2020 3568.06 4418.40 70.87 2.00  44.20 2028.53
   12:15:57.400.08-Nov-2020 3568.06 4364.67 70.87 2.00  44.40 2028.53
   12:15:57.600.08-Nov-2020 3568.06 4367.73 70.87 2.00  44.60 2028.53
   12:15:57.800.08-Nov-2020 3568.06 4368.54 70.87 2.00  44.80 2028.53
   12:15:58.000.08-Nov-2020 3568.06 4367.24 70.87 2.00  45.00 2028.53
   12:15:58.200.08-Nov-2020 3568.06 4367.24 70.87 2.00  45.20 2028.53
   12:15:58.400.08-Nov-2020 3568.06 4364.22 70.87 2.00  45.40 2028.53
   12:15:58.600.08-Nov-2020 3568.06 4363.46 70.87 2.00  45.60 2028.53
   12:15:58.800.08-Nov-2020 3568.06 4364.19 70.87 2.00  45.80 2028.53
