~Version Information
 VERS.                  2.0:   CWLS log ASCII Standard -VERSION 2.0
 WRAP.                   NO:   One line per depth step
~Well Information Block
#MNEM.UNIT     VALUE/NAME     DESCRIPTION
#---------     -----------    ---------------------------
 STRT.S             06:45:19 11-Nov-20: START TIME 06:45:19 11-Nov-20
 STOP.S             06:51:53 11-Nov-20: STOP TIME  06:51:53 11-Nov-20
 STEP.S                   0.00: STEP TIME
 NULL.                 -999.25: NULL VALUE
 DFWT.                        :  DIST FWL TEXT
 DFST.                        :  DIST FSL TEXT
 DMF .             Drill Floor:  DRILL MEAS FROM
 STIM.      04.54.24 22-Sep-20:  START TIME
 DATE.      04.54.24 21-Nov-20:  END TIME
 SPUD.               21-Nov-20:  SPUD DATE
 NREF.                    Grid:  NORTH REFERENCE
 HPTY.       Minimum Curvature:  HOLE POS TYPE
 DMOD.             Drill Model:  DRILL MOD DESC
 SVYD.                  Survey:  SURVEY DESC
 ILTD.               Lithology:  INTERP LTH DESC
 FTOP.          Formation Tops:  FORM TOPS DESC
 SON .        AZ-XX-0906571587:  JOB NUMBER
 COMP.     BP Exploration (Caspian Sea) Ltd:  COMPANY
 UWI .                     N/A:  UNIQUE WELL IDENTIFIER
 API .                     N/A:  API NUMBER
 BASE.              Azerbaijan:  LOGGING EQUIPMENT BASE LOCATION
 REGN.                   EESSA:  REGION
 PROV.                    Baku:  PROVINCE
 STAT.                    Baku:  STATE NAME
 CTRY.              Azerbaijan:  COUNTRY NAME
 FLD .                     ACG:  FIELD NAME
 SRVC.     TURAN Drilling & Engineering:  CONTRACTOR
 WELL.                     J27:  WELL NAME
 RIG .             West Chirag:  RIG NAME
 DOE .                     N/A:  DOE NUMBER
 DCON.         Sperry Drilling:  DIRECTNL CONTR
 PDAT.          Mean Sea Level:  PERMANENT DATUM
 WTYP.                Deviated:  WELL TYPE
 MWDS.                    Baku:  MWD SHOP
 JOBN.        AZ-XX-0906571587:  JOB TICKET NUMB
 UNIT.                     N/A:  LOGGING EQUIPMENT ID
 MDS .        Operator Entered:  MAG DATA SOURCE
 CNTY.                        :  COUNTY
 LOC .                        :  LOCATION
 LMF .             Drill Floor:  LOG MEASURED FROM
 TVDS.m                  43.00:  TVDSS CORRECTN
 LATI.deg                40.13:  LATITUDE
 LONG.deg                51.22:  LONGITUDE
 WHNS.m                   7.72:  WELL HEAD N/S
 WHEW.m                 -14.24:  WELL HEAD E/W
 UTMX.m              519005.06:  UTM X
 UTMY.m             4443793.85:  UTM Y
 DFWL.m                   0.00:  DISTANCE FWL
 DFSL.m                   0.00:  DISTANCE FSL
 SDEP.m                 347.00:  START DEPTH
 TDD .m                 581.00:  TOTAL DEPTH (DRILLER)
 VSDR.deg               159.72:  VERT SEC DIRECT
 GVFD.g                   1.00:  GRAVITY FIELD
 MFLD.nT              50313.00:  MAGNETIC FIELD
 MDIP.deg                59.58:  MAGNETIC DIP
 MDEC.deg                 6.45:  MAGNETIC DECL
 GRDC.deg                 0.15:  GRID CORRECTION
 AZTC.deg                 6.30:  AZM TOTAL CORR
 EPD .m                   0.00:  ELEVATION
 EGL .m                   0.00:  GROUND ELEVATION
 WDMS.m                 169.80:  WD ELEV
 APD .m                  43.00:  DEPTH ABOVE PD
 AGAP.m                  43.00:  AIR GAP
 VSEW.m                 -14.24:  VERT SEC E/W
 VSNS.m                   7.72:  VERT SEC N/S
 DEP .m                 342.45:  DEPTH
 EKB .m                   0.00:  KB ELEVATION
 EDF .m                  43.00:  DF ELEVATION
 TDL .m                1313.00:  TOTAL DEPTH (LOGGER)
 VSC .                       0:  VS TO CLOSURE
 MAGU.                 1851396:  MAGUTM CHECKSUM
~Parameter Information Block
#MNEM.UNIT       Value        Description
#---------     -----------    ---------------------------
 AV  .mps                 0.65:  Ann Velocity 
 AVMX.mps                 0.75:  Max Ann Veloc 
 AZIF.deg               115.08:  Azm, Final 
 BHAT.        Rotary Steerable:  BHA Type 
 BROT.°/30m               1.50:  Build Rotating 
 BS  .in                 12.25:  Bit Size 
 BSZ .in                 12.25:  Bit Size 
 BTPL.psig              700.00:  Bit Press Loss 
 CABU.                     Yes:  Customer Abuse 
 COMM.                     LNw:  Run Comments 1 
 TCS .hr                121.00:  Time Ciculation Ended 
 CV  .mps                 1.83:  Crit Velocity 
 CVMX.mps                 1.83:  Max Crit Veloc 
 DD1 .          Rashad Habibov:  Direct Drillr 1 
 DD2 .         Rasim Ibrahimov:  Direct Drillr 2 
 DDSV.                 iCruise:  DD Service 
 DEFF.%                 100.00:  % Det Eff 
 DLRX.°/30m               3.60:  Dogleg Rot Max 
 DLSO.°/30m               3.10:  Dogleg Oriented 
 DLSX.°/30m               3.60:  Dogleg Str Max 
 DRET.      13.41.20 12-Nov-20:  Drill End Time 
 DRST.      13.41.20 07-Nov-20:  Drill Start Tim 
 DTIM.hr                 54.16:  Time Drilling 
 EDEP.m                4762.01:  End Depth 
 ENG1.           Amrah Tahirov:  Engineer 1 
 ENG2.      Bakhtiyar Jabbarli:  Engineer 2 
 ENG3.          Ruslan Safarov:  Engineer 3 
 ETIM.      13.41.20 14-Nov-20:  End Time 
 FLOI.gpm              1200.00:  Flow In 
 FLON.gpm              1100.00:  Flow In Min 
 FLOS.cptm                0.00:  Fluid Loss 
 FLOX.gpm              1200.00:  Flow In Max 
 HFLO.                      No:  High Flow 
 HPRE.                      No:  High Pressure 
 HTEM.                      No:  High Temp 
 HYDO.m                   2.00:  Hydro Offset 
 IFIN.deg                66.14:  Inc, Final 
 IMAX.deg                69.03:  Inc Max 
 IMIN.deg                64.64:  Inc Min 
 IMND.m                4450.16:  Inc Min Depth 
 IMXD.m                3996.00:  Inc Max Depth 
 JARR.                     Yes:  Jarring 
 LETM.      13.41.20 14-Nov-20:  Log End Time 
 LOST.hr                     0:  Lost Rig Time 
 LSTM.      13.41.20 06-Nov-20:  Log Start Time 
 MDCL.ppm             42500.00:  Mud Chlorides 
 MDES.     Inversion Oil/Synthetic:  Mud Desc 
 DFD .sg                  1.45:  Mud Density 
 MDMN.sg                  1.45:  Dens Mud Min 
 MDMX.sg                  1.45:  Dens Mud Max 
 MOIL.                      70:  Run Mud Oil % 
 MOWR.                   70:30:  Run Mud OWR 
 MSND.                       0:  Run Mud Sand % 
 MSOL.                    19.3:  Run Mud Solids% 
 DFV .spqt               77.00:  Mud Viscosity 
 MWOD.in                  8.00:  MWD Tool OD 
 MWSI.                      No:  Serv Intrp, MWD 
 OTIM.hr                201.88:  Time Operating 
 PCON.           Look Like New:  Pad Condition 
 PMAX.psia             9250.94:  Press Op, Max 
 PV  .cP                 29.00:  Mud PV 
 RUN .                     800:  Run Number 
 ROPA.m/hr               28.00:  ROP Avg 
 ROPN.m/hr               25.00:  ROP Min 
 ROPX.m/hr               30.00:  ROP Max 
 RPMA.rpm               160.00:  RPM Surface Avg 
 RPMN.rpm               160.00:  RPM Surface Min 
 RPMX.rpm               160.00:  RPM Surface Max 
 RRUN.                    0800:  Rig Run Number 
 RTIM.hr                 12.00:  Time Reaming 
 SAZI.deg               169.33:  Azm, Start 
 SDEP.m                3449.01:  Start Depth 
 SIDD.                      No:  Serv Intrp, DD 
 SINC.deg                68.01:  Inc, Start 
 SPPA.psig             4900.00:  SPP Avg 
 SPPN.psig             4800.00:  SPP Min 
 SPPX.psig             5050.00:  SPP Max 
 STIM.      13.41.20 06-Nov-20:  Start Time 
 SVCS.                 DD, MWD:  Services 
 SVER.                    9.20:  Sperry Version 
 TDAT.m                4762.01:  Tot Depth Attmp 
 TDDF.                      No:  Trip for DD 
 TDLG.m                1313.00:  Tot Depth Loggd 
 TFF .                      No:  Trip for Fail 
 TQAA.f-kp               13.00:  Torque Abs Avg 
 TQAN.f-kp               13.00:  Torque Abs Min 
 TQAX.f-kp               13.00:  Torque Abs Max 
 TRRT.°/30m               1.70:  Turn Rotating 
 MRT .                  EWR-M5:  Maximum Recorded Temperature 
 TTMX.degC               86.00:  Max Tool Temp 
 VS01.                90622122:  Virtual Str1 SN 
 VS02.                90577298:  Virtual Str2 SN 
 VS03.                90563623:  Virtual Str3 SN 
 VS04.                90617559:  Virtual Str4 SN 
 VS05.                11339492:  Virtual Str5 SN 
 VS06.                12385033:  Virtual Str6 SN 
 WBMN.klb                 0.00:  WOB Min 
 WOBA.klb                22.00:  WOB Avg 
 WOBX.klb                26.00:  WOB Max 
 YP  .lhf2               30.00:  Yield Point 
~Curve Information Block
#MNEM.UNIT                 API CODE     Curve Description
#---------               -----------    ---------------------------
 TIME.HHMMSS            00 000 000 000:  GT Time & Date
 GTDEPTH.m              00 000 000 000:  GT Depth
 GTPQH.psia             00 000 000 000:  GT HR Quartz Pressure
 GTTQ.degC              00 000 000 000:  GT Quartz Temperature
 GTTN.NONE              00 000 000 000:  GT Test Number
 GTET.sec               00 000 000 000:  GT Elapsed Test Time
 GTTVD.m                00 000 000 000:  GT True Vertical Depth
#Other Information
#
#WARRANTY: Halliburton will use its best efforts to furnish customers with 
#accurate information and interpretations that are part of, and incident to, the services 
#provided.  However, Halliburton cannot and does not warrant the accuracy 
#or correctness of such information and interpretations.  Under no circumstances should any 
#such information or interpretation be relied upon as the sole basis for any drilling, 
#completion, production, or financial decision or any procedure involving any risk to the 
#safety of any drilling venture, drilling rig or its crew or any other third party.  The 
#Customer has full responsibility for all drilling, completion and production operation.  
#Halliburton makes no representations or warranties, either expressed or 
#implied, including, but not limited to, the implied warranties of merchantability or fitness 
#for a particular purpose, with respect to the services rendered.  In no event will 
#Halliburton be liable for failure to obtain any particular results or for 
#any damages, including, but not limited to, indirect, special or consequential damages, 
#resulting from the use of any information or interpretation provided by Halliburton.
#
~A           TIME           GTDEPTH  GTPQH  GTTQ  GTTN  GTET   GTTVD  
# ...
   06:46:05.404.11-Nov-2020 4617.01 5147.14 80.13 8.00  46.01 2426.59
   06:46:05.604.11-Nov-2020 4617.01 5147.14 80.13 8.00  46.21 2426.59
   06:46:05.804.11-Nov-2020 4617.01 5147.51 80.12 8.00  46.41 2426.59
   06:46:06.004.11-Nov-2020 4617.01 5146.79 80.12 8.00  46.61 2426.59
   06:46:06.204.11-Nov-2020 4617.01 5149.74 80.12 8.00  46.81 2426.59
   06:46:06.404.11-Nov-2020 4617.01 5146.96 80.12 8.00  47.01 2426.59
   06:46:06.604.11-Nov-2020 4617.01 5146.96 80.12 8.00  47.21 2426.59
   06:46:06.804.11-Nov-2020 4617.01 5146.70 80.12 8.00  47.41 2426.59
   06:46:07.005.11-Nov-2020 4617.01 5147.75 80.12 8.00  47.61 2426.59
   06:46:07.205.11-Nov-2020 4617.01 5146.75 80.12 8.00  47.82 2426.59
   06:46:07.405.11-Nov-2020 4617.01 5143.05 80.12 8.00  48.02 2426.59
   06:46:07.605.11-Nov-2020 4617.01 5099.57 80.12 8.00  48.22 2426.59
   06:46:07.805.11-Nov-2020 4617.01 4958.93 80.12 8.00  48.42 2426.59
   06:46:08.005.11-Nov-2020 4617.01 4789.40 80.12 8.00  48.62 2426.59
   06:46:08.205.11-Nov-2020 4617.01 4509.62 80.11 8.00  48.82 2426.59
   06:46:08.405.11-Nov-2020 4617.01 4178.87 80.11 8.00  49.02 2426.59
   06:46:08.605.11-Nov-2020 4617.01 4178.87 80.11 8.00  49.22 2426.59
   06:46:08.805.11-Nov-2020 4617.01 4043.87 80.11 8.00  49.42 2426.59
   06:46:09.005.11-Nov-2020 4617.01 4050.25 80.11 8.00  49.62 2426.59
   06:46:09.205.11-Nov-2020 4617.01 4053.25 80.11 8.00  49.82 2426.59
   06:46:09.405.11-Nov-2020 4617.01 4053.48 80.11 8.00  50.02 2426.59
   06:46:09.605.11-Nov-2020 4617.01 4053.48 80.11 8.00  50.22 2426.59
   06:46:09.805.11-Nov-2020 4617.01 4054.96 80.11 8.00  50.42 2426.59
   06:46:10.005.11-Nov-2020 4617.01 4054.90 80.11 8.00  50.62 2426.59
   06:46:10.206.11-Nov-2020 4617.01 4056.01 80.10 8.00  50.82 2426.59
   06:46:10.406.11-Nov-2020 4617.01 4056.85 80.10 8.00  51.02 2426.59
   06:46:10.606.11-Nov-2020 4617.01 4056.85 80.10 8.00  51.22 2426.59
   06:46:10.806.11-Nov-2020 4617.01 4058.27 80.10 8.00  51.42 2426.59
   06:46:11.006.11-Nov-2020 4617.01 4059.22 80.10 8.00  51.62 2426.59
   06:46:11.206.11-Nov-2020 4617.01 4060.31 80.10 8.00  51.82 2426.59
   06:46:11.406.11-Nov-2020 4617.01 4061.23 80.10 8.00  52.02 2426.59
   06:46:11.606.11-Nov-2020 4617.01 4061.23 80.10 8.00  52.22 2426.59
   06:46:11.806.11-Nov-2020 4617.01 4064.54 80.09 8.00  52.42 2426.59
   06:46:12.006.11-Nov-2020 4617.01 4064.35 80.09 8.00  52.62 2426.59
   06:46:12.206.11-Nov-2020 4617.01 4066.21 80.09 8.00  52.82 2426.59
   06:46:12.406.11-Nov-2020 4617.01 4065.76 80.09 8.00  53.02 2426.59
   06:46:12.606.11-Nov-2020 4617.01 4065.76 80.09 8.00  53.22 2426.59
   06:46:12.806.11-Nov-2020 4617.01 4067.04 80.09 8.00  53.42 2426.59
   06:46:13.006.11-Nov-2020 4617.01 4071.62 80.09 8.00  53.62 2426.59
   06:46:13.206.11-Nov-2020 4617.01 4071.95 80.09 8.00  53.82 2426.59
   06:46:13.407.11-Nov-2020 4617.01 4072.74 80.08 8.00  54.02 2426.59
   06:46:13.607.11-Nov-2020 4617.01 4072.74 80.08 8.00  54.22 2426.59
   06:46:13.807.11-Nov-2020 4617.01 4075.57 80.08 8.00  54.42 2426.59
   06:46:14.007.11-Nov-2020 4617.01 4078.03 80.08 8.00  54.62 2426.59
   06:46:14.207.11-Nov-2020 4617.01 4078.73 80.08 8.00  54.82 2426.59
   06:46:14.407.11-Nov-2020 4617.01 4081.29 80.08 8.00  55.02 2426.59
   06:46:14.607.11-Nov-2020 4617.01 4081.29 80.08 8.00  55.22 2426.59
   06:46:14.807.11-Nov-2020 4617.01 4082.24 80.08 8.00  55.42 2426.59
   06:46:15.007.11-Nov-2020 4617.01 4082.57 80.07 8.00  55.62 2426.59
   06:46:15.207.11-Nov-2020 4617.01 4082.68 80.07 8.00  55.82 2426.59
   06:46:15.407.11-Nov-2020 4617.01 4128.61 80.07 8.00  56.02 2426.59
   06:46:15.607.11-Nov-2020 4617.01 4134.90 80.07 8.00  56.22 2426.59
   06:46:15.807.11-Nov-2020 4617.01 4134.95 80.07 8.00  56.42 2426.59
   06:46:16.007.11-Nov-2020 4617.01 4134.94 80.07 8.00  56.62 2426.59
   06:46:16.207.11-Nov-2020 4617.01 4135.11 80.07 8.00  56.82 2426.59
   06:46:16.407.11-Nov-2020 4617.01 4135.17 80.07 8.00  57.02 2426.59
   06:46:16.608.11-Nov-2020 4617.01 4135.17 80.07 8.00  57.22 2426.59
   06:46:16.808.11-Nov-2020 4617.01 4135.31 80.07 8.00  57.42 2426.59
   06:46:17.008.11-Nov-2020 4617.01 4135.40 80.06 8.00  57.62 2426.59
   06:46:17.208.11-Nov-2020 4617.01 4135.90 80.06 8.00  57.82 2426.59
   06:46:17.408.11-Nov-2020 4617.01 4135.57 80.06 8.00  58.02 2426.59
   06:46:17.608.11-Nov-2020 4617.01 4135.57 80.06 8.00  58.22 2426.59
   06:46:17.808.11-Nov-2020 4617.01 4135.43 80.06 8.00  58.42 2426.59
   06:46:18.008.11-Nov-2020 4617.01 4135.49 80.06 8.00  58.62 2426.59
   06:46:18.208.11-Nov-2020 4617.01 4135.55 80.06 8.00  58.82 2426.59
   06:46:18.408.11-Nov-2020 4617.01 4135.45 80.06 8.00  59.02 2426.59
   06:46:18.608.11-Nov-2020 4617.01 4135.45 80.06 8.00  59.22 2426.59
   06:46:18.808.11-Nov-2020 4617.01 4135.53 80.06 8.00  59.42 2426.59
   06:46:19.008.11-Nov-2020 4617.01 4135.58 80.06 8.00  59.62 2426.59
   06:46:19.208.11-Nov-2020 4617.01 4135.56 80.05 8.00  59.82 2426.59
   06:46:19.408.11-Nov-2020 4617.01 4135.66 80.05 8.00  60.02 2426.59
   06:46:19.608.11-Nov-2020 4617.01 4135.63 80.05 8.00  60.22 2426.59
   06:46:19.809.11-Nov-2020 4617.01 4136.23 80.05 8.00  60.42 2426.59
   06:46:20.009.11-Nov-2020 4617.01 4135.46 80.05 8.00  60.62 2426.59
   06:46:20.209.11-Nov-2020 4617.01 4135.80 80.05 8.00  60.82 2426.59
   06:46:20.409.11-Nov-2020 4617.01 4135.80 80.05 8.00  61.02 2426.59
   06:46:20.609.11-Nov-2020 4617.01 4135.80 80.05 8.00  61.22 2426.59
   06:46:20.809.11-Nov-2020 4617.01 4135.54 80.05 8.00  61.42 2426.59
   06:46:21.009.11-Nov-2020 4617.01 4135.58 80.05 8.00  61.62 2426.59
   06:46:21.209.11-Nov-2020 4617.01 4136.23 80.05 8.00  61.82 2426.59
   06:46:21.409.11-Nov-2020 4617.01 4135.46 80.05 8.00  62.02 2426.59
   06:46:21.609.11-Nov-2020 4617.01 4135.46 80.05 8.00  62.22 2426.59
   06:46:21.809.11-Nov-2020 4617.01 4135.54 80.04 8.00  62.42 2426.59
   06:46:22.009.11-Nov-2020 4617.01 4135.56 80.04 8.00  62.62 2426.59
   06:46:22.209.11-Nov-2020 4617.01 4136.10 80.04 8.00  62.82 2426.59
   06:46:22.409.11-Nov-2020 4617.01 4135.68 80.04 8.00  63.02 2426.59
   06:46:22.609.11-Nov-2020 4617.01 4135.68 80.04 8.00  63.22 2426.59
   06:46:22.809.11-Nov-2020 4617.01 4136.23 80.04 8.00  63.42 2426.59
   06:46:23.010.11-Nov-2020 4617.01 4135.73 80.04 8.00  63.62 2426.59
   06:46:23.210.11-Nov-2020 4617.01 4135.52 80.04 8.00  63.82 2426.59
   06:46:23.410.11-Nov-2020 4617.01 4135.56 80.04 8.00  64.02 2426.59
   06:46:23.610.11-Nov-2020 4617.01 4135.80 80.04 8.00  64.22 2426.59
   06:46:23.810.11-Nov-2020 4617.01 4135.63 80.04 8.00  64.42 2426.59
   06:46:24.010.11-Nov-2020 4617.01 4135.59 80.04 8.00  64.62 2426.59
   06:46:24.210.11-Nov-2020 4617.01 4135.72 80.03 8.00  64.82 2426.59
   06:46:24.410.11-Nov-2020 4617.01 4135.61 80.03 8.00  65.02 2426.59
   06:46:24.610.11-Nov-2020 4617.01 4135.61 80.03 8.00  65.22 2426.59
   06:46:24.810.11-Nov-2020 4617.01 4135.77 80.03 8.00  65.42 2426.59
   06:46:25.010.11-Nov-2020 4617.01 4135.79 80.03 8.00  65.62 2426.59
   06:46:25.210.11-Nov-2020 4617.01 4135.67 80.03 8.00  65.82 2426.59
   06:46:25.410.11-Nov-2020 4617.01 4135.81 80.03 8.00  66.02 2426.59
   06:46:25.610.11-Nov-2020 4617.01 4135.81 80.03 8.00  66.22 2426.59
   06:46:25.810.11-Nov-2020 4617.01 4136.09 80.03 8.00  66.42 2426.59
   06:46:26.010.11-Nov-2020 4617.01 4135.80 80.03 8.00  66.62 2426.59
   06:46:26.211.11-Nov-2020 4617.01 4135.80 80.03 8.00  66.82 2426.59
   06:46:26.411.11-Nov-2020 4617.01 4136.02 80.03 8.00  67.02 2426.59
   06:46:26.611.11-Nov-2020 4617.01 4136.02 80.03 8.00  67.22 2426.59
   06:46:26.811.11-Nov-2020 4617.01 4135.73 80.02 8.00  67.42 2426.59
   06:46:27.011.11-Nov-2020 4617.01 4135.79 80.02 8.00  67.62 2426.59
   06:46:27.211.11-Nov-2020 4617.01 4135.80 80.02 8.00  67.82 2426.59
   06:46:27.411.11-Nov-2020 4617.01 4135.82 80.02 8.00  68.02 2426.59
   06:46:27.611.11-Nov-2020 4617.01 4135.97 80.02 8.00  68.22 2426.59
   06:46:27.811.11-Nov-2020 4617.01 4135.96 80.02 8.00  68.42 2426.59
   06:46:28.011.11-Nov-2020 4617.01 4135.93 80.02 8.00  68.62 2426.59
   06:46:28.211.11-Nov-2020 4617.01 4136.16 80.02 8.00  68.82 2426.59
