~Version Information
 VERS.                  2.0:   CWLS log ASCII Standard -VERSION 2.0
 WRAP.                   NO:   One line per depth step
~Well Information Block
#MNEM.UNIT     VALUE/NAME     DESCRIPTION
#---------     -----------    ---------------------------
 STRT.S             09:21:26 08-Nov-20: START TIME 09:21:26 08-Nov-20
 STOP.S             09:27:58 08-Nov-20: STOP TIME  09:27:58 08-Nov-20
 STEP.S                   0.00: STEP TIME
 NULL.                 -999.25: NULL VALUE
 DFWT.                        :  DIST FWL TEXT
 DFST.                        :  DIST FSL TEXT
 DMF .             Drill Floor:  DRILL MEAS FROM
 STIM.      04.54.24 22-Sep-20:  START TIME
 DATE.      04.54.24 21-Nov-20:  END TIME
 SPUD.               21-Nov-20:  SPUD DATE
 NREF.                    Grid:  NORTH REFERENCE
 HPTY.       Minimum Curvature:  HOLE POS TYPE
 DMOD.             Drill Model:  DRILL MOD DESC
 SVYD.                  Survey:  SURVEY DESC
 ILTD.               Lithology:  INTERP LTH DESC
 FTOP.          Formation Tops:  FORM TOPS DESC
 SON .        AZ-XX-0906571587:  JOB NUMBER
 COMP.     BP Exploration (Caspian Sea) Ltd:  COMPANY
 UWI .                     N/A:  UNIQUE WELL IDENTIFIER
 API .                     N/A:  API NUMBER
 BASE.              Azerbaijan:  LOGGING EQUIPMENT BASE LOCATION
 REGN.                   EESSA:  REGION
 PROV.                    Baku:  PROVINCE
 STAT.                    Baku:  STATE NAME
 CTRY.              Azerbaijan:  COUNTRY NAME
 FLD .                     ACG:  FIELD NAME
 SRVC.     TURAN Drilling & Engineering:  CONTRACTOR
 WELL.                     J27:  WELL NAME
 RIG .             West Chirag:  RIG NAME
 DOE .                     N/A:  DOE NUMBER
 DCON.         Sperry Drilling:  DIRECTNL CONTR
 PDAT.          Mean Sea Level:  PERMANENT DATUM
 WTYP.                Deviated:  WELL TYPE
 MWDS.                    Baku:  MWD SHOP
 JOBN.        AZ-XX-0906571587:  JOB TICKET NUMB
 UNIT.                     N/A:  LOGGING EQUIPMENT ID
 MDS .        Operator Entered:  MAG DATA SOURCE
 CNTY.                        :  COUNTY
 LOC .                        :  LOCATION
 LMF .             Drill Floor:  LOG MEASURED FROM
 TVDS.m                  43.00:  TVDSS CORRECTN
 LATI.deg                40.13:  LATITUDE
 LONG.deg                51.22:  LONGITUDE
 WHNS.m                   7.72:  WELL HEAD N/S
 WHEW.m                 -14.24:  WELL HEAD E/W
 UTMX.m              519005.06:  UTM X
 UTMY.m             4443793.85:  UTM Y
 DFWL.m                   0.00:  DISTANCE FWL
 DFSL.m                   0.00:  DISTANCE FSL
 SDEP.m                 347.00:  START DEPTH
 TDD .m                 581.00:  TOTAL DEPTH (DRILLER)
 VSDR.deg               159.72:  VERT SEC DIRECT
 GVFD.g                   1.00:  GRAVITY FIELD
 MFLD.nT              50313.00:  MAGNETIC FIELD
 MDIP.deg                59.58:  MAGNETIC DIP
 MDEC.deg                 6.45:  MAGNETIC DECL
 GRDC.deg                 0.15:  GRID CORRECTION
 AZTC.deg                 6.30:  AZM TOTAL CORR
 EPD .m                   0.00:  ELEVATION
 EGL .m                   0.00:  GROUND ELEVATION
 WDMS.m                 169.80:  WD ELEV
 APD .m                  43.00:  DEPTH ABOVE PD
 AGAP.m                  43.00:  AIR GAP
 VSEW.m                 -14.24:  VERT SEC E/W
 VSNS.m                   7.72:  VERT SEC N/S
 DEP .m                 342.45:  DEPTH
 EKB .m                   0.00:  KB ELEVATION
 EDF .m                  43.00:  DF ELEVATION
 TDL .m                1313.00:  TOTAL DEPTH (LOGGER)
 VSC .                       0:  VS TO CLOSURE
 MAGU.                 1851396:  MAGUTM CHECKSUM
~Parameter Information Block
#MNEM.UNIT       Value        Description
#---------     -----------    ---------------------------
 AV  .mps                 0.65:  Ann Velocity 
 AVMX.mps                 0.75:  Max Ann Veloc 
 AZIF.deg               115.08:  Azm, Final 
 BHAT.        Rotary Steerable:  BHA Type 
 BROT.°/30m               1.50:  Build Rotating 
 BS  .in                 12.25:  Bit Size 
 BSZ .in                 12.25:  Bit Size 
 BTPL.psig              700.00:  Bit Press Loss 
 CABU.                     Yes:  Customer Abuse 
 COMM.                     <
V:  Run Comments 1 
 TCS .hr                121.00:  Time Ciculation Ended 
 CV  .mps                 1.83:  Crit Velocity 
 CVMX.mps                 1.83:  Max Crit Veloc 
 DD1 .          Rashad Habibov:  Direct Drillr 1 
 DD2 .         Rasim Ibrahimov:  Direct Drillr 2 
 DDSV.                 iCruise:  DD Service 
 DEFF.%                 100.00:  % Det Eff 
 DLRX.°/30m               3.60:  Dogleg Rot Max 
 DLSO.°/30m               3.10:  Dogleg Oriented 
 DLSX.°/30m               3.60:  Dogleg Str Max 
 DRET.      13.41.20 12-Nov-20:  Drill End Time 
 DRST.      13.41.20 07-Nov-20:  Drill Start Tim 
 DTIM.hr                 54.16:  Time Drilling 
 EDEP.m                4762.01:  End Depth 
 ENG1.           Amrah Tahirov:  Engineer 1 
 ENG2.      Bakhtiyar Jabbarli:  Engineer 2 
 ENG3.          Ruslan Safarov:  Engineer 3 
 ETIM.      13.41.20 14-Nov-20:  End Time 
 FLOI.gpm              1200.00:  Flow In 
 FLON.gpm              1100.00:  Flow In Min 
 FLOS.cptm                0.00:  Fluid Loss 
 FLOX.gpm              1200.00:  Flow In Max 
 HFLO.                      No:  High Flow 
 HPRE.                      No:  High Pressure 
 HTEM.                      No:  High Temp 
 HYDO.m                   2.00:  Hydro Offset 
 IFIN.deg                66.14:  Inc, Final 
 IMAX.deg                69.03:  Inc Max 
 IMIN.deg                64.64:  Inc Min 
 IMND.m                4450.16:  Inc Min Depth 
 IMXD.m                3996.00:  Inc Max Depth 
 JARR.                     Yes:  Jarring 
 LETM.      13.41.20 14-Nov-20:  Log End Time 
 LOST.hr                     0:  Lost Rig Time 
 LSTM.      13.41.20 06-Nov-20:  Log Start Time 
 MDCL.ppm             42500.00:  Mud Chlorides 
 MDES.     Inversion Oil/Synthetic:  Mud Desc 
 DFD .sg                  1.45:  Mud Density 
 MDMN.sg                  1.45:  Dens Mud Min 
 MDMX.sg                  1.45:  Dens Mud Max 
 MOIL.                      70:  Run Mud Oil % 
 MOWR.                   70:30:  Run Mud OWR 
 MSND.                       0:  Run Mud Sand % 
 MSOL.                    19.3:  Run Mud Solids% 
 DFV .spqt               77.00:  Mud Viscosity 
 MWOD.in                  8.00:  MWD Tool OD 
 MWSI.                      No:  Serv Intrp, MWD 
 OTIM.hr                201.88:  Time Operating 
 PCON.           Look Like New:  Pad Condition 
 PMAX.psia             9250.94:  Press Op, Max 
 PV  .cP                 29.00:  Mud PV 
 RUN .                     800:  Run Number 
 ROPA.m/hr               28.00:  ROP Avg 
 ROPN.m/hr               25.00:  ROP Min 
 ROPX.m/hr               30.00:  ROP Max 
 RPMA.rpm               160.00:  RPM Surface Avg 
 RPMN.rpm               160.00:  RPM Surface Min 
 RPMX.rpm               160.00:  RPM Surface Max 
 RRUN.                    0800:  Rig Run Number 
 RTIM.hr                 12.00:  Time Reaming 
 SAZI.deg               169.33:  Azm, Start 
 SDEP.m                3449.01:  Start Depth 
 SIDD.                      No:  Serv Intrp, DD 
 SINC.deg                68.01:  Inc, Start 
 SPPA.psig             4900.00:  SPP Avg 
 SPPN.psig             4800.00:  SPP Min 
 SPPX.psig             5050.00:  SPP Max 
 STIM.      13.41.20 06-Nov-20:  Start Time 
 SVCS.                 DD, MWD:  Services 
 SVER.                    9.20:  Sperry Version 
 TDAT.m                4762.01:  Tot Depth Attmp 
 TDDF.                      No:  Trip for DD 
 TDLG.m                1313.00:  Tot Depth Loggd 
 TFF .                      No:  Trip for Fail 
 TQAA.f-kp               13.00:  Torque Abs Avg 
 TQAN.f-kp               13.00:  Torque Abs Min 
 TQAX.f-kp               13.00:  Torque Abs Max 
 TRRT.°/30m               1.70:  Turn Rotating 
 MRT .                  EWR-M5:  Maximum Recorded Temperature 
 TTMX.degC               86.00:  Max Tool Temp 
 VS01.                90622122:  Virtual Str1 SN 
 VS02.                90577298:  Virtual Str2 SN 
 VS03.                90563623:  Virtual Str3 SN 
 VS04.                90617559:  Virtual Str4 SN 
 VS05.                11339492:  Virtual Str5 SN 
 VS06.                12385033:  Virtual Str6 SN 
 WBMN.klb                 0.00:  WOB Min 
 WOBA.klb                22.00:  WOB Avg 
 WOBX.klb                26.00:  WOB Max 
 YP  .lhf2               30.00:  Yield Point 
~Curve Information Block
#MNEM.UNIT                 API CODE     Curve Description
#---------               -----------    ---------------------------
 TIME.HHMMSS            00 000 000 000:  GT Time & Date
 GTDEPTH.m              00 000 000 000:  GT Depth
 GTPQH.psia             00 000 000 000:  GT HR Quartz Pressure
 GTTQ.degC              00 000 000 000:  GT Quartz Temperature
 GTTN.NONE              00 000 000 000:  GT Test Number
 GTET.sec               00 000 000 000:  GT Elapsed Test Time
 GTTVD.m                00 000 000 000:  GT True Vertical Depth
#Other Information
#
#WARRANTY: Halliburton will use its best efforts to furnish customers with 
#accurate information and interpretations that are part of, and incident to, the services 
#provided.  However, Halliburton cannot and does not warrant the accuracy 
#or correctness of such information and interpretations.  Under no circumstances should any 
#such information or interpretation be relied upon as the sole basis for any drilling, 
#completion, production, or financial decision or any procedure involving any risk to the 
#safety of any drilling venture, drilling rig or its crew or any other third party.  The 
#Customer has full responsibility for all drilling, completion and production operation.  
#Halliburton makes no representations or warranties, either expressed or 
#implied, including, but not limited to, the implied warranties of merchantability or fitness 
#for a particular purpose, with respect to the services rendered.  In no event will 
#Halliburton be liable for failure to obtain any particular results or for 
#any damages, including, but not limited to, indirect, special or consequential damages, 
#resulting from the use of any information or interpretation provided by Halliburton.
#
~A           TIME           GTDEPTH  GTPQH  GTTQ  GTTN  GTET   GTTVD  
# ...
   09:25:39.220.08-Nov-2020 3525.51 3323.37 70.02 1.00 253.04 2012.77
   09:25:39.420.08-Nov-2020 3525.51 3323.37 70.02 1.00 253.24 2012.77
   09:25:39.620.08-Nov-2020 3525.51 3323.31 70.01 1.00 253.44 2012.77
   09:25:39.820.08-Nov-2020 3525.51 3323.35 70.01 1.00 253.64 2012.77
   09:25:40.021.08-Nov-2020 3525.51 3323.37 70.01 1.00 253.84 2012.77
   09:25:40.221.08-Nov-2020 3525.51 3323.37 70.01 1.00 254.04 2012.77
   09:25:40.421.08-Nov-2020 3525.51 3323.37 70.01 1.00 254.24 2012.77
   09:25:40.621.08-Nov-2020 3525.51 3323.33 70.01 1.00 254.44 2012.77
   09:25:40.821.08-Nov-2020 3525.51 3323.37 70.01 1.00 254.64 2012.77
   09:25:41.021.08-Nov-2020 3525.51 3323.37 70.01 1.00 254.84 2012.77
   09:25:41.221.08-Nov-2020 3525.51 3323.37 70.01 1.00 255.04 2012.77
   09:25:41.421.08-Nov-2020 3525.51 3323.37 70.01 1.00 255.24 2012.77
   09:25:41.621.08-Nov-2020 3525.51 3323.32 70.01 1.00 255.44 2012.77
   09:25:41.821.08-Nov-2020 3525.51 3323.37 70.01 1.00 255.64 2012.77
   09:25:42.021.08-Nov-2020 3525.51 3323.38 70.01 1.00 255.84 2012.77
   09:25:42.221.08-Nov-2020 3525.51 3323.38 70.01 1.00 256.04 2012.77
   09:25:42.421.08-Nov-2020 3525.51 3323.38 70.01 1.00 256.24 2012.77
   09:25:42.621.08-Nov-2020 3525.51 3323.37 70.01 1.00 256.44 2012.77
   09:25:42.821.08-Nov-2020 3525.51 3323.36 70.01 1.00 256.64 2012.77
   09:25:43.021.08-Nov-2020 3525.51 3323.37 70.01 1.00 256.84 2012.77
   09:25:43.221.08-Nov-2020 3525.51 3323.36 70.01 1.00 257.04 2012.77
   09:25:43.421.08-Nov-2020 3525.51 3323.36 70.01 1.00 257.24 2012.77
   09:25:43.621.08-Nov-2020 3525.51 3322.03 70.01 1.00 257.44 2012.77
   09:25:43.821.08-Nov-2020 3525.51 3321.45 70.01 1.00 257.64 2012.77
   09:25:44.021.08-Nov-2020 3525.51 3321.56 70.00 1.00 257.84 2012.77
   09:25:44.221.08-Nov-2020 3525.51 3321.58 70.00 1.00 258.04 2012.77
   09:25:44.421.08-Nov-2020 3525.51 3321.58 70.00 1.00 258.24 2012.77
   09:25:44.621.08-Nov-2020 3525.51 3321.74 70.00 1.00 258.44 2012.77
   09:25:44.821.08-Nov-2020 3525.51 3321.72 70.00 1.00 258.64 2012.77
   09:25:45.021.08-Nov-2020 3525.51 3321.68 70.00 1.00 258.84 2012.77
   09:25:45.221.08-Nov-2020 3525.51 3321.70 70.00 1.00 259.04 2012.77
   09:25:45.421.08-Nov-2020 3525.51 3321.70 70.00 1.00 259.24 2012.77
   09:25:45.621.08-Nov-2020 3525.51 3321.69 70.00 1.00 259.44 2012.77
   09:25:45.822.08-Nov-2020 3525.51 3321.70 70.00 1.00 259.64 2012.77
   09:25:46.022.08-Nov-2020 3525.51 3321.68 70.00 1.00 259.84 2012.77
   09:25:46.222.08-Nov-2020 3525.51 3321.69 70.00 1.00 260.04 2012.77
   09:25:46.422.08-Nov-2020 3525.51 3321.69 70.00 1.00 260.24 2012.77
   09:25:46.622.08-Nov-2020 3525.51 3321.67 70.00 1.00 260.44 2012.77
   09:25:46.822.08-Nov-2020 3525.51 3321.65 70.00 1.00 260.64 2012.77
   09:25:47.022.08-Nov-2020 3525.51 3321.73 70.00 1.00 260.84 2012.77
   09:25:47.222.08-Nov-2020 3525.51 3321.80 70.00 1.00 261.04 2012.77
   09:25:47.422.08-Nov-2020 3525.51 3321.80 70.00 1.00 261.24 2012.77
   09:25:47.622.08-Nov-2020 3525.51 3321.81 70.00 1.00 261.44 2012.77
   09:25:47.822.08-Nov-2020 3525.51 3321.83 70.00 1.00 261.64 2012.77
   09:25:48.022.08-Nov-2020 3525.51 3321.83 70.00 1.00 261.84 2012.77
   09:25:48.222.08-Nov-2020 3525.51 3321.81 70.00 1.00 262.04 2012.77
   09:25:48.422.08-Nov-2020 3525.51 3321.81 70.00 1.00 262.24 2012.77
   09:25:48.622.08-Nov-2020 3525.51 3321.73 70.00 1.00 262.44 2012.77
   09:25:48.822.08-Nov-2020 3525.51 3321.87 69.99 1.00 262.64 2012.77
   09:25:49.022.08-Nov-2020 3525.51 3321.85 69.99 1.00 262.84 2012.77
   09:25:49.222.08-Nov-2020 3525.51 3321.86 69.99 1.00 263.04 2012.77
   09:25:49.422.08-Nov-2020 3525.51 3321.86 69.99 1.00 263.24 2012.77
   09:25:49.622.08-Nov-2020 3525.51 3321.76 69.99 1.00 263.44 2012.77
   09:25:49.822.08-Nov-2020 3525.51 3321.90 69.99 1.00 263.64 2012.77
   09:25:50.022.08-Nov-2020 3525.51 3321.88 69.99 1.00 263.84 2012.77
   09:25:50.222.08-Nov-2020 3525.51 3321.86 69.99 1.00 264.04 2012.77
   09:25:50.422.08-Nov-2020 3525.51 3321.86 69.99 1.00 264.24 2012.77
   09:25:50.622.08-Nov-2020 3525.51 3321.87 69.99 1.00 264.44 2012.77
   09:25:50.822.08-Nov-2020 3525.51 3321.90 69.99 1.00 264.64 2012.77
   09:25:51.022.08-Nov-2020 3525.51 3321.87 69.99 1.00 264.84 2012.77
   09:25:51.222.08-Nov-2020 3525.51 3321.89 69.99 1.00 265.04 2012.77
   09:25:51.422.08-Nov-2020 3525.51 3321.89 69.99 1.00 265.24 2012.77
   09:25:51.622.08-Nov-2020 3525.51 3321.85 69.99 1.00 265.44 2012.77
   09:25:51.823.08-Nov-2020 3525.51 3321.85 69.99 1.00 265.64 2012.77
   09:25:52.023.08-Nov-2020 3525.51 3321.86 69.99 1.00 265.84 2012.77
   09:25:52.223.08-Nov-2020 3525.51 3323.15 69.99 1.00 266.05 2012.77
   09:25:52.423.08-Nov-2020 3525.51 3323.15 69.99 1.00 266.25 2012.77
   09:25:52.623.08-Nov-2020 3525.51 3323.31 69.99 1.00 266.45 2012.77
   09:25:52.823.08-Nov-2020 3525.51 3323.32 69.99 1.00 266.65 2012.77
   09:25:53.023.08-Nov-2020 3525.51 3323.32 69.99 1.00 266.85 2012.77
   09:25:53.223.08-Nov-2020 3525.51 3323.27 69.98 1.00 267.05 2012.77
   09:25:53.423.08-Nov-2020 3525.51 3323.27 69.98 1.00 267.25 2012.77
   09:25:53.623.08-Nov-2020 3525.51 3323.34 69.98 1.00 267.45 2012.77
   09:25:53.823.08-Nov-2020 3525.51 3323.33 69.98 1.00 267.65 2012.77
   09:25:54.023.08-Nov-2020 3525.51 3323.34 69.98 1.00 267.85 2012.77
   09:25:54.223.08-Nov-2020 3525.51 3323.34 69.98 1.00 268.05 2012.77
   09:25:54.423.08-Nov-2020 3525.51 3323.34 69.98 1.00 268.25 2012.77
   09:25:54.623.08-Nov-2020 3525.51 3323.33 69.98 1.00 268.45 2012.77
   09:25:54.823.08-Nov-2020 3525.51 3323.33 69.98 1.00 268.65 2012.77
   09:25:55.023.08-Nov-2020 3525.51 3323.32 69.98 1.00 268.85 2012.77
   09:25:55.223.08-Nov-2020 3525.51 3323.33 69.98 1.00 269.05 2012.77
   09:25:55.423.08-Nov-2020 3525.51 3323.33 69.98 1.00 269.25 2012.77
   09:25:55.623.08-Nov-2020 3525.51 3323.32 69.98 1.00 269.45 2012.77
   09:25:55.823.08-Nov-2020 3525.51 3323.28 69.98 1.00 269.65 2012.77
   09:25:56.023.08-Nov-2020 3525.51 3323.34 69.98 1.00 269.85 2012.77
   09:25:56.223.08-Nov-2020 3525.51 3323.33 69.98 1.00 270.05 2012.77
   09:25:56.423.08-Nov-2020 3525.51 3323.33 69.98 1.00 270.25 2012.77
   09:25:56.623.08-Nov-2020 3525.51 3323.35 69.98 1.00 270.45 2012.77
   09:25:56.823.08-Nov-2020 3525.51 3323.34 69.98 1.00 270.65 2012.77
   09:25:57.023.08-Nov-2020 3525.51 3323.33 69.98 1.00 270.85 2012.77
   09:25:57.223.08-Nov-2020 3525.51 3323.33 69.98 1.00 271.05 2012.77
   09:25:57.423.08-Nov-2020 3525.51 3323.33 69.98 1.00 271.25 2012.77
   09:25:57.624.08-Nov-2020 3525.51 3323.35 69.98 1.00 271.45 2012.77
   09:25:57.824.08-Nov-2020 3525.51 3323.33 69.97 1.00 271.65 2012.77
   09:25:58.024.08-Nov-2020 3525.51 3323.33 69.97 1.00 271.85 2012.77
   09:25:58.224.08-Nov-2020 3525.51 3323.35 69.97 1.00 272.05 2012.77
   09:25:58.424.08-Nov-2020 3525.51 3323.35 69.97 1.00 272.25 2012.77
   09:25:58.624.08-Nov-2020 3525.51 3323.34 69.97 1.00 272.45 2012.77
   09:25:58.824.08-Nov-2020 3525.51 3323.33 69.97 1.00 272.65 2012.77
   09:25:59.024.08-Nov-2020 3525.51 3323.33 69.97 1.00 272.85 2012.77
   09:25:59.224.08-Nov-2020 3525.51 3323.35 69.97 1.00 273.05 2012.77
   09:25:59.424.08-Nov-2020 3525.51 3323.35 69.97 1.00 273.25 2012.77
   09:25:59.624.08-Nov-2020 3525.51 3323.34 69.97 1.00 273.45 2012.77
   09:25:59.824.08-Nov-2020 3525.51 3323.32 69.97 1.00 273.65 2012.77
   09:26:00.024.08-Nov-2020 3525.51 3323.34 69.97 1.00 273.85 2012.77
   09:26:00.224.08-Nov-2020 3525.51 3323.34 69.97 1.00 274.05 2012.77
   09:26:00.424.08-Nov-2020 3525.51 3323.34 69.97 1.00 274.25 2012.77
   09:26:00.624.08-Nov-2020 3525.51 3323.33 69.97 1.00 274.45 2012.77
   09:26:00.824.08-Nov-2020 3525.51 3323.33 69.97 1.00 274.65 2012.77
   09:26:01.024.08-Nov-2020 3525.51 3323.33 69.97 1.00 274.85 2012.77
   09:26:01.224.08-Nov-2020 3525.51 3323.32 69.97 1.00 275.05 2012.77
   09:26:01.424.08-Nov-2020 3525.51 3323.32 69.97 1.00 275.25 2012.77
   09:26:01.624.08-Nov-2020 3525.51 3323.32 69.97 1.00 275.45 2012.77
   09:26:01.824.08-Nov-2020 3525.51 3323.32 69.97 1.00 275.65 2012.77
   09:26:02.024.08-Nov-2020 3525.51 3323.32 69.97 1.00 275.85 2012.77
