~Version Information
 VERS.                  2.0:   CWLS log ASCII Standard -VERSION 2.0
 WRAP.                   NO:   One line per depth step
~Well Information Block
#MNEM.UNIT     VALUE/NAME     DESCRIPTION
#---------     -----------    ---------------------------
 STRT.S             21:54:12 08-Nov-20: START TIME 21:54:12 08-Nov-20
 STOP.S             22:00:43 08-Nov-20: STOP TIME  22:00:43 08-Nov-20
 STEP.S                   0.00: STEP TIME
 NULL.                 -999.25: NULL VALUE
 DFWT.                        :  DIST FWL TEXT
 DFST.                        :  DIST FSL TEXT
 DMF .             Drill Floor:  DRILL MEAS FROM
 STIM.      04.54.24 22-Sep-20:  START TIME
 DATE.      04.54.24 21-Nov-20:  END TIME
 SPUD.               21-Nov-20:  SPUD DATE
 NREF.                    Grid:  NORTH REFERENCE
 HPTY.       Minimum Curvature:  HOLE POS TYPE
 DMOD.             Drill Model:  DRILL MOD DESC
 SVYD.                  Survey:  SURVEY DESC
 ILTD.               Lithology:  INTERP LTH DESC
 FTOP.          Formation Tops:  FORM TOPS DESC
 SON .        AZ-XX-0906571587:  JOB NUMBER
 COMP.     BP Exploration (Caspian Sea) Ltd:  COMPANY
 UWI .                     N/A:  UNIQUE WELL IDENTIFIER
 API .                     N/A:  API NUMBER
 BASE.              Azerbaijan:  LOGGING EQUIPMENT BASE LOCATION
 REGN.                   EESSA:  REGION
 PROV.                    Baku:  PROVINCE
 STAT.                    Baku:  STATE NAME
 CTRY.              Azerbaijan:  COUNTRY NAME
 FLD .                     ACG:  FIELD NAME
 SRVC.     TURAN Drilling & Engineering:  CONTRACTOR
 WELL.                     J27:  WELL NAME
 RIG .             West Chirag:  RIG NAME
 DOE .                     N/A:  DOE NUMBER
 DCON.         Sperry Drilling:  DIRECTNL CONTR
 PDAT.          Mean Sea Level:  PERMANENT DATUM
 WTYP.                Deviated:  WELL TYPE
 MWDS.                    Baku:  MWD SHOP
 JOBN.        AZ-XX-0906571587:  JOB TICKET NUMB
 UNIT.                     N/A:  LOGGING EQUIPMENT ID
 MDS .        Operator Entered:  MAG DATA SOURCE
 CNTY.                        :  COUNTY
 LOC .                        :  LOCATION
 LMF .             Drill Floor:  LOG MEASURED FROM
 TVDS.m                  43.00:  TVDSS CORRECTN
 LATI.deg                40.13:  LATITUDE
 LONG.deg                51.22:  LONGITUDE
 WHNS.m                   7.72:  WELL HEAD N/S
 WHEW.m                 -14.24:  WELL HEAD E/W
 UTMX.m              519005.06:  UTM X
 UTMY.m             4443793.85:  UTM Y
 DFWL.m                   0.00:  DISTANCE FWL
 DFSL.m                   0.00:  DISTANCE FSL
 SDEP.m                 347.00:  START DEPTH
 TDD .m                 581.00:  TOTAL DEPTH (DRILLER)
 VSDR.deg               159.72:  VERT SEC DIRECT
 GVFD.g                   1.00:  GRAVITY FIELD
 MFLD.nT              50313.00:  MAGNETIC FIELD
 MDIP.deg                59.58:  MAGNETIC DIP
 MDEC.deg                 6.45:  MAGNETIC DECL
 GRDC.deg                 0.15:  GRID CORRECTION
 AZTC.deg                 6.30:  AZM TOTAL CORR
 EPD .m                   0.00:  ELEVATION
 EGL .m                   0.00:  GROUND ELEVATION
 WDMS.m                 169.80:  WD ELEV
 APD .m                  43.00:  DEPTH ABOVE PD
 AGAP.m                  43.00:  AIR GAP
 VSEW.m                 -14.24:  VERT SEC E/W
 VSNS.m                   7.72:  VERT SEC N/S
 DEP .m                 342.45:  DEPTH
 EKB .m                   0.00:  KB ELEVATION
 EDF .m                  43.00:  DF ELEVATION
 TDL .m                1313.00:  TOTAL DEPTH (LOGGER)
 VSC .                       0:  VS TO CLOSURE
 MAGU.                 1851396:  MAGUTM CHECKSUM
~Parameter Information Block
#MNEM.UNIT       Value        Description
#---------     -----------    ---------------------------
 AV  .mps                 0.65:  Ann Velocity 
 AVMX.mps                 0.75:  Max Ann Veloc 
 AZIF.deg               115.08:  Azm, Final 
 BHAT.        Rotary Steerable:  BHA Type 
 BROT.∞/30m               1.50:  Build Rotating 
 BS  .in                 12.25:  Bit Size 
 BSZ .in                 12.25:  Bit Size 
 BTPL.psig              700.00:  Bit Press Loss 
 CABU.                     Yes:  Customer Abuse 
 COMM.                     „J:  Run Comments 1 
 TCS .hr                121.00:  Time Ciculation Ended 
 CV  .mps                 1.83:  Crit Velocity 
 CVMX.mps                 1.83:  Max Crit Veloc 
 DD1 .          Rashad Habibov:  Direct Drillr 1 
 DD2 .         Rasim Ibrahimov:  Direct Drillr 2 
 DDSV.                 iCruise:  DD Service 
 DEFF.%                 100.00:  % Det Eff 
 DLRX.∞/30m               3.60:  Dogleg Rot Max 
 DLSO.∞/30m               3.10:  Dogleg Oriented 
 DLSX.∞/30m               3.60:  Dogleg Str Max 
 DRET.      13.41.20 12-Nov-20:  Drill End Time 
 DRST.      13.41.20 07-Nov-20:  Drill Start Tim 
 DTIM.hr                 54.16:  Time Drilling 
 EDEP.m                4762.01:  End Depth 
 ENG1.           Amrah Tahirov:  Engineer 1 
 ENG2.      Bakhtiyar Jabbarli:  Engineer 2 
 ENG3.          Ruslan Safarov:  Engineer 3 
 ETIM.      13.41.20 14-Nov-20:  End Time 
 FLOI.gpm              1200.00:  Flow In 
 FLON.gpm              1100.00:  Flow In Min 
 FLOS.cptm                0.00:  Fluid Loss 
 FLOX.gpm              1200.00:  Flow In Max 
 HFLO.                      No:  High Flow 
 HPRE.                      No:  High Pressure 
 HTEM.                      No:  High Temp 
 HYDO.m                   2.00:  Hydro Offset 
 IFIN.deg                66.14:  Inc, Final 
 IMAX.deg                69.03:  Inc Max 
 IMIN.deg                64.64:  Inc Min 
 IMND.m                4450.16:  Inc Min Depth 
 IMXD.m                3996.00:  Inc Max Depth 
 JARR.                     Yes:  Jarring 
 LETM.      13.41.20 14-Nov-20:  Log End Time 
 LOST.hr                     0:  Lost Rig Time 
 LSTM.      13.41.20 06-Nov-20:  Log Start Time 
 MDCL.ppm             42500.00:  Mud Chlorides 
 MDES.     Inversion Oil/Synthetic:  Mud Desc 
 DFD .sg                  1.45:  Mud Density 
 MDMN.sg                  1.45:  Dens Mud Min 
 MDMX.sg                  1.45:  Dens Mud Max 
 MOIL.                      70:  Run Mud Oil % 
 MOWR.                   70:30:  Run Mud OWR 
 MSND.                       0:  Run Mud Sand % 
 MSOL.                    19.3:  Run Mud Solids% 
 DFV .spqt               77.00:  Mud Viscosity 
 MWOD.in                  8.00:  MWD Tool OD 
 MWSI.                      No:  Serv Intrp, MWD 
 OTIM.hr                201.88:  Time Operating 
 PCON.           Look Like New:  Pad Condition 
 PMAX.psia             9250.94:  Press Op, Max 
 PV  .cP                 29.00:  Mud PV 
 RUN .                     800:  Run Number 
 ROPA.m/hr               28.00:  ROP Avg 
 ROPN.m/hr               25.00:  ROP Min 
 ROPX.m/hr               30.00:  ROP Max 
 RPMA.rpm               160.00:  RPM Surface Avg 
 RPMN.rpm               160.00:  RPM Surface Min 
 RPMX.rpm               160.00:  RPM Surface Max 
 RRUN.                    0800:  Rig Run Number 
 RTIM.hr                 12.00:  Time Reaming 
 SAZI.deg               169.33:  Azm, Start 
 SDEP.m                3449.01:  Start Depth 
 SIDD.                      No:  Serv Intrp, DD 
 SINC.deg                68.01:  Inc, Start 
 SPPA.psig             4900.00:  SPP Avg 
 SPPN.psig             4800.00:  SPP Min 
 SPPX.psig             5050.00:  SPP Max 
 STIM.      13.41.20 06-Nov-20:  Start Time 
 SVCS.                 DD, MWD:  Services 
 SVER.                    9.20:  Sperry Version 
 TDAT.m                4762.01:  Tot Depth Attmp 
 TDDF.                      No:  Trip for DD 
 TDLG.m                1313.00:  Tot Depth Loggd 
 TFF .                      No:  Trip for Fail 
 TQAA.f-kp               13.00:  Torque Abs Avg 
 TQAN.f-kp               13.00:  Torque Abs Min 
 TQAX.f-kp               13.00:  Torque Abs Max 
 TRRT.∞/30m               1.70:  Turn Rotating 
 MRT .                  EWR-M5:  Maximum Recorded Temperature 
 TTMX.degC               86.00:  Max Tool Temp 
 VS01.                90622122:  Virtual Str1 SN 
 VS02.                90577298:  Virtual Str2 SN 
 VS03.                90563623:  Virtual Str3 SN 
 VS04.                90617559:  Virtual Str4 SN 
 VS05.                11339492:  Virtual Str5 SN 
 VS06.                12385033:  Virtual Str6 SN 
 WBMN.klb                 0.00:  WOB Min 
 WOBA.klb                22.00:  WOB Avg 
 WOBX.klb                26.00:  WOB Max 
 YP  .lhf2               30.00:  Yield Point 
~Curve Information Block
#MNEM.UNIT                 API CODE     Curve Description
#---------               -----------    ---------------------------
 TIME.HHMMSS            00 000 000 000:  GT Time & Date
 GTDEPTH.m              00 000 000 000:  GT Depth
 GTPQH.psia             00 000 000 000:  GT HR Quartz Pressure
 GTTQ.degC              00 000 000 000:  GT Quartz Temperature
 GTTN.NONE              00 000 000 000:  GT Test Number
 GTET.sec               00 000 000 000:  GT Elapsed Test Time
 GTTVD.m                00 000 000 000:  GT True Vertical Depth
#Other Information
#
#WARRANTY: Halliburton will use its best efforts to furnish customers with 
#accurate information and interpretations that are part of, and incident to, the services 
#provided.  However, Halliburton cannot and does not warrant the accuracy 
#or correctness of such information and interpretations.  Under no circumstances should any 
#such information or interpretation be relied upon as the sole basis for any drilling, 
#completion, production, or financial decision or any procedure involving any risk to the 
#safety of any drilling venture, drilling rig or its crew or any other third party.  The 
#Customer has full responsibility for all drilling, completion and production operation.  
#Halliburton makes no representations or warranties, either expressed or 
#implied, including, but not limited to, the implied warranties of merchantability or fitness 
#for a particular purpose, with respect to the services rendered.  In no event will 
#Halliburton be liable for failure to obtain any particular results or for 
#any damages, including, but not limited to, indirect, special or consequential damages, 
#resulting from the use of any information or interpretation provided by Halliburton.
#
~A           TIME           GTDEPTH  GTPQH  GTTQ  GTTN  GTET   GTTVD  
# ...
   21:58:25.709.08-Nov-2020 3686.01 3544.10 71.56 4.00 253.06 2071.13
   21:58:25.909.08-Nov-2020 3686.01 3544.10 71.56 4.00 253.26 2071.13
   21:58:26.109.08-Nov-2020 3686.01 3544.09 71.56 4.00 253.46 2071.13
   21:58:26.309.08-Nov-2020 3686.01 3544.08 71.56 4.00 253.66 2071.13
   21:58:26.509.08-Nov-2020 3686.01 3544.02 71.55 4.00 253.86 2071.13
   21:58:26.709.08-Nov-2020 3686.01 3544.20 71.55 4.00 254.06 2071.13
   21:58:26.909.08-Nov-2020 3686.01 3544.20 71.55 4.00 254.26 2071.13
   21:58:27.109.08-Nov-2020 3686.01 3544.17 71.55 4.00 254.46 2071.13
   21:58:27.309.08-Nov-2020 3686.01 3544.20 71.55 4.00 254.66 2071.13
   21:58:27.509.08-Nov-2020 3686.01 3544.17 71.55 4.00 254.86 2071.13
   21:58:27.710.08-Nov-2020 3686.01 3544.16 71.55 4.00 255.06 2071.13
   21:58:27.910.08-Nov-2020 3686.01 3544.16 71.55 4.00 255.26 2071.13
   21:58:28.110.08-Nov-2020 3686.01 3544.16 71.55 4.00 255.46 2071.13
   21:58:28.310.08-Nov-2020 3686.01 3544.20 71.55 4.00 255.66 2071.13
   21:58:28.510.08-Nov-2020 3686.01 3544.15 71.54 4.00 255.86 2071.13
   21:58:28.710.08-Nov-2020 3686.01 3544.16 71.54 4.00 256.06 2071.13
   21:58:28.910.08-Nov-2020 3686.01 3544.16 71.54 4.00 256.26 2071.13
   21:58:29.110.08-Nov-2020 3686.01 3534.12 71.54 4.00 256.46 2071.13
   21:58:29.310.08-Nov-2020 3686.01 3534.58 71.54 4.00 256.66 2071.13
   21:58:29.510.08-Nov-2020 3686.01 3534.60 71.54 4.00 256.86 2071.13
   21:58:29.710.08-Nov-2020 3686.01 3534.52 71.54 4.00 257.06 2071.13
   21:58:29.910.08-Nov-2020 3686.01 3534.52 71.54 4.00 257.26 2071.13
   21:58:30.110.08-Nov-2020 3686.01 3535.00 71.54 4.00 257.46 2071.13
   21:58:30.310.08-Nov-2020 3686.01 3534.63 71.54 4.00 257.66 2071.13
   21:58:30.510.08-Nov-2020 3686.01 3535.13 71.54 4.00 257.86 2071.13
   21:58:30.710.08-Nov-2020 3686.01 3535.10 71.53 4.00 258.06 2071.13
   21:58:30.910.08-Nov-2020 3686.01 3535.10 71.53 4.00 258.26 2071.13
   21:58:31.110.08-Nov-2020 3686.01 3535.33 71.53 4.00 258.46 2071.13
   21:58:31.310.08-Nov-2020 3686.01 3535.28 71.53 4.00 258.66 2071.13
   21:58:31.510.08-Nov-2020 3686.01 3535.39 71.53 4.00 258.86 2071.13
   21:58:31.710.08-Nov-2020 3686.01 3535.47 71.53 4.00 259.06 2071.13
   21:58:31.910.08-Nov-2020 3686.01 3535.47 71.53 4.00 259.26 2071.13
   21:58:32.111.08-Nov-2020 3686.01 3535.61 71.53 4.00 259.46 2071.13
   21:58:32.311.08-Nov-2020 3686.01 3535.78 71.53 4.00 259.66 2071.13
   21:58:32.511.08-Nov-2020 3686.01 3535.74 71.53 4.00 259.86 2071.13
   21:58:32.711.08-Nov-2020 3686.01 3535.72 71.53 4.00 260.06 2071.13
   21:58:32.911.08-Nov-2020 3686.01 3535.72 71.53 4.00 260.26 2071.13
   21:58:33.111.08-Nov-2020 3686.01 3535.85 71.52 4.00 260.46 2071.13
   21:58:33.311.08-Nov-2020 3686.01 3536.11 71.52 4.00 260.66 2071.13
   21:58:33.511.08-Nov-2020 3686.01 3536.16 71.52 4.00 260.86 2071.13
   21:58:33.711.08-Nov-2020 3686.01 3536.14 71.52 4.00 261.06 2071.13
   21:58:33.911.08-Nov-2020 3686.01 3536.14 71.52 4.00 261.26 2071.13
   21:58:34.111.08-Nov-2020 3686.01 3536.18 71.52 4.00 261.46 2071.13
   21:58:34.311.08-Nov-2020 3686.01 3536.16 71.52 4.00 261.66 2071.13
   21:58:34.511.08-Nov-2020 3686.01 3536.18 71.52 4.00 261.86 2071.13
   21:58:34.711.08-Nov-2020 3686.01 3536.18 71.52 4.00 262.06 2071.13
   21:58:34.911.08-Nov-2020 3686.01 3536.18 71.52 4.00 262.26 2071.13
   21:58:35.111.08-Nov-2020 3686.01 3536.27 71.51 4.00 262.46 2071.13
   21:58:35.311.08-Nov-2020 3686.01 3536.29 71.51 4.00 262.66 2071.13
   21:58:35.511.08-Nov-2020 3686.01 3536.52 71.51 4.00 262.86 2071.13
   21:58:35.711.08-Nov-2020 3686.01 3536.16 71.51 4.00 263.06 2071.13
   21:58:35.911.08-Nov-2020 3686.01 3536.60 71.51 4.00 263.26 2071.13
   21:58:36.111.08-Nov-2020 3686.01 3536.46 71.51 4.00 263.46 2071.13
   21:58:36.311.08-Nov-2020 3686.01 3536.67 71.51 4.00 263.66 2071.13
   21:58:36.511.08-Nov-2020 3686.01 3536.67 71.51 4.00 263.86 2071.13
   21:58:36.712.08-Nov-2020 3686.01 3536.66 71.51 4.00 264.06 2071.13
   21:58:36.912.08-Nov-2020 3686.01 3536.66 71.51 4.00 264.26 2071.13
   21:58:37.112.08-Nov-2020 3686.01 3536.83 71.50 4.00 264.46 2071.13
   21:58:37.312.08-Nov-2020 3686.01 3536.94 71.50 4.00 264.66 2071.13
   21:58:37.512.08-Nov-2020 3686.01 3543.51 71.50 4.00 264.86 2071.13
   21:58:37.712.08-Nov-2020 3686.01 3544.03 71.50 4.00 265.06 2071.13
   21:58:37.912.08-Nov-2020 3686.01 3544.01 71.50 4.00 265.26 2071.13
   21:58:38.112.08-Nov-2020 3686.01 3544.53 71.50 4.00 265.46 2071.13
   21:58:38.312.08-Nov-2020 3686.01 3544.23 71.50 4.00 265.66 2071.13
   21:58:38.512.08-Nov-2020 3686.01 3544.17 71.50 4.00 265.86 2071.13
   21:58:38.712.08-Nov-2020 3686.01 3544.16 71.50 4.00 266.06 2071.13
   21:58:38.912.08-Nov-2020 3686.01 3544.16 71.50 4.00 266.26 2071.13
   21:58:39.112.08-Nov-2020 3686.01 3544.21 71.50 4.00 266.46 2071.13
   21:58:39.312.08-Nov-2020 3686.01 3544.31 71.49 4.00 266.66 2071.13
   21:58:39.512.08-Nov-2020 3686.01 3544.20 71.49 4.00 266.86 2071.13
   21:58:39.712.08-Nov-2020 3686.01 3544.14 71.49 4.00 267.06 2071.13
   21:58:39.912.08-Nov-2020 3686.01 3544.18 71.49 4.00 267.26 2071.13
   21:58:40.112.08-Nov-2020 3686.01 3544.15 71.49 4.00 267.46 2071.13
   21:58:40.312.08-Nov-2020 3686.01 3544.14 71.49 4.00 267.66 2071.13
   21:58:40.512.08-Nov-2020 3686.01 3544.12 71.49 4.00 267.86 2071.13
   21:58:40.712.08-Nov-2020 3686.01 3544.12 71.49 4.00 268.06 2071.13
   21:58:40.912.08-Nov-2020 3686.01 3544.12 71.49 4.00 268.26 2071.13
   21:58:41.113.08-Nov-2020 3686.01 3544.10 71.49 4.00 268.46 2071.13
   21:58:41.313.08-Nov-2020 3686.01 3544.10 71.49 4.00 268.66 2071.13
   21:58:41.513.08-Nov-2020 3686.01 3544.10 71.48 4.00 268.86 2071.13
   21:58:41.713.08-Nov-2020 3686.01 3544.09 71.48 4.00 269.06 2071.13
   21:58:41.913.08-Nov-2020 3686.01 3544.09 71.48 4.00 269.26 2071.13
   21:58:42.113.08-Nov-2020 3686.01 3544.22 71.48 4.00 269.46 2071.13
   21:58:42.313.08-Nov-2020 3686.01 3544.18 71.48 4.00 269.66 2071.13
   21:58:42.513.08-Nov-2020 3686.01 3544.15 71.48 4.00 269.86 2071.13
   21:58:42.713.08-Nov-2020 3686.01 3544.15 71.48 4.00 270.06 2071.13
   21:58:42.913.08-Nov-2020 3686.01 3544.15 71.48 4.00 270.26 2071.13
   21:58:43.113.08-Nov-2020 3686.01 3544.12 71.48 4.00 270.46 2071.13
   21:58:43.313.08-Nov-2020 3686.01 3544.11 71.48 4.00 270.66 2071.13
   21:58:43.513.08-Nov-2020 3686.01 3544.12 71.48 4.00 270.86 2071.13
   21:58:43.713.08-Nov-2020 3686.01 3544.10 71.47 4.00 271.06 2071.13
   21:58:43.913.08-Nov-2020 3686.01 3544.10 71.47 4.00 271.26 2071.13
   21:58:44.113.08-Nov-2020 3686.01 3544.11 71.47 4.00 271.46 2071.13
   21:58:44.313.08-Nov-2020 3686.01 3544.08 71.47 4.00 271.66 2071.13
   21:58:44.513.08-Nov-2020 3686.01 3544.10 71.47 4.00 271.86 2071.13
   21:58:44.713.08-Nov-2020 3686.01 3544.19 71.47 4.00 272.06 2071.13
   21:58:44.913.08-Nov-2020 3686.01 3544.19 71.47 4.00 272.26 2071.13
   21:58:45.113.08-Nov-2020 3686.01 3544.18 71.47 4.00 272.46 2071.13
   21:58:45.313.08-Nov-2020 3686.01 3544.20 71.47 4.00 272.66 2071.13
   21:58:45.513.08-Nov-2020 3686.01 3544.17 71.47 4.00 272.86 2071.13
   21:58:45.714.08-Nov-2020 3686.01 3544.15 71.46 4.00 273.06 2071.13
   21:58:45.914.08-Nov-2020 3686.01 3544.15 71.46 4.00 273.26 2071.13
   21:58:46.114.08-Nov-2020 3686.01 3544.17 71.46 4.00 273.46 2071.13
   21:58:46.314.08-Nov-2020 3686.01 3544.18 71.46 4.00 273.66 2071.13
   21:58:46.514.08-Nov-2020 3686.01 3544.16 71.46 4.00 273.86 2071.13
   21:58:46.714.08-Nov-2020 3686.01 3544.16 71.46 4.00 274.06 2071.13
   21:58:46.914.08-Nov-2020 3686.01 3544.16 71.46 4.00 274.26 2071.13
   21:58:47.114.08-Nov-2020 3686.01 3544.19 71.46 4.00 274.46 2071.13
   21:58:47.314.08-Nov-2020 3686.01 3544.18 71.46 4.00 274.66 2071.13
   21:58:47.514.08-Nov-2020 3686.01 3544.17 71.46 4.00 274.86 2071.13
   21:58:47.714.08-Nov-2020 3686.01 3544.26 71.46 4.00 275.06 2071.13
   21:58:47.914.08-Nov-2020 3686.01 3544.26 71.46 4.00 275.26 2071.13
   21:58:48.114.08-Nov-2020 3686.01 3544.19 71.45 4.00 275.46 2071.13
   21:58:48.314.08-Nov-2020 3686.01 3544.16 71.45 4.00 275.66 2071.13
   21:58:48.514.08-Nov-2020 3686.01 3544.20 71.45 4.00 275.86 2071.13
