~Version Information
 VERS.                  2.0:   CWLS log ASCII Standard -VERSION 2.0
 WRAP.                   NO:   One line per depth step
~Well Information Block
#MNEM.UNIT     VALUE/NAME     DESCRIPTION
#---------     -----------    ---------------------------
 STRT.S             01:27:57 11-Nov-20: START TIME 01:27:57 11-Nov-20
 STOP.S             01:34:34 11-Nov-20: STOP TIME  01:34:34 11-Nov-20
 STEP.S                   0.00: STEP TIME
 NULL.                 -999.25: NULL VALUE
 DFWT.                        :  DIST FWL TEXT
 DFST.                        :  DIST FSL TEXT
 DMF .             Drill Floor:  DRILL MEAS FROM
 STIM.      04.54.24 22-Sep-20:  START TIME
 DATE.      04.54.24 21-Nov-20:  END TIME
 SPUD.               21-Nov-20:  SPUD DATE
 NREF.                    Grid:  NORTH REFERENCE
 HPTY.       Minimum Curvature:  HOLE POS TYPE
 DMOD.             Drill Model:  DRILL MOD DESC
 SVYD.                  Survey:  SURVEY DESC
 ILTD.               Lithology:  INTERP LTH DESC
 FTOP.          Formation Tops:  FORM TOPS DESC
 SON .        AZ-XX-0906571587:  JOB NUMBER
 COMP.     BP Exploration (Caspian Sea) Ltd:  COMPANY
 UWI .                     N/A:  UNIQUE WELL IDENTIFIER
 API .                     N/A:  API NUMBER
 BASE.              Azerbaijan:  LOGGING EQUIPMENT BASE LOCATION
 REGN.                   EESSA:  REGION
 PROV.                    Baku:  PROVINCE
 STAT.                    Baku:  STATE NAME
 CTRY.              Azerbaijan:  COUNTRY NAME
 FLD .                     ACG:  FIELD NAME
 SRVC.     TURAN Drilling & Engineering:  CONTRACTOR
 WELL.                     J27:  WELL NAME
 RIG .             West Chirag:  RIG NAME
 DOE .                     N/A:  DOE NUMBER
 DCON.         Sperry Drilling:  DIRECTNL CONTR
 PDAT.          Mean Sea Level:  PERMANENT DATUM
 WTYP.                Deviated:  WELL TYPE
 MWDS.                    Baku:  MWD SHOP
 JOBN.        AZ-XX-0906571587:  JOB TICKET NUMB
 UNIT.                     N/A:  LOGGING EQUIPMENT ID
 MDS .        Operator Entered:  MAG DATA SOURCE
 CNTY.                        :  COUNTY
 LOC .                        :  LOCATION
 LMF .             Drill Floor:  LOG MEASURED FROM
 TVDS.m                  43.00:  TVDSS CORRECTN
 LATI.deg                40.13:  LATITUDE
 LONG.deg                51.22:  LONGITUDE
 WHNS.m                   7.72:  WELL HEAD N/S
 WHEW.m                 -14.24:  WELL HEAD E/W
 UTMX.m              519005.06:  UTM X
 UTMY.m             4443793.85:  UTM Y
 DFWL.m                   0.00:  DISTANCE FWL
 DFSL.m                   0.00:  DISTANCE FSL
 SDEP.m                 347.00:  START DEPTH
 TDD .m                 581.00:  TOTAL DEPTH (DRILLER)
 VSDR.deg               159.72:  VERT SEC DIRECT
 GVFD.g                   1.00:  GRAVITY FIELD
 MFLD.nT              50313.00:  MAGNETIC FIELD
 MDIP.deg                59.58:  MAGNETIC DIP
 MDEC.deg                 6.45:  MAGNETIC DECL
 GRDC.deg                 0.15:  GRID CORRECTION
 AZTC.deg                 6.30:  AZM TOTAL CORR
 EPD .m                   0.00:  ELEVATION
 EGL .m                   0.00:  GROUND ELEVATION
 WDMS.m                 169.80:  WD ELEV
 APD .m                  43.00:  DEPTH ABOVE PD
 AGAP.m                  43.00:  AIR GAP
 VSEW.m                 -14.24:  VERT SEC E/W
 VSNS.m                   7.72:  VERT SEC N/S
 DEP .m                 342.45:  DEPTH
 EKB .m                   0.00:  KB ELEVATION
 EDF .m                  43.00:  DF ELEVATION
 TDL .m                1313.00:  TOTAL DEPTH (LOGGER)
 VSC .                       0:  VS TO CLOSURE
 MAGU.                 1851396:  MAGUTM CHECKSUM
~Parameter Information Block
#MNEM.UNIT       Value        Description
#---------     -----------    ---------------------------
 AV  .mps                 0.65:  Ann Velocity 
 AVMX.mps                 0.75:  Max Ann Veloc 
 AZIF.deg               115.08:  Azm, Final 
 BHAT.        Rotary Steerable:  BHA Type 
 BROT.∞/30m               1.50:  Build Rotating 
 BS  .in                 12.25:  Bit Size 
 BSZ .in                 12.25:  Bit Size 
 BTPL.psig              700.00:  Bit Press Loss 
 CABU.                     Yes:  Customer Abuse 
 COMM.                     ÏSu:  Run Comments 1 
 TCS .hr                121.00:  Time Ciculation Ended 
 CV  .mps                 1.83:  Crit Velocity 
 CVMX.mps                 1.83:  Max Crit Veloc 
 DD1 .          Rashad Habibov:  Direct Drillr 1 
 DD2 .         Rasim Ibrahimov:  Direct Drillr 2 
 DDSV.                 iCruise:  DD Service 
 DEFF.%                 100.00:  % Det Eff 
 DLRX.∞/30m               3.60:  Dogleg Rot Max 
 DLSO.∞/30m               3.10:  Dogleg Oriented 
 DLSX.∞/30m               3.60:  Dogleg Str Max 
 DRET.      13.41.20 12-Nov-20:  Drill End Time 
 DRST.      13.41.20 07-Nov-20:  Drill Start Tim 
 DTIM.hr                 54.16:  Time Drilling 
 EDEP.m                4762.01:  End Depth 
 ENG1.           Amrah Tahirov:  Engineer 1 
 ENG2.      Bakhtiyar Jabbarli:  Engineer 2 
 ENG3.          Ruslan Safarov:  Engineer 3 
 ETIM.      13.41.20 14-Nov-20:  End Time 
 FLOI.gpm              1200.00:  Flow In 
 FLON.gpm              1100.00:  Flow In Min 
 FLOS.cptm                0.00:  Fluid Loss 
 FLOX.gpm              1200.00:  Flow In Max 
 HFLO.                      No:  High Flow 
 HPRE.                      No:  High Pressure 
 HTEM.                      No:  High Temp 
 HYDO.m                   2.00:  Hydro Offset 
 IFIN.deg                66.14:  Inc, Final 
 IMAX.deg                69.03:  Inc Max 
 IMIN.deg                64.64:  Inc Min 
 IMND.m                4450.16:  Inc Min Depth 
 IMXD.m                3996.00:  Inc Max Depth 
 JARR.                     Yes:  Jarring 
 LETM.      13.41.20 14-Nov-20:  Log End Time 
 LOST.hr                     0:  Lost Rig Time 
 LSTM.      13.41.20 06-Nov-20:  Log Start Time 
 MDCL.ppm             42500.00:  Mud Chlorides 
 MDES.     Inversion Oil/Synthetic:  Mud Desc 
 DFD .sg                  1.45:  Mud Density 
 MDMN.sg                  1.45:  Dens Mud Min 
 MDMX.sg                  1.45:  Dens Mud Max 
 MOIL.                      70:  Run Mud Oil % 
 MOWR.                   70:30:  Run Mud OWR 
 MSND.                       0:  Run Mud Sand % 
 MSOL.                    19.3:  Run Mud Solids% 
 DFV .spqt               77.00:  Mud Viscosity 
 MWOD.in                  8.00:  MWD Tool OD 
 MWSI.                      No:  Serv Intrp, MWD 
 OTIM.hr                201.88:  Time Operating 
 PCON.           Look Like New:  Pad Condition 
 PMAX.psia             9250.94:  Press Op, Max 
 PV  .cP                 29.00:  Mud PV 
 RUN .                     800:  Run Number 
 ROPA.m/hr               28.00:  ROP Avg 
 ROPN.m/hr               25.00:  ROP Min 
 ROPX.m/hr               30.00:  ROP Max 
 RPMA.rpm               160.00:  RPM Surface Avg 
 RPMN.rpm               160.00:  RPM Surface Min 
 RPMX.rpm               160.00:  RPM Surface Max 
 RRUN.                    0800:  Rig Run Number 
 RTIM.hr                 12.00:  Time Reaming 
 SAZI.deg               169.33:  Azm, Start 
 SDEP.m                3449.01:  Start Depth 
 SIDD.                      No:  Serv Intrp, DD 
 SINC.deg                68.01:  Inc, Start 
 SPPA.psig             4900.00:  SPP Avg 
 SPPN.psig             4800.00:  SPP Min 
 SPPX.psig             5050.00:  SPP Max 
 STIM.      13.41.20 06-Nov-20:  Start Time 
 SVCS.                 DD, MWD:  Services 
 SVER.                    9.20:  Sperry Version 
 TDAT.m                4762.01:  Tot Depth Attmp 
 TDDF.                      No:  Trip for DD 
 TDLG.m                1313.00:  Tot Depth Loggd 
 TFF .                      No:  Trip for Fail 
 TQAA.f-kp               13.00:  Torque Abs Avg 
 TQAN.f-kp               13.00:  Torque Abs Min 
 TQAX.f-kp               13.00:  Torque Abs Max 
 TRRT.∞/30m               1.70:  Turn Rotating 
 MRT .                  EWR-M5:  Maximum Recorded Temperature 
 TTMX.degC               86.00:  Max Tool Temp 
 VS01.                90622122:  Virtual Str1 SN 
 VS02.                90577298:  Virtual Str2 SN 
 VS03.                90563623:  Virtual Str3 SN 
 VS04.                90617559:  Virtual Str4 SN 
 VS05.                11339492:  Virtual Str5 SN 
 VS06.                12385033:  Virtual Str6 SN 
 WBMN.klb                 0.00:  WOB Min 
 WOBA.klb                22.00:  WOB Avg 
 WOBX.klb                26.00:  WOB Max 
 YP  .lhf2               30.00:  Yield Point 
~Curve Information Block
#MNEM.UNIT                 API CODE     Curve Description
#---------               -----------    ---------------------------
 TIME.HHMMSS            00 000 000 000:  GT Time & Date
 GTDEPTH.m              00 000 000 000:  GT Depth
 GTPQH.psia             00 000 000 000:  GT HR Quartz Pressure
 GTTQ.degC              00 000 000 000:  GT Quartz Temperature
 GTTN.NONE              00 000 000 000:  GT Test Number
 GTET.sec               00 000 000 000:  GT Elapsed Test Time
 GTTVD.m                00 000 000 000:  GT True Vertical Depth
#Other Information
#
#WARRANTY: Halliburton will use its best efforts to furnish customers with 
#accurate information and interpretations that are part of, and incident to, the services 
#provided.  However, Halliburton cannot and does not warrant the accuracy 
#or correctness of such information and interpretations.  Under no circumstances should any 
#such information or interpretation be relied upon as the sole basis for any drilling, 
#completion, production, or financial decision or any procedure involving any risk to the 
#safety of any drilling venture, drilling rig or its crew or any other third party.  The 
#Customer has full responsibility for all drilling, completion and production operation.  
#Halliburton makes no representations or warranties, either expressed or 
#implied, including, but not limited to, the implied warranties of merchantability or fitness 
#for a particular purpose, with respect to the services rendered.  In no event will 
#Halliburton be liable for failure to obtain any particular results or for 
#any damages, including, but not limited to, indirect, special or consequential damages, 
#resulting from the use of any information or interpretation provided by Halliburton.
#
~A           TIME           GTDEPTH  GTPQH  GTTQ  GTTN  GTET   GTTVD  
# ...
   01:32:56.000.11-Nov-2020 4560.01 4025.68 77.32 7.00 299.00 2403.77
   01:32:56.200.11-Nov-2020 4560.01 4025.69 77.32 7.00 299.20 2403.77
   01:32:56.400.11-Nov-2020 4560.01 4025.68 77.32 7.00 299.40 2403.77
   01:32:56.600.11-Nov-2020 4560.01 4025.69 77.32 7.00 299.60 2403.77
   01:32:56.800.11-Nov-2020 4560.01 4025.67 77.32 7.00 299.80 2403.77
   01:32:57.000.11-Nov-2020 4560.01 4025.67 77.32 7.00 300.00 2403.77
   01:32:57.200.11-Nov-2020 4560.01 4025.67 77.32 7.00 300.20 2403.77
   01:32:57.400.11-Nov-2020 4560.01 4025.63 77.32 7.00 300.40 2403.77
   01:32:57.600.11-Nov-2020 4560.01 4025.73 77.32 7.00 300.60 2403.77
   01:32:57.800.11-Nov-2020 4560.01 4025.68 77.32 7.00 300.80 2403.77
   01:32:58.000.11-Nov-2020 4560.01 4025.68 77.32 7.00 301.00 2403.77
   01:32:58.200.11-Nov-2020 4560.01 4025.65 77.32 7.00 301.20 2403.77
   01:32:58.400.11-Nov-2020 4560.01 4025.65 77.32 7.00 301.40 2403.77
   01:32:58.600.11-Nov-2020 4560.01 4025.65 77.32 7.00 301.60 2403.77
   01:32:58.800.11-Nov-2020 4560.01 4025.75 77.32 7.00 301.80 2403.77
   01:32:59.000.11-Nov-2020 4560.01 4025.69 77.32 7.00 302.00 2403.77
   01:32:59.200.11-Nov-2020 4560.01 4025.69 77.32 7.00 302.20 2403.77
   01:32:59.400.11-Nov-2020 4560.01 4025.70 77.32 7.00 302.40 2403.77
   01:32:59.600.11-Nov-2020 4560.01 4025.70 77.32 7.00 302.60 2403.77
   01:32:59.800.11-Nov-2020 4560.01 4025.71 77.32 7.00 302.80 2403.77
   01:33:00.000.11-Nov-2020 4560.01 4025.67 77.32 7.00 303.00 2403.77
   01:33:00.200.11-Nov-2020 4560.01 4025.67 77.32 7.00 303.20 2403.77
   01:33:00.400.11-Nov-2020 4560.01 4025.67 77.32 7.00 303.40 2403.77
   01:33:00.600.11-Nov-2020 4560.01 4025.75 77.32 7.00 303.60 2403.77
   01:33:00.800.11-Nov-2020 4560.01 4025.69 77.32 7.00 303.80 2403.77
   01:33:01.000.11-Nov-2020 4560.01 4025.63 77.32 7.00 304.00 2403.77
   01:33:01.200.11-Nov-2020 4560.01 4025.69 77.32 7.00 304.20 2403.77
   01:33:01.400.11-Nov-2020 4560.01 4025.70 77.32 7.00 304.40 2403.77
   01:33:01.600.11-Nov-2020 4560.01 4025.69 77.32 7.00 304.60 2403.77
   01:33:01.800.11-Nov-2020 4560.01 4025.68 77.32 7.00 304.80 2403.77
   01:33:02.000.11-Nov-2020 4560.01 4025.69 77.32 7.00 305.00 2403.77
   01:33:02.200.11-Nov-2020 4560.01 4025.69 77.32 7.00 305.20 2403.77
   01:33:02.400.11-Nov-2020 4560.01 4025.71 77.32 7.00 305.40 2403.77
   01:33:02.600.11-Nov-2020 4560.01 4025.68 77.32 7.00 305.60 2403.77
   01:33:02.800.11-Nov-2020 4560.01 4025.68 77.32 7.00 305.80 2403.77
   01:33:03.000.11-Nov-2020 4560.01 4025.67 77.32 7.00 306.00 2403.77
   01:33:03.200.11-Nov-2020 4560.01 4025.67 77.32 7.00 306.20 2403.77
   01:33:03.400.11-Nov-2020 4560.01 4025.69 77.31 7.00 306.40 2403.77
   01:33:03.600.11-Nov-2020 4560.01 4025.68 77.31 7.00 306.60 2403.77
   01:33:03.800.11-Nov-2020 4560.01 4025.68 77.31 7.00 306.80 2403.77
   01:33:04.000.11-Nov-2020 4560.01 4025.65 77.31 7.00 307.00 2403.77
   01:33:04.200.11-Nov-2020 4560.01 4025.65 77.31 7.00 307.20 2403.77
   01:33:04.400.11-Nov-2020 4560.01 4025.67 77.31 7.00 307.40 2403.77
   01:33:04.600.11-Nov-2020 4560.01 4025.69 77.31 7.00 307.60 2403.77
   01:33:04.800.11-Nov-2020 4560.01 4025.68 77.31 7.00 307.80 2403.77
   01:33:05.000.11-Nov-2020 4560.01 4025.68 77.31 7.00 308.00 2403.77
   01:33:05.200.11-Nov-2020 4560.01 4025.68 77.31 7.00 308.20 2403.77
   01:33:05.400.11-Nov-2020 4560.01 4025.69 77.31 7.00 308.40 2403.77
   01:33:05.600.11-Nov-2020 4560.01 4025.68 77.31 7.00 308.60 2403.77
   01:33:05.800.11-Nov-2020 4560.01 4025.67 77.31 7.00 308.80 2403.77
   01:33:06.000.11-Nov-2020 4560.01 4025.67 77.31 7.00 309.00 2403.77
   01:33:06.200.11-Nov-2020 4560.01 4025.67 77.31 7.00 309.20 2403.77
   01:33:06.400.11-Nov-2020 4560.01 4025.57 77.31 7.00 309.40 2403.77
   01:33:06.600.11-Nov-2020 4560.01 4025.67 77.31 7.00 309.60 2403.77
   01:33:06.800.11-Nov-2020 4560.01 4025.73 77.31 7.00 309.80 2403.77
   01:33:07.000.11-Nov-2020 4560.01 4025.63 77.31 7.00 310.00 2403.77
   01:33:07.200.11-Nov-2020 4560.01 4025.63 77.31 7.00 310.20 2403.77
   01:33:07.400.11-Nov-2020 4560.01 4025.69 77.31 7.00 310.40 2403.77
   01:33:07.600.11-Nov-2020 4560.01 4025.68 77.31 7.00 310.60 2403.77
   01:33:07.800.11-Nov-2020 4560.01 4025.68 77.31 7.00 310.80 2403.77
   01:33:08.000.11-Nov-2020 4560.01 4025.72 77.31 7.00 311.00 2403.77
   01:33:08.200.11-Nov-2020 4560.01 4025.72 77.31 7.00 311.20 2403.77
   01:33:08.400.11-Nov-2020 4560.01 4025.70 77.31 7.00 311.40 2403.77
   01:33:08.600.11-Nov-2020 4560.01 4025.75 77.31 7.00 311.60 2403.77
   01:33:08.800.11-Nov-2020 4560.01 4025.66 77.31 7.00 311.80 2403.77
   01:33:09.000.11-Nov-2020 4560.01 4025.66 77.31 7.00 312.00 2403.77
   01:33:09.200.11-Nov-2020 4560.01 4025.66 77.31 7.00 312.20 2403.77
   01:33:09.400.11-Nov-2020 4560.01 4025.70 77.31 7.00 312.40 2403.77
   01:33:09.600.11-Nov-2020 4560.01 4025.67 77.31 7.00 312.60 2403.77
   01:33:09.800.11-Nov-2020 4560.01 4025.71 77.31 7.00 312.80 2403.77
   01:33:10.000.11-Nov-2020 4560.01 4025.65 77.31 7.00 313.00 2403.77
   01:33:10.200.11-Nov-2020 4560.01 4025.68 77.31 7.00 313.20 2403.77
   01:33:10.400.11-Nov-2020 4560.01 4025.72 77.30 7.00 313.40 2403.77
   01:33:10.600.11-Nov-2020 4560.01 4025.70 77.30 7.00 313.60 2403.77
   01:33:10.800.11-Nov-2020 4560.01 4025.67 77.30 7.00 313.80 2403.77
   01:33:11.000.11-Nov-2020 4560.01 4025.70 77.30 7.00 314.00 2403.77
   01:33:11.200.11-Nov-2020 4560.01 4025.70 77.30 7.00 314.20 2403.77
   01:33:11.400.11-Nov-2020 4560.01 4025.69 77.30 7.00 314.40 2403.77
   01:33:11.600.11-Nov-2020 4560.01 4025.68 77.30 7.00 314.60 2403.77
   01:33:11.800.11-Nov-2020 4560.01 4025.68 77.30 7.00 314.80 2403.77
   01:33:12.000.11-Nov-2020 4560.01 4025.68 77.30 7.00 315.00 2403.77
   01:33:12.200.11-Nov-2020 4560.01 4025.68 77.30 7.00 315.20 2403.77
   01:33:12.400.11-Nov-2020 4560.01 4025.67 77.30 7.00 315.40 2403.77
   01:33:12.600.11-Nov-2020 4560.01 4025.62 77.30 7.00 315.60 2403.77
   01:33:12.800.11-Nov-2020 4560.01 4025.73 77.30 7.00 315.80 2403.77
   01:33:13.000.11-Nov-2020 4560.01 4025.69 77.30 7.00 316.00 2403.77
   01:33:13.200.11-Nov-2020 4560.01 4025.69 77.30 7.00 316.20 2403.77
   01:33:13.400.11-Nov-2020 4560.01 4025.69 77.30 7.00 316.40 2403.77
   01:33:13.600.11-Nov-2020 4560.01 4025.67 77.30 7.00 316.60 2403.77
   01:33:13.800.11-Nov-2020 4560.01 4025.69 77.30 7.00 316.80 2403.77
   01:33:14.000.11-Nov-2020 4560.01 4025.70 77.30 7.00 317.00 2403.77
   01:33:14.200.11-Nov-2020 4560.01 4025.70 77.30 7.00 317.20 2403.77
   01:33:14.400.11-Nov-2020 4560.01 4025.69 77.30 7.00 317.40 2403.77
   01:33:14.600.11-Nov-2020 4560.01 4025.68 77.30 7.00 317.60 2403.77
   01:33:14.800.11-Nov-2020 4560.01 4025.67 77.30 7.00 317.80 2403.77
   01:33:15.000.11-Nov-2020 4560.01 4025.69 77.30 7.00 318.00 2403.77
   01:33:15.200.11-Nov-2020 4560.01 4025.69 77.30 7.00 318.20 2403.77
   01:33:15.400.11-Nov-2020 4560.01 4025.65 77.30 7.00 318.40 2403.77
   01:33:15.600.11-Nov-2020 4560.01 4025.69 77.30 7.00 318.60 2403.77
   01:33:15.800.11-Nov-2020 4560.01 4025.66 77.30 7.00 318.80 2403.77
   01:33:16.000.11-Nov-2020 4560.01 4025.70 77.30 7.00 319.00 2403.77
   01:33:16.200.11-Nov-2020 4560.01 4025.70 77.30 7.00 319.20 2403.77
   01:33:16.400.11-Nov-2020 4560.01 4025.68 77.30 7.00 319.40 2403.77
   01:33:16.600.11-Nov-2020 4560.01 4025.71 77.30 7.00 319.60 2403.77
   01:33:16.800.11-Nov-2020 4560.01 4025.63 77.30 7.00 319.80 2403.77
   01:33:17.000.11-Nov-2020 4560.01 4025.75 77.30 7.00 320.00 2403.77
   01:33:17.200.11-Nov-2020 4560.01 4025.75 77.30 7.00 320.20 2403.77
   01:33:17.400.11-Nov-2020 4560.01 4025.69 77.29 7.00 320.40 2403.77
   01:33:17.600.11-Nov-2020 4560.01 4025.74 77.29 7.00 320.60 2403.77
   01:33:17.800.11-Nov-2020 4560.01 4025.65 77.29 7.00 320.80 2403.77
   01:33:18.000.11-Nov-2020 4560.01 4025.67 77.29 7.00 321.00 2403.77
   01:33:18.200.11-Nov-2020 4560.01 4025.70 77.29 7.00 321.20 2403.77
   01:33:18.400.11-Nov-2020 4560.01 4025.71 77.29 7.00 321.40 2403.77
   01:33:18.600.11-Nov-2020 4560.01 4025.62 77.29 7.00 321.60 2403.77
   01:33:18.800.11-Nov-2020 4560.01 4025.74 77.29 7.00 321.80 2403.77
