~Version Information
 VERS.                  2.0:   CWLS log ASCII Standard -VERSION 2.0
 WRAP.                   NO:   One line per depth step
~Well Information Block
#MNEM.UNIT     VALUE/NAME     DESCRIPTION
#---------     -----------    ---------------------------
 STRT.S             18:53:27 10-Nov-20: START TIME 18:53:27 10-Nov-20
 STOP.S             19:00:00 10-Nov-20: STOP TIME  19:00:00 10-Nov-20
 STEP.S                   0.00: STEP TIME
 NULL.                 -999.25: NULL VALUE
 DFWT.                        :  DIST FWL TEXT
 DFST.                        :  DIST FSL TEXT
 DMF .             Drill Floor:  DRILL MEAS FROM
 STIM.      04.54.24 22-Sep-20:  START TIME
 DATE.      04.54.24 21-Nov-20:  END TIME
 SPUD.               21-Nov-20:  SPUD DATE
 NREF.                    Grid:  NORTH REFERENCE
 HPTY.       Minimum Curvature:  HOLE POS TYPE
 DMOD.             Drill Model:  DRILL MOD DESC
 SVYD.                  Survey:  SURVEY DESC
 ILTD.               Lithology:  INTERP LTH DESC
 FTOP.          Formation Tops:  FORM TOPS DESC
 SON .        AZ-XX-0906571587:  JOB NUMBER
 COMP.     BP Exploration (Caspian Sea) Ltd:  COMPANY
 UWI .                     N/A:  UNIQUE WELL IDENTIFIER
 API .                     N/A:  API NUMBER
 BASE.              Azerbaijan:  LOGGING EQUIPMENT BASE LOCATION
 REGN.                   EESSA:  REGION
 PROV.                    Baku:  PROVINCE
 STAT.                    Baku:  STATE NAME
 CTRY.              Azerbaijan:  COUNTRY NAME
 FLD .                     ACG:  FIELD NAME
 SRVC.     TURAN Drilling & Engineering:  CONTRACTOR
 WELL.                     J27:  WELL NAME
 RIG .             West Chirag:  RIG NAME
 DOE .                     N/A:  DOE NUMBER
 DCON.         Sperry Drilling:  DIRECTNL CONTR
 PDAT.          Mean Sea Level:  PERMANENT DATUM
 WTYP.                Deviated:  WELL TYPE
 MWDS.                    Baku:  MWD SHOP
 JOBN.        AZ-XX-0906571587:  JOB TICKET NUMB
 UNIT.                     N/A:  LOGGING EQUIPMENT ID
 MDS .        Operator Entered:  MAG DATA SOURCE
 CNTY.                        :  COUNTY
 LOC .                        :  LOCATION
 LMF .             Drill Floor:  LOG MEASURED FROM
 TVDS.m                  43.00:  TVDSS CORRECTN
 LATI.deg                40.13:  LATITUDE
 LONG.deg                51.22:  LONGITUDE
 WHNS.m                   7.72:  WELL HEAD N/S
 WHEW.m                 -14.24:  WELL HEAD E/W
 UTMX.m              519005.06:  UTM X
 UTMY.m             4443793.85:  UTM Y
 DFWL.m                   0.00:  DISTANCE FWL
 DFSL.m                   0.00:  DISTANCE FSL
 SDEP.m                 347.00:  START DEPTH
 TDD .m                 581.00:  TOTAL DEPTH (DRILLER)
 VSDR.deg               159.72:  VERT SEC DIRECT
 GVFD.g                   1.00:  GRAVITY FIELD
 MFLD.nT              50313.00:  MAGNETIC FIELD
 MDIP.deg                59.58:  MAGNETIC DIP
 MDEC.deg                 6.45:  MAGNETIC DECL
 GRDC.deg                 0.15:  GRID CORRECTION
 AZTC.deg                 6.30:  AZM TOTAL CORR
 EPD .m                   0.00:  ELEVATION
 EGL .m                   0.00:  GROUND ELEVATION
 WDMS.m                 169.80:  WD ELEV
 APD .m                  43.00:  DEPTH ABOVE PD
 AGAP.m                  43.00:  AIR GAP
 VSEW.m                 -14.24:  VERT SEC E/W
 VSNS.m                   7.72:  VERT SEC N/S
 DEP .m                 342.45:  DEPTH
 EKB .m                   0.00:  KB ELEVATION
 EDF .m                  43.00:  DF ELEVATION
 TDL .m                1313.00:  TOTAL DEPTH (LOGGER)
 VSC .                       0:  VS TO CLOSURE
 MAGU.                 1851396:  MAGUTM CHECKSUM
~Parameter Information Block
#MNEM.UNIT       Value        Description
#---------     -----------    ---------------------------
 AV  .mps                 0.65:  Ann Velocity 
 AVMX.mps                 0.75:  Max Ann Veloc 
 AZIF.deg               115.08:  Azm, Final 
 BHAT.        Rotary Steerable:  BHA Type 
 BROT.°/30m               1.50:  Build Rotating 
 BS  .in                 12.25:  Bit Size 
 BSZ .in                 12.25:  Bit Size 
 BTPL.psig              700.00:  Bit Press Loss 
 CABU.                     Yes:  Customer Abuse 
 COMM.                     ”Ú:  Run Comments 1 
 TCS .hr                121.00:  Time Ciculation Ended 
 CV  .mps                 1.83:  Crit Velocity 
 CVMX.mps                 1.83:  Max Crit Veloc 
 DD1 .          Rashad Habibov:  Direct Drillr 1 
 DD2 .         Rasim Ibrahimov:  Direct Drillr 2 
 DDSV.                 iCruise:  DD Service 
 DEFF.%                 100.00:  % Det Eff 
 DLRX.°/30m               3.60:  Dogleg Rot Max 
 DLSO.°/30m               3.10:  Dogleg Oriented 
 DLSX.°/30m               3.60:  Dogleg Str Max 
 DRET.      13.41.20 12-Nov-20:  Drill End Time 
 DRST.      13.41.20 07-Nov-20:  Drill Start Tim 
 DTIM.hr                 54.16:  Time Drilling 
 EDEP.m                4762.01:  End Depth 
 ENG1.           Amrah Tahirov:  Engineer 1 
 ENG2.      Bakhtiyar Jabbarli:  Engineer 2 
 ENG3.          Ruslan Safarov:  Engineer 3 
 ETIM.      13.41.20 14-Nov-20:  End Time 
 FLOI.gpm              1200.00:  Flow In 
 FLON.gpm              1100.00:  Flow In Min 
 FLOS.cptm                0.00:  Fluid Loss 
 FLOX.gpm              1200.00:  Flow In Max 
 HFLO.                      No:  High Flow 
 HPRE.                      No:  High Pressure 
 HTEM.                      No:  High Temp 
 HYDO.m                   2.00:  Hydro Offset 
 IFIN.deg                66.14:  Inc, Final 
 IMAX.deg                69.03:  Inc Max 
 IMIN.deg                64.64:  Inc Min 
 IMND.m                4450.16:  Inc Min Depth 
 IMXD.m                3996.00:  Inc Max Depth 
 JARR.                     Yes:  Jarring 
 LETM.      13.41.20 14-Nov-20:  Log End Time 
 LOST.hr                     0:  Lost Rig Time 
 LSTM.      13.41.20 06-Nov-20:  Log Start Time 
 MDCL.ppm             42500.00:  Mud Chlorides 
 MDES.     Inversion Oil/Synthetic:  Mud Desc 
 DFD .sg                  1.45:  Mud Density 
 MDMN.sg                  1.45:  Dens Mud Min 
 MDMX.sg                  1.45:  Dens Mud Max 
 MOIL.                      70:  Run Mud Oil % 
 MOWR.                   70:30:  Run Mud OWR 
 MSND.                       0:  Run Mud Sand % 
 MSOL.                    19.3:  Run Mud Solids% 
 DFV .spqt               77.00:  Mud Viscosity 
 MWOD.in                  8.00:  MWD Tool OD 
 MWSI.                      No:  Serv Intrp, MWD 
 OTIM.hr                201.88:  Time Operating 
 PCON.           Look Like New:  Pad Condition 
 PMAX.psia             9250.94:  Press Op, Max 
 PV  .cP                 29.00:  Mud PV 
 RUN .                     800:  Run Number 
 ROPA.m/hr               28.00:  ROP Avg 
 ROPN.m/hr               25.00:  ROP Min 
 ROPX.m/hr               30.00:  ROP Max 
 RPMA.rpm               160.00:  RPM Surface Avg 
 RPMN.rpm               160.00:  RPM Surface Min 
 RPMX.rpm               160.00:  RPM Surface Max 
 RRUN.                    0800:  Rig Run Number 
 RTIM.hr                 12.00:  Time Reaming 
 SAZI.deg               169.33:  Azm, Start 
 SDEP.m                3449.01:  Start Depth 
 SIDD.                      No:  Serv Intrp, DD 
 SINC.deg                68.01:  Inc, Start 
 SPPA.psig             4900.00:  SPP Avg 
 SPPN.psig             4800.00:  SPP Min 
 SPPX.psig             5050.00:  SPP Max 
 STIM.      13.41.20 06-Nov-20:  Start Time 
 SVCS.                 DD, MWD:  Services 
 SVER.                    9.20:  Sperry Version 
 TDAT.m                4762.01:  Tot Depth Attmp 
 TDDF.                      No:  Trip for DD 
 TDLG.m                1313.00:  Tot Depth Loggd 
 TFF .                      No:  Trip for Fail 
 TQAA.f-kp               13.00:  Torque Abs Avg 
 TQAN.f-kp               13.00:  Torque Abs Min 
 TQAX.f-kp               13.00:  Torque Abs Max 
 TRRT.°/30m               1.70:  Turn Rotating 
 MRT .                  EWR-M5:  Maximum Recorded Temperature 
 TTMX.degC               86.00:  Max Tool Temp 
 VS01.                90622122:  Virtual Str1 SN 
 VS02.                90577298:  Virtual Str2 SN 
 VS03.                90563623:  Virtual Str3 SN 
 VS04.                90617559:  Virtual Str4 SN 
 VS05.                11339492:  Virtual Str5 SN 
 VS06.                12385033:  Virtual Str6 SN 
 WBMN.klb                 0.00:  WOB Min 
 WOBA.klb                22.00:  WOB Avg 
 WOBX.klb                26.00:  WOB Max 
 YP  .lhf2               30.00:  Yield Point 
~Curve Information Block
#MNEM.UNIT                 API CODE     Curve Description
#---------               -----------    ---------------------------
 TIME.HHMMSS            00 000 000 000:  GT Time & Date
 GTDEPTH.m              00 000 000 000:  GT Depth
 GTPQH.psia             00 000 000 000:  GT HR Quartz Pressure
 GTTQ.degC              00 000 000 000:  GT Quartz Temperature
 GTTN.NONE              00 000 000 000:  GT Test Number
 GTET.sec               00 000 000 000:  GT Elapsed Test Time
 GTTVD.m                00 000 000 000:  GT True Vertical Depth
#Other Information
#
#WARRANTY: Halliburton will use its best efforts to furnish customers with 
#accurate information and interpretations that are part of, and incident to, the services 
#provided.  However, Halliburton cannot and does not warrant the accuracy 
#or correctness of such information and interpretations.  Under no circumstances should any 
#such information or interpretation be relied upon as the sole basis for any drilling, 
#completion, production, or financial decision or any procedure involving any risk to the 
#safety of any drilling venture, drilling rig or its crew or any other third party.  The 
#Customer has full responsibility for all drilling, completion and production operation.  
#Halliburton makes no representations or warranties, either expressed or 
#implied, including, but not limited to, the implied warranties of merchantability or fitness 
#for a particular purpose, with respect to the services rendered.  In no event will 
#Halliburton be liable for failure to obtain any particular results or for 
#any damages, including, but not limited to, indirect, special or consequential damages, 
#resulting from the use of any information or interpretation provided by Halliburton.
#
~A           TIME           GTDEPTH  GTPQH  GTTQ  GTTN  GTET   GTTVD  
# ...
   18:57:40.566.10-Nov-2020 4475.51 4017.26 80.12 5.00 253.07 2369.25
   18:57:40.766.10-Nov-2020 4475.51 4017.26 80.12 5.00 253.27 2369.25
   18:57:40.966.10-Nov-2020 4475.51 4017.40 80.12 5.00 253.47 2369.25
   18:57:41.166.10-Nov-2020 4475.51 4017.22 80.12 5.00 253.67 2369.25
   18:57:41.366.10-Nov-2020 4475.51 4017.22 80.12 5.00 253.87 2369.25
   18:57:41.566.10-Nov-2020 4475.51 4017.23 80.12 5.00 254.07 2369.25
   18:57:41.766.10-Nov-2020 4475.51 4017.29 80.12 5.00 254.27 2369.25
   18:57:41.966.10-Nov-2020 4475.51 4017.23 80.11 5.00 254.47 2369.25
   18:57:42.166.10-Nov-2020 4475.51 4017.26 80.11 5.00 254.67 2369.25
   18:57:42.366.10-Nov-2020 4475.51 4017.25 80.11 5.00 254.87 2369.25
   18:57:42.566.10-Nov-2020 4475.51 4017.26 80.11 5.00 255.07 2369.25
   18:57:42.766.10-Nov-2020 4475.51 4017.26 80.11 5.00 255.27 2369.25
   18:57:42.966.10-Nov-2020 4475.51 4017.31 80.11 5.00 255.47 2369.25
   18:57:43.167.10-Nov-2020 4475.51 4017.34 80.11 5.00 255.67 2369.25
   18:57:43.367.10-Nov-2020 4475.51 4017.56 80.11 5.00 255.87 2369.25
   18:57:43.567.10-Nov-2020 4475.51 4017.41 80.11 5.00 256.07 2369.25
   18:57:43.767.10-Nov-2020 4475.51 4017.41 80.11 5.00 256.27 2369.25
   18:57:43.967.10-Nov-2020 4475.51 4017.26 80.11 5.00 256.47 2369.25
   18:57:44.167.10-Nov-2020 4475.51 4017.50 80.11 5.00 256.67 2369.25
   18:57:44.367.10-Nov-2020 4475.51 4017.26 80.11 5.00 256.87 2369.25
   18:57:44.567.10-Nov-2020 4475.51 4017.25 80.11 5.00 257.07 2369.25
   18:57:44.767.10-Nov-2020 4475.51 4017.25 80.11 5.00 257.27 2369.25
   18:57:44.967.10-Nov-2020 4475.51 4017.19 80.11 5.00 257.47 2369.25
   18:57:45.167.10-Nov-2020 4475.51 4017.42 80.11 5.00 257.67 2369.25
   18:57:45.367.10-Nov-2020 4475.51 4017.28 80.11 5.00 257.87 2369.25
   18:57:45.567.10-Nov-2020 4475.51 4017.47 80.11 5.00 258.07 2369.25
   18:57:45.767.10-Nov-2020 4475.51 4017.47 80.11 5.00 258.27 2369.25
   18:57:45.967.10-Nov-2020 4475.51 3957.20 80.11 5.00 258.47 2369.25
   18:57:46.167.10-Nov-2020 4475.51 3951.79 80.10 5.00 258.67 2369.25
   18:57:46.367.10-Nov-2020 4475.51 3949.00 80.10 5.00 258.87 2369.25
   18:57:46.567.10-Nov-2020 4475.51 3946.72 80.10 5.00 259.07 2369.25
   18:57:46.768.10-Nov-2020 4475.51 3946.72 80.10 5.00 259.27 2369.25
   18:57:46.968.10-Nov-2020 4475.51 3943.48 80.10 5.00 259.47 2369.25
   18:57:47.168.10-Nov-2020 4475.51 3942.26 80.10 5.00 259.67 2369.25
   18:57:47.368.10-Nov-2020 4475.51 3940.66 80.10 5.00 259.87 2369.25
   18:57:47.568.10-Nov-2020 4475.51 3939.52 80.10 5.00 260.07 2369.25
   18:57:47.768.10-Nov-2020 4475.51 3939.52 80.10 5.00 260.27 2369.25
   18:57:47.968.10-Nov-2020 4475.51 3937.76 80.10 5.00 260.47 2369.25
   18:57:48.168.10-Nov-2020 4475.51 3936.70 80.10 5.00 260.67 2369.25
   18:57:48.368.10-Nov-2020 4475.51 3936.01 80.10 5.00 260.87 2369.25
   18:57:48.568.10-Nov-2020 4475.51 3935.40 80.10 5.00 261.07 2369.25
   18:57:48.768.10-Nov-2020 4475.51 3935.40 80.10 5.00 261.27 2369.25
   18:57:48.968.10-Nov-2020 4475.51 3934.07 80.10 5.00 261.47 2369.25
   18:57:49.168.10-Nov-2020 4475.51 3934.61 80.10 5.00 261.67 2369.25
   18:57:49.368.10-Nov-2020 4475.51 3932.22 80.10 5.00 261.87 2369.25
   18:57:49.568.10-Nov-2020 4475.51 3932.53 80.10 5.00 262.07 2369.25
   18:57:49.768.10-Nov-2020 4475.51 3932.09 80.10 5.00 262.27 2369.25
   18:57:49.968.10-Nov-2020 4475.51 3931.38 80.09 5.00 262.47 2369.25
   18:57:50.168.10-Nov-2020 4475.51 3930.78 80.09 5.00 262.67 2369.25
   18:57:50.369.10-Nov-2020 4475.51 3930.18 80.09 5.00 262.87 2369.25
   18:57:50.569.10-Nov-2020 4475.51 3929.79 80.09 5.00 263.07 2369.25
   18:57:50.769.10-Nov-2020 4475.51 3929.79 80.09 5.00 263.27 2369.25
   18:57:50.969.10-Nov-2020 4475.51 3929.21 80.09 5.00 263.47 2369.25
   18:57:51.169.10-Nov-2020 4475.51 3929.05 80.09 5.00 263.67 2369.25
   18:57:51.369.10-Nov-2020 4475.51 3928.51 80.09 5.00 263.87 2369.25
   18:57:51.569.10-Nov-2020 4475.51 3928.35 80.09 5.00 264.07 2369.25
   18:57:51.769.10-Nov-2020 4475.51 3927.48 80.09 5.00 264.27 2369.25
   18:57:51.969.10-Nov-2020 4475.51 3926.71 80.09 5.00 264.47 2369.25
   18:57:52.169.10-Nov-2020 4475.51 3926.85 80.09 5.00 264.67 2369.25
   18:57:52.369.10-Nov-2020 4475.51 3926.20 80.09 5.00 264.87 2369.25
   18:57:52.569.10-Nov-2020 4475.51 3926.32 80.09 5.00 265.07 2369.25
   18:57:52.769.10-Nov-2020 4475.51 3926.32 80.09 5.00 265.27 2369.25
   18:57:52.969.10-Nov-2020 4475.51 3925.05 80.09 5.00 265.47 2369.25
   18:57:53.169.10-Nov-2020 4475.51 3925.14 80.09 5.00 265.67 2369.25
   18:57:53.369.10-Nov-2020 4475.51 3924.61 80.09 5.00 265.87 2369.25
   18:57:53.569.10-Nov-2020 4475.51 3924.69 80.09 5.00 266.07 2369.25
   18:57:53.769.10-Nov-2020 4475.51 3924.22 80.08 5.00 266.27 2369.25
   18:57:53.970.10-Nov-2020 4475.51 3924.17 80.08 5.00 266.47 2369.25
   18:57:54.170.10-Nov-2020 4475.51 3924.34 80.08 5.00 266.67 2369.25
   18:57:54.370.10-Nov-2020 4475.51 3958.61 80.08 5.00 266.87 2369.25
   18:57:54.570.10-Nov-2020 4475.51 3975.88 80.08 5.00 267.07 2369.25
   18:57:54.770.10-Nov-2020 4475.51 3975.88 80.08 5.00 267.27 2369.25
   18:57:54.970.10-Nov-2020 4475.51 3987.07 80.08 5.00 267.47 2369.25
   18:57:55.170.10-Nov-2020 4475.51 3988.77 80.08 5.00 267.67 2369.25
   18:57:55.370.10-Nov-2020 4475.51 3990.55 80.08 5.00 267.87 2369.25
   18:57:55.570.10-Nov-2020 4475.51 3992.08 80.08 5.00 268.07 2369.25
   18:57:55.770.10-Nov-2020 4475.51 3992.08 80.08 5.00 268.27 2369.25
   18:57:55.970.10-Nov-2020 4475.51 3994.30 80.08 5.00 268.47 2369.25
   18:57:56.170.10-Nov-2020 4475.51 3995.25 80.08 5.00 268.67 2369.25
   18:57:56.370.10-Nov-2020 4475.51 3996.07 80.08 5.00 268.87 2369.25
   18:57:56.570.10-Nov-2020 4475.51 3996.85 80.08 5.00 269.07 2369.25
   18:57:56.770.10-Nov-2020 4475.51 3996.85 80.08 5.00 269.27 2369.25
   18:57:56.970.10-Nov-2020 4475.51 3998.04 80.08 5.00 269.47 2369.25
   18:57:57.170.10-Nov-2020 4475.51 3998.67 80.08 5.00 269.67 2369.25
   18:57:57.370.10-Nov-2020 4475.51 3999.18 80.08 5.00 269.87 2369.25
   18:57:57.571.10-Nov-2020 4475.51 3999.56 80.08 5.00 270.07 2369.25
   18:57:57.771.10-Nov-2020 4475.51 4000.46 80.07 5.00 270.27 2369.25
   18:57:57.971.10-Nov-2020 4475.51 4000.69 80.07 5.00 270.47 2369.25
   18:57:58.171.10-Nov-2020 4475.51 4001.02 80.07 5.00 270.68 2369.25
   18:57:58.371.10-Nov-2020 4475.51 4001.32 80.07 5.00 270.88 2369.25
   18:57:58.571.10-Nov-2020 4475.51 4001.72 80.07 5.00 271.08 2369.25
   18:57:58.771.10-Nov-2020 4475.51 4001.72 80.07 5.00 271.28 2369.25
   18:57:58.971.10-Nov-2020 4475.51 4002.25 80.07 5.00 271.48 2369.25
   18:57:59.171.10-Nov-2020 4475.51 4002.61 80.07 5.00 271.68 2369.25
   18:57:59.371.10-Nov-2020 4475.51 4002.91 80.07 5.00 271.88 2369.25
   18:57:59.571.10-Nov-2020 4475.51 4003.12 80.07 5.00 272.08 2369.25
   18:57:59.771.10-Nov-2020 4475.51 4003.12 80.07 5.00 272.28 2369.25
   18:57:59.971.10-Nov-2020 4475.51 4003.71 80.07 5.00 272.48 2369.25
   18:58:00.171.10-Nov-2020 4475.51 4004.06 80.07 5.00 272.68 2369.25
   18:58:00.371.10-Nov-2020 4475.51 4004.36 80.07 5.00 272.88 2369.25
   18:58:00.571.10-Nov-2020 4475.51 4004.45 80.07 5.00 273.08 2369.25
   18:58:00.771.10-Nov-2020 4475.51 4004.45 80.07 5.00 273.28 2369.25
   18:58:00.971.10-Nov-2020 4475.51 4004.83 80.07 5.00 273.48 2369.25
   18:58:01.172.10-Nov-2020 4475.51 4005.01 80.07 5.00 273.68 2369.25
   18:58:01.372.10-Nov-2020 4475.51 4005.33 80.07 5.00 273.88 2369.25
   18:58:01.572.10-Nov-2020 4475.51 4005.38 80.07 5.00 274.08 2369.25
   18:58:01.772.10-Nov-2020 4475.51 4005.48 80.07 5.00 274.28 2369.25
   18:58:01.972.10-Nov-2020 4475.51 4005.80 80.06 5.00 274.48 2369.25
   18:58:02.172.10-Nov-2020 4475.51 4006.02 80.06 5.00 274.68 2369.25
   18:58:02.372.10-Nov-2020 4475.51 4006.06 80.06 5.00 274.88 2369.25
   18:58:02.572.10-Nov-2020 4475.51 4006.53 80.06 5.00 275.08 2369.25
   18:58:02.772.10-Nov-2020 4475.51 4006.53 80.06 5.00 275.28 2369.25
   18:58:02.972.10-Nov-2020 4475.51 4006.60 80.06 5.00 275.48 2369.25
   18:58:03.172.10-Nov-2020 4475.51 4006.79 80.06 5.00 275.68 2369.25
   18:58:03.372.10-Nov-2020 4475.51 4007.13 80.06 5.00 275.88 2369.25
