~Version Information
 VERS.                  2.0:   CWLS log ASCII Standard -VERSION 2.0
 WRAP.                   NO:   One line per depth step
~Well Information Block
#MNEM.UNIT     VALUE/NAME     DESCRIPTION
#---------     -----------    ---------------------------
 STRT.S             06:45:19 11-Nov-20: START TIME 06:45:19 11-Nov-20
 STOP.S             06:51:53 11-Nov-20: STOP TIME  06:51:53 11-Nov-20
 STEP.S                   0.00: STEP TIME
 NULL.                 -999.25: NULL VALUE
 DFWT.                        :  DIST FWL TEXT
 DFST.                        :  DIST FSL TEXT
 DMF .             Drill Floor:  DRILL MEAS FROM
 STIM.      04.54.24 22-Sep-20:  START TIME
 DATE.      04.54.24 21-Nov-20:  END TIME
 SPUD.               21-Nov-20:  SPUD DATE
 NREF.                    Grid:  NORTH REFERENCE
 HPTY.       Minimum Curvature:  HOLE POS TYPE
 DMOD.             Drill Model:  DRILL MOD DESC
 SVYD.                  Survey:  SURVEY DESC
 ILTD.               Lithology:  INTERP LTH DESC
 FTOP.          Formation Tops:  FORM TOPS DESC
 SON .        AZ-XX-0906571587:  JOB NUMBER
 COMP.     BP Exploration (Caspian Sea) Ltd:  COMPANY
 UWI .                     N/A:  UNIQUE WELL IDENTIFIER
 API .                     N/A:  API NUMBER
 BASE.              Azerbaijan:  LOGGING EQUIPMENT BASE LOCATION
 REGN.                   EESSA:  REGION
 PROV.                    Baku:  PROVINCE
 STAT.                    Baku:  STATE NAME
 CTRY.              Azerbaijan:  COUNTRY NAME
 FLD .                     ACG:  FIELD NAME
 SRVC.     TURAN Drilling & Engineering:  CONTRACTOR
 WELL.                     J27:  WELL NAME
 RIG .             West Chirag:  RIG NAME
 DOE .                     N/A:  DOE NUMBER
 DCON.         Sperry Drilling:  DIRECTNL CONTR
 PDAT.          Mean Sea Level:  PERMANENT DATUM
 WTYP.                Deviated:  WELL TYPE
 MWDS.                    Baku:  MWD SHOP
 JOBN.        AZ-XX-0906571587:  JOB TICKET NUMB
 UNIT.                     N/A:  LOGGING EQUIPMENT ID
 MDS .        Operator Entered:  MAG DATA SOURCE
 CNTY.                        :  COUNTY
 LOC .                        :  LOCATION
 LMF .             Drill Floor:  LOG MEASURED FROM
 TVDS.m                  43.00:  TVDSS CORRECTN
 LATI.deg                40.13:  LATITUDE
 LONG.deg                51.22:  LONGITUDE
 WHNS.m                   7.72:  WELL HEAD N/S
 WHEW.m                 -14.24:  WELL HEAD E/W
 UTMX.m              519005.06:  UTM X
 UTMY.m             4443793.85:  UTM Y
 DFWL.m                   0.00:  DISTANCE FWL
 DFSL.m                   0.00:  DISTANCE FSL
 SDEP.m                 347.00:  START DEPTH
 TDD .m                 581.00:  TOTAL DEPTH (DRILLER)
 VSDR.deg               159.72:  VERT SEC DIRECT
 GVFD.g                   1.00:  GRAVITY FIELD
 MFLD.nT              50313.00:  MAGNETIC FIELD
 MDIP.deg                59.58:  MAGNETIC DIP
 MDEC.deg                 6.45:  MAGNETIC DECL
 GRDC.deg                 0.15:  GRID CORRECTION
 AZTC.deg                 6.30:  AZM TOTAL CORR
 EPD .m                   0.00:  ELEVATION
 EGL .m                   0.00:  GROUND ELEVATION
 WDMS.m                 169.80:  WD ELEV
 APD .m                  43.00:  DEPTH ABOVE PD
 AGAP.m                  43.00:  AIR GAP
 VSEW.m                 -14.24:  VERT SEC E/W
 VSNS.m                   7.72:  VERT SEC N/S
 DEP .m                 342.45:  DEPTH
 EKB .m                   0.00:  KB ELEVATION
 EDF .m                  43.00:  DF ELEVATION
 TDL .m                1313.00:  TOTAL DEPTH (LOGGER)
 VSC .                       0:  VS TO CLOSURE
 MAGU.                 1851396:  MAGUTM CHECKSUM
~Parameter Information Block
#MNEM.UNIT       Value        Description
#---------     -----------    ---------------------------
 AV  .mps                 0.65:  Ann Velocity 
 AVMX.mps                 0.75:  Max Ann Veloc 
 AZIF.deg               115.08:  Azm, Final 
 BHAT.        Rotary Steerable:  BHA Type 
 BROT.°/30m               1.50:  Build Rotating 
 BS  .in                 12.25:  Bit Size 
 BSZ .in                 12.25:  Bit Size 
 BTPL.psig              700.00:  Bit Press Loss 
 CABU.                     Yes:  Customer Abuse 
 COMM.                     LNw:  Run Comments 1 
 TCS .hr                121.00:  Time Ciculation Ended 
 CV  .mps                 1.83:  Crit Velocity 
 CVMX.mps                 1.83:  Max Crit Veloc 
 DD1 .          Rashad Habibov:  Direct Drillr 1 
 DD2 .         Rasim Ibrahimov:  Direct Drillr 2 
 DDSV.                 iCruise:  DD Service 
 DEFF.%                 100.00:  % Det Eff 
 DLRX.°/30m               3.60:  Dogleg Rot Max 
 DLSO.°/30m               3.10:  Dogleg Oriented 
 DLSX.°/30m               3.60:  Dogleg Str Max 
 DRET.      13.41.20 12-Nov-20:  Drill End Time 
 DRST.      13.41.20 07-Nov-20:  Drill Start Tim 
 DTIM.hr                 54.16:  Time Drilling 
 EDEP.m                4762.01:  End Depth 
 ENG1.           Amrah Tahirov:  Engineer 1 
 ENG2.      Bakhtiyar Jabbarli:  Engineer 2 
 ENG3.          Ruslan Safarov:  Engineer 3 
 ETIM.      13.41.20 14-Nov-20:  End Time 
 FLOI.gpm              1200.00:  Flow In 
 FLON.gpm              1100.00:  Flow In Min 
 FLOS.cptm                0.00:  Fluid Loss 
 FLOX.gpm              1200.00:  Flow In Max 
 HFLO.                      No:  High Flow 
 HPRE.                      No:  High Pressure 
 HTEM.                      No:  High Temp 
 HYDO.m                   2.00:  Hydro Offset 
 IFIN.deg                66.14:  Inc, Final 
 IMAX.deg                69.03:  Inc Max 
 IMIN.deg                64.64:  Inc Min 
 IMND.m                4450.16:  Inc Min Depth 
 IMXD.m                3996.00:  Inc Max Depth 
 JARR.                     Yes:  Jarring 
 LETM.      13.41.20 14-Nov-20:  Log End Time 
 LOST.hr                     0:  Lost Rig Time 
 LSTM.      13.41.20 06-Nov-20:  Log Start Time 
 MDCL.ppm             42500.00:  Mud Chlorides 
 MDES.     Inversion Oil/Synthetic:  Mud Desc 
 DFD .sg                  1.45:  Mud Density 
 MDMN.sg                  1.45:  Dens Mud Min 
 MDMX.sg                  1.45:  Dens Mud Max 
 MOIL.                      70:  Run Mud Oil % 
 MOWR.                   70:30:  Run Mud OWR 
 MSND.                       0:  Run Mud Sand % 
 MSOL.                    19.3:  Run Mud Solids% 
 DFV .spqt               77.00:  Mud Viscosity 
 MWOD.in                  8.00:  MWD Tool OD 
 MWSI.                      No:  Serv Intrp, MWD 
 OTIM.hr                201.88:  Time Operating 
 PCON.           Look Like New:  Pad Condition 
 PMAX.psia             9250.94:  Press Op, Max 
 PV  .cP                 29.00:  Mud PV 
 RUN .                     800:  Run Number 
 ROPA.m/hr               28.00:  ROP Avg 
 ROPN.m/hr               25.00:  ROP Min 
 ROPX.m/hr               30.00:  ROP Max 
 RPMA.rpm               160.00:  RPM Surface Avg 
 RPMN.rpm               160.00:  RPM Surface Min 
 RPMX.rpm               160.00:  RPM Surface Max 
 RRUN.                    0800:  Rig Run Number 
 RTIM.hr                 12.00:  Time Reaming 
 SAZI.deg               169.33:  Azm, Start 
 SDEP.m                3449.01:  Start Depth 
 SIDD.                      No:  Serv Intrp, DD 
 SINC.deg                68.01:  Inc, Start 
 SPPA.psig             4900.00:  SPP Avg 
 SPPN.psig             4800.00:  SPP Min 
 SPPX.psig             5050.00:  SPP Max 
 STIM.      13.41.20 06-Nov-20:  Start Time 
 SVCS.                 DD, MWD:  Services 
 SVER.                    9.20:  Sperry Version 
 TDAT.m                4762.01:  Tot Depth Attmp 
 TDDF.                      No:  Trip for DD 
 TDLG.m                1313.00:  Tot Depth Loggd 
 TFF .                      No:  Trip for Fail 
 TQAA.f-kp               13.00:  Torque Abs Avg 
 TQAN.f-kp               13.00:  Torque Abs Min 
 TQAX.f-kp               13.00:  Torque Abs Max 
 TRRT.°/30m               1.70:  Turn Rotating 
 MRT .                  EWR-M5:  Maximum Recorded Temperature 
 TTMX.degC               86.00:  Max Tool Temp 
 VS01.                90622122:  Virtual Str1 SN 
 VS02.                90577298:  Virtual Str2 SN 
 VS03.                90563623:  Virtual Str3 SN 
 VS04.                90617559:  Virtual Str4 SN 
 VS05.                11339492:  Virtual Str5 SN 
 VS06.                12385033:  Virtual Str6 SN 
 WBMN.klb                 0.00:  WOB Min 
 WOBA.klb                22.00:  WOB Avg 
 WOBX.klb                26.00:  WOB Max 
 YP  .lhf2               30.00:  Yield Point 
~Curve Information Block
#MNEM.UNIT                 API CODE     Curve Description
#---------               -----------    ---------------------------
 TIME.HHMMSS            00 000 000 000:  GT Time & Date
 GTDEPTH.m              00 000 000 000:  GT Depth
 GTPQH.psia             00 000 000 000:  GT HR Quartz Pressure
 GTTQ.degC              00 000 000 000:  GT Quartz Temperature
 GTTN.NONE              00 000 000 000:  GT Test Number
 GTET.sec               00 000 000 000:  GT Elapsed Test Time
 GTTVD.m                00 000 000 000:  GT True Vertical Depth
#Other Information
#
#WARRANTY: Halliburton will use its best efforts to furnish customers with 
#accurate information and interpretations that are part of, and incident to, the services 
#provided.  However, Halliburton cannot and does not warrant the accuracy 
#or correctness of such information and interpretations.  Under no circumstances should any 
#such information or interpretation be relied upon as the sole basis for any drilling, 
#completion, production, or financial decision or any procedure involving any risk to the 
#safety of any drilling venture, drilling rig or its crew or any other third party.  The 
#Customer has full responsibility for all drilling, completion and production operation.  
#Halliburton makes no representations or warranties, either expressed or 
#implied, including, but not limited to, the implied warranties of merchantability or fitness 
#for a particular purpose, with respect to the services rendered.  In no event will 
#Halliburton be liable for failure to obtain any particular results or for 
#any damages, including, but not limited to, indirect, special or consequential damages, 
#resulting from the use of any information or interpretation provided by Halliburton.
#
~A           TIME           GTDEPTH  GTPQH  GTTQ  GTTN  GTET   GTTVD  
# ...
   06:46:28.411.11-Nov-2020 4617.01 4136.47 80.02 8.00  69.02 2426.59
   06:46:28.611.11-Nov-2020 4617.01 4136.47 80.02 8.00  69.22 2426.59
   06:46:28.811.11-Nov-2020 4617.01 4136.33 80.02 8.00  69.42 2426.59
   06:46:29.011.11-Nov-2020 4617.01 4136.40 80.02 8.00  69.62 2426.59
   06:46:29.211.11-Nov-2020 4617.01 4136.24 80.02 8.00  69.82 2426.59
   06:46:29.412.11-Nov-2020 4617.01 4136.22 80.01 8.00  70.02 2426.59
   06:46:29.612.11-Nov-2020 4617.01 4136.22 80.01 8.00  70.22 2426.59
   06:46:29.812.11-Nov-2020 4617.01 4136.18 80.01 8.00  70.42 2426.59
   06:46:30.012.11-Nov-2020 4617.01 4136.17 80.01 8.00  70.62 2426.59
   06:46:30.212.11-Nov-2020 4617.01 4136.76 80.01 8.00  70.82 2426.59
   06:46:30.412.11-Nov-2020 4617.01 4136.18 80.01 8.00  71.02 2426.59
   06:46:30.612.11-Nov-2020 4617.01 4136.18 80.01 8.00  71.22 2426.59
   06:46:30.812.11-Nov-2020 4617.01 4136.35 80.01 8.00  71.42 2426.59
   06:46:31.012.11-Nov-2020 4617.01 4136.54 80.01 8.00  71.62 2426.59
   06:46:31.212.11-Nov-2020 4617.01 4136.57 80.01 8.00  71.82 2426.59
   06:46:31.412.11-Nov-2020 4617.01 4136.83 80.01 8.00  72.02 2426.59
   06:46:31.612.11-Nov-2020 4617.01 4136.83 80.01 8.00  72.22 2426.59
   06:46:31.812.11-Nov-2020 4617.01 4136.65 80.01 8.00  72.42 2426.59
   06:46:32.012.11-Nov-2020 4617.01 4136.80 80.00 8.00  72.62 2426.59
   06:46:32.212.11-Nov-2020 4617.01 4136.76 80.00 8.00  72.82 2426.59
   06:46:32.413.11-Nov-2020 4617.01 4136.79 80.00 8.00  73.02 2426.59
   06:46:32.613.11-Nov-2020 4617.01 4136.79 80.00 8.00  73.22 2426.59
   06:46:32.813.11-Nov-2020 4617.01 4137.00 80.00 8.00  73.42 2426.59
   06:46:33.013.11-Nov-2020 4617.01 4136.98 80.00 8.00  73.62 2426.59
   06:46:33.213.11-Nov-2020 4617.01 4137.02 80.00 8.00  73.82 2426.59
   06:46:33.413.11-Nov-2020 4617.01 4137.19 80.00 8.00  74.02 2426.59
   06:46:33.613.11-Nov-2020 4617.01 4137.25 80.00 8.00  74.22 2426.59
   06:46:33.813.11-Nov-2020 4617.01 4137.34 80.00 8.00  74.42 2426.59
   06:46:34.013.11-Nov-2020 4617.01 4137.76 80.00 8.00  74.62 2426.59
   06:46:34.213.11-Nov-2020 4617.01 4137.21 80.00 8.00  74.82 2426.59
   06:46:34.413.11-Nov-2020 4617.01 4137.48 80.00 8.00  75.02 2426.59
   06:46:34.613.11-Nov-2020 4617.01 4137.46 79.99 8.00  75.22 2426.59
   06:46:34.813.11-Nov-2020 4617.01 4137.78 79.99 8.00  75.42 2426.59
   06:46:35.013.11-Nov-2020 4617.01 4137.76 79.99 8.00  75.62 2426.59
   06:46:35.213.11-Nov-2020 4617.01 4137.71 79.99 8.00  75.82 2426.59
   06:46:35.413.11-Nov-2020 4617.01 4137.82 79.99 8.00  76.02 2426.59
   06:46:35.614.11-Nov-2020 4617.01 4138.05 79.99 8.00  76.22 2426.59
   06:46:35.814.11-Nov-2020 4617.01 4137.91 79.99 8.00  76.42 2426.59
   06:46:36.014.11-Nov-2020 4617.01 4138.13 79.99 8.00  76.62 2426.59
   06:46:36.214.11-Nov-2020 4617.01 4138.15 79.99 8.00  76.82 2426.59
   06:46:36.414.11-Nov-2020 4617.01 4138.18 79.99 8.00  77.02 2426.59
   06:46:36.614.11-Nov-2020 4617.01 4138.18 79.99 8.00  77.22 2426.59
   06:46:36.814.11-Nov-2020 4617.01 4138.13 79.99 8.00  77.42 2426.59
   06:46:37.014.11-Nov-2020 4617.01 4138.46 79.99 8.00  77.62 2426.59
   06:46:37.214.11-Nov-2020 4617.01 4138.69 79.98 8.00  77.82 2426.59
   06:46:37.414.11-Nov-2020 4617.01 4138.31 79.98 8.00  78.02 2426.59
   06:46:37.614.11-Nov-2020 4617.01 4138.31 79.98 8.00  78.22 2426.59
   06:46:37.814.11-Nov-2020 4617.01 4138.65 79.98 8.00  78.42 2426.59
   06:46:38.014.11-Nov-2020 4617.01 4139.37 79.98 8.00  78.62 2426.59
   06:46:38.214.11-Nov-2020 4617.01 4139.00 79.98 8.00  78.82 2426.59
   06:46:38.414.11-Nov-2020 4617.01 4138.78 79.98 8.00  79.02 2426.59
   06:46:38.614.11-Nov-2020 4617.01 4138.78 79.98 8.00  79.22 2426.59
   06:46:38.815.11-Nov-2020 4617.01 4138.93 79.98 8.00  79.42 2426.59
   06:46:39.015.11-Nov-2020 4617.01 4138.73 79.98 8.00  79.63 2426.59
   06:46:39.215.11-Nov-2020 4617.01 4138.98 79.98 8.00  79.83 2426.59
   06:46:39.415.11-Nov-2020 4617.01 4138.81 79.98 8.00  80.03 2426.59
   06:46:39.615.11-Nov-2020 4617.01 4138.62 79.98 8.00  80.23 2426.59
   06:46:39.815.11-Nov-2020 4617.01 4138.70 79.97 8.00  80.43 2426.59
   06:46:40.015.11-Nov-2020 4617.01 4139.00 79.97 8.00  80.63 2426.59
   06:46:40.215.11-Nov-2020 4617.01 4138.76 79.97 8.00  80.83 2426.59
   06:46:40.415.11-Nov-2020 4617.01 4138.72 79.97 8.00  81.03 2426.59
   06:46:40.615.11-Nov-2020 4617.01 4138.72 79.97 8.00  81.23 2426.59
   06:46:40.815.11-Nov-2020 4617.01 4138.95 79.97 8.00  81.43 2426.59
   06:46:41.015.11-Nov-2020 4617.01 4139.00 79.97 8.00  81.63 2426.59
   06:46:41.215.11-Nov-2020 4617.01 4139.01 79.97 8.00  81.83 2426.59
   06:46:41.415.11-Nov-2020 4617.01 4139.02 79.97 8.00  82.03 2426.59
   06:46:41.615.11-Nov-2020 4617.01 4139.02 79.97 8.00  82.23 2426.59
   06:46:41.815.11-Nov-2020 4617.01 4139.19 79.97 8.00  82.43 2426.59
   06:46:42.016.11-Nov-2020 4617.01 4139.81 79.97 8.00  82.63 2426.59
   06:46:42.216.11-Nov-2020 4617.01 4139.19 79.97 8.00  82.83 2426.59
   06:46:42.416.11-Nov-2020 4617.01 4139.61 79.96 8.00  83.03 2426.59
   06:46:42.616.11-Nov-2020 4617.01 4139.61 79.96 8.00  83.23 2426.59
   06:46:42.816.11-Nov-2020 4617.01 4139.57 79.96 8.00  83.43 2426.59
   06:46:43.016.11-Nov-2020 4617.01 4139.77 79.96 8.00  83.63 2426.59
   06:46:43.216.11-Nov-2020 4617.01 4139.69 79.96 8.00  83.83 2426.59
   06:46:43.416.11-Nov-2020 4617.01 4139.76 79.96 8.00  84.03 2426.59
   06:46:43.616.11-Nov-2020 4617.01 4139.87 79.96 8.00  84.23 2426.59
   06:46:43.816.11-Nov-2020 4617.01 4139.71 79.96 8.00  84.43 2426.59
   06:46:44.016.11-Nov-2020 4617.01 4139.66 79.96 8.00  84.63 2426.59
   06:46:44.216.11-Nov-2020 4617.01 4140.01 79.96 8.00  84.83 2426.59
   06:46:44.416.11-Nov-2020 4617.01 4139.93 79.96 8.00  85.03 2426.59
   06:46:44.616.11-Nov-2020 4617.01 4139.93 79.96 8.00  85.23 2426.59
   06:46:44.816.11-Nov-2020 4617.01 4139.65 79.96 8.00  85.43 2426.59
   06:46:45.016.11-Nov-2020 4617.01 4139.92 79.96 8.00  85.63 2426.59
   06:46:45.217.11-Nov-2020 4617.01 4139.99 79.95 8.00  85.83 2426.59
   06:46:45.417.11-Nov-2020 4617.01 4139.64 79.95 8.00  86.03 2426.59
   06:46:45.617.11-Nov-2020 4617.01 4139.64 79.95 8.00  86.23 2426.59
   06:46:45.817.11-Nov-2020 4617.01 4139.90 79.95 8.00  86.43 2426.59
   06:46:46.017.11-Nov-2020 4617.01 4139.93 79.95 8.00  86.63 2426.59
   06:46:46.217.11-Nov-2020 4617.01 4140.18 79.95 8.00  86.83 2426.59
   06:46:46.417.11-Nov-2020 4617.01 4139.97 79.95 8.00  87.03 2426.59
   06:46:46.617.11-Nov-2020 4617.01 4139.97 79.95 8.00  87.23 2426.59
   06:46:46.817.11-Nov-2020 4617.01 4139.77 79.95 8.00  87.43 2426.59
   06:46:47.017.11-Nov-2020 4617.01 4139.82 79.95 8.00  87.63 2426.59
   06:46:47.217.11-Nov-2020 4617.01 4140.29 79.95 8.00  87.83 2426.59
   06:46:47.417.11-Nov-2020 4617.01 4140.00 79.95 8.00  88.03 2426.59
   06:46:47.617.11-Nov-2020 4617.01 4140.24 79.94 8.00  88.23 2426.59
   06:46:47.817.11-Nov-2020 4617.01 4140.15 79.94 8.00  88.43 2426.59
   06:46:48.017.11-Nov-2020 4617.01 4140.21 79.94 8.00  88.63 2426.59
   06:46:48.217.11-Nov-2020 4617.01 4140.37 79.94 8.00  88.83 2426.59
   06:46:48.418.11-Nov-2020 4617.01 4140.29 79.94 8.00  89.03 2426.59
   06:46:48.618.11-Nov-2020 4617.01 4140.29 79.94 8.00  89.23 2426.59
   06:46:48.818.11-Nov-2020 4617.01 4140.36 79.94 8.00  89.43 2426.59
   06:46:49.018.11-Nov-2020 4617.01 4140.42 79.94 8.00  89.63 2426.59
   06:46:49.218.11-Nov-2020 4617.01 4140.42 79.94 8.00  89.83 2426.59
   06:46:49.418.11-Nov-2020 4617.01 4140.46 79.94 8.00  90.03 2426.59
   06:46:49.618.11-Nov-2020 4617.01 4140.46 79.94 8.00  90.23 2426.59
   06:46:49.818.11-Nov-2020 4617.01 4140.73 79.94 8.00  90.43 2426.59
   06:46:50.018.11-Nov-2020 4617.01 4140.74 79.94 8.00  90.63 2426.59
   06:46:50.218.11-Nov-2020 4617.01 4140.54 79.94 8.00  90.83 2426.59
   06:46:50.418.11-Nov-2020 4617.01 4140.46 79.93 8.00  91.03 2426.59
   06:46:50.618.11-Nov-2020 4617.01 4140.46 79.93 8.00  91.23 2426.59
   06:46:50.818.11-Nov-2020 4617.01 4140.47 79.93 8.00  91.43 2426.59
   06:46:51.018.11-Nov-2020 4617.01 4140.66 79.93 8.00  91.63 2426.59
   06:46:51.218.11-Nov-2020 4617.01 4140.62 79.93 8.00  91.83 2426.59
