~Version Information
 VERS.                  2.0:   CWLS log ASCII Standard -VERSION 2.0
 WRAP.                   NO:   One line per depth step
~Well Information Block
#MNEM.UNIT     VALUE/NAME     DESCRIPTION
#---------     -----------    ---------------------------
 STRT.S             18:53:27 10-Nov-20: START TIME 18:53:27 10-Nov-20
 STOP.S             19:00:00 10-Nov-20: STOP TIME  19:00:00 10-Nov-20
 STEP.S                   0.00: STEP TIME
 NULL.                 -999.25: NULL VALUE
 DFWT.                        :  DIST FWL TEXT
 DFST.                        :  DIST FSL TEXT
 DMF .             Drill Floor:  DRILL MEAS FROM
 STIM.      04.54.24 22-Sep-20:  START TIME
 DATE.      04.54.24 21-Nov-20:  END TIME
 SPUD.               21-Nov-20:  SPUD DATE
 NREF.                    Grid:  NORTH REFERENCE
 HPTY.       Minimum Curvature:  HOLE POS TYPE
 DMOD.             Drill Model:  DRILL MOD DESC
 SVYD.                  Survey:  SURVEY DESC
 ILTD.               Lithology:  INTERP LTH DESC
 FTOP.          Formation Tops:  FORM TOPS DESC
 SON .        AZ-XX-0906571587:  JOB NUMBER
 COMP.     BP Exploration (Caspian Sea) Ltd:  COMPANY
 UWI .                     N/A:  UNIQUE WELL IDENTIFIER
 API .                     N/A:  API NUMBER
 BASE.              Azerbaijan:  LOGGING EQUIPMENT BASE LOCATION
 REGN.                   EESSA:  REGION
 PROV.                    Baku:  PROVINCE
 STAT.                    Baku:  STATE NAME
 CTRY.              Azerbaijan:  COUNTRY NAME
 FLD .                     ACG:  FIELD NAME
 SRVC.     TURAN Drilling & Engineering:  CONTRACTOR
 WELL.                     J27:  WELL NAME
 RIG .             West Chirag:  RIG NAME
 DOE .                     N/A:  DOE NUMBER
 DCON.         Sperry Drilling:  DIRECTNL CONTR
 PDAT.          Mean Sea Level:  PERMANENT DATUM
 WTYP.                Deviated:  WELL TYPE
 MWDS.                    Baku:  MWD SHOP
 JOBN.        AZ-XX-0906571587:  JOB TICKET NUMB
 UNIT.                     N/A:  LOGGING EQUIPMENT ID
 MDS .        Operator Entered:  MAG DATA SOURCE
 CNTY.                        :  COUNTY
 LOC .                        :  LOCATION
 LMF .             Drill Floor:  LOG MEASURED FROM
 TVDS.m                  43.00:  TVDSS CORRECTN
 LATI.deg                40.13:  LATITUDE
 LONG.deg                51.22:  LONGITUDE
 WHNS.m                   7.72:  WELL HEAD N/S
 WHEW.m                 -14.24:  WELL HEAD E/W
 UTMX.m              519005.06:  UTM X
 UTMY.m             4443793.85:  UTM Y
 DFWL.m                   0.00:  DISTANCE FWL
 DFSL.m                   0.00:  DISTANCE FSL
 SDEP.m                 347.00:  START DEPTH
 TDD .m                 581.00:  TOTAL DEPTH (DRILLER)
 VSDR.deg               159.72:  VERT SEC DIRECT
 GVFD.g                   1.00:  GRAVITY FIELD
 MFLD.nT              50313.00:  MAGNETIC FIELD
 MDIP.deg                59.58:  MAGNETIC DIP
 MDEC.deg                 6.45:  MAGNETIC DECL
 GRDC.deg                 0.15:  GRID CORRECTION
 AZTC.deg                 6.30:  AZM TOTAL CORR
 EPD .m                   0.00:  ELEVATION
 EGL .m                   0.00:  GROUND ELEVATION
 WDMS.m                 169.80:  WD ELEV
 APD .m                  43.00:  DEPTH ABOVE PD
 AGAP.m                  43.00:  AIR GAP
 VSEW.m                 -14.24:  VERT SEC E/W
 VSNS.m                   7.72:  VERT SEC N/S
 DEP .m                 342.45:  DEPTH
 EKB .m                   0.00:  KB ELEVATION
 EDF .m                  43.00:  DF ELEVATION
 TDL .m                1313.00:  TOTAL DEPTH (LOGGER)
 VSC .                       0:  VS TO CLOSURE
 MAGU.                 1851396:  MAGUTM CHECKSUM
~Parameter Information Block
#MNEM.UNIT       Value        Description
#---------     -----------    ---------------------------
 AV  .mps                 0.65:  Ann Velocity 
 AVMX.mps                 0.75:  Max Ann Veloc 
 AZIF.deg               115.08:  Azm, Final 
 BHAT.        Rotary Steerable:  BHA Type 
 BROT.°/30m               1.50:  Build Rotating 
 BS  .in                 12.25:  Bit Size 
 BSZ .in                 12.25:  Bit Size 
 BTPL.psig              700.00:  Bit Press Loss 
 CABU.                     Yes:  Customer Abuse 
 COMM.                     ”Ú:  Run Comments 1 
 TCS .hr                121.00:  Time Ciculation Ended 
 CV  .mps                 1.83:  Crit Velocity 
 CVMX.mps                 1.83:  Max Crit Veloc 
 DD1 .          Rashad Habibov:  Direct Drillr 1 
 DD2 .         Rasim Ibrahimov:  Direct Drillr 2 
 DDSV.                 iCruise:  DD Service 
 DEFF.%                 100.00:  % Det Eff 
 DLRX.°/30m               3.60:  Dogleg Rot Max 
 DLSO.°/30m               3.10:  Dogleg Oriented 
 DLSX.°/30m               3.60:  Dogleg Str Max 
 DRET.      13.41.20 12-Nov-20:  Drill End Time 
 DRST.      13.41.20 07-Nov-20:  Drill Start Tim 
 DTIM.hr                 54.16:  Time Drilling 
 EDEP.m                4762.01:  End Depth 
 ENG1.           Amrah Tahirov:  Engineer 1 
 ENG2.      Bakhtiyar Jabbarli:  Engineer 2 
 ENG3.          Ruslan Safarov:  Engineer 3 
 ETIM.      13.41.20 14-Nov-20:  End Time 
 FLOI.gpm              1200.00:  Flow In 
 FLON.gpm              1100.00:  Flow In Min 
 FLOS.cptm                0.00:  Fluid Loss 
 FLOX.gpm              1200.00:  Flow In Max 
 HFLO.                      No:  High Flow 
 HPRE.                      No:  High Pressure 
 HTEM.                      No:  High Temp 
 HYDO.m                   2.00:  Hydro Offset 
 IFIN.deg                66.14:  Inc, Final 
 IMAX.deg                69.03:  Inc Max 
 IMIN.deg                64.64:  Inc Min 
 IMND.m                4450.16:  Inc Min Depth 
 IMXD.m                3996.00:  Inc Max Depth 
 JARR.                     Yes:  Jarring 
 LETM.      13.41.20 14-Nov-20:  Log End Time 
 LOST.hr                     0:  Lost Rig Time 
 LSTM.      13.41.20 06-Nov-20:  Log Start Time 
 MDCL.ppm             42500.00:  Mud Chlorides 
 MDES.     Inversion Oil/Synthetic:  Mud Desc 
 DFD .sg                  1.45:  Mud Density 
 MDMN.sg                  1.45:  Dens Mud Min 
 MDMX.sg                  1.45:  Dens Mud Max 
 MOIL.                      70:  Run Mud Oil % 
 MOWR.                   70:30:  Run Mud OWR 
 MSND.                       0:  Run Mud Sand % 
 MSOL.                    19.3:  Run Mud Solids% 
 DFV .spqt               77.00:  Mud Viscosity 
 MWOD.in                  8.00:  MWD Tool OD 
 MWSI.                      No:  Serv Intrp, MWD 
 OTIM.hr                201.88:  Time Operating 
 PCON.           Look Like New:  Pad Condition 
 PMAX.psia             9250.94:  Press Op, Max 
 PV  .cP                 29.00:  Mud PV 
 RUN .                     800:  Run Number 
 ROPA.m/hr               28.00:  ROP Avg 
 ROPN.m/hr               25.00:  ROP Min 
 ROPX.m/hr               30.00:  ROP Max 
 RPMA.rpm               160.00:  RPM Surface Avg 
 RPMN.rpm               160.00:  RPM Surface Min 
 RPMX.rpm               160.00:  RPM Surface Max 
 RRUN.                    0800:  Rig Run Number 
 RTIM.hr                 12.00:  Time Reaming 
 SAZI.deg               169.33:  Azm, Start 
 SDEP.m                3449.01:  Start Depth 
 SIDD.                      No:  Serv Intrp, DD 
 SINC.deg                68.01:  Inc, Start 
 SPPA.psig             4900.00:  SPP Avg 
 SPPN.psig             4800.00:  SPP Min 
 SPPX.psig             5050.00:  SPP Max 
 STIM.      13.41.20 06-Nov-20:  Start Time 
 SVCS.                 DD, MWD:  Services 
 SVER.                    9.20:  Sperry Version 
 TDAT.m                4762.01:  Tot Depth Attmp 
 TDDF.                      No:  Trip for DD 
 TDLG.m                1313.00:  Tot Depth Loggd 
 TFF .                      No:  Trip for Fail 
 TQAA.f-kp               13.00:  Torque Abs Avg 
 TQAN.f-kp               13.00:  Torque Abs Min 
 TQAX.f-kp               13.00:  Torque Abs Max 
 TRRT.°/30m               1.70:  Turn Rotating 
 MRT .                  EWR-M5:  Maximum Recorded Temperature 
 TTMX.degC               86.00:  Max Tool Temp 
 VS01.                90622122:  Virtual Str1 SN 
 VS02.                90577298:  Virtual Str2 SN 
 VS03.                90563623:  Virtual Str3 SN 
 VS04.                90617559:  Virtual Str4 SN 
 VS05.                11339492:  Virtual Str5 SN 
 VS06.                12385033:  Virtual Str6 SN 
 WBMN.klb                 0.00:  WOB Min 
 WOBA.klb                22.00:  WOB Avg 
 WOBX.klb                26.00:  WOB Max 
 YP  .lhf2               30.00:  Yield Point 
~Curve Information Block
#MNEM.UNIT                 API CODE     Curve Description
#---------               -----------    ---------------------------
 TIME.HHMMSS            00 000 000 000:  GT Time & Date
 GTDEPTH.m              00 000 000 000:  GT Depth
 GTPQH.psia             00 000 000 000:  GT HR Quartz Pressure
 GTTQ.degC              00 000 000 000:  GT Quartz Temperature
 GTTN.NONE              00 000 000 000:  GT Test Number
 GTET.sec               00 000 000 000:  GT Elapsed Test Time
 GTTVD.m                00 000 000 000:  GT True Vertical Depth
#Other Information
#
#WARRANTY: Halliburton will use its best efforts to furnish customers with 
#accurate information and interpretations that are part of, and incident to, the services 
#provided.  However, Halliburton cannot and does not warrant the accuracy 
#or correctness of such information and interpretations.  Under no circumstances should any 
#such information or interpretation be relied upon as the sole basis for any drilling, 
#completion, production, or financial decision or any procedure involving any risk to the 
#safety of any drilling venture, drilling rig or its crew or any other third party.  The 
#Customer has full responsibility for all drilling, completion and production operation.  
#Halliburton makes no representations or warranties, either expressed or 
#implied, including, but not limited to, the implied warranties of merchantability or fitness 
#for a particular purpose, with respect to the services rendered.  In no event will 
#Halliburton be liable for failure to obtain any particular results or for 
#any damages, including, but not limited to, indirect, special or consequential damages, 
#resulting from the use of any information or interpretation provided by Halliburton.
#
~A           TIME           GTDEPTH  GTPQH  GTTQ  GTTN  GTET   GTTVD  
# ...
   18:57:17.559.10-Nov-2020 4475.51 4016.21 80.17 5.00 230.06 2369.25
   18:57:17.759.10-Nov-2020 4475.51 4016.16 80.17 5.00 230.26 2369.25
   18:57:17.960.10-Nov-2020 4475.51 4016.26 80.17 5.00 230.46 2369.25
   18:57:18.160.10-Nov-2020 4475.51 4016.31 80.17 5.00 230.66 2369.25
   18:57:18.360.10-Nov-2020 4475.51 4016.43 80.17 5.00 230.86 2369.25
   18:57:18.560.10-Nov-2020 4475.51 4016.26 80.17 5.00 231.06 2369.25
   18:57:18.760.10-Nov-2020 4475.51 4016.26 80.17 5.00 231.26 2369.25
   18:57:18.960.10-Nov-2020 4475.51 4016.46 80.17 5.00 231.46 2369.25
   18:57:19.160.10-Nov-2020 4475.51 4016.27 80.17 5.00 231.66 2369.25
   18:57:19.360.10-Nov-2020 4475.51 4016.17 80.17 5.00 231.86 2369.25
   18:57:19.560.10-Nov-2020 4475.51 4016.25 80.17 5.00 232.06 2369.25
   18:57:19.760.10-Nov-2020 4475.51 4016.25 80.17 5.00 232.26 2369.25
   18:57:19.960.10-Nov-2020 4475.51 4016.37 80.17 5.00 232.46 2369.25
   18:57:20.160.10-Nov-2020 4475.51 4016.22 80.17 5.00 232.66 2369.25
   18:57:20.360.10-Nov-2020 4475.51 4016.30 80.17 5.00 232.86 2369.25
   18:57:20.560.10-Nov-2020 4475.51 4016.79 80.17 5.00 233.06 2369.25
   18:57:20.760.10-Nov-2020 4475.51 4016.79 80.17 5.00 233.26 2369.25
   18:57:20.960.10-Nov-2020 4475.51 4016.48 80.17 5.00 233.46 2369.25
   18:57:21.160.10-Nov-2020 4475.51 4016.57 80.17 5.00 233.66 2369.25
   18:57:21.360.10-Nov-2020 4475.51 4017.06 80.17 5.00 233.86 2369.25
   18:57:21.561.10-Nov-2020 4475.51 4016.48 80.17 5.00 234.06 2369.25
   18:57:21.761.10-Nov-2020 4475.51 4017.41 80.16 5.00 234.26 2369.25
   18:57:21.961.10-Nov-2020 4475.51 4017.55 80.16 5.00 234.46 2369.25
   18:57:22.161.10-Nov-2020 4475.51 4017.51 80.16 5.00 234.67 2369.25
   18:57:22.361.10-Nov-2020 4475.51 4017.19 80.16 5.00 234.87 2369.25
   18:57:22.561.10-Nov-2020 4475.51 4017.00 80.16 5.00 235.07 2369.25
   18:57:22.761.10-Nov-2020 4475.51 4017.00 80.16 5.00 235.27 2369.25
   18:57:22.961.10-Nov-2020 4475.51 4016.89 80.16 5.00 235.47 2369.25
   18:57:23.161.10-Nov-2020 4475.51 4016.87 80.16 5.00 235.67 2369.25
   18:57:23.361.10-Nov-2020 4475.51 4016.80 80.16 5.00 235.87 2369.25
   18:57:23.561.10-Nov-2020 4475.51 4016.81 80.16 5.00 236.07 2369.25
   18:57:23.761.10-Nov-2020 4475.51 4016.81 80.16 5.00 236.27 2369.25
   18:57:23.961.10-Nov-2020 4475.51 4016.74 80.16 5.00 236.47 2369.25
   18:57:24.161.10-Nov-2020 4475.51 4016.82 80.16 5.00 236.67 2369.25
   18:57:24.361.10-Nov-2020 4475.51 4016.79 80.16 5.00 236.87 2369.25
   18:57:24.561.10-Nov-2020 4475.51 4016.76 80.16 5.00 237.07 2369.25
   18:57:24.761.10-Nov-2020 4475.51 4016.76 80.16 5.00 237.27 2369.25
   18:57:24.961.10-Nov-2020 4475.51 4016.72 80.16 5.00 237.47 2369.25
   18:57:25.162.10-Nov-2020 4475.51 4016.63 80.16 5.00 237.67 2369.25
   18:57:25.362.10-Nov-2020 4475.51 4016.66 80.16 5.00 237.87 2369.25
   18:57:25.562.10-Nov-2020 4475.51 4016.71 80.16 5.00 238.07 2369.25
   18:57:25.762.10-Nov-2020 4475.51 4016.74 80.15 5.00 238.27 2369.25
   18:57:25.962.10-Nov-2020 4475.51 4016.71 80.15 5.00 238.47 2369.25
   18:57:26.162.10-Nov-2020 4475.51 4016.73 80.15 5.00 238.67 2369.25
   18:57:26.362.10-Nov-2020 4475.51 4016.80 80.15 5.00 238.87 2369.25
   18:57:26.562.10-Nov-2020 4475.51 4016.75 80.15 5.00 239.07 2369.25
   18:57:26.762.10-Nov-2020 4475.51 4016.75 80.15 5.00 239.27 2369.25
   18:57:26.962.10-Nov-2020 4475.51 4016.78 80.15 5.00 239.47 2369.25
   18:57:27.162.10-Nov-2020 4475.51 4016.90 80.15 5.00 239.67 2369.25
   18:57:27.362.10-Nov-2020 4475.51 4016.73 80.15 5.00 239.87 2369.25
   18:57:27.562.10-Nov-2020 4475.51 4016.72 80.15 5.00 240.07 2369.25
   18:57:27.762.10-Nov-2020 4475.51 4016.72 80.15 5.00 240.27 2369.25
   18:57:27.962.10-Nov-2020 4475.51 4016.67 80.15 5.00 240.47 2369.25
   18:57:28.162.10-Nov-2020 4475.51 4016.89 80.15 5.00 240.67 2369.25
   18:57:28.362.10-Nov-2020 4475.51 4016.73 80.15 5.00 240.87 2369.25
   18:57:28.562.10-Nov-2020 4475.51 4016.66 80.15 5.00 241.07 2369.25
   18:57:28.763.10-Nov-2020 4475.51 4016.66 80.15 5.00 241.27 2369.25
   18:57:28.963.10-Nov-2020 4475.51 4016.95 80.15 5.00 241.47 2369.25
   18:57:29.163.10-Nov-2020 4475.51 4016.80 80.15 5.00 241.67 2369.25
   18:57:29.363.10-Nov-2020 4475.51 4016.82 80.15 5.00 241.87 2369.25
   18:57:29.563.10-Nov-2020 4475.51 4017.02 80.15 5.00 242.07 2369.25
   18:57:29.763.10-Nov-2020 4475.51 4017.02 80.14 5.00 242.27 2369.25
   18:57:29.963.10-Nov-2020 4475.51 4016.66 80.14 5.00 242.47 2369.25
   18:57:30.163.10-Nov-2020 4475.51 4016.79 80.14 5.00 242.67 2369.25
   18:57:30.363.10-Nov-2020 4475.51 4016.88 80.14 5.00 242.87 2369.25
   18:57:30.563.10-Nov-2020 4475.51 4016.89 80.14 5.00 243.07 2369.25
   18:57:30.763.10-Nov-2020 4475.51 4016.89 80.14 5.00 243.27 2369.25
   18:57:30.963.10-Nov-2020 4475.51 4016.84 80.14 5.00 243.47 2369.25
   18:57:31.163.10-Nov-2020 4475.51 4016.86 80.14 5.00 243.67 2369.25
   18:57:31.363.10-Nov-2020 4475.51 4016.92 80.14 5.00 243.87 2369.25
   18:57:31.563.10-Nov-2020 4475.51 4016.99 80.14 5.00 244.07 2369.25
   18:57:31.763.10-Nov-2020 4475.51 4016.99 80.14 5.00 244.27 2369.25
   18:57:31.963.10-Nov-2020 4475.51 4016.96 80.14 5.00 244.47 2369.25
   18:57:32.163.10-Nov-2020 4475.51 4016.96 80.14 5.00 244.67 2369.25
   18:57:32.364.10-Nov-2020 4475.51 4016.90 80.14 5.00 244.87 2369.25
   18:57:32.564.10-Nov-2020 4475.51 4017.22 80.14 5.00 245.07 2369.25
   18:57:32.764.10-Nov-2020 4475.51 4017.22 80.14 5.00 245.27 2369.25
   18:57:32.964.10-Nov-2020 4475.51 4016.97 80.14 5.00 245.47 2369.25
   18:57:33.164.10-Nov-2020 4475.51 4016.90 80.14 5.00 245.67 2369.25
   18:57:33.364.10-Nov-2020 4475.51 4017.01 80.14 5.00 245.87 2369.25
   18:57:33.564.10-Nov-2020 4475.51 4016.94 80.14 5.00 246.07 2369.25
   18:57:33.764.10-Nov-2020 4475.51 4016.92 80.13 5.00 246.27 2369.25
   18:57:33.964.10-Nov-2020 4475.51 4016.98 80.13 5.00 246.47 2369.25
   18:57:34.164.10-Nov-2020 4475.51 4017.00 80.13 5.00 246.67 2369.25
   18:57:34.364.10-Nov-2020 4475.51 4017.01 80.13 5.00 246.87 2369.25
   18:57:34.564.10-Nov-2020 4475.51 4017.01 80.13 5.00 247.07 2369.25
   18:57:34.764.10-Nov-2020 4475.51 4017.01 80.13 5.00 247.27 2369.25
   18:57:34.964.10-Nov-2020 4475.51 4017.18 80.13 5.00 247.47 2369.25
   18:57:35.164.10-Nov-2020 4475.51 4017.21 80.13 5.00 247.67 2369.25
   18:57:35.364.10-Nov-2020 4475.51 4017.02 80.13 5.00 247.87 2369.25
   18:57:35.564.10-Nov-2020 4475.51 4017.18 80.13 5.00 248.07 2369.25
   18:57:35.764.10-Nov-2020 4475.51 4017.18 80.13 5.00 248.27 2369.25
   18:57:35.965.10-Nov-2020 4475.51 4016.93 80.13 5.00 248.47 2369.25
   18:57:36.165.10-Nov-2020 4475.51 4017.01 80.13 5.00 248.67 2369.25
   18:57:36.365.10-Nov-2020 4475.51 4017.07 80.13 5.00 248.87 2369.25
   18:57:36.565.10-Nov-2020 4475.51 4017.15 80.13 5.00 249.07 2369.25
   18:57:36.765.10-Nov-2020 4475.51 4017.15 80.13 5.00 249.27 2369.25
   18:57:36.965.10-Nov-2020 4475.51 4016.93 80.13 5.00 249.47 2369.25
   18:57:37.165.10-Nov-2020 4475.51 4017.04 80.13 5.00 249.67 2369.25
   18:57:37.365.10-Nov-2020 4475.51 4017.38 80.13 5.00 249.87 2369.25
   18:57:37.565.10-Nov-2020 4475.51 4017.07 80.13 5.00 250.07 2369.25
   18:57:37.765.10-Nov-2020 4475.51 4017.10 80.13 5.00 250.27 2369.25
   18:57:37.965.10-Nov-2020 4475.51 4017.15 80.12 5.00 250.47 2369.25
   18:57:38.165.10-Nov-2020 4475.51 4017.13 80.12 5.00 250.67 2369.25
   18:57:38.365.10-Nov-2020 4475.51 4017.06 80.12 5.00 250.87 2369.25
   18:57:38.565.10-Nov-2020 4475.51 4017.05 80.12 5.00 251.07 2369.25
   18:57:38.765.10-Nov-2020 4475.51 4017.05 80.12 5.00 251.27 2369.25
   18:57:38.965.10-Nov-2020 4475.51 4017.18 80.12 5.00 251.47 2369.25
   18:57:39.165.10-Nov-2020 4475.51 4017.13 80.12 5.00 251.67 2369.25
   18:57:39.365.10-Nov-2020 4475.51 4017.14 80.12 5.00 251.87 2369.25
   18:57:39.566.10-Nov-2020 4475.51 4017.23 80.12 5.00 252.07 2369.25
   18:57:39.766.10-Nov-2020 4475.51 4017.23 80.12 5.00 252.27 2369.25
   18:57:39.966.10-Nov-2020 4475.51 4017.23 80.12 5.00 252.47 2369.25
   18:57:40.166.10-Nov-2020 4475.51 4017.26 80.12 5.00 252.67 2369.25
   18:57:40.366.10-Nov-2020 4475.51 4017.28 80.12 5.00 252.87 2369.25
