~Version Information
 VERS.                  2.0:   CWLS log ASCII Standard -VERSION 2.0
 WRAP.                   NO:   One line per depth step
~Well Information Block
#MNEM.UNIT     VALUE/NAME     DESCRIPTION
#---------     -----------    ---------------------------
 STRT.S             21:54:12 08-Nov-20: START TIME 21:54:12 08-Nov-20
 STOP.S             22:00:43 08-Nov-20: STOP TIME  22:00:43 08-Nov-20
 STEP.S                   0.00: STEP TIME
 NULL.                 -999.25: NULL VALUE
 DFWT.                        :  DIST FWL TEXT
 DFST.                        :  DIST FSL TEXT
 DMF .             Drill Floor:  DRILL MEAS FROM
 STIM.      04.54.24 22-Sep-20:  START TIME
 DATE.      04.54.24 21-Nov-20:  END TIME
 SPUD.               21-Nov-20:  SPUD DATE
 NREF.                    Grid:  NORTH REFERENCE
 HPTY.       Minimum Curvature:  HOLE POS TYPE
 DMOD.             Drill Model:  DRILL MOD DESC
 SVYD.                  Survey:  SURVEY DESC
 ILTD.               Lithology:  INTERP LTH DESC
 FTOP.          Formation Tops:  FORM TOPS DESC
 SON .        AZ-XX-0906571587:  JOB NUMBER
 COMP.     BP Exploration (Caspian Sea) Ltd:  COMPANY
 UWI .                     N/A:  UNIQUE WELL IDENTIFIER
 API .                     N/A:  API NUMBER
 BASE.              Azerbaijan:  LOGGING EQUIPMENT BASE LOCATION
 REGN.                   EESSA:  REGION
 PROV.                    Baku:  PROVINCE
 STAT.                    Baku:  STATE NAME
 CTRY.              Azerbaijan:  COUNTRY NAME
 FLD .                     ACG:  FIELD NAME
 SRVC.     TURAN Drilling & Engineering:  CONTRACTOR
 WELL.                     J27:  WELL NAME
 RIG .             West Chirag:  RIG NAME
 DOE .                     N/A:  DOE NUMBER
 DCON.         Sperry Drilling:  DIRECTNL CONTR
 PDAT.          Mean Sea Level:  PERMANENT DATUM
 WTYP.                Deviated:  WELL TYPE
 MWDS.                    Baku:  MWD SHOP
 JOBN.        AZ-XX-0906571587:  JOB TICKET NUMB
 UNIT.                     N/A:  LOGGING EQUIPMENT ID
 MDS .        Operator Entered:  MAG DATA SOURCE
 CNTY.                        :  COUNTY
 LOC .                        :  LOCATION
 LMF .             Drill Floor:  LOG MEASURED FROM
 TVDS.m                  43.00:  TVDSS CORRECTN
 LATI.deg                40.13:  LATITUDE
 LONG.deg                51.22:  LONGITUDE
 WHNS.m                   7.72:  WELL HEAD N/S
 WHEW.m                 -14.24:  WELL HEAD E/W
 UTMX.m              519005.06:  UTM X
 UTMY.m             4443793.85:  UTM Y
 DFWL.m                   0.00:  DISTANCE FWL
 DFSL.m                   0.00:  DISTANCE FSL
 SDEP.m                 347.00:  START DEPTH
 TDD .m                 581.00:  TOTAL DEPTH (DRILLER)
 VSDR.deg               159.72:  VERT SEC DIRECT
 GVFD.g                   1.00:  GRAVITY FIELD
 MFLD.nT              50313.00:  MAGNETIC FIELD
 MDIP.deg                59.58:  MAGNETIC DIP
 MDEC.deg                 6.45:  MAGNETIC DECL
 GRDC.deg                 0.15:  GRID CORRECTION
 AZTC.deg                 6.30:  AZM TOTAL CORR
 EPD .m                   0.00:  ELEVATION
 EGL .m                   0.00:  GROUND ELEVATION
 WDMS.m                 169.80:  WD ELEV
 APD .m                  43.00:  DEPTH ABOVE PD
 AGAP.m                  43.00:  AIR GAP
 VSEW.m                 -14.24:  VERT SEC E/W
 VSNS.m                   7.72:  VERT SEC N/S
 DEP .m                 342.45:  DEPTH
 EKB .m                   0.00:  KB ELEVATION
 EDF .m                  43.00:  DF ELEVATION
 TDL .m                1313.00:  TOTAL DEPTH (LOGGER)
 VSC .                       0:  VS TO CLOSURE
 MAGU.                 1851396:  MAGUTM CHECKSUM
~Parameter Information Block
#MNEM.UNIT       Value        Description
#---------     -----------    ---------------------------
 AV  .mps                 0.65:  Ann Velocity 
 AVMX.mps                 0.75:  Max Ann Veloc 
 AZIF.deg               115.08:  Azm, Final 
 BHAT.        Rotary Steerable:  BHA Type 
 BROT.∞/30m               1.50:  Build Rotating 
 BS  .in                 12.25:  Bit Size 
 BSZ .in                 12.25:  Bit Size 
 BTPL.psig              700.00:  Bit Press Loss 
 CABU.                     Yes:  Customer Abuse 
 COMM.                     „J:  Run Comments 1 
 TCS .hr                121.00:  Time Ciculation Ended 
 CV  .mps                 1.83:  Crit Velocity 
 CVMX.mps                 1.83:  Max Crit Veloc 
 DD1 .          Rashad Habibov:  Direct Drillr 1 
 DD2 .         Rasim Ibrahimov:  Direct Drillr 2 
 DDSV.                 iCruise:  DD Service 
 DEFF.%                 100.00:  % Det Eff 
 DLRX.∞/30m               3.60:  Dogleg Rot Max 
 DLSO.∞/30m               3.10:  Dogleg Oriented 
 DLSX.∞/30m               3.60:  Dogleg Str Max 
 DRET.      13.41.20 12-Nov-20:  Drill End Time 
 DRST.      13.41.20 07-Nov-20:  Drill Start Tim 
 DTIM.hr                 54.16:  Time Drilling 
 EDEP.m                4762.01:  End Depth 
 ENG1.           Amrah Tahirov:  Engineer 1 
 ENG2.      Bakhtiyar Jabbarli:  Engineer 2 
 ENG3.          Ruslan Safarov:  Engineer 3 
 ETIM.      13.41.20 14-Nov-20:  End Time 
 FLOI.gpm              1200.00:  Flow In 
 FLON.gpm              1100.00:  Flow In Min 
 FLOS.cptm                0.00:  Fluid Loss 
 FLOX.gpm              1200.00:  Flow In Max 
 HFLO.                      No:  High Flow 
 HPRE.                      No:  High Pressure 
 HTEM.                      No:  High Temp 
 HYDO.m                   2.00:  Hydro Offset 
 IFIN.deg                66.14:  Inc, Final 
 IMAX.deg                69.03:  Inc Max 
 IMIN.deg                64.64:  Inc Min 
 IMND.m                4450.16:  Inc Min Depth 
 IMXD.m                3996.00:  Inc Max Depth 
 JARR.                     Yes:  Jarring 
 LETM.      13.41.20 14-Nov-20:  Log End Time 
 LOST.hr                     0:  Lost Rig Time 
 LSTM.      13.41.20 06-Nov-20:  Log Start Time 
 MDCL.ppm             42500.00:  Mud Chlorides 
 MDES.     Inversion Oil/Synthetic:  Mud Desc 
 DFD .sg                  1.45:  Mud Density 
 MDMN.sg                  1.45:  Dens Mud Min 
 MDMX.sg                  1.45:  Dens Mud Max 
 MOIL.                      70:  Run Mud Oil % 
 MOWR.                   70:30:  Run Mud OWR 
 MSND.                       0:  Run Mud Sand % 
 MSOL.                    19.3:  Run Mud Solids% 
 DFV .spqt               77.00:  Mud Viscosity 
 MWOD.in                  8.00:  MWD Tool OD 
 MWSI.                      No:  Serv Intrp, MWD 
 OTIM.hr                201.88:  Time Operating 
 PCON.           Look Like New:  Pad Condition 
 PMAX.psia             9250.94:  Press Op, Max 
 PV  .cP                 29.00:  Mud PV 
 RUN .                     800:  Run Number 
 ROPA.m/hr               28.00:  ROP Avg 
 ROPN.m/hr               25.00:  ROP Min 
 ROPX.m/hr               30.00:  ROP Max 
 RPMA.rpm               160.00:  RPM Surface Avg 
 RPMN.rpm               160.00:  RPM Surface Min 
 RPMX.rpm               160.00:  RPM Surface Max 
 RRUN.                    0800:  Rig Run Number 
 RTIM.hr                 12.00:  Time Reaming 
 SAZI.deg               169.33:  Azm, Start 
 SDEP.m                3449.01:  Start Depth 
 SIDD.                      No:  Serv Intrp, DD 
 SINC.deg                68.01:  Inc, Start 
 SPPA.psig             4900.00:  SPP Avg 
 SPPN.psig             4800.00:  SPP Min 
 SPPX.psig             5050.00:  SPP Max 
 STIM.      13.41.20 06-Nov-20:  Start Time 
 SVCS.                 DD, MWD:  Services 
 SVER.                    9.20:  Sperry Version 
 TDAT.m                4762.01:  Tot Depth Attmp 
 TDDF.                      No:  Trip for DD 
 TDLG.m                1313.00:  Tot Depth Loggd 
 TFF .                      No:  Trip for Fail 
 TQAA.f-kp               13.00:  Torque Abs Avg 
 TQAN.f-kp               13.00:  Torque Abs Min 
 TQAX.f-kp               13.00:  Torque Abs Max 
 TRRT.∞/30m               1.70:  Turn Rotating 
 MRT .                  EWR-M5:  Maximum Recorded Temperature 
 TTMX.degC               86.00:  Max Tool Temp 
 VS01.                90622122:  Virtual Str1 SN 
 VS02.                90577298:  Virtual Str2 SN 
 VS03.                90563623:  Virtual Str3 SN 
 VS04.                90617559:  Virtual Str4 SN 
 VS05.                11339492:  Virtual Str5 SN 
 VS06.                12385033:  Virtual Str6 SN 
 WBMN.klb                 0.00:  WOB Min 
 WOBA.klb                22.00:  WOB Avg 
 WOBX.klb                26.00:  WOB Max 
 YP  .lhf2               30.00:  Yield Point 
~Curve Information Block
#MNEM.UNIT                 API CODE     Curve Description
#---------               -----------    ---------------------------
 TIME.HHMMSS            00 000 000 000:  GT Time & Date
 GTDEPTH.m              00 000 000 000:  GT Depth
 GTPQH.psia             00 000 000 000:  GT HR Quartz Pressure
 GTTQ.degC              00 000 000 000:  GT Quartz Temperature
 GTTN.NONE              00 000 000 000:  GT Test Number
 GTET.sec               00 000 000 000:  GT Elapsed Test Time
 GTTVD.m                00 000 000 000:  GT True Vertical Depth
#Other Information
#
#WARRANTY: Halliburton will use its best efforts to furnish customers with 
#accurate information and interpretations that are part of, and incident to, the services 
#provided.  However, Halliburton cannot and does not warrant the accuracy 
#or correctness of such information and interpretations.  Under no circumstances should any 
#such information or interpretation be relied upon as the sole basis for any drilling, 
#completion, production, or financial decision or any procedure involving any risk to the 
#safety of any drilling venture, drilling rig or its crew or any other third party.  The 
#Customer has full responsibility for all drilling, completion and production operation.  
#Halliburton makes no representations or warranties, either expressed or 
#implied, including, but not limited to, the implied warranties of merchantability or fitness 
#for a particular purpose, with respect to the services rendered.  In no event will 
#Halliburton be liable for failure to obtain any particular results or for 
#any damages, including, but not limited to, indirect, special or consequential damages, 
#resulting from the use of any information or interpretation provided by Halliburton.
#
~A           TIME           GTDEPTH  GTPQH  GTTQ  GTTN  GTET   GTTVD  
# ...
   21:59:11.719.08-Nov-2020 3686.01 3544.20 71.34 4.00 299.07 2071.13
   21:59:11.919.08-Nov-2020 3686.01 3544.20 71.34 4.00 299.27 2071.13
   21:59:12.119.08-Nov-2020 3686.01 3544.16 71.34 4.00 299.47 2071.13
   21:59:12.319.08-Nov-2020 3686.01 3544.15 71.34 4.00 299.67 2071.13
   21:59:12.519.08-Nov-2020 3686.01 3544.15 71.34 4.00 299.87 2071.13
   21:59:12.720.08-Nov-2020 3686.01 3544.18 71.34 4.00 300.07 2071.13
   21:59:12.920.08-Nov-2020 3686.01 3544.18 71.34 4.00 300.27 2071.13
   21:59:13.120.08-Nov-2020 3686.01 3544.15 71.34 4.00 300.47 2071.13
   21:59:13.320.08-Nov-2020 3686.01 3544.16 71.34 4.00 300.67 2071.13
   21:59:13.520.08-Nov-2020 3686.01 3544.13 71.33 4.00 300.87 2071.13
   21:59:13.720.08-Nov-2020 3686.01 3544.19 71.33 4.00 301.07 2071.13
   21:59:13.920.08-Nov-2020 3686.01 3544.15 71.33 4.00 301.27 2071.13
   21:59:14.120.08-Nov-2020 3686.01 3544.15 71.33 4.00 301.47 2071.13
   21:59:14.320.08-Nov-2020 3686.01 3544.19 71.33 4.00 301.67 2071.13
   21:59:14.520.08-Nov-2020 3686.01 3544.13 71.33 4.00 301.87 2071.13
   21:59:14.720.08-Nov-2020 3686.01 3544.18 71.33 4.00 302.07 2071.13
   21:59:14.920.08-Nov-2020 3686.01 3544.19 71.33 4.00 302.27 2071.13
   21:59:15.120.08-Nov-2020 3686.01 3544.15 71.33 4.00 302.47 2071.13
   21:59:15.320.08-Nov-2020 3686.01 3544.17 71.33 4.00 302.67 2071.13
   21:59:15.520.08-Nov-2020 3686.01 3544.15 71.33 4.00 302.87 2071.13
   21:59:15.720.08-Nov-2020 3686.01 3544.14 71.32 4.00 303.07 2071.13
   21:59:15.920.08-Nov-2020 3686.01 3544.12 71.32 4.00 303.27 2071.13
   21:59:16.120.08-Nov-2020 3686.01 3544.11 71.32 4.00 303.47 2071.13
   21:59:16.320.08-Nov-2020 3686.01 3544.12 71.32 4.00 303.67 2071.13
   21:59:16.520.08-Nov-2020 3686.01 3544.10 71.32 4.00 303.87 2071.13
   21:59:16.720.08-Nov-2020 3686.01 3544.10 71.32 4.00 304.07 2071.13
   21:59:16.920.08-Nov-2020 3686.01 3544.10 71.32 4.00 304.27 2071.13
   21:59:17.120.08-Nov-2020 3686.01 3544.09 71.32 4.00 304.47 2071.13
   21:59:17.321.08-Nov-2020 3686.01 3544.02 71.32 4.00 304.67 2071.13
   21:59:17.521.08-Nov-2020 3686.01 3544.20 71.32 4.00 304.87 2071.13
   21:59:17.721.08-Nov-2020 3686.01 3544.15 71.32 4.00 305.07 2071.13
   21:59:17.921.08-Nov-2020 3686.01 3544.17 71.31 4.00 305.27 2071.13
   21:59:18.121.08-Nov-2020 3686.01 3544.15 71.31 4.00 305.47 2071.13
   21:59:18.321.08-Nov-2020 3686.01 3544.11 71.31 4.00 305.67 2071.13
   21:59:18.521.08-Nov-2020 3686.01 3544.13 71.31 4.00 305.87 2071.13
   21:59:18.721.08-Nov-2020 3686.01 3544.11 71.31 4.00 306.07 2071.13
   21:59:18.921.08-Nov-2020 3686.01 3544.11 71.31 4.00 306.27 2071.13
   21:59:19.121.08-Nov-2020 3686.01 3544.09 71.31 4.00 306.47 2071.13
   21:59:19.321.08-Nov-2020 3686.01 3544.08 71.31 4.00 306.67 2071.13
   21:59:19.521.08-Nov-2020 3686.01 3544.09 71.31 4.00 306.87 2071.13
   21:59:19.721.08-Nov-2020 3686.01 3544.08 71.31 4.00 307.07 2071.13
   21:59:19.921.08-Nov-2020 3686.01 3544.06 71.30 4.00 307.27 2071.13
   21:59:20.121.08-Nov-2020 3686.01 3544.15 71.30 4.00 307.47 2071.13
   21:59:20.321.08-Nov-2020 3686.01 3544.16 71.30 4.00 307.67 2071.13
   21:59:20.521.08-Nov-2020 3686.01 3544.15 71.30 4.00 307.87 2071.13
   21:59:20.721.08-Nov-2020 3686.01 3544.19 71.30 4.00 308.07 2071.13
   21:59:20.921.08-Nov-2020 3686.01 3544.17 71.30 4.00 308.27 2071.13
   21:59:21.121.08-Nov-2020 3686.01 3544.15 71.30 4.00 308.47 2071.13
   21:59:21.321.08-Nov-2020 3686.01 3544.10 71.30 4.00 308.67 2071.13
   21:59:21.521.08-Nov-2020 3686.01 3544.23 71.30 4.00 308.87 2071.13
   21:59:21.722.08-Nov-2020 3686.01 3544.17 71.30 4.00 309.07 2071.13
   21:59:21.922.08-Nov-2020 3686.01 3544.17 71.30 4.00 309.27 2071.13
   21:59:22.122.08-Nov-2020 3686.01 3544.17 71.29 4.00 309.47 2071.13
   21:59:22.322.08-Nov-2020 3686.01 3544.09 71.29 4.00 309.67 2071.13
   21:59:22.522.08-Nov-2020 3686.01 3544.21 71.29 4.00 309.87 2071.13
   21:59:22.722.08-Nov-2020 3686.01 3544.18 71.29 4.00 310.07 2071.13
   21:59:22.922.08-Nov-2020 3686.01 3544.18 71.29 4.00 310.27 2071.13
   21:59:23.122.08-Nov-2020 3686.01 3544.16 71.29 4.00 310.47 2071.13
   21:59:23.322.08-Nov-2020 3686.01 3544.17 71.29 4.00 310.67 2071.13
   21:59:23.522.08-Nov-2020 3686.01 3544.12 71.29 4.00 310.87 2071.13
   21:59:23.722.08-Nov-2020 3686.01 3544.22 71.29 4.00 311.07 2071.13
   21:59:23.922.08-Nov-2020 3686.01 3544.18 71.29 4.00 311.27 2071.13
   21:59:24.122.08-Nov-2020 3686.01 3544.15 71.29 4.00 311.47 2071.13
   21:59:24.322.08-Nov-2020 3686.01 3544.16 71.28 4.00 311.67 2071.13
   21:59:24.522.08-Nov-2020 3686.01 3544.14 71.28 4.00 311.87 2071.13
   21:59:24.722.08-Nov-2020 3686.01 3544.13 71.28 4.00 312.07 2071.13
   21:59:24.922.08-Nov-2020 3686.01 3544.12 71.28 4.00 312.27 2071.13
   21:59:25.122.08-Nov-2020 3686.01 3544.11 71.28 4.00 312.47 2071.13
   21:59:25.322.08-Nov-2020 3686.01 3544.11 71.28 4.00 312.67 2071.13
   21:59:25.522.08-Nov-2020 3686.01 3544.10 71.28 4.00 312.87 2071.13
   21:59:25.722.08-Nov-2020 3686.01 3544.10 71.28 4.00 313.07 2071.13
   21:59:25.922.08-Nov-2020 3686.01 3544.10 71.28 4.00 313.27 2071.13
   21:59:26.122.08-Nov-2020 3686.01 3544.09 71.28 4.00 313.47 2071.13
   21:59:26.323.08-Nov-2020 3686.01 3544.09 71.27 4.00 313.67 2071.13
   21:59:26.523.08-Nov-2020 3686.01 3544.18 71.27 4.00 313.87 2071.13
   21:59:26.723.08-Nov-2020 3686.01 3544.16 71.27 4.00 314.07 2071.13
   21:59:26.923.08-Nov-2020 3686.01 3544.16 71.27 4.00 314.27 2071.13
   21:59:27.123.08-Nov-2020 3686.01 3544.14 71.27 4.00 314.47 2071.13
   21:59:27.323.08-Nov-2020 3686.01 3544.13 71.27 4.00 314.67 2071.13
   21:59:27.523.08-Nov-2020 3686.01 3544.11 71.27 4.00 314.87 2071.13
   21:59:27.723.08-Nov-2020 3686.01 3544.11 71.27 4.00 315.07 2071.13
   21:59:27.923.08-Nov-2020 3686.01 3544.11 71.27 4.00 315.27 2071.13
   21:59:28.123.08-Nov-2020 3686.01 3544.08 71.27 4.00 315.47 2071.13
   21:59:28.323.08-Nov-2020 3686.01 3544.09 71.27 4.00 315.67 2071.13
   21:59:28.523.08-Nov-2020 3686.01 3544.09 71.26 4.00 315.87 2071.13
   21:59:28.723.08-Nov-2020 3686.01 3544.08 71.26 4.00 316.07 2071.13
   21:59:28.923.08-Nov-2020 3686.01 3544.08 71.26 4.00 316.27 2071.13
   21:59:29.123.08-Nov-2020 3686.01 3544.15 71.26 4.00 316.47 2071.13
   21:59:29.323.08-Nov-2020 3686.01 3544.16 71.26 4.00 316.67 2071.13
   21:59:29.523.08-Nov-2020 3686.01 3544.16 71.26 4.00 316.87 2071.13
   21:59:29.723.08-Nov-2020 3686.01 3544.19 71.26 4.00 317.07 2071.13
   21:59:29.923.08-Nov-2020 3686.01 3544.19 71.26 4.00 317.27 2071.13
   21:59:30.123.08-Nov-2020 3686.01 3544.15 71.26 4.00 317.47 2071.13
   21:59:30.323.08-Nov-2020 3686.01 3544.11 71.26 4.00 317.67 2071.13
   21:59:30.523.08-Nov-2020 3686.01 3544.23 71.26 4.00 317.87 2071.13
   21:59:30.724.08-Nov-2020 3686.01 3544.17 71.25 4.00 318.07 2071.13
   21:59:30.924.08-Nov-2020 3686.01 3544.17 71.25 4.00 318.27 2071.13
   21:59:31.124.08-Nov-2020 3686.01 3544.16 71.25 4.00 318.47 2071.13
   21:59:31.324.08-Nov-2020 3686.01 3544.06 71.25 4.00 318.67 2071.13
   21:59:31.524.08-Nov-2020 3686.01 3544.21 71.25 4.00 318.87 2071.13
   21:59:31.724.08-Nov-2020 3686.01 3544.17 71.25 4.00 319.07 2071.13
   21:59:31.924.08-Nov-2020 3686.01 3544.17 71.25 4.00 319.27 2071.13
   21:59:32.124.08-Nov-2020 3686.01 3544.18 71.25 4.00 319.47 2071.13
   21:59:32.324.08-Nov-2020 3686.01 3544.14 71.25 4.00 319.67 2071.13
   21:59:32.524.08-Nov-2020 3686.01 3544.15 71.25 4.00 319.87 2071.13
   21:59:32.724.08-Nov-2020 3686.01 3544.21 71.24 4.00 320.07 2071.13
   21:59:32.924.08-Nov-2020 3686.01 3544.21 71.24 4.00 320.27 2071.13
   21:59:33.124.08-Nov-2020 3686.01 3544.16 71.24 4.00 320.47 2071.13
   21:59:33.324.08-Nov-2020 3686.01 3544.17 71.24 4.00 320.67 2071.13
   21:59:33.524.08-Nov-2020 3686.01 3544.14 71.24 4.00 320.87 2071.13
   21:59:33.724.08-Nov-2020 3686.01 3544.13 71.24 4.00 321.07 2071.13
   21:59:33.924.08-Nov-2020 3686.01 3544.13 71.24 4.00 321.27 2071.13
   21:59:34.124.08-Nov-2020 3686.01 3544.12 71.24 4.00 321.47 2071.13
   21:59:34.324.08-Nov-2020 3686.01 3544.12 71.24 4.00 321.67 2071.13
   21:59:34.524.08-Nov-2020 3686.01 3544.10 71.24 4.00 321.87 2071.13
