~Version Information
 VERS.                  2.0:   CWLS log ASCII Standard -VERSION 2.0
 WRAP.                   NO:   One line per depth step
~Well Information Block
#MNEM.UNIT     VALUE/NAME     DESCRIPTION
#---------     -----------    ---------------------------
 STRT.S             06:45:19 11-Nov-20: START TIME 06:45:19 11-Nov-20
 STOP.S             06:51:53 11-Nov-20: STOP TIME  06:51:53 11-Nov-20
 STEP.S                   0.00: STEP TIME
 NULL.                 -999.25: NULL VALUE
 DFWT.                        :  DIST FWL TEXT
 DFST.                        :  DIST FSL TEXT
 DMF .             Drill Floor:  DRILL MEAS FROM
 STIM.      04.54.24 22-Sep-20:  START TIME
 DATE.      04.54.24 21-Nov-20:  END TIME
 SPUD.               21-Nov-20:  SPUD DATE
 NREF.                    Grid:  NORTH REFERENCE
 HPTY.       Minimum Curvature:  HOLE POS TYPE
 DMOD.             Drill Model:  DRILL MOD DESC
 SVYD.                  Survey:  SURVEY DESC
 ILTD.               Lithology:  INTERP LTH DESC
 FTOP.          Formation Tops:  FORM TOPS DESC
 SON .        AZ-XX-0906571587:  JOB NUMBER
 COMP.     BP Exploration (Caspian Sea) Ltd:  COMPANY
 UWI .                     N/A:  UNIQUE WELL IDENTIFIER
 API .                     N/A:  API NUMBER
 BASE.              Azerbaijan:  LOGGING EQUIPMENT BASE LOCATION
 REGN.                   EESSA:  REGION
 PROV.                    Baku:  PROVINCE
 STAT.                    Baku:  STATE NAME
 CTRY.              Azerbaijan:  COUNTRY NAME
 FLD .                     ACG:  FIELD NAME
 SRVC.     TURAN Drilling & Engineering:  CONTRACTOR
 WELL.                     J27:  WELL NAME
 RIG .             West Chirag:  RIG NAME
 DOE .                     N/A:  DOE NUMBER
 DCON.         Sperry Drilling:  DIRECTNL CONTR
 PDAT.          Mean Sea Level:  PERMANENT DATUM
 WTYP.                Deviated:  WELL TYPE
 MWDS.                    Baku:  MWD SHOP
 JOBN.        AZ-XX-0906571587:  JOB TICKET NUMB
 UNIT.                     N/A:  LOGGING EQUIPMENT ID
 MDS .        Operator Entered:  MAG DATA SOURCE
 CNTY.                        :  COUNTY
 LOC .                        :  LOCATION
 LMF .             Drill Floor:  LOG MEASURED FROM
 TVDS.m                  43.00:  TVDSS CORRECTN
 LATI.deg                40.13:  LATITUDE
 LONG.deg                51.22:  LONGITUDE
 WHNS.m                   7.72:  WELL HEAD N/S
 WHEW.m                 -14.24:  WELL HEAD E/W
 UTMX.m              519005.06:  UTM X
 UTMY.m             4443793.85:  UTM Y
 DFWL.m                   0.00:  DISTANCE FWL
 DFSL.m                   0.00:  DISTANCE FSL
 SDEP.m                 347.00:  START DEPTH
 TDD .m                 581.00:  TOTAL DEPTH (DRILLER)
 VSDR.deg               159.72:  VERT SEC DIRECT
 GVFD.g                   1.00:  GRAVITY FIELD
 MFLD.nT              50313.00:  MAGNETIC FIELD
 MDIP.deg                59.58:  MAGNETIC DIP
 MDEC.deg                 6.45:  MAGNETIC DECL
 GRDC.deg                 0.15:  GRID CORRECTION
 AZTC.deg                 6.30:  AZM TOTAL CORR
 EPD .m                   0.00:  ELEVATION
 EGL .m                   0.00:  GROUND ELEVATION
 WDMS.m                 169.80:  WD ELEV
 APD .m                  43.00:  DEPTH ABOVE PD
 AGAP.m                  43.00:  AIR GAP
 VSEW.m                 -14.24:  VERT SEC E/W
 VSNS.m                   7.72:  VERT SEC N/S
 DEP .m                 342.45:  DEPTH
 EKB .m                   0.00:  KB ELEVATION
 EDF .m                  43.00:  DF ELEVATION
 TDL .m                1313.00:  TOTAL DEPTH (LOGGER)
 VSC .                       0:  VS TO CLOSURE
 MAGU.                 1851396:  MAGUTM CHECKSUM
~Parameter Information Block
#MNEM.UNIT       Value        Description
#---------     -----------    ---------------------------
 AV  .mps                 0.65:  Ann Velocity 
 AVMX.mps                 0.75:  Max Ann Veloc 
 AZIF.deg               115.08:  Azm, Final 
 BHAT.        Rotary Steerable:  BHA Type 
 BROT.°/30m               1.50:  Build Rotating 
 BS  .in                 12.25:  Bit Size 
 BSZ .in                 12.25:  Bit Size 
 BTPL.psig              700.00:  Bit Press Loss 
 CABU.                     Yes:  Customer Abuse 
 COMM.                     LNw:  Run Comments 1 
 TCS .hr                121.00:  Time Ciculation Ended 
 CV  .mps                 1.83:  Crit Velocity 
 CVMX.mps                 1.83:  Max Crit Veloc 
 DD1 .          Rashad Habibov:  Direct Drillr 1 
 DD2 .         Rasim Ibrahimov:  Direct Drillr 2 
 DDSV.                 iCruise:  DD Service 
 DEFF.%                 100.00:  % Det Eff 
 DLRX.°/30m               3.60:  Dogleg Rot Max 
 DLSO.°/30m               3.10:  Dogleg Oriented 
 DLSX.°/30m               3.60:  Dogleg Str Max 
 DRET.      13.41.20 12-Nov-20:  Drill End Time 
 DRST.      13.41.20 07-Nov-20:  Drill Start Tim 
 DTIM.hr                 54.16:  Time Drilling 
 EDEP.m                4762.01:  End Depth 
 ENG1.           Amrah Tahirov:  Engineer 1 
 ENG2.      Bakhtiyar Jabbarli:  Engineer 2 
 ENG3.          Ruslan Safarov:  Engineer 3 
 ETIM.      13.41.20 14-Nov-20:  End Time 
 FLOI.gpm              1200.00:  Flow In 
 FLON.gpm              1100.00:  Flow In Min 
 FLOS.cptm                0.00:  Fluid Loss 
 FLOX.gpm              1200.00:  Flow In Max 
 HFLO.                      No:  High Flow 
 HPRE.                      No:  High Pressure 
 HTEM.                      No:  High Temp 
 HYDO.m                   2.00:  Hydro Offset 
 IFIN.deg                66.14:  Inc, Final 
 IMAX.deg                69.03:  Inc Max 
 IMIN.deg                64.64:  Inc Min 
 IMND.m                4450.16:  Inc Min Depth 
 IMXD.m                3996.00:  Inc Max Depth 
 JARR.                     Yes:  Jarring 
 LETM.      13.41.20 14-Nov-20:  Log End Time 
 LOST.hr                     0:  Lost Rig Time 
 LSTM.      13.41.20 06-Nov-20:  Log Start Time 
 MDCL.ppm             42500.00:  Mud Chlorides 
 MDES.     Inversion Oil/Synthetic:  Mud Desc 
 DFD .sg                  1.45:  Mud Density 
 MDMN.sg                  1.45:  Dens Mud Min 
 MDMX.sg                  1.45:  Dens Mud Max 
 MOIL.                      70:  Run Mud Oil % 
 MOWR.                   70:30:  Run Mud OWR 
 MSND.                       0:  Run Mud Sand % 
 MSOL.                    19.3:  Run Mud Solids% 
 DFV .spqt               77.00:  Mud Viscosity 
 MWOD.in                  8.00:  MWD Tool OD 
 MWSI.                      No:  Serv Intrp, MWD 
 OTIM.hr                201.88:  Time Operating 
 PCON.           Look Like New:  Pad Condition 
 PMAX.psia             9250.94:  Press Op, Max 
 PV  .cP                 29.00:  Mud PV 
 RUN .                     800:  Run Number 
 ROPA.m/hr               28.00:  ROP Avg 
 ROPN.m/hr               25.00:  ROP Min 
 ROPX.m/hr               30.00:  ROP Max 
 RPMA.rpm               160.00:  RPM Surface Avg 
 RPMN.rpm               160.00:  RPM Surface Min 
 RPMX.rpm               160.00:  RPM Surface Max 
 RRUN.                    0800:  Rig Run Number 
 RTIM.hr                 12.00:  Time Reaming 
 SAZI.deg               169.33:  Azm, Start 
 SDEP.m                3449.01:  Start Depth 
 SIDD.                      No:  Serv Intrp, DD 
 SINC.deg                68.01:  Inc, Start 
 SPPA.psig             4900.00:  SPP Avg 
 SPPN.psig             4800.00:  SPP Min 
 SPPX.psig             5050.00:  SPP Max 
 STIM.      13.41.20 06-Nov-20:  Start Time 
 SVCS.                 DD, MWD:  Services 
 SVER.                    9.20:  Sperry Version 
 TDAT.m                4762.01:  Tot Depth Attmp 
 TDDF.                      No:  Trip for DD 
 TDLG.m                1313.00:  Tot Depth Loggd 
 TFF .                      No:  Trip for Fail 
 TQAA.f-kp               13.00:  Torque Abs Avg 
 TQAN.f-kp               13.00:  Torque Abs Min 
 TQAX.f-kp               13.00:  Torque Abs Max 
 TRRT.°/30m               1.70:  Turn Rotating 
 MRT .                  EWR-M5:  Maximum Recorded Temperature 
 TTMX.degC               86.00:  Max Tool Temp 
 VS01.                90622122:  Virtual Str1 SN 
 VS02.                90577298:  Virtual Str2 SN 
 VS03.                90563623:  Virtual Str3 SN 
 VS04.                90617559:  Virtual Str4 SN 
 VS05.                11339492:  Virtual Str5 SN 
 VS06.                12385033:  Virtual Str6 SN 
 WBMN.klb                 0.00:  WOB Min 
 WOBA.klb                22.00:  WOB Avg 
 WOBX.klb                26.00:  WOB Max 
 YP  .lhf2               30.00:  Yield Point 
~Curve Information Block
#MNEM.UNIT                 API CODE     Curve Description
#---------               -----------    ---------------------------
 TIME.HHMMSS            00 000 000 000:  GT Time & Date
 GTDEPTH.m              00 000 000 000:  GT Depth
 GTPQH.psia             00 000 000 000:  GT HR Quartz Pressure
 GTTQ.degC              00 000 000 000:  GT Quartz Temperature
 GTTN.NONE              00 000 000 000:  GT Test Number
 GTET.sec               00 000 000 000:  GT Elapsed Test Time
 GTTVD.m                00 000 000 000:  GT True Vertical Depth
#Other Information
#
#WARRANTY: Halliburton will use its best efforts to furnish customers with 
#accurate information and interpretations that are part of, and incident to, the services 
#provided.  However, Halliburton cannot and does not warrant the accuracy 
#or correctness of such information and interpretations.  Under no circumstances should any 
#such information or interpretation be relied upon as the sole basis for any drilling, 
#completion, production, or financial decision or any procedure involving any risk to the 
#safety of any drilling venture, drilling rig or its crew or any other third party.  The 
#Customer has full responsibility for all drilling, completion and production operation.  
#Halliburton makes no representations or warranties, either expressed or 
#implied, including, but not limited to, the implied warranties of merchantability or fitness 
#for a particular purpose, with respect to the services rendered.  In no event will 
#Halliburton be liable for failure to obtain any particular results or for 
#any damages, including, but not limited to, indirect, special or consequential damages, 
#resulting from the use of any information or interpretation provided by Halliburton.
#
~A           TIME           GTDEPTH  GTPQH  GTTQ  GTTN  GTET   GTTVD  
# ...
   06:48:46.455.11-Nov-2020 4617.01 4135.50 79.49 8.00 207.07 2426.59
   06:48:46.655.11-Nov-2020 4617.01 4135.50 79.49 8.00 207.27 2426.59
   06:48:46.855.11-Nov-2020 4617.01 4135.35 79.49 8.00 207.47 2426.59
   06:48:47.055.11-Nov-2020 4617.01 4135.60 79.49 8.00 207.67 2426.59
   06:48:47.255.11-Nov-2020 4617.01 4135.49 79.49 8.00 207.87 2426.59
   06:48:47.455.11-Nov-2020 4617.01 4135.60 79.49 8.00 208.07 2426.59
   06:48:47.655.11-Nov-2020 4617.01 4135.50 79.49 8.00 208.27 2426.59
   06:48:47.855.11-Nov-2020 4617.01 4135.66 79.49 8.00 208.47 2426.59
   06:48:48.055.11-Nov-2020 4617.01 4135.62 79.49 8.00 208.67 2426.59
   06:48:48.255.11-Nov-2020 4617.01 4135.57 79.49 8.00 208.87 2426.59
   06:48:48.455.11-Nov-2020 4617.01 4135.53 79.49 8.00 209.07 2426.59
   06:48:48.655.11-Nov-2020 4617.01 4135.60 79.49 8.00 209.27 2426.59
   06:48:48.855.11-Nov-2020 4617.01 4135.61 79.48 8.00 209.47 2426.59
   06:48:49.055.11-Nov-2020 4617.01 4135.55 79.48 8.00 209.67 2426.59
   06:48:49.255.11-Nov-2020 4617.01 4135.58 79.48 8.00 209.87 2426.59
   06:48:49.456.11-Nov-2020 4617.01 4135.57 79.48 8.00 210.07 2426.59
   06:48:49.656.11-Nov-2020 4617.01 4135.57 79.48 8.00 210.27 2426.59
   06:48:49.856.11-Nov-2020 4617.01 4135.55 79.48 8.00 210.47 2426.59
   06:48:50.056.11-Nov-2020 4617.01 4135.58 79.48 8.00 210.67 2426.59
   06:48:50.256.11-Nov-2020 4617.01 4135.59 79.48 8.00 210.87 2426.59
   06:48:50.456.11-Nov-2020 4617.01 4135.78 79.48 8.00 211.07 2426.59
   06:48:50.656.11-Nov-2020 4617.01 4135.34 79.48 8.00 211.27 2426.59
   06:48:50.856.11-Nov-2020 4617.01 4135.56 79.48 8.00 211.47 2426.59
   06:48:51.056.11-Nov-2020 4617.01 4135.49 79.48 8.00 211.67 2426.59
   06:48:51.256.11-Nov-2020 4617.01 4135.63 79.48 8.00 211.87 2426.59
   06:48:51.456.11-Nov-2020 4617.01 4135.58 79.47 8.00 212.07 2426.59
   06:48:51.656.11-Nov-2020 4617.01 4135.58 79.47 8.00 212.27 2426.59
   06:48:51.856.11-Nov-2020 4617.01 4135.58 79.47 8.00 212.47 2426.59
   06:48:52.056.11-Nov-2020 4617.01 4135.53 79.47 8.00 212.67 2426.59
   06:48:52.256.11-Nov-2020 4617.01 4135.53 79.47 8.00 212.87 2426.59
   06:48:52.456.11-Nov-2020 4617.01 4135.56 79.47 8.00 213.07 2426.59
   06:48:52.657.11-Nov-2020 4617.01 4135.56 79.47 8.00 213.27 2426.59
   06:48:52.857.11-Nov-2020 4617.01 4135.52 79.47 8.00 213.47 2426.59
   06:48:53.057.11-Nov-2020 4617.01 4135.81 79.47 8.00 213.67 2426.59
   06:48:53.257.11-Nov-2020 4617.01 4135.40 79.47 8.00 213.87 2426.59
   06:48:53.457.11-Nov-2020 4617.01 4135.66 79.47 8.00 214.07 2426.59
   06:48:53.657.11-Nov-2020 4617.01 4135.66 79.47 8.00 214.27 2426.59
   06:48:53.857.11-Nov-2020 4617.01 4135.55 79.47 8.00 214.47 2426.59
   06:48:54.057.11-Nov-2020 4617.01 4135.55 79.46 8.00 214.67 2426.59
   06:48:54.257.11-Nov-2020 4617.01 4135.45 79.46 8.00 214.87 2426.59
   06:48:54.457.11-Nov-2020 4617.01 4135.63 79.46 8.00 215.07 2426.59
   06:48:54.657.11-Nov-2020 4617.01 4135.63 79.46 8.00 215.27 2426.59
   06:48:54.857.11-Nov-2020 4617.01 4135.82 79.46 8.00 215.47 2426.59
   06:48:55.057.11-Nov-2020 4617.01 4135.42 79.46 8.00 215.67 2426.59
   06:48:55.257.11-Nov-2020 4617.01 4135.44 79.46 8.00 215.87 2426.59
   06:48:55.457.11-Nov-2020 4617.01 4135.57 79.46 8.00 216.07 2426.59
   06:48:55.657.11-Nov-2020 4617.01 4135.71 79.46 8.00 216.27 2426.59
   06:48:55.858.11-Nov-2020 4617.01 4135.54 79.46 8.00 216.47 2426.59
   06:48:56.058.11-Nov-2020 4617.01 4135.53 79.46 8.00 216.67 2426.59
   06:48:56.258.11-Nov-2020 4617.01 4135.57 79.46 8.00 216.87 2426.59
   06:48:56.458.11-Nov-2020 4617.01 4135.51 79.46 8.00 217.07 2426.59
   06:48:56.658.11-Nov-2020 4617.01 4135.51 79.46 8.00 217.27 2426.59
   06:48:56.858.11-Nov-2020 4617.01 4135.61 79.45 8.00 217.47 2426.59
   06:48:57.058.11-Nov-2020 4617.01 4135.56 79.45 8.00 217.67 2426.59
   06:48:57.258.11-Nov-2020 4617.01 4135.57 79.45 8.00 217.87 2426.59
   06:48:57.458.11-Nov-2020 4617.01 4135.64 79.45 8.00 218.07 2426.59
   06:48:57.658.11-Nov-2020 4617.01 4135.64 79.45 8.00 218.27 2426.59
   06:48:57.858.11-Nov-2020 4617.01 4135.54 79.45 8.00 218.47 2426.59
   06:48:58.058.11-Nov-2020 4617.01 4135.57 79.45 8.00 218.67 2426.59
   06:48:58.258.11-Nov-2020 4617.01 4135.53 79.45 8.00 218.87 2426.59
   06:48:58.458.11-Nov-2020 4617.01 4135.57 79.45 8.00 219.07 2426.59
   06:48:58.658.11-Nov-2020 4617.01 4135.57 79.45 8.00 219.27 2426.59
   06:48:58.858.11-Nov-2020 4617.01 4135.37 79.45 8.00 219.47 2426.59
   06:48:59.059.11-Nov-2020 4617.01 4135.53 79.45 8.00 219.67 2426.59
   06:48:59.259.11-Nov-2020 4617.01 4135.57 79.44 8.00 219.87 2426.59
   06:48:59.459.11-Nov-2020 4617.01 4135.61 79.44 8.00 220.07 2426.59
   06:48:59.659.11-Nov-2020 4617.01 4135.57 79.44 8.00 220.27 2426.59
   06:48:59.859.11-Nov-2020 4617.01 4135.53 79.44 8.00 220.47 2426.59
   06:49:00.059.11-Nov-2020 4617.01 4135.55 79.44 8.00 220.67 2426.59
   06:49:00.259.11-Nov-2020 4617.01 4135.52 79.44 8.00 220.87 2426.59
   06:49:00.459.11-Nov-2020 4617.01 4135.56 79.44 8.00 221.07 2426.59
   06:49:00.659.11-Nov-2020 4617.01 4135.56 79.44 8.00 221.27 2426.59
   06:49:00.859.11-Nov-2020 4617.01 4135.65 79.44 8.00 221.47 2426.59
   06:49:01.059.11-Nov-2020 4617.01 4135.53 79.44 8.00 221.67 2426.59
   06:49:01.259.11-Nov-2020 4617.01 4135.73 79.44 8.00 221.87 2426.59
   06:49:01.459.11-Nov-2020 4617.01 4135.45 79.44 8.00 222.07 2426.59
   06:49:01.659.11-Nov-2020 4617.01 4135.45 79.44 8.00 222.27 2426.59
   06:49:01.859.11-Nov-2020 4617.01 4135.47 79.43 8.00 222.47 2426.59
   06:49:02.059.11-Nov-2020 4617.01 4135.70 79.43 8.00 222.67 2426.59
   06:49:02.260.11-Nov-2020 4617.01 4135.56 79.43 8.00 222.87 2426.59
   06:49:02.460.11-Nov-2020 4617.01 4135.55 79.43 8.00 223.07 2426.59
   06:49:02.660.11-Nov-2020 4617.01 4135.55 79.43 8.00 223.27 2426.59
   06:49:02.860.11-Nov-2020 4617.01 4135.32 79.43 8.00 223.47 2426.59
   06:49:03.060.11-Nov-2020 4617.01 4135.58 79.43 8.00 223.67 2426.59
   06:49:03.260.11-Nov-2020 4617.01 4135.39 79.43 8.00 223.87 2426.59
   06:49:03.460.11-Nov-2020 4617.01 4135.61 79.43 8.00 224.07 2426.59
   06:49:03.660.11-Nov-2020 4617.01 4135.61 79.43 8.00 224.27 2426.59
   06:49:03.860.11-Nov-2020 4617.01 4135.59 79.43 8.00 224.47 2426.59
   06:49:04.060.11-Nov-2020 4617.01 4135.59 79.43 8.00 224.67 2426.59
   06:49:04.260.11-Nov-2020 4617.01 4135.40 79.43 8.00 224.87 2426.59
   06:49:04.460.11-Nov-2020 4617.01 4135.73 79.42 8.00 225.07 2426.59
   06:49:04.660.11-Nov-2020 4617.01 4135.56 79.42 8.00 225.27 2426.59
   06:49:04.860.11-Nov-2020 4617.01 4135.60 79.42 8.00 225.47 2426.59
   06:49:05.060.11-Nov-2020 4617.01 4135.61 79.42 8.00 225.67 2426.59
   06:49:05.260.11-Nov-2020 4617.01 4135.59 79.42 8.00 225.87 2426.59
   06:49:05.461.11-Nov-2020 4617.01 4135.63 79.42 8.00 226.07 2426.59
   06:49:05.661.11-Nov-2020 4617.01 4135.63 79.42 8.00 226.27 2426.59
   06:49:05.861.11-Nov-2020 4617.01 4135.53 79.42 8.00 226.47 2426.59
   06:49:06.061.11-Nov-2020 4617.01 4135.59 79.42 8.00 226.67 2426.59
   06:49:06.261.11-Nov-2020 4617.01 4135.56 79.42 8.00 226.87 2426.59
   06:49:06.461.11-Nov-2020 4617.01 4135.56 79.42 8.00 227.07 2426.59
   06:49:06.661.11-Nov-2020 4617.01 4135.56 79.42 8.00 227.27 2426.59
   06:49:06.861.11-Nov-2020 4617.01 4135.61 79.42 8.00 227.47 2426.59
   06:49:07.061.11-Nov-2020 4617.01 4135.48 79.41 8.00 227.67 2426.59
   06:49:07.261.11-Nov-2020 4617.01 4135.62 79.41 8.00 227.87 2426.59
   06:49:07.461.11-Nov-2020 4617.01 4135.60 79.41 8.00 228.07 2426.59
   06:49:07.661.11-Nov-2020 4617.01 4135.56 79.41 8.00 228.27 2426.59
   06:49:07.861.11-Nov-2020 4617.01 4135.59 79.41 8.00 228.47 2426.59
   06:49:08.061.11-Nov-2020 4617.01 4135.58 79.41 8.00 228.67 2426.59
   06:49:08.261.11-Nov-2020 4617.01 4135.52 79.41 8.00 228.87 2426.59
   06:49:08.461.11-Nov-2020 4617.01 4135.52 79.41 8.00 229.07 2426.59
   06:49:08.662.11-Nov-2020 4617.01 4135.52 79.41 8.00 229.27 2426.59
   06:49:08.862.11-Nov-2020 4617.01 4135.53 79.41 8.00 229.47 2426.59
   06:49:09.062.11-Nov-2020 4617.01 4135.58 79.41 8.00 229.67 2426.59
   06:49:09.262.11-Nov-2020 4617.01 4135.55 79.41 8.00 229.87 2426.59
