~Version Information
 VERS.                  2.0:   CWLS log ASCII Standard -VERSION 2.0
 WRAP.                   NO:   One line per depth step
~Well Information Block
#MNEM.UNIT     VALUE/NAME     DESCRIPTION
#---------     -----------    ---------------------------
 STRT.S             21:54:12 08-Nov-20: START TIME 21:54:12 08-Nov-20
 STOP.S             22:00:43 08-Nov-20: STOP TIME  22:00:43 08-Nov-20
 STEP.S                   0.00: STEP TIME
 NULL.                 -999.25: NULL VALUE
 DFWT.                        :  DIST FWL TEXT
 DFST.                        :  DIST FSL TEXT
 DMF .             Drill Floor:  DRILL MEAS FROM
 STIM.      04.54.24 22-Sep-20:  START TIME
 DATE.      04.54.24 21-Nov-20:  END TIME
 SPUD.               21-Nov-20:  SPUD DATE
 NREF.                    Grid:  NORTH REFERENCE
 HPTY.       Minimum Curvature:  HOLE POS TYPE
 DMOD.             Drill Model:  DRILL MOD DESC
 SVYD.                  Survey:  SURVEY DESC
 ILTD.               Lithology:  INTERP LTH DESC
 FTOP.          Formation Tops:  FORM TOPS DESC
 SON .        AZ-XX-0906571587:  JOB NUMBER
 COMP.     BP Exploration (Caspian Sea) Ltd:  COMPANY
 UWI .                     N/A:  UNIQUE WELL IDENTIFIER
 API .                     N/A:  API NUMBER
 BASE.              Azerbaijan:  LOGGING EQUIPMENT BASE LOCATION
 REGN.                   EESSA:  REGION
 PROV.                    Baku:  PROVINCE
 STAT.                    Baku:  STATE NAME
 CTRY.              Azerbaijan:  COUNTRY NAME
 FLD .                     ACG:  FIELD NAME
 SRVC.     TURAN Drilling & Engineering:  CONTRACTOR
 WELL.                     J27:  WELL NAME
 RIG .             West Chirag:  RIG NAME
 DOE .                     N/A:  DOE NUMBER
 DCON.         Sperry Drilling:  DIRECTNL CONTR
 PDAT.          Mean Sea Level:  PERMANENT DATUM
 WTYP.                Deviated:  WELL TYPE
 MWDS.                    Baku:  MWD SHOP
 JOBN.        AZ-XX-0906571587:  JOB TICKET NUMB
 UNIT.                     N/A:  LOGGING EQUIPMENT ID
 MDS .        Operator Entered:  MAG DATA SOURCE
 CNTY.                        :  COUNTY
 LOC .                        :  LOCATION
 LMF .             Drill Floor:  LOG MEASURED FROM
 TVDS.m                  43.00:  TVDSS CORRECTN
 LATI.deg                40.13:  LATITUDE
 LONG.deg                51.22:  LONGITUDE
 WHNS.m                   7.72:  WELL HEAD N/S
 WHEW.m                 -14.24:  WELL HEAD E/W
 UTMX.m              519005.06:  UTM X
 UTMY.m             4443793.85:  UTM Y
 DFWL.m                   0.00:  DISTANCE FWL
 DFSL.m                   0.00:  DISTANCE FSL
 SDEP.m                 347.00:  START DEPTH
 TDD .m                 581.00:  TOTAL DEPTH (DRILLER)
 VSDR.deg               159.72:  VERT SEC DIRECT
 GVFD.g                   1.00:  GRAVITY FIELD
 MFLD.nT              50313.00:  MAGNETIC FIELD
 MDIP.deg                59.58:  MAGNETIC DIP
 MDEC.deg                 6.45:  MAGNETIC DECL
 GRDC.deg                 0.15:  GRID CORRECTION
 AZTC.deg                 6.30:  AZM TOTAL CORR
 EPD .m                   0.00:  ELEVATION
 EGL .m                   0.00:  GROUND ELEVATION
 WDMS.m                 169.80:  WD ELEV
 APD .m                  43.00:  DEPTH ABOVE PD
 AGAP.m                  43.00:  AIR GAP
 VSEW.m                 -14.24:  VERT SEC E/W
 VSNS.m                   7.72:  VERT SEC N/S
 DEP .m                 342.45:  DEPTH
 EKB .m                   0.00:  KB ELEVATION
 EDF .m                  43.00:  DF ELEVATION
 TDL .m                1313.00:  TOTAL DEPTH (LOGGER)
 VSC .                       0:  VS TO CLOSURE
 MAGU.                 1851396:  MAGUTM CHECKSUM
~Parameter Information Block
#MNEM.UNIT       Value        Description
#---------     -----------    ---------------------------
 AV  .mps                 0.65:  Ann Velocity 
 AVMX.mps                 0.75:  Max Ann Veloc 
 AZIF.deg               115.08:  Azm, Final 
 BHAT.        Rotary Steerable:  BHA Type 
 BROT.∞/30m               1.50:  Build Rotating 
 BS  .in                 12.25:  Bit Size 
 BSZ .in                 12.25:  Bit Size 
 BTPL.psig              700.00:  Bit Press Loss 
 CABU.                     Yes:  Customer Abuse 
 COMM.                     „J:  Run Comments 1 
 TCS .hr                121.00:  Time Ciculation Ended 
 CV  .mps                 1.83:  Crit Velocity 
 CVMX.mps                 1.83:  Max Crit Veloc 
 DD1 .          Rashad Habibov:  Direct Drillr 1 
 DD2 .         Rasim Ibrahimov:  Direct Drillr 2 
 DDSV.                 iCruise:  DD Service 
 DEFF.%                 100.00:  % Det Eff 
 DLRX.∞/30m               3.60:  Dogleg Rot Max 
 DLSO.∞/30m               3.10:  Dogleg Oriented 
 DLSX.∞/30m               3.60:  Dogleg Str Max 
 DRET.      13.41.20 12-Nov-20:  Drill End Time 
 DRST.      13.41.20 07-Nov-20:  Drill Start Tim 
 DTIM.hr                 54.16:  Time Drilling 
 EDEP.m                4762.01:  End Depth 
 ENG1.           Amrah Tahirov:  Engineer 1 
 ENG2.      Bakhtiyar Jabbarli:  Engineer 2 
 ENG3.          Ruslan Safarov:  Engineer 3 
 ETIM.      13.41.20 14-Nov-20:  End Time 
 FLOI.gpm              1200.00:  Flow In 
 FLON.gpm              1100.00:  Flow In Min 
 FLOS.cptm                0.00:  Fluid Loss 
 FLOX.gpm              1200.00:  Flow In Max 
 HFLO.                      No:  High Flow 
 HPRE.                      No:  High Pressure 
 HTEM.                      No:  High Temp 
 HYDO.m                   2.00:  Hydro Offset 
 IFIN.deg                66.14:  Inc, Final 
 IMAX.deg                69.03:  Inc Max 
 IMIN.deg                64.64:  Inc Min 
 IMND.m                4450.16:  Inc Min Depth 
 IMXD.m                3996.00:  Inc Max Depth 
 JARR.                     Yes:  Jarring 
 LETM.      13.41.20 14-Nov-20:  Log End Time 
 LOST.hr                     0:  Lost Rig Time 
 LSTM.      13.41.20 06-Nov-20:  Log Start Time 
 MDCL.ppm             42500.00:  Mud Chlorides 
 MDES.     Inversion Oil/Synthetic:  Mud Desc 
 DFD .sg                  1.45:  Mud Density 
 MDMN.sg                  1.45:  Dens Mud Min 
 MDMX.sg                  1.45:  Dens Mud Max 
 MOIL.                      70:  Run Mud Oil % 
 MOWR.                   70:30:  Run Mud OWR 
 MSND.                       0:  Run Mud Sand % 
 MSOL.                    19.3:  Run Mud Solids% 
 DFV .spqt               77.00:  Mud Viscosity 
 MWOD.in                  8.00:  MWD Tool OD 
 MWSI.                      No:  Serv Intrp, MWD 
 OTIM.hr                201.88:  Time Operating 
 PCON.           Look Like New:  Pad Condition 
 PMAX.psia             9250.94:  Press Op, Max 
 PV  .cP                 29.00:  Mud PV 
 RUN .                     800:  Run Number 
 ROPA.m/hr               28.00:  ROP Avg 
 ROPN.m/hr               25.00:  ROP Min 
 ROPX.m/hr               30.00:  ROP Max 
 RPMA.rpm               160.00:  RPM Surface Avg 
 RPMN.rpm               160.00:  RPM Surface Min 
 RPMX.rpm               160.00:  RPM Surface Max 
 RRUN.                    0800:  Rig Run Number 
 RTIM.hr                 12.00:  Time Reaming 
 SAZI.deg               169.33:  Azm, Start 
 SDEP.m                3449.01:  Start Depth 
 SIDD.                      No:  Serv Intrp, DD 
 SINC.deg                68.01:  Inc, Start 
 SPPA.psig             4900.00:  SPP Avg 
 SPPN.psig             4800.00:  SPP Min 
 SPPX.psig             5050.00:  SPP Max 
 STIM.      13.41.20 06-Nov-20:  Start Time 
 SVCS.                 DD, MWD:  Services 
 SVER.                    9.20:  Sperry Version 
 TDAT.m                4762.01:  Tot Depth Attmp 
 TDDF.                      No:  Trip for DD 
 TDLG.m                1313.00:  Tot Depth Loggd 
 TFF .                      No:  Trip for Fail 
 TQAA.f-kp               13.00:  Torque Abs Avg 
 TQAN.f-kp               13.00:  Torque Abs Min 
 TQAX.f-kp               13.00:  Torque Abs Max 
 TRRT.∞/30m               1.70:  Turn Rotating 
 MRT .                  EWR-M5:  Maximum Recorded Temperature 
 TTMX.degC               86.00:  Max Tool Temp 
 VS01.                90622122:  Virtual Str1 SN 
 VS02.                90577298:  Virtual Str2 SN 
 VS03.                90563623:  Virtual Str3 SN 
 VS04.                90617559:  Virtual Str4 SN 
 VS05.                11339492:  Virtual Str5 SN 
 VS06.                12385033:  Virtual Str6 SN 
 WBMN.klb                 0.00:  WOB Min 
 WOBA.klb                22.00:  WOB Avg 
 WOBX.klb                26.00:  WOB Max 
 YP  .lhf2               30.00:  Yield Point 
~Curve Information Block
#MNEM.UNIT                 API CODE     Curve Description
#---------               -----------    ---------------------------
 TIME.HHMMSS            00 000 000 000:  GT Time & Date
 GTDEPTH.m              00 000 000 000:  GT Depth
 GTPQH.psia             00 000 000 000:  GT HR Quartz Pressure
 GTTQ.degC              00 000 000 000:  GT Quartz Temperature
 GTTN.NONE              00 000 000 000:  GT Test Number
 GTET.sec               00 000 000 000:  GT Elapsed Test Time
 GTTVD.m                00 000 000 000:  GT True Vertical Depth
#Other Information
#
#WARRANTY: Halliburton will use its best efforts to furnish customers with 
#accurate information and interpretations that are part of, and incident to, the services 
#provided.  However, Halliburton cannot and does not warrant the accuracy 
#or correctness of such information and interpretations.  Under no circumstances should any 
#such information or interpretation be relied upon as the sole basis for any drilling, 
#completion, production, or financial decision or any procedure involving any risk to the 
#safety of any drilling venture, drilling rig or its crew or any other third party.  The 
#Customer has full responsibility for all drilling, completion and production operation.  
#Halliburton makes no representations or warranties, either expressed or 
#implied, including, but not limited to, the implied warranties of merchantability or fitness 
#for a particular purpose, with respect to the services rendered.  In no event will 
#Halliburton be liable for failure to obtain any particular results or for 
#any damages, including, but not limited to, indirect, special or consequential damages, 
#resulting from the use of any information or interpretation provided by Halliburton.
#
~A           TIME           GTDEPTH  GTPQH  GTTQ  GTTN  GTET   GTTVD  
# ...
   21:56:53.689.08-Nov-2020 3686.01 3544.07 71.98 4.00 161.04 2071.13
   21:56:53.889.08-Nov-2020 3686.01 3544.07 71.98 4.00 161.24 2071.13
   21:56:54.089.08-Nov-2020 3686.01 3544.06 71.98 4.00 161.44 2071.13
   21:56:54.289.08-Nov-2020 3686.01 3544.06 71.98 4.00 161.64 2071.13
   21:56:54.489.08-Nov-2020 3686.01 3544.05 71.98 4.00 161.84 2071.13
   21:56:54.689.08-Nov-2020 3686.01 3544.02 71.98 4.00 162.04 2071.13
   21:56:54.889.08-Nov-2020 3686.01 3544.02 71.98 4.00 162.24 2071.13
   21:56:55.089.08-Nov-2020 3686.01 3544.19 71.98 4.00 162.44 2071.13
   21:56:55.289.08-Nov-2020 3686.01 3544.15 71.98 4.00 162.64 2071.13
   21:56:55.489.08-Nov-2020 3686.01 3544.14 71.97 4.00 162.84 2071.13
   21:56:55.689.08-Nov-2020 3686.01 3544.08 71.97 4.00 163.04 2071.13
   21:56:55.889.08-Nov-2020 3686.01 3544.14 71.97 4.00 163.24 2071.13
   21:56:56.089.08-Nov-2020 3686.01 3544.15 71.97 4.00 163.44 2071.13
   21:56:56.289.08-Nov-2020 3686.01 3544.09 71.97 4.00 163.64 2071.13
   21:56:56.489.08-Nov-2020 3686.01 3544.11 71.97 4.00 163.84 2071.13
   21:56:56.689.08-Nov-2020 3686.01 3544.12 71.97 4.00 164.04 2071.13
   21:56:56.889.08-Nov-2020 3686.01 3544.12 71.97 4.00 164.24 2071.13
   21:56:57.089.08-Nov-2020 3686.01 3544.10 71.97 4.00 164.44 2071.13
   21:56:57.290.08-Nov-2020 3686.01 3544.05 71.97 4.00 164.64 2071.13
   21:56:57.490.08-Nov-2020 3686.01 3544.32 71.97 4.00 164.84 2071.13
   21:56:57.690.08-Nov-2020 3686.01 3544.16 71.96 4.00 165.04 2071.13
   21:56:57.890.08-Nov-2020 3686.01 3544.16 71.96 4.00 165.24 2071.13
   21:56:58.090.08-Nov-2020 3686.01 3544.19 71.96 4.00 165.44 2071.13
   21:56:58.290.08-Nov-2020 3686.01 3544.15 71.96 4.00 165.64 2071.13
   21:56:58.490.08-Nov-2020 3686.01 3544.15 71.96 4.00 165.84 2071.13
   21:56:58.690.08-Nov-2020 3686.01 3544.14 71.96 4.00 166.04 2071.13
   21:56:58.890.08-Nov-2020 3686.01 3544.14 71.96 4.00 166.24 2071.13
   21:56:59.090.08-Nov-2020 3686.01 3544.16 71.96 4.00 166.44 2071.13
   21:56:59.290.08-Nov-2020 3686.01 3544.17 71.96 4.00 166.64 2071.13
   21:56:59.490.08-Nov-2020 3686.01 3544.14 71.96 4.00 166.84 2071.13
   21:56:59.690.08-Nov-2020 3686.01 3544.14 71.96 4.00 167.04 2071.13
   21:56:59.890.08-Nov-2020 3686.01 3544.16 71.95 4.00 167.24 2071.13
   21:57:00.090.08-Nov-2020 3686.01 3544.17 71.95 4.00 167.44 2071.13
   21:57:00.290.08-Nov-2020 3686.01 3544.15 71.95 4.00 167.64 2071.13
   21:57:00.490.08-Nov-2020 3686.01 3544.15 71.95 4.00 167.84 2071.13
   21:57:00.690.08-Nov-2020 3686.01 3544.16 71.95 4.00 168.04 2071.13
   21:57:00.890.08-Nov-2020 3686.01 3544.16 71.95 4.00 168.24 2071.13
   21:57:01.090.08-Nov-2020 3686.01 3544.16 71.95 4.00 168.44 2071.13
   21:57:01.290.08-Nov-2020 3686.01 3544.15 71.95 4.00 168.64 2071.13
   21:57:01.490.08-Nov-2020 3686.01 3544.14 71.95 4.00 168.84 2071.13
   21:57:01.690.08-Nov-2020 3686.01 3544.15 71.95 4.00 169.04 2071.13
   21:57:01.891.08-Nov-2020 3686.01 3544.15 71.95 4.00 169.24 2071.13
   21:57:02.091.08-Nov-2020 3686.01 3544.13 71.94 4.00 169.44 2071.13
   21:57:02.291.08-Nov-2020 3686.01 3544.12 71.94 4.00 169.64 2071.13
   21:57:02.491.08-Nov-2020 3686.01 3544.11 71.94 4.00 169.84 2071.13
   21:57:02.691.08-Nov-2020 3686.01 3544.12 71.94 4.00 170.04 2071.13
   21:57:02.891.08-Nov-2020 3686.01 3544.11 71.94 4.00 170.24 2071.13
   21:57:03.091.08-Nov-2020 3686.01 3544.09 71.94 4.00 170.44 2071.13
   21:57:03.291.08-Nov-2020 3686.01 3544.08 71.94 4.00 170.64 2071.13
   21:57:03.491.08-Nov-2020 3686.01 3544.21 71.94 4.00 170.84 2071.13
   21:57:03.691.08-Nov-2020 3686.01 3544.13 71.94 4.00 171.04 2071.13
   21:57:03.891.08-Nov-2020 3686.01 3544.17 71.94 4.00 171.24 2071.13
   21:57:04.091.08-Nov-2020 3686.01 3544.15 71.94 4.00 171.44 2071.13
   21:57:04.291.08-Nov-2020 3686.01 3544.12 71.93 4.00 171.64 2071.13
   21:57:04.491.08-Nov-2020 3686.01 3544.13 71.93 4.00 171.84 2071.13
   21:57:04.691.08-Nov-2020 3686.01 3544.10 71.93 4.00 172.04 2071.13
   21:57:04.891.08-Nov-2020 3686.01 3544.11 71.93 4.00 172.24 2071.13
   21:57:05.091.08-Nov-2020 3686.01 3544.10 71.93 4.00 172.44 2071.13
   21:57:05.291.08-Nov-2020 3686.01 3544.09 71.93 4.00 172.64 2071.13
   21:57:05.491.08-Nov-2020 3686.01 3544.09 71.93 4.00 172.84 2071.13
   21:57:05.691.08-Nov-2020 3686.01 3544.09 71.93 4.00 173.04 2071.13
   21:57:05.891.08-Nov-2020 3686.01 3544.10 71.93 4.00 173.24 2071.13
   21:57:06.091.08-Nov-2020 3686.01 3544.15 71.93 4.00 173.44 2071.13
   21:57:06.291.08-Nov-2020 3686.01 3544.15 71.93 4.00 173.64 2071.13
   21:57:06.492.08-Nov-2020 3686.01 3544.12 71.92 4.00 173.84 2071.13
   21:57:06.692.08-Nov-2020 3686.01 3544.17 71.92 4.00 174.04 2071.13
   21:57:06.892.08-Nov-2020 3686.01 3544.17 71.92 4.00 174.24 2071.13
   21:57:07.092.08-Nov-2020 3686.01 3544.14 71.92 4.00 174.44 2071.13
   21:57:07.292.08-Nov-2020 3686.01 3544.10 71.92 4.00 174.64 2071.13
   21:57:07.492.08-Nov-2020 3686.01 3544.22 71.92 4.00 174.84 2071.13
   21:57:07.692.08-Nov-2020 3686.01 3544.15 71.92 4.00 175.04 2071.13
   21:57:07.892.08-Nov-2020 3686.01 3544.15 71.92 4.00 175.24 2071.13
   21:57:08.092.08-Nov-2020 3686.01 3544.17 71.92 4.00 175.44 2071.13
   21:57:08.292.08-Nov-2020 3686.01 3544.10 71.92 4.00 175.64 2071.13
   21:57:08.492.08-Nov-2020 3686.01 3544.20 71.91 4.00 175.84 2071.13
   21:57:08.692.08-Nov-2020 3686.01 3544.16 71.91 4.00 176.04 2071.13
   21:57:08.892.08-Nov-2020 3686.01 3544.16 71.91 4.00 176.24 2071.13
   21:57:09.092.08-Nov-2020 3686.01 3544.17 71.91 4.00 176.44 2071.13
   21:57:09.292.08-Nov-2020 3686.01 3544.15 71.91 4.00 176.64 2071.13
   21:57:09.492.08-Nov-2020 3686.01 3544.11 71.91 4.00 176.84 2071.13
   21:57:09.692.08-Nov-2020 3686.01 3544.18 71.91 4.00 177.04 2071.13
   21:57:09.892.08-Nov-2020 3686.01 3544.18 71.91 4.00 177.24 2071.13
   21:57:10.092.08-Nov-2020 3686.01 3544.14 71.91 4.00 177.44 2071.13
   21:57:10.292.08-Nov-2020 3686.01 3544.16 71.91 4.00 177.64 2071.13
   21:57:10.492.08-Nov-2020 3686.01 3544.14 71.91 4.00 177.84 2071.13
   21:57:10.692.08-Nov-2020 3686.01 3544.14 71.90 4.00 178.04 2071.13
   21:57:10.893.08-Nov-2020 3686.01 3544.14 71.90 4.00 178.24 2071.13
   21:57:11.093.08-Nov-2020 3686.01 3544.12 71.90 4.00 178.44 2071.13
   21:57:11.293.08-Nov-2020 3686.01 3544.12 71.90 4.00 178.64 2071.13
   21:57:11.493.08-Nov-2020 3686.01 3544.11 71.90 4.00 178.84 2071.13
   21:57:11.693.08-Nov-2020 3686.01 3544.10 71.90 4.00 179.04 2071.13
   21:57:11.893.08-Nov-2020 3686.01 3544.10 71.90 4.00 179.24 2071.13
   21:57:12.093.08-Nov-2020 3686.01 3544.08 71.90 4.00 179.44 2071.13
   21:57:12.293.08-Nov-2020 3686.01 3544.10 71.90 4.00 179.64 2071.13
   21:57:12.493.08-Nov-2020 3686.01 3544.14 71.90 4.00 179.84 2071.13
   21:57:12.693.08-Nov-2020 3686.01 3544.17 71.90 4.00 180.04 2071.13
   21:57:12.893.08-Nov-2020 3686.01 3544.17 71.90 4.00 180.24 2071.13
   21:57:13.093.08-Nov-2020 3686.01 3544.13 71.89 4.00 180.44 2071.13
   21:57:13.293.08-Nov-2020 3686.01 3544.13 71.89 4.00 180.64 2071.13
   21:57:13.493.08-Nov-2020 3686.01 3544.11 71.89 4.00 180.84 2071.13
   21:57:13.693.08-Nov-2020 3686.01 3544.10 71.89 4.00 181.04 2071.13
   21:57:13.893.08-Nov-2020 3686.01 3544.10 71.89 4.00 181.24 2071.13
   21:57:14.093.08-Nov-2020 3686.01 3544.09 71.89 4.00 181.44 2071.13
   21:57:14.293.08-Nov-2020 3686.01 3544.10 71.89 4.00 181.64 2071.13
   21:57:14.493.08-Nov-2020 3686.01 3544.08 71.89 4.00 181.84 2071.13
   21:57:14.693.08-Nov-2020 3686.01 3544.09 71.89 4.00 182.04 2071.13
   21:57:14.893.08-Nov-2020 3686.01 3544.09 71.89 4.00 182.24 2071.13
   21:57:15.093.08-Nov-2020 3686.01 3544.16 71.88 4.00 182.44 2071.13
   21:57:15.293.08-Nov-2020 3686.01 3544.16 71.88 4.00 182.64 2071.13
   21:57:15.494.08-Nov-2020 3686.01 3544.18 71.88 4.00 182.84 2071.13
   21:57:15.694.08-Nov-2020 3686.01 3544.17 71.88 4.00 183.04 2071.13
   21:57:15.894.08-Nov-2020 3686.01 3544.14 71.88 4.00 183.24 2071.13
   21:57:16.094.08-Nov-2020 3686.01 3544.13 71.88 4.00 183.44 2071.13
   21:57:16.294.08-Nov-2020 3686.01 3544.12 71.88 4.00 183.64 2071.13
   21:57:16.494.08-Nov-2020 3686.01 3544.19 71.88 4.00 183.84 2071.13
