~Version Information
 VERS.                  2.0:   CWLS log ASCII Standard -VERSION 2.0
 WRAP.                   NO:   One line per depth step
~Well Information Block
#MNEM.UNIT     VALUE/NAME     DESCRIPTION
#---------     -----------    ---------------------------
 STRT.S             09:21:26 08-Nov-20: START TIME 09:21:26 08-Nov-20
 STOP.S             09:27:58 08-Nov-20: STOP TIME  09:27:58 08-Nov-20
 STEP.S                   0.00: STEP TIME
 NULL.                 -999.25: NULL VALUE
 DFWT.                        :  DIST FWL TEXT
 DFST.                        :  DIST FSL TEXT
 DMF .             Drill Floor:  DRILL MEAS FROM
 STIM.      04.54.24 22-Sep-20:  START TIME
 DATE.      04.54.24 21-Nov-20:  END TIME
 SPUD.               21-Nov-20:  SPUD DATE
 NREF.                    Grid:  NORTH REFERENCE
 HPTY.       Minimum Curvature:  HOLE POS TYPE
 DMOD.             Drill Model:  DRILL MOD DESC
 SVYD.                  Survey:  SURVEY DESC
 ILTD.               Lithology:  INTERP LTH DESC
 FTOP.          Formation Tops:  FORM TOPS DESC
 SON .        AZ-XX-0906571587:  JOB NUMBER
 COMP.     BP Exploration (Caspian Sea) Ltd:  COMPANY
 UWI .                     N/A:  UNIQUE WELL IDENTIFIER
 API .                     N/A:  API NUMBER
 BASE.              Azerbaijan:  LOGGING EQUIPMENT BASE LOCATION
 REGN.                   EESSA:  REGION
 PROV.                    Baku:  PROVINCE
 STAT.                    Baku:  STATE NAME
 CTRY.              Azerbaijan:  COUNTRY NAME
 FLD .                     ACG:  FIELD NAME
 SRVC.     TURAN Drilling & Engineering:  CONTRACTOR
 WELL.                     J27:  WELL NAME
 RIG .             West Chirag:  RIG NAME
 DOE .                     N/A:  DOE NUMBER
 DCON.         Sperry Drilling:  DIRECTNL CONTR
 PDAT.          Mean Sea Level:  PERMANENT DATUM
 WTYP.                Deviated:  WELL TYPE
 MWDS.                    Baku:  MWD SHOP
 JOBN.        AZ-XX-0906571587:  JOB TICKET NUMB
 UNIT.                     N/A:  LOGGING EQUIPMENT ID
 MDS .        Operator Entered:  MAG DATA SOURCE
 CNTY.                        :  COUNTY
 LOC .                        :  LOCATION
 LMF .             Drill Floor:  LOG MEASURED FROM
 TVDS.m                  43.00:  TVDSS CORRECTN
 LATI.deg                40.13:  LATITUDE
 LONG.deg                51.22:  LONGITUDE
 WHNS.m                   7.72:  WELL HEAD N/S
 WHEW.m                 -14.24:  WELL HEAD E/W
 UTMX.m              519005.06:  UTM X
 UTMY.m             4443793.85:  UTM Y
 DFWL.m                   0.00:  DISTANCE FWL
 DFSL.m                   0.00:  DISTANCE FSL
 SDEP.m                 347.00:  START DEPTH
 TDD .m                 581.00:  TOTAL DEPTH (DRILLER)
 VSDR.deg               159.72:  VERT SEC DIRECT
 GVFD.g                   1.00:  GRAVITY FIELD
 MFLD.nT              50313.00:  MAGNETIC FIELD
 MDIP.deg                59.58:  MAGNETIC DIP
 MDEC.deg                 6.45:  MAGNETIC DECL
 GRDC.deg                 0.15:  GRID CORRECTION
 AZTC.deg                 6.30:  AZM TOTAL CORR
 EPD .m                   0.00:  ELEVATION
 EGL .m                   0.00:  GROUND ELEVATION
 WDMS.m                 169.80:  WD ELEV
 APD .m                  43.00:  DEPTH ABOVE PD
 AGAP.m                  43.00:  AIR GAP
 VSEW.m                 -14.24:  VERT SEC E/W
 VSNS.m                   7.72:  VERT SEC N/S
 DEP .m                 342.45:  DEPTH
 EKB .m                   0.00:  KB ELEVATION
 EDF .m                  43.00:  DF ELEVATION
 TDL .m                1313.00:  TOTAL DEPTH (LOGGER)
 VSC .                       0:  VS TO CLOSURE
 MAGU.                 1851396:  MAGUTM CHECKSUM
~Parameter Information Block
#MNEM.UNIT       Value        Description
#---------     -----------    ---------------------------
 AV  .mps                 0.65:  Ann Velocity 
 AVMX.mps                 0.75:  Max Ann Veloc 
 AZIF.deg               115.08:  Azm, Final 
 BHAT.        Rotary Steerable:  BHA Type 
 BROT.°/30m               1.50:  Build Rotating 
 BS  .in                 12.25:  Bit Size 
 BSZ .in                 12.25:  Bit Size 
 BTPL.psig              700.00:  Bit Press Loss 
 CABU.                     Yes:  Customer Abuse 
 COMM.                     <
V:  Run Comments 1 
 TCS .hr                121.00:  Time Ciculation Ended 
 CV  .mps                 1.83:  Crit Velocity 
 CVMX.mps                 1.83:  Max Crit Veloc 
 DD1 .          Rashad Habibov:  Direct Drillr 1 
 DD2 .         Rasim Ibrahimov:  Direct Drillr 2 
 DDSV.                 iCruise:  DD Service 
 DEFF.%                 100.00:  % Det Eff 
 DLRX.°/30m               3.60:  Dogleg Rot Max 
 DLSO.°/30m               3.10:  Dogleg Oriented 
 DLSX.°/30m               3.60:  Dogleg Str Max 
 DRET.      13.41.20 12-Nov-20:  Drill End Time 
 DRST.      13.41.20 07-Nov-20:  Drill Start Tim 
 DTIM.hr                 54.16:  Time Drilling 
 EDEP.m                4762.01:  End Depth 
 ENG1.           Amrah Tahirov:  Engineer 1 
 ENG2.      Bakhtiyar Jabbarli:  Engineer 2 
 ENG3.          Ruslan Safarov:  Engineer 3 
 ETIM.      13.41.20 14-Nov-20:  End Time 
 FLOI.gpm              1200.00:  Flow In 
 FLON.gpm              1100.00:  Flow In Min 
 FLOS.cptm                0.00:  Fluid Loss 
 FLOX.gpm              1200.00:  Flow In Max 
 HFLO.                      No:  High Flow 
 HPRE.                      No:  High Pressure 
 HTEM.                      No:  High Temp 
 HYDO.m                   2.00:  Hydro Offset 
 IFIN.deg                66.14:  Inc, Final 
 IMAX.deg                69.03:  Inc Max 
 IMIN.deg                64.64:  Inc Min 
 IMND.m                4450.16:  Inc Min Depth 
 IMXD.m                3996.00:  Inc Max Depth 
 JARR.                     Yes:  Jarring 
 LETM.      13.41.20 14-Nov-20:  Log End Time 
 LOST.hr                     0:  Lost Rig Time 
 LSTM.      13.41.20 06-Nov-20:  Log Start Time 
 MDCL.ppm             42500.00:  Mud Chlorides 
 MDES.     Inversion Oil/Synthetic:  Mud Desc 
 DFD .sg                  1.45:  Mud Density 
 MDMN.sg                  1.45:  Dens Mud Min 
 MDMX.sg                  1.45:  Dens Mud Max 
 MOIL.                      70:  Run Mud Oil % 
 MOWR.                   70:30:  Run Mud OWR 
 MSND.                       0:  Run Mud Sand % 
 MSOL.                    19.3:  Run Mud Solids% 
 DFV .spqt               77.00:  Mud Viscosity 
 MWOD.in                  8.00:  MWD Tool OD 
 MWSI.                      No:  Serv Intrp, MWD 
 OTIM.hr                201.88:  Time Operating 
 PCON.           Look Like New:  Pad Condition 
 PMAX.psia             9250.94:  Press Op, Max 
 PV  .cP                 29.00:  Mud PV 
 RUN .                     800:  Run Number 
 ROPA.m/hr               28.00:  ROP Avg 
 ROPN.m/hr               25.00:  ROP Min 
 ROPX.m/hr               30.00:  ROP Max 
 RPMA.rpm               160.00:  RPM Surface Avg 
 RPMN.rpm               160.00:  RPM Surface Min 
 RPMX.rpm               160.00:  RPM Surface Max 
 RRUN.                    0800:  Rig Run Number 
 RTIM.hr                 12.00:  Time Reaming 
 SAZI.deg               169.33:  Azm, Start 
 SDEP.m                3449.01:  Start Depth 
 SIDD.                      No:  Serv Intrp, DD 
 SINC.deg                68.01:  Inc, Start 
 SPPA.psig             4900.00:  SPP Avg 
 SPPN.psig             4800.00:  SPP Min 
 SPPX.psig             5050.00:  SPP Max 
 STIM.      13.41.20 06-Nov-20:  Start Time 
 SVCS.                 DD, MWD:  Services 
 SVER.                    9.20:  Sperry Version 
 TDAT.m                4762.01:  Tot Depth Attmp 
 TDDF.                      No:  Trip for DD 
 TDLG.m                1313.00:  Tot Depth Loggd 
 TFF .                      No:  Trip for Fail 
 TQAA.f-kp               13.00:  Torque Abs Avg 
 TQAN.f-kp               13.00:  Torque Abs Min 
 TQAX.f-kp               13.00:  Torque Abs Max 
 TRRT.°/30m               1.70:  Turn Rotating 
 MRT .                  EWR-M5:  Maximum Recorded Temperature 
 TTMX.degC               86.00:  Max Tool Temp 
 VS01.                90622122:  Virtual Str1 SN 
 VS02.                90577298:  Virtual Str2 SN 
 VS03.                90563623:  Virtual Str3 SN 
 VS04.                90617559:  Virtual Str4 SN 
 VS05.                11339492:  Virtual Str5 SN 
 VS06.                12385033:  Virtual Str6 SN 
 WBMN.klb                 0.00:  WOB Min 
 WOBA.klb                22.00:  WOB Avg 
 WOBX.klb                26.00:  WOB Max 
 YP  .lhf2               30.00:  Yield Point 
~Curve Information Block
#MNEM.UNIT                 API CODE     Curve Description
#---------               -----------    ---------------------------
 TIME.HHMMSS            00 000 000 000:  GT Time & Date
 GTDEPTH.m              00 000 000 000:  GT Depth
 GTPQH.psia             00 000 000 000:  GT HR Quartz Pressure
 GTTQ.degC              00 000 000 000:  GT Quartz Temperature
 GTTN.NONE              00 000 000 000:  GT Test Number
 GTET.sec               00 000 000 000:  GT Elapsed Test Time
 GTTVD.m                00 000 000 000:  GT True Vertical Depth
#Other Information
#
#WARRANTY: Halliburton will use its best efforts to furnish customers with 
#accurate information and interpretations that are part of, and incident to, the services 
#provided.  However, Halliburton cannot and does not warrant the accuracy 
#or correctness of such information and interpretations.  Under no circumstances should any 
#such information or interpretation be relied upon as the sole basis for any drilling, 
#completion, production, or financial decision or any procedure involving any risk to the 
#safety of any drilling venture, drilling rig or its crew or any other third party.  The 
#Customer has full responsibility for all drilling, completion and production operation.  
#Halliburton makes no representations or warranties, either expressed or 
#implied, including, but not limited to, the implied warranties of merchantability or fitness 
#for a particular purpose, with respect to the services rendered.  In no event will 
#Halliburton be liable for failure to obtain any particular results or for 
#any damages, including, but not limited to, indirect, special or consequential damages, 
#resulting from the use of any information or interpretation provided by Halliburton.
#
~A           TIME           GTDEPTH  GTPQH  GTTQ  GTTN  GTET   GTTVD  
# ...
   09:26:25.228.08-Nov-2020 3525.51 3323.36 69.91 1.00 299.05 2012.77
   09:26:25.428.08-Nov-2020 3525.51 3323.36 69.91 1.00 299.25 2012.77
   09:26:25.628.08-Nov-2020 3525.51 3323.36 69.91 1.00 299.45 2012.77
   09:26:25.828.08-Nov-2020 3525.51 3323.38 69.91 1.00 299.65 2012.77
   09:26:26.028.08-Nov-2020 3525.51 3323.37 69.91 1.00 299.85 2012.77
   09:26:26.228.08-Nov-2020 3525.51 3323.32 69.91 1.00 300.05 2012.77
   09:26:26.428.08-Nov-2020 3525.51 3323.32 69.91 1.00 300.25 2012.77
   09:26:26.628.08-Nov-2020 3525.51 3323.38 69.91 1.00 300.45 2012.77
   09:26:26.828.08-Nov-2020 3525.51 3323.37 69.91 1.00 300.65 2012.77
   09:26:27.028.08-Nov-2020 3525.51 3323.39 69.91 1.00 300.85 2012.77
   09:26:27.229.08-Nov-2020 3525.51 3323.36 69.91 1.00 301.05 2012.77
   09:26:27.429.08-Nov-2020 3525.51 3323.36 69.91 1.00 301.25 2012.77
   09:26:27.629.08-Nov-2020 3525.51 3323.36 69.91 1.00 301.45 2012.77
   09:26:27.829.08-Nov-2020 3525.51 3323.37 69.91 1.00 301.65 2012.77
   09:26:28.029.08-Nov-2020 3525.51 3323.35 69.91 1.00 301.85 2012.77
   09:26:28.229.08-Nov-2020 3525.51 3323.36 69.91 1.00 302.05 2012.77
   09:26:28.429.08-Nov-2020 3525.51 3323.36 69.91 1.00 302.25 2012.77
   09:26:28.629.08-Nov-2020 3525.51 3323.33 69.91 1.00 302.45 2012.77
   09:26:28.829.08-Nov-2020 3525.51 3323.36 69.90 1.00 302.65 2012.77
   09:26:29.029.08-Nov-2020 3525.51 3323.29 69.90 1.00 302.85 2012.77
   09:26:29.229.08-Nov-2020 3525.51 3323.33 69.90 1.00 303.05 2012.77
   09:26:29.429.08-Nov-2020 3525.51 3323.33 69.90 1.00 303.25 2012.77
   09:26:29.629.08-Nov-2020 3525.51 3323.37 69.90 1.00 303.45 2012.77
   09:26:29.829.08-Nov-2020 3525.51 3323.37 69.90 1.00 303.65 2012.77
   09:26:30.029.08-Nov-2020 3525.51 3323.36 69.90 1.00 303.85 2012.77
   09:26:30.229.08-Nov-2020 3525.51 3323.37 69.90 1.00 304.05 2012.77
   09:26:30.429.08-Nov-2020 3525.51 3323.37 69.90 1.00 304.25 2012.77
   09:26:30.629.08-Nov-2020 3525.51 3323.36 69.90 1.00 304.45 2012.77
   09:26:30.829.08-Nov-2020 3525.51 3323.35 69.90 1.00 304.65 2012.77
   09:26:31.029.08-Nov-2020 3525.51 3323.35 69.90 1.00 304.85 2012.77
   09:26:31.229.08-Nov-2020 3525.51 3323.35 69.90 1.00 305.05 2012.77
   09:26:31.429.08-Nov-2020 3525.51 3323.35 69.90 1.00 305.25 2012.77
   09:26:31.629.08-Nov-2020 3525.51 3323.28 69.90 1.00 305.45 2012.77
   09:26:31.829.08-Nov-2020 3525.51 3323.35 69.90 1.00 305.65 2012.77
   09:26:32.029.08-Nov-2020 3525.51 3323.37 69.90 1.00 305.85 2012.77
   09:26:32.229.08-Nov-2020 3525.51 3323.29 69.90 1.00 306.05 2012.77
   09:26:32.429.08-Nov-2020 3525.51 3323.29 69.90 1.00 306.25 2012.77
   09:26:32.629.08-Nov-2020 3525.51 3323.37 69.90 1.00 306.45 2012.77
   09:26:32.829.08-Nov-2020 3525.51 3323.38 69.90 1.00 306.65 2012.77
   09:26:33.029.08-Nov-2020 3525.51 3323.38 69.89 1.00 306.85 2012.77
   09:26:33.230.08-Nov-2020 3525.51 3323.32 69.89 1.00 307.05 2012.77
   09:26:33.430.08-Nov-2020 3525.51 3323.32 69.89 1.00 307.25 2012.77
   09:26:33.630.08-Nov-2020 3525.51 3323.37 69.89 1.00 307.45 2012.77
   09:26:33.830.08-Nov-2020 3525.51 3323.37 69.89 1.00 307.65 2012.77
   09:26:34.030.08-Nov-2020 3525.51 3323.38 69.89 1.00 307.85 2012.77
   09:26:34.230.08-Nov-2020 3525.51 3323.38 69.89 1.00 308.05 2012.77
   09:26:34.430.08-Nov-2020 3525.51 3323.38 69.89 1.00 308.25 2012.77
   09:26:34.630.08-Nov-2020 3525.51 3323.38 69.89 1.00 308.45 2012.77
   09:26:34.830.08-Nov-2020 3525.51 3323.38 69.89 1.00 308.65 2012.77
   09:26:35.030.08-Nov-2020 3525.51 3323.39 69.89 1.00 308.85 2012.77
   09:26:35.230.08-Nov-2020 3525.51 3323.32 69.89 1.00 309.05 2012.77
   09:26:35.430.08-Nov-2020 3525.51 3323.32 69.89 1.00 309.25 2012.77
   09:26:35.630.08-Nov-2020 3525.51 3323.39 69.89 1.00 309.45 2012.77
   09:26:35.830.08-Nov-2020 3525.51 3323.37 69.89 1.00 309.65 2012.77
   09:26:36.030.08-Nov-2020 3525.51 3323.38 69.89 1.00 309.85 2012.77
   09:26:36.230.08-Nov-2020 3525.51 3323.37 69.89 1.00 310.05 2012.77
   09:26:36.430.08-Nov-2020 3525.51 3323.37 69.89 1.00 310.25 2012.77
   09:26:36.630.08-Nov-2020 3525.51 3323.37 69.89 1.00 310.45 2012.77
   09:26:36.830.08-Nov-2020 3525.51 3323.37 69.89 1.00 310.65 2012.77
   09:26:37.030.08-Nov-2020 3525.51 3323.37 69.89 1.00 310.85 2012.77
   09:26:37.230.08-Nov-2020 3525.51 3323.37 69.89 1.00 311.05 2012.77
   09:26:37.430.08-Nov-2020 3525.51 3323.37 69.89 1.00 311.25 2012.77
   09:26:37.630.08-Nov-2020 3525.51 3323.37 69.88 1.00 311.45 2012.77
   09:26:37.830.08-Nov-2020 3525.51 3323.36 69.88 1.00 311.65 2012.77
   09:26:38.030.08-Nov-2020 3525.51 3323.30 69.88 1.00 311.85 2012.77
   09:26:38.230.08-Nov-2020 3525.51 3323.38 69.88 1.00 312.05 2012.77
   09:26:38.430.08-Nov-2020 3525.51 3323.38 69.88 1.00 312.25 2012.77
   09:26:38.630.08-Nov-2020 3525.51 3323.37 69.88 1.00 312.45 2012.77
   09:26:38.830.08-Nov-2020 3525.51 3323.37 69.88 1.00 312.65 2012.77
   09:26:39.031.08-Nov-2020 3525.51 3323.36 69.88 1.00 312.85 2012.77
   09:26:39.231.08-Nov-2020 3525.51 3323.36 69.88 1.00 313.05 2012.77
   09:26:39.431.08-Nov-2020 3525.51 3323.36 69.88 1.00 313.25 2012.77
   09:26:39.631.08-Nov-2020 3525.51 3323.34 69.88 1.00 313.45 2012.77
   09:26:39.831.08-Nov-2020 3525.51 3323.37 69.88 1.00 313.65 2012.77
   09:26:40.031.08-Nov-2020 3525.51 3323.37 69.88 1.00 313.85 2012.77
   09:26:40.231.08-Nov-2020 3525.51 3323.36 69.88 1.00 314.05 2012.77
   09:26:40.431.08-Nov-2020 3525.51 3323.36 69.88 1.00 314.25 2012.77
   09:26:40.631.08-Nov-2020 3525.51 3323.30 69.88 1.00 314.45 2012.77
   09:26:40.831.08-Nov-2020 3525.51 3323.36 69.88 1.00 314.65 2012.77
   09:26:41.031.08-Nov-2020 3525.51 3323.33 69.88 1.00 314.85 2012.77
   09:26:41.231.08-Nov-2020 3525.51 3323.37 69.88 1.00 315.05 2012.77
   09:26:41.431.08-Nov-2020 3525.51 3323.37 69.88 1.00 315.25 2012.77
   09:26:41.631.08-Nov-2020 3525.51 3323.38 69.87 1.00 315.45 2012.77
   09:26:41.831.08-Nov-2020 3525.51 3323.39 69.87 1.00 315.65 2012.77
   09:26:42.031.08-Nov-2020 3525.51 3323.38 69.87 1.00 315.85 2012.77
   09:26:42.231.08-Nov-2020 3525.51 3323.32 69.87 1.00 316.05 2012.77
   09:26:42.431.08-Nov-2020 3525.51 3323.32 69.87 1.00 316.25 2012.77
   09:26:42.631.08-Nov-2020 3525.51 3323.38 69.87 1.00 316.45 2012.77
   09:26:42.831.08-Nov-2020 3525.51 3323.38 69.87 1.00 316.65 2012.77
   09:26:43.031.08-Nov-2020 3525.51 3323.39 69.87 1.00 316.85 2012.77
   09:26:43.231.08-Nov-2020 3525.51 3323.32 69.87 1.00 317.05 2012.77
   09:26:43.431.08-Nov-2020 3525.51 3323.32 69.87 1.00 317.25 2012.77
   09:26:43.631.08-Nov-2020 3525.51 3323.39 69.87 1.00 317.45 2012.77
   09:26:43.831.08-Nov-2020 3525.51 3323.38 69.87 1.00 317.65 2012.77
   09:26:44.031.08-Nov-2020 3525.51 3323.36 69.87 1.00 317.85 2012.77
   09:26:44.231.08-Nov-2020 3525.51 3323.38 69.87 1.00 318.05 2012.77
   09:26:44.431.08-Nov-2020 3525.51 3323.38 69.87 1.00 318.25 2012.77
   09:26:44.631.08-Nov-2020 3525.51 3323.38 69.87 1.00 318.45 2012.77
   09:26:44.831.08-Nov-2020 3525.51 3323.39 69.87 1.00 318.65 2012.77
   09:26:45.032.08-Nov-2020 3525.51 3323.38 69.87 1.00 318.85 2012.77
   09:26:45.232.08-Nov-2020 3525.51 3323.38 69.87 1.00 319.05 2012.77
   09:26:45.432.08-Nov-2020 3525.51 3323.38 69.87 1.00 319.25 2012.77
   09:26:45.632.08-Nov-2020 3525.51 3323.38 69.87 1.00 319.45 2012.77
   09:26:45.832.08-Nov-2020 3525.51 3323.38 69.87 1.00 319.65 2012.77
   09:26:46.032.08-Nov-2020 3525.51 3323.38 69.86 1.00 319.85 2012.77
   09:26:46.232.08-Nov-2020 3525.51 3323.37 69.86 1.00 320.05 2012.77
   09:26:46.432.08-Nov-2020 3525.51 3323.37 69.86 1.00 320.25 2012.77
   09:26:46.632.08-Nov-2020 3525.51 3323.37 69.86 1.00 320.45 2012.77
   09:26:46.832.08-Nov-2020 3525.51 3323.36 69.86 1.00 320.65 2012.77
   09:26:47.032.08-Nov-2020 3525.51 3323.33 69.86 1.00 320.85 2012.77
   09:26:47.232.08-Nov-2020 3525.51 3323.38 69.86 1.00 321.05 2012.77
   09:26:47.432.08-Nov-2020 3525.51 3323.38 69.86 1.00 321.25 2012.77
   09:26:47.632.08-Nov-2020 3525.51 3323.37 69.86 1.00 321.45 2012.77
   09:26:47.832.08-Nov-2020 3525.51 3323.39 69.86 1.00 321.65 2012.77
   09:26:48.032.08-Nov-2020 3525.51 3323.38 69.86 1.00 321.85 2012.77
