~Version Information
 VERS.                  2.0:   CWLS log ASCII Standard -VERSION 2.0
 WRAP.                   NO:   One line per depth step
~Well Information Block
#MNEM.UNIT     VALUE/NAME     DESCRIPTION
#---------     -----------    ---------------------------
 STRT.S             09:21:26 08-Nov-20: START TIME 09:21:26 08-Nov-20
 STOP.S             09:27:58 08-Nov-20: STOP TIME  09:27:58 08-Nov-20
 STEP.S                   0.00: STEP TIME
 NULL.                 -999.25: NULL VALUE
 DFWT.                        :  DIST FWL TEXT
 DFST.                        :  DIST FSL TEXT
 DMF .             Drill Floor:  DRILL MEAS FROM
 STIM.      04.54.24 22-Sep-20:  START TIME
 DATE.      04.54.24 21-Nov-20:  END TIME
 SPUD.               21-Nov-20:  SPUD DATE
 NREF.                    Grid:  NORTH REFERENCE
 HPTY.       Minimum Curvature:  HOLE POS TYPE
 DMOD.             Drill Model:  DRILL MOD DESC
 SVYD.                  Survey:  SURVEY DESC
 ILTD.               Lithology:  INTERP LTH DESC
 FTOP.          Formation Tops:  FORM TOPS DESC
 SON .        AZ-XX-0906571587:  JOB NUMBER
 COMP.     BP Exploration (Caspian Sea) Ltd:  COMPANY
 UWI .                     N/A:  UNIQUE WELL IDENTIFIER
 API .                     N/A:  API NUMBER
 BASE.              Azerbaijan:  LOGGING EQUIPMENT BASE LOCATION
 REGN.                   EESSA:  REGION
 PROV.                    Baku:  PROVINCE
 STAT.                    Baku:  STATE NAME
 CTRY.              Azerbaijan:  COUNTRY NAME
 FLD .                     ACG:  FIELD NAME
 SRVC.     TURAN Drilling & Engineering:  CONTRACTOR
 WELL.                     J27:  WELL NAME
 RIG .             West Chirag:  RIG NAME
 DOE .                     N/A:  DOE NUMBER
 DCON.         Sperry Drilling:  DIRECTNL CONTR
 PDAT.          Mean Sea Level:  PERMANENT DATUM
 WTYP.                Deviated:  WELL TYPE
 MWDS.                    Baku:  MWD SHOP
 JOBN.        AZ-XX-0906571587:  JOB TICKET NUMB
 UNIT.                     N/A:  LOGGING EQUIPMENT ID
 MDS .        Operator Entered:  MAG DATA SOURCE
 CNTY.                        :  COUNTY
 LOC .                        :  LOCATION
 LMF .             Drill Floor:  LOG MEASURED FROM
 TVDS.m                  43.00:  TVDSS CORRECTN
 LATI.deg                40.13:  LATITUDE
 LONG.deg                51.22:  LONGITUDE
 WHNS.m                   7.72:  WELL HEAD N/S
 WHEW.m                 -14.24:  WELL HEAD E/W
 UTMX.m              519005.06:  UTM X
 UTMY.m             4443793.85:  UTM Y
 DFWL.m                   0.00:  DISTANCE FWL
 DFSL.m                   0.00:  DISTANCE FSL
 SDEP.m                 347.00:  START DEPTH
 TDD .m                 581.00:  TOTAL DEPTH (DRILLER)
 VSDR.deg               159.72:  VERT SEC DIRECT
 GVFD.g                   1.00:  GRAVITY FIELD
 MFLD.nT              50313.00:  MAGNETIC FIELD
 MDIP.deg                59.58:  MAGNETIC DIP
 MDEC.deg                 6.45:  MAGNETIC DECL
 GRDC.deg                 0.15:  GRID CORRECTION
 AZTC.deg                 6.30:  AZM TOTAL CORR
 EPD .m                   0.00:  ELEVATION
 EGL .m                   0.00:  GROUND ELEVATION
 WDMS.m                 169.80:  WD ELEV
 APD .m                  43.00:  DEPTH ABOVE PD
 AGAP.m                  43.00:  AIR GAP
 VSEW.m                 -14.24:  VERT SEC E/W
 VSNS.m                   7.72:  VERT SEC N/S
 DEP .m                 342.45:  DEPTH
 EKB .m                   0.00:  KB ELEVATION
 EDF .m                  43.00:  DF ELEVATION
 TDL .m                1313.00:  TOTAL DEPTH (LOGGER)
 VSC .                       0:  VS TO CLOSURE
 MAGU.                 1851396:  MAGUTM CHECKSUM
~Parameter Information Block
#MNEM.UNIT       Value        Description
#---------     -----------    ---------------------------
 AV  .mps                 0.65:  Ann Velocity 
 AVMX.mps                 0.75:  Max Ann Veloc 
 AZIF.deg               115.08:  Azm, Final 
 BHAT.        Rotary Steerable:  BHA Type 
 BROT.°/30m               1.50:  Build Rotating 
 BS  .in                 12.25:  Bit Size 
 BSZ .in                 12.25:  Bit Size 
 BTPL.psig              700.00:  Bit Press Loss 
 CABU.                     Yes:  Customer Abuse 
 COMM.                     <
V:  Run Comments 1 
 TCS .hr                121.00:  Time Ciculation Ended 
 CV  .mps                 1.83:  Crit Velocity 
 CVMX.mps                 1.83:  Max Crit Veloc 
 DD1 .          Rashad Habibov:  Direct Drillr 1 
 DD2 .         Rasim Ibrahimov:  Direct Drillr 2 
 DDSV.                 iCruise:  DD Service 
 DEFF.%                 100.00:  % Det Eff 
 DLRX.°/30m               3.60:  Dogleg Rot Max 
 DLSO.°/30m               3.10:  Dogleg Oriented 
 DLSX.°/30m               3.60:  Dogleg Str Max 
 DRET.      13.41.20 12-Nov-20:  Drill End Time 
 DRST.      13.41.20 07-Nov-20:  Drill Start Tim 
 DTIM.hr                 54.16:  Time Drilling 
 EDEP.m                4762.01:  End Depth 
 ENG1.           Amrah Tahirov:  Engineer 1 
 ENG2.      Bakhtiyar Jabbarli:  Engineer 2 
 ENG3.          Ruslan Safarov:  Engineer 3 
 ETIM.      13.41.20 14-Nov-20:  End Time 
 FLOI.gpm              1200.00:  Flow In 
 FLON.gpm              1100.00:  Flow In Min 
 FLOS.cptm                0.00:  Fluid Loss 
 FLOX.gpm              1200.00:  Flow In Max 
 HFLO.                      No:  High Flow 
 HPRE.                      No:  High Pressure 
 HTEM.                      No:  High Temp 
 HYDO.m                   2.00:  Hydro Offset 
 IFIN.deg                66.14:  Inc, Final 
 IMAX.deg                69.03:  Inc Max 
 IMIN.deg                64.64:  Inc Min 
 IMND.m                4450.16:  Inc Min Depth 
 IMXD.m                3996.00:  Inc Max Depth 
 JARR.                     Yes:  Jarring 
 LETM.      13.41.20 14-Nov-20:  Log End Time 
 LOST.hr                     0:  Lost Rig Time 
 LSTM.      13.41.20 06-Nov-20:  Log Start Time 
 MDCL.ppm             42500.00:  Mud Chlorides 
 MDES.     Inversion Oil/Synthetic:  Mud Desc 
 DFD .sg                  1.45:  Mud Density 
 MDMN.sg                  1.45:  Dens Mud Min 
 MDMX.sg                  1.45:  Dens Mud Max 
 MOIL.                      70:  Run Mud Oil % 
 MOWR.                   70:30:  Run Mud OWR 
 MSND.                       0:  Run Mud Sand % 
 MSOL.                    19.3:  Run Mud Solids% 
 DFV .spqt               77.00:  Mud Viscosity 
 MWOD.in                  8.00:  MWD Tool OD 
 MWSI.                      No:  Serv Intrp, MWD 
 OTIM.hr                201.88:  Time Operating 
 PCON.           Look Like New:  Pad Condition 
 PMAX.psia             9250.94:  Press Op, Max 
 PV  .cP                 29.00:  Mud PV 
 RUN .                     800:  Run Number 
 ROPA.m/hr               28.00:  ROP Avg 
 ROPN.m/hr               25.00:  ROP Min 
 ROPX.m/hr               30.00:  ROP Max 
 RPMA.rpm               160.00:  RPM Surface Avg 
 RPMN.rpm               160.00:  RPM Surface Min 
 RPMX.rpm               160.00:  RPM Surface Max 
 RRUN.                    0800:  Rig Run Number 
 RTIM.hr                 12.00:  Time Reaming 
 SAZI.deg               169.33:  Azm, Start 
 SDEP.m                3449.01:  Start Depth 
 SIDD.                      No:  Serv Intrp, DD 
 SINC.deg                68.01:  Inc, Start 
 SPPA.psig             4900.00:  SPP Avg 
 SPPN.psig             4800.00:  SPP Min 
 SPPX.psig             5050.00:  SPP Max 
 STIM.      13.41.20 06-Nov-20:  Start Time 
 SVCS.                 DD, MWD:  Services 
 SVER.                    9.20:  Sperry Version 
 TDAT.m                4762.01:  Tot Depth Attmp 
 TDDF.                      No:  Trip for DD 
 TDLG.m                1313.00:  Tot Depth Loggd 
 TFF .                      No:  Trip for Fail 
 TQAA.f-kp               13.00:  Torque Abs Avg 
 TQAN.f-kp               13.00:  Torque Abs Min 
 TQAX.f-kp               13.00:  Torque Abs Max 
 TRRT.°/30m               1.70:  Turn Rotating 
 MRT .                  EWR-M5:  Maximum Recorded Temperature 
 TTMX.degC               86.00:  Max Tool Temp 
 VS01.                90622122:  Virtual Str1 SN 
 VS02.                90577298:  Virtual Str2 SN 
 VS03.                90563623:  Virtual Str3 SN 
 VS04.                90617559:  Virtual Str4 SN 
 VS05.                11339492:  Virtual Str5 SN 
 VS06.                12385033:  Virtual Str6 SN 
 WBMN.klb                 0.00:  WOB Min 
 WOBA.klb                22.00:  WOB Avg 
 WOBX.klb                26.00:  WOB Max 
 YP  .lhf2               30.00:  Yield Point 
~Curve Information Block
#MNEM.UNIT                 API CODE     Curve Description
#---------               -----------    ---------------------------
 TIME.HHMMSS            00 000 000 000:  GT Time & Date
 GTDEPTH.m              00 000 000 000:  GT Depth
 GTPQH.psia             00 000 000 000:  GT HR Quartz Pressure
 GTTQ.degC              00 000 000 000:  GT Quartz Temperature
 GTTN.NONE              00 000 000 000:  GT Test Number
 GTET.sec               00 000 000 000:  GT Elapsed Test Time
 GTTVD.m                00 000 000 000:  GT True Vertical Depth
#Other Information
#
#WARRANTY: Halliburton will use its best efforts to furnish customers with 
#accurate information and interpretations that are part of, and incident to, the services 
#provided.  However, Halliburton cannot and does not warrant the accuracy 
#or correctness of such information and interpretations.  Under no circumstances should any 
#such information or interpretation be relied upon as the sole basis for any drilling, 
#completion, production, or financial decision or any procedure involving any risk to the 
#safety of any drilling venture, drilling rig or its crew or any other third party.  The 
#Customer has full responsibility for all drilling, completion and production operation.  
#Halliburton makes no representations or warranties, either expressed or 
#implied, including, but not limited to, the implied warranties of merchantability or fitness 
#for a particular purpose, with respect to the services rendered.  In no event will 
#Halliburton be liable for failure to obtain any particular results or for 
#any damages, including, but not limited to, indirect, special or consequential damages, 
#resulting from the use of any information or interpretation provided by Halliburton.
#
~A           TIME           GTDEPTH  GTPQH  GTTQ  GTTN  GTET   GTTVD  
# ...
   09:23:44.201.08-Nov-2020 3525.51 3323.50 70.25 1.00 138.02 2012.77
   09:23:44.401.08-Nov-2020 3525.51 3323.50 70.25 1.00 138.22 2012.77
   09:23:44.601.08-Nov-2020 3525.51 3323.48 70.25 1.00 138.42 2012.77
   09:23:44.801.08-Nov-2020 3525.51 3323.54 70.25 1.00 138.62 2012.77
   09:23:45.001.08-Nov-2020 3525.51 3323.52 70.25 1.00 138.82 2012.77
   09:23:45.201.08-Nov-2020 3525.51 3323.50 70.25 1.00 139.02 2012.77
   09:23:45.401.08-Nov-2020 3525.51 3323.50 70.25 1.00 139.22 2012.77
   09:23:45.601.08-Nov-2020 3525.51 3323.56 70.25 1.00 139.42 2012.77
   09:23:45.801.08-Nov-2020 3525.51 3323.51 70.25 1.00 139.62 2012.77
   09:23:46.001.08-Nov-2020 3525.51 3323.50 70.25 1.00 139.82 2012.77
   09:23:46.201.08-Nov-2020 3525.51 3323.51 70.25 1.00 140.02 2012.77
   09:23:46.401.08-Nov-2020 3525.51 3323.51 70.25 1.00 140.22 2012.77
   09:23:46.601.08-Nov-2020 3525.51 3323.48 70.25 1.00 140.42 2012.77
   09:23:46.801.08-Nov-2020 3525.51 3323.50 70.25 1.00 140.62 2012.77
   09:23:47.001.08-Nov-2020 3525.51 3323.48 70.25 1.00 140.82 2012.77
   09:23:47.201.08-Nov-2020 3525.51 3323.49 70.25 1.00 141.02 2012.77
   09:23:47.401.08-Nov-2020 3525.51 3323.49 70.25 1.00 141.22 2012.77
   09:23:47.601.08-Nov-2020 3525.51 3323.48 70.25 1.00 141.42 2012.77
   09:23:47.802.08-Nov-2020 3525.51 3323.48 70.25 1.00 141.62 2012.77
   09:23:48.002.08-Nov-2020 3525.51 3323.48 70.25 1.00 141.82 2012.77
   09:23:48.202.08-Nov-2020 3525.51 3323.45 70.25 1.00 142.02 2012.77
   09:23:48.402.08-Nov-2020 3525.51 3323.45 70.25 1.00 142.22 2012.77
   09:23:48.602.08-Nov-2020 3525.51 3323.51 70.24 1.00 142.42 2012.77
   09:23:48.802.08-Nov-2020 3525.51 3323.49 70.24 1.00 142.62 2012.77
   09:23:49.002.08-Nov-2020 3525.51 3323.50 70.24 1.00 142.82 2012.77
   09:23:49.202.08-Nov-2020 3525.51 3323.48 70.24 1.00 143.02 2012.77
   09:23:49.402.08-Nov-2020 3525.51 3323.48 70.24 1.00 143.22 2012.77
   09:23:49.602.08-Nov-2020 3525.51 3323.48 70.24 1.00 143.42 2012.77
   09:23:49.802.08-Nov-2020 3525.51 3323.47 70.24 1.00 143.62 2012.77
   09:23:50.002.08-Nov-2020 3525.51 3323.48 70.24 1.00 143.82 2012.77
   09:23:50.202.08-Nov-2020 3525.51 3323.48 70.24 1.00 144.02 2012.77
   09:23:50.402.08-Nov-2020 3525.51 3323.48 70.24 1.00 144.22 2012.77
   09:23:50.602.08-Nov-2020 3525.51 3323.47 70.24 1.00 144.42 2012.77
   09:23:50.802.08-Nov-2020 3525.51 3323.45 70.24 1.00 144.62 2012.77
   09:23:51.002.08-Nov-2020 3525.51 3323.51 70.24 1.00 144.82 2012.77
   09:23:51.202.08-Nov-2020 3525.51 3323.50 70.24 1.00 145.02 2012.77
   09:23:51.402.08-Nov-2020 3525.51 3323.50 70.24 1.00 145.22 2012.77
   09:23:51.602.08-Nov-2020 3525.51 3323.52 70.24 1.00 145.42 2012.77
   09:23:51.802.08-Nov-2020 3525.51 3323.51 70.24 1.00 145.62 2012.77
   09:23:52.002.08-Nov-2020 3525.51 3323.49 70.24 1.00 145.82 2012.77
   09:23:52.202.08-Nov-2020 3525.51 3323.49 70.24 1.00 146.02 2012.77
   09:23:52.402.08-Nov-2020 3525.51 3323.49 70.24 1.00 146.22 2012.77
   09:23:52.602.08-Nov-2020 3525.51 3323.52 70.24 1.00 146.42 2012.77
   09:23:52.802.08-Nov-2020 3525.51 3323.50 70.24 1.00 146.62 2012.77
   09:23:53.002.08-Nov-2020 3525.51 3323.49 70.24 1.00 146.82 2012.77
   09:23:53.202.08-Nov-2020 3525.51 3323.50 70.23 1.00 147.02 2012.77
   09:23:53.402.08-Nov-2020 3525.51 3323.50 70.23 1.00 147.22 2012.77
   09:23:53.603.08-Nov-2020 3525.51 3323.49 70.23 1.00 147.42 2012.77
   09:23:53.803.08-Nov-2020 3525.51 3323.51 70.23 1.00 147.62 2012.77
   09:23:54.003.08-Nov-2020 3525.51 3323.50 70.23 1.00 147.83 2012.77
   09:23:54.203.08-Nov-2020 3525.51 3323.50 70.23 1.00 148.03 2012.77
   09:23:54.403.08-Nov-2020 3525.51 3323.50 70.23 1.00 148.23 2012.77
   09:23:54.603.08-Nov-2020 3525.51 3323.52 70.23 1.00 148.43 2012.77
   09:23:54.803.08-Nov-2020 3525.51 3323.52 70.23 1.00 148.63 2012.77
   09:23:55.003.08-Nov-2020 3525.51 3323.49 70.23 1.00 148.83 2012.77
   09:23:55.203.08-Nov-2020 3525.51 3323.50 70.23 1.00 149.03 2012.77
   09:23:55.403.08-Nov-2020 3525.51 3323.50 70.23 1.00 149.23 2012.77
   09:23:55.603.08-Nov-2020 3525.51 3323.48 70.23 1.00 149.43 2012.77
   09:23:55.803.08-Nov-2020 3525.51 3323.48 70.23 1.00 149.63 2012.77
   09:23:56.003.08-Nov-2020 3525.51 3323.48 70.23 1.00 149.83 2012.77
   09:23:56.203.08-Nov-2020 3525.51 3323.49 70.23 1.00 150.03 2012.77
   09:23:56.403.08-Nov-2020 3525.51 3323.49 70.23 1.00 150.23 2012.77
   09:23:56.603.08-Nov-2020 3525.51 3323.48 70.23 1.00 150.43 2012.77
   09:23:56.803.08-Nov-2020 3525.51 3321.33 70.23 1.00 150.63 2012.77
   09:23:57.003.08-Nov-2020 3525.51 3321.20 70.23 1.00 150.83 2012.77
   09:23:57.203.08-Nov-2020 3525.51 3321.31 70.23 1.00 151.03 2012.77
   09:23:57.403.08-Nov-2020 3525.51 3321.31 70.23 1.00 151.23 2012.77
   09:23:57.603.08-Nov-2020 3525.51 3321.50 70.23 1.00 151.43 2012.77
   09:23:57.803.08-Nov-2020 3525.51 3321.53 70.23 1.00 151.63 2012.77
   09:23:58.003.08-Nov-2020 3525.51 3321.55 70.23 1.00 151.83 2012.77
   09:23:58.203.08-Nov-2020 3525.51 3321.58 70.22 1.00 152.03 2012.77
   09:23:58.403.08-Nov-2020 3525.51 3321.58 70.22 1.00 152.23 2012.77
   09:23:58.603.08-Nov-2020 3525.51 3321.61 70.22 1.00 152.43 2012.77
   09:23:58.803.08-Nov-2020 3525.51 3321.60 70.22 1.00 152.63 2012.77
   09:23:59.003.08-Nov-2020 3525.51 3321.64 70.22 1.00 152.83 2012.77
   09:23:59.203.08-Nov-2020 3525.51 3321.63 70.22 1.00 153.03 2012.77
   09:23:59.403.08-Nov-2020 3525.51 3321.63 70.22 1.00 153.23 2012.77
   09:23:59.604.08-Nov-2020 3525.51 3321.62 70.22 1.00 153.43 2012.77
   09:23:59.804.08-Nov-2020 3525.51 3321.68 70.22 1.00 153.63 2012.77
   09:24:00.004.08-Nov-2020 3525.51 3321.70 70.22 1.00 153.83 2012.77
   09:24:00.204.08-Nov-2020 3525.51 3321.75 70.22 1.00 154.03 2012.77
   09:24:00.404.08-Nov-2020 3525.51 3321.75 70.22 1.00 154.23 2012.77
   09:24:00.604.08-Nov-2020 3525.51 3321.77 70.22 1.00 154.43 2012.77
   09:24:00.804.08-Nov-2020 3525.51 3321.78 70.22 1.00 154.63 2012.77
   09:24:01.004.08-Nov-2020 3525.51 3321.79 70.22 1.00 154.83 2012.77
   09:24:01.204.08-Nov-2020 3525.51 3321.79 70.22 1.00 155.03 2012.77
   09:24:01.404.08-Nov-2020 3525.51 3321.79 70.22 1.00 155.23 2012.77
   09:24:01.604.08-Nov-2020 3525.51 3321.83 70.22 1.00 155.43 2012.77
   09:24:01.804.08-Nov-2020 3525.51 3321.82 70.22 1.00 155.63 2012.77
   09:24:02.004.08-Nov-2020 3525.51 3321.81 70.22 1.00 155.83 2012.77
   09:24:02.204.08-Nov-2020 3525.51 3321.82 70.22 1.00 156.03 2012.77
   09:24:02.404.08-Nov-2020 3525.51 3321.82 70.22 1.00 156.23 2012.77
   09:24:02.604.08-Nov-2020 3525.51 3321.81 70.22 1.00 156.43 2012.77
   09:24:02.804.08-Nov-2020 3525.51 3321.85 70.22 1.00 156.63 2012.77
   09:24:03.004.08-Nov-2020 3525.51 3321.83 70.22 1.00 156.83 2012.77
   09:24:03.204.08-Nov-2020 3525.51 3321.86 70.21 1.00 157.03 2012.77
   09:24:03.404.08-Nov-2020 3525.51 3321.86 70.21 1.00 157.23 2012.77
   09:24:03.604.08-Nov-2020 3525.51 3321.86 70.21 1.00 157.43 2012.77
   09:24:03.804.08-Nov-2020 3525.51 3321.85 70.21 1.00 157.63 2012.77
   09:24:04.004.08-Nov-2020 3525.51 3321.87 70.21 1.00 157.83 2012.77
   09:24:04.204.08-Nov-2020 3525.51 3321.85 70.21 1.00 158.03 2012.77
   09:24:04.404.08-Nov-2020 3525.51 3321.85 70.21 1.00 158.23 2012.77
   09:24:04.604.08-Nov-2020 3525.51 3321.86 70.21 1.00 158.43 2012.77
   09:24:04.804.08-Nov-2020 3525.51 3321.87 70.21 1.00 158.63 2012.77
   09:24:05.004.08-Nov-2020 3525.51 3321.87 70.21 1.00 158.83 2012.77
   09:24:05.204.08-Nov-2020 3525.51 3321.86 70.21 1.00 159.03 2012.77
   09:24:05.405.08-Nov-2020 3525.51 3321.86 70.21 1.00 159.23 2012.77
   09:24:05.605.08-Nov-2020 3525.51 3321.87 70.21 1.00 159.43 2012.77
   09:24:05.805.08-Nov-2020 3525.51 3321.87 70.21 1.00 159.63 2012.77
   09:24:06.005.08-Nov-2020 3525.51 3321.88 70.21 1.00 159.83 2012.77
   09:24:06.205.08-Nov-2020 3525.51 3321.89 70.21 1.00 160.03 2012.77
   09:24:06.405.08-Nov-2020 3525.51 3321.89 70.21 1.00 160.23 2012.77
   09:24:06.605.08-Nov-2020 3525.51 3321.93 70.21 1.00 160.43 2012.77
   09:24:06.805.08-Nov-2020 3525.51 3321.91 70.21 1.00 160.63 2012.77
   09:24:07.005.08-Nov-2020 3525.51 3321.93 70.21 1.00 160.83 2012.77
