~Version Information
 VERS.                  2.0:   CWLS log ASCII Standard -VERSION 2.0
 WRAP.                   NO:   One line per depth step
~Well Information Block
#MNEM.UNIT     VALUE/NAME     DESCRIPTION
#---------     -----------    ---------------------------
 STRT.S             13:56:13 08-Nov-20: START TIME 13:56:13 08-Nov-20
 STOP.S             14:02:43 08-Nov-20: STOP TIME  14:02:43 08-Nov-20
 STEP.S                   0.00: STEP TIME
 NULL.                 -999.25: NULL VALUE
 DFWT.                        :  DIST FWL TEXT
 DFST.                        :  DIST FSL TEXT
 DMF .             Drill Floor:  DRILL MEAS FROM
 STIM.      04.54.24 22-Sep-20:  START TIME
 DATE.      04.54.24 21-Nov-20:  END TIME
 SPUD.               21-Nov-20:  SPUD DATE
 NREF.                    Grid:  NORTH REFERENCE
 HPTY.       Minimum Curvature:  HOLE POS TYPE
 DMOD.             Drill Model:  DRILL MOD DESC
 SVYD.                  Survey:  SURVEY DESC
 ILTD.               Lithology:  INTERP LTH DESC
 FTOP.          Formation Tops:  FORM TOPS DESC
 SON .        AZ-XX-0906571587:  JOB NUMBER
 COMP.     BP Exploration (Caspian Sea) Ltd:  COMPANY
 UWI .                     N/A:  UNIQUE WELL IDENTIFIER
 API .                     N/A:  API NUMBER
 BASE.              Azerbaijan:  LOGGING EQUIPMENT BASE LOCATION
 REGN.                   EESSA:  REGION
 PROV.                    Baku:  PROVINCE
 STAT.                    Baku:  STATE NAME
 CTRY.              Azerbaijan:  COUNTRY NAME
 FLD .                     ACG:  FIELD NAME
 SRVC.     TURAN Drilling & Engineering:  CONTRACTOR
 WELL.                     J27:  WELL NAME
 RIG .             West Chirag:  RIG NAME
 DOE .                     N/A:  DOE NUMBER
 DCON.         Sperry Drilling:  DIRECTNL CONTR
 PDAT.          Mean Sea Level:  PERMANENT DATUM
 WTYP.                Deviated:  WELL TYPE
 MWDS.                    Baku:  MWD SHOP
 JOBN.        AZ-XX-0906571587:  JOB TICKET NUMB
 UNIT.                     N/A:  LOGGING EQUIPMENT ID
 MDS .        Operator Entered:  MAG DATA SOURCE
 CNTY.                        :  COUNTY
 LOC .                        :  LOCATION
 LMF .             Drill Floor:  LOG MEASURED FROM
 TVDS.m                  43.00:  TVDSS CORRECTN
 LATI.deg                40.13:  LATITUDE
 LONG.deg                51.22:  LONGITUDE
 WHNS.m                   7.72:  WELL HEAD N/S
 WHEW.m                 -14.24:  WELL HEAD E/W
 UTMX.m              519005.06:  UTM X
 UTMY.m             4443793.85:  UTM Y
 DFWL.m                   0.00:  DISTANCE FWL
 DFSL.m                   0.00:  DISTANCE FSL
 SDEP.m                 347.00:  START DEPTH
 TDD .m                 581.00:  TOTAL DEPTH (DRILLER)
 VSDR.deg               159.72:  VERT SEC DIRECT
 GVFD.g                   1.00:  GRAVITY FIELD
 MFLD.nT              50313.00:  MAGNETIC FIELD
 MDIP.deg                59.58:  MAGNETIC DIP
 MDEC.deg                 6.45:  MAGNETIC DECL
 GRDC.deg                 0.15:  GRID CORRECTION
 AZTC.deg                 6.30:  AZM TOTAL CORR
 EPD .m                   0.00:  ELEVATION
 EGL .m                   0.00:  GROUND ELEVATION
 WDMS.m                 169.80:  WD ELEV
 APD .m                  43.00:  DEPTH ABOVE PD
 AGAP.m                  43.00:  AIR GAP
 VSEW.m                 -14.24:  VERT SEC E/W
 VSNS.m                   7.72:  VERT SEC N/S
 DEP .m                 342.45:  DEPTH
 EKB .m                   0.00:  KB ELEVATION
 EDF .m                  43.00:  DF ELEVATION
 TDL .m                1313.00:  TOTAL DEPTH (LOGGER)
 VSC .                       0:  VS TO CLOSURE
 MAGU.                 1851396:  MAGUTM CHECKSUM
~Parameter Information Block
#MNEM.UNIT       Value        Description
#---------     -----------    ---------------------------
 AV  .mps                 0.65:  Ann Velocity 
 AVMX.mps                 0.75:  Max Ann Veloc 
 AZIF.deg               115.08:  Azm, Final 
 BHAT.        Rotary Steerable:  BHA Type 
 BROT.°/30m               1.50:  Build Rotating 
 BS  .in                 12.25:  Bit Size 
 BSZ .in                 12.25:  Bit Size 
 BTPL.psig              700.00:  Bit Press Loss 
 CABU.                     Yes:  Customer Abuse 
 COMM.                     ì¹^:  Run Comments 1 
 TCS .hr                121.00:  Time Ciculation Ended 
 CV  .mps                 1.83:  Crit Velocity 
 CVMX.mps                 1.83:  Max Crit Veloc 
 DD1 .          Rashad Habibov:  Direct Drillr 1 
 DD2 .         Rasim Ibrahimov:  Direct Drillr 2 
 DDSV.                 iCruise:  DD Service 
 DEFF.%                 100.00:  % Det Eff 
 DLRX.°/30m               3.60:  Dogleg Rot Max 
 DLSO.°/30m               3.10:  Dogleg Oriented 
 DLSX.°/30m               3.60:  Dogleg Str Max 
 DRET.      13.41.20 12-Nov-20:  Drill End Time 
 DRST.      13.41.20 07-Nov-20:  Drill Start Tim 
 DTIM.hr                 54.16:  Time Drilling 
 EDEP.m                4762.01:  End Depth 
 ENG1.           Amrah Tahirov:  Engineer 1 
 ENG2.      Bakhtiyar Jabbarli:  Engineer 2 
 ENG3.          Ruslan Safarov:  Engineer 3 
 ETIM.      13.41.20 14-Nov-20:  End Time 
 FLOI.gpm              1200.00:  Flow In 
 FLON.gpm              1100.00:  Flow In Min 
 FLOS.cptm                0.00:  Fluid Loss 
 FLOX.gpm              1200.00:  Flow In Max 
 HFLO.                      No:  High Flow 
 HPRE.                      No:  High Pressure 
 HTEM.                      No:  High Temp 
 HYDO.m                   2.00:  Hydro Offset 
 IFIN.deg                66.14:  Inc, Final 
 IMAX.deg                69.03:  Inc Max 
 IMIN.deg                64.64:  Inc Min 
 IMND.m                4450.16:  Inc Min Depth 
 IMXD.m                3996.00:  Inc Max Depth 
 JARR.                     Yes:  Jarring 
 LETM.      13.41.20 14-Nov-20:  Log End Time 
 LOST.hr                     0:  Lost Rig Time 
 LSTM.      13.41.20 06-Nov-20:  Log Start Time 
 MDCL.ppm             42500.00:  Mud Chlorides 
 MDES.     Inversion Oil/Synthetic:  Mud Desc 
 DFD .sg                  1.45:  Mud Density 
 MDMN.sg                  1.45:  Dens Mud Min 
 MDMX.sg                  1.45:  Dens Mud Max 
 MOIL.                      70:  Run Mud Oil % 
 MOWR.                   70:30:  Run Mud OWR 
 MSND.                       0:  Run Mud Sand % 
 MSOL.                    19.3:  Run Mud Solids% 
 DFV .spqt               77.00:  Mud Viscosity 
 MWOD.in                  8.00:  MWD Tool OD 
 MWSI.                      No:  Serv Intrp, MWD 
 OTIM.hr                201.88:  Time Operating 
 PCON.           Look Like New:  Pad Condition 
 PMAX.psia             9250.94:  Press Op, Max 
 PV  .cP                 29.00:  Mud PV 
 RUN .                     800:  Run Number 
 ROPA.m/hr               28.00:  ROP Avg 
 ROPN.m/hr               25.00:  ROP Min 
 ROPX.m/hr               30.00:  ROP Max 
 RPMA.rpm               160.00:  RPM Surface Avg 
 RPMN.rpm               160.00:  RPM Surface Min 
 RPMX.rpm               160.00:  RPM Surface Max 
 RRUN.                    0800:  Rig Run Number 
 RTIM.hr                 12.00:  Time Reaming 
 SAZI.deg               169.33:  Azm, Start 
 SDEP.m                3449.01:  Start Depth 
 SIDD.                      No:  Serv Intrp, DD 
 SINC.deg                68.01:  Inc, Start 
 SPPA.psig             4900.00:  SPP Avg 
 SPPN.psig             4800.00:  SPP Min 
 SPPX.psig             5050.00:  SPP Max 
 STIM.      13.41.20 06-Nov-20:  Start Time 
 SVCS.                 DD, MWD:  Services 
 SVER.                    9.20:  Sperry Version 
 TDAT.m                4762.01:  Tot Depth Attmp 
 TDDF.                      No:  Trip for DD 
 TDLG.m                1313.00:  Tot Depth Loggd 
 TFF .                      No:  Trip for Fail 
 TQAA.f-kp               13.00:  Torque Abs Avg 
 TQAN.f-kp               13.00:  Torque Abs Min 
 TQAX.f-kp               13.00:  Torque Abs Max 
 TRRT.°/30m               1.70:  Turn Rotating 
 MRT .                  EWR-M5:  Maximum Recorded Temperature 
 TTMX.degC               86.00:  Max Tool Temp 
 VS01.                90622122:  Virtual Str1 SN 
 VS02.                90577298:  Virtual Str2 SN 
 VS03.                90563623:  Virtual Str3 SN 
 VS04.                90617559:  Virtual Str4 SN 
 VS05.                11339492:  Virtual Str5 SN 
 VS06.                12385033:  Virtual Str6 SN 
 WBMN.klb                 0.00:  WOB Min 
 WOBA.klb                22.00:  WOB Avg 
 WOBX.klb                26.00:  WOB Max 
 YP  .lhf2               30.00:  Yield Point 
~Curve Information Block
#MNEM.UNIT                 API CODE     Curve Description
#---------               -----------    ---------------------------
 TIME.HHMMSS            00 000 000 000:  GT Time & Date
 GTDEPTH.m              00 000 000 000:  GT Depth
 GTPQH.psia             00 000 000 000:  GT HR Quartz Pressure
 GTTQ.degC              00 000 000 000:  GT Quartz Temperature
 GTTN.NONE              00 000 000 000:  GT Test Number
 GTET.sec               00 000 000 000:  GT Elapsed Test Time
 GTTVD.m                00 000 000 000:  GT True Vertical Depth
#Other Information
#
#WARRANTY: Halliburton will use its best efforts to furnish customers with 
#accurate information and interpretations that are part of, and incident to, the services 
#provided.  However, Halliburton cannot and does not warrant the accuracy 
#or correctness of such information and interpretations.  Under no circumstances should any 
#such information or interpretation be relied upon as the sole basis for any drilling, 
#completion, production, or financial decision or any procedure involving any risk to the 
#safety of any drilling venture, drilling rig or its crew or any other third party.  The 
#Customer has full responsibility for all drilling, completion and production operation.  
#Halliburton makes no representations or warranties, either expressed or 
#implied, including, but not limited to, the implied warranties of merchantability or fitness 
#for a particular purpose, with respect to the services rendered.  In no event will 
#Halliburton be liable for failure to obtain any particular results or for 
#any damages, including, but not limited to, indirect, special or consequential damages, 
#resulting from the use of any information or interpretation provided by Halliburton.
#
~A           TIME           GTDEPTH  GTPQH  GTTQ  GTTN  GTET   GTTVD  
   13:56:13.173.08-Nov-2020 3585.71 4369.12 72.18 3.00   0.00 2034.99
   13:56:13.373.08-Nov-2020 3585.71 4369.12 72.18 3.00   0.20 2034.99
   13:56:13.573.08-Nov-2020 3585.71 4361.39 72.18 3.00   0.40 2034.99
   13:56:13.773.08-Nov-2020 3585.71 4358.00 72.18 3.00   0.60 2034.99
   13:56:13.972.08-Nov-2020 3585.71 4360.76 72.18 3.00   0.80 2034.99
   13:56:14.172.08-Nov-2020 3585.71 4355.96 72.18 3.00   1.00 2034.99
   13:56:14.372.08-Nov-2020 3585.71 4355.96 72.18 3.00   1.20 2034.99
   13:56:14.572.08-Nov-2020 3585.71 4352.10 72.17 3.00   1.40 2034.99
   13:56:14.772.08-Nov-2020 3585.71 4352.85 72.17 3.00   1.60 2034.99
   13:56:14.971.08-Nov-2020 3585.71 4354.66 72.17 3.00   1.80 2034.99
   13:56:15.171.08-Nov-2020 3585.71 4352.37 72.17 3.00   2.00 2034.99
   13:56:15.371.08-Nov-2020 3585.71 4351.64 72.17 3.00   2.20 2034.99
   13:56:15.571.08-Nov-2020 3585.71 4350.98 72.17 3.00   2.40 2034.99
   13:56:15.771.08-Nov-2020 3585.71 4352.50 72.17 3.00   2.60 2034.99
   13:56:15.970.08-Nov-2020 3585.71 4351.79 72.17 3.00   2.80 2034.99
   13:56:16.170.08-Nov-2020 3585.71 4358.42 72.17 3.00   3.00 2034.99
   13:56:16.370.08-Nov-2020 3585.71 4358.42 72.17 3.00   3.20 2034.99
   13:56:16.570.08-Nov-2020 3585.71 4358.42 72.17 3.00   3.40 2034.99
   13:56:16.770.08-Nov-2020 3585.71 4352.41 72.16 3.00   3.60 2034.99
   13:56:16.969.08-Nov-2020 3585.71 4353.46 72.16 3.00   3.80 2034.99
   13:56:17.169.08-Nov-2020 3585.71 4353.26 72.16 3.00   4.00 2034.99
   13:56:17.369.08-Nov-2020 3585.71 4353.26 72.16 3.00   4.20 2034.99
   13:56:17.569.08-Nov-2020 3585.71 4353.27 72.16 3.00   4.40 2034.99
   13:56:17.769.08-Nov-2020 3585.71 4353.54 72.16 3.00   4.60 2034.99
   13:56:17.969.08-Nov-2020 3585.71 4353.46 72.16 3.00   4.80 2034.99
   13:56:18.168.08-Nov-2020 3585.71 4353.58 72.15 3.00   5.00 2034.99
   13:56:18.368.08-Nov-2020 3585.71 4353.58 72.15 3.00   5.19 2034.99
   13:56:18.568.08-Nov-2020 3585.71 4353.71 72.15 3.00   5.39 2034.99
   13:56:18.768.08-Nov-2020 3585.71 4352.98 72.15 3.00   5.59 2034.99
   13:56:18.968.08-Nov-2020 3585.71 4352.81 72.15 3.00   5.79 2034.99
   13:56:19.167.08-Nov-2020 3585.71 4356.54 72.15 3.00   5.99 2034.99
   13:56:19.367.08-Nov-2020 3585.71 4356.54 72.15 3.00   6.19 2034.99
   13:56:19.567.08-Nov-2020 3585.71 4351.85 72.15 3.00   6.39 2034.99
   13:56:19.767.08-Nov-2020 3585.71 4351.15 72.15 3.00   6.59 2034.99
   13:56:19.967.08-Nov-2020 3585.71 4353.19 72.14 3.00   6.79 2034.99
   13:56:20.166.08-Nov-2020 3585.71 4352.79 72.14 3.00   6.99 2034.99
   13:56:20.366.08-Nov-2020 3585.71 4352.79 72.14 3.00   7.19 2034.99
   13:56:20.566.08-Nov-2020 3585.71 4353.31 72.14 3.00   7.39 2034.99
   13:56:20.766.08-Nov-2020 3585.71 4354.37 72.14 3.00   7.59 2034.99
   13:56:20.966.08-Nov-2020 3585.71 4355.42 72.14 3.00   7.79 2034.99
   13:56:21.165.08-Nov-2020 3585.71 4356.07 72.14 3.00   7.99 2034.99
   13:56:21.365.08-Nov-2020 3585.71 4356.07 72.14 3.00   8.19 2034.99
   13:56:21.565.08-Nov-2020 3585.71 4361.49 72.14 3.00   8.39 2034.99
   13:56:21.765.08-Nov-2020 3585.71 4361.32 72.13 3.00   8.59 2034.99
   13:56:21.965.08-Nov-2020 3585.71 4360.47 72.13 3.00   8.79 2034.99
   13:56:22.164.08-Nov-2020 3585.71 4360.09 72.13 3.00   8.99 2034.99
   13:56:22.364.08-Nov-2020 3585.71 4360.09 72.13 3.00   9.19 2034.99
   13:56:22.564.08-Nov-2020 3585.71 4361.32 72.13 3.00   9.39 2034.99
   13:56:22.764.08-Nov-2020 3585.71 4364.21 72.13 3.00   9.59 2034.99
   13:56:22.964.08-Nov-2020 3585.71 4363.14 72.13 3.00   9.79 2034.99
   13:56:23.164.08-Nov-2020 3585.71 4363.40 72.13 3.00   9.99 2034.99
   13:56:23.363.08-Nov-2020 3585.71 4366.70 72.13 3.00  10.19 2034.99
   13:56:23.563.08-Nov-2020 3585.71 4363.98 72.12 3.00  10.39 2034.99
   13:56:23.763.08-Nov-2020 3585.71 4362.61 72.12 3.00  10.59 2034.99
   13:56:23.963.08-Nov-2020 3585.71 4362.53 72.12 3.00  10.79 2034.99
   13:56:24.163.08-Nov-2020 3585.71 4367.42 72.12 3.00  10.99 2034.99
   13:56:24.362.08-Nov-2020 3585.71 4367.42 72.12 3.00  11.19 2034.99
   13:56:24.562.08-Nov-2020 3585.71 4364.55 72.12 3.00  11.39 2034.99
   13:56:24.762.08-Nov-2020 3585.71 4366.75 72.12 3.00  11.59 2034.99
   13:56:24.962.08-Nov-2020 3585.71 4365.90 72.12 3.00  11.79 2034.99
   13:56:25.162.08-Nov-2020 3585.71 4363.29 72.12 3.00  11.99 2034.99
   13:56:25.361.08-Nov-2020 3585.71 4363.29 72.12 3.00  12.19 2034.99
   13:56:25.561.08-Nov-2020 3585.71 4364.36 72.11 3.00  12.39 2034.99
   13:56:25.761.08-Nov-2020 3585.71 4368.66 72.11 3.00  12.59 2034.99
   13:56:25.961.08-Nov-2020 3585.71 4362.61 72.11 3.00  12.79 2034.99
   13:56:26.161.08-Nov-2020 3585.71 4364.61 72.11 3.00  12.99 2034.99
   13:56:26.360.08-Nov-2020 3585.71 4364.61 72.11 3.00  13.19 2034.99
   13:56:26.560.08-Nov-2020 3585.71 4362.22 72.11 3.00  13.39 2034.99
   13:56:26.760.08-Nov-2020 3585.71 4362.22 72.11 3.00  13.59 2034.99
   13:56:26.960.08-Nov-2020 3585.71 4363.18 72.11 3.00  13.79 2034.99
   13:56:27.160.08-Nov-2020 3585.71 4363.45 72.10 3.00  13.99 2034.99
   13:56:27.359.08-Nov-2020 3585.71 4363.78 72.10 3.00  14.19 2034.99
   13:56:27.559.08-Nov-2020 3585.71 4363.69 72.10 3.00  14.39 2034.99
   13:56:27.759.08-Nov-2020 3585.71 4364.06 72.10 3.00  14.59 2034.99
   13:56:27.959.08-Nov-2020 3585.71 4363.93 72.10 3.00  14.79 2034.99
   13:56:28.159.08-Nov-2020 3585.71 4363.89 72.10 3.00  14.99 2034.99
   13:56:28.359.08-Nov-2020 3585.71 4363.89 72.10 3.00  15.19 2034.99
   13:56:28.558.08-Nov-2020 3585.71 4366.45 72.10 3.00  15.39 2034.99
   13:56:28.758.08-Nov-2020 3585.71 4363.61 72.10 3.00  15.58 2034.99
   13:56:28.958.08-Nov-2020 3585.71 4361.50 72.09 3.00  15.78 2034.99
   13:56:29.158.08-Nov-2020 3585.71 4359.94 72.09 3.00  15.98 2034.99
   13:56:29.358.08-Nov-2020 3585.71 4359.94 72.09 3.00  16.18 2034.99
   13:56:29.557.08-Nov-2020 3585.71 4359.01 72.09 3.00  16.38 2034.99
   13:56:29.757.08-Nov-2020 3585.71 4358.34 72.09 3.00  16.58 2034.99
   13:56:29.957.08-Nov-2020 3585.71 4357.56 72.09 3.00  16.78 2034.99
   13:56:30.157.08-Nov-2020 3585.71 4357.87 72.09 3.00  16.98 2034.99
   13:56:30.357.08-Nov-2020 3585.71 4357.87 72.09 3.00  17.18 2034.99
   13:56:30.556.08-Nov-2020 3585.71 4356.72 72.09 3.00  17.38 2034.99
   13:56:30.756.08-Nov-2020 3585.71 4355.86 72.09 3.00  17.58 2034.99
   13:56:30.956.08-Nov-2020 3585.71 4356.81 72.08 3.00  17.78 2034.99
   13:56:31.156.08-Nov-2020 3585.71 4362.88 72.08 3.00  17.98 2034.99
   13:56:31.356.08-Nov-2020 3585.71 4355.33 72.08 3.00  18.18 2034.99
   13:56:31.555.08-Nov-2020 3585.71 4357.36 72.08 3.00  18.38 2034.99
   13:56:31.755.08-Nov-2020 3585.71 4358.85 72.08 3.00  18.58 2034.99
   13:56:31.955.08-Nov-2020 3585.71 4357.13 72.08 3.00  18.78 2034.99
   13:56:32.155.08-Nov-2020 3585.71 4355.97 72.08 3.00  18.98 2034.99
   13:56:32.355.08-Nov-2020 3585.71 4355.97 72.08 3.00  19.18 2034.99
   13:56:32.554.08-Nov-2020 3585.71 4357.28 72.08 3.00  19.38 2034.99
   13:56:32.754.08-Nov-2020 3585.71 4356.59 72.07 3.00  19.58 2034.99
   13:56:32.954.08-Nov-2020 3585.71 4359.85 72.07 3.00  19.78 2034.99
   13:56:33.154.08-Nov-2020 3585.71 4356.30 72.07 3.00  19.98 2034.99
   13:56:33.354.08-Nov-2020 3585.71 4356.30 72.07 3.00  20.18 2034.99
   13:56:33.554.08-Nov-2020 3585.71 4355.15 72.07 3.00  20.38 2034.99
   13:56:33.753.08-Nov-2020 3585.71 4360.74 72.07 3.00  20.58 2034.99
   13:56:33.953.08-Nov-2020 3585.71 4356.50 72.07 3.00  20.78 2034.99
   13:56:34.153.08-Nov-2020 3585.71 4358.31 72.07 3.00  20.98 2034.99
   13:56:34.353.08-Nov-2020 3585.71 4358.31 72.07 3.00  21.18 2034.99
   13:56:34.553.08-Nov-2020 3585.71 4356.80 72.06 3.00  21.38 2034.99
   13:56:34.752.08-Nov-2020 3585.71 4357.29 72.06 3.00  21.58 2034.99
   13:56:34.952.08-Nov-2020 3585.71 4356.86 72.06 3.00  21.78 2034.99
   13:56:35.152.08-Nov-2020 3585.71 4356.93 72.06 3.00  21.98 2034.99
   13:56:35.352.08-Nov-2020 3585.71 4357.11 72.06 3.00  22.18 2034.99
   13:56:35.552.08-Nov-2020 3585.71 4356.87 72.06 3.00  22.38 2034.99
   13:56:35.751.08-Nov-2020 3585.71 4356.16 72.06 3.00  22.58 2034.99
   13:56:35.951.08-Nov-2020 3585.71 4355.37 72.06 3.00  22.78 2034.99
