~Version Information
 VERS.                  2.0:   CWLS log ASCII Standard -VERSION 2.0
 WRAP.                   NO:   One line per depth step
~Well Information Block
#MNEM.UNIT     VALUE/NAME     DESCRIPTION
#---------     -----------    ---------------------------
 STRT.S             13:56:13 08-Nov-20: START TIME 13:56:13 08-Nov-20
 STOP.S             14:02:43 08-Nov-20: STOP TIME  14:02:43 08-Nov-20
 STEP.S                   0.00: STEP TIME
 NULL.                 -999.25: NULL VALUE
 DFWT.                        :  DIST FWL TEXT
 DFST.                        :  DIST FSL TEXT
 DMF .             Drill Floor:  DRILL MEAS FROM
 STIM.      04.54.24 22-Sep-20:  START TIME
 DATE.      04.54.24 21-Nov-20:  END TIME
 SPUD.               21-Nov-20:  SPUD DATE
 NREF.                    Grid:  NORTH REFERENCE
 HPTY.       Minimum Curvature:  HOLE POS TYPE
 DMOD.             Drill Model:  DRILL MOD DESC
 SVYD.                  Survey:  SURVEY DESC
 ILTD.               Lithology:  INTERP LTH DESC
 FTOP.          Formation Tops:  FORM TOPS DESC
 SON .        AZ-XX-0906571587:  JOB NUMBER
 COMP.     BP Exploration (Caspian Sea) Ltd:  COMPANY
 UWI .                     N/A:  UNIQUE WELL IDENTIFIER
 API .                     N/A:  API NUMBER
 BASE.              Azerbaijan:  LOGGING EQUIPMENT BASE LOCATION
 REGN.                   EESSA:  REGION
 PROV.                    Baku:  PROVINCE
 STAT.                    Baku:  STATE NAME
 CTRY.              Azerbaijan:  COUNTRY NAME
 FLD .                     ACG:  FIELD NAME
 SRVC.     TURAN Drilling & Engineering:  CONTRACTOR
 WELL.                     J27:  WELL NAME
 RIG .             West Chirag:  RIG NAME
 DOE .                     N/A:  DOE NUMBER
 DCON.         Sperry Drilling:  DIRECTNL CONTR
 PDAT.          Mean Sea Level:  PERMANENT DATUM
 WTYP.                Deviated:  WELL TYPE
 MWDS.                    Baku:  MWD SHOP
 JOBN.        AZ-XX-0906571587:  JOB TICKET NUMB
 UNIT.                     N/A:  LOGGING EQUIPMENT ID
 MDS .        Operator Entered:  MAG DATA SOURCE
 CNTY.                        :  COUNTY
 LOC .                        :  LOCATION
 LMF .             Drill Floor:  LOG MEASURED FROM
 TVDS.m                  43.00:  TVDSS CORRECTN
 LATI.deg                40.13:  LATITUDE
 LONG.deg                51.22:  LONGITUDE
 WHNS.m                   7.72:  WELL HEAD N/S
 WHEW.m                 -14.24:  WELL HEAD E/W
 UTMX.m              519005.06:  UTM X
 UTMY.m             4443793.85:  UTM Y
 DFWL.m                   0.00:  DISTANCE FWL
 DFSL.m                   0.00:  DISTANCE FSL
 SDEP.m                 347.00:  START DEPTH
 TDD .m                 581.00:  TOTAL DEPTH (DRILLER)
 VSDR.deg               159.72:  VERT SEC DIRECT
 GVFD.g                   1.00:  GRAVITY FIELD
 MFLD.nT              50313.00:  MAGNETIC FIELD
 MDIP.deg                59.58:  MAGNETIC DIP
 MDEC.deg                 6.45:  MAGNETIC DECL
 GRDC.deg                 0.15:  GRID CORRECTION
 AZTC.deg                 6.30:  AZM TOTAL CORR
 EPD .m                   0.00:  ELEVATION
 EGL .m                   0.00:  GROUND ELEVATION
 WDMS.m                 169.80:  WD ELEV
 APD .m                  43.00:  DEPTH ABOVE PD
 AGAP.m                  43.00:  AIR GAP
 VSEW.m                 -14.24:  VERT SEC E/W
 VSNS.m                   7.72:  VERT SEC N/S
 DEP .m                 342.45:  DEPTH
 EKB .m                   0.00:  KB ELEVATION
 EDF .m                  43.00:  DF ELEVATION
 TDL .m                1313.00:  TOTAL DEPTH (LOGGER)
 VSC .                       0:  VS TO CLOSURE
 MAGU.                 1851396:  MAGUTM CHECKSUM
~Parameter Information Block
#MNEM.UNIT       Value        Description
#---------     -----------    ---------------------------
 AV  .mps                 0.65:  Ann Velocity 
 AVMX.mps                 0.75:  Max Ann Veloc 
 AZIF.deg               115.08:  Azm, Final 
 BHAT.        Rotary Steerable:  BHA Type 
 BROT.°/30m               1.50:  Build Rotating 
 BS  .in                 12.25:  Bit Size 
 BSZ .in                 12.25:  Bit Size 
 BTPL.psig              700.00:  Bit Press Loss 
 CABU.                     Yes:  Customer Abuse 
 COMM.                     ì¹^:  Run Comments 1 
 TCS .hr                121.00:  Time Ciculation Ended 
 CV  .mps                 1.83:  Crit Velocity 
 CVMX.mps                 1.83:  Max Crit Veloc 
 DD1 .          Rashad Habibov:  Direct Drillr 1 
 DD2 .         Rasim Ibrahimov:  Direct Drillr 2 
 DDSV.                 iCruise:  DD Service 
 DEFF.%                 100.00:  % Det Eff 
 DLRX.°/30m               3.60:  Dogleg Rot Max 
 DLSO.°/30m               3.10:  Dogleg Oriented 
 DLSX.°/30m               3.60:  Dogleg Str Max 
 DRET.      13.41.20 12-Nov-20:  Drill End Time 
 DRST.      13.41.20 07-Nov-20:  Drill Start Tim 
 DTIM.hr                 54.16:  Time Drilling 
 EDEP.m                4762.01:  End Depth 
 ENG1.           Amrah Tahirov:  Engineer 1 
 ENG2.      Bakhtiyar Jabbarli:  Engineer 2 
 ENG3.          Ruslan Safarov:  Engineer 3 
 ETIM.      13.41.20 14-Nov-20:  End Time 
 FLOI.gpm              1200.00:  Flow In 
 FLON.gpm              1100.00:  Flow In Min 
 FLOS.cptm                0.00:  Fluid Loss 
 FLOX.gpm              1200.00:  Flow In Max 
 HFLO.                      No:  High Flow 
 HPRE.                      No:  High Pressure 
 HTEM.                      No:  High Temp 
 HYDO.m                   2.00:  Hydro Offset 
 IFIN.deg                66.14:  Inc, Final 
 IMAX.deg                69.03:  Inc Max 
 IMIN.deg                64.64:  Inc Min 
 IMND.m                4450.16:  Inc Min Depth 
 IMXD.m                3996.00:  Inc Max Depth 
 JARR.                     Yes:  Jarring 
 LETM.      13.41.20 14-Nov-20:  Log End Time 
 LOST.hr                     0:  Lost Rig Time 
 LSTM.      13.41.20 06-Nov-20:  Log Start Time 
 MDCL.ppm             42500.00:  Mud Chlorides 
 MDES.     Inversion Oil/Synthetic:  Mud Desc 
 DFD .sg                  1.45:  Mud Density 
 MDMN.sg                  1.45:  Dens Mud Min 
 MDMX.sg                  1.45:  Dens Mud Max 
 MOIL.                      70:  Run Mud Oil % 
 MOWR.                   70:30:  Run Mud OWR 
 MSND.                       0:  Run Mud Sand % 
 MSOL.                    19.3:  Run Mud Solids% 
 DFV .spqt               77.00:  Mud Viscosity 
 MWOD.in                  8.00:  MWD Tool OD 
 MWSI.                      No:  Serv Intrp, MWD 
 OTIM.hr                201.88:  Time Operating 
 PCON.           Look Like New:  Pad Condition 
 PMAX.psia             9250.94:  Press Op, Max 
 PV  .cP                 29.00:  Mud PV 
 RUN .                     800:  Run Number 
 ROPA.m/hr               28.00:  ROP Avg 
 ROPN.m/hr               25.00:  ROP Min 
 ROPX.m/hr               30.00:  ROP Max 
 RPMA.rpm               160.00:  RPM Surface Avg 
 RPMN.rpm               160.00:  RPM Surface Min 
 RPMX.rpm               160.00:  RPM Surface Max 
 RRUN.                    0800:  Rig Run Number 
 RTIM.hr                 12.00:  Time Reaming 
 SAZI.deg               169.33:  Azm, Start 
 SDEP.m                3449.01:  Start Depth 
 SIDD.                      No:  Serv Intrp, DD 
 SINC.deg                68.01:  Inc, Start 
 SPPA.psig             4900.00:  SPP Avg 
 SPPN.psig             4800.00:  SPP Min 
 SPPX.psig             5050.00:  SPP Max 
 STIM.      13.41.20 06-Nov-20:  Start Time 
 SVCS.                 DD, MWD:  Services 
 SVER.                    9.20:  Sperry Version 
 TDAT.m                4762.01:  Tot Depth Attmp 
 TDDF.                      No:  Trip for DD 
 TDLG.m                1313.00:  Tot Depth Loggd 
 TFF .                      No:  Trip for Fail 
 TQAA.f-kp               13.00:  Torque Abs Avg 
 TQAN.f-kp               13.00:  Torque Abs Min 
 TQAX.f-kp               13.00:  Torque Abs Max 
 TRRT.°/30m               1.70:  Turn Rotating 
 MRT .                  EWR-M5:  Maximum Recorded Temperature 
 TTMX.degC               86.00:  Max Tool Temp 
 VS01.                90622122:  Virtual Str1 SN 
 VS02.                90577298:  Virtual Str2 SN 
 VS03.                90563623:  Virtual Str3 SN 
 VS04.                90617559:  Virtual Str4 SN 
 VS05.                11339492:  Virtual Str5 SN 
 VS06.                12385033:  Virtual Str6 SN 
 WBMN.klb                 0.00:  WOB Min 
 WOBA.klb                22.00:  WOB Avg 
 WOBX.klb                26.00:  WOB Max 
 YP  .lhf2               30.00:  Yield Point 
~Curve Information Block
#MNEM.UNIT                 API CODE     Curve Description
#---------               -----------    ---------------------------
 TIME.HHMMSS            00 000 000 000:  GT Time & Date
 GTDEPTH.m              00 000 000 000:  GT Depth
 GTPQH.psia             00 000 000 000:  GT HR Quartz Pressure
 GTTQ.degC              00 000 000 000:  GT Quartz Temperature
 GTTN.NONE              00 000 000 000:  GT Test Number
 GTET.sec               00 000 000 000:  GT Elapsed Test Time
 GTTVD.m                00 000 000 000:  GT True Vertical Depth
#Other Information
#
#WARRANTY: Halliburton will use its best efforts to furnish customers with 
#accurate information and interpretations that are part of, and incident to, the services 
#provided.  However, Halliburton cannot and does not warrant the accuracy 
#or correctness of such information and interpretations.  Under no circumstances should any 
#such information or interpretation be relied upon as the sole basis for any drilling, 
#completion, production, or financial decision or any procedure involving any risk to the 
#safety of any drilling venture, drilling rig or its crew or any other third party.  The 
#Customer has full responsibility for all drilling, completion and production operation.  
#Halliburton makes no representations or warranties, either expressed or 
#implied, including, but not limited to, the implied warranties of merchantability or fitness 
#for a particular purpose, with respect to the services rendered.  In no event will 
#Halliburton be liable for failure to obtain any particular results or for 
#any damages, including, but not limited to, indirect, special or consequential damages, 
#resulting from the use of any information or interpretation provided by Halliburton.
#
~A           TIME           GTDEPTH  GTPQH  GTTQ  GTTN  GTET   GTTVD  
# ...
   13:56:59.129.08-Nov-2020 3585.71 3418.30 71.93 3.00  45.96 2034.99
   13:56:59.329.08-Nov-2020 3585.71 3418.30 71.93 3.00  46.16 2034.99
   13:56:59.528.08-Nov-2020 3585.71 3267.46 71.93 3.00  46.36 2034.99
   13:56:59.728.08-Nov-2020 3585.71 3276.63 71.93 3.00  46.56 2034.99
   13:56:59.928.08-Nov-2020 3585.71 3278.44 71.92 3.00  46.75 2034.99
   13:57:00.128.08-Nov-2020 3585.71 3280.62 71.92 3.00  46.95 2034.99
   13:57:00.328.08-Nov-2020 3585.71 3281.89 71.92 3.00  47.15 2034.99
   13:57:00.528.08-Nov-2020 3585.71 3282.83 71.92 3.00  47.35 2034.99
   13:57:00.727.08-Nov-2020 3585.71 3283.28 71.92 3.00  47.55 2034.99
   13:57:00.927.08-Nov-2020 3585.71 3283.66 71.92 3.00  47.75 2034.99
   13:57:01.127.08-Nov-2020 3585.71 3283.89 71.92 3.00  47.95 2034.99
   13:57:01.327.08-Nov-2020 3585.71 3283.89 71.91 3.00  48.15 2034.99
   13:57:01.527.08-Nov-2020 3585.71 3284.30 71.91 3.00  48.35 2034.99
   13:57:01.726.08-Nov-2020 3585.71 3284.49 71.91 3.00  48.55 2034.99
   13:57:01.926.08-Nov-2020 3585.71 3284.67 71.91 3.00  48.75 2034.99
   13:57:02.126.08-Nov-2020 3585.71 3284.76 71.91 3.00  48.95 2034.99
   13:57:02.326.08-Nov-2020 3585.71 3284.76 71.91 3.00  49.15 2034.99
   13:57:02.526.08-Nov-2020 3585.71 3284.82 71.90 3.00  49.35 2034.99
   13:57:02.725.08-Nov-2020 3585.71 3285.15 71.90 3.00  49.55 2034.99
   13:57:02.925.08-Nov-2020 3585.71 3285.36 71.90 3.00  49.75 2034.99
   13:57:03.125.08-Nov-2020 3585.71 3285.51 71.90 3.00  49.95 2034.99
   13:57:03.325.08-Nov-2020 3585.71 3285.63 71.90 3.00  50.15 2034.99
   13:57:03.525.08-Nov-2020 3585.71 3285.90 71.90 3.00  50.35 2034.99
   13:57:03.724.08-Nov-2020 3585.71 3286.00 71.90 3.00  50.55 2034.99
   13:57:03.924.08-Nov-2020 3585.71 3286.14 71.89 3.00  50.75 2034.99
   13:57:04.124.08-Nov-2020 3585.71 3286.26 71.89 3.00  50.95 2034.99
   13:57:04.324.08-Nov-2020 3585.71 3286.26 71.89 3.00  51.15 2034.99
   13:57:04.524.08-Nov-2020 3585.71 3286.46 71.89 3.00  51.35 2034.99
   13:57:04.723.08-Nov-2020 3585.71 3286.53 71.89 3.00  51.55 2034.99
   13:57:04.923.08-Nov-2020 3585.71 3286.50 71.89 3.00  51.75 2034.99
   13:57:05.123.08-Nov-2020 3585.71 3286.90 71.88 3.00  51.95 2034.99
   13:57:05.323.08-Nov-2020 3585.71 3286.90 71.88 3.00  52.15 2034.99
   13:57:05.523.08-Nov-2020 3585.71 3287.10 71.88 3.00  52.35 2034.99
   13:57:05.723.08-Nov-2020 3585.71 3287.14 71.88 3.00  52.55 2034.99
   13:57:05.922.08-Nov-2020 3585.71 3287.35 71.88 3.00  52.75 2034.99
   13:57:06.122.08-Nov-2020 3585.71 3287.71 71.88 3.00  52.95 2034.99
   13:57:06.322.08-Nov-2020 3585.71 3287.71 71.88 3.00  53.15 2034.99
   13:57:06.522.08-Nov-2020 3585.71 3292.45 71.87 3.00  53.35 2034.99
   13:57:06.722.08-Nov-2020 3585.71 3292.50 71.87 3.00  53.55 2034.99
   13:57:06.921.08-Nov-2020 3585.71 3292.52 71.87 3.00  53.75 2034.99
   13:57:07.121.08-Nov-2020 3585.71 3292.69 71.87 3.00  53.95 2034.99
   13:57:07.321.08-Nov-2020 3585.71 3292.54 71.87 3.00  54.15 2034.99
   13:57:07.521.08-Nov-2020 3585.71 3292.54 71.87 3.00  54.35 2034.99
   13:57:07.721.08-Nov-2020 3585.71 3292.56 71.87 3.00  54.55 2034.99
   13:57:07.920.08-Nov-2020 3585.71 3292.56 71.87 3.00  54.75 2034.99
   13:57:08.120.08-Nov-2020 3585.71 3292.63 71.86 3.00  54.95 2034.99
   13:57:08.320.08-Nov-2020 3585.71 3292.63 71.86 3.00  55.15 2034.99
   13:57:08.520.08-Nov-2020 3585.71 3292.53 71.86 3.00  55.35 2034.99
   13:57:08.720.08-Nov-2020 3585.71 3292.56 71.86 3.00  55.55 2034.99
   13:57:08.919.08-Nov-2020 3585.71 3292.56 71.86 3.00  55.75 2034.99
   13:57:09.119.08-Nov-2020 3585.71 3292.55 71.86 3.00  55.95 2034.99
   13:57:09.319.08-Nov-2020 3585.71 3292.55 71.86 3.00  56.15 2034.99
   13:57:09.519.08-Nov-2020 3585.71 3292.56 71.86 3.00  56.35 2034.99
   13:57:09.719.08-Nov-2020 3585.71 3292.57 71.85 3.00  56.55 2034.99
   13:57:09.918.08-Nov-2020 3585.71 3292.59 71.85 3.00  56.75 2034.99
   13:57:10.118.08-Nov-2020 3585.71 3292.58 71.85 3.00  56.95 2034.99
   13:57:10.318.08-Nov-2020 3585.71 3292.58 71.85 3.00  57.14 2034.99
   13:57:10.518.08-Nov-2020 3585.71 3292.61 71.85 3.00  57.34 2034.99
   13:57:10.718.08-Nov-2020 3585.71 3292.66 71.85 3.00  57.54 2034.99
   13:57:10.918.08-Nov-2020 3585.71 3292.60 71.85 3.00  57.74 2034.99
   13:57:11.117.08-Nov-2020 3585.71 3292.60 71.85 3.00  57.94 2034.99
   13:57:11.317.08-Nov-2020 3585.71 3292.59 71.85 3.00  58.14 2034.99
   13:57:11.517.08-Nov-2020 3585.71 3292.59 71.84 3.00  58.34 2034.99
   13:57:11.717.08-Nov-2020 3585.71 3292.60 71.84 3.00  58.54 2034.99
   13:57:11.917.08-Nov-2020 3585.71 3292.59 71.84 3.00  58.74 2034.99
   13:57:12.116.08-Nov-2020 3585.71 3292.60 71.84 3.00  58.94 2034.99
   13:57:12.316.08-Nov-2020 3585.71 3292.60 71.84 3.00  59.14 2034.99
   13:57:12.516.08-Nov-2020 3585.71 3292.61 71.84 3.00  59.34 2034.99
   13:57:12.716.08-Nov-2020 3585.71 3292.62 71.84 3.00  59.54 2034.99
   13:57:12.916.08-Nov-2020 3585.71 3292.62 71.84 3.00  59.74 2034.99
   13:57:13.115.08-Nov-2020 3585.71 3292.63 71.83 3.00  59.94 2034.99
   13:57:13.315.08-Nov-2020 3585.71 3292.63 71.83 3.00  60.14 2034.99
   13:57:13.515.08-Nov-2020 3585.71 3292.68 71.83 3.00  60.34 2034.99
   13:57:13.715.08-Nov-2020 3585.71 3292.58 71.83 3.00  60.54 2034.99
   13:57:13.915.08-Nov-2020 3585.71 3292.69 71.83 3.00  60.74 2034.99
   13:57:14.114.08-Nov-2020 3585.71 3292.66 71.83 3.00  60.94 2034.99
   13:57:14.314.08-Nov-2020 3585.71 3292.66 71.83 3.00  61.14 2034.99
   13:57:14.514.08-Nov-2020 3585.71 3292.64 71.83 3.00  61.34 2034.99
   13:57:14.714.08-Nov-2020 3585.71 3292.64 71.83 3.00  61.54 2034.99
   13:57:14.914.08-Nov-2020 3585.71 3292.68 71.82 3.00  61.74 2034.99
   13:57:15.113.08-Nov-2020 3585.71 3292.64 71.82 3.00  61.94 2034.99
   13:57:15.313.08-Nov-2020 3585.71 3292.61 71.82 3.00  62.14 2034.99
   13:57:15.513.08-Nov-2020 3585.71 3292.64 71.82 3.00  62.34 2034.99
   13:57:15.713.08-Nov-2020 3585.71 3292.62 71.82 3.00  62.54 2034.99
   13:57:15.913.08-Nov-2020 3585.71 3292.68 71.82 3.00  62.74 2034.99
   13:57:16.113.08-Nov-2020 3585.71 3292.63 71.82 3.00  62.94 2034.99
   13:57:16.312.08-Nov-2020 3585.71 3292.63 71.82 3.00  63.14 2034.99
   13:57:16.512.08-Nov-2020 3585.71 3292.66 71.82 3.00  63.34 2034.99
   13:57:16.712.08-Nov-2020 3585.71 3292.62 71.81 3.00  63.54 2034.99
   13:57:16.912.08-Nov-2020 3585.71 3292.66 71.81 3.00  63.74 2034.99
   13:57:17.112.08-Nov-2020 3585.71 3292.66 71.81 3.00  63.94 2034.99
   13:57:17.311.08-Nov-2020 3585.71 3292.66 71.81 3.00  64.14 2034.99
   13:57:17.511.08-Nov-2020 3585.71 3292.65 71.81 3.00  64.34 2034.99
   13:57:17.711.08-Nov-2020 3585.71 3292.64 71.81 3.00  64.54 2034.99
   13:57:17.911.08-Nov-2020 3585.71 3292.66 71.81 3.00  64.74 2034.99
   13:57:18.111.08-Nov-2020 3585.71 3292.66 71.81 3.00  64.94 2034.99
   13:57:18.310.08-Nov-2020 3585.71 3292.66 71.81 3.00  65.14 2034.99
   13:57:18.510.08-Nov-2020 3585.71 3292.67 71.81 3.00  65.34 2034.99
   13:57:18.710.08-Nov-2020 3585.71 3292.66 71.80 3.00  65.54 2034.99
   13:57:18.910.08-Nov-2020 3585.71 3292.66 71.80 3.00  65.74 2034.99
   13:57:19.110.08-Nov-2020 3585.71 3292.66 71.80 3.00  65.94 2034.99
   13:57:19.309.08-Nov-2020 3585.71 3292.66 71.80 3.00  66.14 2034.99
   13:57:19.509.08-Nov-2020 3585.71 3292.67 71.80 3.00  66.34 2034.99
   13:57:19.709.08-Nov-2020 3585.71 3292.68 71.80 3.00  66.54 2034.99
   13:57:19.909.08-Nov-2020 3585.71 3292.69 71.80 3.00  66.74 2034.99
   13:57:20.109.08-Nov-2020 3585.71 3292.65 71.80 3.00  66.94 2034.99
   13:57:20.308.08-Nov-2020 3585.71 3292.65 71.80 3.00  67.14 2034.99
   13:57:20.508.08-Nov-2020 3585.71 3292.66 71.79 3.00  67.34 2034.99
   13:57:20.708.08-Nov-2020 3585.71 3292.66 71.79 3.00  67.53 2034.99
   13:57:20.908.08-Nov-2020 3585.71 3292.67 71.79 3.00  67.73 2034.99
   13:57:21.108.08-Nov-2020 3585.71 3292.66 71.79 3.00  67.93 2034.99
   13:57:21.308.08-Nov-2020 3585.71 3292.66 71.79 3.00  68.13 2034.99
   13:57:21.507.08-Nov-2020 3585.71 3292.67 71.79 3.00  68.33 2034.99
   13:57:21.707.08-Nov-2020 3585.71 3292.67 71.79 3.00  68.53 2034.99
   13:57:21.907.08-Nov-2020 3585.71 3292.73 71.79 3.00  68.73 2034.99
