~Version Information
 VERS.                  2.0:   CWLS log ASCII Standard -VERSION 2.0
 WRAP.                   NO:   One line per depth step
~Well Information Block
#MNEM.UNIT     VALUE/NAME     DESCRIPTION
#---------     -----------    ---------------------------
 STRT.S             06:45:19 11-Nov-20: START TIME 06:45:19 11-Nov-20
 STOP.S             06:51:53 11-Nov-20: STOP TIME  06:51:53 11-Nov-20
 STEP.S                   0.00: STEP TIME
 NULL.                 -999.25: NULL VALUE
 DFWT.                        :  DIST FWL TEXT
 DFST.                        :  DIST FSL TEXT
 DMF .             Drill Floor:  DRILL MEAS FROM
 STIM.      04.54.24 22-Sep-20:  START TIME
 DATE.      04.54.24 21-Nov-20:  END TIME
 SPUD.               21-Nov-20:  SPUD DATE
 NREF.                    Grid:  NORTH REFERENCE
 HPTY.       Minimum Curvature:  HOLE POS TYPE
 DMOD.             Drill Model:  DRILL MOD DESC
 SVYD.                  Survey:  SURVEY DESC
 ILTD.               Lithology:  INTERP LTH DESC
 FTOP.          Formation Tops:  FORM TOPS DESC
 SON .        AZ-XX-0906571587:  JOB NUMBER
 COMP.     BP Exploration (Caspian Sea) Ltd:  COMPANY
 UWI .                     N/A:  UNIQUE WELL IDENTIFIER
 API .                     N/A:  API NUMBER
 BASE.              Azerbaijan:  LOGGING EQUIPMENT BASE LOCATION
 REGN.                   EESSA:  REGION
 PROV.                    Baku:  PROVINCE
 STAT.                    Baku:  STATE NAME
 CTRY.              Azerbaijan:  COUNTRY NAME
 FLD .                     ACG:  FIELD NAME
 SRVC.     TURAN Drilling & Engineering:  CONTRACTOR
 WELL.                     J27:  WELL NAME
 RIG .             West Chirag:  RIG NAME
 DOE .                     N/A:  DOE NUMBER
 DCON.         Sperry Drilling:  DIRECTNL CONTR
 PDAT.          Mean Sea Level:  PERMANENT DATUM
 WTYP.                Deviated:  WELL TYPE
 MWDS.                    Baku:  MWD SHOP
 JOBN.        AZ-XX-0906571587:  JOB TICKET NUMB
 UNIT.                     N/A:  LOGGING EQUIPMENT ID
 MDS .        Operator Entered:  MAG DATA SOURCE
 CNTY.                        :  COUNTY
 LOC .                        :  LOCATION
 LMF .             Drill Floor:  LOG MEASURED FROM
 TVDS.m                  43.00:  TVDSS CORRECTN
 LATI.deg                40.13:  LATITUDE
 LONG.deg                51.22:  LONGITUDE
 WHNS.m                   7.72:  WELL HEAD N/S
 WHEW.m                 -14.24:  WELL HEAD E/W
 UTMX.m              519005.06:  UTM X
 UTMY.m             4443793.85:  UTM Y
 DFWL.m                   0.00:  DISTANCE FWL
 DFSL.m                   0.00:  DISTANCE FSL
 SDEP.m                 347.00:  START DEPTH
 TDD .m                 581.00:  TOTAL DEPTH (DRILLER)
 VSDR.deg               159.72:  VERT SEC DIRECT
 GVFD.g                   1.00:  GRAVITY FIELD
 MFLD.nT              50313.00:  MAGNETIC FIELD
 MDIP.deg                59.58:  MAGNETIC DIP
 MDEC.deg                 6.45:  MAGNETIC DECL
 GRDC.deg                 0.15:  GRID CORRECTION
 AZTC.deg                 6.30:  AZM TOTAL CORR
 EPD .m                   0.00:  ELEVATION
 EGL .m                   0.00:  GROUND ELEVATION
 WDMS.m                 169.80:  WD ELEV
 APD .m                  43.00:  DEPTH ABOVE PD
 AGAP.m                  43.00:  AIR GAP
 VSEW.m                 -14.24:  VERT SEC E/W
 VSNS.m                   7.72:  VERT SEC N/S
 DEP .m                 342.45:  DEPTH
 EKB .m                   0.00:  KB ELEVATION
 EDF .m                  43.00:  DF ELEVATION
 TDL .m                1313.00:  TOTAL DEPTH (LOGGER)
 VSC .                       0:  VS TO CLOSURE
 MAGU.                 1851396:  MAGUTM CHECKSUM
~Parameter Information Block
#MNEM.UNIT       Value        Description
#---------     -----------    ---------------------------
 AV  .mps                 0.65:  Ann Velocity 
 AVMX.mps                 0.75:  Max Ann Veloc 
 AZIF.deg               115.08:  Azm, Final 
 BHAT.        Rotary Steerable:  BHA Type 
 BROT.°/30m               1.50:  Build Rotating 
 BS  .in                 12.25:  Bit Size 
 BSZ .in                 12.25:  Bit Size 
 BTPL.psig              700.00:  Bit Press Loss 
 CABU.                     Yes:  Customer Abuse 
 COMM.                     LNw:  Run Comments 1 
 TCS .hr                121.00:  Time Ciculation Ended 
 CV  .mps                 1.83:  Crit Velocity 
 CVMX.mps                 1.83:  Max Crit Veloc 
 DD1 .          Rashad Habibov:  Direct Drillr 1 
 DD2 .         Rasim Ibrahimov:  Direct Drillr 2 
 DDSV.                 iCruise:  DD Service 
 DEFF.%                 100.00:  % Det Eff 
 DLRX.°/30m               3.60:  Dogleg Rot Max 
 DLSO.°/30m               3.10:  Dogleg Oriented 
 DLSX.°/30m               3.60:  Dogleg Str Max 
 DRET.      13.41.20 12-Nov-20:  Drill End Time 
 DRST.      13.41.20 07-Nov-20:  Drill Start Tim 
 DTIM.hr                 54.16:  Time Drilling 
 EDEP.m                4762.01:  End Depth 
 ENG1.           Amrah Tahirov:  Engineer 1 
 ENG2.      Bakhtiyar Jabbarli:  Engineer 2 
 ENG3.          Ruslan Safarov:  Engineer 3 
 ETIM.      13.41.20 14-Nov-20:  End Time 
 FLOI.gpm              1200.00:  Flow In 
 FLON.gpm              1100.00:  Flow In Min 
 FLOS.cptm                0.00:  Fluid Loss 
 FLOX.gpm              1200.00:  Flow In Max 
 HFLO.                      No:  High Flow 
 HPRE.                      No:  High Pressure 
 HTEM.                      No:  High Temp 
 HYDO.m                   2.00:  Hydro Offset 
 IFIN.deg                66.14:  Inc, Final 
 IMAX.deg                69.03:  Inc Max 
 IMIN.deg                64.64:  Inc Min 
 IMND.m                4450.16:  Inc Min Depth 
 IMXD.m                3996.00:  Inc Max Depth 
 JARR.                     Yes:  Jarring 
 LETM.      13.41.20 14-Nov-20:  Log End Time 
 LOST.hr                     0:  Lost Rig Time 
 LSTM.      13.41.20 06-Nov-20:  Log Start Time 
 MDCL.ppm             42500.00:  Mud Chlorides 
 MDES.     Inversion Oil/Synthetic:  Mud Desc 
 DFD .sg                  1.45:  Mud Density 
 MDMN.sg                  1.45:  Dens Mud Min 
 MDMX.sg                  1.45:  Dens Mud Max 
 MOIL.                      70:  Run Mud Oil % 
 MOWR.                   70:30:  Run Mud OWR 
 MSND.                       0:  Run Mud Sand % 
 MSOL.                    19.3:  Run Mud Solids% 
 DFV .spqt               77.00:  Mud Viscosity 
 MWOD.in                  8.00:  MWD Tool OD 
 MWSI.                      No:  Serv Intrp, MWD 
 OTIM.hr                201.88:  Time Operating 
 PCON.           Look Like New:  Pad Condition 
 PMAX.psia             9250.94:  Press Op, Max 
 PV  .cP                 29.00:  Mud PV 
 RUN .                     800:  Run Number 
 ROPA.m/hr               28.00:  ROP Avg 
 ROPN.m/hr               25.00:  ROP Min 
 ROPX.m/hr               30.00:  ROP Max 
 RPMA.rpm               160.00:  RPM Surface Avg 
 RPMN.rpm               160.00:  RPM Surface Min 
 RPMX.rpm               160.00:  RPM Surface Max 
 RRUN.                    0800:  Rig Run Number 
 RTIM.hr                 12.00:  Time Reaming 
 SAZI.deg               169.33:  Azm, Start 
 SDEP.m                3449.01:  Start Depth 
 SIDD.                      No:  Serv Intrp, DD 
 SINC.deg                68.01:  Inc, Start 
 SPPA.psig             4900.00:  SPP Avg 
 SPPN.psig             4800.00:  SPP Min 
 SPPX.psig             5050.00:  SPP Max 
 STIM.      13.41.20 06-Nov-20:  Start Time 
 SVCS.                 DD, MWD:  Services 
 SVER.                    9.20:  Sperry Version 
 TDAT.m                4762.01:  Tot Depth Attmp 
 TDDF.                      No:  Trip for DD 
 TDLG.m                1313.00:  Tot Depth Loggd 
 TFF .                      No:  Trip for Fail 
 TQAA.f-kp               13.00:  Torque Abs Avg 
 TQAN.f-kp               13.00:  Torque Abs Min 
 TQAX.f-kp               13.00:  Torque Abs Max 
 TRRT.°/30m               1.70:  Turn Rotating 
 MRT .                  EWR-M5:  Maximum Recorded Temperature 
 TTMX.degC               86.00:  Max Tool Temp 
 VS01.                90622122:  Virtual Str1 SN 
 VS02.                90577298:  Virtual Str2 SN 
 VS03.                90563623:  Virtual Str3 SN 
 VS04.                90617559:  Virtual Str4 SN 
 VS05.                11339492:  Virtual Str5 SN 
 VS06.                12385033:  Virtual Str6 SN 
 WBMN.klb                 0.00:  WOB Min 
 WOBA.klb                22.00:  WOB Avg 
 WOBX.klb                26.00:  WOB Max 
 YP  .lhf2               30.00:  Yield Point 
~Curve Information Block
#MNEM.UNIT                 API CODE     Curve Description
#---------               -----------    ---------------------------
 TIME.HHMMSS            00 000 000 000:  GT Time & Date
 GTDEPTH.m              00 000 000 000:  GT Depth
 GTPQH.psia             00 000 000 000:  GT HR Quartz Pressure
 GTTQ.degC              00 000 000 000:  GT Quartz Temperature
 GTTN.NONE              00 000 000 000:  GT Test Number
 GTET.sec               00 000 000 000:  GT Elapsed Test Time
 GTTVD.m                00 000 000 000:  GT True Vertical Depth
#Other Information
#
#WARRANTY: Halliburton will use its best efforts to furnish customers with 
#accurate information and interpretations that are part of, and incident to, the services 
#provided.  However, Halliburton cannot and does not warrant the accuracy 
#or correctness of such information and interpretations.  Under no circumstances should any 
#such information or interpretation be relied upon as the sole basis for any drilling, 
#completion, production, or financial decision or any procedure involving any risk to the 
#safety of any drilling venture, drilling rig or its crew or any other third party.  The 
#Customer has full responsibility for all drilling, completion and production operation.  
#Halliburton makes no representations or warranties, either expressed or 
#implied, including, but not limited to, the implied warranties of merchantability or fitness 
#for a particular purpose, with respect to the services rendered.  In no event will 
#Halliburton be liable for failure to obtain any particular results or for 
#any damages, including, but not limited to, indirect, special or consequential damages, 
#resulting from the use of any information or interpretation provided by Halliburton.
#
~A           TIME           GTDEPTH  GTPQH  GTTQ  GTTN  GTET   GTTVD  
# ...
   06:51:27.505.11-Nov-2020 4617.01 5124.24 78.85 8.00 368.12 2426.59
   06:51:27.705.11-Nov-2020 4617.01 5124.38 78.85 8.00 368.32 2426.59
   06:51:27.905.11-Nov-2020 4617.01 5124.32 78.85 8.00 368.52 2426.59
   06:51:28.105.11-Nov-2020 4617.01 5124.87 78.85 8.00 368.72 2426.59
   06:51:28.305.11-Nov-2020 4617.01 5129.34 78.85 8.00 368.92 2426.59
   06:51:28.505.11-Nov-2020 4617.01 5126.44 78.85 8.00 369.12 2426.59
   06:51:28.706.11-Nov-2020 4617.01 5126.44 78.85 8.00 369.32 2426.59
   06:51:28.906.11-Nov-2020 4617.01 5125.63 78.85 8.00 369.52 2426.59
   06:51:29.106.11-Nov-2020 4617.01 5125.72 78.85 8.00 369.72 2426.59
   06:51:29.306.11-Nov-2020 4617.01 5125.73 78.85 8.00 369.92 2426.59
   06:51:29.506.11-Nov-2020 4617.01 5125.72 78.85 8.00 370.12 2426.59
   06:51:29.706.11-Nov-2020 4617.01 5125.72 78.85 8.00 370.32 2426.59
   06:51:29.906.11-Nov-2020 4617.01 5124.63 78.85 8.00 370.52 2426.59
   06:51:30.106.11-Nov-2020 4617.01 5124.52 78.85 8.00 370.72 2426.59
   06:51:30.306.11-Nov-2020 4617.01 5124.73 78.85 8.00 370.92 2426.59
   06:51:30.506.11-Nov-2020 4617.01 5125.04 78.85 8.00 371.12 2426.59
   06:51:30.706.11-Nov-2020 4617.01 5125.04 78.85 8.00 371.32 2426.59
   06:51:30.906.11-Nov-2020 4617.01 5129.10 78.85 8.00 371.52 2426.59
   06:51:31.106.11-Nov-2020 4617.01 5127.33 78.85 8.00 371.72 2426.59
   06:51:31.306.11-Nov-2020 4617.01 5125.57 78.85 8.00 371.92 2426.59
   06:51:31.506.11-Nov-2020 4617.01 5128.70 78.85 8.00 372.12 2426.59
   06:51:31.706.11-Nov-2020 4617.01 5128.70 78.85 8.00 372.32 2426.59
   06:51:31.907.11-Nov-2020 4617.01 5126.02 78.85 8.00 372.52 2426.59
   06:51:32.107.11-Nov-2020 4617.01 5128.08 78.84 8.00 372.72 2426.59
   06:51:32.307.11-Nov-2020 4617.01 5128.01 78.84 8.00 372.92 2426.59
   06:51:32.507.11-Nov-2020 4617.01 5124.00 78.84 8.00 373.12 2426.59
   06:51:32.707.11-Nov-2020 4617.01 5124.00 78.84 8.00 373.32 2426.59
   06:51:32.907.11-Nov-2020 4617.01 5128.25 78.84 8.00 373.52 2426.59
   06:51:33.107.11-Nov-2020 4617.01 5123.72 78.84 8.00 373.72 2426.59
   06:51:33.307.11-Nov-2020 4617.01 5124.18 78.84 8.00 373.92 2426.59
   06:51:33.507.11-Nov-2020 4617.01 5124.06 78.84 8.00 374.12 2426.59
   06:51:33.707.11-Nov-2020 4617.01 5124.06 78.84 8.00 374.32 2426.59
   06:51:33.907.11-Nov-2020 4617.01 5126.69 78.84 8.00 374.52 2426.59
   06:51:34.107.11-Nov-2020 4617.01 5126.41 78.84 8.00 374.72 2426.59
   06:51:34.307.11-Nov-2020 4617.01 5124.98 78.84 8.00 374.92 2426.59
   06:51:34.507.11-Nov-2020 4617.01 5124.39 78.84 8.00 375.12 2426.59
   06:51:34.707.11-Nov-2020 4617.01 5124.39 78.84 8.00 375.32 2426.59
   06:51:34.907.11-Nov-2020 4617.01 5125.59 78.84 8.00 375.52 2426.59
   06:51:35.108.11-Nov-2020 4617.01 5126.03 78.84 8.00 375.72 2426.59
   06:51:35.308.11-Nov-2020 4617.01 5125.20 78.84 8.00 375.92 2426.59
   06:51:35.508.11-Nov-2020 4617.01 5125.36 78.83 8.00 376.12 2426.59
   06:51:35.708.11-Nov-2020 4617.01 5125.38 78.83 8.00 376.32 2426.59
   06:51:35.908.11-Nov-2020 4617.01 5125.24 78.83 8.00 376.52 2426.59
   06:51:36.108.11-Nov-2020 4617.01 5125.21 78.83 8.00 376.72 2426.59
   06:51:36.308.11-Nov-2020 4617.01 5125.15 78.83 8.00 376.92 2426.59
   06:51:36.508.11-Nov-2020 4617.01 5125.89 78.83 8.00 377.12 2426.59
   06:51:36.708.11-Nov-2020 4617.01 5125.89 78.83 8.00 377.32 2426.59
   06:51:36.908.11-Nov-2020 4617.01 5124.85 78.83 8.00 377.52 2426.59
   06:51:37.108.11-Nov-2020 4617.01 5125.67 78.83 8.00 377.72 2426.59
   06:51:37.308.11-Nov-2020 4617.01 5124.71 78.83 8.00 377.92 2426.59
   06:51:37.508.11-Nov-2020 4617.01 5126.27 78.83 8.00 378.12 2426.59
   06:51:37.708.11-Nov-2020 4617.01 5126.27 78.83 8.00 378.32 2426.59
   06:51:37.908.11-Nov-2020 4617.01 5125.34 78.83 8.00 378.52 2426.59
   06:51:38.108.11-Nov-2020 4617.01 5124.65 78.82 8.00 378.72 2426.59
   06:51:38.309.11-Nov-2020 4617.01 5124.23 78.82 8.00 378.92 2426.59
   06:51:38.509.11-Nov-2020 4617.01 5124.34 78.82 8.00 379.12 2426.59
   06:51:38.709.11-Nov-2020 4617.01 5124.34 78.82 8.00 379.32 2426.59
   06:51:38.909.11-Nov-2020 4617.01 5124.96 78.82 8.00 379.52 2426.59
   06:51:39.109.11-Nov-2020 4617.01 5124.92 78.82 8.00 379.72 2426.59
   06:51:39.309.11-Nov-2020 4617.01 5129.42 78.82 8.00 379.92 2426.59
   06:51:39.509.11-Nov-2020 4617.01 5126.89 78.82 8.00 380.12 2426.59
   06:51:39.709.11-Nov-2020 4617.01 5125.11 78.82 8.00 380.32 2426.59
   06:51:39.909.11-Nov-2020 4617.01 5128.06 78.82 8.00 380.52 2426.59
   06:51:40.109.11-Nov-2020 4617.01 5127.34 78.82 8.00 380.72 2426.59
   06:51:40.309.11-Nov-2020 4617.01 5128.00 78.82 8.00 380.92 2426.59
   06:51:40.509.11-Nov-2020 4617.01 5127.05 78.81 8.00 381.12 2426.59
   06:51:40.709.11-Nov-2020 4617.01 5127.05 78.81 8.00 381.32 2426.59
   06:51:40.909.11-Nov-2020 4617.01 5123.51 78.81 8.00 381.52 2426.59
   06:51:41.109.11-Nov-2020 4617.01 5128.19 78.81 8.00 381.72 2426.59
   06:51:41.309.11-Nov-2020 4617.01 5123.43 78.81 8.00 381.92 2426.59
   06:51:41.510.11-Nov-2020 4617.01 5123.75 78.81 8.00 382.12 2426.59
   06:51:41.710.11-Nov-2020 4617.01 5123.75 78.81 8.00 382.32 2426.59
   06:51:41.910.11-Nov-2020 4617.01 5130.51 78.81 8.00 382.52 2426.59
   06:51:42.110.11-Nov-2020 4617.01 5123.02 78.81 8.00 382.72 2426.59
   06:51:42.310.11-Nov-2020 4617.01 5123.72 78.81 8.00 382.92 2426.59
   06:51:42.510.11-Nov-2020 4617.01 5124.56 78.81 8.00 383.12 2426.59
   06:51:42.710.11-Nov-2020 4617.01 5124.56 78.81 8.00 383.32 2426.59
   06:51:42.910.11-Nov-2020 4617.01 5124.88 78.80 8.00 383.52 2426.59
   06:51:43.110.11-Nov-2020 4617.01 5125.57 78.80 8.00 383.72 2426.59
   06:51:43.310.11-Nov-2020 4617.01 5125.37 78.80 8.00 383.92 2426.59
   06:51:43.510.11-Nov-2020 4617.01 5125.14 78.80 8.00 384.12 2426.59
   06:51:43.710.11-Nov-2020 4617.01 5125.29 78.80 8.00 384.32 2426.59
   06:51:43.910.11-Nov-2020 4617.01 5124.95 78.80 8.00 384.52 2426.59
   06:51:44.110.11-Nov-2020 4617.01 5124.75 78.80 8.00 384.72 2426.59
   06:51:44.310.11-Nov-2020 4617.01 5124.57 78.80 8.00 384.92 2426.59
   06:51:44.510.11-Nov-2020 4617.01 5124.96 78.80 8.00 385.12 2426.59
   06:51:44.711.11-Nov-2020 4617.01 5124.96 78.80 8.00 385.32 2426.59
   06:51:44.911.11-Nov-2020 4617.01 5126.15 78.80 8.00 385.52 2426.59
   06:51:45.111.11-Nov-2020 4617.01 5124.44 78.80 8.00 385.72 2426.59
   06:51:45.311.11-Nov-2020 4617.01 5124.93 78.79 8.00 385.92 2426.59
   06:51:45.511.11-Nov-2020 4617.01 5125.33 78.79 8.00 386.12 2426.59
   06:51:45.711.11-Nov-2020 4617.01 5125.33 78.79 8.00 386.32 2426.59
   06:51:45.911.11-Nov-2020 4617.01 5125.24 78.79 8.00 386.52 2426.59
   06:51:46.111.11-Nov-2020 4617.01 5125.12 78.79 8.00 386.72 2426.59
   06:51:46.311.11-Nov-2020 4617.01 5124.91 78.79 8.00 386.92 2426.59
   06:51:46.511.11-Nov-2020 4617.01 5124.21 78.79 8.00 387.12 2426.59
   06:51:46.711.11-Nov-2020 4617.01 5124.21 78.79 8.00 387.32 2426.59
   06:51:46.911.11-Nov-2020 4617.01 5124.32 78.79 8.00 387.52 2426.59
   06:51:47.111.11-Nov-2020 4617.01 5124.50 78.79 8.00 387.72 2426.59
   06:51:47.311.11-Nov-2020 4617.01 5127.63 78.79 8.00 387.92 2426.59
   06:51:47.511.11-Nov-2020 4617.01 5128.15 78.79 8.00 388.12 2426.59
   06:51:47.711.11-Nov-2020 4617.01 5125.24 78.78 8.00 388.32 2426.59
   06:51:47.912.11-Nov-2020 4617.01 5130.87 78.78 8.00 388.52 2426.59
   06:51:48.112.11-Nov-2020 4617.01 5124.01 78.78 8.00 388.72 2426.59
   06:51:48.312.11-Nov-2020 4617.01 5126.21 78.78 8.00 388.92 2426.59
   06:51:48.512.11-Nov-2020 4617.01 5127.90 78.78 8.00 389.12 2426.59
   06:51:48.712.11-Nov-2020 4617.01 5127.90 78.78 8.00 389.32 2426.59
   06:51:48.912.11-Nov-2020 4617.01 5125.79 78.78 8.00 389.52 2426.59
   06:51:49.112.11-Nov-2020 4617.01 5128.86 78.78 8.00 389.72 2426.59
   06:51:49.312.11-Nov-2020 4617.01 5125.11 78.78 8.00 389.92 2426.59
   06:51:49.512.11-Nov-2020 4617.01 5124.49 78.78 8.00 390.12 2426.59
   06:51:49.712.11-Nov-2020 4617.01 5124.49 78.78 8.00 390.32 2426.59
   06:51:49.912.11-Nov-2020 4617.01 5123.10 78.78 8.00 390.52 2426.59
   06:51:50.112.11-Nov-2020 4617.01 5124.60 78.77 8.00 390.72 2426.59
   06:51:50.312.11-Nov-2020 4617.01 5123.06 78.77 8.00 390.92 2426.59
