~Version Information
 VERS.                  2.0:   CWLS log ASCII Standard -VERSION 2.0
 WRAP.                   NO:   One line per depth step
~Well Information Block
#MNEM.UNIT     VALUE/NAME     DESCRIPTION
#---------     -----------    ---------------------------
 STRT.S             06:45:19 11-Nov-20: START TIME 06:45:19 11-Nov-20
 STOP.S             06:51:53 11-Nov-20: STOP TIME  06:51:53 11-Nov-20
 STEP.S                   0.00: STEP TIME
 NULL.                 -999.25: NULL VALUE
 DFWT.                        :  DIST FWL TEXT
 DFST.                        :  DIST FSL TEXT
 DMF .             Drill Floor:  DRILL MEAS FROM
 STIM.      04.54.24 22-Sep-20:  START TIME
 DATE.      04.54.24 21-Nov-20:  END TIME
 SPUD.               21-Nov-20:  SPUD DATE
 NREF.                    Grid:  NORTH REFERENCE
 HPTY.       Minimum Curvature:  HOLE POS TYPE
 DMOD.             Drill Model:  DRILL MOD DESC
 SVYD.                  Survey:  SURVEY DESC
 ILTD.               Lithology:  INTERP LTH DESC
 FTOP.          Formation Tops:  FORM TOPS DESC
 SON .        AZ-XX-0906571587:  JOB NUMBER
 COMP.     BP Exploration (Caspian Sea) Ltd:  COMPANY
 UWI .                     N/A:  UNIQUE WELL IDENTIFIER
 API .                     N/A:  API NUMBER
 BASE.              Azerbaijan:  LOGGING EQUIPMENT BASE LOCATION
 REGN.                   EESSA:  REGION
 PROV.                    Baku:  PROVINCE
 STAT.                    Baku:  STATE NAME
 CTRY.              Azerbaijan:  COUNTRY NAME
 FLD .                     ACG:  FIELD NAME
 SRVC.     TURAN Drilling & Engineering:  CONTRACTOR
 WELL.                     J27:  WELL NAME
 RIG .             West Chirag:  RIG NAME
 DOE .                     N/A:  DOE NUMBER
 DCON.         Sperry Drilling:  DIRECTNL CONTR
 PDAT.          Mean Sea Level:  PERMANENT DATUM
 WTYP.                Deviated:  WELL TYPE
 MWDS.                    Baku:  MWD SHOP
 JOBN.        AZ-XX-0906571587:  JOB TICKET NUMB
 UNIT.                     N/A:  LOGGING EQUIPMENT ID
 MDS .        Operator Entered:  MAG DATA SOURCE
 CNTY.                        :  COUNTY
 LOC .                        :  LOCATION
 LMF .             Drill Floor:  LOG MEASURED FROM
 TVDS.m                  43.00:  TVDSS CORRECTN
 LATI.deg                40.13:  LATITUDE
 LONG.deg                51.22:  LONGITUDE
 WHNS.m                   7.72:  WELL HEAD N/S
 WHEW.m                 -14.24:  WELL HEAD E/W
 UTMX.m              519005.06:  UTM X
 UTMY.m             4443793.85:  UTM Y
 DFWL.m                   0.00:  DISTANCE FWL
 DFSL.m                   0.00:  DISTANCE FSL
 SDEP.m                 347.00:  START DEPTH
 TDD .m                 581.00:  TOTAL DEPTH (DRILLER)
 VSDR.deg               159.72:  VERT SEC DIRECT
 GVFD.g                   1.00:  GRAVITY FIELD
 MFLD.nT              50313.00:  MAGNETIC FIELD
 MDIP.deg                59.58:  MAGNETIC DIP
 MDEC.deg                 6.45:  MAGNETIC DECL
 GRDC.deg                 0.15:  GRID CORRECTION
 AZTC.deg                 6.30:  AZM TOTAL CORR
 EPD .m                   0.00:  ELEVATION
 EGL .m                   0.00:  GROUND ELEVATION
 WDMS.m                 169.80:  WD ELEV
 APD .m                  43.00:  DEPTH ABOVE PD
 AGAP.m                  43.00:  AIR GAP
 VSEW.m                 -14.24:  VERT SEC E/W
 VSNS.m                   7.72:  VERT SEC N/S
 DEP .m                 342.45:  DEPTH
 EKB .m                   0.00:  KB ELEVATION
 EDF .m                  43.00:  DF ELEVATION
 TDL .m                1313.00:  TOTAL DEPTH (LOGGER)
 VSC .                       0:  VS TO CLOSURE
 MAGU.                 1851396:  MAGUTM CHECKSUM
~Parameter Information Block
#MNEM.UNIT       Value        Description
#---------     -----------    ---------------------------
 AV  .mps                 0.65:  Ann Velocity 
 AVMX.mps                 0.75:  Max Ann Veloc 
 AZIF.deg               115.08:  Azm, Final 
 BHAT.        Rotary Steerable:  BHA Type 
 BROT.°/30m               1.50:  Build Rotating 
 BS  .in                 12.25:  Bit Size 
 BSZ .in                 12.25:  Bit Size 
 BTPL.psig              700.00:  Bit Press Loss 
 CABU.                     Yes:  Customer Abuse 
 COMM.                     LNw:  Run Comments 1 
 TCS .hr                121.00:  Time Ciculation Ended 
 CV  .mps                 1.83:  Crit Velocity 
 CVMX.mps                 1.83:  Max Crit Veloc 
 DD1 .          Rashad Habibov:  Direct Drillr 1 
 DD2 .         Rasim Ibrahimov:  Direct Drillr 2 
 DDSV.                 iCruise:  DD Service 
 DEFF.%                 100.00:  % Det Eff 
 DLRX.°/30m               3.60:  Dogleg Rot Max 
 DLSO.°/30m               3.10:  Dogleg Oriented 
 DLSX.°/30m               3.60:  Dogleg Str Max 
 DRET.      13.41.20 12-Nov-20:  Drill End Time 
 DRST.      13.41.20 07-Nov-20:  Drill Start Tim 
 DTIM.hr                 54.16:  Time Drilling 
 EDEP.m                4762.01:  End Depth 
 ENG1.           Amrah Tahirov:  Engineer 1 
 ENG2.      Bakhtiyar Jabbarli:  Engineer 2 
 ENG3.          Ruslan Safarov:  Engineer 3 
 ETIM.      13.41.20 14-Nov-20:  End Time 
 FLOI.gpm              1200.00:  Flow In 
 FLON.gpm              1100.00:  Flow In Min 
 FLOS.cptm                0.00:  Fluid Loss 
 FLOX.gpm              1200.00:  Flow In Max 
 HFLO.                      No:  High Flow 
 HPRE.                      No:  High Pressure 
 HTEM.                      No:  High Temp 
 HYDO.m                   2.00:  Hydro Offset 
 IFIN.deg                66.14:  Inc, Final 
 IMAX.deg                69.03:  Inc Max 
 IMIN.deg                64.64:  Inc Min 
 IMND.m                4450.16:  Inc Min Depth 
 IMXD.m                3996.00:  Inc Max Depth 
 JARR.                     Yes:  Jarring 
 LETM.      13.41.20 14-Nov-20:  Log End Time 
 LOST.hr                     0:  Lost Rig Time 
 LSTM.      13.41.20 06-Nov-20:  Log Start Time 
 MDCL.ppm             42500.00:  Mud Chlorides 
 MDES.     Inversion Oil/Synthetic:  Mud Desc 
 DFD .sg                  1.45:  Mud Density 
 MDMN.sg                  1.45:  Dens Mud Min 
 MDMX.sg                  1.45:  Dens Mud Max 
 MOIL.                      70:  Run Mud Oil % 
 MOWR.                   70:30:  Run Mud OWR 
 MSND.                       0:  Run Mud Sand % 
 MSOL.                    19.3:  Run Mud Solids% 
 DFV .spqt               77.00:  Mud Viscosity 
 MWOD.in                  8.00:  MWD Tool OD 
 MWSI.                      No:  Serv Intrp, MWD 
 OTIM.hr                201.88:  Time Operating 
 PCON.           Look Like New:  Pad Condition 
 PMAX.psia             9250.94:  Press Op, Max 
 PV  .cP                 29.00:  Mud PV 
 RUN .                     800:  Run Number 
 ROPA.m/hr               28.00:  ROP Avg 
 ROPN.m/hr               25.00:  ROP Min 
 ROPX.m/hr               30.00:  ROP Max 
 RPMA.rpm               160.00:  RPM Surface Avg 
 RPMN.rpm               160.00:  RPM Surface Min 
 RPMX.rpm               160.00:  RPM Surface Max 
 RRUN.                    0800:  Rig Run Number 
 RTIM.hr                 12.00:  Time Reaming 
 SAZI.deg               169.33:  Azm, Start 
 SDEP.m                3449.01:  Start Depth 
 SIDD.                      No:  Serv Intrp, DD 
 SINC.deg                68.01:  Inc, Start 
 SPPA.psig             4900.00:  SPP Avg 
 SPPN.psig             4800.00:  SPP Min 
 SPPX.psig             5050.00:  SPP Max 
 STIM.      13.41.20 06-Nov-20:  Start Time 
 SVCS.                 DD, MWD:  Services 
 SVER.                    9.20:  Sperry Version 
 TDAT.m                4762.01:  Tot Depth Attmp 
 TDDF.                      No:  Trip for DD 
 TDLG.m                1313.00:  Tot Depth Loggd 
 TFF .                      No:  Trip for Fail 
 TQAA.f-kp               13.00:  Torque Abs Avg 
 TQAN.f-kp               13.00:  Torque Abs Min 
 TQAX.f-kp               13.00:  Torque Abs Max 
 TRRT.°/30m               1.70:  Turn Rotating 
 MRT .                  EWR-M5:  Maximum Recorded Temperature 
 TTMX.degC               86.00:  Max Tool Temp 
 VS01.                90622122:  Virtual Str1 SN 
 VS02.                90577298:  Virtual Str2 SN 
 VS03.                90563623:  Virtual Str3 SN 
 VS04.                90617559:  Virtual Str4 SN 
 VS05.                11339492:  Virtual Str5 SN 
 VS06.                12385033:  Virtual Str6 SN 
 WBMN.klb                 0.00:  WOB Min 
 WOBA.klb                22.00:  WOB Avg 
 WOBX.klb                26.00:  WOB Max 
 YP  .lhf2               30.00:  Yield Point 
~Curve Information Block
#MNEM.UNIT                 API CODE     Curve Description
#---------               -----------    ---------------------------
 TIME.HHMMSS            00 000 000 000:  GT Time & Date
 GTDEPTH.m              00 000 000 000:  GT Depth
 GTPQH.psia             00 000 000 000:  GT HR Quartz Pressure
 GTTQ.degC              00 000 000 000:  GT Quartz Temperature
 GTTN.NONE              00 000 000 000:  GT Test Number
 GTET.sec               00 000 000 000:  GT Elapsed Test Time
 GTTVD.m                00 000 000 000:  GT True Vertical Depth
#Other Information
#
#WARRANTY: Halliburton will use its best efforts to furnish customers with 
#accurate information and interpretations that are part of, and incident to, the services 
#provided.  However, Halliburton cannot and does not warrant the accuracy 
#or correctness of such information and interpretations.  Under no circumstances should any 
#such information or interpretation be relied upon as the sole basis for any drilling, 
#completion, production, or financial decision or any procedure involving any risk to the 
#safety of any drilling venture, drilling rig or its crew or any other third party.  The 
#Customer has full responsibility for all drilling, completion and production operation.  
#Halliburton makes no representations or warranties, either expressed or 
#implied, including, but not limited to, the implied warranties of merchantability or fitness 
#for a particular purpose, with respect to the services rendered.  In no event will 
#Halliburton be liable for failure to obtain any particular results or for 
#any damages, including, but not limited to, indirect, special or consequential damages, 
#resulting from the use of any information or interpretation provided by Halliburton.
#
~A           TIME           GTDEPTH  GTPQH  GTTQ  GTTN  GTET   GTTVD  
# ...
   06:46:51.418.11-Nov-2020 4617.01 4140.59 79.93 8.00  92.03 2426.59
   06:46:51.619.11-Nov-2020 4617.01 4140.59 79.93 8.00  92.23 2426.59
   06:46:51.819.11-Nov-2020 4617.01 4140.60 79.93 8.00  92.43 2426.59
   06:46:52.019.11-Nov-2020 4617.01 4140.66 79.93 8.00  92.63 2426.59
   06:46:52.219.11-Nov-2020 4617.01 4140.68 79.93 8.00  92.83 2426.59
   06:46:52.419.11-Nov-2020 4617.01 4140.81 79.93 8.00  93.03 2426.59
   06:46:52.619.11-Nov-2020 4617.01 4140.81 79.93 8.00  93.23 2426.59
   06:46:52.819.11-Nov-2020 4617.01 4140.85 79.93 8.00  93.43 2426.59
   06:46:53.019.11-Nov-2020 4617.01 4141.08 79.92 8.00  93.63 2426.59
   06:46:53.219.11-Nov-2020 4617.01 4140.60 79.92 8.00  93.83 2426.59
   06:46:53.419.11-Nov-2020 4617.01 4140.52 79.92 8.00  94.03 2426.59
   06:46:53.619.11-Nov-2020 4617.01 4140.52 79.92 8.00  94.23 2426.59
   06:46:53.819.11-Nov-2020 4617.01 4141.15 79.92 8.00  94.43 2426.59
   06:46:54.019.11-Nov-2020 4617.01 4140.63 79.92 8.00  94.63 2426.59
   06:46:54.219.11-Nov-2020 4617.01 4140.59 79.92 8.00  94.83 2426.59
   06:46:54.419.11-Nov-2020 4617.01 4140.57 79.92 8.00  95.03 2426.59
   06:46:54.619.11-Nov-2020 4617.01 4140.57 79.92 8.00  95.23 2426.59
   06:46:54.820.11-Nov-2020 4617.01 4140.50 79.92 8.00  95.43 2426.59
   06:46:55.020.11-Nov-2020 4617.01 4140.54 79.92 8.00  95.63 2426.59
   06:46:55.220.11-Nov-2020 4617.01 4140.49 79.92 8.00  95.83 2426.59
   06:46:55.420.11-Nov-2020 4617.01 4140.24 79.92 8.00  96.03 2426.59
   06:46:55.620.11-Nov-2020 4617.01 4140.14 79.91 8.00  96.23 2426.59
   06:46:55.820.11-Nov-2020 4617.01 4140.33 79.91 8.00  96.43 2426.59
   06:46:56.020.11-Nov-2020 4617.01 4140.16 79.91 8.00  96.63 2426.59
   06:46:56.220.11-Nov-2020 4617.01 4140.12 79.91 8.00  96.83 2426.59
   06:46:56.420.11-Nov-2020 4617.01 4140.32 79.91 8.00  97.03 2426.59
   06:46:56.620.11-Nov-2020 4617.01 4140.32 79.91 8.00  97.23 2426.59
   06:46:56.820.11-Nov-2020 4617.01 4140.34 79.91 8.00  97.43 2426.59
   06:46:57.020.11-Nov-2020 4617.01 4140.31 79.91 8.00  97.63 2426.59
   06:46:57.220.11-Nov-2020 4617.01 4140.51 79.91 8.00  97.83 2426.59
   06:46:57.420.11-Nov-2020 4617.01 4140.44 79.91 8.00  98.03 2426.59
   06:46:57.620.11-Nov-2020 4617.01 4140.44 79.91 8.00  98.23 2426.59
   06:46:57.820.11-Nov-2020 4617.01 4140.86 79.91 8.00  98.43 2426.59
   06:46:58.021.11-Nov-2020 4617.01 4140.60 79.91 8.00  98.63 2426.59
   06:46:58.221.11-Nov-2020 4617.01 4140.81 79.90 8.00  98.83 2426.59
   06:46:58.421.11-Nov-2020 4617.01 4140.69 79.90 8.00  99.03 2426.59
   06:46:58.621.11-Nov-2020 4617.01 4140.69 79.90 8.00  99.23 2426.59
   06:46:58.821.11-Nov-2020 4617.01 4141.01 79.90 8.00  99.43 2426.59
   06:46:59.021.11-Nov-2020 4617.01 4140.73 79.90 8.00  99.63 2426.59
   06:46:59.221.11-Nov-2020 4617.01 4140.74 79.90 8.00  99.83 2426.59
   06:46:59.421.11-Nov-2020 4617.01 4140.85 79.90 8.00 100.03 2426.59
   06:46:59.621.11-Nov-2020 4617.01 4140.73 79.90 8.00 100.23 2426.59
   06:46:59.821.11-Nov-2020 4617.01 4140.75 79.90 8.00 100.43 2426.59
   06:47:00.021.11-Nov-2020 4617.01 4140.74 79.90 8.00 100.63 2426.59
   06:47:00.221.11-Nov-2020 4617.01 4140.75 79.90 8.00 100.83 2426.59
   06:47:00.421.11-Nov-2020 4617.01 4141.01 79.90 8.00 101.03 2426.59
   06:47:00.621.11-Nov-2020 4617.01 4141.01 79.90 8.00 101.23 2426.59
   06:47:00.821.11-Nov-2020 4617.01 4140.79 79.89 8.00 101.43 2426.59
   06:47:01.021.11-Nov-2020 4617.01 4140.85 79.89 8.00 101.63 2426.59
   06:47:01.222.11-Nov-2020 4617.01 4140.22 79.89 8.00 101.83 2426.59
   06:47:01.422.11-Nov-2020 4617.01 4140.25 79.89 8.00 102.03 2426.59
   06:47:01.622.11-Nov-2020 4617.01 4140.25 79.89 8.00 102.23 2426.59
   06:47:01.822.11-Nov-2020 4617.01 4140.57 79.89 8.00 102.43 2426.59
   06:47:02.022.11-Nov-2020 4617.01 4140.59 79.89 8.00 102.63 2426.59
   06:47:02.222.11-Nov-2020 4617.01 4140.90 79.89 8.00 102.83 2426.59
   06:47:02.422.11-Nov-2020 4617.01 4140.79 79.89 8.00 103.03 2426.59
   06:47:02.622.11-Nov-2020 4617.01 4140.79 79.89 8.00 103.23 2426.59
   06:47:02.822.11-Nov-2020 4617.01 4140.59 79.89 8.00 103.43 2426.59
   06:47:03.022.11-Nov-2020 4617.01 4141.06 79.89 8.00 103.63 2426.59
   06:47:03.222.11-Nov-2020 4617.01 4140.67 79.89 8.00 103.83 2426.59
   06:47:03.422.11-Nov-2020 4617.01 4140.51 79.89 8.00 104.03 2426.59
   06:47:03.622.11-Nov-2020 4617.01 4140.81 79.88 8.00 104.23 2426.59
   06:47:03.822.11-Nov-2020 4617.01 4140.82 79.88 8.00 104.43 2426.59
   06:47:04.022.11-Nov-2020 4617.01 4140.63 79.88 8.00 104.63 2426.59
   06:47:04.222.11-Nov-2020 4617.01 4140.69 79.88 8.00 104.83 2426.59
   06:47:04.423.11-Nov-2020 4617.01 4140.88 79.88 8.00 105.03 2426.59
   06:47:04.623.11-Nov-2020 4617.01 4140.88 79.88 8.00 105.23 2426.59
   06:47:04.823.11-Nov-2020 4617.01 4140.77 79.88 8.00 105.43 2426.59
   06:47:05.023.11-Nov-2020 4617.01 4140.84 79.88 8.00 105.63 2426.59
   06:47:05.223.11-Nov-2020 4617.01 4140.82 79.88 8.00 105.83 2426.59
   06:47:05.423.11-Nov-2020 4617.01 4140.81 79.88 8.00 106.03 2426.59
   06:47:05.623.11-Nov-2020 4617.01 4140.81 79.88 8.00 106.23 2426.59
   06:47:05.823.11-Nov-2020 4617.01 4140.47 79.88 8.00 106.43 2426.59
   06:47:06.023.11-Nov-2020 4617.01 4140.55 79.88 8.00 106.63 2426.59
   06:47:06.223.11-Nov-2020 4617.01 4140.59 79.87 8.00 106.83 2426.59
   06:47:06.423.11-Nov-2020 4617.01 4140.77 79.87 8.00 107.03 2426.59
   06:47:06.623.11-Nov-2020 4617.01 4140.77 79.87 8.00 107.23 2426.59
   06:47:06.823.11-Nov-2020 4617.01 4140.59 79.87 8.00 107.43 2426.59
   06:47:07.023.11-Nov-2020 4617.01 4140.73 79.87 8.00 107.63 2426.59
   06:47:07.223.11-Nov-2020 4617.01 4140.65 79.87 8.00 107.83 2426.59
   06:47:07.423.11-Nov-2020 4617.01 4140.56 79.87 8.00 108.03 2426.59
   06:47:07.624.11-Nov-2020 4617.01 4140.62 79.87 8.00 108.23 2426.59
   06:47:07.824.11-Nov-2020 4617.01 4140.56 79.87 8.00 108.43 2426.59
   06:47:08.024.11-Nov-2020 4617.01 4140.52 79.87 8.00 108.63 2426.59
   06:47:08.224.11-Nov-2020 4617.01 4140.88 79.87 8.00 108.83 2426.59
   06:47:08.424.11-Nov-2020 4617.01 4140.48 79.87 8.00 109.03 2426.59
   06:47:08.624.11-Nov-2020 4617.01 4140.48 79.87 8.00 109.23 2426.59
   06:47:08.824.11-Nov-2020 4617.01 4140.40 79.86 8.00 109.43 2426.59
   06:47:09.024.11-Nov-2020 4617.01 4140.71 79.86 8.00 109.63 2426.59
   06:47:09.224.11-Nov-2020 4617.01 4140.30 79.86 8.00 109.83 2426.59
   06:47:09.424.11-Nov-2020 4617.01 4140.45 79.86 8.00 110.03 2426.59
   06:47:09.624.11-Nov-2020 4617.01 4140.45 79.86 8.00 110.23 2426.59
   06:47:09.824.11-Nov-2020 4617.01 4140.90 79.86 8.00 110.43 2426.59
   06:47:10.024.11-Nov-2020 4617.01 4140.54 79.86 8.00 110.63 2426.59
   06:47:10.224.11-Nov-2020 4617.01 4140.58 79.86 8.00 110.83 2426.59
   06:47:10.424.11-Nov-2020 4617.01 4140.97 79.86 8.00 111.03 2426.59
   06:47:10.625.11-Nov-2020 4617.01 4140.97 79.86 8.00 111.23 2426.59
   06:47:10.825.11-Nov-2020 4617.01 4140.54 79.86 8.00 111.43 2426.59
   06:47:11.025.11-Nov-2020 4617.01 4140.67 79.86 8.00 111.64 2426.59
   06:47:11.225.11-Nov-2020 4617.01 4140.43 79.86 8.00 111.84 2426.59
   06:47:11.425.11-Nov-2020 4617.01 4140.54 79.85 8.00 112.04 2426.59
   06:47:11.625.11-Nov-2020 4617.01 4140.54 79.85 8.00 112.24 2426.59
   06:47:11.825.11-Nov-2020 4617.01 4140.47 79.85 8.00 112.44 2426.59
   06:47:12.025.11-Nov-2020 4617.01 4140.48 79.85 8.00 112.64 2426.59
   06:47:12.225.11-Nov-2020 4617.01 4140.56 79.85 8.00 112.84 2426.59
   06:47:12.425.11-Nov-2020 4617.01 4140.46 79.85 8.00 113.04 2426.59
   06:47:12.625.11-Nov-2020 4617.01 4140.46 79.85 8.00 113.24 2426.59
   06:47:12.825.11-Nov-2020 4617.01 4140.50 79.85 8.00 113.44 2426.59
   06:47:13.025.11-Nov-2020 4617.01 4140.48 79.85 8.00 113.64 2426.59
   06:47:13.225.11-Nov-2020 4617.01 4140.65 79.85 8.00 113.84 2426.59
   06:47:13.425.11-Nov-2020 4617.01 4140.64 79.85 8.00 114.04 2426.59
   06:47:13.625.11-Nov-2020 4617.01 4140.64 79.85 8.00 114.24 2426.59
   06:47:13.826.11-Nov-2020 4617.01 4140.84 79.85 8.00 114.44 2426.59
   06:47:14.026.11-Nov-2020 4617.01 4140.64 79.84 8.00 114.64 2426.59
   06:47:14.226.11-Nov-2020 4617.01 4140.64 79.84 8.00 114.84 2426.59
