~Version Information
 VERS.                  2.0:   CWLS log ASCII Standard -VERSION 2.0
 WRAP.                   NO:   One line per depth step
~Well Information Block
#MNEM.UNIT     VALUE/NAME     DESCRIPTION
#---------     -----------    ---------------------------
 STRT.S             01:27:57 11-Nov-20: START TIME 01:27:57 11-Nov-20
 STOP.S             01:34:34 11-Nov-20: STOP TIME  01:34:34 11-Nov-20
 STEP.S                   0.00: STEP TIME
 NULL.                 -999.25: NULL VALUE
 DFWT.                        :  DIST FWL TEXT
 DFST.                        :  DIST FSL TEXT
 DMF .             Drill Floor:  DRILL MEAS FROM
 STIM.      04.54.24 22-Sep-20:  START TIME
 DATE.      04.54.24 21-Nov-20:  END TIME
 SPUD.               21-Nov-20:  SPUD DATE
 NREF.                    Grid:  NORTH REFERENCE
 HPTY.       Minimum Curvature:  HOLE POS TYPE
 DMOD.             Drill Model:  DRILL MOD DESC
 SVYD.                  Survey:  SURVEY DESC
 ILTD.               Lithology:  INTERP LTH DESC
 FTOP.          Formation Tops:  FORM TOPS DESC
 SON .        AZ-XX-0906571587:  JOB NUMBER
 COMP.     BP Exploration (Caspian Sea) Ltd:  COMPANY
 UWI .                     N/A:  UNIQUE WELL IDENTIFIER
 API .                     N/A:  API NUMBER
 BASE.              Azerbaijan:  LOGGING EQUIPMENT BASE LOCATION
 REGN.                   EESSA:  REGION
 PROV.                    Baku:  PROVINCE
 STAT.                    Baku:  STATE NAME
 CTRY.              Azerbaijan:  COUNTRY NAME
 FLD .                     ACG:  FIELD NAME
 SRVC.     TURAN Drilling & Engineering:  CONTRACTOR
 WELL.                     J27:  WELL NAME
 RIG .             West Chirag:  RIG NAME
 DOE .                     N/A:  DOE NUMBER
 DCON.         Sperry Drilling:  DIRECTNL CONTR
 PDAT.          Mean Sea Level:  PERMANENT DATUM
 WTYP.                Deviated:  WELL TYPE
 MWDS.                    Baku:  MWD SHOP
 JOBN.        AZ-XX-0906571587:  JOB TICKET NUMB
 UNIT.                     N/A:  LOGGING EQUIPMENT ID
 MDS .        Operator Entered:  MAG DATA SOURCE
 CNTY.                        :  COUNTY
 LOC .                        :  LOCATION
 LMF .             Drill Floor:  LOG MEASURED FROM
 TVDS.m                  43.00:  TVDSS CORRECTN
 LATI.deg                40.13:  LATITUDE
 LONG.deg                51.22:  LONGITUDE
 WHNS.m                   7.72:  WELL HEAD N/S
 WHEW.m                 -14.24:  WELL HEAD E/W
 UTMX.m              519005.06:  UTM X
 UTMY.m             4443793.85:  UTM Y
 DFWL.m                   0.00:  DISTANCE FWL
 DFSL.m                   0.00:  DISTANCE FSL
 SDEP.m                 347.00:  START DEPTH
 TDD .m                 581.00:  TOTAL DEPTH (DRILLER)
 VSDR.deg               159.72:  VERT SEC DIRECT
 GVFD.g                   1.00:  GRAVITY FIELD
 MFLD.nT              50313.00:  MAGNETIC FIELD
 MDIP.deg                59.58:  MAGNETIC DIP
 MDEC.deg                 6.45:  MAGNETIC DECL
 GRDC.deg                 0.15:  GRID CORRECTION
 AZTC.deg                 6.30:  AZM TOTAL CORR
 EPD .m                   0.00:  ELEVATION
 EGL .m                   0.00:  GROUND ELEVATION
 WDMS.m                 169.80:  WD ELEV
 APD .m                  43.00:  DEPTH ABOVE PD
 AGAP.m                  43.00:  AIR GAP
 VSEW.m                 -14.24:  VERT SEC E/W
 VSNS.m                   7.72:  VERT SEC N/S
 DEP .m                 342.45:  DEPTH
 EKB .m                   0.00:  KB ELEVATION
 EDF .m                  43.00:  DF ELEVATION
 TDL .m                1313.00:  TOTAL DEPTH (LOGGER)
 VSC .                       0:  VS TO CLOSURE
 MAGU.                 1851396:  MAGUTM CHECKSUM
~Parameter Information Block
#MNEM.UNIT       Value        Description
#---------     -----------    ---------------------------
 AV  .mps                 0.65:  Ann Velocity 
 AVMX.mps                 0.75:  Max Ann Veloc 
 AZIF.deg               115.08:  Azm, Final 
 BHAT.        Rotary Steerable:  BHA Type 
 BROT.∞/30m               1.50:  Build Rotating 
 BS  .in                 12.25:  Bit Size 
 BSZ .in                 12.25:  Bit Size 
 BTPL.psig              700.00:  Bit Press Loss 
 CABU.                     Yes:  Customer Abuse 
 COMM.                     ÏSu:  Run Comments 1 
 TCS .hr                121.00:  Time Ciculation Ended 
 CV  .mps                 1.83:  Crit Velocity 
 CVMX.mps                 1.83:  Max Crit Veloc 
 DD1 .          Rashad Habibov:  Direct Drillr 1 
 DD2 .         Rasim Ibrahimov:  Direct Drillr 2 
 DDSV.                 iCruise:  DD Service 
 DEFF.%                 100.00:  % Det Eff 
 DLRX.∞/30m               3.60:  Dogleg Rot Max 
 DLSO.∞/30m               3.10:  Dogleg Oriented 
 DLSX.∞/30m               3.60:  Dogleg Str Max 
 DRET.      13.41.20 12-Nov-20:  Drill End Time 
 DRST.      13.41.20 07-Nov-20:  Drill Start Tim 
 DTIM.hr                 54.16:  Time Drilling 
 EDEP.m                4762.01:  End Depth 
 ENG1.           Amrah Tahirov:  Engineer 1 
 ENG2.      Bakhtiyar Jabbarli:  Engineer 2 
 ENG3.          Ruslan Safarov:  Engineer 3 
 ETIM.      13.41.20 14-Nov-20:  End Time 
 FLOI.gpm              1200.00:  Flow In 
 FLON.gpm              1100.00:  Flow In Min 
 FLOS.cptm                0.00:  Fluid Loss 
 FLOX.gpm              1200.00:  Flow In Max 
 HFLO.                      No:  High Flow 
 HPRE.                      No:  High Pressure 
 HTEM.                      No:  High Temp 
 HYDO.m                   2.00:  Hydro Offset 
 IFIN.deg                66.14:  Inc, Final 
 IMAX.deg                69.03:  Inc Max 
 IMIN.deg                64.64:  Inc Min 
 IMND.m                4450.16:  Inc Min Depth 
 IMXD.m                3996.00:  Inc Max Depth 
 JARR.                     Yes:  Jarring 
 LETM.      13.41.20 14-Nov-20:  Log End Time 
 LOST.hr                     0:  Lost Rig Time 
 LSTM.      13.41.20 06-Nov-20:  Log Start Time 
 MDCL.ppm             42500.00:  Mud Chlorides 
 MDES.     Inversion Oil/Synthetic:  Mud Desc 
 DFD .sg                  1.45:  Mud Density 
 MDMN.sg                  1.45:  Dens Mud Min 
 MDMX.sg                  1.45:  Dens Mud Max 
 MOIL.                      70:  Run Mud Oil % 
 MOWR.                   70:30:  Run Mud OWR 
 MSND.                       0:  Run Mud Sand % 
 MSOL.                    19.3:  Run Mud Solids% 
 DFV .spqt               77.00:  Mud Viscosity 
 MWOD.in                  8.00:  MWD Tool OD 
 MWSI.                      No:  Serv Intrp, MWD 
 OTIM.hr                201.88:  Time Operating 
 PCON.           Look Like New:  Pad Condition 
 PMAX.psia             9250.94:  Press Op, Max 
 PV  .cP                 29.00:  Mud PV 
 RUN .                     800:  Run Number 
 ROPA.m/hr               28.00:  ROP Avg 
 ROPN.m/hr               25.00:  ROP Min 
 ROPX.m/hr               30.00:  ROP Max 
 RPMA.rpm               160.00:  RPM Surface Avg 
 RPMN.rpm               160.00:  RPM Surface Min 
 RPMX.rpm               160.00:  RPM Surface Max 
 RRUN.                    0800:  Rig Run Number 
 RTIM.hr                 12.00:  Time Reaming 
 SAZI.deg               169.33:  Azm, Start 
 SDEP.m                3449.01:  Start Depth 
 SIDD.                      No:  Serv Intrp, DD 
 SINC.deg                68.01:  Inc, Start 
 SPPA.psig             4900.00:  SPP Avg 
 SPPN.psig             4800.00:  SPP Min 
 SPPX.psig             5050.00:  SPP Max 
 STIM.      13.41.20 06-Nov-20:  Start Time 
 SVCS.                 DD, MWD:  Services 
 SVER.                    9.20:  Sperry Version 
 TDAT.m                4762.01:  Tot Depth Attmp 
 TDDF.                      No:  Trip for DD 
 TDLG.m                1313.00:  Tot Depth Loggd 
 TFF .                      No:  Trip for Fail 
 TQAA.f-kp               13.00:  Torque Abs Avg 
 TQAN.f-kp               13.00:  Torque Abs Min 
 TQAX.f-kp               13.00:  Torque Abs Max 
 TRRT.∞/30m               1.70:  Turn Rotating 
 MRT .                  EWR-M5:  Maximum Recorded Temperature 
 TTMX.degC               86.00:  Max Tool Temp 
 VS01.                90622122:  Virtual Str1 SN 
 VS02.                90577298:  Virtual Str2 SN 
 VS03.                90563623:  Virtual Str3 SN 
 VS04.                90617559:  Virtual Str4 SN 
 VS05.                11339492:  Virtual Str5 SN 
 VS06.                12385033:  Virtual Str6 SN 
 WBMN.klb                 0.00:  WOB Min 
 WOBA.klb                22.00:  WOB Avg 
 WOBX.klb                26.00:  WOB Max 
 YP  .lhf2               30.00:  Yield Point 
~Curve Information Block
#MNEM.UNIT                 API CODE     Curve Description
#---------               -----------    ---------------------------
 TIME.HHMMSS            00 000 000 000:  GT Time & Date
 GTDEPTH.m              00 000 000 000:  GT Depth
 GTPQH.psia             00 000 000 000:  GT HR Quartz Pressure
 GTTQ.degC              00 000 000 000:  GT Quartz Temperature
 GTTN.NONE              00 000 000 000:  GT Test Number
 GTET.sec               00 000 000 000:  GT Elapsed Test Time
 GTTVD.m                00 000 000 000:  GT True Vertical Depth
#Other Information
#
#WARRANTY: Halliburton will use its best efforts to furnish customers with 
#accurate information and interpretations that are part of, and incident to, the services 
#provided.  However, Halliburton cannot and does not warrant the accuracy 
#or correctness of such information and interpretations.  Under no circumstances should any 
#such information or interpretation be relied upon as the sole basis for any drilling, 
#completion, production, or financial decision or any procedure involving any risk to the 
#safety of any drilling venture, drilling rig or its crew or any other third party.  The 
#Customer has full responsibility for all drilling, completion and production operation.  
#Halliburton makes no representations or warranties, either expressed or 
#implied, including, but not limited to, the implied warranties of merchantability or fitness 
#for a particular purpose, with respect to the services rendered.  In no event will 
#Halliburton be liable for failure to obtain any particular results or for 
#any damages, including, but not limited to, indirect, special or consequential damages, 
#resulting from the use of any information or interpretation provided by Halliburton.
#
~A           TIME           GTDEPTH  GTPQH  GTTQ  GTTN  GTET   GTTVD  
# ...
   01:28:20.000.11-Nov-2020 4560.01 5064.52 77.66 7.00  23.00 2403.77
   01:28:20.200.11-Nov-2020 4560.01 5064.52 77.66 7.00  23.20 2403.77
   01:28:20.400.11-Nov-2020 4560.01 5066.20 77.66 7.00  23.40 2403.77
   01:28:20.600.11-Nov-2020 4560.01 5065.81 77.66 7.00  23.60 2403.77
   01:28:20.800.11-Nov-2020 4560.01 5065.78 77.66 7.00  23.80 2403.77
   01:28:21.000.11-Nov-2020 4560.01 5066.41 77.66 7.00  24.00 2403.77
   01:28:21.200.11-Nov-2020 4560.01 5066.41 77.66 7.00  24.20 2403.77
   01:28:21.400.11-Nov-2020 4560.01 5065.32 77.66 7.00  24.40 2403.77
   01:28:21.600.11-Nov-2020 4560.01 5065.89 77.66 7.00  24.60 2403.77
   01:28:21.800.11-Nov-2020 4560.01 5065.69 77.66 7.00  24.80 2403.77
   01:28:22.000.11-Nov-2020 4560.01 5066.03 77.66 7.00  25.00 2403.77
   01:28:22.200.11-Nov-2020 4560.01 5066.03 77.66 7.00  25.20 2403.77
   01:28:22.400.11-Nov-2020 4560.01 5065.17 77.66 7.00  25.40 2403.77
   01:28:22.600.11-Nov-2020 4560.01 5065.01 77.66 7.00  25.60 2403.77
   01:28:22.800.11-Nov-2020 4560.01 5065.21 77.65 7.00  25.80 2403.77
   01:28:23.000.11-Nov-2020 4560.01 5065.80 77.65 7.00  26.00 2403.77
   01:28:23.200.11-Nov-2020 4560.01 5065.80 77.65 7.00  26.20 2403.77
   01:28:23.400.11-Nov-2020 4560.01 5065.97 77.65 7.00  26.40 2403.77
   01:28:23.600.11-Nov-2020 4560.01 5066.24 77.65 7.00  26.60 2403.77
   01:28:23.800.11-Nov-2020 4560.01 5070.51 77.65 7.00  26.80 2403.77
   01:28:24.000.11-Nov-2020 4560.01 5067.26 77.65 7.00  27.00 2403.77
   01:28:24.200.11-Nov-2020 4560.01 5067.26 77.65 7.00  27.20 2403.77
   01:28:24.400.11-Nov-2020 4560.01 5070.99 77.65 7.00  27.40 2403.77
   01:28:24.600.11-Nov-2020 4560.01 5066.55 77.65 7.00  27.60 2403.77
   01:28:24.800.11-Nov-2020 4560.01 5067.92 77.65 7.00  27.80 2403.77
   01:28:25.000.11-Nov-2020 4560.01 5066.98 77.65 7.00  28.00 2403.77
   01:28:25.200.11-Nov-2020 4560.01 5066.98 77.65 7.00  28.20 2403.77
   01:28:25.400.11-Nov-2020 4560.01 5070.11 77.65 7.00  28.40 2403.77
   01:28:25.600.11-Nov-2020 4560.01 5066.49 77.65 7.00  28.60 2403.77
   01:28:25.800.11-Nov-2020 4560.01 5067.00 77.65 7.00  28.80 2403.77
   01:28:26.000.11-Nov-2020 4560.01 5066.82 77.65 7.00  29.00 2403.77
   01:28:26.200.11-Nov-2020 4560.01 5066.82 77.65 7.00  29.20 2403.77
   01:28:26.400.11-Nov-2020 4560.01 5067.63 77.65 7.00  29.40 2403.77
   01:28:26.600.11-Nov-2020 4560.01 5067.88 77.65 7.00  29.60 2403.77
   01:28:26.800.11-Nov-2020 4560.01 5067.20 77.65 7.00  29.80 2403.77
   01:28:27.000.11-Nov-2020 4560.01 5067.77 77.65 7.00  30.00 2403.77
   01:28:27.200.11-Nov-2020 4560.01 5067.77 77.65 7.00  30.20 2403.77
   01:28:27.400.11-Nov-2020 4560.01 5067.45 77.65 7.00  30.40 2403.77
   01:28:27.600.11-Nov-2020 4560.01 5066.39 77.65 7.00  30.60 2403.77
   01:28:27.800.11-Nov-2020 4560.01 5066.61 77.65 7.00  30.80 2403.77
   01:28:28.000.11-Nov-2020 4560.01 5066.72 77.65 7.00  31.00 2403.77
   01:28:28.200.11-Nov-2020 4560.01 5066.72 77.65 7.00  31.20 2403.77
   01:28:28.400.11-Nov-2020 4560.01 5065.91 77.65 7.00  31.40 2403.77
   01:28:28.600.11-Nov-2020 4560.01 5065.99 77.65 7.00  31.60 2403.77
   01:28:28.800.11-Nov-2020 4560.01 5067.31 77.65 7.00  31.80 2403.77
   01:28:29.000.11-Nov-2020 4560.01 5067.28 77.65 7.00  32.00 2403.77
   01:28:29.200.11-Nov-2020 4560.01 5067.28 77.65 7.00  32.20 2403.77
   01:28:29.400.11-Nov-2020 4560.01 5068.27 77.65 7.00  32.40 2403.77
   01:28:29.600.11-Nov-2020 4560.01 5068.01 77.65 7.00  32.60 2403.77
   01:28:29.800.11-Nov-2020 4560.01 5068.92 77.65 7.00  32.80 2403.77
   01:28:30.000.11-Nov-2020 4560.01 5072.34 77.65 7.00  33.00 2403.77
   01:28:30.200.11-Nov-2020 4560.01 5072.34 77.65 7.00  33.20 2403.77
   01:28:30.400.11-Nov-2020 4560.01 5066.89 77.65 7.00  33.40 2403.77
   01:28:30.600.11-Nov-2020 4560.01 5066.81 77.65 7.00  33.60 2403.77
   01:28:30.800.11-Nov-2020 4560.01 5065.96 77.65 7.00  33.80 2403.77
   01:28:31.000.11-Nov-2020 4560.01 5065.40 77.65 7.00  34.00 2403.77
   01:28:31.200.11-Nov-2020 4560.01 5065.40 77.65 7.00  34.20 2403.77
   01:28:31.400.11-Nov-2020 4560.01 5065.53 77.65 7.00  34.40 2403.77
   01:28:31.600.11-Nov-2020 4560.01 5066.01 77.65 7.00  34.60 2403.77
   01:28:31.800.11-Nov-2020 4560.01 5065.88 77.65 7.00  34.80 2403.77
   01:28:32.000.11-Nov-2020 4560.01 5065.99 77.64 7.00  35.00 2403.77
   01:28:32.200.11-Nov-2020 4560.01 5065.99 77.64 7.00  35.20 2403.77
   01:28:32.400.11-Nov-2020 4560.01 5065.86 77.64 7.00  35.40 2403.77
   01:28:32.600.11-Nov-2020 4560.01 5067.75 77.64 7.00  35.60 2403.77
   01:28:32.800.11-Nov-2020 4560.01 5070.07 77.64 7.00  35.80 2403.77
   01:28:33.000.11-Nov-2020 4560.01 5065.53 77.64 7.00  36.00 2403.77
   01:28:33.200.11-Nov-2020 4560.01 5065.53 77.64 7.00  36.20 2403.77
   01:28:33.400.11-Nov-2020 4560.01 5064.39 77.64 7.00  36.40 2403.77
   01:28:33.600.11-Nov-2020 4560.01 5031.17 77.64 7.00  36.60 2403.77
   01:28:33.800.11-Nov-2020 4560.01 5004.06 77.64 7.00  36.80 2403.77
   01:28:34.000.11-Nov-2020 4560.01 4893.02 77.64 7.00  37.00 2403.77
   01:28:34.200.11-Nov-2020 4560.01 4747.19 77.64 7.00  37.20 2403.77
   01:28:34.400.11-Nov-2020 4560.01 4691.04 77.64 7.00  37.40 2403.77
   01:28:34.600.11-Nov-2020 4560.01 4716.43 77.64 7.00  37.60 2403.77
   01:28:34.800.11-Nov-2020 4560.01 4704.96 77.64 7.00  37.80 2403.77
   01:28:35.000.11-Nov-2020 4560.01 4703.01 77.64 7.00  38.00 2403.77
   01:28:35.200.11-Nov-2020 4560.01 4800.19 77.64 7.00  38.20 2403.77
   01:28:35.400.11-Nov-2020 4560.01 4987.88 77.64 7.00  38.40 2403.77
   01:28:35.600.11-Nov-2020 4560.01 5021.85 77.64 7.00  38.60 2403.77
   01:28:35.800.11-Nov-2020 4560.01 5084.69 77.64 7.00  38.80 2403.77
   01:28:36.000.11-Nov-2020 4560.01 5129.57 77.64 7.00  39.00 2403.77
   01:28:36.200.11-Nov-2020 4560.01 5129.57 77.64 7.00  39.20 2403.77
   01:28:36.400.11-Nov-2020 4560.01 5174.17 77.64 7.00  39.40 2403.77
   01:28:36.600.11-Nov-2020 4560.01 5175.33 77.64 7.00  39.60 2403.77
   01:28:36.800.11-Nov-2020 4560.01 5169.85 77.64 7.00  39.80 2403.77
   01:28:37.000.11-Nov-2020 4560.01 5167.98 77.64 7.00  40.00 2403.77
   01:28:37.200.11-Nov-2020 4560.01 5167.98 77.64 7.00  40.20 2403.77
   01:28:37.400.11-Nov-2020 4560.01 5172.49 77.64 7.00  40.40 2403.77
   01:28:37.600.11-Nov-2020 4560.01 5169.53 77.64 7.00  40.60 2403.77
   01:28:37.800.11-Nov-2020 4560.01 5167.16 77.64 7.00  40.80 2403.77
   01:28:38.000.11-Nov-2020 4560.01 5162.51 77.64 7.00  41.00 2403.77
   01:28:38.200.11-Nov-2020 4560.01 5162.51 77.64 7.00  41.20 2403.77
   01:28:38.400.11-Nov-2020 4560.01 5168.58 77.64 7.00  41.40 2403.77
   01:28:38.600.11-Nov-2020 4560.01 5163.47 77.64 7.00  41.60 2403.77
   01:28:38.800.11-Nov-2020 4560.01 5145.15 77.64 7.00  41.80 2403.77
   01:28:39.000.11-Nov-2020 4560.01 5135.77 77.64 7.00  42.00 2403.77
   01:28:39.200.11-Nov-2020 4560.01 5135.77 77.64 7.00  42.20 2403.77
   01:28:39.400.11-Nov-2020 4560.01 5129.62 77.64 7.00  42.40 2403.77
   01:28:39.600.11-Nov-2020 4560.01 5127.61 77.64 7.00  42.60 2403.77
   01:28:39.800.11-Nov-2020 4560.01 5126.04 77.64 7.00  42.80 2403.77
   01:28:40.000.11-Nov-2020 4560.01 5125.97 77.64 7.00  43.00 2403.77
   01:28:40.200.11-Nov-2020 4560.01 5125.97 77.64 7.00  43.20 2403.77
   01:28:40.400.11-Nov-2020 4560.01 5126.67 77.64 7.00  43.40 2403.77
   01:28:40.600.11-Nov-2020 4560.01 5126.93 77.64 7.00  43.60 2403.77
   01:28:40.800.11-Nov-2020 4560.01 5127.25 77.63 7.00  43.80 2403.77
   01:28:41.000.11-Nov-2020 4560.01 5131.69 77.63 7.00  44.00 2403.77
   01:28:41.200.11-Nov-2020 4560.01 5131.69 77.63 7.00  44.20 2403.77
   01:28:41.400.11-Nov-2020 4560.01 5131.70 77.63 7.00  44.40 2403.77
   01:28:41.600.11-Nov-2020 4560.01 5131.06 77.63 7.00  44.60 2403.77
   01:28:41.800.11-Nov-2020 4560.01 5130.36 77.63 7.00  44.80 2403.77
   01:28:42.000.11-Nov-2020 4560.01 5134.10 77.63 7.00  45.00 2403.77
   01:28:42.200.11-Nov-2020 4560.01 5134.10 77.63 7.00  45.20 2403.77
   01:28:42.400.11-Nov-2020 4560.01 5131.14 77.63 7.00  45.40 2403.77
   01:28:42.600.11-Nov-2020 4560.01 5130.21 77.63 7.00  45.60 2403.77
   01:28:42.800.11-Nov-2020 4560.01 5133.07 77.63 7.00  45.80 2403.77
