~Version Information
 VERS.                  2.0:   CWLS log ASCII Standard -VERSION 2.0
 WRAP.                   NO:   One line per depth step
~Well Information Block
#MNEM.UNIT     VALUE/NAME     DESCRIPTION
#---------     -----------    ---------------------------
 STRT.S             09:21:26 08-Nov-20: START TIME 09:21:26 08-Nov-20
 STOP.S             09:27:58 08-Nov-20: STOP TIME  09:27:58 08-Nov-20
 STEP.S                   0.00: STEP TIME
 NULL.                 -999.25: NULL VALUE
 DFWT.                        :  DIST FWL TEXT
 DFST.                        :  DIST FSL TEXT
 DMF .             Drill Floor:  DRILL MEAS FROM
 STIM.      04.54.24 22-Sep-20:  START TIME
 DATE.      04.54.24 21-Nov-20:  END TIME
 SPUD.               21-Nov-20:  SPUD DATE
 NREF.                    Grid:  NORTH REFERENCE
 HPTY.       Minimum Curvature:  HOLE POS TYPE
 DMOD.             Drill Model:  DRILL MOD DESC
 SVYD.                  Survey:  SURVEY DESC
 ILTD.               Lithology:  INTERP LTH DESC
 FTOP.          Formation Tops:  FORM TOPS DESC
 SON .        AZ-XX-0906571587:  JOB NUMBER
 COMP.     BP Exploration (Caspian Sea) Ltd:  COMPANY
 UWI .                     N/A:  UNIQUE WELL IDENTIFIER
 API .                     N/A:  API NUMBER
 BASE.              Azerbaijan:  LOGGING EQUIPMENT BASE LOCATION
 REGN.                   EESSA:  REGION
 PROV.                    Baku:  PROVINCE
 STAT.                    Baku:  STATE NAME
 CTRY.              Azerbaijan:  COUNTRY NAME
 FLD .                     ACG:  FIELD NAME
 SRVC.     TURAN Drilling & Engineering:  CONTRACTOR
 WELL.                     J27:  WELL NAME
 RIG .             West Chirag:  RIG NAME
 DOE .                     N/A:  DOE NUMBER
 DCON.         Sperry Drilling:  DIRECTNL CONTR
 PDAT.          Mean Sea Level:  PERMANENT DATUM
 WTYP.                Deviated:  WELL TYPE
 MWDS.                    Baku:  MWD SHOP
 JOBN.        AZ-XX-0906571587:  JOB TICKET NUMB
 UNIT.                     N/A:  LOGGING EQUIPMENT ID
 MDS .        Operator Entered:  MAG DATA SOURCE
 CNTY.                        :  COUNTY
 LOC .                        :  LOCATION
 LMF .             Drill Floor:  LOG MEASURED FROM
 TVDS.m                  43.00:  TVDSS CORRECTN
 LATI.deg                40.13:  LATITUDE
 LONG.deg                51.22:  LONGITUDE
 WHNS.m                   7.72:  WELL HEAD N/S
 WHEW.m                 -14.24:  WELL HEAD E/W
 UTMX.m              519005.06:  UTM X
 UTMY.m             4443793.85:  UTM Y
 DFWL.m                   0.00:  DISTANCE FWL
 DFSL.m                   0.00:  DISTANCE FSL
 SDEP.m                 347.00:  START DEPTH
 TDD .m                 581.00:  TOTAL DEPTH (DRILLER)
 VSDR.deg               159.72:  VERT SEC DIRECT
 GVFD.g                   1.00:  GRAVITY FIELD
 MFLD.nT              50313.00:  MAGNETIC FIELD
 MDIP.deg                59.58:  MAGNETIC DIP
 MDEC.deg                 6.45:  MAGNETIC DECL
 GRDC.deg                 0.15:  GRID CORRECTION
 AZTC.deg                 6.30:  AZM TOTAL CORR
 EPD .m                   0.00:  ELEVATION
 EGL .m                   0.00:  GROUND ELEVATION
 WDMS.m                 169.80:  WD ELEV
 APD .m                  43.00:  DEPTH ABOVE PD
 AGAP.m                  43.00:  AIR GAP
 VSEW.m                 -14.24:  VERT SEC E/W
 VSNS.m                   7.72:  VERT SEC N/S
 DEP .m                 342.45:  DEPTH
 EKB .m                   0.00:  KB ELEVATION
 EDF .m                  43.00:  DF ELEVATION
 TDL .m                1313.00:  TOTAL DEPTH (LOGGER)
 VSC .                       0:  VS TO CLOSURE
 MAGU.                 1851396:  MAGUTM CHECKSUM
~Parameter Information Block
#MNEM.UNIT       Value        Description
#---------     -----------    ---------------------------
 AV  .mps                 0.65:  Ann Velocity 
 AVMX.mps                 0.75:  Max Ann Veloc 
 AZIF.deg               115.08:  Azm, Final 
 BHAT.        Rotary Steerable:  BHA Type 
 BROT.°/30m               1.50:  Build Rotating 
 BS  .in                 12.25:  Bit Size 
 BSZ .in                 12.25:  Bit Size 
 BTPL.psig              700.00:  Bit Press Loss 
 CABU.                     Yes:  Customer Abuse 
 COMM.                     <
V:  Run Comments 1 
 TCS .hr                121.00:  Time Ciculation Ended 
 CV  .mps                 1.83:  Crit Velocity 
 CVMX.mps                 1.83:  Max Crit Veloc 
 DD1 .          Rashad Habibov:  Direct Drillr 1 
 DD2 .         Rasim Ibrahimov:  Direct Drillr 2 
 DDSV.                 iCruise:  DD Service 
 DEFF.%                 100.00:  % Det Eff 
 DLRX.°/30m               3.60:  Dogleg Rot Max 
 DLSO.°/30m               3.10:  Dogleg Oriented 
 DLSX.°/30m               3.60:  Dogleg Str Max 
 DRET.      13.41.20 12-Nov-20:  Drill End Time 
 DRST.      13.41.20 07-Nov-20:  Drill Start Tim 
 DTIM.hr                 54.16:  Time Drilling 
 EDEP.m                4762.01:  End Depth 
 ENG1.           Amrah Tahirov:  Engineer 1 
 ENG2.      Bakhtiyar Jabbarli:  Engineer 2 
 ENG3.          Ruslan Safarov:  Engineer 3 
 ETIM.      13.41.20 14-Nov-20:  End Time 
 FLOI.gpm              1200.00:  Flow In 
 FLON.gpm              1100.00:  Flow In Min 
 FLOS.cptm                0.00:  Fluid Loss 
 FLOX.gpm              1200.00:  Flow In Max 
 HFLO.                      No:  High Flow 
 HPRE.                      No:  High Pressure 
 HTEM.                      No:  High Temp 
 HYDO.m                   2.00:  Hydro Offset 
 IFIN.deg                66.14:  Inc, Final 
 IMAX.deg                69.03:  Inc Max 
 IMIN.deg                64.64:  Inc Min 
 IMND.m                4450.16:  Inc Min Depth 
 IMXD.m                3996.00:  Inc Max Depth 
 JARR.                     Yes:  Jarring 
 LETM.      13.41.20 14-Nov-20:  Log End Time 
 LOST.hr                     0:  Lost Rig Time 
 LSTM.      13.41.20 06-Nov-20:  Log Start Time 
 MDCL.ppm             42500.00:  Mud Chlorides 
 MDES.     Inversion Oil/Synthetic:  Mud Desc 
 DFD .sg                  1.45:  Mud Density 
 MDMN.sg                  1.45:  Dens Mud Min 
 MDMX.sg                  1.45:  Dens Mud Max 
 MOIL.                      70:  Run Mud Oil % 
 MOWR.                   70:30:  Run Mud OWR 
 MSND.                       0:  Run Mud Sand % 
 MSOL.                    19.3:  Run Mud Solids% 
 DFV .spqt               77.00:  Mud Viscosity 
 MWOD.in                  8.00:  MWD Tool OD 
 MWSI.                      No:  Serv Intrp, MWD 
 OTIM.hr                201.88:  Time Operating 
 PCON.           Look Like New:  Pad Condition 
 PMAX.psia             9250.94:  Press Op, Max 
 PV  .cP                 29.00:  Mud PV 
 RUN .                     800:  Run Number 
 ROPA.m/hr               28.00:  ROP Avg 
 ROPN.m/hr               25.00:  ROP Min 
 ROPX.m/hr               30.00:  ROP Max 
 RPMA.rpm               160.00:  RPM Surface Avg 
 RPMN.rpm               160.00:  RPM Surface Min 
 RPMX.rpm               160.00:  RPM Surface Max 
 RRUN.                    0800:  Rig Run Number 
 RTIM.hr                 12.00:  Time Reaming 
 SAZI.deg               169.33:  Azm, Start 
 SDEP.m                3449.01:  Start Depth 
 SIDD.                      No:  Serv Intrp, DD 
 SINC.deg                68.01:  Inc, Start 
 SPPA.psig             4900.00:  SPP Avg 
 SPPN.psig             4800.00:  SPP Min 
 SPPX.psig             5050.00:  SPP Max 
 STIM.      13.41.20 06-Nov-20:  Start Time 
 SVCS.                 DD, MWD:  Services 
 SVER.                    9.20:  Sperry Version 
 TDAT.m                4762.01:  Tot Depth Attmp 
 TDDF.                      No:  Trip for DD 
 TDLG.m                1313.00:  Tot Depth Loggd 
 TFF .                      No:  Trip for Fail 
 TQAA.f-kp               13.00:  Torque Abs Avg 
 TQAN.f-kp               13.00:  Torque Abs Min 
 TQAX.f-kp               13.00:  Torque Abs Max 
 TRRT.°/30m               1.70:  Turn Rotating 
 MRT .                  EWR-M5:  Maximum Recorded Temperature 
 TTMX.degC               86.00:  Max Tool Temp 
 VS01.                90622122:  Virtual Str1 SN 
 VS02.                90577298:  Virtual Str2 SN 
 VS03.                90563623:  Virtual Str3 SN 
 VS04.                90617559:  Virtual Str4 SN 
 VS05.                11339492:  Virtual Str5 SN 
 VS06.                12385033:  Virtual Str6 SN 
 WBMN.klb                 0.00:  WOB Min 
 WOBA.klb                22.00:  WOB Avg 
 WOBX.klb                26.00:  WOB Max 
 YP  .lhf2               30.00:  Yield Point 
~Curve Information Block
#MNEM.UNIT                 API CODE     Curve Description
#---------               -----------    ---------------------------
 TIME.HHMMSS            00 000 000 000:  GT Time & Date
 GTDEPTH.m              00 000 000 000:  GT Depth
 GTPQH.psia             00 000 000 000:  GT HR Quartz Pressure
 GTTQ.degC              00 000 000 000:  GT Quartz Temperature
 GTTN.NONE              00 000 000 000:  GT Test Number
 GTET.sec               00 000 000 000:  GT Elapsed Test Time
 GTTVD.m                00 000 000 000:  GT True Vertical Depth
#Other Information
#
#WARRANTY: Halliburton will use its best efforts to furnish customers with 
#accurate information and interpretations that are part of, and incident to, the services 
#provided.  However, Halliburton cannot and does not warrant the accuracy 
#or correctness of such information and interpretations.  Under no circumstances should any 
#such information or interpretation be relied upon as the sole basis for any drilling, 
#completion, production, or financial decision or any procedure involving any risk to the 
#safety of any drilling venture, drilling rig or its crew or any other third party.  The 
#Customer has full responsibility for all drilling, completion and production operation.  
#Halliburton makes no representations or warranties, either expressed or 
#implied, including, but not limited to, the implied warranties of merchantability or fitness 
#for a particular purpose, with respect to the services rendered.  In no event will 
#Halliburton be liable for failure to obtain any particular results or for 
#any damages, including, but not limited to, indirect, special or consequential damages, 
#resulting from the use of any information or interpretation provided by Halliburton.
#
~A           TIME           GTDEPTH  GTPQH  GTTQ  GTTN  GTET   GTTVD  
# ...
   09:21:49.181.08-Nov-2020 3525.51 4313.77 70.51 1.00  23.00 2012.77
   09:21:49.381.08-Nov-2020 3525.51 4313.77 70.51 1.00  23.20 2012.77
   09:21:49.582.08-Nov-2020 3525.51 4316.77 70.51 1.00  23.40 2012.77
   09:21:49.782.08-Nov-2020 3525.51 4316.33 70.51 1.00  23.60 2012.77
   09:21:49.982.08-Nov-2020 3525.51 4313.89 70.51 1.00  23.80 2012.77
   09:21:50.182.08-Nov-2020 3525.51 4313.78 70.51 1.00  24.00 2012.77
   09:21:50.382.08-Nov-2020 3525.51 4313.78 70.51 1.00  24.20 2012.77
   09:21:50.582.08-Nov-2020 3525.51 4313.67 70.51 1.00  24.40 2012.77
   09:21:50.782.08-Nov-2020 3525.51 4312.81 70.51 1.00  24.60 2012.77
   09:21:50.982.08-Nov-2020 3525.51 4311.87 70.51 1.00  24.80 2012.77
   09:21:51.182.08-Nov-2020 3525.51 4312.50 70.50 1.00  25.00 2012.77
   09:21:51.382.08-Nov-2020 3525.51 4312.50 70.50 1.00  25.20 2012.77
   09:21:51.582.08-Nov-2020 3525.51 4314.75 70.50 1.00  25.40 2012.77
   09:21:51.782.08-Nov-2020 3525.51 4315.00 70.50 1.00  25.60 2012.77
   09:21:51.982.08-Nov-2020 3525.51 4315.44 70.50 1.00  25.80 2012.77
   09:21:52.182.08-Nov-2020 3525.51 4316.02 70.50 1.00  26.00 2012.77
   09:21:52.382.08-Nov-2020 3525.51 4316.02 70.50 1.00  26.20 2012.77
   09:21:52.582.08-Nov-2020 3525.51 4316.41 70.50 1.00  26.40 2012.77
   09:21:52.782.08-Nov-2020 3525.51 4316.95 70.50 1.00  26.60 2012.77
   09:21:52.982.08-Nov-2020 3525.51 4317.00 70.50 1.00  26.80 2012.77
   09:21:53.182.08-Nov-2020 3525.51 4317.07 70.50 1.00  27.00 2012.77
   09:21:53.382.08-Nov-2020 3525.51 4317.07 70.50 1.00  27.20 2012.77
   09:21:53.582.08-Nov-2020 3525.51 4315.65 70.50 1.00  27.40 2012.77
   09:21:53.782.08-Nov-2020 3525.51 4315.29 70.50 1.00  27.60 2012.77
   09:21:53.982.08-Nov-2020 3525.51 4315.17 70.50 1.00  27.80 2012.77
   09:21:54.182.08-Nov-2020 3525.51 4315.53 70.50 1.00  28.00 2012.77
   09:21:54.382.08-Nov-2020 3525.51 4315.53 70.50 1.00  28.20 2012.77
   09:21:54.582.08-Nov-2020 3525.51 4317.33 70.50 1.00  28.40 2012.77
   09:21:54.782.08-Nov-2020 3525.51 4316.90 70.50 1.00  28.60 2012.77
   09:21:54.982.08-Nov-2020 3525.51 4322.72 70.50 1.00  28.80 2012.77
   09:21:55.182.08-Nov-2020 3525.51 4316.20 70.50 1.00  29.00 2012.77
   09:21:55.383.08-Nov-2020 3525.51 4316.20 70.50 1.00  29.20 2012.77
   09:21:55.583.08-Nov-2020 3525.51 4321.64 70.49 1.00  29.40 2012.77
   09:21:55.783.08-Nov-2020 3525.51 4321.57 70.49 1.00  29.61 2012.77
   09:21:55.983.08-Nov-2020 3525.51 4316.79 70.49 1.00  29.81 2012.77
   09:21:56.183.08-Nov-2020 3525.51 4316.00 70.49 1.00  30.01 2012.77
   09:21:56.383.08-Nov-2020 3525.51 4316.00 70.49 1.00  30.21 2012.77
   09:21:56.583.08-Nov-2020 3525.51 4320.05 70.49 1.00  30.41 2012.77
   09:21:56.783.08-Nov-2020 3525.51 4319.25 70.49 1.00  30.61 2012.77
   09:21:56.983.08-Nov-2020 3525.51 4315.30 70.49 1.00  30.81 2012.77
   09:21:57.183.08-Nov-2020 3525.51 4315.43 70.49 1.00  31.01 2012.77
   09:21:57.383.08-Nov-2020 3525.51 4315.43 70.49 1.00  31.21 2012.77
   09:21:57.583.08-Nov-2020 3525.51 4320.25 70.49 1.00  31.41 2012.77
   09:21:57.783.08-Nov-2020 3525.51 4320.82 70.49 1.00  31.61 2012.77
   09:21:57.983.08-Nov-2020 3525.51 4317.50 70.49 1.00  31.81 2012.77
   09:21:58.183.08-Nov-2020 3525.51 4316.93 70.49 1.00  32.01 2012.77
   09:21:58.383.08-Nov-2020 3525.51 4316.93 70.49 1.00  32.21 2012.77
   09:21:58.583.08-Nov-2020 3525.51 4317.25 70.49 1.00  32.41 2012.77
   09:21:58.783.08-Nov-2020 3525.51 4317.74 70.49 1.00  32.61 2012.77
   09:21:58.983.08-Nov-2020 3525.51 4317.12 70.49 1.00  32.81 2012.77
   09:21:59.183.08-Nov-2020 3525.51 4316.96 70.49 1.00  33.01 2012.77
   09:21:59.383.08-Nov-2020 3525.51 4316.96 70.49 1.00  33.21 2012.77
   09:21:59.583.08-Nov-2020 3525.51 4316.79 70.49 1.00  33.41 2012.77
   09:21:59.783.08-Nov-2020 3525.51 4315.57 70.49 1.00  33.61 2012.77
   09:21:59.983.08-Nov-2020 3525.51 4315.40 70.49 1.00  33.81 2012.77
   09:22:00.183.08-Nov-2020 3525.51 4315.83 70.48 1.00  34.01 2012.77
   09:22:00.383.08-Nov-2020 3525.51 4315.83 70.48 1.00  34.21 2012.77
   09:22:00.583.08-Nov-2020 3525.51 4315.75 70.48 1.00  34.41 2012.77
   09:22:00.783.08-Nov-2020 3525.51 4316.27 70.48 1.00  34.61 2012.77
   09:22:00.983.08-Nov-2020 3525.51 4316.48 70.48 1.00  34.81 2012.77
   09:22:01.183.08-Nov-2020 3525.51 4316.88 70.48 1.00  35.01 2012.77
   09:22:01.384.08-Nov-2020 3525.51 4316.88 70.48 1.00  35.21 2012.77
   09:22:01.584.08-Nov-2020 3525.51 4317.35 70.48 1.00  35.41 2012.77
   09:22:01.784.08-Nov-2020 3525.51 4317.17 70.48 1.00  35.61 2012.77
   09:22:01.984.08-Nov-2020 3525.51 4315.43 70.48 1.00  35.81 2012.77
   09:22:02.184.08-Nov-2020 3525.51 4322.01 70.48 1.00  36.01 2012.77
   09:22:02.384.08-Nov-2020 3525.51 4322.01 70.48 1.00  36.21 2012.77
   09:22:02.584.08-Nov-2020 3525.51 4369.81 70.48 1.00  36.41 2012.77
   09:22:02.784.08-Nov-2020 3525.51 4383.65 70.48 1.00  36.61 2012.77
   09:22:02.984.08-Nov-2020 3525.51 4385.91 70.48 1.00  36.81 2012.77
   09:22:03.184.08-Nov-2020 3525.51 4397.15 70.48 1.00  37.01 2012.77
   09:22:03.384.08-Nov-2020 3525.51 4397.15 70.48 1.00  37.21 2012.77
   09:22:03.584.08-Nov-2020 3525.51 4417.59 70.48 1.00  37.41 2012.77
   09:22:03.784.08-Nov-2020 3525.51 4431.86 70.48 1.00  37.61 2012.77
   09:22:03.984.08-Nov-2020 3525.51 4441.04 70.48 1.00  37.81 2012.77
   09:22:04.184.08-Nov-2020 3525.51 4437.21 70.48 1.00  38.01 2012.77
   09:22:04.384.08-Nov-2020 3525.51 4437.21 70.48 1.00  38.21 2012.77
   09:22:04.584.08-Nov-2020 3525.51 4429.99 70.48 1.00  38.41 2012.77
   09:22:04.784.08-Nov-2020 3525.51 4435.32 70.47 1.00  38.61 2012.77
   09:22:04.984.08-Nov-2020 3525.51 4414.48 70.47 1.00  38.81 2012.77
   09:22:05.184.08-Nov-2020 3525.51 4402.37 70.47 1.00  39.01 2012.77
   09:22:05.384.08-Nov-2020 3525.51 4402.37 70.47 1.00  39.21 2012.77
   09:22:05.584.08-Nov-2020 3525.51 4397.46 70.47 1.00  39.41 2012.77
   09:22:05.784.08-Nov-2020 3525.51 4392.76 70.47 1.00  39.61 2012.77
   09:22:05.984.08-Nov-2020 3525.51 4387.23 70.47 1.00  39.81 2012.77
   09:22:06.184.08-Nov-2020 3525.51 4388.09 70.47 1.00  40.01 2012.77
   09:22:06.384.08-Nov-2020 3525.51 4388.09 70.47 1.00  40.21 2012.77
   09:22:06.584.08-Nov-2020 3525.51 4389.43 70.47 1.00  40.41 2012.77
   09:22:06.784.08-Nov-2020 3525.51 4386.15 70.47 1.00  40.61 2012.77
   09:22:06.984.08-Nov-2020 3525.51 4388.05 70.47 1.00  40.81 2012.77
   09:22:07.185.08-Nov-2020 3525.51 4389.64 70.47 1.00  41.01 2012.77
   09:22:07.385.08-Nov-2020 3525.51 4389.64 70.47 1.00  41.21 2012.77
   09:22:07.585.08-Nov-2020 3525.51 4385.12 70.47 1.00  41.41 2012.77
   09:22:07.785.08-Nov-2020 3525.51 4384.15 70.47 1.00  41.61 2012.77
   09:22:07.985.08-Nov-2020 3525.51 4384.41 70.47 1.00  41.81 2012.77
   09:22:08.185.08-Nov-2020 3525.51 4386.42 70.47 1.00  42.01 2012.77
   09:22:08.385.08-Nov-2020 3525.51 4386.42 70.47 1.00  42.21 2012.77
   09:22:08.585.08-Nov-2020 3525.51 4382.56 70.47 1.00  42.41 2012.77
   09:22:08.785.08-Nov-2020 3525.51 4381.63 70.47 1.00  42.61 2012.77
   09:22:08.985.08-Nov-2020 3525.51 4381.25 70.47 1.00  42.81 2012.77
   09:22:09.185.08-Nov-2020 3525.51 4381.22 70.47 1.00  43.01 2012.77
   09:22:09.385.08-Nov-2020 3525.51 4381.22 70.47 1.00  43.21 2012.77
   09:22:09.585.08-Nov-2020 3525.51 4380.61 70.47 1.00  43.41 2012.77
   09:22:09.785.08-Nov-2020 3525.51 4380.51 70.46 1.00  43.61 2012.77
   09:22:09.985.08-Nov-2020 3525.51 4551.63 70.46 1.00  43.81 2012.77
   09:22:10.185.08-Nov-2020 3525.51 4334.78 70.46 1.00  44.01 2012.77
   09:22:10.385.08-Nov-2020 3525.51 4334.78 70.46 1.00  44.21 2012.77
   09:22:10.585.08-Nov-2020 3525.51 4337.36 70.46 1.00  44.41 2012.77
   09:22:10.785.08-Nov-2020 3525.51 4340.61 70.46 1.00  44.61 2012.77
   09:22:10.985.08-Nov-2020 3525.51 4333.74 70.46 1.00  44.81 2012.77
   09:22:11.185.08-Nov-2020 3525.51 4332.49 70.46 1.00  45.01 2012.77
   09:22:11.385.08-Nov-2020 3525.51 4332.49 70.46 1.00  45.21 2012.77
   09:22:11.585.08-Nov-2020 3525.51 4203.29 70.46 1.00  45.41 2012.77
   09:22:11.785.08-Nov-2020 3525.51 3979.95 70.46 1.00  45.61 2012.77
   09:22:11.985.08-Nov-2020 3525.51 3739.77 70.46 1.00  45.81 2012.77
