~Version Information
 VERS.                  2.0:   CWLS log ASCII Standard -VERSION 2.0
 WRAP.                   NO:   One line per depth step
~Well Information Block
#MNEM.UNIT     VALUE/NAME     DESCRIPTION
#---------     -----------    ---------------------------
 STRT.S             13:56:13 08-Nov-20: START TIME 13:56:13 08-Nov-20
 STOP.S             14:02:43 08-Nov-20: STOP TIME  14:02:43 08-Nov-20
 STEP.S                   0.00: STEP TIME
 NULL.                 -999.25: NULL VALUE
 DFWT.                        :  DIST FWL TEXT
 DFST.                        :  DIST FSL TEXT
 DMF .             Drill Floor:  DRILL MEAS FROM
 STIM.      04.54.24 22-Sep-20:  START TIME
 DATE.      04.54.24 21-Nov-20:  END TIME
 SPUD.               21-Nov-20:  SPUD DATE
 NREF.                    Grid:  NORTH REFERENCE
 HPTY.       Minimum Curvature:  HOLE POS TYPE
 DMOD.             Drill Model:  DRILL MOD DESC
 SVYD.                  Survey:  SURVEY DESC
 ILTD.               Lithology:  INTERP LTH DESC
 FTOP.          Formation Tops:  FORM TOPS DESC
 SON .        AZ-XX-0906571587:  JOB NUMBER
 COMP.     BP Exploration (Caspian Sea) Ltd:  COMPANY
 UWI .                     N/A:  UNIQUE WELL IDENTIFIER
 API .                     N/A:  API NUMBER
 BASE.              Azerbaijan:  LOGGING EQUIPMENT BASE LOCATION
 REGN.                   EESSA:  REGION
 PROV.                    Baku:  PROVINCE
 STAT.                    Baku:  STATE NAME
 CTRY.              Azerbaijan:  COUNTRY NAME
 FLD .                     ACG:  FIELD NAME
 SRVC.     TURAN Drilling & Engineering:  CONTRACTOR
 WELL.                     J27:  WELL NAME
 RIG .             West Chirag:  RIG NAME
 DOE .                     N/A:  DOE NUMBER
 DCON.         Sperry Drilling:  DIRECTNL CONTR
 PDAT.          Mean Sea Level:  PERMANENT DATUM
 WTYP.                Deviated:  WELL TYPE
 MWDS.                    Baku:  MWD SHOP
 JOBN.        AZ-XX-0906571587:  JOB TICKET NUMB
 UNIT.                     N/A:  LOGGING EQUIPMENT ID
 MDS .        Operator Entered:  MAG DATA SOURCE
 CNTY.                        :  COUNTY
 LOC .                        :  LOCATION
 LMF .             Drill Floor:  LOG MEASURED FROM
 TVDS.m                  43.00:  TVDSS CORRECTN
 LATI.deg                40.13:  LATITUDE
 LONG.deg                51.22:  LONGITUDE
 WHNS.m                   7.72:  WELL HEAD N/S
 WHEW.m                 -14.24:  WELL HEAD E/W
 UTMX.m              519005.06:  UTM X
 UTMY.m             4443793.85:  UTM Y
 DFWL.m                   0.00:  DISTANCE FWL
 DFSL.m                   0.00:  DISTANCE FSL
 SDEP.m                 347.00:  START DEPTH
 TDD .m                 581.00:  TOTAL DEPTH (DRILLER)
 VSDR.deg               159.72:  VERT SEC DIRECT
 GVFD.g                   1.00:  GRAVITY FIELD
 MFLD.nT              50313.00:  MAGNETIC FIELD
 MDIP.deg                59.58:  MAGNETIC DIP
 MDEC.deg                 6.45:  MAGNETIC DECL
 GRDC.deg                 0.15:  GRID CORRECTION
 AZTC.deg                 6.30:  AZM TOTAL CORR
 EPD .m                   0.00:  ELEVATION
 EGL .m                   0.00:  GROUND ELEVATION
 WDMS.m                 169.80:  WD ELEV
 APD .m                  43.00:  DEPTH ABOVE PD
 AGAP.m                  43.00:  AIR GAP
 VSEW.m                 -14.24:  VERT SEC E/W
 VSNS.m                   7.72:  VERT SEC N/S
 DEP .m                 342.45:  DEPTH
 EKB .m                   0.00:  KB ELEVATION
 EDF .m                  43.00:  DF ELEVATION
 TDL .m                1313.00:  TOTAL DEPTH (LOGGER)
 VSC .                       0:  VS TO CLOSURE
 MAGU.                 1851396:  MAGUTM CHECKSUM
~Parameter Information Block
#MNEM.UNIT       Value        Description
#---------     -----------    ---------------------------
 AV  .mps                 0.65:  Ann Velocity 
 AVMX.mps                 0.75:  Max Ann Veloc 
 AZIF.deg               115.08:  Azm, Final 
 BHAT.        Rotary Steerable:  BHA Type 
 BROT.°/30m               1.50:  Build Rotating 
 BS  .in                 12.25:  Bit Size 
 BSZ .in                 12.25:  Bit Size 
 BTPL.psig              700.00:  Bit Press Loss 
 CABU.                     Yes:  Customer Abuse 
 COMM.                     ì¹^:  Run Comments 1 
 TCS .hr                121.00:  Time Ciculation Ended 
 CV  .mps                 1.83:  Crit Velocity 
 CVMX.mps                 1.83:  Max Crit Veloc 
 DD1 .          Rashad Habibov:  Direct Drillr 1 
 DD2 .         Rasim Ibrahimov:  Direct Drillr 2 
 DDSV.                 iCruise:  DD Service 
 DEFF.%                 100.00:  % Det Eff 
 DLRX.°/30m               3.60:  Dogleg Rot Max 
 DLSO.°/30m               3.10:  Dogleg Oriented 
 DLSX.°/30m               3.60:  Dogleg Str Max 
 DRET.      13.41.20 12-Nov-20:  Drill End Time 
 DRST.      13.41.20 07-Nov-20:  Drill Start Tim 
 DTIM.hr                 54.16:  Time Drilling 
 EDEP.m                4762.01:  End Depth 
 ENG1.           Amrah Tahirov:  Engineer 1 
 ENG2.      Bakhtiyar Jabbarli:  Engineer 2 
 ENG3.          Ruslan Safarov:  Engineer 3 
 ETIM.      13.41.20 14-Nov-20:  End Time 
 FLOI.gpm              1200.00:  Flow In 
 FLON.gpm              1100.00:  Flow In Min 
 FLOS.cptm                0.00:  Fluid Loss 
 FLOX.gpm              1200.00:  Flow In Max 
 HFLO.                      No:  High Flow 
 HPRE.                      No:  High Pressure 
 HTEM.                      No:  High Temp 
 HYDO.m                   2.00:  Hydro Offset 
 IFIN.deg                66.14:  Inc, Final 
 IMAX.deg                69.03:  Inc Max 
 IMIN.deg                64.64:  Inc Min 
 IMND.m                4450.16:  Inc Min Depth 
 IMXD.m                3996.00:  Inc Max Depth 
 JARR.                     Yes:  Jarring 
 LETM.      13.41.20 14-Nov-20:  Log End Time 
 LOST.hr                     0:  Lost Rig Time 
 LSTM.      13.41.20 06-Nov-20:  Log Start Time 
 MDCL.ppm             42500.00:  Mud Chlorides 
 MDES.     Inversion Oil/Synthetic:  Mud Desc 
 DFD .sg                  1.45:  Mud Density 
 MDMN.sg                  1.45:  Dens Mud Min 
 MDMX.sg                  1.45:  Dens Mud Max 
 MOIL.                      70:  Run Mud Oil % 
 MOWR.                   70:30:  Run Mud OWR 
 MSND.                       0:  Run Mud Sand % 
 MSOL.                    19.3:  Run Mud Solids% 
 DFV .spqt               77.00:  Mud Viscosity 
 MWOD.in                  8.00:  MWD Tool OD 
 MWSI.                      No:  Serv Intrp, MWD 
 OTIM.hr                201.88:  Time Operating 
 PCON.           Look Like New:  Pad Condition 
 PMAX.psia             9250.94:  Press Op, Max 
 PV  .cP                 29.00:  Mud PV 
 RUN .                     800:  Run Number 
 ROPA.m/hr               28.00:  ROP Avg 
 ROPN.m/hr               25.00:  ROP Min 
 ROPX.m/hr               30.00:  ROP Max 
 RPMA.rpm               160.00:  RPM Surface Avg 
 RPMN.rpm               160.00:  RPM Surface Min 
 RPMX.rpm               160.00:  RPM Surface Max 
 RRUN.                    0800:  Rig Run Number 
 RTIM.hr                 12.00:  Time Reaming 
 SAZI.deg               169.33:  Azm, Start 
 SDEP.m                3449.01:  Start Depth 
 SIDD.                      No:  Serv Intrp, DD 
 SINC.deg                68.01:  Inc, Start 
 SPPA.psig             4900.00:  SPP Avg 
 SPPN.psig             4800.00:  SPP Min 
 SPPX.psig             5050.00:  SPP Max 
 STIM.      13.41.20 06-Nov-20:  Start Time 
 SVCS.                 DD, MWD:  Services 
 SVER.                    9.20:  Sperry Version 
 TDAT.m                4762.01:  Tot Depth Attmp 
 TDDF.                      No:  Trip for DD 
 TDLG.m                1313.00:  Tot Depth Loggd 
 TFF .                      No:  Trip for Fail 
 TQAA.f-kp               13.00:  Torque Abs Avg 
 TQAN.f-kp               13.00:  Torque Abs Min 
 TQAX.f-kp               13.00:  Torque Abs Max 
 TRRT.°/30m               1.70:  Turn Rotating 
 MRT .                  EWR-M5:  Maximum Recorded Temperature 
 TTMX.degC               86.00:  Max Tool Temp 
 VS01.                90622122:  Virtual Str1 SN 
 VS02.                90577298:  Virtual Str2 SN 
 VS03.                90563623:  Virtual Str3 SN 
 VS04.                90617559:  Virtual Str4 SN 
 VS05.                11339492:  Virtual Str5 SN 
 VS06.                12385033:  Virtual Str6 SN 
 WBMN.klb                 0.00:  WOB Min 
 WOBA.klb                22.00:  WOB Avg 
 WOBX.klb                26.00:  WOB Max 
 YP  .lhf2               30.00:  Yield Point 
~Curve Information Block
#MNEM.UNIT                 API CODE     Curve Description
#---------               -----------    ---------------------------
 TIME.HHMMSS            00 000 000 000:  GT Time & Date
 GTDEPTH.m              00 000 000 000:  GT Depth
 GTPQH.psia             00 000 000 000:  GT HR Quartz Pressure
 GTTQ.degC              00 000 000 000:  GT Quartz Temperature
 GTTN.NONE              00 000 000 000:  GT Test Number
 GTET.sec               00 000 000 000:  GT Elapsed Test Time
 GTTVD.m                00 000 000 000:  GT True Vertical Depth
#Other Information
#
#WARRANTY: Halliburton will use its best efforts to furnish customers with 
#accurate information and interpretations that are part of, and incident to, the services 
#provided.  However, Halliburton cannot and does not warrant the accuracy 
#or correctness of such information and interpretations.  Under no circumstances should any 
#such information or interpretation be relied upon as the sole basis for any drilling, 
#completion, production, or financial decision or any procedure involving any risk to the 
#safety of any drilling venture, drilling rig or its crew or any other third party.  The 
#Customer has full responsibility for all drilling, completion and production operation.  
#Halliburton makes no representations or warranties, either expressed or 
#implied, including, but not limited to, the implied warranties of merchantability or fitness 
#for a particular purpose, with respect to the services rendered.  In no event will 
#Halliburton be liable for failure to obtain any particular results or for 
#any damages, including, but not limited to, indirect, special or consequential damages, 
#resulting from the use of any information or interpretation provided by Halliburton.
#
~A           TIME           GTDEPTH  GTPQH  GTTQ  GTTN  GTET   GTTVD  
# ...
   13:58:31.040.08-Nov-2020 3585.71 3292.62 71.42 3.00 137.87 2034.99
   13:58:31.240.08-Nov-2020 3585.71 3292.59 71.42 3.00 138.07 2034.99
   13:58:31.440.08-Nov-2020 3585.71 3292.60 71.42 3.00 138.27 2034.99
   13:58:31.640.08-Nov-2020 3585.71 3292.58 71.42 3.00 138.47 2034.99
   13:58:31.840.08-Nov-2020 3585.71 3292.56 71.41 3.00 138.67 2034.99
   13:58:32.039.08-Nov-2020 3585.71 3292.57 71.41 3.00 138.87 2034.99
   13:58:32.239.08-Nov-2020 3585.71 3292.57 71.41 3.00 139.07 2034.99
   13:58:32.439.08-Nov-2020 3585.71 3292.56 71.41 3.00 139.27 2034.99
   13:58:32.639.08-Nov-2020 3585.71 3292.57 71.41 3.00 139.47 2034.99
   13:58:32.839.08-Nov-2020 3585.71 3292.61 71.41 3.00 139.67 2034.99
   13:58:33.038.08-Nov-2020 3585.71 3292.67 71.41 3.00 139.87 2034.99
   13:58:33.238.08-Nov-2020 3585.71 3292.67 71.41 3.00 140.07 2034.99
   13:58:33.438.08-Nov-2020 3585.71 3292.69 71.41 3.00 140.26 2034.99
   13:58:33.638.08-Nov-2020 3585.71 3292.70 71.40 3.00 140.46 2034.99
   13:58:33.838.08-Nov-2020 3585.71 3292.62 71.40 3.00 140.66 2034.99
   13:58:34.037.08-Nov-2020 3585.71 3292.62 71.40 3.00 140.86 2034.99
   13:58:34.237.08-Nov-2020 3585.71 3292.62 71.40 3.00 141.06 2034.99
   13:58:34.437.08-Nov-2020 3585.71 3292.66 71.40 3.00 141.26 2034.99
   13:58:34.637.08-Nov-2020 3585.71 3292.65 71.40 3.00 141.46 2034.99
   13:58:34.837.08-Nov-2020 3585.71 3292.68 71.40 3.00 141.66 2034.99
   13:58:35.036.08-Nov-2020 3585.71 3292.63 71.40 3.00 141.86 2034.99
   13:58:35.236.08-Nov-2020 3585.71 3292.60 71.40 3.00 142.06 2034.99
   13:58:35.436.08-Nov-2020 3585.71 3292.71 71.40 3.00 142.26 2034.99
   13:58:35.636.08-Nov-2020 3585.71 3292.70 71.39 3.00 142.46 2034.99
   13:58:35.836.08-Nov-2020 3585.71 3292.64 71.39 3.00 142.66 2034.99
   13:58:36.036.08-Nov-2020 3585.71 3292.67 71.39 3.00 142.86 2034.99
   13:58:36.235.08-Nov-2020 3585.71 3292.67 71.39 3.00 143.06 2034.99
   13:58:36.435.08-Nov-2020 3585.71 3292.75 71.39 3.00 143.26 2034.99
   13:58:36.635.08-Nov-2020 3585.71 3292.67 71.39 3.00 143.46 2034.99
   13:58:36.835.08-Nov-2020 3585.71 3292.65 71.39 3.00 143.66 2034.99
   13:58:37.035.08-Nov-2020 3585.71 3292.68 71.39 3.00 143.86 2034.99
   13:58:37.234.08-Nov-2020 3585.71 3292.68 71.39 3.00 144.06 2034.99
   13:58:37.434.08-Nov-2020 3585.71 3292.63 71.39 3.00 144.26 2034.99
   13:58:37.634.08-Nov-2020 3585.71 3292.62 71.38 3.00 144.46 2034.99
   13:58:37.834.08-Nov-2020 3585.71 3292.61 71.38 3.00 144.66 2034.99
   13:58:38.034.08-Nov-2020 3585.71 3292.60 71.38 3.00 144.86 2034.99
   13:58:38.233.08-Nov-2020 3585.71 3292.60 71.38 3.00 145.06 2034.99
   13:58:38.433.08-Nov-2020 3585.71 3292.57 71.38 3.00 145.26 2034.99
   13:58:38.633.08-Nov-2020 3585.71 3292.60 71.38 3.00 145.46 2034.99
   13:58:38.833.08-Nov-2020 3585.71 3292.60 71.38 3.00 145.66 2034.99
   13:58:39.033.08-Nov-2020 3585.71 3292.59 71.38 3.00 145.86 2034.99
   13:58:39.232.08-Nov-2020 3585.71 3292.59 71.38 3.00 146.06 2034.99
   13:58:39.432.08-Nov-2020 3585.71 3292.71 71.37 3.00 146.26 2034.99
   13:58:39.632.08-Nov-2020 3585.71 3292.63 71.37 3.00 146.46 2034.99
   13:58:39.832.08-Nov-2020 3585.71 3292.68 71.37 3.00 146.66 2034.99
   13:58:40.032.08-Nov-2020 3585.71 3292.65 71.37 3.00 146.86 2034.99
   13:58:40.231.08-Nov-2020 3585.71 3292.65 71.37 3.00 147.06 2034.99
   13:58:40.431.08-Nov-2020 3585.71 3292.63 71.37 3.00 147.26 2034.99
   13:58:40.631.08-Nov-2020 3585.71 3292.60 71.37 3.00 147.46 2034.99
   13:58:40.831.08-Nov-2020 3585.71 3292.60 71.37 3.00 147.66 2034.99
   13:58:41.031.08-Nov-2020 3585.71 3292.60 71.37 3.00 147.86 2034.99
   13:58:41.231.08-Nov-2020 3585.71 3292.60 71.37 3.00 148.06 2034.99
   13:58:41.430.08-Nov-2020 3585.71 3292.53 71.36 3.00 148.26 2034.99
   13:58:41.630.08-Nov-2020 3585.71 3292.65 71.36 3.00 148.46 2034.99
   13:58:41.830.08-Nov-2020 3585.71 3292.68 71.36 3.00 148.66 2034.99
   13:58:42.030.08-Nov-2020 3585.71 3292.63 71.36 3.00 148.86 2034.99
   13:58:42.230.08-Nov-2020 3585.71 3292.63 71.36 3.00 149.06 2034.99
   13:58:42.429.08-Nov-2020 3585.71 3292.69 71.36 3.00 149.26 2034.99
   13:58:42.629.08-Nov-2020 3585.71 3289.79 71.36 3.00 149.46 2034.99
   13:58:42.829.08-Nov-2020 3585.71 3288.28 71.36 3.00 149.66 2034.99
   13:58:43.029.08-Nov-2020 3585.71 3288.54 71.36 3.00 149.86 2034.99
   13:58:43.229.08-Nov-2020 3585.71 3289.17 71.35 3.00 150.06 2034.99
   13:58:43.428.08-Nov-2020 3585.71 3289.17 71.35 3.00 150.26 2034.99
   13:58:43.628.08-Nov-2020 3585.71 3289.20 71.35 3.00 150.46 2034.99
   13:58:43.828.08-Nov-2020 3585.71 3289.28 71.35 3.00 150.65 2034.99
   13:58:44.028.08-Nov-2020 3585.71 3289.36 71.35 3.00 150.85 2034.99
   13:58:44.228.08-Nov-2020 3585.71 3289.36 71.35 3.00 151.05 2034.99
   13:58:44.427.08-Nov-2020 3585.71 3289.62 71.35 3.00 151.25 2034.99
   13:58:44.627.08-Nov-2020 3585.71 3289.64 71.35 3.00 151.45 2034.99
   13:58:44.827.08-Nov-2020 3585.71 3289.71 71.35 3.00 151.65 2034.99
   13:58:45.027.08-Nov-2020 3585.71 3289.79 71.34 3.00 151.85 2034.99
   13:58:45.227.08-Nov-2020 3585.71 3289.79 71.34 3.00 152.05 2034.99
   13:58:45.426.08-Nov-2020 3585.71 3289.88 71.34 3.00 152.25 2034.99
   13:58:45.626.08-Nov-2020 3585.71 3289.90 71.34 3.00 152.45 2034.99
   13:58:45.826.08-Nov-2020 3585.71 3289.95 71.34 3.00 152.65 2034.99
   13:58:46.026.08-Nov-2020 3585.71 3289.97 71.34 3.00 152.85 2034.99
   13:58:46.226.08-Nov-2020 3585.71 3289.97 71.34 3.00 153.05 2034.99
   13:58:46.426.08-Nov-2020 3585.71 3289.97 71.34 3.00 153.25 2034.99
   13:58:46.625.08-Nov-2020 3585.71 3290.03 71.34 3.00 153.45 2034.99
   13:58:46.825.08-Nov-2020 3585.71 3290.02 71.34 3.00 153.65 2034.99
   13:58:47.025.08-Nov-2020 3585.71 3290.05 71.33 3.00 153.85 2034.99
   13:58:47.225.08-Nov-2020 3585.71 3290.04 71.33 3.00 154.05 2034.99
   13:58:47.425.08-Nov-2020 3585.71 3290.07 71.33 3.00 154.25 2034.99
   13:58:47.624.08-Nov-2020 3585.71 3290.12 71.33 3.00 154.45 2034.99
   13:58:47.824.08-Nov-2020 3585.71 3290.09 71.33 3.00 154.65 2034.99
   13:58:48.024.08-Nov-2020 3585.71 3290.13 71.33 3.00 154.85 2034.99
   13:58:48.224.08-Nov-2020 3585.71 3290.13 71.33 3.00 155.05 2034.99
   13:58:48.424.08-Nov-2020 3585.71 3290.21 71.33 3.00 155.25 2034.99
   13:58:48.623.08-Nov-2020 3585.71 3290.26 71.33 3.00 155.45 2034.99
   13:58:48.823.08-Nov-2020 3585.71 3290.22 71.32 3.00 155.65 2034.99
   13:58:49.023.08-Nov-2020 3585.71 3290.27 71.32 3.00 155.85 2034.99
   13:58:49.223.08-Nov-2020 3585.71 3290.27 71.32 3.00 156.05 2034.99
   13:58:49.423.08-Nov-2020 3585.71 3290.26 71.32 3.00 156.25 2034.99
   13:58:49.622.08-Nov-2020 3585.71 3290.29 71.32 3.00 156.45 2034.99
   13:58:49.822.08-Nov-2020 3585.71 3290.28 71.32 3.00 156.65 2034.99
   13:58:50.022.08-Nov-2020 3585.71 3290.31 71.32 3.00 156.85 2034.99
   13:58:50.222.08-Nov-2020 3585.71 3290.31 71.32 3.00 157.05 2034.99
   13:58:50.422.08-Nov-2020 3585.71 3290.23 71.32 3.00 157.25 2034.99
   13:58:50.621.08-Nov-2020 3585.71 3290.47 71.32 3.00 157.45 2034.99
   13:58:50.821.08-Nov-2020 3585.71 3290.42 71.31 3.00 157.65 2034.99
   13:58:51.021.08-Nov-2020 3585.71 3290.30 71.31 3.00 157.85 2034.99
   13:58:51.221.08-Nov-2020 3585.71 3290.52 71.31 3.00 158.05 2034.99
   13:58:51.421.08-Nov-2020 3585.71 3290.45 71.31 3.00 158.25 2034.99
   13:58:51.621.08-Nov-2020 3585.71 3290.44 71.31 3.00 158.45 2034.99
   13:58:51.820.08-Nov-2020 3585.71 3290.49 71.31 3.00 158.65 2034.99
   13:58:52.020.08-Nov-2020 3585.71 3290.42 71.31 3.00 158.85 2034.99
   13:58:52.220.08-Nov-2020 3585.71 3290.42 71.31 3.00 159.05 2034.99
   13:58:52.420.08-Nov-2020 3585.71 3290.53 71.31 3.00 159.25 2034.99
   13:58:52.620.08-Nov-2020 3585.71 3290.55 71.30 3.00 159.45 2034.99
   13:58:52.819.08-Nov-2020 3585.71 3290.50 71.30 3.00 159.65 2034.99
   13:58:53.019.08-Nov-2020 3585.71 3290.46 71.30 3.00 159.85 2034.99
   13:58:53.219.08-Nov-2020 3585.71 3290.46 71.30 3.00 160.05 2034.99
   13:58:53.419.08-Nov-2020 3585.71 3292.60 71.30 3.00 160.25 2034.99
   13:58:53.619.08-Nov-2020 3585.71 3292.61 71.30 3.00 160.45 2034.99
   13:58:53.818.08-Nov-2020 3585.71 3292.60 71.30 3.00 160.65 2034.99
