~Version Information
 VERS.                  2.0:   CWLS log ASCII Standard -VERSION 2.0
 WRAP.                   NO:   One line per depth step
~Well Information Block
#MNEM.UNIT     VALUE/NAME     DESCRIPTION
#---------     -----------    ---------------------------
 STRT.S             13:56:13 08-Nov-20: START TIME 13:56:13 08-Nov-20
 STOP.S             14:02:43 08-Nov-20: STOP TIME  14:02:43 08-Nov-20
 STEP.S                   0.00: STEP TIME
 NULL.                 -999.25: NULL VALUE
 DFWT.                        :  DIST FWL TEXT
 DFST.                        :  DIST FSL TEXT
 DMF .             Drill Floor:  DRILL MEAS FROM
 STIM.      04.54.24 22-Sep-20:  START TIME
 DATE.      04.54.24 21-Nov-20:  END TIME
 SPUD.               21-Nov-20:  SPUD DATE
 NREF.                    Grid:  NORTH REFERENCE
 HPTY.       Minimum Curvature:  HOLE POS TYPE
 DMOD.             Drill Model:  DRILL MOD DESC
 SVYD.                  Survey:  SURVEY DESC
 ILTD.               Lithology:  INTERP LTH DESC
 FTOP.          Formation Tops:  FORM TOPS DESC
 SON .        AZ-XX-0906571587:  JOB NUMBER
 COMP.     BP Exploration (Caspian Sea) Ltd:  COMPANY
 UWI .                     N/A:  UNIQUE WELL IDENTIFIER
 API .                     N/A:  API NUMBER
 BASE.              Azerbaijan:  LOGGING EQUIPMENT BASE LOCATION
 REGN.                   EESSA:  REGION
 PROV.                    Baku:  PROVINCE
 STAT.                    Baku:  STATE NAME
 CTRY.              Azerbaijan:  COUNTRY NAME
 FLD .                     ACG:  FIELD NAME
 SRVC.     TURAN Drilling & Engineering:  CONTRACTOR
 WELL.                     J27:  WELL NAME
 RIG .             West Chirag:  RIG NAME
 DOE .                     N/A:  DOE NUMBER
 DCON.         Sperry Drilling:  DIRECTNL CONTR
 PDAT.          Mean Sea Level:  PERMANENT DATUM
 WTYP.                Deviated:  WELL TYPE
 MWDS.                    Baku:  MWD SHOP
 JOBN.        AZ-XX-0906571587:  JOB TICKET NUMB
 UNIT.                     N/A:  LOGGING EQUIPMENT ID
 MDS .        Operator Entered:  MAG DATA SOURCE
 CNTY.                        :  COUNTY
 LOC .                        :  LOCATION
 LMF .             Drill Floor:  LOG MEASURED FROM
 TVDS.m                  43.00:  TVDSS CORRECTN
 LATI.deg                40.13:  LATITUDE
 LONG.deg                51.22:  LONGITUDE
 WHNS.m                   7.72:  WELL HEAD N/S
 WHEW.m                 -14.24:  WELL HEAD E/W
 UTMX.m              519005.06:  UTM X
 UTMY.m             4443793.85:  UTM Y
 DFWL.m                   0.00:  DISTANCE FWL
 DFSL.m                   0.00:  DISTANCE FSL
 SDEP.m                 347.00:  START DEPTH
 TDD .m                 581.00:  TOTAL DEPTH (DRILLER)
 VSDR.deg               159.72:  VERT SEC DIRECT
 GVFD.g                   1.00:  GRAVITY FIELD
 MFLD.nT              50313.00:  MAGNETIC FIELD
 MDIP.deg                59.58:  MAGNETIC DIP
 MDEC.deg                 6.45:  MAGNETIC DECL
 GRDC.deg                 0.15:  GRID CORRECTION
 AZTC.deg                 6.30:  AZM TOTAL CORR
 EPD .m                   0.00:  ELEVATION
 EGL .m                   0.00:  GROUND ELEVATION
 WDMS.m                 169.80:  WD ELEV
 APD .m                  43.00:  DEPTH ABOVE PD
 AGAP.m                  43.00:  AIR GAP
 VSEW.m                 -14.24:  VERT SEC E/W
 VSNS.m                   7.72:  VERT SEC N/S
 DEP .m                 342.45:  DEPTH
 EKB .m                   0.00:  KB ELEVATION
 EDF .m                  43.00:  DF ELEVATION
 TDL .m                1313.00:  TOTAL DEPTH (LOGGER)
 VSC .                       0:  VS TO CLOSURE
 MAGU.                 1851396:  MAGUTM CHECKSUM
~Parameter Information Block
#MNEM.UNIT       Value        Description
#---------     -----------    ---------------------------
 AV  .mps                 0.65:  Ann Velocity 
 AVMX.mps                 0.75:  Max Ann Veloc 
 AZIF.deg               115.08:  Azm, Final 
 BHAT.        Rotary Steerable:  BHA Type 
 BROT.°/30m               1.50:  Build Rotating 
 BS  .in                 12.25:  Bit Size 
 BSZ .in                 12.25:  Bit Size 
 BTPL.psig              700.00:  Bit Press Loss 
 CABU.                     Yes:  Customer Abuse 
 COMM.                     ì¹^:  Run Comments 1 
 TCS .hr                121.00:  Time Ciculation Ended 
 CV  .mps                 1.83:  Crit Velocity 
 CVMX.mps                 1.83:  Max Crit Veloc 
 DD1 .          Rashad Habibov:  Direct Drillr 1 
 DD2 .         Rasim Ibrahimov:  Direct Drillr 2 
 DDSV.                 iCruise:  DD Service 
 DEFF.%                 100.00:  % Det Eff 
 DLRX.°/30m               3.60:  Dogleg Rot Max 
 DLSO.°/30m               3.10:  Dogleg Oriented 
 DLSX.°/30m               3.60:  Dogleg Str Max 
 DRET.      13.41.20 12-Nov-20:  Drill End Time 
 DRST.      13.41.20 07-Nov-20:  Drill Start Tim 
 DTIM.hr                 54.16:  Time Drilling 
 EDEP.m                4762.01:  End Depth 
 ENG1.           Amrah Tahirov:  Engineer 1 
 ENG2.      Bakhtiyar Jabbarli:  Engineer 2 
 ENG3.          Ruslan Safarov:  Engineer 3 
 ETIM.      13.41.20 14-Nov-20:  End Time 
 FLOI.gpm              1200.00:  Flow In 
 FLON.gpm              1100.00:  Flow In Min 
 FLOS.cptm                0.00:  Fluid Loss 
 FLOX.gpm              1200.00:  Flow In Max 
 HFLO.                      No:  High Flow 
 HPRE.                      No:  High Pressure 
 HTEM.                      No:  High Temp 
 HYDO.m                   2.00:  Hydro Offset 
 IFIN.deg                66.14:  Inc, Final 
 IMAX.deg                69.03:  Inc Max 
 IMIN.deg                64.64:  Inc Min 
 IMND.m                4450.16:  Inc Min Depth 
 IMXD.m                3996.00:  Inc Max Depth 
 JARR.                     Yes:  Jarring 
 LETM.      13.41.20 14-Nov-20:  Log End Time 
 LOST.hr                     0:  Lost Rig Time 
 LSTM.      13.41.20 06-Nov-20:  Log Start Time 
 MDCL.ppm             42500.00:  Mud Chlorides 
 MDES.     Inversion Oil/Synthetic:  Mud Desc 
 DFD .sg                  1.45:  Mud Density 
 MDMN.sg                  1.45:  Dens Mud Min 
 MDMX.sg                  1.45:  Dens Mud Max 
 MOIL.                      70:  Run Mud Oil % 
 MOWR.                   70:30:  Run Mud OWR 
 MSND.                       0:  Run Mud Sand % 
 MSOL.                    19.3:  Run Mud Solids% 
 DFV .spqt               77.00:  Mud Viscosity 
 MWOD.in                  8.00:  MWD Tool OD 
 MWSI.                      No:  Serv Intrp, MWD 
 OTIM.hr                201.88:  Time Operating 
 PCON.           Look Like New:  Pad Condition 
 PMAX.psia             9250.94:  Press Op, Max 
 PV  .cP                 29.00:  Mud PV 
 RUN .                     800:  Run Number 
 ROPA.m/hr               28.00:  ROP Avg 
 ROPN.m/hr               25.00:  ROP Min 
 ROPX.m/hr               30.00:  ROP Max 
 RPMA.rpm               160.00:  RPM Surface Avg 
 RPMN.rpm               160.00:  RPM Surface Min 
 RPMX.rpm               160.00:  RPM Surface Max 
 RRUN.                    0800:  Rig Run Number 
 RTIM.hr                 12.00:  Time Reaming 
 SAZI.deg               169.33:  Azm, Start 
 SDEP.m                3449.01:  Start Depth 
 SIDD.                      No:  Serv Intrp, DD 
 SINC.deg                68.01:  Inc, Start 
 SPPA.psig             4900.00:  SPP Avg 
 SPPN.psig             4800.00:  SPP Min 
 SPPX.psig             5050.00:  SPP Max 
 STIM.      13.41.20 06-Nov-20:  Start Time 
 SVCS.                 DD, MWD:  Services 
 SVER.                    9.20:  Sperry Version 
 TDAT.m                4762.01:  Tot Depth Attmp 
 TDDF.                      No:  Trip for DD 
 TDLG.m                1313.00:  Tot Depth Loggd 
 TFF .                      No:  Trip for Fail 
 TQAA.f-kp               13.00:  Torque Abs Avg 
 TQAN.f-kp               13.00:  Torque Abs Min 
 TQAX.f-kp               13.00:  Torque Abs Max 
 TRRT.°/30m               1.70:  Turn Rotating 
 MRT .                  EWR-M5:  Maximum Recorded Temperature 
 TTMX.degC               86.00:  Max Tool Temp 
 VS01.                90622122:  Virtual Str1 SN 
 VS02.                90577298:  Virtual Str2 SN 
 VS03.                90563623:  Virtual Str3 SN 
 VS04.                90617559:  Virtual Str4 SN 
 VS05.                11339492:  Virtual Str5 SN 
 VS06.                12385033:  Virtual Str6 SN 
 WBMN.klb                 0.00:  WOB Min 
 WOBA.klb                22.00:  WOB Avg 
 WOBX.klb                26.00:  WOB Max 
 YP  .lhf2               30.00:  Yield Point 
~Curve Information Block
#MNEM.UNIT                 API CODE     Curve Description
#---------               -----------    ---------------------------
 TIME.HHMMSS            00 000 000 000:  GT Time & Date
 GTDEPTH.m              00 000 000 000:  GT Depth
 GTPQH.psia             00 000 000 000:  GT HR Quartz Pressure
 GTTQ.degC              00 000 000 000:  GT Quartz Temperature
 GTTN.NONE              00 000 000 000:  GT Test Number
 GTET.sec               00 000 000 000:  GT Elapsed Test Time
 GTTVD.m                00 000 000 000:  GT True Vertical Depth
#Other Information
#
#WARRANTY: Halliburton will use its best efforts to furnish customers with 
#accurate information and interpretations that are part of, and incident to, the services 
#provided.  However, Halliburton cannot and does not warrant the accuracy 
#or correctness of such information and interpretations.  Under no circumstances should any 
#such information or interpretation be relied upon as the sole basis for any drilling, 
#completion, production, or financial decision or any procedure involving any risk to the 
#safety of any drilling venture, drilling rig or its crew or any other third party.  The 
#Customer has full responsibility for all drilling, completion and production operation.  
#Halliburton makes no representations or warranties, either expressed or 
#implied, including, but not limited to, the implied warranties of merchantability or fitness 
#for a particular purpose, with respect to the services rendered.  In no event will 
#Halliburton be liable for failure to obtain any particular results or for 
#any damages, including, but not limited to, indirect, special or consequential damages, 
#resulting from the use of any information or interpretation provided by Halliburton.
#
~A           TIME           GTDEPTH  GTPQH  GTTQ  GTTN  GTET   GTTVD  
# ...
   14:00:02.952.08-Nov-2020 3585.71 3292.57 70.93 3.00 229.78 2034.99
   14:00:03.152.08-Nov-2020 3585.71 3292.61 70.93 3.00 229.98 2034.99
   14:00:03.351.08-Nov-2020 3585.71 3292.62 70.93 3.00 230.18 2034.99
   14:00:03.551.08-Nov-2020 3585.71 3292.62 70.93 3.00 230.38 2034.99
   14:00:03.751.08-Nov-2020 3585.71 3292.58 70.93 3.00 230.58 2034.99
   14:00:03.951.08-Nov-2020 3585.71 3292.53 70.93 3.00 230.78 2034.99
   14:00:04.151.08-Nov-2020 3585.71 3292.53 70.93 3.00 230.98 2034.99
   14:00:04.350.08-Nov-2020 3585.71 3292.61 70.93 3.00 231.18 2034.99
   14:00:04.550.08-Nov-2020 3585.71 3292.60 70.93 3.00 231.38 2034.99
   14:00:04.750.08-Nov-2020 3585.71 3292.58 70.93 3.00 231.58 2034.99
   14:00:04.950.08-Nov-2020 3585.71 3292.57 70.92 3.00 231.78 2034.99
   14:00:05.150.08-Nov-2020 3585.71 3292.57 70.92 3.00 231.98 2034.99
   14:00:05.350.08-Nov-2020 3585.71 3292.60 70.92 3.00 232.18 2034.99
   14:00:05.549.08-Nov-2020 3585.71 3292.61 70.92 3.00 232.38 2034.99
   14:00:05.749.08-Nov-2020 3585.71 3292.62 70.92 3.00 232.58 2034.99
   14:00:05.949.08-Nov-2020 3585.71 3292.59 70.92 3.00 232.78 2034.99
   14:00:06.149.08-Nov-2020 3585.71 3292.59 70.92 3.00 232.98 2034.99
   14:00:06.349.08-Nov-2020 3585.71 3292.58 70.92 3.00 233.18 2034.99
   14:00:06.548.08-Nov-2020 3585.71 3292.56 70.92 3.00 233.38 2034.99
   14:00:06.748.08-Nov-2020 3585.71 3292.57 70.91 3.00 233.58 2034.99
   14:00:06.948.08-Nov-2020 3585.71 3292.56 70.91 3.00 233.77 2034.99
   14:00:07.148.08-Nov-2020 3585.71 3292.55 70.91 3.00 233.97 2034.99
   14:00:07.348.08-Nov-2020 3585.71 3292.54 70.91 3.00 234.17 2034.99
   14:00:07.547.08-Nov-2020 3585.71 3292.55 70.91 3.00 234.37 2034.99
   14:00:07.747.08-Nov-2020 3585.71 3292.48 70.91 3.00 234.57 2034.99
   14:00:07.947.08-Nov-2020 3585.71 3292.64 70.91 3.00 234.77 2034.99
   14:00:08.147.08-Nov-2020 3585.71 3292.64 70.91 3.00 234.97 2034.99
   14:00:08.347.08-Nov-2020 3585.71 3292.58 70.91 3.00 235.17 2034.99
   14:00:08.546.08-Nov-2020 3585.71 3292.61 70.91 3.00 235.37 2034.99
   14:00:08.746.08-Nov-2020 3585.71 3292.56 70.90 3.00 235.57 2034.99
   14:00:08.946.08-Nov-2020 3585.71 3292.56 70.90 3.00 235.77 2034.99
   14:00:09.146.08-Nov-2020 3585.71 3292.56 70.90 3.00 235.97 2034.99
   14:00:09.346.08-Nov-2020 3585.71 3292.54 70.90 3.00 236.17 2034.99
   14:00:09.545.08-Nov-2020 3585.71 3292.54 70.90 3.00 236.37 2034.99
   14:00:09.745.08-Nov-2020 3585.71 3292.54 70.90 3.00 236.57 2034.99
   14:00:09.945.08-Nov-2020 3585.71 3292.53 70.90 3.00 236.77 2034.99
   14:00:10.145.08-Nov-2020 3585.71 3292.53 70.90 3.00 236.97 2034.99
   14:00:10.345.08-Nov-2020 3585.71 3292.58 70.90 3.00 237.17 2034.99
   14:00:10.544.08-Nov-2020 3585.71 3292.58 70.90 3.00 237.37 2034.99
   14:00:10.744.08-Nov-2020 3585.71 3292.58 70.89 3.00 237.57 2034.99
   14:00:10.944.08-Nov-2020 3585.71 3292.58 70.89 3.00 237.77 2034.99
   14:00:11.144.08-Nov-2020 3585.71 3292.61 70.89 3.00 237.97 2034.99
   14:00:11.344.08-Nov-2020 3585.71 3292.61 70.89 3.00 238.17 2034.99
   14:00:11.544.08-Nov-2020 3585.71 3292.62 70.89 3.00 238.37 2034.99
   14:00:11.743.08-Nov-2020 3585.71 3292.52 70.89 3.00 238.57 2034.99
   14:00:11.943.08-Nov-2020 3585.71 3292.67 70.89 3.00 238.77 2034.99
   14:00:12.143.08-Nov-2020 3585.71 3292.60 70.89 3.00 238.97 2034.99
   14:00:12.343.08-Nov-2020 3585.71 3292.61 70.89 3.00 239.17 2034.99
   14:00:12.543.08-Nov-2020 3585.71 3292.62 70.88 3.00 239.37 2034.99
   14:00:12.742.08-Nov-2020 3585.71 3292.54 70.88 3.00 239.57 2034.99
   14:00:12.942.08-Nov-2020 3585.71 3292.57 70.88 3.00 239.77 2034.99
   14:00:13.142.08-Nov-2020 3585.71 3292.57 70.88 3.00 239.97 2034.99
   14:00:13.342.08-Nov-2020 3585.71 3292.61 70.88 3.00 240.17 2034.99
   14:00:13.542.08-Nov-2020 3585.71 3292.62 70.88 3.00 240.37 2034.99
   14:00:13.741.08-Nov-2020 3585.71 3292.53 70.88 3.00 240.57 2034.99
   14:00:13.941.08-Nov-2020 3585.71 3292.61 70.88 3.00 240.77 2034.99
   14:00:14.141.08-Nov-2020 3585.71 3292.61 70.88 3.00 240.97 2034.99
   14:00:14.341.08-Nov-2020 3585.71 3292.61 70.88 3.00 241.17 2034.99
   14:00:14.541.08-Nov-2020 3585.71 3292.63 70.87 3.00 241.37 2034.99
   14:00:14.740.08-Nov-2020 3585.71 3292.62 70.87 3.00 241.57 2034.99
   14:00:14.940.08-Nov-2020 3585.71 3292.59 70.87 3.00 241.77 2034.99
   14:00:15.140.08-Nov-2020 3585.71 3292.58 70.87 3.00 241.97 2034.99
   14:00:15.340.08-Nov-2020 3585.71 3292.58 70.87 3.00 242.17 2034.99
   14:00:15.540.08-Nov-2020 3585.71 3292.56 70.87 3.00 242.37 2034.99
   14:00:15.739.08-Nov-2020 3585.71 3292.56 70.87 3.00 242.57 2034.99
   14:00:15.939.08-Nov-2020 3585.71 3292.56 70.87 3.00 242.77 2034.99
   14:00:16.139.08-Nov-2020 3585.71 3292.56 70.87 3.00 242.97 2034.99
   14:00:16.339.08-Nov-2020 3585.71 3292.54 70.86 3.00 243.17 2034.99
   14:00:16.539.08-Nov-2020 3585.71 3292.52 70.86 3.00 243.37 2034.99
   14:00:16.739.08-Nov-2020 3585.71 3292.57 70.86 3.00 243.57 2034.99
   14:00:16.938.08-Nov-2020 3585.71 3292.63 70.86 3.00 243.77 2034.99
   14:00:17.138.08-Nov-2020 3585.71 3292.63 70.86 3.00 243.96 2034.99
   14:00:17.338.08-Nov-2020 3585.71 3292.60 70.86 3.00 244.16 2034.99
   14:00:17.538.08-Nov-2020 3585.71 3292.58 70.86 3.00 244.36 2034.99
   14:00:17.738.08-Nov-2020 3585.71 3292.58 70.86 3.00 244.56 2034.99
   14:00:17.937.08-Nov-2020 3585.71 3292.57 70.86 3.00 244.76 2034.99
   14:00:18.137.08-Nov-2020 3585.71 3292.57 70.86 3.00 244.96 2034.99
   14:00:18.337.08-Nov-2020 3585.71 3292.56 70.85 3.00 245.16 2034.99
   14:00:18.537.08-Nov-2020 3585.71 3292.54 70.85 3.00 245.36 2034.99
   14:00:18.737.08-Nov-2020 3585.71 3292.54 70.85 3.00 245.56 2034.99
   14:00:18.936.08-Nov-2020 3585.71 3292.53 70.85 3.00 245.76 2034.99
   14:00:19.136.08-Nov-2020 3585.71 3292.53 70.85 3.00 245.96 2034.99
   14:00:19.336.08-Nov-2020 3585.71 3292.64 70.85 3.00 246.16 2034.99
   14:00:19.536.08-Nov-2020 3585.71 3292.56 70.85 3.00 246.36 2034.99
   14:00:19.736.08-Nov-2020 3585.71 3292.58 70.85 3.00 246.56 2034.99
   14:00:19.935.08-Nov-2020 3585.71 3292.64 70.85 3.00 246.76 2034.99
   14:00:20.135.08-Nov-2020 3585.71 3292.64 70.85 3.00 246.96 2034.99
   14:00:20.335.08-Nov-2020 3585.71 3292.62 70.84 3.00 247.16 2034.99
   14:00:20.535.08-Nov-2020 3585.71 3292.59 70.84 3.00 247.36 2034.99
   14:00:20.735.08-Nov-2020 3585.71 3292.58 70.84 3.00 247.56 2034.99
   14:00:20.934.08-Nov-2020 3585.71 3292.64 70.84 3.00 247.76 2034.99
   14:00:21.134.08-Nov-2020 3585.71 3292.64 70.84 3.00 247.96 2034.99
   14:00:21.334.08-Nov-2020 3585.71 3292.64 70.84 3.00 248.16 2034.99
   14:00:21.534.08-Nov-2020 3585.71 3292.56 70.84 3.00 248.36 2034.99
   14:00:21.734.08-Nov-2020 3585.71 3292.59 70.84 3.00 248.56 2034.99
   14:00:21.934.08-Nov-2020 3585.71 3292.64 70.84 3.00 248.76 2034.99
   14:00:22.133.08-Nov-2020 3585.71 3292.64 70.84 3.00 248.96 2034.99
   14:00:22.333.08-Nov-2020 3585.71 3292.62 70.83 3.00 249.16 2034.99
   14:00:22.533.08-Nov-2020 3585.71 3292.56 70.83 3.00 249.36 2034.99
   14:00:22.733.08-Nov-2020 3585.71 3292.63 70.83 3.00 249.56 2034.99
   14:00:22.933.08-Nov-2020 3585.71 3292.62 70.83 3.00 249.76 2034.99
   14:00:23.132.08-Nov-2020 3585.71 3292.63 70.83 3.00 249.96 2034.99
   14:00:23.332.08-Nov-2020 3585.71 3292.62 70.83 3.00 250.16 2034.99
   14:00:23.532.08-Nov-2020 3585.71 3292.59 70.83 3.00 250.36 2034.99
   14:00:23.732.08-Nov-2020 3585.71 3292.60 70.83 3.00 250.56 2034.99
   14:00:23.932.08-Nov-2020 3585.71 3292.59 70.82 3.00 250.76 2034.99
   14:00:24.131.08-Nov-2020 3585.71 3292.59 70.82 3.00 250.96 2034.99
   14:00:24.331.08-Nov-2020 3585.71 3292.58 70.82 3.00 251.16 2034.99
   14:00:24.531.08-Nov-2020 3585.71 3292.55 70.82 3.00 251.36 2034.99
   14:00:24.731.08-Nov-2020 3585.71 3292.56 70.82 3.00 251.56 2034.99
   14:00:24.931.08-Nov-2020 3585.71 3292.56 70.82 3.00 251.76 2034.99
   14:00:25.130.08-Nov-2020 3585.71 3292.56 70.82 3.00 251.96 2034.99
   14:00:25.330.08-Nov-2020 3585.71 3292.51 70.82 3.00 252.16 2034.99
   14:00:25.530.08-Nov-2020 3585.71 3292.58 70.82 3.00 252.36 2034.99
   14:00:25.730.08-Nov-2020 3585.71 3292.64 70.82 3.00 252.56 2034.99
