~Version Information
 VERS.                  2.0:   CWLS log ASCII Standard -VERSION 2.0
 WRAP.                   NO:   One line per depth step
~Well Information Block
#MNEM.UNIT     VALUE/NAME     DESCRIPTION
#---------     -----------    ---------------------------
 STRT.S             22:31:45 10-Nov-20: START TIME 22:31:45 10-Nov-20
 STOP.S             22:38:18 10-Nov-20: STOP TIME  22:38:18 10-Nov-20
 STEP.S                   0.00: STEP TIME
 NULL.                 -999.25: NULL VALUE
 DFWT.                        :  DIST FWL TEXT
 DFST.                        :  DIST FSL TEXT
 DMF .             Drill Floor:  DRILL MEAS FROM
 STIM.      04.54.24 22-Sep-20:  START TIME
 DATE.      04.54.24 21-Nov-20:  END TIME
 SPUD.               21-Nov-20:  SPUD DATE
 NREF.                    Grid:  NORTH REFERENCE
 HPTY.       Minimum Curvature:  HOLE POS TYPE
 DMOD.             Drill Model:  DRILL MOD DESC
 SVYD.                  Survey:  SURVEY DESC
 ILTD.               Lithology:  INTERP LTH DESC
 FTOP.          Formation Tops:  FORM TOPS DESC
 SON .        AZ-XX-0906571587:  JOB NUMBER
 COMP.     BP Exploration (Caspian Sea) Ltd:  COMPANY
 UWI .                     N/A:  UNIQUE WELL IDENTIFIER
 API .                     N/A:  API NUMBER
 BASE.              Azerbaijan:  LOGGING EQUIPMENT BASE LOCATION
 REGN.                   EESSA:  REGION
 PROV.                    Baku:  PROVINCE
 STAT.                    Baku:  STATE NAME
 CTRY.              Azerbaijan:  COUNTRY NAME
 FLD .                     ACG:  FIELD NAME
 SRVC.     TURAN Drilling & Engineering:  CONTRACTOR
 WELL.                     J27:  WELL NAME
 RIG .             West Chirag:  RIG NAME
 DOE .                     N/A:  DOE NUMBER
 DCON.         Sperry Drilling:  DIRECTNL CONTR
 PDAT.          Mean Sea Level:  PERMANENT DATUM
 WTYP.                Deviated:  WELL TYPE
 MWDS.                    Baku:  MWD SHOP
 JOBN.        AZ-XX-0906571587:  JOB TICKET NUMB
 UNIT.                     N/A:  LOGGING EQUIPMENT ID
 MDS .        Operator Entered:  MAG DATA SOURCE
 CNTY.                        :  COUNTY
 LOC .                        :  LOCATION
 LMF .             Drill Floor:  LOG MEASURED FROM
 TVDS.m                  43.00:  TVDSS CORRECTN
 LATI.deg                40.13:  LATITUDE
 LONG.deg                51.22:  LONGITUDE
 WHNS.m                   7.72:  WELL HEAD N/S
 WHEW.m                 -14.24:  WELL HEAD E/W
 UTMX.m              519005.06:  UTM X
 UTMY.m             4443793.85:  UTM Y
 DFWL.m                   0.00:  DISTANCE FWL
 DFSL.m                   0.00:  DISTANCE FSL
 SDEP.m                 347.00:  START DEPTH
 TDD .m                 581.00:  TOTAL DEPTH (DRILLER)
 VSDR.deg               159.72:  VERT SEC DIRECT
 GVFD.g                   1.00:  GRAVITY FIELD
 MFLD.nT              50313.00:  MAGNETIC FIELD
 MDIP.deg                59.58:  MAGNETIC DIP
 MDEC.deg                 6.45:  MAGNETIC DECL
 GRDC.deg                 0.15:  GRID CORRECTION
 AZTC.deg                 6.30:  AZM TOTAL CORR
 EPD .m                   0.00:  ELEVATION
 EGL .m                   0.00:  GROUND ELEVATION
 WDMS.m                 169.80:  WD ELEV
 APD .m                  43.00:  DEPTH ABOVE PD
 AGAP.m                  43.00:  AIR GAP
 VSEW.m                 -14.24:  VERT SEC E/W
 VSNS.m                   7.72:  VERT SEC N/S
 DEP .m                 342.45:  DEPTH
 EKB .m                   0.00:  KB ELEVATION
 EDF .m                  43.00:  DF ELEVATION
 TDL .m                1313.00:  TOTAL DEPTH (LOGGER)
 VSC .                       0:  VS TO CLOSURE
 MAGU.                 1851396:  MAGUTM CHECKSUM
~Parameter Information Block
#MNEM.UNIT       Value        Description
#---------     -----------    ---------------------------
 AV  .mps                 0.65:  Ann Velocity 
 AVMX.mps                 0.75:  Max Ann Veloc 
 AZIF.deg               115.08:  Azm, Final 
 BHAT.        Rotary Steerable:  BHA Type 
 BROT.°/30m               1.50:  Build Rotating 
 BS  .in                 12.25:  Bit Size 
 BSZ .in                 12.25:  Bit Size 
 BTPL.psig              700.00:  Bit Press Loss 
 CABU.                     Yes:  Customer Abuse 
 COMM.                     ”Õ`:  Run Comments 1 
 TCS .hr                121.00:  Time Ciculation Ended 
 CV  .mps                 1.83:  Crit Velocity 
 CVMX.mps                 1.83:  Max Crit Veloc 
 DD1 .          Rashad Habibov:  Direct Drillr 1 
 DD2 .         Rasim Ibrahimov:  Direct Drillr 2 
 DDSV.                 iCruise:  DD Service 
 DEFF.%                 100.00:  % Det Eff 
 DLRX.°/30m               3.60:  Dogleg Rot Max 
 DLSO.°/30m               3.10:  Dogleg Oriented 
 DLSX.°/30m               3.60:  Dogleg Str Max 
 DRET.      13.41.20 12-Nov-20:  Drill End Time 
 DRST.      13.41.20 07-Nov-20:  Drill Start Tim 
 DTIM.hr                 54.16:  Time Drilling 
 EDEP.m                4762.01:  End Depth 
 ENG1.           Amrah Tahirov:  Engineer 1 
 ENG2.      Bakhtiyar Jabbarli:  Engineer 2 
 ENG3.          Ruslan Safarov:  Engineer 3 
 ETIM.      13.41.20 14-Nov-20:  End Time 
 FLOI.gpm              1200.00:  Flow In 
 FLON.gpm              1100.00:  Flow In Min 
 FLOS.cptm                0.00:  Fluid Loss 
 FLOX.gpm              1200.00:  Flow In Max 
 HFLO.                      No:  High Flow 
 HPRE.                      No:  High Pressure 
 HTEM.                      No:  High Temp 
 HYDO.m                   2.00:  Hydro Offset 
 IFIN.deg                66.14:  Inc, Final 
 IMAX.deg                69.03:  Inc Max 
 IMIN.deg                64.64:  Inc Min 
 IMND.m                4450.16:  Inc Min Depth 
 IMXD.m                3996.00:  Inc Max Depth 
 JARR.                     Yes:  Jarring 
 LETM.      13.41.20 14-Nov-20:  Log End Time 
 LOST.hr                     0:  Lost Rig Time 
 LSTM.      13.41.20 06-Nov-20:  Log Start Time 
 MDCL.ppm             42500.00:  Mud Chlorides 
 MDES.     Inversion Oil/Synthetic:  Mud Desc 
 DFD .sg                  1.45:  Mud Density 
 MDMN.sg                  1.45:  Dens Mud Min 
 MDMX.sg                  1.45:  Dens Mud Max 
 MOIL.                      70:  Run Mud Oil % 
 MOWR.                   70:30:  Run Mud OWR 
 MSND.                       0:  Run Mud Sand % 
 MSOL.                    19.3:  Run Mud Solids% 
 DFV .spqt               77.00:  Mud Viscosity 
 MWOD.in                  8.00:  MWD Tool OD 
 MWSI.                      No:  Serv Intrp, MWD 
 OTIM.hr                201.88:  Time Operating 
 PCON.           Look Like New:  Pad Condition 
 PMAX.psia             9250.94:  Press Op, Max 
 PV  .cP                 29.00:  Mud PV 
 RUN .                     800:  Run Number 
 ROPA.m/hr               28.00:  ROP Avg 
 ROPN.m/hr               25.00:  ROP Min 
 ROPX.m/hr               30.00:  ROP Max 
 RPMA.rpm               160.00:  RPM Surface Avg 
 RPMN.rpm               160.00:  RPM Surface Min 
 RPMX.rpm               160.00:  RPM Surface Max 
 RRUN.                    0800:  Rig Run Number 
 RTIM.hr                 12.00:  Time Reaming 
 SAZI.deg               169.33:  Azm, Start 
 SDEP.m                3449.01:  Start Depth 
 SIDD.                      No:  Serv Intrp, DD 
 SINC.deg                68.01:  Inc, Start 
 SPPA.psig             4900.00:  SPP Avg 
 SPPN.psig             4800.00:  SPP Min 
 SPPX.psig             5050.00:  SPP Max 
 STIM.      13.41.20 06-Nov-20:  Start Time 
 SVCS.                 DD, MWD:  Services 
 SVER.                    9.20:  Sperry Version 
 TDAT.m                4762.01:  Tot Depth Attmp 
 TDDF.                      No:  Trip for DD 
 TDLG.m                1313.00:  Tot Depth Loggd 
 TFF .                      No:  Trip for Fail 
 TQAA.f-kp               13.00:  Torque Abs Avg 
 TQAN.f-kp               13.00:  Torque Abs Min 
 TQAX.f-kp               13.00:  Torque Abs Max 
 TRRT.°/30m               1.70:  Turn Rotating 
 MRT .                  EWR-M5:  Maximum Recorded Temperature 
 TTMX.degC               86.00:  Max Tool Temp 
 VS01.                90622122:  Virtual Str1 SN 
 VS02.                90577298:  Virtual Str2 SN 
 VS03.                90563623:  Virtual Str3 SN 
 VS04.                90617559:  Virtual Str4 SN 
 VS05.                11339492:  Virtual Str5 SN 
 VS06.                12385033:  Virtual Str6 SN 
 WBMN.klb                 0.00:  WOB Min 
 WOBA.klb                22.00:  WOB Avg 
 WOBX.klb                26.00:  WOB Max 
 YP  .lhf2               30.00:  Yield Point 
~Curve Information Block
#MNEM.UNIT                 API CODE     Curve Description
#---------               -----------    ---------------------------
 TIME.HHMMSS            00 000 000 000:  GT Time & Date
 GTDEPTH.m              00 000 000 000:  GT Depth
 GTPQH.psia             00 000 000 000:  GT HR Quartz Pressure
 GTTQ.degC              00 000 000 000:  GT Quartz Temperature
 GTTN.NONE              00 000 000 000:  GT Test Number
 GTET.sec               00 000 000 000:  GT Elapsed Test Time
 GTTVD.m                00 000 000 000:  GT True Vertical Depth
#Other Information
#
#WARRANTY: Halliburton will use its best efforts to furnish customers with 
#accurate information and interpretations that are part of, and incident to, the services 
#provided.  However, Halliburton cannot and does not warrant the accuracy 
#or correctness of such information and interpretations.  Under no circumstances should any 
#such information or interpretation be relied upon as the sole basis for any drilling, 
#completion, production, or financial decision or any procedure involving any risk to the 
#safety of any drilling venture, drilling rig or its crew or any other third party.  The 
#Customer has full responsibility for all drilling, completion and production operation.  
#Halliburton makes no representations or warranties, either expressed or 
#implied, including, but not limited to, the implied warranties of merchantability or fitness 
#for a particular purpose, with respect to the services rendered.  In no event will 
#Halliburton be liable for failure to obtain any particular results or for 
#any damages, including, but not limited to, indirect, special or consequential damages, 
#resulting from the use of any information or interpretation provided by Halliburton.
#
~A           TIME           GTDEPTH  GTPQH  GTTQ  GTTN  GTET   GTTVD  
# ...
   22:32:08.765.10-Nov-2020 4535.01 5056.46 83.20 6.00  23.00 2393.67
   22:32:08.965.10-Nov-2020 4535.01 5056.46 83.20 6.00  23.20 2393.67
   22:32:09.165.10-Nov-2020 4535.01 5058.38 83.20 6.00  23.40 2393.67
   22:32:09.365.10-Nov-2020 4535.01 5056.68 83.20 6.00  23.60 2393.67
   22:32:09.565.10-Nov-2020 4535.01 5057.32 83.20 6.00  23.80 2393.67
   22:32:09.765.10-Nov-2020 4535.01 5057.78 83.20 6.00  24.00 2393.67
   22:32:09.965.10-Nov-2020 4535.01 5058.59 83.20 6.00  24.20 2393.67
   22:32:10.165.10-Nov-2020 4535.01 5058.92 83.20 6.00  24.40 2393.67
   22:32:10.365.10-Nov-2020 4535.01 5058.05 83.19 6.00  24.60 2393.67
   22:32:10.565.10-Nov-2020 4535.01 5057.64 83.19 6.00  24.80 2393.67
   22:32:10.765.10-Nov-2020 4535.01 5058.77 83.19 6.00  25.00 2393.67
   22:32:10.965.10-Nov-2020 4535.01 5058.77 83.19 6.00  25.20 2393.67
   22:32:11.165.10-Nov-2020 4535.01 5058.67 83.19 6.00  25.40 2393.67
   22:32:11.365.10-Nov-2020 4535.01 5058.84 83.19 6.00  25.60 2393.67
   22:32:11.565.10-Nov-2020 4535.01 5059.19 83.19 6.00  25.80 2393.67
   22:32:11.765.10-Nov-2020 4535.01 5062.68 83.19 6.00  26.00 2393.67
   22:32:11.965.10-Nov-2020 4535.01 5062.68 83.19 6.00  26.20 2393.67
   22:32:12.165.10-Nov-2020 4535.01 5058.58 83.18 6.00  26.40 2393.67
   22:32:12.365.10-Nov-2020 4535.01 5058.81 83.18 6.00  26.60 2393.67
   22:32:12.565.10-Nov-2020 4535.01 5059.52 83.18 6.00  26.80 2393.67
   22:32:12.765.10-Nov-2020 4535.01 5058.61 83.18 6.00  27.00 2393.67
   22:32:12.965.10-Nov-2020 4535.01 5058.61 83.18 6.00  27.20 2393.67
   22:32:13.165.10-Nov-2020 4535.01 5058.27 83.18 6.00  27.40 2393.67
   22:32:13.365.10-Nov-2020 4535.01 5058.76 83.18 6.00  27.60 2393.67
   22:32:13.565.10-Nov-2020 4535.01 5059.70 83.18 6.00  27.80 2393.67
   22:32:13.765.10-Nov-2020 4535.01 5060.14 83.18 6.00  28.00 2393.67
   22:32:13.966.10-Nov-2020 4535.01 5060.14 83.18 6.00  28.20 2393.67
   22:32:14.166.10-Nov-2020 4535.01 5061.00 83.17 6.00  28.40 2393.67
   22:32:14.366.10-Nov-2020 4535.01 5068.62 83.17 6.00  28.60 2393.67
   22:32:14.566.10-Nov-2020 4535.01 5059.88 83.17 6.00  28.80 2393.67
   22:32:14.766.10-Nov-2020 4535.01 5061.07 83.17 6.00  29.00 2393.67
   22:32:14.966.10-Nov-2020 4535.01 5061.07 83.17 6.00  29.20 2393.67
   22:32:15.166.10-Nov-2020 4535.01 5061.90 83.17 6.00  29.40 2393.67
   22:32:15.366.10-Nov-2020 4535.01 5061.67 83.17 6.00  29.60 2393.67
   22:32:15.566.10-Nov-2020 4535.01 5060.37 83.16 6.00  29.80 2393.67
   22:32:15.766.10-Nov-2020 4535.01 5060.34 83.16 6.00  30.00 2393.67
   22:32:15.966.10-Nov-2020 4535.01 5059.69 83.16 6.00  30.20 2393.67
   22:32:16.166.10-Nov-2020 4535.01 5064.91 83.16 6.00  30.40 2393.67
   22:32:16.366.10-Nov-2020 4535.01 5059.55 83.16 6.00  30.60 2393.67
   22:32:16.566.10-Nov-2020 4535.01 5059.27 83.16 6.00  30.80 2393.67
   22:32:16.766.10-Nov-2020 4535.01 5063.83 83.16 6.00  31.00 2393.67
   22:32:16.966.10-Nov-2020 4535.01 5063.83 83.16 6.00  31.20 2393.67
   22:32:17.166.10-Nov-2020 4535.01 5059.55 83.16 6.00  31.40 2393.67
   22:32:17.366.10-Nov-2020 4535.01 5059.99 83.15 6.00  31.60 2393.67
   22:32:17.566.10-Nov-2020 4535.01 5060.45 83.15 6.00  31.80 2393.67
   22:32:17.766.10-Nov-2020 4535.01 5060.22 83.15 6.00  32.00 2393.67
   22:32:17.966.10-Nov-2020 4535.01 5058.16 83.15 6.00  32.20 2393.67
   22:32:18.166.10-Nov-2020 4535.01 5059.30 83.14 6.00  32.40 2393.67
   22:32:18.366.10-Nov-2020 4535.01 5060.63 83.14 6.00  32.60 2393.67
   22:32:18.566.10-Nov-2020 4535.01 5060.23 83.14 6.00  32.80 2393.67
   22:32:18.766.10-Nov-2020 4535.01 5060.01 83.14 6.00  33.00 2393.67
   22:32:18.966.10-Nov-2020 4535.01 5060.01 83.14 6.00  33.20 2393.67
   22:32:19.166.10-Nov-2020 4535.01 5059.91 83.14 6.00  33.40 2393.67
   22:32:19.366.10-Nov-2020 4535.01 5060.70 83.14 6.00  33.60 2393.67
   22:32:19.566.10-Nov-2020 4535.01 5060.71 83.14 6.00  33.80 2393.67
   22:32:19.766.10-Nov-2020 4535.01 5066.55 83.13 6.00  34.00 2393.67
   22:32:19.966.10-Nov-2020 4535.01 5057.86 83.13 6.00  34.20 2393.67
   22:32:20.166.10-Nov-2020 4535.01 5058.85 83.13 6.00  34.40 2393.67
   22:32:20.366.10-Nov-2020 4535.01 5058.37 83.13 6.00  34.60 2393.67
   22:32:20.566.10-Nov-2020 4535.01 5057.82 83.13 6.00  34.80 2393.67
   22:32:20.766.10-Nov-2020 4535.01 5058.85 83.13 6.00  35.00 2393.67
   22:32:20.966.10-Nov-2020 4535.01 5058.94 83.13 6.00  35.20 2393.67
   22:32:21.166.10-Nov-2020 4535.01 5057.57 83.13 6.00  35.40 2393.67
   22:32:21.367.10-Nov-2020 4535.01 5047.02 83.13 6.00  35.60 2393.67
   22:32:21.567.10-Nov-2020 4535.01 5041.57 83.12 6.00  35.80 2393.67
   22:32:21.767.10-Nov-2020 4535.01 5036.85 83.12 6.00  36.00 2393.67
   22:32:21.967.10-Nov-2020 4535.01 5036.85 83.12 6.00  36.20 2393.67
   22:32:22.167.10-Nov-2020 4535.01 5023.98 83.12 6.00  36.40 2393.67
   22:32:22.367.10-Nov-2020 4535.01 4994.23 83.12 6.00  36.60 2393.67
   22:32:22.567.10-Nov-2020 4535.01 5105.87 83.12 6.00  36.80 2393.67
   22:32:22.767.10-Nov-2020 4535.01 5199.76 83.12 6.00  37.01 2393.67
   22:32:22.967.10-Nov-2020 4535.01 5199.76 83.12 6.00  37.21 2393.67
   22:32:23.167.10-Nov-2020 4535.01 5208.85 83.11 6.00  37.41 2393.67
   22:32:23.367.10-Nov-2020 4535.01 5184.55 83.11 6.00  37.61 2393.67
   22:32:23.567.10-Nov-2020 4535.01 5168.08 83.11 6.00  37.81 2393.67
   22:32:23.767.10-Nov-2020 4535.01 5176.38 83.11 6.00  38.01 2393.67
   22:32:23.967.10-Nov-2020 4535.01 5167.99 83.11 6.00  38.21 2393.67
   22:32:24.167.10-Nov-2020 4535.01 5160.05 83.11 6.00  38.41 2393.67
   22:32:24.367.10-Nov-2020 4535.01 5170.76 83.11 6.00  38.61 2393.67
   22:32:24.567.10-Nov-2020 4535.01 5138.63 83.11 6.00  38.81 2393.67
   22:32:24.767.10-Nov-2020 4535.01 5132.99 83.11 6.00  39.01 2393.67
   22:32:24.967.10-Nov-2020 4535.01 5133.75 83.11 6.00  39.21 2393.67
   22:32:25.167.10-Nov-2020 4535.01 5127.09 83.10 6.00  39.41 2393.67
   22:32:25.367.10-Nov-2020 4535.01 5125.21 83.10 6.00  39.61 2393.67
   22:32:25.567.10-Nov-2020 4535.01 5127.83 83.10 6.00  39.81 2393.67
   22:32:25.767.10-Nov-2020 4535.01 5126.08 83.10 6.00  40.01 2393.67
   22:32:25.967.10-Nov-2020 4535.01 5126.08 83.10 6.00  40.21 2393.67
   22:32:26.167.10-Nov-2020 4535.01 5123.87 83.10 6.00  40.41 2393.67
   22:32:26.367.10-Nov-2020 4535.01 5123.94 83.10 6.00  40.61 2393.67
   22:32:26.567.10-Nov-2020 4535.01 5126.61 83.10 6.00  40.81 2393.67
   22:32:26.767.10-Nov-2020 4535.01 5125.13 83.10 6.00  41.01 2393.67
   22:32:26.967.10-Nov-2020 4535.01 5124.10 83.09 6.00  41.21 2393.67
   22:32:27.167.10-Nov-2020 4535.01 5123.28 83.09 6.00  41.41 2393.67
   22:32:27.367.10-Nov-2020 4535.01 5124.57 83.09 6.00  41.61 2393.67
   22:32:27.567.10-Nov-2020 4535.01 5124.49 83.09 6.00  41.81 2393.67
   22:32:27.767.10-Nov-2020 4535.01 5123.86 83.09 6.00  42.01 2393.67
   22:32:27.967.10-Nov-2020 4535.01 5123.86 83.09 6.00  42.21 2393.67
   22:32:28.167.10-Nov-2020 4535.01 5122.90 83.09 6.00  42.41 2393.67
   22:32:28.367.10-Nov-2020 4535.01 5122.26 83.09 6.00  42.61 2393.67
   22:32:28.567.10-Nov-2020 4535.01 5121.63 83.09 6.00  42.81 2393.67
   22:32:28.768.10-Nov-2020 4535.01 5121.01 83.08 6.00  43.01 2393.67
   22:32:28.968.10-Nov-2020 4535.01 5121.01 83.08 6.00  43.21 2393.67
   22:32:29.168.10-Nov-2020 4535.01 5120.74 83.08 6.00  43.41 2393.67
   22:32:29.368.10-Nov-2020 4535.01 5123.21 83.08 6.00  43.61 2393.67
   22:32:29.568.10-Nov-2020 4535.01 5122.04 83.08 6.00  43.81 2393.67
   22:32:29.768.10-Nov-2020 4535.01 5121.82 83.08 6.00  44.01 2393.67
   22:32:29.968.10-Nov-2020 4535.01 5121.82 83.08 6.00  44.21 2393.67
   22:32:30.168.10-Nov-2020 4535.01 5122.41 83.08 6.00  44.41 2393.67
   22:32:30.368.10-Nov-2020 4535.01 5259.71 83.07 6.00  44.61 2393.67
   22:32:30.568.10-Nov-2020 4535.01 5075.60 83.07 6.00  44.81 2393.67
   22:32:30.768.10-Nov-2020 4535.01 5067.38 83.07 6.00  45.01 2393.67
   22:32:30.968.10-Nov-2020 4535.01 5067.38 83.07 6.00  45.21 2393.67
   22:32:31.168.10-Nov-2020 4535.01 5068.20 83.07 6.00  45.41 2393.67
   22:32:31.368.10-Nov-2020 4535.01 5068.08 83.07 6.00  45.61 2393.67
   22:32:31.568.10-Nov-2020 4535.01 5068.24 83.07 6.00  45.81 2393.67
