~Version Information
 VERS.                  2.0:   CWLS log ASCII Standard -VERSION 2.0
 WRAP.                   NO:   One line per depth step
~Well Information Block
#MNEM.UNIT     VALUE/NAME     DESCRIPTION
#---------     -----------    ---------------------------
 STRT.S             06:45:19 11-Nov-20: START TIME 06:45:19 11-Nov-20
 STOP.S             06:51:53 11-Nov-20: STOP TIME  06:51:53 11-Nov-20
 STEP.S                   0.00: STEP TIME
 NULL.                 -999.25: NULL VALUE
 DFWT.                        :  DIST FWL TEXT
 DFST.                        :  DIST FSL TEXT
 DMF .             Drill Floor:  DRILL MEAS FROM
 STIM.      04.54.24 22-Sep-20:  START TIME
 DATE.      04.54.24 21-Nov-20:  END TIME
 SPUD.               21-Nov-20:  SPUD DATE
 NREF.                    Grid:  NORTH REFERENCE
 HPTY.       Minimum Curvature:  HOLE POS TYPE
 DMOD.             Drill Model:  DRILL MOD DESC
 SVYD.                  Survey:  SURVEY DESC
 ILTD.               Lithology:  INTERP LTH DESC
 FTOP.          Formation Tops:  FORM TOPS DESC
 SON .        AZ-XX-0906571587:  JOB NUMBER
 COMP.     BP Exploration (Caspian Sea) Ltd:  COMPANY
 UWI .                     N/A:  UNIQUE WELL IDENTIFIER
 API .                     N/A:  API NUMBER
 BASE.              Azerbaijan:  LOGGING EQUIPMENT BASE LOCATION
 REGN.                   EESSA:  REGION
 PROV.                    Baku:  PROVINCE
 STAT.                    Baku:  STATE NAME
 CTRY.              Azerbaijan:  COUNTRY NAME
 FLD .                     ACG:  FIELD NAME
 SRVC.     TURAN Drilling & Engineering:  CONTRACTOR
 WELL.                     J27:  WELL NAME
 RIG .             West Chirag:  RIG NAME
 DOE .                     N/A:  DOE NUMBER
 DCON.         Sperry Drilling:  DIRECTNL CONTR
 PDAT.          Mean Sea Level:  PERMANENT DATUM
 WTYP.                Deviated:  WELL TYPE
 MWDS.                    Baku:  MWD SHOP
 JOBN.        AZ-XX-0906571587:  JOB TICKET NUMB
 UNIT.                     N/A:  LOGGING EQUIPMENT ID
 MDS .        Operator Entered:  MAG DATA SOURCE
 CNTY.                        :  COUNTY
 LOC .                        :  LOCATION
 LMF .             Drill Floor:  LOG MEASURED FROM
 TVDS.m                  43.00:  TVDSS CORRECTN
 LATI.deg                40.13:  LATITUDE
 LONG.deg                51.22:  LONGITUDE
 WHNS.m                   7.72:  WELL HEAD N/S
 WHEW.m                 -14.24:  WELL HEAD E/W
 UTMX.m              519005.06:  UTM X
 UTMY.m             4443793.85:  UTM Y
 DFWL.m                   0.00:  DISTANCE FWL
 DFSL.m                   0.00:  DISTANCE FSL
 SDEP.m                 347.00:  START DEPTH
 TDD .m                 581.00:  TOTAL DEPTH (DRILLER)
 VSDR.deg               159.72:  VERT SEC DIRECT
 GVFD.g                   1.00:  GRAVITY FIELD
 MFLD.nT              50313.00:  MAGNETIC FIELD
 MDIP.deg                59.58:  MAGNETIC DIP
 MDEC.deg                 6.45:  MAGNETIC DECL
 GRDC.deg                 0.15:  GRID CORRECTION
 AZTC.deg                 6.30:  AZM TOTAL CORR
 EPD .m                   0.00:  ELEVATION
 EGL .m                   0.00:  GROUND ELEVATION
 WDMS.m                 169.80:  WD ELEV
 APD .m                  43.00:  DEPTH ABOVE PD
 AGAP.m                  43.00:  AIR GAP
 VSEW.m                 -14.24:  VERT SEC E/W
 VSNS.m                   7.72:  VERT SEC N/S
 DEP .m                 342.45:  DEPTH
 EKB .m                   0.00:  KB ELEVATION
 EDF .m                  43.00:  DF ELEVATION
 TDL .m                1313.00:  TOTAL DEPTH (LOGGER)
 VSC .                       0:  VS TO CLOSURE
 MAGU.                 1851396:  MAGUTM CHECKSUM
~Parameter Information Block
#MNEM.UNIT       Value        Description
#---------     -----------    ---------------------------
 AV  .mps                 0.65:  Ann Velocity 
 AVMX.mps                 0.75:  Max Ann Veloc 
 AZIF.deg               115.08:  Azm, Final 
 BHAT.        Rotary Steerable:  BHA Type 
 BROT.°/30m               1.50:  Build Rotating 
 BS  .in                 12.25:  Bit Size 
 BSZ .in                 12.25:  Bit Size 
 BTPL.psig              700.00:  Bit Press Loss 
 CABU.                     Yes:  Customer Abuse 
 COMM.                     LNw:  Run Comments 1 
 TCS .hr                121.00:  Time Ciculation Ended 
 CV  .mps                 1.83:  Crit Velocity 
 CVMX.mps                 1.83:  Max Crit Veloc 
 DD1 .          Rashad Habibov:  Direct Drillr 1 
 DD2 .         Rasim Ibrahimov:  Direct Drillr 2 
 DDSV.                 iCruise:  DD Service 
 DEFF.%                 100.00:  % Det Eff 
 DLRX.°/30m               3.60:  Dogleg Rot Max 
 DLSO.°/30m               3.10:  Dogleg Oriented 
 DLSX.°/30m               3.60:  Dogleg Str Max 
 DRET.      13.41.20 12-Nov-20:  Drill End Time 
 DRST.      13.41.20 07-Nov-20:  Drill Start Tim 
 DTIM.hr                 54.16:  Time Drilling 
 EDEP.m                4762.01:  End Depth 
 ENG1.           Amrah Tahirov:  Engineer 1 
 ENG2.      Bakhtiyar Jabbarli:  Engineer 2 
 ENG3.          Ruslan Safarov:  Engineer 3 
 ETIM.      13.41.20 14-Nov-20:  End Time 
 FLOI.gpm              1200.00:  Flow In 
 FLON.gpm              1100.00:  Flow In Min 
 FLOS.cptm                0.00:  Fluid Loss 
 FLOX.gpm              1200.00:  Flow In Max 
 HFLO.                      No:  High Flow 
 HPRE.                      No:  High Pressure 
 HTEM.                      No:  High Temp 
 HYDO.m                   2.00:  Hydro Offset 
 IFIN.deg                66.14:  Inc, Final 
 IMAX.deg                69.03:  Inc Max 
 IMIN.deg                64.64:  Inc Min 
 IMND.m                4450.16:  Inc Min Depth 
 IMXD.m                3996.00:  Inc Max Depth 
 JARR.                     Yes:  Jarring 
 LETM.      13.41.20 14-Nov-20:  Log End Time 
 LOST.hr                     0:  Lost Rig Time 
 LSTM.      13.41.20 06-Nov-20:  Log Start Time 
 MDCL.ppm             42500.00:  Mud Chlorides 
 MDES.     Inversion Oil/Synthetic:  Mud Desc 
 DFD .sg                  1.45:  Mud Density 
 MDMN.sg                  1.45:  Dens Mud Min 
 MDMX.sg                  1.45:  Dens Mud Max 
 MOIL.                      70:  Run Mud Oil % 
 MOWR.                   70:30:  Run Mud OWR 
 MSND.                       0:  Run Mud Sand % 
 MSOL.                    19.3:  Run Mud Solids% 
 DFV .spqt               77.00:  Mud Viscosity 
 MWOD.in                  8.00:  MWD Tool OD 
 MWSI.                      No:  Serv Intrp, MWD 
 OTIM.hr                201.88:  Time Operating 
 PCON.           Look Like New:  Pad Condition 
 PMAX.psia             9250.94:  Press Op, Max 
 PV  .cP                 29.00:  Mud PV 
 RUN .                     800:  Run Number 
 ROPA.m/hr               28.00:  ROP Avg 
 ROPN.m/hr               25.00:  ROP Min 
 ROPX.m/hr               30.00:  ROP Max 
 RPMA.rpm               160.00:  RPM Surface Avg 
 RPMN.rpm               160.00:  RPM Surface Min 
 RPMX.rpm               160.00:  RPM Surface Max 
 RRUN.                    0800:  Rig Run Number 
 RTIM.hr                 12.00:  Time Reaming 
 SAZI.deg               169.33:  Azm, Start 
 SDEP.m                3449.01:  Start Depth 
 SIDD.                      No:  Serv Intrp, DD 
 SINC.deg                68.01:  Inc, Start 
 SPPA.psig             4900.00:  SPP Avg 
 SPPN.psig             4800.00:  SPP Min 
 SPPX.psig             5050.00:  SPP Max 
 STIM.      13.41.20 06-Nov-20:  Start Time 
 SVCS.                 DD, MWD:  Services 
 SVER.                    9.20:  Sperry Version 
 TDAT.m                4762.01:  Tot Depth Attmp 
 TDDF.                      No:  Trip for DD 
 TDLG.m                1313.00:  Tot Depth Loggd 
 TFF .                      No:  Trip for Fail 
 TQAA.f-kp               13.00:  Torque Abs Avg 
 TQAN.f-kp               13.00:  Torque Abs Min 
 TQAX.f-kp               13.00:  Torque Abs Max 
 TRRT.°/30m               1.70:  Turn Rotating 
 MRT .                  EWR-M5:  Maximum Recorded Temperature 
 TTMX.degC               86.00:  Max Tool Temp 
 VS01.                90622122:  Virtual Str1 SN 
 VS02.                90577298:  Virtual Str2 SN 
 VS03.                90563623:  Virtual Str3 SN 
 VS04.                90617559:  Virtual Str4 SN 
 VS05.                11339492:  Virtual Str5 SN 
 VS06.                12385033:  Virtual Str6 SN 
 WBMN.klb                 0.00:  WOB Min 
 WOBA.klb                22.00:  WOB Avg 
 WOBX.klb                26.00:  WOB Max 
 YP  .lhf2               30.00:  Yield Point 
~Curve Information Block
#MNEM.UNIT                 API CODE     Curve Description
#---------               -----------    ---------------------------
 TIME.HHMMSS            00 000 000 000:  GT Time & Date
 GTDEPTH.m              00 000 000 000:  GT Depth
 GTPQH.psia             00 000 000 000:  GT HR Quartz Pressure
 GTTQ.degC              00 000 000 000:  GT Quartz Temperature
 GTTN.NONE              00 000 000 000:  GT Test Number
 GTET.sec               00 000 000 000:  GT Elapsed Test Time
 GTTVD.m                00 000 000 000:  GT True Vertical Depth
#Other Information
#
#WARRANTY: Halliburton will use its best efforts to furnish customers with 
#accurate information and interpretations that are part of, and incident to, the services 
#provided.  However, Halliburton cannot and does not warrant the accuracy 
#or correctness of such information and interpretations.  Under no circumstances should any 
#such information or interpretation be relied upon as the sole basis for any drilling, 
#completion, production, or financial decision or any procedure involving any risk to the 
#safety of any drilling venture, drilling rig or its crew or any other third party.  The 
#Customer has full responsibility for all drilling, completion and production operation.  
#Halliburton makes no representations or warranties, either expressed or 
#implied, including, but not limited to, the implied warranties of merchantability or fitness 
#for a particular purpose, with respect to the services rendered.  In no event will 
#Halliburton be liable for failure to obtain any particular results or for 
#any damages, including, but not limited to, indirect, special or consequential damages, 
#resulting from the use of any information or interpretation provided by Halliburton.
#
~A           TIME           GTDEPTH  GTPQH  GTTQ  GTTN  GTET   GTTVD  
# ...
   06:49:09.462.11-Nov-2020 4617.01 4135.55 79.41 8.00 230.07 2426.59
   06:49:09.662.11-Nov-2020 4617.01 4135.55 79.41 8.00 230.27 2426.59
   06:49:09.862.11-Nov-2020 4617.01 4135.63 79.40 8.00 230.47 2426.59
   06:49:10.062.11-Nov-2020 4617.01 4135.59 79.40 8.00 230.67 2426.59
   06:49:10.262.11-Nov-2020 4617.01 4135.76 79.40 8.00 230.87 2426.59
   06:49:10.462.11-Nov-2020 4617.01 4135.35 79.40 8.00 231.07 2426.59
   06:49:10.662.11-Nov-2020 4617.01 4135.35 79.40 8.00 231.27 2426.59
   06:49:10.862.11-Nov-2020 4617.01 4135.65 79.40 8.00 231.47 2426.59
   06:49:11.062.11-Nov-2020 4617.01 4135.35 79.40 8.00 231.67 2426.59
   06:49:11.262.11-Nov-2020 4617.01 4135.57 79.40 8.00 231.87 2426.59
   06:49:11.462.11-Nov-2020 4617.01 4135.64 79.40 8.00 232.07 2426.59
   06:49:11.663.11-Nov-2020 4617.01 4135.64 79.40 8.00 232.27 2426.59
   06:49:11.863.11-Nov-2020 4617.01 4135.52 79.40 8.00 232.47 2426.59
   06:49:12.063.11-Nov-2020 4617.01 4135.46 79.40 8.00 232.67 2426.59
   06:49:12.263.11-Nov-2020 4617.01 4135.64 79.39 8.00 232.87 2426.59
   06:49:12.463.11-Nov-2020 4617.01 4135.56 79.39 8.00 233.07 2426.59
   06:49:12.663.11-Nov-2020 4617.01 4135.56 79.39 8.00 233.27 2426.59
   06:49:12.863.11-Nov-2020 4617.01 4135.47 79.39 8.00 233.47 2426.59
   06:49:13.063.11-Nov-2020 4617.01 4135.64 79.39 8.00 233.67 2426.59
   06:49:13.263.11-Nov-2020 4617.01 4135.50 79.39 8.00 233.87 2426.59
   06:49:13.463.11-Nov-2020 4617.01 4135.61 79.39 8.00 234.07 2426.59
   06:49:13.663.11-Nov-2020 4617.01 4135.68 79.39 8.00 234.27 2426.59
   06:49:13.863.11-Nov-2020 4617.01 4135.55 79.39 8.00 234.47 2426.59
   06:49:14.063.11-Nov-2020 4617.01 4135.57 79.39 8.00 234.67 2426.59
   06:49:14.263.11-Nov-2020 4617.01 4135.60 79.39 8.00 234.87 2426.59
   06:49:14.463.11-Nov-2020 4617.01 4135.60 79.39 8.00 235.07 2426.59
   06:49:14.663.11-Nov-2020 4617.01 4135.60 79.39 8.00 235.27 2426.59
   06:49:14.864.11-Nov-2020 4617.01 4135.53 79.38 8.00 235.47 2426.59
   06:49:15.064.11-Nov-2020 4617.01 4135.61 79.38 8.00 235.67 2426.59
   06:49:15.264.11-Nov-2020 4617.01 4135.70 79.38 8.00 235.87 2426.59
   06:49:15.464.11-Nov-2020 4617.01 4135.58 79.38 8.00 236.07 2426.59
   06:49:15.664.11-Nov-2020 4617.01 4135.54 79.38 8.00 236.27 2426.59
   06:49:15.864.11-Nov-2020 4617.01 4135.52 79.38 8.00 236.47 2426.59
   06:49:16.064.11-Nov-2020 4617.01 4135.59 79.38 8.00 236.67 2426.59
   06:49:16.264.11-Nov-2020 4617.01 4135.60 79.38 8.00 236.87 2426.59
   06:49:16.464.11-Nov-2020 4617.01 4135.56 79.38 8.00 237.07 2426.59
   06:49:16.664.11-Nov-2020 4617.01 4135.56 79.38 8.00 237.27 2426.59
   06:49:16.864.11-Nov-2020 4617.01 4135.56 79.38 8.00 237.47 2426.59
   06:49:17.064.11-Nov-2020 4617.01 4135.54 79.38 8.00 237.67 2426.59
   06:49:17.264.11-Nov-2020 4617.01 4135.52 79.38 8.00 237.87 2426.59
   06:49:17.464.11-Nov-2020 4617.01 4135.60 79.37 8.00 238.07 2426.59
   06:49:17.664.11-Nov-2020 4617.01 4135.56 79.37 8.00 238.27 2426.59
   06:49:17.864.11-Nov-2020 4617.01 4135.62 79.37 8.00 238.47 2426.59
   06:49:18.065.11-Nov-2020 4617.01 4135.65 79.37 8.00 238.67 2426.59
   06:49:18.265.11-Nov-2020 4617.01 4135.53 79.37 8.00 238.88 2426.59
   06:49:18.465.11-Nov-2020 4617.01 4135.76 79.37 8.00 239.08 2426.59
   06:49:18.665.11-Nov-2020 4617.01 4135.76 79.37 8.00 239.28 2426.59
   06:49:18.865.11-Nov-2020 4617.01 4135.48 79.37 8.00 239.48 2426.59
   06:49:19.065.11-Nov-2020 4617.01 4135.59 79.37 8.00 239.68 2426.59
   06:49:19.265.11-Nov-2020 4617.01 4135.65 79.37 8.00 239.88 2426.59
   06:49:19.465.11-Nov-2020 4617.01 4135.59 79.37 8.00 240.08 2426.59
   06:49:19.665.11-Nov-2020 4617.01 4135.54 79.37 8.00 240.28 2426.59
   06:49:19.865.11-Nov-2020 4617.01 4135.40 79.37 8.00 240.48 2426.59
   06:49:20.065.11-Nov-2020 4617.01 4135.67 79.36 8.00 240.68 2426.59
   06:49:20.265.11-Nov-2020 4617.01 4135.57 79.36 8.00 240.88 2426.59
   06:49:20.465.11-Nov-2020 4617.01 4135.62 79.36 8.00 241.08 2426.59
   06:49:20.665.11-Nov-2020 4617.01 4135.62 79.36 8.00 241.28 2426.59
   06:49:20.865.11-Nov-2020 4617.01 4135.78 79.36 8.00 241.48 2426.59
   06:49:21.065.11-Nov-2020 4617.01 4135.41 79.36 8.00 241.68 2426.59
   06:49:21.266.11-Nov-2020 4617.01 4135.49 79.36 8.00 241.88 2426.59
   06:49:21.466.11-Nov-2020 4617.01 4135.62 79.36 8.00 242.08 2426.59
   06:49:21.666.11-Nov-2020 4617.01 4135.62 79.36 8.00 242.28 2426.59
   06:49:21.866.11-Nov-2020 4617.01 4135.59 79.36 8.00 242.48 2426.59
   06:49:22.066.11-Nov-2020 4617.01 4135.57 79.36 8.00 242.68 2426.59
   06:49:22.266.11-Nov-2020 4617.01 4135.59 79.36 8.00 242.88 2426.59
   06:49:22.466.11-Nov-2020 4617.01 4135.60 79.36 8.00 243.08 2426.59
   06:49:22.666.11-Nov-2020 4617.01 4135.60 79.36 8.00 243.28 2426.59
   06:49:22.866.11-Nov-2020 4617.01 4135.57 79.35 8.00 243.48 2426.59
   06:49:23.066.11-Nov-2020 4617.01 4135.59 79.35 8.00 243.68 2426.59
   06:49:23.266.11-Nov-2020 4617.01 4135.60 79.35 8.00 243.88 2426.59
   06:49:23.466.11-Nov-2020 4617.01 4135.62 79.35 8.00 244.08 2426.59
   06:49:23.666.11-Nov-2020 4617.01 4135.44 79.35 8.00 244.28 2426.59
   06:49:23.866.11-Nov-2020 4617.01 4135.61 79.35 8.00 244.48 2426.59
   06:49:24.066.11-Nov-2020 4617.01 4135.64 79.35 8.00 244.68 2426.59
   06:49:24.266.11-Nov-2020 4617.01 4135.57 79.35 8.00 244.88 2426.59
   06:49:24.467.11-Nov-2020 4617.01 4135.61 79.35 8.00 245.08 2426.59
   06:49:24.667.11-Nov-2020 4617.01 4135.61 79.35 8.00 245.28 2426.59
   06:49:24.867.11-Nov-2020 4617.01 4135.60 79.35 8.00 245.48 2426.59
   06:49:25.067.11-Nov-2020 4617.01 4135.49 79.35 8.00 245.68 2426.59
   06:49:25.267.11-Nov-2020 4617.01 4135.55 79.34 8.00 245.88 2426.59
   06:49:25.467.11-Nov-2020 4617.01 4135.60 79.34 8.00 246.08 2426.59
   06:49:25.667.11-Nov-2020 4617.01 4135.60 79.34 8.00 246.28 2426.59
   06:49:25.867.11-Nov-2020 4617.01 4135.55 79.34 8.00 246.48 2426.59
   06:49:26.067.11-Nov-2020 4617.01 4135.57 79.34 8.00 246.68 2426.59
   06:49:26.267.11-Nov-2020 4617.01 4135.46 79.34 8.00 246.88 2426.59
   06:49:26.467.11-Nov-2020 4617.01 4135.73 79.34 8.00 247.08 2426.59
   06:49:26.667.11-Nov-2020 4617.01 4135.73 79.34 8.00 247.28 2426.59
   06:49:26.867.11-Nov-2020 4617.01 4135.53 79.34 8.00 247.48 2426.59
   06:49:27.067.11-Nov-2020 4617.01 4135.65 79.34 8.00 247.68 2426.59
   06:49:27.267.11-Nov-2020 4617.01 4135.58 79.34 8.00 247.88 2426.59
   06:49:27.467.11-Nov-2020 4617.01 4135.70 79.34 8.00 248.08 2426.59
   06:49:27.668.11-Nov-2020 4617.01 4135.58 79.33 8.00 248.28 2426.59
   06:49:27.868.11-Nov-2020 4617.01 4135.45 79.33 8.00 248.48 2426.59
   06:49:28.068.11-Nov-2020 4617.01 4135.50 79.33 8.00 248.68 2426.59
   06:49:28.268.11-Nov-2020 4617.01 4135.81 79.33 8.00 248.88 2426.59
   06:49:28.468.11-Nov-2020 4617.01 4135.33 79.33 8.00 249.08 2426.59
   06:49:28.668.11-Nov-2020 4617.01 4135.33 79.33 8.00 249.28 2426.59
   06:49:28.868.11-Nov-2020 4617.01 4135.55 79.33 8.00 249.48 2426.59
   06:49:29.068.11-Nov-2020 4617.01 4135.63 79.33 8.00 249.68 2426.59
   06:49:29.268.11-Nov-2020 4617.01 4135.47 79.33 8.00 249.88 2426.59
   06:49:29.468.11-Nov-2020 4617.01 4135.69 79.33 8.00 250.08 2426.59
   06:49:29.668.11-Nov-2020 4617.01 4135.69 79.33 8.00 250.28 2426.59
   06:49:29.868.11-Nov-2020 4617.01 4135.58 79.33 8.00 250.48 2426.59
   06:49:30.068.11-Nov-2020 4617.01 4135.58 79.33 8.00 250.68 2426.59
   06:49:30.268.11-Nov-2020 4617.01 4135.62 79.32 8.00 250.88 2426.59
   06:49:30.468.11-Nov-2020 4617.01 4135.63 79.32 8.00 251.08 2426.59
   06:49:30.668.11-Nov-2020 4617.01 4135.63 79.32 8.00 251.28 2426.59
   06:49:30.869.11-Nov-2020 4617.01 4135.63 79.32 8.00 251.48 2426.59
   06:49:31.069.11-Nov-2020 4617.01 4135.61 79.32 8.00 251.68 2426.59
   06:49:31.269.11-Nov-2020 4617.01 4135.54 79.32 8.00 251.88 2426.59
   06:49:31.469.11-Nov-2020 4617.01 4135.63 79.32 8.00 252.08 2426.59
   06:49:31.669.11-Nov-2020 4617.01 4135.63 79.32 8.00 252.28 2426.59
   06:49:31.869.11-Nov-2020 4617.01 4135.59 79.32 8.00 252.48 2426.59
   06:49:32.069.11-Nov-2020 4617.01 4135.73 79.32 8.00 252.68 2426.59
   06:49:32.269.11-Nov-2020 4617.01 4135.41 79.32 8.00 252.88 2426.59
