~Version Information
 VERS.                  2.0:   CWLS log ASCII Standard -VERSION 2.0
 WRAP.                   NO:   One line per depth step
~Well Information Block
#MNEM.UNIT     VALUE/NAME     DESCRIPTION
#---------     -----------    ---------------------------
 STRT.S             18:53:27 10-Nov-20: START TIME 18:53:27 10-Nov-20
 STOP.S             19:00:00 10-Nov-20: STOP TIME  19:00:00 10-Nov-20
 STEP.S                   0.00: STEP TIME
 NULL.                 -999.25: NULL VALUE
 DFWT.                        :  DIST FWL TEXT
 DFST.                        :  DIST FSL TEXT
 DMF .             Drill Floor:  DRILL MEAS FROM
 STIM.      04.54.24 22-Sep-20:  START TIME
 DATE.      04.54.24 21-Nov-20:  END TIME
 SPUD.               21-Nov-20:  SPUD DATE
 NREF.                    Grid:  NORTH REFERENCE
 HPTY.       Minimum Curvature:  HOLE POS TYPE
 DMOD.             Drill Model:  DRILL MOD DESC
 SVYD.                  Survey:  SURVEY DESC
 ILTD.               Lithology:  INTERP LTH DESC
 FTOP.          Formation Tops:  FORM TOPS DESC
 SON .        AZ-XX-0906571587:  JOB NUMBER
 COMP.     BP Exploration (Caspian Sea) Ltd:  COMPANY
 UWI .                     N/A:  UNIQUE WELL IDENTIFIER
 API .                     N/A:  API NUMBER
 BASE.              Azerbaijan:  LOGGING EQUIPMENT BASE LOCATION
 REGN.                   EESSA:  REGION
 PROV.                    Baku:  PROVINCE
 STAT.                    Baku:  STATE NAME
 CTRY.              Azerbaijan:  COUNTRY NAME
 FLD .                     ACG:  FIELD NAME
 SRVC.     TURAN Drilling & Engineering:  CONTRACTOR
 WELL.                     J27:  WELL NAME
 RIG .             West Chirag:  RIG NAME
 DOE .                     N/A:  DOE NUMBER
 DCON.         Sperry Drilling:  DIRECTNL CONTR
 PDAT.          Mean Sea Level:  PERMANENT DATUM
 WTYP.                Deviated:  WELL TYPE
 MWDS.                    Baku:  MWD SHOP
 JOBN.        AZ-XX-0906571587:  JOB TICKET NUMB
 UNIT.                     N/A:  LOGGING EQUIPMENT ID
 MDS .        Operator Entered:  MAG DATA SOURCE
 CNTY.                        :  COUNTY
 LOC .                        :  LOCATION
 LMF .             Drill Floor:  LOG MEASURED FROM
 TVDS.m                  43.00:  TVDSS CORRECTN
 LATI.deg                40.13:  LATITUDE
 LONG.deg                51.22:  LONGITUDE
 WHNS.m                   7.72:  WELL HEAD N/S
 WHEW.m                 -14.24:  WELL HEAD E/W
 UTMX.m              519005.06:  UTM X
 UTMY.m             4443793.85:  UTM Y
 DFWL.m                   0.00:  DISTANCE FWL
 DFSL.m                   0.00:  DISTANCE FSL
 SDEP.m                 347.00:  START DEPTH
 TDD .m                 581.00:  TOTAL DEPTH (DRILLER)
 VSDR.deg               159.72:  VERT SEC DIRECT
 GVFD.g                   1.00:  GRAVITY FIELD
 MFLD.nT              50313.00:  MAGNETIC FIELD
 MDIP.deg                59.58:  MAGNETIC DIP
 MDEC.deg                 6.45:  MAGNETIC DECL
 GRDC.deg                 0.15:  GRID CORRECTION
 AZTC.deg                 6.30:  AZM TOTAL CORR
 EPD .m                   0.00:  ELEVATION
 EGL .m                   0.00:  GROUND ELEVATION
 WDMS.m                 169.80:  WD ELEV
 APD .m                  43.00:  DEPTH ABOVE PD
 AGAP.m                  43.00:  AIR GAP
 VSEW.m                 -14.24:  VERT SEC E/W
 VSNS.m                   7.72:  VERT SEC N/S
 DEP .m                 342.45:  DEPTH
 EKB .m                   0.00:  KB ELEVATION
 EDF .m                  43.00:  DF ELEVATION
 TDL .m                1313.00:  TOTAL DEPTH (LOGGER)
 VSC .                       0:  VS TO CLOSURE
 MAGU.                 1851396:  MAGUTM CHECKSUM
~Parameter Information Block
#MNEM.UNIT       Value        Description
#---------     -----------    ---------------------------
 AV  .mps                 0.65:  Ann Velocity 
 AVMX.mps                 0.75:  Max Ann Veloc 
 AZIF.deg               115.08:  Azm, Final 
 BHAT.        Rotary Steerable:  BHA Type 
 BROT.°/30m               1.50:  Build Rotating 
 BS  .in                 12.25:  Bit Size 
 BSZ .in                 12.25:  Bit Size 
 BTPL.psig              700.00:  Bit Press Loss 
 CABU.                     Yes:  Customer Abuse 
 COMM.                     ”Ú:  Run Comments 1 
 TCS .hr                121.00:  Time Ciculation Ended 
 CV  .mps                 1.83:  Crit Velocity 
 CVMX.mps                 1.83:  Max Crit Veloc 
 DD1 .          Rashad Habibov:  Direct Drillr 1 
 DD2 .         Rasim Ibrahimov:  Direct Drillr 2 
 DDSV.                 iCruise:  DD Service 
 DEFF.%                 100.00:  % Det Eff 
 DLRX.°/30m               3.60:  Dogleg Rot Max 
 DLSO.°/30m               3.10:  Dogleg Oriented 
 DLSX.°/30m               3.60:  Dogleg Str Max 
 DRET.      13.41.20 12-Nov-20:  Drill End Time 
 DRST.      13.41.20 07-Nov-20:  Drill Start Tim 
 DTIM.hr                 54.16:  Time Drilling 
 EDEP.m                4762.01:  End Depth 
 ENG1.           Amrah Tahirov:  Engineer 1 
 ENG2.      Bakhtiyar Jabbarli:  Engineer 2 
 ENG3.          Ruslan Safarov:  Engineer 3 
 ETIM.      13.41.20 14-Nov-20:  End Time 
 FLOI.gpm              1200.00:  Flow In 
 FLON.gpm              1100.00:  Flow In Min 
 FLOS.cptm                0.00:  Fluid Loss 
 FLOX.gpm              1200.00:  Flow In Max 
 HFLO.                      No:  High Flow 
 HPRE.                      No:  High Pressure 
 HTEM.                      No:  High Temp 
 HYDO.m                   2.00:  Hydro Offset 
 IFIN.deg                66.14:  Inc, Final 
 IMAX.deg                69.03:  Inc Max 
 IMIN.deg                64.64:  Inc Min 
 IMND.m                4450.16:  Inc Min Depth 
 IMXD.m                3996.00:  Inc Max Depth 
 JARR.                     Yes:  Jarring 
 LETM.      13.41.20 14-Nov-20:  Log End Time 
 LOST.hr                     0:  Lost Rig Time 
 LSTM.      13.41.20 06-Nov-20:  Log Start Time 
 MDCL.ppm             42500.00:  Mud Chlorides 
 MDES.     Inversion Oil/Synthetic:  Mud Desc 
 DFD .sg                  1.45:  Mud Density 
 MDMN.sg                  1.45:  Dens Mud Min 
 MDMX.sg                  1.45:  Dens Mud Max 
 MOIL.                      70:  Run Mud Oil % 
 MOWR.                   70:30:  Run Mud OWR 
 MSND.                       0:  Run Mud Sand % 
 MSOL.                    19.3:  Run Mud Solids% 
 DFV .spqt               77.00:  Mud Viscosity 
 MWOD.in                  8.00:  MWD Tool OD 
 MWSI.                      No:  Serv Intrp, MWD 
 OTIM.hr                201.88:  Time Operating 
 PCON.           Look Like New:  Pad Condition 
 PMAX.psia             9250.94:  Press Op, Max 
 PV  .cP                 29.00:  Mud PV 
 RUN .                     800:  Run Number 
 ROPA.m/hr               28.00:  ROP Avg 
 ROPN.m/hr               25.00:  ROP Min 
 ROPX.m/hr               30.00:  ROP Max 
 RPMA.rpm               160.00:  RPM Surface Avg 
 RPMN.rpm               160.00:  RPM Surface Min 
 RPMX.rpm               160.00:  RPM Surface Max 
 RRUN.                    0800:  Rig Run Number 
 RTIM.hr                 12.00:  Time Reaming 
 SAZI.deg               169.33:  Azm, Start 
 SDEP.m                3449.01:  Start Depth 
 SIDD.                      No:  Serv Intrp, DD 
 SINC.deg                68.01:  Inc, Start 
 SPPA.psig             4900.00:  SPP Avg 
 SPPN.psig             4800.00:  SPP Min 
 SPPX.psig             5050.00:  SPP Max 
 STIM.      13.41.20 06-Nov-20:  Start Time 
 SVCS.                 DD, MWD:  Services 
 SVER.                    9.20:  Sperry Version 
 TDAT.m                4762.01:  Tot Depth Attmp 
 TDDF.                      No:  Trip for DD 
 TDLG.m                1313.00:  Tot Depth Loggd 
 TFF .                      No:  Trip for Fail 
 TQAA.f-kp               13.00:  Torque Abs Avg 
 TQAN.f-kp               13.00:  Torque Abs Min 
 TQAX.f-kp               13.00:  Torque Abs Max 
 TRRT.°/30m               1.70:  Turn Rotating 
 MRT .                  EWR-M5:  Maximum Recorded Temperature 
 TTMX.degC               86.00:  Max Tool Temp 
 VS01.                90622122:  Virtual Str1 SN 
 VS02.                90577298:  Virtual Str2 SN 
 VS03.                90563623:  Virtual Str3 SN 
 VS04.                90617559:  Virtual Str4 SN 
 VS05.                11339492:  Virtual Str5 SN 
 VS06.                12385033:  Virtual Str6 SN 
 WBMN.klb                 0.00:  WOB Min 
 WOBA.klb                22.00:  WOB Avg 
 WOBX.klb                26.00:  WOB Max 
 YP  .lhf2               30.00:  Yield Point 
~Curve Information Block
#MNEM.UNIT                 API CODE     Curve Description
#---------               -----------    ---------------------------
 TIME.HHMMSS            00 000 000 000:  GT Time & Date
 GTDEPTH.m              00 000 000 000:  GT Depth
 GTPQH.psia             00 000 000 000:  GT HR Quartz Pressure
 GTTQ.degC              00 000 000 000:  GT Quartz Temperature
 GTTN.NONE              00 000 000 000:  GT Test Number
 GTET.sec               00 000 000 000:  GT Elapsed Test Time
 GTTVD.m                00 000 000 000:  GT True Vertical Depth
#Other Information
#
#WARRANTY: Halliburton will use its best efforts to furnish customers with 
#accurate information and interpretations that are part of, and incident to, the services 
#provided.  However, Halliburton cannot and does not warrant the accuracy 
#or correctness of such information and interpretations.  Under no circumstances should any 
#such information or interpretation be relied upon as the sole basis for any drilling, 
#completion, production, or financial decision or any procedure involving any risk to the 
#safety of any drilling venture, drilling rig or its crew or any other third party.  The 
#Customer has full responsibility for all drilling, completion and production operation.  
#Halliburton makes no representations or warranties, either expressed or 
#implied, including, but not limited to, the implied warranties of merchantability or fitness 
#for a particular purpose, with respect to the services rendered.  In no event will 
#Halliburton be liable for failure to obtain any particular results or for 
#any damages, including, but not limited to, indirect, special or consequential damages, 
#resulting from the use of any information or interpretation provided by Halliburton.
#
~A           TIME           GTDEPTH  GTPQH  GTTQ  GTTN  GTET   GTTVD  
# ...
   18:56:54.553.10-Nov-2020 4475.51 4014.42 80.23 5.00 207.06 2369.25
   18:56:54.753.10-Nov-2020 4475.51 4014.42 80.23 5.00 207.26 2369.25
   18:56:54.953.10-Nov-2020 4475.51 4014.63 80.23 5.00 207.46 2369.25
   18:56:55.153.10-Nov-2020 4475.51 4014.57 80.23 5.00 207.66 2369.25
   18:56:55.353.10-Nov-2020 4475.51 4014.79 80.23 5.00 207.86 2369.25
   18:56:55.553.10-Nov-2020 4475.51 4014.94 80.23 5.00 208.06 2369.25
   18:56:55.753.10-Nov-2020 4475.51 4014.94 80.23 5.00 208.26 2369.25
   18:56:55.953.10-Nov-2020 4475.51 4014.70 80.23 5.00 208.46 2369.25
   18:56:56.154.10-Nov-2020 4475.51 4014.91 80.23 5.00 208.66 2369.25
   18:56:56.354.10-Nov-2020 4475.51 4014.71 80.23 5.00 208.86 2369.25
   18:56:56.554.10-Nov-2020 4475.51 4014.60 80.23 5.00 209.06 2369.25
   18:56:56.754.10-Nov-2020 4475.51 4014.60 80.23 5.00 209.26 2369.25
   18:56:56.954.10-Nov-2020 4475.51 4014.75 80.22 5.00 209.46 2369.25
   18:56:57.154.10-Nov-2020 4475.51 4014.72 80.22 5.00 209.66 2369.25
   18:56:57.354.10-Nov-2020 4475.51 4014.79 80.22 5.00 209.86 2369.25
   18:56:57.554.10-Nov-2020 4475.51 4014.87 80.22 5.00 210.06 2369.25
   18:56:57.754.10-Nov-2020 4475.51 4014.85 80.22 5.00 210.26 2369.25
   18:56:57.954.10-Nov-2020 4475.51 4014.87 80.22 5.00 210.46 2369.25
   18:56:58.154.10-Nov-2020 4475.51 4014.93 80.22 5.00 210.66 2369.25
   18:56:58.354.10-Nov-2020 4475.51 4014.93 80.22 5.00 210.86 2369.25
   18:56:58.554.10-Nov-2020 4475.51 4014.90 80.22 5.00 211.06 2369.25
   18:56:58.754.10-Nov-2020 4475.51 4014.90 80.22 5.00 211.26 2369.25
   18:56:58.954.10-Nov-2020 4475.51 4015.07 80.22 5.00 211.46 2369.25
   18:56:59.154.10-Nov-2020 4475.51 4014.90 80.22 5.00 211.66 2369.25
   18:56:59.354.10-Nov-2020 4475.51 4015.02 80.22 5.00 211.86 2369.25
   18:56:59.554.10-Nov-2020 4475.51 4015.03 80.22 5.00 212.06 2369.25
   18:56:59.755.10-Nov-2020 4475.51 4015.03 80.22 5.00 212.26 2369.25
   18:56:59.955.10-Nov-2020 4475.51 4015.01 80.22 5.00 212.46 2369.25
   18:57:00.155.10-Nov-2020 4475.51 4014.98 80.22 5.00 212.66 2369.25
   18:57:00.355.10-Nov-2020 4475.51 4014.99 80.22 5.00 212.86 2369.25
   18:57:00.555.10-Nov-2020 4475.51 4015.08 80.22 5.00 213.06 2369.25
   18:57:00.755.10-Nov-2020 4475.51 4015.08 80.22 5.00 213.26 2369.25
   18:57:00.955.10-Nov-2020 4475.51 4015.07 80.22 5.00 213.46 2369.25
   18:57:01.155.10-Nov-2020 4475.51 4015.15 80.21 5.00 213.66 2369.25
   18:57:01.355.10-Nov-2020 4475.51 4015.28 80.21 5.00 213.86 2369.25
   18:57:01.555.10-Nov-2020 4475.51 4015.36 80.21 5.00 214.06 2369.25
   18:57:01.755.10-Nov-2020 4475.51 4015.17 80.21 5.00 214.26 2369.25
   18:57:01.955.10-Nov-2020 4475.51 4015.27 80.21 5.00 214.46 2369.25
   18:57:02.155.10-Nov-2020 4475.51 4015.44 80.21 5.00 214.66 2369.25
   18:57:02.355.10-Nov-2020 4475.51 4015.24 80.21 5.00 214.86 2369.25
   18:57:02.555.10-Nov-2020 4475.51 4015.15 80.21 5.00 215.06 2369.25
   18:57:02.755.10-Nov-2020 4475.51 4015.15 80.21 5.00 215.26 2369.25
   18:57:02.955.10-Nov-2020 4475.51 4015.31 80.21 5.00 215.46 2369.25
   18:57:03.155.10-Nov-2020 4475.51 4015.37 80.21 5.00 215.66 2369.25
   18:57:03.356.10-Nov-2020 4475.51 4015.23 80.21 5.00 215.86 2369.25
   18:57:03.556.10-Nov-2020 4475.51 4015.46 80.21 5.00 216.06 2369.25
   18:57:03.756.10-Nov-2020 4475.51 4015.46 80.21 5.00 216.26 2369.25
   18:57:03.956.10-Nov-2020 4475.51 4015.29 80.21 5.00 216.46 2369.25
   18:57:04.156.10-Nov-2020 4475.51 4015.37 80.21 5.00 216.66 2369.25
   18:57:04.356.10-Nov-2020 4475.51 4015.55 80.21 5.00 216.86 2369.25
   18:57:04.556.10-Nov-2020 4475.51 4015.42 80.21 5.00 217.06 2369.25
   18:57:04.756.10-Nov-2020 4475.51 4015.42 80.21 5.00 217.26 2369.25
   18:57:04.956.10-Nov-2020 4475.51 4015.31 80.21 5.00 217.46 2369.25
   18:57:05.156.10-Nov-2020 4475.51 4015.41 80.20 5.00 217.66 2369.25
   18:57:05.356.10-Nov-2020 4475.51 4015.38 80.20 5.00 217.86 2369.25
   18:57:05.556.10-Nov-2020 4475.51 4015.41 80.20 5.00 218.06 2369.25
   18:57:05.756.10-Nov-2020 4475.51 4015.41 80.20 5.00 218.26 2369.25
   18:57:05.956.10-Nov-2020 4475.51 4015.53 80.20 5.00 218.46 2369.25
   18:57:06.156.10-Nov-2020 4475.51 4015.51 80.20 5.00 218.66 2369.25
   18:57:06.356.10-Nov-2020 4475.51 4015.48 80.20 5.00 218.86 2369.25
   18:57:06.556.10-Nov-2020 4475.51 4015.55 80.20 5.00 219.06 2369.25
   18:57:06.756.10-Nov-2020 4475.51 4015.55 80.20 5.00 219.26 2369.25
   18:57:06.957.10-Nov-2020 4475.51 4015.55 80.20 5.00 219.46 2369.25
   18:57:07.157.10-Nov-2020 4475.51 4015.78 80.20 5.00 219.66 2369.25
   18:57:07.357.10-Nov-2020 4475.51 4015.78 80.20 5.00 219.86 2369.25
   18:57:07.557.10-Nov-2020 4475.51 4015.57 80.20 5.00 220.06 2369.25
   18:57:07.757.10-Nov-2020 4475.51 4015.57 80.20 5.00 220.26 2369.25
   18:57:07.957.10-Nov-2020 4475.51 4015.65 80.20 5.00 220.46 2369.25
   18:57:08.157.10-Nov-2020 4475.51 4015.57 80.20 5.00 220.66 2369.25
   18:57:08.357.10-Nov-2020 4475.51 4015.59 80.20 5.00 220.86 2369.25
   18:57:08.557.10-Nov-2020 4475.51 4015.62 80.20 5.00 221.06 2369.25
   18:57:08.757.10-Nov-2020 4475.51 4015.62 80.20 5.00 221.26 2369.25
   18:57:08.957.10-Nov-2020 4475.51 4015.69 80.20 5.00 221.46 2369.25
   18:57:09.157.10-Nov-2020 4475.51 4015.70 80.20 5.00 221.66 2369.25
   18:57:09.357.10-Nov-2020 4475.51 4015.68 80.19 5.00 221.86 2369.25
   18:57:09.557.10-Nov-2020 4475.51 4015.74 80.19 5.00 222.06 2369.25
   18:57:09.757.10-Nov-2020 4475.51 4015.84 80.19 5.00 222.26 2369.25
   18:57:09.957.10-Nov-2020 4475.51 4015.98 80.19 5.00 222.46 2369.25
   18:57:10.157.10-Nov-2020 4475.51 4015.79 80.19 5.00 222.66 2369.25
   18:57:10.357.10-Nov-2020 4475.51 4015.86 80.19 5.00 222.86 2369.25
   18:57:10.558.10-Nov-2020 4475.51 4016.00 80.19 5.00 223.06 2369.25
   18:57:10.758.10-Nov-2020 4475.51 4016.00 80.19 5.00 223.26 2369.25
   18:57:10.958.10-Nov-2020 4475.51 4015.68 80.19 5.00 223.46 2369.25
   18:57:11.158.10-Nov-2020 4475.51 4015.79 80.19 5.00 223.66 2369.25
   18:57:11.358.10-Nov-2020 4475.51 4015.84 80.19 5.00 223.86 2369.25
   18:57:11.558.10-Nov-2020 4475.51 4015.92 80.19 5.00 224.06 2369.25
   18:57:11.758.10-Nov-2020 4475.51 4015.92 80.19 5.00 224.26 2369.25
   18:57:11.958.10-Nov-2020 4475.51 4015.98 80.19 5.00 224.46 2369.25
   18:57:12.158.10-Nov-2020 4475.51 4016.08 80.19 5.00 224.66 2369.25
   18:57:12.358.10-Nov-2020 4475.51 4015.91 80.19 5.00 224.86 2369.25
   18:57:12.558.10-Nov-2020 4475.51 4015.90 80.19 5.00 225.06 2369.25
   18:57:12.758.10-Nov-2020 4475.51 4015.90 80.19 5.00 225.26 2369.25
   18:57:12.958.10-Nov-2020 4475.51 4016.02 80.19 5.00 225.46 2369.25
   18:57:13.158.10-Nov-2020 4475.51 4015.91 80.19 5.00 225.66 2369.25
   18:57:13.358.10-Nov-2020 4475.51 4015.86 80.19 5.00 225.86 2369.25
   18:57:13.558.10-Nov-2020 4475.51 4015.96 80.18 5.00 226.06 2369.25
   18:57:13.758.10-Nov-2020 4475.51 4015.95 80.18 5.00 226.26 2369.25
   18:57:13.958.10-Nov-2020 4475.51 4015.93 80.18 5.00 226.46 2369.25
   18:57:14.158.10-Nov-2020 4475.51 4015.96 80.18 5.00 226.66 2369.25
   18:57:14.359.10-Nov-2020 4475.51 4016.06 80.18 5.00 226.86 2369.25
   18:57:14.559.10-Nov-2020 4475.51 4016.05 80.18 5.00 227.06 2369.25
   18:57:14.759.10-Nov-2020 4475.51 4016.05 80.18 5.00 227.26 2369.25
   18:57:14.959.10-Nov-2020 4475.51 4016.05 80.18 5.00 227.46 2369.25
   18:57:15.159.10-Nov-2020 4475.51 4016.11 80.18 5.00 227.66 2369.25
   18:57:15.359.10-Nov-2020 4475.51 4016.06 80.18 5.00 227.86 2369.25
   18:57:15.559.10-Nov-2020 4475.51 4016.25 80.18 5.00 228.06 2369.25
   18:57:15.759.10-Nov-2020 4475.51 4016.25 80.18 5.00 228.26 2369.25
   18:57:15.959.10-Nov-2020 4475.51 4016.07 80.18 5.00 228.46 2369.25
   18:57:16.159.10-Nov-2020 4475.51 4016.14 80.18 5.00 228.66 2369.25
   18:57:16.359.10-Nov-2020 4475.51 4016.15 80.18 5.00 228.86 2369.25
   18:57:16.559.10-Nov-2020 4475.51 4016.07 80.18 5.00 229.06 2369.25
   18:57:16.759.10-Nov-2020 4475.51 4016.07 80.18 5.00 229.26 2369.25
   18:57:16.959.10-Nov-2020 4475.51 4016.13 80.18 5.00 229.46 2369.25
   18:57:17.159.10-Nov-2020 4475.51 4016.13 80.18 5.00 229.66 2369.25
   18:57:17.359.10-Nov-2020 4475.51 4016.20 80.18 5.00 229.86 2369.25
