~Version Information
 VERS.                  2.0:   CWLS log ASCII Standard -VERSION 2.0
 WRAP.                   NO:   One line per depth step
~Well Information Block
#MNEM.UNIT     VALUE/NAME     DESCRIPTION
#---------     -----------    ---------------------------
 STRT.S             22:31:45 10-Nov-20: START TIME 22:31:45 10-Nov-20
 STOP.S             22:38:18 10-Nov-20: STOP TIME  22:38:18 10-Nov-20
 STEP.S                   0.00: STEP TIME
 NULL.                 -999.25: NULL VALUE
 DFWT.                        :  DIST FWL TEXT
 DFST.                        :  DIST FSL TEXT
 DMF .             Drill Floor:  DRILL MEAS FROM
 STIM.      04.54.24 22-Sep-20:  START TIME
 DATE.      04.54.24 21-Nov-20:  END TIME
 SPUD.               21-Nov-20:  SPUD DATE
 NREF.                    Grid:  NORTH REFERENCE
 HPTY.       Minimum Curvature:  HOLE POS TYPE
 DMOD.             Drill Model:  DRILL MOD DESC
 SVYD.                  Survey:  SURVEY DESC
 ILTD.               Lithology:  INTERP LTH DESC
 FTOP.          Formation Tops:  FORM TOPS DESC
 SON .        AZ-XX-0906571587:  JOB NUMBER
 COMP.     BP Exploration (Caspian Sea) Ltd:  COMPANY
 UWI .                     N/A:  UNIQUE WELL IDENTIFIER
 API .                     N/A:  API NUMBER
 BASE.              Azerbaijan:  LOGGING EQUIPMENT BASE LOCATION
 REGN.                   EESSA:  REGION
 PROV.                    Baku:  PROVINCE
 STAT.                    Baku:  STATE NAME
 CTRY.              Azerbaijan:  COUNTRY NAME
 FLD .                     ACG:  FIELD NAME
 SRVC.     TURAN Drilling & Engineering:  CONTRACTOR
 WELL.                     J27:  WELL NAME
 RIG .             West Chirag:  RIG NAME
 DOE .                     N/A:  DOE NUMBER
 DCON.         Sperry Drilling:  DIRECTNL CONTR
 PDAT.          Mean Sea Level:  PERMANENT DATUM
 WTYP.                Deviated:  WELL TYPE
 MWDS.                    Baku:  MWD SHOP
 JOBN.        AZ-XX-0906571587:  JOB TICKET NUMB
 UNIT.                     N/A:  LOGGING EQUIPMENT ID
 MDS .        Operator Entered:  MAG DATA SOURCE
 CNTY.                        :  COUNTY
 LOC .                        :  LOCATION
 LMF .             Drill Floor:  LOG MEASURED FROM
 TVDS.m                  43.00:  TVDSS CORRECTN
 LATI.deg                40.13:  LATITUDE
 LONG.deg                51.22:  LONGITUDE
 WHNS.m                   7.72:  WELL HEAD N/S
 WHEW.m                 -14.24:  WELL HEAD E/W
 UTMX.m              519005.06:  UTM X
 UTMY.m             4443793.85:  UTM Y
 DFWL.m                   0.00:  DISTANCE FWL
 DFSL.m                   0.00:  DISTANCE FSL
 SDEP.m                 347.00:  START DEPTH
 TDD .m                 581.00:  TOTAL DEPTH (DRILLER)
 VSDR.deg               159.72:  VERT SEC DIRECT
 GVFD.g                   1.00:  GRAVITY FIELD
 MFLD.nT              50313.00:  MAGNETIC FIELD
 MDIP.deg                59.58:  MAGNETIC DIP
 MDEC.deg                 6.45:  MAGNETIC DECL
 GRDC.deg                 0.15:  GRID CORRECTION
 AZTC.deg                 6.30:  AZM TOTAL CORR
 EPD .m                   0.00:  ELEVATION
 EGL .m                   0.00:  GROUND ELEVATION
 WDMS.m                 169.80:  WD ELEV
 APD .m                  43.00:  DEPTH ABOVE PD
 AGAP.m                  43.00:  AIR GAP
 VSEW.m                 -14.24:  VERT SEC E/W
 VSNS.m                   7.72:  VERT SEC N/S
 DEP .m                 342.45:  DEPTH
 EKB .m                   0.00:  KB ELEVATION
 EDF .m                  43.00:  DF ELEVATION
 TDL .m                1313.00:  TOTAL DEPTH (LOGGER)
 VSC .                       0:  VS TO CLOSURE
 MAGU.                 1851396:  MAGUTM CHECKSUM
~Parameter Information Block
#MNEM.UNIT       Value        Description
#---------     -----------    ---------------------------
 AV  .mps                 0.65:  Ann Velocity 
 AVMX.mps                 0.75:  Max Ann Veloc 
 AZIF.deg               115.08:  Azm, Final 
 BHAT.        Rotary Steerable:  BHA Type 
 BROT.°/30m               1.50:  Build Rotating 
 BS  .in                 12.25:  Bit Size 
 BSZ .in                 12.25:  Bit Size 
 BTPL.psig              700.00:  Bit Press Loss 
 CABU.                     Yes:  Customer Abuse 
 COMM.                     ”Õ`:  Run Comments 1 
 TCS .hr                121.00:  Time Ciculation Ended 
 CV  .mps                 1.83:  Crit Velocity 
 CVMX.mps                 1.83:  Max Crit Veloc 
 DD1 .          Rashad Habibov:  Direct Drillr 1 
 DD2 .         Rasim Ibrahimov:  Direct Drillr 2 
 DDSV.                 iCruise:  DD Service 
 DEFF.%                 100.00:  % Det Eff 
 DLRX.°/30m               3.60:  Dogleg Rot Max 
 DLSO.°/30m               3.10:  Dogleg Oriented 
 DLSX.°/30m               3.60:  Dogleg Str Max 
 DRET.      13.41.20 12-Nov-20:  Drill End Time 
 DRST.      13.41.20 07-Nov-20:  Drill Start Tim 
 DTIM.hr                 54.16:  Time Drilling 
 EDEP.m                4762.01:  End Depth 
 ENG1.           Amrah Tahirov:  Engineer 1 
 ENG2.      Bakhtiyar Jabbarli:  Engineer 2 
 ENG3.          Ruslan Safarov:  Engineer 3 
 ETIM.      13.41.20 14-Nov-20:  End Time 
 FLOI.gpm              1200.00:  Flow In 
 FLON.gpm              1100.00:  Flow In Min 
 FLOS.cptm                0.00:  Fluid Loss 
 FLOX.gpm              1200.00:  Flow In Max 
 HFLO.                      No:  High Flow 
 HPRE.                      No:  High Pressure 
 HTEM.                      No:  High Temp 
 HYDO.m                   2.00:  Hydro Offset 
 IFIN.deg                66.14:  Inc, Final 
 IMAX.deg                69.03:  Inc Max 
 IMIN.deg                64.64:  Inc Min 
 IMND.m                4450.16:  Inc Min Depth 
 IMXD.m                3996.00:  Inc Max Depth 
 JARR.                     Yes:  Jarring 
 LETM.      13.41.20 14-Nov-20:  Log End Time 
 LOST.hr                     0:  Lost Rig Time 
 LSTM.      13.41.20 06-Nov-20:  Log Start Time 
 MDCL.ppm             42500.00:  Mud Chlorides 
 MDES.     Inversion Oil/Synthetic:  Mud Desc 
 DFD .sg                  1.45:  Mud Density 
 MDMN.sg                  1.45:  Dens Mud Min 
 MDMX.sg                  1.45:  Dens Mud Max 
 MOIL.                      70:  Run Mud Oil % 
 MOWR.                   70:30:  Run Mud OWR 
 MSND.                       0:  Run Mud Sand % 
 MSOL.                    19.3:  Run Mud Solids% 
 DFV .spqt               77.00:  Mud Viscosity 
 MWOD.in                  8.00:  MWD Tool OD 
 MWSI.                      No:  Serv Intrp, MWD 
 OTIM.hr                201.88:  Time Operating 
 PCON.           Look Like New:  Pad Condition 
 PMAX.psia             9250.94:  Press Op, Max 
 PV  .cP                 29.00:  Mud PV 
 RUN .                     800:  Run Number 
 ROPA.m/hr               28.00:  ROP Avg 
 ROPN.m/hr               25.00:  ROP Min 
 ROPX.m/hr               30.00:  ROP Max 
 RPMA.rpm               160.00:  RPM Surface Avg 
 RPMN.rpm               160.00:  RPM Surface Min 
 RPMX.rpm               160.00:  RPM Surface Max 
 RRUN.                    0800:  Rig Run Number 
 RTIM.hr                 12.00:  Time Reaming 
 SAZI.deg               169.33:  Azm, Start 
 SDEP.m                3449.01:  Start Depth 
 SIDD.                      No:  Serv Intrp, DD 
 SINC.deg                68.01:  Inc, Start 
 SPPA.psig             4900.00:  SPP Avg 
 SPPN.psig             4800.00:  SPP Min 
 SPPX.psig             5050.00:  SPP Max 
 STIM.      13.41.20 06-Nov-20:  Start Time 
 SVCS.                 DD, MWD:  Services 
 SVER.                    9.20:  Sperry Version 
 TDAT.m                4762.01:  Tot Depth Attmp 
 TDDF.                      No:  Trip for DD 
 TDLG.m                1313.00:  Tot Depth Loggd 
 TFF .                      No:  Trip for Fail 
 TQAA.f-kp               13.00:  Torque Abs Avg 
 TQAN.f-kp               13.00:  Torque Abs Min 
 TQAX.f-kp               13.00:  Torque Abs Max 
 TRRT.°/30m               1.70:  Turn Rotating 
 MRT .                  EWR-M5:  Maximum Recorded Temperature 
 TTMX.degC               86.00:  Max Tool Temp 
 VS01.                90622122:  Virtual Str1 SN 
 VS02.                90577298:  Virtual Str2 SN 
 VS03.                90563623:  Virtual Str3 SN 
 VS04.                90617559:  Virtual Str4 SN 
 VS05.                11339492:  Virtual Str5 SN 
 VS06.                12385033:  Virtual Str6 SN 
 WBMN.klb                 0.00:  WOB Min 
 WOBA.klb                22.00:  WOB Avg 
 WOBX.klb                26.00:  WOB Max 
 YP  .lhf2               30.00:  Yield Point 
~Curve Information Block
#MNEM.UNIT                 API CODE     Curve Description
#---------               -----------    ---------------------------
 TIME.HHMMSS            00 000 000 000:  GT Time & Date
 GTDEPTH.m              00 000 000 000:  GT Depth
 GTPQH.psia             00 000 000 000:  GT HR Quartz Pressure
 GTTQ.degC              00 000 000 000:  GT Quartz Temperature
 GTTN.NONE              00 000 000 000:  GT Test Number
 GTET.sec               00 000 000 000:  GT Elapsed Test Time
 GTTVD.m                00 000 000 000:  GT True Vertical Depth
#Other Information
#
#WARRANTY: Halliburton will use its best efforts to furnish customers with 
#accurate information and interpretations that are part of, and incident to, the services 
#provided.  However, Halliburton cannot and does not warrant the accuracy 
#or correctness of such information and interpretations.  Under no circumstances should any 
#such information or interpretation be relied upon as the sole basis for any drilling, 
#completion, production, or financial decision or any procedure involving any risk to the 
#safety of any drilling venture, drilling rig or its crew or any other third party.  The 
#Customer has full responsibility for all drilling, completion and production operation.  
#Halliburton makes no representations or warranties, either expressed or 
#implied, including, but not limited to, the implied warranties of merchantability or fitness 
#for a particular purpose, with respect to the services rendered.  In no event will 
#Halliburton be liable for failure to obtain any particular results or for 
#any damages, including, but not limited to, indirect, special or consequential damages, 
#resulting from the use of any information or interpretation provided by Halliburton.
#
~A           TIME           GTDEPTH  GTPQH  GTTQ  GTTN  GTET   GTTVD  
# ...
   22:34:26.783.10-Nov-2020 4535.01 3971.43 82.41 6.00 161.02 2393.67
   22:34:26.983.10-Nov-2020 4535.01 3971.43 82.41 6.00 161.22 2393.67
   22:34:27.184.10-Nov-2020 4535.01 3972.19 82.41 6.00 161.42 2393.67
   22:34:27.384.10-Nov-2020 4535.01 3971.71 82.41 6.00 161.62 2393.67
   22:34:27.584.10-Nov-2020 4535.01 3972.41 82.41 6.00 161.82 2393.67
   22:34:27.784.10-Nov-2020 4535.01 4011.37 82.41 6.00 162.02 2393.67
   22:34:27.984.10-Nov-2020 4535.01 4011.37 82.41 6.00 162.22 2393.67
   22:34:28.184.10-Nov-2020 4535.01 4058.29 82.41 6.00 162.42 2393.67
   22:34:28.384.10-Nov-2020 4535.01 4059.61 82.41 6.00 162.62 2393.67
   22:34:28.584.10-Nov-2020 4535.01 4059.76 82.41 6.00 162.82 2393.67
   22:34:28.784.10-Nov-2020 4535.01 4059.60 82.40 6.00 163.02 2393.67
   22:34:28.984.10-Nov-2020 4535.01 4059.84 82.40 6.00 163.22 2393.67
   22:34:29.184.10-Nov-2020 4535.01 4059.87 82.40 6.00 163.42 2393.67
   22:34:29.384.10-Nov-2020 4535.01 4060.27 82.40 6.00 163.62 2393.67
   22:34:29.584.10-Nov-2020 4535.01 4060.15 82.40 6.00 163.82 2393.67
   22:34:29.784.10-Nov-2020 4535.01 4060.25 82.40 6.00 164.02 2393.67
   22:34:29.984.10-Nov-2020 4535.01 4060.25 82.40 6.00 164.22 2393.67
   22:34:30.184.10-Nov-2020 4535.01 4060.35 82.40 6.00 164.42 2393.67
   22:34:30.384.10-Nov-2020 4535.01 4060.31 82.40 6.00 164.62 2393.67
   22:34:30.584.10-Nov-2020 4535.01 4060.39 82.39 6.00 164.82 2393.67
   22:34:30.784.10-Nov-2020 4535.01 4060.43 82.39 6.00 165.02 2393.67
   22:34:30.984.10-Nov-2020 4535.01 4060.43 82.39 6.00 165.22 2393.67
   22:34:31.184.10-Nov-2020 4535.01 4060.48 82.39 6.00 165.42 2393.67
   22:34:31.384.10-Nov-2020 4535.01 4060.46 82.39 6.00 165.62 2393.67
   22:34:31.584.10-Nov-2020 4535.01 4060.46 82.39 6.00 165.82 2393.67
   22:34:31.784.10-Nov-2020 4535.01 4060.50 82.39 6.00 166.02 2393.67
   22:34:31.984.10-Nov-2020 4535.01 4060.52 82.39 6.00 166.22 2393.67
   22:34:32.184.10-Nov-2020 4535.01 4060.61 82.39 6.00 166.42 2393.67
   22:34:32.384.10-Nov-2020 4535.01 4060.67 82.39 6.00 166.62 2393.67
   22:34:32.584.10-Nov-2020 4535.01 4060.55 82.38 6.00 166.82 2393.67
   22:34:32.784.10-Nov-2020 4535.01 4060.65 82.38 6.00 167.02 2393.67
   22:34:32.984.10-Nov-2020 4535.01 4060.65 82.38 6.00 167.22 2393.67
   22:34:33.184.10-Nov-2020 4535.01 4060.61 82.38 6.00 167.42 2393.67
   22:34:33.384.10-Nov-2020 4535.01 4060.65 82.38 6.00 167.62 2393.67
   22:34:33.584.10-Nov-2020 4535.01 4060.65 82.38 6.00 167.82 2393.67
   22:34:33.784.10-Nov-2020 4535.01 4060.69 82.38 6.00 168.02 2393.67
   22:34:33.984.10-Nov-2020 4535.01 4060.69 82.38 6.00 168.22 2393.67
   22:34:34.184.10-Nov-2020 4535.01 4060.69 82.38 6.00 168.42 2393.67
   22:34:34.384.10-Nov-2020 4535.01 4060.65 82.38 6.00 168.62 2393.67
   22:34:34.585.10-Nov-2020 4535.01 4060.69 82.37 6.00 168.82 2393.67
   22:34:34.785.10-Nov-2020 4535.01 4060.86 82.37 6.00 169.02 2393.67
   22:34:34.985.10-Nov-2020 4535.01 4060.86 82.37 6.00 169.22 2393.67
   22:34:35.185.10-Nov-2020 4535.01 4060.76 82.37 6.00 169.42 2393.67
   22:34:35.385.10-Nov-2020 4535.01 4060.80 82.37 6.00 169.62 2393.67
   22:34:35.585.10-Nov-2020 4535.01 4060.69 82.37 6.00 169.82 2393.67
   22:34:35.785.10-Nov-2020 4535.01 4060.69 82.37 6.00 170.02 2393.67
   22:34:35.985.10-Nov-2020 4535.01 4060.59 82.37 6.00 170.22 2393.67
   22:34:36.185.10-Nov-2020 4535.01 4060.99 82.37 6.00 170.42 2393.67
   22:34:36.385.10-Nov-2020 4535.01 4060.87 82.37 6.00 170.62 2393.67
   22:34:36.585.10-Nov-2020 4535.01 4060.70 82.36 6.00 170.82 2393.67
   22:34:36.785.10-Nov-2020 4535.01 4061.13 82.36 6.00 171.02 2393.67
   22:34:36.985.10-Nov-2020 4535.01 4060.72 82.36 6.00 171.22 2393.67
   22:34:37.185.10-Nov-2020 4535.01 4060.86 82.36 6.00 171.42 2393.67
   22:34:37.385.10-Nov-2020 4535.01 4060.81 82.36 6.00 171.62 2393.67
   22:34:37.585.10-Nov-2020 4535.01 4061.07 82.36 6.00 171.82 2393.67
   22:34:37.785.10-Nov-2020 4535.01 4060.96 82.36 6.00 172.02 2393.67
   22:34:37.985.10-Nov-2020 4535.01 4060.96 82.36 6.00 172.22 2393.67
   22:34:38.185.10-Nov-2020 4535.01 4060.88 82.36 6.00 172.42 2393.67
   22:34:38.385.10-Nov-2020 4535.01 4060.77 82.35 6.00 172.62 2393.67
   22:34:38.585.10-Nov-2020 4535.01 4060.83 82.35 6.00 172.82 2393.67
   22:34:38.785.10-Nov-2020 4535.01 4060.86 82.35 6.00 173.02 2393.67
   22:34:38.985.10-Nov-2020 4535.01 4060.86 82.35 6.00 173.22 2393.67
   22:34:39.185.10-Nov-2020 4535.01 4060.89 82.35 6.00 173.42 2393.67
   22:34:39.385.10-Nov-2020 4535.01 4060.80 82.35 6.00 173.62 2393.67
   22:34:39.585.10-Nov-2020 4535.01 4060.87 82.35 6.00 173.82 2393.67
   22:34:39.785.10-Nov-2020 4535.01 4060.83 82.35 6.00 174.02 2393.67
   22:34:39.985.10-Nov-2020 4535.01 4060.83 82.35 6.00 174.22 2393.67
   22:34:40.185.10-Nov-2020 4535.01 4060.85 82.34 6.00 174.42 2393.67
   22:34:40.385.10-Nov-2020 4535.01 4060.90 82.34 6.00 174.62 2393.67
   22:34:40.585.10-Nov-2020 4535.01 4060.95 82.34 6.00 174.82 2393.67
   22:34:40.785.10-Nov-2020 4535.01 4060.83 82.34 6.00 175.02 2393.67
   22:34:40.985.10-Nov-2020 4535.01 4060.83 82.34 6.00 175.22 2393.67
   22:34:41.185.10-Nov-2020 4535.01 4060.90 82.34 6.00 175.42 2393.67
   22:34:41.385.10-Nov-2020 4535.01 4060.85 82.34 6.00 175.62 2393.67
   22:34:41.585.10-Nov-2020 4535.01 4060.78 82.34 6.00 175.82 2393.67
   22:34:41.785.10-Nov-2020 4535.01 4060.86 82.34 6.00 176.02 2393.67
   22:34:41.986.10-Nov-2020 4535.01 4060.86 82.34 6.00 176.22 2393.67
   22:34:42.186.10-Nov-2020 4535.01 4060.84 82.33 6.00 176.42 2393.67
   22:34:42.386.10-Nov-2020 4535.01 4060.83 82.33 6.00 176.62 2393.67
   22:34:42.586.10-Nov-2020 4535.01 4060.85 82.33 6.00 176.82 2393.67
   22:34:42.786.10-Nov-2020 4535.01 4060.85 82.33 6.00 177.02 2393.67
   22:34:42.986.10-Nov-2020 4535.01 4060.85 82.33 6.00 177.22 2393.67
   22:34:43.186.10-Nov-2020 4535.01 4060.92 82.33 6.00 177.42 2393.67
   22:34:43.386.10-Nov-2020 4535.01 4060.87 82.33 6.00 177.62 2393.67
   22:34:43.586.10-Nov-2020 4535.01 4060.94 82.33 6.00 177.82 2393.67
   22:34:43.786.10-Nov-2020 4535.01 4061.00 82.33 6.00 178.02 2393.67
   22:34:43.986.10-Nov-2020 4535.01 4060.83 82.32 6.00 178.22 2393.67
   22:34:44.186.10-Nov-2020 4535.01 4060.93 82.32 6.00 178.42 2393.67
   22:34:44.386.10-Nov-2020 4535.01 4060.82 82.32 6.00 178.62 2393.67
   22:34:44.586.10-Nov-2020 4535.01 4060.99 82.32 6.00 178.82 2393.67
   22:34:44.786.10-Nov-2020 4535.01 4060.95 82.32 6.00 179.02 2393.67
   22:34:44.986.10-Nov-2020 4535.01 4060.84 82.32 6.00 179.22 2393.67
   22:34:45.186.10-Nov-2020 4535.01 4060.79 82.32 6.00 179.42 2393.67
   22:34:45.386.10-Nov-2020 4535.01 4061.02 82.32 6.00 179.62 2393.67
   22:34:45.586.10-Nov-2020 4535.01 4061.03 82.32 6.00 179.82 2393.67
   22:34:45.786.10-Nov-2020 4535.01 4061.00 82.32 6.00 180.02 2393.67
   22:34:45.986.10-Nov-2020 4535.01 4061.00 82.32 6.00 180.22 2393.67
   22:34:46.186.10-Nov-2020 4535.01 4061.01 82.31 6.00 180.42 2393.67
   22:34:46.386.10-Nov-2020 4535.01 4061.06 82.31 6.00 180.62 2393.67
   22:34:46.586.10-Nov-2020 4535.01 4060.86 82.31 6.00 180.82 2393.67
   22:34:46.786.10-Nov-2020 4535.01 4060.94 82.31 6.00 181.02 2393.67
   22:34:46.986.10-Nov-2020 4535.01 4060.94 82.31 6.00 181.22 2393.67
   22:34:47.186.10-Nov-2020 4535.01 4060.99 82.31 6.00 181.42 2393.67
   22:34:47.386.10-Nov-2020 4535.01 4060.83 82.31 6.00 181.62 2393.67
   22:34:47.586.10-Nov-2020 4535.01 4060.91 82.31 6.00 181.82 2393.67
   22:34:47.786.10-Nov-2020 4535.01 4060.88 82.30 6.00 182.02 2393.67
   22:34:47.986.10-Nov-2020 4535.01 4060.88 82.30 6.00 182.22 2393.67
   22:34:48.186.10-Nov-2020 4535.01 4061.00 82.30 6.00 182.42 2393.67
   22:34:48.386.10-Nov-2020 4535.01 4060.88 82.30 6.00 182.62 2393.67
   22:34:48.586.10-Nov-2020 4535.01 4060.92 82.30 6.00 182.82 2393.67
   22:34:48.786.10-Nov-2020 4535.01 4060.87 82.30 6.00 183.02 2393.67
   22:34:48.986.10-Nov-2020 4535.01 4060.94 82.30 6.00 183.22 2393.67
   22:34:49.186.10-Nov-2020 4535.01 4060.88 82.30 6.00 183.42 2393.67
   22:34:49.387.10-Nov-2020 4535.01 4061.15 82.30 6.00 183.62 2393.67
   22:34:49.587.10-Nov-2020 4535.01 4060.92 82.30 6.00 183.82 2393.67
