~Version Information
 VERS.                  2.0:   CWLS log ASCII Standard -VERSION 2.0
 WRAP.                   NO:   One line per depth step
~Well Information Block
#MNEM.UNIT     VALUE/NAME     DESCRIPTION
#---------     -----------    ---------------------------
 STRT.S             09:21:26 08-Nov-20: START TIME 09:21:26 08-Nov-20
 STOP.S             09:27:58 08-Nov-20: STOP TIME  09:27:58 08-Nov-20
 STEP.S                   0.00: STEP TIME
 NULL.                 -999.25: NULL VALUE
 DFWT.                        :  DIST FWL TEXT
 DFST.                        :  DIST FSL TEXT
 DMF .             Drill Floor:  DRILL MEAS FROM
 STIM.      04.54.24 22-Sep-20:  START TIME
 DATE.      04.54.24 21-Nov-20:  END TIME
 SPUD.               21-Nov-20:  SPUD DATE
 NREF.                    Grid:  NORTH REFERENCE
 HPTY.       Minimum Curvature:  HOLE POS TYPE
 DMOD.             Drill Model:  DRILL MOD DESC
 SVYD.                  Survey:  SURVEY DESC
 ILTD.               Lithology:  INTERP LTH DESC
 FTOP.          Formation Tops:  FORM TOPS DESC
 SON .        AZ-XX-0906571587:  JOB NUMBER
 COMP.     BP Exploration (Caspian Sea) Ltd:  COMPANY
 UWI .                     N/A:  UNIQUE WELL IDENTIFIER
 API .                     N/A:  API NUMBER
 BASE.              Azerbaijan:  LOGGING EQUIPMENT BASE LOCATION
 REGN.                   EESSA:  REGION
 PROV.                    Baku:  PROVINCE
 STAT.                    Baku:  STATE NAME
 CTRY.              Azerbaijan:  COUNTRY NAME
 FLD .                     ACG:  FIELD NAME
 SRVC.     TURAN Drilling & Engineering:  CONTRACTOR
 WELL.                     J27:  WELL NAME
 RIG .             West Chirag:  RIG NAME
 DOE .                     N/A:  DOE NUMBER
 DCON.         Sperry Drilling:  DIRECTNL CONTR
 PDAT.          Mean Sea Level:  PERMANENT DATUM
 WTYP.                Deviated:  WELL TYPE
 MWDS.                    Baku:  MWD SHOP
 JOBN.        AZ-XX-0906571587:  JOB TICKET NUMB
 UNIT.                     N/A:  LOGGING EQUIPMENT ID
 MDS .        Operator Entered:  MAG DATA SOURCE
 CNTY.                        :  COUNTY
 LOC .                        :  LOCATION
 LMF .             Drill Floor:  LOG MEASURED FROM
 TVDS.m                  43.00:  TVDSS CORRECTN
 LATI.deg                40.13:  LATITUDE
 LONG.deg                51.22:  LONGITUDE
 WHNS.m                   7.72:  WELL HEAD N/S
 WHEW.m                 -14.24:  WELL HEAD E/W
 UTMX.m              519005.06:  UTM X
 UTMY.m             4443793.85:  UTM Y
 DFWL.m                   0.00:  DISTANCE FWL
 DFSL.m                   0.00:  DISTANCE FSL
 SDEP.m                 347.00:  START DEPTH
 TDD .m                 581.00:  TOTAL DEPTH (DRILLER)
 VSDR.deg               159.72:  VERT SEC DIRECT
 GVFD.g                   1.00:  GRAVITY FIELD
 MFLD.nT              50313.00:  MAGNETIC FIELD
 MDIP.deg                59.58:  MAGNETIC DIP
 MDEC.deg                 6.45:  MAGNETIC DECL
 GRDC.deg                 0.15:  GRID CORRECTION
 AZTC.deg                 6.30:  AZM TOTAL CORR
 EPD .m                   0.00:  ELEVATION
 EGL .m                   0.00:  GROUND ELEVATION
 WDMS.m                 169.80:  WD ELEV
 APD .m                  43.00:  DEPTH ABOVE PD
 AGAP.m                  43.00:  AIR GAP
 VSEW.m                 -14.24:  VERT SEC E/W
 VSNS.m                   7.72:  VERT SEC N/S
 DEP .m                 342.45:  DEPTH
 EKB .m                   0.00:  KB ELEVATION
 EDF .m                  43.00:  DF ELEVATION
 TDL .m                1313.00:  TOTAL DEPTH (LOGGER)
 VSC .                       0:  VS TO CLOSURE
 MAGU.                 1851396:  MAGUTM CHECKSUM
~Parameter Information Block
#MNEM.UNIT       Value        Description
#---------     -----------    ---------------------------
 AV  .mps                 0.65:  Ann Velocity 
 AVMX.mps                 0.75:  Max Ann Veloc 
 AZIF.deg               115.08:  Azm, Final 
 BHAT.        Rotary Steerable:  BHA Type 
 BROT.°/30m               1.50:  Build Rotating 
 BS  .in                 12.25:  Bit Size 
 BSZ .in                 12.25:  Bit Size 
 BTPL.psig              700.00:  Bit Press Loss 
 CABU.                     Yes:  Customer Abuse 
 COMM.                     <
V:  Run Comments 1 
 TCS .hr                121.00:  Time Ciculation Ended 
 CV  .mps                 1.83:  Crit Velocity 
 CVMX.mps                 1.83:  Max Crit Veloc 
 DD1 .          Rashad Habibov:  Direct Drillr 1 
 DD2 .         Rasim Ibrahimov:  Direct Drillr 2 
 DDSV.                 iCruise:  DD Service 
 DEFF.%                 100.00:  % Det Eff 
 DLRX.°/30m               3.60:  Dogleg Rot Max 
 DLSO.°/30m               3.10:  Dogleg Oriented 
 DLSX.°/30m               3.60:  Dogleg Str Max 
 DRET.      13.41.20 12-Nov-20:  Drill End Time 
 DRST.      13.41.20 07-Nov-20:  Drill Start Tim 
 DTIM.hr                 54.16:  Time Drilling 
 EDEP.m                4762.01:  End Depth 
 ENG1.           Amrah Tahirov:  Engineer 1 
 ENG2.      Bakhtiyar Jabbarli:  Engineer 2 
 ENG3.          Ruslan Safarov:  Engineer 3 
 ETIM.      13.41.20 14-Nov-20:  End Time 
 FLOI.gpm              1200.00:  Flow In 
 FLON.gpm              1100.00:  Flow In Min 
 FLOS.cptm                0.00:  Fluid Loss 
 FLOX.gpm              1200.00:  Flow In Max 
 HFLO.                      No:  High Flow 
 HPRE.                      No:  High Pressure 
 HTEM.                      No:  High Temp 
 HYDO.m                   2.00:  Hydro Offset 
 IFIN.deg                66.14:  Inc, Final 
 IMAX.deg                69.03:  Inc Max 
 IMIN.deg                64.64:  Inc Min 
 IMND.m                4450.16:  Inc Min Depth 
 IMXD.m                3996.00:  Inc Max Depth 
 JARR.                     Yes:  Jarring 
 LETM.      13.41.20 14-Nov-20:  Log End Time 
 LOST.hr                     0:  Lost Rig Time 
 LSTM.      13.41.20 06-Nov-20:  Log Start Time 
 MDCL.ppm             42500.00:  Mud Chlorides 
 MDES.     Inversion Oil/Synthetic:  Mud Desc 
 DFD .sg                  1.45:  Mud Density 
 MDMN.sg                  1.45:  Dens Mud Min 
 MDMX.sg                  1.45:  Dens Mud Max 
 MOIL.                      70:  Run Mud Oil % 
 MOWR.                   70:30:  Run Mud OWR 
 MSND.                       0:  Run Mud Sand % 
 MSOL.                    19.3:  Run Mud Solids% 
 DFV .spqt               77.00:  Mud Viscosity 
 MWOD.in                  8.00:  MWD Tool OD 
 MWSI.                      No:  Serv Intrp, MWD 
 OTIM.hr                201.88:  Time Operating 
 PCON.           Look Like New:  Pad Condition 
 PMAX.psia             9250.94:  Press Op, Max 
 PV  .cP                 29.00:  Mud PV 
 RUN .                     800:  Run Number 
 ROPA.m/hr               28.00:  ROP Avg 
 ROPN.m/hr               25.00:  ROP Min 
 ROPX.m/hr               30.00:  ROP Max 
 RPMA.rpm               160.00:  RPM Surface Avg 
 RPMN.rpm               160.00:  RPM Surface Min 
 RPMX.rpm               160.00:  RPM Surface Max 
 RRUN.                    0800:  Rig Run Number 
 RTIM.hr                 12.00:  Time Reaming 
 SAZI.deg               169.33:  Azm, Start 
 SDEP.m                3449.01:  Start Depth 
 SIDD.                      No:  Serv Intrp, DD 
 SINC.deg                68.01:  Inc, Start 
 SPPA.psig             4900.00:  SPP Avg 
 SPPN.psig             4800.00:  SPP Min 
 SPPX.psig             5050.00:  SPP Max 
 STIM.      13.41.20 06-Nov-20:  Start Time 
 SVCS.                 DD, MWD:  Services 
 SVER.                    9.20:  Sperry Version 
 TDAT.m                4762.01:  Tot Depth Attmp 
 TDDF.                      No:  Trip for DD 
 TDLG.m                1313.00:  Tot Depth Loggd 
 TFF .                      No:  Trip for Fail 
 TQAA.f-kp               13.00:  Torque Abs Avg 
 TQAN.f-kp               13.00:  Torque Abs Min 
 TQAX.f-kp               13.00:  Torque Abs Max 
 TRRT.°/30m               1.70:  Turn Rotating 
 MRT .                  EWR-M5:  Maximum Recorded Temperature 
 TTMX.degC               86.00:  Max Tool Temp 
 VS01.                90622122:  Virtual Str1 SN 
 VS02.                90577298:  Virtual Str2 SN 
 VS03.                90563623:  Virtual Str3 SN 
 VS04.                90617559:  Virtual Str4 SN 
 VS05.                11339492:  Virtual Str5 SN 
 VS06.                12385033:  Virtual Str6 SN 
 WBMN.klb                 0.00:  WOB Min 
 WOBA.klb                22.00:  WOB Avg 
 WOBX.klb                26.00:  WOB Max 
 YP  .lhf2               30.00:  Yield Point 
~Curve Information Block
#MNEM.UNIT                 API CODE     Curve Description
#---------               -----------    ---------------------------
 TIME.HHMMSS            00 000 000 000:  GT Time & Date
 GTDEPTH.m              00 000 000 000:  GT Depth
 GTPQH.psia             00 000 000 000:  GT HR Quartz Pressure
 GTTQ.degC              00 000 000 000:  GT Quartz Temperature
 GTTN.NONE              00 000 000 000:  GT Test Number
 GTET.sec               00 000 000 000:  GT Elapsed Test Time
 GTTVD.m                00 000 000 000:  GT True Vertical Depth
#Other Information
#
#WARRANTY: Halliburton will use its best efforts to furnish customers with 
#accurate information and interpretations that are part of, and incident to, the services 
#provided.  However, Halliburton cannot and does not warrant the accuracy 
#or correctness of such information and interpretations.  Under no circumstances should any 
#such information or interpretation be relied upon as the sole basis for any drilling, 
#completion, production, or financial decision or any procedure involving any risk to the 
#safety of any drilling venture, drilling rig or its crew or any other third party.  The 
#Customer has full responsibility for all drilling, completion and production operation.  
#Halliburton makes no representations or warranties, either expressed or 
#implied, including, but not limited to, the implied warranties of merchantability or fitness 
#for a particular purpose, with respect to the services rendered.  In no event will 
#Halliburton be liable for failure to obtain any particular results or for 
#any damages, including, but not limited to, indirect, special or consequential damages, 
#resulting from the use of any information or interpretation provided by Halliburton.
#
~A           TIME           GTDEPTH  GTPQH  GTTQ  GTTN  GTET   GTTVD  
# ...
   09:25:16.216.08-Nov-2020 3525.51 3323.35 70.06 1.00 230.04 2012.77
   09:25:16.417.08-Nov-2020 3525.51 3323.35 70.06 1.00 230.24 2012.77
   09:25:16.617.08-Nov-2020 3525.51 3323.35 70.06 1.00 230.44 2012.77
   09:25:16.817.08-Nov-2020 3525.51 3323.35 70.06 1.00 230.64 2012.77
   09:25:17.017.08-Nov-2020 3525.51 3323.34 70.06 1.00 230.84 2012.77
   09:25:17.217.08-Nov-2020 3525.51 3323.34 70.06 1.00 231.04 2012.77
   09:25:17.417.08-Nov-2020 3525.51 3323.34 70.06 1.00 231.24 2012.77
   09:25:17.617.08-Nov-2020 3525.51 3323.29 70.06 1.00 231.44 2012.77
   09:25:17.817.08-Nov-2020 3525.51 3323.35 70.06 1.00 231.64 2012.77
   09:25:18.017.08-Nov-2020 3525.51 3323.36 70.06 1.00 231.84 2012.77
   09:25:18.217.08-Nov-2020 3525.51 3323.36 70.06 1.00 232.04 2012.77
   09:25:18.417.08-Nov-2020 3525.51 3323.36 70.06 1.00 232.24 2012.77
   09:25:18.617.08-Nov-2020 3525.51 3323.35 70.06 1.00 232.44 2012.77
   09:25:18.817.08-Nov-2020 3525.51 3323.35 70.06 1.00 232.64 2012.77
   09:25:19.017.08-Nov-2020 3525.51 3323.36 70.06 1.00 232.84 2012.77
   09:25:19.217.08-Nov-2020 3525.51 3323.34 70.06 1.00 233.04 2012.77
   09:25:19.417.08-Nov-2020 3525.51 3323.34 70.06 1.00 233.24 2012.77
   09:25:19.617.08-Nov-2020 3525.51 3323.34 70.06 1.00 233.44 2012.77
   09:25:19.817.08-Nov-2020 3525.51 3323.34 70.06 1.00 233.64 2012.77
   09:25:20.017.08-Nov-2020 3525.51 3323.34 70.06 1.00 233.84 2012.77
   09:25:20.217.08-Nov-2020 3525.51 3323.28 70.06 1.00 234.04 2012.77
   09:25:20.417.08-Nov-2020 3525.51 3323.28 70.06 1.00 234.24 2012.77
   09:25:20.617.08-Nov-2020 3525.51 3323.32 70.06 1.00 234.44 2012.77
   09:25:20.817.08-Nov-2020 3525.51 3323.35 70.06 1.00 234.64 2012.77
   09:25:21.017.08-Nov-2020 3525.51 3323.35 70.05 1.00 234.84 2012.77
   09:25:21.217.08-Nov-2020 3525.51 3323.36 70.05 1.00 235.04 2012.77
   09:25:21.417.08-Nov-2020 3525.51 3323.36 70.05 1.00 235.24 2012.77
   09:25:21.617.08-Nov-2020 3525.51 3323.35 70.05 1.00 235.44 2012.77
   09:25:21.817.08-Nov-2020 3525.51 3323.31 70.05 1.00 235.64 2012.77
   09:25:22.017.08-Nov-2020 3525.51 3323.36 70.05 1.00 235.84 2012.77
   09:25:22.218.08-Nov-2020 3525.51 3323.36 70.05 1.00 236.04 2012.77
   09:25:22.418.08-Nov-2020 3525.51 3323.36 70.05 1.00 236.24 2012.77
   09:25:22.618.08-Nov-2020 3525.51 3323.37 70.05 1.00 236.44 2012.77
   09:25:22.818.08-Nov-2020 3525.51 3323.31 70.05 1.00 236.64 2012.77
   09:25:23.018.08-Nov-2020 3525.51 3323.38 70.05 1.00 236.84 2012.77
   09:25:23.218.08-Nov-2020 3525.51 3323.37 70.05 1.00 237.04 2012.77
   09:25:23.418.08-Nov-2020 3525.51 3323.36 70.05 1.00 237.24 2012.77
   09:25:23.618.08-Nov-2020 3525.51 3323.33 70.05 1.00 237.44 2012.77
   09:25:23.818.08-Nov-2020 3525.51 3323.34 70.05 1.00 237.64 2012.77
   09:25:24.018.08-Nov-2020 3525.51 3323.36 70.05 1.00 237.84 2012.77
   09:25:24.218.08-Nov-2020 3525.51 3323.37 70.05 1.00 238.04 2012.77
   09:25:24.418.08-Nov-2020 3525.51 3323.37 70.05 1.00 238.24 2012.77
   09:25:24.618.08-Nov-2020 3525.51 3323.36 70.05 1.00 238.44 2012.77
   09:25:24.818.08-Nov-2020 3525.51 3323.36 70.05 1.00 238.64 2012.77
   09:25:25.018.08-Nov-2020 3525.51 3323.35 70.05 1.00 238.84 2012.77
   09:25:25.218.08-Nov-2020 3525.51 3323.36 70.05 1.00 239.04 2012.77
   09:25:25.418.08-Nov-2020 3525.51 3323.36 70.05 1.00 239.24 2012.77
   09:25:25.618.08-Nov-2020 3525.51 3323.35 70.04 1.00 239.44 2012.77
   09:25:25.818.08-Nov-2020 3525.51 3323.36 70.04 1.00 239.64 2012.77
   09:25:26.018.08-Nov-2020 3525.51 3323.35 70.04 1.00 239.84 2012.77
   09:25:26.218.08-Nov-2020 3525.51 3323.35 70.04 1.00 240.04 2012.77
   09:25:26.418.08-Nov-2020 3525.51 3323.35 70.04 1.00 240.24 2012.77
   09:25:26.618.08-Nov-2020 3525.51 3323.32 70.04 1.00 240.44 2012.77
   09:25:26.818.08-Nov-2020 3525.51 3323.36 70.04 1.00 240.64 2012.77
   09:25:27.018.08-Nov-2020 3525.51 3323.36 70.04 1.00 240.84 2012.77
   09:25:27.218.08-Nov-2020 3525.51 3323.35 70.04 1.00 241.04 2012.77
   09:25:27.418.08-Nov-2020 3525.51 3323.35 70.04 1.00 241.24 2012.77
   09:25:27.618.08-Nov-2020 3525.51 3323.35 70.04 1.00 241.44 2012.77
   09:25:27.818.08-Nov-2020 3525.51 3323.36 70.04 1.00 241.64 2012.77
   09:25:28.018.08-Nov-2020 3525.51 3323.36 70.04 1.00 241.84 2012.77
   09:25:28.219.08-Nov-2020 3525.51 3323.35 70.04 1.00 242.04 2012.77
   09:25:28.419.08-Nov-2020 3525.51 3323.35 70.04 1.00 242.24 2012.77
   09:25:28.619.08-Nov-2020 3525.51 3323.35 70.04 1.00 242.44 2012.77
   09:25:28.819.08-Nov-2020 3525.51 3323.35 70.04 1.00 242.64 2012.77
   09:25:29.019.08-Nov-2020 3525.51 3323.28 70.04 1.00 242.84 2012.77
   09:25:29.219.08-Nov-2020 3525.51 3323.36 70.04 1.00 243.04 2012.77
   09:25:29.419.08-Nov-2020 3525.51 3323.36 70.04 1.00 243.24 2012.77
   09:25:29.619.08-Nov-2020 3525.51 3323.31 70.04 1.00 243.44 2012.77
   09:25:29.819.08-Nov-2020 3525.51 3323.37 70.04 1.00 243.64 2012.77
   09:25:30.019.08-Nov-2020 3525.51 3323.37 70.04 1.00 243.84 2012.77
   09:25:30.219.08-Nov-2020 3525.51 3323.37 70.04 1.00 244.04 2012.77
   09:25:30.419.08-Nov-2020 3525.51 3323.37 70.04 1.00 244.24 2012.77
   09:25:30.619.08-Nov-2020 3525.51 3323.37 70.03 1.00 244.44 2012.77
   09:25:30.819.08-Nov-2020 3525.51 3323.30 70.03 1.00 244.64 2012.77
   09:25:31.019.08-Nov-2020 3525.51 3323.36 70.03 1.00 244.84 2012.77
   09:25:31.219.08-Nov-2020 3525.51 3323.37 70.03 1.00 245.04 2012.77
   09:25:31.419.08-Nov-2020 3525.51 3323.37 70.03 1.00 245.24 2012.77
   09:25:31.619.08-Nov-2020 3525.51 3323.38 70.03 1.00 245.44 2012.77
   09:25:31.819.08-Nov-2020 3525.51 3323.31 70.03 1.00 245.64 2012.77
   09:25:32.019.08-Nov-2020 3525.51 3323.37 70.03 1.00 245.84 2012.77
   09:25:32.219.08-Nov-2020 3525.51 3323.37 70.03 1.00 246.04 2012.77
   09:25:32.419.08-Nov-2020 3525.51 3323.37 70.03 1.00 246.24 2012.77
   09:25:32.619.08-Nov-2020 3525.51 3323.31 70.03 1.00 246.44 2012.77
   09:25:32.819.08-Nov-2020 3525.51 3323.37 70.03 1.00 246.64 2012.77
   09:25:33.019.08-Nov-2020 3525.51 3323.38 70.03 1.00 246.84 2012.77
   09:25:33.219.08-Nov-2020 3525.51 3323.38 70.03 1.00 247.04 2012.77
   09:25:33.419.08-Nov-2020 3525.51 3323.38 70.03 1.00 247.24 2012.77
   09:25:33.619.08-Nov-2020 3525.51 3323.36 70.03 1.00 247.44 2012.77
   09:25:33.819.08-Nov-2020 3525.51 3323.37 70.03 1.00 247.64 2012.77
   09:25:34.020.08-Nov-2020 3525.51 3323.36 70.03 1.00 247.84 2012.77
   09:25:34.220.08-Nov-2020 3525.51 3323.36 70.03 1.00 248.04 2012.77
   09:25:34.420.08-Nov-2020 3525.51 3323.36 70.03 1.00 248.24 2012.77
   09:25:34.620.08-Nov-2020 3525.51 3323.35 70.03 1.00 248.44 2012.77
   09:25:34.820.08-Nov-2020 3525.51 3323.35 70.03 1.00 248.64 2012.77
   09:25:35.020.08-Nov-2020 3525.51 3323.35 70.02 1.00 248.84 2012.77
   09:25:35.220.08-Nov-2020 3525.51 3323.34 70.02 1.00 249.04 2012.77
   09:25:35.420.08-Nov-2020 3525.51 3323.34 70.02 1.00 249.24 2012.77
   09:25:35.620.08-Nov-2020 3525.51 3323.37 70.02 1.00 249.44 2012.77
   09:25:35.820.08-Nov-2020 3525.51 3323.36 70.02 1.00 249.64 2012.77
   09:25:36.020.08-Nov-2020 3525.51 3323.35 70.02 1.00 249.84 2012.77
   09:25:36.220.08-Nov-2020 3525.51 3323.37 70.02 1.00 250.04 2012.77
   09:25:36.420.08-Nov-2020 3525.51 3323.37 70.02 1.00 250.24 2012.77
   09:25:36.620.08-Nov-2020 3525.51 3323.36 70.02 1.00 250.44 2012.77
   09:25:36.820.08-Nov-2020 3525.51 3323.36 70.02 1.00 250.64 2012.77
   09:25:37.020.08-Nov-2020 3525.51 3323.34 70.02 1.00 250.84 2012.77
   09:25:37.220.08-Nov-2020 3525.51 3323.35 70.02 1.00 251.04 2012.77
   09:25:37.420.08-Nov-2020 3525.51 3323.35 70.02 1.00 251.24 2012.77
   09:25:37.620.08-Nov-2020 3525.51 3323.35 70.02 1.00 251.44 2012.77
   09:25:37.820.08-Nov-2020 3525.51 3323.35 70.02 1.00 251.64 2012.77
   09:25:38.020.08-Nov-2020 3525.51 3323.30 70.02 1.00 251.84 2012.77
   09:25:38.220.08-Nov-2020 3525.51 3323.36 70.02 1.00 252.04 2012.77
   09:25:38.420.08-Nov-2020 3525.51 3323.36 70.02 1.00 252.24 2012.77
   09:25:38.620.08-Nov-2020 3525.51 3323.32 70.02 1.00 252.44 2012.77
   09:25:38.820.08-Nov-2020 3525.51 3323.37 70.02 1.00 252.64 2012.77
   09:25:39.020.08-Nov-2020 3525.51 3323.36 70.02 1.00 252.84 2012.77
