~Version Information
 VERS.                  2.0:   CWLS log ASCII Standard -VERSION 2.0
 WRAP.                   NO:   One line per depth step
~Well Information Block
#MNEM.UNIT     VALUE/NAME     DESCRIPTION
#---------     -----------    ---------------------------
 STRT.S             22:31:45 10-Nov-20: START TIME 22:31:45 10-Nov-20
 STOP.S             22:38:18 10-Nov-20: STOP TIME  22:38:18 10-Nov-20
 STEP.S                   0.00: STEP TIME
 NULL.                 -999.25: NULL VALUE
 DFWT.                        :  DIST FWL TEXT
 DFST.                        :  DIST FSL TEXT
 DMF .             Drill Floor:  DRILL MEAS FROM
 STIM.      04.54.24 22-Sep-20:  START TIME
 DATE.      04.54.24 21-Nov-20:  END TIME
 SPUD.               21-Nov-20:  SPUD DATE
 NREF.                    Grid:  NORTH REFERENCE
 HPTY.       Minimum Curvature:  HOLE POS TYPE
 DMOD.             Drill Model:  DRILL MOD DESC
 SVYD.                  Survey:  SURVEY DESC
 ILTD.               Lithology:  INTERP LTH DESC
 FTOP.          Formation Tops:  FORM TOPS DESC
 SON .        AZ-XX-0906571587:  JOB NUMBER
 COMP.     BP Exploration (Caspian Sea) Ltd:  COMPANY
 UWI .                     N/A:  UNIQUE WELL IDENTIFIER
 API .                     N/A:  API NUMBER
 BASE.              Azerbaijan:  LOGGING EQUIPMENT BASE LOCATION
 REGN.                   EESSA:  REGION
 PROV.                    Baku:  PROVINCE
 STAT.                    Baku:  STATE NAME
 CTRY.              Azerbaijan:  COUNTRY NAME
 FLD .                     ACG:  FIELD NAME
 SRVC.     TURAN Drilling & Engineering:  CONTRACTOR
 WELL.                     J27:  WELL NAME
 RIG .             West Chirag:  RIG NAME
 DOE .                     N/A:  DOE NUMBER
 DCON.         Sperry Drilling:  DIRECTNL CONTR
 PDAT.          Mean Sea Level:  PERMANENT DATUM
 WTYP.                Deviated:  WELL TYPE
 MWDS.                    Baku:  MWD SHOP
 JOBN.        AZ-XX-0906571587:  JOB TICKET NUMB
 UNIT.                     N/A:  LOGGING EQUIPMENT ID
 MDS .        Operator Entered:  MAG DATA SOURCE
 CNTY.                        :  COUNTY
 LOC .                        :  LOCATION
 LMF .             Drill Floor:  LOG MEASURED FROM
 TVDS.m                  43.00:  TVDSS CORRECTN
 LATI.deg                40.13:  LATITUDE
 LONG.deg                51.22:  LONGITUDE
 WHNS.m                   7.72:  WELL HEAD N/S
 WHEW.m                 -14.24:  WELL HEAD E/W
 UTMX.m              519005.06:  UTM X
 UTMY.m             4443793.85:  UTM Y
 DFWL.m                   0.00:  DISTANCE FWL
 DFSL.m                   0.00:  DISTANCE FSL
 SDEP.m                 347.00:  START DEPTH
 TDD .m                 581.00:  TOTAL DEPTH (DRILLER)
 VSDR.deg               159.72:  VERT SEC DIRECT
 GVFD.g                   1.00:  GRAVITY FIELD
 MFLD.nT              50313.00:  MAGNETIC FIELD
 MDIP.deg                59.58:  MAGNETIC DIP
 MDEC.deg                 6.45:  MAGNETIC DECL
 GRDC.deg                 0.15:  GRID CORRECTION
 AZTC.deg                 6.30:  AZM TOTAL CORR
 EPD .m                   0.00:  ELEVATION
 EGL .m                   0.00:  GROUND ELEVATION
 WDMS.m                 169.80:  WD ELEV
 APD .m                  43.00:  DEPTH ABOVE PD
 AGAP.m                  43.00:  AIR GAP
 VSEW.m                 -14.24:  VERT SEC E/W
 VSNS.m                   7.72:  VERT SEC N/S
 DEP .m                 342.45:  DEPTH
 EKB .m                   0.00:  KB ELEVATION
 EDF .m                  43.00:  DF ELEVATION
 TDL .m                1313.00:  TOTAL DEPTH (LOGGER)
 VSC .                       0:  VS TO CLOSURE
 MAGU.                 1851396:  MAGUTM CHECKSUM
~Parameter Information Block
#MNEM.UNIT       Value        Description
#---------     -----------    ---------------------------
 AV  .mps                 0.65:  Ann Velocity 
 AVMX.mps                 0.75:  Max Ann Veloc 
 AZIF.deg               115.08:  Azm, Final 
 BHAT.        Rotary Steerable:  BHA Type 
 BROT.°/30m               1.50:  Build Rotating 
 BS  .in                 12.25:  Bit Size 
 BSZ .in                 12.25:  Bit Size 
 BTPL.psig              700.00:  Bit Press Loss 
 CABU.                     Yes:  Customer Abuse 
 COMM.                     ”Õ`:  Run Comments 1 
 TCS .hr                121.00:  Time Ciculation Ended 
 CV  .mps                 1.83:  Crit Velocity 
 CVMX.mps                 1.83:  Max Crit Veloc 
 DD1 .          Rashad Habibov:  Direct Drillr 1 
 DD2 .         Rasim Ibrahimov:  Direct Drillr 2 
 DDSV.                 iCruise:  DD Service 
 DEFF.%                 100.00:  % Det Eff 
 DLRX.°/30m               3.60:  Dogleg Rot Max 
 DLSO.°/30m               3.10:  Dogleg Oriented 
 DLSX.°/30m               3.60:  Dogleg Str Max 
 DRET.      13.41.20 12-Nov-20:  Drill End Time 
 DRST.      13.41.20 07-Nov-20:  Drill Start Tim 
 DTIM.hr                 54.16:  Time Drilling 
 EDEP.m                4762.01:  End Depth 
 ENG1.           Amrah Tahirov:  Engineer 1 
 ENG2.      Bakhtiyar Jabbarli:  Engineer 2 
 ENG3.          Ruslan Safarov:  Engineer 3 
 ETIM.      13.41.20 14-Nov-20:  End Time 
 FLOI.gpm              1200.00:  Flow In 
 FLON.gpm              1100.00:  Flow In Min 
 FLOS.cptm                0.00:  Fluid Loss 
 FLOX.gpm              1200.00:  Flow In Max 
 HFLO.                      No:  High Flow 
 HPRE.                      No:  High Pressure 
 HTEM.                      No:  High Temp 
 HYDO.m                   2.00:  Hydro Offset 
 IFIN.deg                66.14:  Inc, Final 
 IMAX.deg                69.03:  Inc Max 
 IMIN.deg                64.64:  Inc Min 
 IMND.m                4450.16:  Inc Min Depth 
 IMXD.m                3996.00:  Inc Max Depth 
 JARR.                     Yes:  Jarring 
 LETM.      13.41.20 14-Nov-20:  Log End Time 
 LOST.hr                     0:  Lost Rig Time 
 LSTM.      13.41.20 06-Nov-20:  Log Start Time 
 MDCL.ppm             42500.00:  Mud Chlorides 
 MDES.     Inversion Oil/Synthetic:  Mud Desc 
 DFD .sg                  1.45:  Mud Density 
 MDMN.sg                  1.45:  Dens Mud Min 
 MDMX.sg                  1.45:  Dens Mud Max 
 MOIL.                      70:  Run Mud Oil % 
 MOWR.                   70:30:  Run Mud OWR 
 MSND.                       0:  Run Mud Sand % 
 MSOL.                    19.3:  Run Mud Solids% 
 DFV .spqt               77.00:  Mud Viscosity 
 MWOD.in                  8.00:  MWD Tool OD 
 MWSI.                      No:  Serv Intrp, MWD 
 OTIM.hr                201.88:  Time Operating 
 PCON.           Look Like New:  Pad Condition 
 PMAX.psia             9250.94:  Press Op, Max 
 PV  .cP                 29.00:  Mud PV 
 RUN .                     800:  Run Number 
 ROPA.m/hr               28.00:  ROP Avg 
 ROPN.m/hr               25.00:  ROP Min 
 ROPX.m/hr               30.00:  ROP Max 
 RPMA.rpm               160.00:  RPM Surface Avg 
 RPMN.rpm               160.00:  RPM Surface Min 
 RPMX.rpm               160.00:  RPM Surface Max 
 RRUN.                    0800:  Rig Run Number 
 RTIM.hr                 12.00:  Time Reaming 
 SAZI.deg               169.33:  Azm, Start 
 SDEP.m                3449.01:  Start Depth 
 SIDD.                      No:  Serv Intrp, DD 
 SINC.deg                68.01:  Inc, Start 
 SPPA.psig             4900.00:  SPP Avg 
 SPPN.psig             4800.00:  SPP Min 
 SPPX.psig             5050.00:  SPP Max 
 STIM.      13.41.20 06-Nov-20:  Start Time 
 SVCS.                 DD, MWD:  Services 
 SVER.                    9.20:  Sperry Version 
 TDAT.m                4762.01:  Tot Depth Attmp 
 TDDF.                      No:  Trip for DD 
 TDLG.m                1313.00:  Tot Depth Loggd 
 TFF .                      No:  Trip for Fail 
 TQAA.f-kp               13.00:  Torque Abs Avg 
 TQAN.f-kp               13.00:  Torque Abs Min 
 TQAX.f-kp               13.00:  Torque Abs Max 
 TRRT.°/30m               1.70:  Turn Rotating 
 MRT .                  EWR-M5:  Maximum Recorded Temperature 
 TTMX.degC               86.00:  Max Tool Temp 
 VS01.                90622122:  Virtual Str1 SN 
 VS02.                90577298:  Virtual Str2 SN 
 VS03.                90563623:  Virtual Str3 SN 
 VS04.                90617559:  Virtual Str4 SN 
 VS05.                11339492:  Virtual Str5 SN 
 VS06.                12385033:  Virtual Str6 SN 
 WBMN.klb                 0.00:  WOB Min 
 WOBA.klb                22.00:  WOB Avg 
 WOBX.klb                26.00:  WOB Max 
 YP  .lhf2               30.00:  Yield Point 
~Curve Information Block
#MNEM.UNIT                 API CODE     Curve Description
#---------               -----------    ---------------------------
 TIME.HHMMSS            00 000 000 000:  GT Time & Date
 GTDEPTH.m              00 000 000 000:  GT Depth
 GTPQH.psia             00 000 000 000:  GT HR Quartz Pressure
 GTTQ.degC              00 000 000 000:  GT Quartz Temperature
 GTTN.NONE              00 000 000 000:  GT Test Number
 GTET.sec               00 000 000 000:  GT Elapsed Test Time
 GTTVD.m                00 000 000 000:  GT True Vertical Depth
#Other Information
#
#WARRANTY: Halliburton will use its best efforts to furnish customers with 
#accurate information and interpretations that are part of, and incident to, the services 
#provided.  However, Halliburton cannot and does not warrant the accuracy 
#or correctness of such information and interpretations.  Under no circumstances should any 
#such information or interpretation be relied upon as the sole basis for any drilling, 
#completion, production, or financial decision or any procedure involving any risk to the 
#safety of any drilling venture, drilling rig or its crew or any other third party.  The 
#Customer has full responsibility for all drilling, completion and production operation.  
#Halliburton makes no representations or warranties, either expressed or 
#implied, including, but not limited to, the implied warranties of merchantability or fitness 
#for a particular purpose, with respect to the services rendered.  In no event will 
#Halliburton be liable for failure to obtain any particular results or for 
#any damages, including, but not limited to, indirect, special or consequential damages, 
#resulting from the use of any information or interpretation provided by Halliburton.
#
~A           TIME           GTDEPTH  GTPQH  GTTQ  GTTN  GTET   GTTVD  
# ...
   22:36:21.799.10-Nov-2020 4535.01 4060.89 81.82 6.00 276.04 2393.67
   22:36:21.999.10-Nov-2020 4535.01 4060.89 81.82 6.00 276.24 2393.67
   22:36:22.199.10-Nov-2020 4535.01 4060.81 81.81 6.00 276.44 2393.67
   22:36:22.399.10-Nov-2020 4535.01 4060.86 81.81 6.00 276.64 2393.67
   22:36:22.599.10-Nov-2020 4535.01 4060.77 81.81 6.00 276.84 2393.67
   22:36:22.799.10-Nov-2020 4535.01 4060.83 81.81 6.00 277.04 2393.67
   22:36:22.999.10-Nov-2020 4535.01 4060.83 81.81 6.00 277.24 2393.67
   22:36:23.199.10-Nov-2020 4535.01 4060.92 81.81 6.00 277.44 2393.67
   22:36:23.399.10-Nov-2020 4535.01 4060.79 81.81 6.00 277.64 2393.67
   22:36:23.599.10-Nov-2020 4535.01 4060.88 81.81 6.00 277.84 2393.67
   22:36:23.799.10-Nov-2020 4535.01 4060.72 81.81 6.00 278.04 2393.67
   22:36:23.999.10-Nov-2020 4535.01 4060.72 81.80 6.00 278.24 2393.67
   22:36:24.199.10-Nov-2020 4535.01 4060.93 81.80 6.00 278.44 2393.67
   22:36:24.399.10-Nov-2020 4535.01 4060.81 81.80 6.00 278.64 2393.67
   22:36:24.599.10-Nov-2020 4535.01 4060.78 81.80 6.00 278.84 2393.67
   22:36:24.799.10-Nov-2020 4535.01 4060.85 81.80 6.00 279.04 2393.67
   22:36:24.999.10-Nov-2020 4535.01 4060.84 81.80 6.00 279.24 2393.67
   22:36:25.199.10-Nov-2020 4535.01 4060.84 81.80 6.00 279.44 2393.67
   22:36:25.400.10-Nov-2020 4535.01 4060.81 81.80 6.00 279.64 2393.67
   22:36:25.600.10-Nov-2020 4535.01 4060.80 81.80 6.00 279.84 2393.67
   22:36:25.800.10-Nov-2020 4535.01 4060.86 81.80 6.00 280.04 2393.67
   22:36:26.000.10-Nov-2020 4535.01 4060.86 81.80 6.00 280.24 2393.67
   22:36:26.200.10-Nov-2020 4535.01 4060.92 81.79 6.00 280.44 2393.67
   22:36:26.400.10-Nov-2020 4535.01 4060.70 81.79 6.00 280.64 2393.67
   22:36:26.600.10-Nov-2020 4535.01 4060.83 81.79 6.00 280.84 2393.67
   22:36:26.800.10-Nov-2020 4535.01 4060.82 81.79 6.00 281.04 2393.67
   22:36:27.000.10-Nov-2020 4535.01 4060.82 81.79 6.00 281.24 2393.67
   22:36:27.200.10-Nov-2020 4535.01 4060.86 81.79 6.00 281.44 2393.67
   22:36:27.400.10-Nov-2020 4535.01 4060.78 81.79 6.00 281.64 2393.67
   22:36:27.600.10-Nov-2020 4535.01 4060.75 81.79 6.00 281.84 2393.67
   22:36:27.800.10-Nov-2020 4535.01 4060.83 81.79 6.00 282.04 2393.67
   22:36:28.000.10-Nov-2020 4535.01 4060.83 81.78 6.00 282.24 2393.67
   22:36:28.200.10-Nov-2020 4535.01 4060.81 81.78 6.00 282.44 2393.67
   22:36:28.400.10-Nov-2020 4535.01 4060.81 81.78 6.00 282.64 2393.67
   22:36:28.600.10-Nov-2020 4535.01 4060.84 81.78 6.00 282.84 2393.67
   22:36:28.800.10-Nov-2020 4535.01 4060.85 81.78 6.00 283.04 2393.67
   22:36:29.000.10-Nov-2020 4535.01 4060.84 81.78 6.00 283.24 2393.67
   22:36:29.200.10-Nov-2020 4535.01 4060.88 81.78 6.00 283.44 2393.67
   22:36:29.400.10-Nov-2020 4535.01 4060.92 81.78 6.00 283.64 2393.67
   22:36:29.600.10-Nov-2020 4535.01 4060.87 81.78 6.00 283.84 2393.67
   22:36:29.800.10-Nov-2020 4535.01 4060.74 81.78 6.00 284.04 2393.67
   22:36:30.000.10-Nov-2020 4535.01 4060.74 81.78 6.00 284.24 2393.67
   22:36:30.200.10-Nov-2020 4535.01 4060.93 81.77 6.00 284.44 2393.67
   22:36:30.400.10-Nov-2020 4535.01 4060.80 81.77 6.00 284.64 2393.67
   22:36:30.600.10-Nov-2020 4535.01 4060.79 81.77 6.00 284.84 2393.67
   22:36:30.800.10-Nov-2020 4535.01 4060.84 81.77 6.00 285.04 2393.67
   22:36:31.000.10-Nov-2020 4535.01 4060.84 81.77 6.00 285.24 2393.67
   22:36:31.200.10-Nov-2020 4535.01 4060.96 81.77 6.00 285.44 2393.67
   22:36:31.400.10-Nov-2020 4535.01 4060.89 81.77 6.00 285.64 2393.67
   22:36:31.600.10-Nov-2020 4535.01 4060.88 81.77 6.00 285.84 2393.67
   22:36:31.800.10-Nov-2020 4535.01 4060.87 81.76 6.00 286.04 2393.67
   22:36:32.000.10-Nov-2020 4535.01 4060.87 81.76 6.00 286.24 2393.67
   22:36:32.200.10-Nov-2020 4535.01 4060.97 81.76 6.00 286.44 2393.67
   22:36:32.400.10-Nov-2020 4535.01 4060.75 81.76 6.00 286.64 2393.67
   22:36:32.600.10-Nov-2020 4535.01 4060.93 81.76 6.00 286.84 2393.67
   22:36:32.801.10-Nov-2020 4535.01 4060.96 81.76 6.00 287.04 2393.67
   22:36:33.001.10-Nov-2020 4535.01 4060.96 81.76 6.00 287.24 2393.67
   22:36:33.201.10-Nov-2020 4535.01 4060.82 81.76 6.00 287.44 2393.67
   22:36:33.401.10-Nov-2020 4535.01 4060.91 81.76 6.00 287.64 2393.67
   22:36:33.601.10-Nov-2020 4535.01 4060.88 81.76 6.00 287.84 2393.67
   22:36:33.801.10-Nov-2020 4535.01 4060.97 81.75 6.00 288.04 2393.67
   22:36:34.001.10-Nov-2020 4535.01 4060.97 81.75 6.00 288.24 2393.67
   22:36:34.201.10-Nov-2020 4535.01 4060.90 81.75 6.00 288.44 2393.67
   22:36:34.401.10-Nov-2020 4535.01 4060.89 81.75 6.00 288.64 2393.67
   22:36:34.601.10-Nov-2020 4535.01 4060.89 81.75 6.00 288.84 2393.67
   22:36:34.801.10-Nov-2020 4535.01 4060.89 81.75 6.00 289.04 2393.67
   22:36:35.001.10-Nov-2020 4535.01 4060.89 81.75 6.00 289.24 2393.67
   22:36:35.201.10-Nov-2020 4535.01 4060.94 81.75 6.00 289.44 2393.67
   22:36:35.401.10-Nov-2020 4535.01 4060.80 81.75 6.00 289.64 2393.67
   22:36:35.601.10-Nov-2020 4535.01 4060.85 81.75 6.00 289.84 2393.67
   22:36:35.801.10-Nov-2020 4535.01 4060.86 81.74 6.00 290.04 2393.67
   22:36:36.001.10-Nov-2020 4535.01 4060.86 81.74 6.00 290.24 2393.67
   22:36:36.201.10-Nov-2020 4535.01 4060.82 81.74 6.00 290.44 2393.67
   22:36:36.401.10-Nov-2020 4535.01 4060.86 81.74 6.00 290.64 2393.67
   22:36:36.601.10-Nov-2020 4535.01 4060.90 81.74 6.00 290.84 2393.67
   22:36:36.801.10-Nov-2020 4535.01 4060.86 81.74 6.00 291.04 2393.67
   22:36:37.001.10-Nov-2020 4535.01 4060.90 81.74 6.00 291.24 2393.67
   22:36:37.201.10-Nov-2020 4535.01 4060.84 81.74 6.00 291.44 2393.67
   22:36:37.401.10-Nov-2020 4535.01 4060.87 81.74 6.00 291.64 2393.67
   22:36:37.601.10-Nov-2020 4535.01 4061.05 81.74 6.00 291.84 2393.67
   22:36:37.801.10-Nov-2020 4535.01 4060.80 81.73 6.00 292.04 2393.67
   22:36:38.001.10-Nov-2020 4535.01 4060.80 81.73 6.00 292.24 2393.67
   22:36:38.201.10-Nov-2020 4535.01 4060.99 81.73 6.00 292.44 2393.67
   22:36:38.401.10-Nov-2020 4535.01 4060.79 81.73 6.00 292.64 2393.67
   22:36:38.601.10-Nov-2020 4535.01 4060.92 81.73 6.00 292.84 2393.67
   22:36:38.801.10-Nov-2020 4535.01 4060.82 81.73 6.00 293.04 2393.67
   22:36:39.001.10-Nov-2020 4535.01 4060.82 81.73 6.00 293.24 2393.67
   22:36:39.201.10-Nov-2020 4535.01 4061.00 81.73 6.00 293.44 2393.67
   22:36:39.401.10-Nov-2020 4535.01 4060.89 81.73 6.00 293.64 2393.67
   22:36:39.601.10-Nov-2020 4535.01 4060.85 81.72 6.00 293.84 2393.67
   22:36:39.801.10-Nov-2020 4535.01 4060.90 81.72 6.00 294.04 2393.67
   22:36:40.001.10-Nov-2020 4535.01 4060.95 81.72 6.00 294.24 2393.67
   22:36:40.202.10-Nov-2020 4535.01 4060.87 81.72 6.00 294.44 2393.67
   22:36:40.402.10-Nov-2020 4535.01 4060.95 81.72 6.00 294.64 2393.67
   22:36:40.602.10-Nov-2020 4535.01 4060.99 81.72 6.00 294.84 2393.67
   22:36:40.802.10-Nov-2020 4535.01 4060.99 81.72 6.00 295.04 2393.67
   22:36:41.002.10-Nov-2020 4535.01 4061.07 81.72 6.00 295.24 2393.67
   22:36:41.202.10-Nov-2020 4535.01 4060.72 81.72 6.00 295.44 2393.67
   22:36:41.402.10-Nov-2020 4535.01 4060.90 81.72 6.00 295.64 2393.67
   22:36:41.602.10-Nov-2020 4535.01 4060.95 81.71 6.00 295.84 2393.67
   22:36:41.802.10-Nov-2020 4535.01 4060.92 81.71 6.00 296.04 2393.67
   22:36:42.002.10-Nov-2020 4535.01 4060.92 81.71 6.00 296.24 2393.67
   22:36:42.202.10-Nov-2020 4535.01 4060.90 81.71 6.00 296.44 2393.67
   22:36:42.402.10-Nov-2020 4535.01 4060.91 81.71 6.00 296.64 2393.67
   22:36:42.602.10-Nov-2020 4535.01 4060.93 81.71 6.00 296.84 2393.67
   22:36:42.802.10-Nov-2020 4535.01 4060.96 81.71 6.00 297.04 2393.67
   22:36:43.002.10-Nov-2020 4535.01 4060.96 81.71 6.00 297.24 2393.67
   22:36:43.202.10-Nov-2020 4535.01 4060.90 81.71 6.00 297.44 2393.67
   22:36:43.402.10-Nov-2020 4535.01 4060.91 81.71 6.00 297.64 2393.67
   22:36:43.602.10-Nov-2020 4535.01 4060.92 81.70 6.00 297.84 2393.67
   22:36:43.802.10-Nov-2020 4535.01 4060.89 81.70 6.00 298.04 2393.67
   22:36:44.002.10-Nov-2020 4535.01 4060.89 81.70 6.00 298.24 2393.67
   22:36:44.202.10-Nov-2020 4535.01 4060.87 81.70 6.00 298.44 2393.67
   22:36:44.402.10-Nov-2020 4535.01 4060.81 81.70 6.00 298.64 2393.67
   22:36:44.602.10-Nov-2020 4535.01 4060.82 81.70 6.00 298.84 2393.67
