~Version Information
 VERS.                  2.0:   CWLS log ASCII Standard -VERSION 2.0
 WRAP.                   NO:   One line per depth step
~Well Information Block
#MNEM.UNIT     VALUE/NAME     DESCRIPTION
#---------     -----------    ---------------------------
 STRT.S             22:31:45 10-Nov-20: START TIME 22:31:45 10-Nov-20
 STOP.S             22:38:18 10-Nov-20: STOP TIME  22:38:18 10-Nov-20
 STEP.S                   0.00: STEP TIME
 NULL.                 -999.25: NULL VALUE
 DFWT.                        :  DIST FWL TEXT
 DFST.                        :  DIST FSL TEXT
 DMF .             Drill Floor:  DRILL MEAS FROM
 STIM.      04.54.24 22-Sep-20:  START TIME
 DATE.      04.54.24 21-Nov-20:  END TIME
 SPUD.               21-Nov-20:  SPUD DATE
 NREF.                    Grid:  NORTH REFERENCE
 HPTY.       Minimum Curvature:  HOLE POS TYPE
 DMOD.             Drill Model:  DRILL MOD DESC
 SVYD.                  Survey:  SURVEY DESC
 ILTD.               Lithology:  INTERP LTH DESC
 FTOP.          Formation Tops:  FORM TOPS DESC
 SON .        AZ-XX-0906571587:  JOB NUMBER
 COMP.     BP Exploration (Caspian Sea) Ltd:  COMPANY
 UWI .                     N/A:  UNIQUE WELL IDENTIFIER
 API .                     N/A:  API NUMBER
 BASE.              Azerbaijan:  LOGGING EQUIPMENT BASE LOCATION
 REGN.                   EESSA:  REGION
 PROV.                    Baku:  PROVINCE
 STAT.                    Baku:  STATE NAME
 CTRY.              Azerbaijan:  COUNTRY NAME
 FLD .                     ACG:  FIELD NAME
 SRVC.     TURAN Drilling & Engineering:  CONTRACTOR
 WELL.                     J27:  WELL NAME
 RIG .             West Chirag:  RIG NAME
 DOE .                     N/A:  DOE NUMBER
 DCON.         Sperry Drilling:  DIRECTNL CONTR
 PDAT.          Mean Sea Level:  PERMANENT DATUM
 WTYP.                Deviated:  WELL TYPE
 MWDS.                    Baku:  MWD SHOP
 JOBN.        AZ-XX-0906571587:  JOB TICKET NUMB
 UNIT.                     N/A:  LOGGING EQUIPMENT ID
 MDS .        Operator Entered:  MAG DATA SOURCE
 CNTY.                        :  COUNTY
 LOC .                        :  LOCATION
 LMF .             Drill Floor:  LOG MEASURED FROM
 TVDS.m                  43.00:  TVDSS CORRECTN
 LATI.deg                40.13:  LATITUDE
 LONG.deg                51.22:  LONGITUDE
 WHNS.m                   7.72:  WELL HEAD N/S
 WHEW.m                 -14.24:  WELL HEAD E/W
 UTMX.m              519005.06:  UTM X
 UTMY.m             4443793.85:  UTM Y
 DFWL.m                   0.00:  DISTANCE FWL
 DFSL.m                   0.00:  DISTANCE FSL
 SDEP.m                 347.00:  START DEPTH
 TDD .m                 581.00:  TOTAL DEPTH (DRILLER)
 VSDR.deg               159.72:  VERT SEC DIRECT
 GVFD.g                   1.00:  GRAVITY FIELD
 MFLD.nT              50313.00:  MAGNETIC FIELD
 MDIP.deg                59.58:  MAGNETIC DIP
 MDEC.deg                 6.45:  MAGNETIC DECL
 GRDC.deg                 0.15:  GRID CORRECTION
 AZTC.deg                 6.30:  AZM TOTAL CORR
 EPD .m                   0.00:  ELEVATION
 EGL .m                   0.00:  GROUND ELEVATION
 WDMS.m                 169.80:  WD ELEV
 APD .m                  43.00:  DEPTH ABOVE PD
 AGAP.m                  43.00:  AIR GAP
 VSEW.m                 -14.24:  VERT SEC E/W
 VSNS.m                   7.72:  VERT SEC N/S
 DEP .m                 342.45:  DEPTH
 EKB .m                   0.00:  KB ELEVATION
 EDF .m                  43.00:  DF ELEVATION
 TDL .m                1313.00:  TOTAL DEPTH (LOGGER)
 VSC .                       0:  VS TO CLOSURE
 MAGU.                 1851396:  MAGUTM CHECKSUM
~Parameter Information Block
#MNEM.UNIT       Value        Description
#---------     -----------    ---------------------------
 AV  .mps                 0.65:  Ann Velocity 
 AVMX.mps                 0.75:  Max Ann Veloc 
 AZIF.deg               115.08:  Azm, Final 
 BHAT.        Rotary Steerable:  BHA Type 
 BROT.°/30m               1.50:  Build Rotating 
 BS  .in                 12.25:  Bit Size 
 BSZ .in                 12.25:  Bit Size 
 BTPL.psig              700.00:  Bit Press Loss 
 CABU.                     Yes:  Customer Abuse 
 COMM.                     ”Õ`:  Run Comments 1 
 TCS .hr                121.00:  Time Ciculation Ended 
 CV  .mps                 1.83:  Crit Velocity 
 CVMX.mps                 1.83:  Max Crit Veloc 
 DD1 .          Rashad Habibov:  Direct Drillr 1 
 DD2 .         Rasim Ibrahimov:  Direct Drillr 2 
 DDSV.                 iCruise:  DD Service 
 DEFF.%                 100.00:  % Det Eff 
 DLRX.°/30m               3.60:  Dogleg Rot Max 
 DLSO.°/30m               3.10:  Dogleg Oriented 
 DLSX.°/30m               3.60:  Dogleg Str Max 
 DRET.      13.41.20 12-Nov-20:  Drill End Time 
 DRST.      13.41.20 07-Nov-20:  Drill Start Tim 
 DTIM.hr                 54.16:  Time Drilling 
 EDEP.m                4762.01:  End Depth 
 ENG1.           Amrah Tahirov:  Engineer 1 
 ENG2.      Bakhtiyar Jabbarli:  Engineer 2 
 ENG3.          Ruslan Safarov:  Engineer 3 
 ETIM.      13.41.20 14-Nov-20:  End Time 
 FLOI.gpm              1200.00:  Flow In 
 FLON.gpm              1100.00:  Flow In Min 
 FLOS.cptm                0.00:  Fluid Loss 
 FLOX.gpm              1200.00:  Flow In Max 
 HFLO.                      No:  High Flow 
 HPRE.                      No:  High Pressure 
 HTEM.                      No:  High Temp 
 HYDO.m                   2.00:  Hydro Offset 
 IFIN.deg                66.14:  Inc, Final 
 IMAX.deg                69.03:  Inc Max 
 IMIN.deg                64.64:  Inc Min 
 IMND.m                4450.16:  Inc Min Depth 
 IMXD.m                3996.00:  Inc Max Depth 
 JARR.                     Yes:  Jarring 
 LETM.      13.41.20 14-Nov-20:  Log End Time 
 LOST.hr                     0:  Lost Rig Time 
 LSTM.      13.41.20 06-Nov-20:  Log Start Time 
 MDCL.ppm             42500.00:  Mud Chlorides 
 MDES.     Inversion Oil/Synthetic:  Mud Desc 
 DFD .sg                  1.45:  Mud Density 
 MDMN.sg                  1.45:  Dens Mud Min 
 MDMX.sg                  1.45:  Dens Mud Max 
 MOIL.                      70:  Run Mud Oil % 
 MOWR.                   70:30:  Run Mud OWR 
 MSND.                       0:  Run Mud Sand % 
 MSOL.                    19.3:  Run Mud Solids% 
 DFV .spqt               77.00:  Mud Viscosity 
 MWOD.in                  8.00:  MWD Tool OD 
 MWSI.                      No:  Serv Intrp, MWD 
 OTIM.hr                201.88:  Time Operating 
 PCON.           Look Like New:  Pad Condition 
 PMAX.psia             9250.94:  Press Op, Max 
 PV  .cP                 29.00:  Mud PV 
 RUN .                     800:  Run Number 
 ROPA.m/hr               28.00:  ROP Avg 
 ROPN.m/hr               25.00:  ROP Min 
 ROPX.m/hr               30.00:  ROP Max 
 RPMA.rpm               160.00:  RPM Surface Avg 
 RPMN.rpm               160.00:  RPM Surface Min 
 RPMX.rpm               160.00:  RPM Surface Max 
 RRUN.                    0800:  Rig Run Number 
 RTIM.hr                 12.00:  Time Reaming 
 SAZI.deg               169.33:  Azm, Start 
 SDEP.m                3449.01:  Start Depth 
 SIDD.                      No:  Serv Intrp, DD 
 SINC.deg                68.01:  Inc, Start 
 SPPA.psig             4900.00:  SPP Avg 
 SPPN.psig             4800.00:  SPP Min 
 SPPX.psig             5050.00:  SPP Max 
 STIM.      13.41.20 06-Nov-20:  Start Time 
 SVCS.                 DD, MWD:  Services 
 SVER.                    9.20:  Sperry Version 
 TDAT.m                4762.01:  Tot Depth Attmp 
 TDDF.                      No:  Trip for DD 
 TDLG.m                1313.00:  Tot Depth Loggd 
 TFF .                      No:  Trip for Fail 
 TQAA.f-kp               13.00:  Torque Abs Avg 
 TQAN.f-kp               13.00:  Torque Abs Min 
 TQAX.f-kp               13.00:  Torque Abs Max 
 TRRT.°/30m               1.70:  Turn Rotating 
 MRT .                  EWR-M5:  Maximum Recorded Temperature 
 TTMX.degC               86.00:  Max Tool Temp 
 VS01.                90622122:  Virtual Str1 SN 
 VS02.                90577298:  Virtual Str2 SN 
 VS03.                90563623:  Virtual Str3 SN 
 VS04.                90617559:  Virtual Str4 SN 
 VS05.                11339492:  Virtual Str5 SN 
 VS06.                12385033:  Virtual Str6 SN 
 WBMN.klb                 0.00:  WOB Min 
 WOBA.klb                22.00:  WOB Avg 
 WOBX.klb                26.00:  WOB Max 
 YP  .lhf2               30.00:  Yield Point 
~Curve Information Block
#MNEM.UNIT                 API CODE     Curve Description
#---------               -----------    ---------------------------
 TIME.HHMMSS            00 000 000 000:  GT Time & Date
 GTDEPTH.m              00 000 000 000:  GT Depth
 GTPQH.psia             00 000 000 000:  GT HR Quartz Pressure
 GTTQ.degC              00 000 000 000:  GT Quartz Temperature
 GTTN.NONE              00 000 000 000:  GT Test Number
 GTET.sec               00 000 000 000:  GT Elapsed Test Time
 GTTVD.m                00 000 000 000:  GT True Vertical Depth
#Other Information
#
#WARRANTY: Halliburton will use its best efforts to furnish customers with 
#accurate information and interpretations that are part of, and incident to, the services 
#provided.  However, Halliburton cannot and does not warrant the accuracy 
#or correctness of such information and interpretations.  Under no circumstances should any 
#such information or interpretation be relied upon as the sole basis for any drilling, 
#completion, production, or financial decision or any procedure involving any risk to the 
#safety of any drilling venture, drilling rig or its crew or any other third party.  The 
#Customer has full responsibility for all drilling, completion and production operation.  
#Halliburton makes no representations or warranties, either expressed or 
#implied, including, but not limited to, the implied warranties of merchantability or fitness 
#for a particular purpose, with respect to the services rendered.  In no event will 
#Halliburton be liable for failure to obtain any particular results or for 
#any damages, including, but not limited to, indirect, special or consequential damages, 
#resulting from the use of any information or interpretation provided by Halliburton.
#
~A           TIME           GTDEPTH  GTPQH  GTTQ  GTTN  GTET   GTTVD  
# ...
   22:33:17.774.10-Nov-2020 4535.01 4061.20 82.79 6.00  92.01 2393.67
   22:33:17.974.10-Nov-2020 4535.01 4061.20 82.79 6.00  92.21 2393.67
   22:33:18.174.10-Nov-2020 4535.01 4061.11 82.79 6.00  92.41 2393.67
   22:33:18.374.10-Nov-2020 4535.01 4061.01 82.79 6.00  92.61 2393.67
   22:33:18.574.10-Nov-2020 4535.01 4061.05 82.79 6.00  92.81 2393.67
   22:33:18.774.10-Nov-2020 4535.01 4061.05 82.78 6.00  93.01 2393.67
   22:33:18.974.10-Nov-2020 4535.01 4061.05 82.78 6.00  93.21 2393.67
   22:33:19.174.10-Nov-2020 4535.01 4061.10 82.78 6.00  93.41 2393.67
   22:33:19.374.10-Nov-2020 4535.01 4061.11 82.78 6.00  93.61 2393.67
   22:33:19.574.10-Nov-2020 4535.01 4061.13 82.78 6.00  93.81 2393.67
   22:33:19.774.10-Nov-2020 4535.01 4061.08 82.78 6.00  94.01 2393.67
   22:33:19.974.10-Nov-2020 4535.01 4061.07 82.78 6.00  94.21 2393.67
   22:33:20.174.10-Nov-2020 4535.01 4061.11 82.78 6.00  94.41 2393.67
   22:33:20.374.10-Nov-2020 4535.01 4061.09 82.78 6.00  94.61 2393.67
   22:33:20.575.10-Nov-2020 4535.01 4061.34 82.77 6.00  94.81 2393.67
   22:33:20.775.10-Nov-2020 4535.01 4060.94 82.77 6.00  95.01 2393.67
   22:33:20.975.10-Nov-2020 4535.01 4061.01 82.77 6.00  95.21 2393.67
   22:33:21.175.10-Nov-2020 4535.01 4061.03 82.77 6.00  95.41 2393.67
   22:33:21.375.10-Nov-2020 4535.01 4061.10 82.77 6.00  95.61 2393.67
   22:33:21.575.10-Nov-2020 4535.01 4060.95 82.77 6.00  95.81 2393.67
   22:33:21.775.10-Nov-2020 4535.01 4061.07 82.77 6.00  96.01 2393.67
   22:33:21.975.10-Nov-2020 4535.01 4061.07 82.77 6.00  96.21 2393.67
   22:33:22.175.10-Nov-2020 4535.01 4061.09 82.77 6.00  96.41 2393.67
   22:33:22.375.10-Nov-2020 4535.01 4061.11 82.76 6.00  96.61 2393.67
   22:33:22.575.10-Nov-2020 4535.01 4061.05 82.76 6.00  96.81 2393.67
   22:33:22.775.10-Nov-2020 4535.01 4061.09 82.76 6.00  97.01 2393.67
   22:33:22.975.10-Nov-2020 4535.01 4061.09 82.76 6.00  97.21 2393.67
   22:33:23.175.10-Nov-2020 4535.01 4061.22 82.76 6.00  97.41 2393.67
   22:33:23.375.10-Nov-2020 4535.01 4061.12 82.76 6.00  97.61 2393.67
   22:33:23.575.10-Nov-2020 4535.01 4061.08 82.76 6.00  97.81 2393.67
   22:33:23.775.10-Nov-2020 4535.01 4061.08 82.76 6.00  98.01 2393.67
   22:33:23.975.10-Nov-2020 4535.01 4060.93 82.76 6.00  98.21 2393.67
   22:33:24.175.10-Nov-2020 4535.01 4061.05 82.75 6.00  98.41 2393.67
   22:33:24.375.10-Nov-2020 4535.01 4061.00 82.75 6.00  98.61 2393.67
   22:33:24.575.10-Nov-2020 4535.01 4061.11 82.75 6.00  98.81 2393.67
   22:33:24.775.10-Nov-2020 4535.01 4061.09 82.75 6.00  99.01 2393.67
   22:33:24.975.10-Nov-2020 4535.01 4061.03 82.75 6.00  99.21 2393.67
   22:33:25.175.10-Nov-2020 4535.01 4060.99 82.75 6.00  99.41 2393.67
   22:33:25.375.10-Nov-2020 4535.01 4061.17 82.75 6.00  99.61 2393.67
   22:33:25.575.10-Nov-2020 4535.01 4061.09 82.75 6.00  99.81 2393.67
   22:33:25.775.10-Nov-2020 4535.01 4061.15 82.75 6.00 100.01 2393.67
   22:33:25.975.10-Nov-2020 4535.01 4061.15 82.74 6.00 100.21 2393.67
   22:33:26.175.10-Nov-2020 4535.01 4061.06 82.74 6.00 100.41 2393.67
   22:33:26.375.10-Nov-2020 4535.01 4061.14 82.74 6.00 100.61 2393.67
   22:33:26.575.10-Nov-2020 4535.01 4061.00 82.74 6.00 100.81 2393.67
   22:33:26.775.10-Nov-2020 4535.01 4061.17 82.74 6.00 101.01 2393.67
   22:33:26.975.10-Nov-2020 4535.01 4061.05 82.74 6.00 101.21 2393.67
   22:33:27.175.10-Nov-2020 4535.01 4061.05 82.74 6.00 101.41 2393.67
   22:33:27.375.10-Nov-2020 4535.01 4060.97 82.74 6.00 101.61 2393.67
   22:33:27.575.10-Nov-2020 4535.01 4061.17 82.74 6.00 101.81 2393.67
   22:33:27.775.10-Nov-2020 4535.01 4061.03 82.73 6.00 102.01 2393.67
   22:33:27.976.10-Nov-2020 4535.01 4061.03 82.73 6.00 102.21 2393.67
   22:33:28.176.10-Nov-2020 4535.01 4061.14 82.73 6.00 102.41 2393.67
   22:33:28.376.10-Nov-2020 4535.01 4061.10 82.73 6.00 102.61 2393.67
   22:33:28.576.10-Nov-2020 4535.01 4061.12 82.73 6.00 102.81 2393.67
   22:33:28.776.10-Nov-2020 4535.01 4061.07 82.73 6.00 103.01 2393.67
   22:33:28.976.10-Nov-2020 4535.01 4061.07 82.73 6.00 103.21 2393.67
   22:33:29.176.10-Nov-2020 4535.01 4061.10 82.73 6.00 103.41 2393.67
   22:33:29.376.10-Nov-2020 4535.01 4061.07 82.73 6.00 103.61 2393.67
   22:33:29.576.10-Nov-2020 4535.01 4061.13 82.72 6.00 103.81 2393.67
   22:33:29.776.10-Nov-2020 4535.01 4061.09 82.72 6.00 104.01 2393.67
   22:33:29.976.10-Nov-2020 4535.01 4061.09 82.72 6.00 104.21 2393.67
   22:33:30.176.10-Nov-2020 4535.01 4061.06 82.72 6.00 104.41 2393.67
   22:33:30.376.10-Nov-2020 4535.01 4060.98 82.72 6.00 104.61 2393.67
   22:33:30.576.10-Nov-2020 4535.01 4061.03 82.72 6.00 104.81 2393.67
   22:33:30.776.10-Nov-2020 4535.01 4061.09 82.72 6.00 105.01 2393.67
   22:33:30.976.10-Nov-2020 4535.01 4061.09 82.72 6.00 105.21 2393.67
   22:33:31.176.10-Nov-2020 4535.01 4061.10 82.72 6.00 105.41 2393.67
   22:33:31.376.10-Nov-2020 4535.01 4061.05 82.71 6.00 105.61 2393.67
   22:33:31.576.10-Nov-2020 4535.01 4061.09 82.71 6.00 105.81 2393.67
   22:33:31.776.10-Nov-2020 4535.01 4061.07 82.71 6.00 106.01 2393.67
   22:33:31.976.10-Nov-2020 4535.01 4061.08 82.71 6.00 106.21 2393.67
   22:33:32.176.10-Nov-2020 4535.01 4061.18 82.71 6.00 106.41 2393.67
   22:33:32.376.10-Nov-2020 4535.01 4061.17 82.71 6.00 106.61 2393.67
   22:33:32.576.10-Nov-2020 4535.01 4061.09 82.71 6.00 106.81 2393.67
   22:33:32.776.10-Nov-2020 4535.01 4061.11 82.71 6.00 107.01 2393.67
   22:33:32.976.10-Nov-2020 4535.01 4061.11 82.71 6.00 107.21 2393.67
   22:33:33.176.10-Nov-2020 4535.01 4060.97 82.71 6.00 107.41 2393.67
   22:33:33.376.10-Nov-2020 4535.01 4060.92 82.70 6.00 107.61 2393.67
   22:33:33.576.10-Nov-2020 4535.01 4061.40 82.70 6.00 107.81 2393.67
   22:33:33.776.10-Nov-2020 4535.01 4060.88 82.70 6.00 108.01 2393.67
   22:33:33.976.10-Nov-2020 4535.01 4060.88 82.70 6.00 108.21 2393.67
   22:33:34.176.10-Nov-2020 4535.01 4061.07 82.70 6.00 108.41 2393.67
   22:33:34.376.10-Nov-2020 4535.01 4061.12 82.70 6.00 108.61 2393.67
   22:33:34.576.10-Nov-2020 4535.01 4061.03 82.70 6.00 108.81 2393.67
   22:33:34.776.10-Nov-2020 4535.01 4061.35 82.70 6.00 109.01 2393.67
   22:33:34.976.10-Nov-2020 4535.01 4061.08 82.70 6.00 109.21 2393.67
   22:33:35.176.10-Nov-2020 4535.01 4061.09 82.69 6.00 109.41 2393.67
   22:33:35.377.10-Nov-2020 4535.01 4060.97 82.69 6.00 109.61 2393.67
   22:33:35.577.10-Nov-2020 4535.01 4061.17 82.69 6.00 109.81 2393.67
   22:33:35.777.10-Nov-2020 4535.01 4060.99 82.69 6.00 110.01 2393.67
   22:33:35.977.10-Nov-2020 4535.01 4060.99 82.69 6.00 110.21 2393.67
   22:33:36.177.10-Nov-2020 4535.01 4061.04 82.69 6.00 110.41 2393.67
   22:33:36.377.10-Nov-2020 4535.01 4061.04 82.69 6.00 110.61 2393.67
   22:33:36.577.10-Nov-2020 4535.01 4061.06 82.69 6.00 110.81 2393.67
   22:33:36.777.10-Nov-2020 4535.01 4061.04 82.69 6.00 111.02 2393.67
   22:33:36.977.10-Nov-2020 4535.01 4061.08 82.68 6.00 111.22 2393.67
   22:33:37.177.10-Nov-2020 4535.01 4061.09 82.68 6.00 111.42 2393.67
   22:33:37.377.10-Nov-2020 4535.01 4061.11 82.68 6.00 111.62 2393.67
   22:33:37.577.10-Nov-2020 4535.01 4061.11 82.68 6.00 111.82 2393.67
   22:33:37.777.10-Nov-2020 4535.01 4061.01 82.68 6.00 112.02 2393.67
   22:33:37.977.10-Nov-2020 4535.01 4061.01 82.68 6.00 112.22 2393.67
   22:33:38.177.10-Nov-2020 4535.01 4061.06 82.68 6.00 112.42 2393.67
   22:33:38.377.10-Nov-2020 4535.01 4061.26 82.68 6.00 112.62 2393.67
   22:33:38.577.10-Nov-2020 4535.01 4060.95 82.68 6.00 112.82 2393.67
   22:33:38.777.10-Nov-2020 4535.01 4060.97 82.67 6.00 113.02 2393.67
   22:33:38.977.10-Nov-2020 4535.01 4060.97 82.67 6.00 113.22 2393.67
   22:33:39.177.10-Nov-2020 4535.01 4061.08 82.67 6.00 113.42 2393.67
   22:33:39.377.10-Nov-2020 4535.01 4060.94 82.67 6.00 113.62 2393.67
   22:33:39.577.10-Nov-2020 4535.01 4061.09 82.67 6.00 113.82 2393.67
   22:33:39.777.10-Nov-2020 4535.01 4061.04 82.67 6.00 114.02 2393.67
   22:33:39.977.10-Nov-2020 4535.01 4061.06 82.67 6.00 114.22 2393.67
   22:33:40.177.10-Nov-2020 4535.01 4061.10 82.67 6.00 114.42 2393.67
   22:33:40.377.10-Nov-2020 4535.01 4061.02 82.67 6.00 114.62 2393.67
   22:33:40.577.10-Nov-2020 4535.01 4061.07 82.66 6.00 114.82 2393.67
