~Version Information
 VERS.                  2.0:   CWLS log ASCII Standard -VERSION 2.0
 WRAP.                   NO:   One line per depth step
~Well Information Block
#MNEM.UNIT     VALUE/NAME     DESCRIPTION
#---------     -----------    ---------------------------
 STRT.S             12:15:13 08-Nov-20: START TIME 12:15:13 08-Nov-20
 STOP.S             12:21:45 08-Nov-20: STOP TIME  12:21:45 08-Nov-20
 STEP.S                   0.00: STEP TIME
 NULL.                 -999.25: NULL VALUE
 DFWT.                        :  DIST FWL TEXT
 DFST.                        :  DIST FSL TEXT
 DMF .             Drill Floor:  DRILL MEAS FROM
 STIM.      04.54.24 22-Sep-20:  START TIME
 DATE.      04.54.24 21-Nov-20:  END TIME
 SPUD.               21-Nov-20:  SPUD DATE
 NREF.                    Grid:  NORTH REFERENCE
 HPTY.       Minimum Curvature:  HOLE POS TYPE
 DMOD.             Drill Model:  DRILL MOD DESC
 SVYD.                  Survey:  SURVEY DESC
 ILTD.               Lithology:  INTERP LTH DESC
 FTOP.          Formation Tops:  FORM TOPS DESC
 SON .        AZ-XX-0906571587:  JOB NUMBER
 COMP.     BP Exploration (Caspian Sea) Ltd:  COMPANY
 UWI .                     N/A:  UNIQUE WELL IDENTIFIER
 API .                     N/A:  API NUMBER
 BASE.              Azerbaijan:  LOGGING EQUIPMENT BASE LOCATION
 REGN.                   EESSA:  REGION
 PROV.                    Baku:  PROVINCE
 STAT.                    Baku:  STATE NAME
 CTRY.              Azerbaijan:  COUNTRY NAME
 FLD .                     ACG:  FIELD NAME
 SRVC.     TURAN Drilling & Engineering:  CONTRACTOR
 WELL.                     J27:  WELL NAME
 RIG .             West Chirag:  RIG NAME
 DOE .                     N/A:  DOE NUMBER
 DCON.         Sperry Drilling:  DIRECTNL CONTR
 PDAT.          Mean Sea Level:  PERMANENT DATUM
 WTYP.                Deviated:  WELL TYPE
 MWDS.                    Baku:  MWD SHOP
 JOBN.        AZ-XX-0906571587:  JOB TICKET NUMB
 UNIT.                     N/A:  LOGGING EQUIPMENT ID
 MDS .        Operator Entered:  MAG DATA SOURCE
 CNTY.                        :  COUNTY
 LOC .                        :  LOCATION
 LMF .             Drill Floor:  LOG MEASURED FROM
 TVDS.m                  43.00:  TVDSS CORRECTN
 LATI.deg                40.13:  LATITUDE
 LONG.deg                51.22:  LONGITUDE
 WHNS.m                   7.72:  WELL HEAD N/S
 WHEW.m                 -14.24:  WELL HEAD E/W
 UTMX.m              519005.06:  UTM X
 UTMY.m             4443793.85:  UTM Y
 DFWL.m                   0.00:  DISTANCE FWL
 DFSL.m                   0.00:  DISTANCE FSL
 SDEP.m                 347.00:  START DEPTH
 TDD .m                 581.00:  TOTAL DEPTH (DRILLER)
 VSDR.deg               159.72:  VERT SEC DIRECT
 GVFD.g                   1.00:  GRAVITY FIELD
 MFLD.nT              50313.00:  MAGNETIC FIELD
 MDIP.deg                59.58:  MAGNETIC DIP
 MDEC.deg                 6.45:  MAGNETIC DECL
 GRDC.deg                 0.15:  GRID CORRECTION
 AZTC.deg                 6.30:  AZM TOTAL CORR
 EPD .m                   0.00:  ELEVATION
 EGL .m                   0.00:  GROUND ELEVATION
 WDMS.m                 169.80:  WD ELEV
 APD .m                  43.00:  DEPTH ABOVE PD
 AGAP.m                  43.00:  AIR GAP
 VSEW.m                 -14.24:  VERT SEC E/W
 VSNS.m                   7.72:  VERT SEC N/S
 DEP .m                 342.45:  DEPTH
 EKB .m                   0.00:  KB ELEVATION
 EDF .m                  43.00:  DF ELEVATION
 TDL .m                1313.00:  TOTAL DEPTH (LOGGER)
 VSC .                       0:  VS TO CLOSURE
 MAGU.                 1851396:  MAGUTM CHECKSUM
~Parameter Information Block
#MNEM.UNIT       Value        Description
#---------     -----------    ---------------------------
 AV  .mps                 0.65:  Ann Velocity 
 AVMX.mps                 0.75:  Max Ann Veloc 
 AZIF.deg               115.08:  Azm, Final 
 BHAT.        Rotary Steerable:  BHA Type 
 BROT.°/30m               1.50:  Build Rotating 
 BS  .in                 12.25:  Bit Size 
 BSZ .in                 12.25:  Bit Size 
 BTPL.psig              700.00:  Bit Press Loss 
 CABU.                     Yes:  Customer Abuse 
 COMM.                     „*[:  Run Comments 1 
 TCS .hr                121.00:  Time Ciculation Ended 
 CV  .mps                 1.83:  Crit Velocity 
 CVMX.mps                 1.83:  Max Crit Veloc 
 DD1 .          Rashad Habibov:  Direct Drillr 1 
 DD2 .         Rasim Ibrahimov:  Direct Drillr 2 
 DDSV.                 iCruise:  DD Service 
 DEFF.%                 100.00:  % Det Eff 
 DLRX.°/30m               3.60:  Dogleg Rot Max 
 DLSO.°/30m               3.10:  Dogleg Oriented 
 DLSX.°/30m               3.60:  Dogleg Str Max 
 DRET.      13.41.20 12-Nov-20:  Drill End Time 
 DRST.      13.41.20 07-Nov-20:  Drill Start Tim 
 DTIM.hr                 54.16:  Time Drilling 
 EDEP.m                4762.01:  End Depth 
 ENG1.           Amrah Tahirov:  Engineer 1 
 ENG2.      Bakhtiyar Jabbarli:  Engineer 2 
 ENG3.          Ruslan Safarov:  Engineer 3 
 ETIM.      13.41.20 14-Nov-20:  End Time 
 FLOI.gpm              1200.00:  Flow In 
 FLON.gpm              1100.00:  Flow In Min 
 FLOS.cptm                0.00:  Fluid Loss 
 FLOX.gpm              1200.00:  Flow In Max 
 HFLO.                      No:  High Flow 
 HPRE.                      No:  High Pressure 
 HTEM.                      No:  High Temp 
 HYDO.m                   2.00:  Hydro Offset 
 IFIN.deg                66.14:  Inc, Final 
 IMAX.deg                69.03:  Inc Max 
 IMIN.deg                64.64:  Inc Min 
 IMND.m                4450.16:  Inc Min Depth 
 IMXD.m                3996.00:  Inc Max Depth 
 JARR.                     Yes:  Jarring 
 LETM.      13.41.20 14-Nov-20:  Log End Time 
 LOST.hr                     0:  Lost Rig Time 
 LSTM.      13.41.20 06-Nov-20:  Log Start Time 
 MDCL.ppm             42500.00:  Mud Chlorides 
 MDES.     Inversion Oil/Synthetic:  Mud Desc 
 DFD .sg                  1.45:  Mud Density 
 MDMN.sg                  1.45:  Dens Mud Min 
 MDMX.sg                  1.45:  Dens Mud Max 
 MOIL.                      70:  Run Mud Oil % 
 MOWR.                   70:30:  Run Mud OWR 
 MSND.                       0:  Run Mud Sand % 
 MSOL.                    19.3:  Run Mud Solids% 
 DFV .spqt               77.00:  Mud Viscosity 
 MWOD.in                  8.00:  MWD Tool OD 
 MWSI.                      No:  Serv Intrp, MWD 
 OTIM.hr                201.88:  Time Operating 
 PCON.           Look Like New:  Pad Condition 
 PMAX.psia             9250.94:  Press Op, Max 
 PV  .cP                 29.00:  Mud PV 
 RUN .                     800:  Run Number 
 ROPA.m/hr               28.00:  ROP Avg 
 ROPN.m/hr               25.00:  ROP Min 
 ROPX.m/hr               30.00:  ROP Max 
 RPMA.rpm               160.00:  RPM Surface Avg 
 RPMN.rpm               160.00:  RPM Surface Min 
 RPMX.rpm               160.00:  RPM Surface Max 
 RRUN.                    0800:  Rig Run Number 
 RTIM.hr                 12.00:  Time Reaming 
 SAZI.deg               169.33:  Azm, Start 
 SDEP.m                3449.01:  Start Depth 
 SIDD.                      No:  Serv Intrp, DD 
 SINC.deg                68.01:  Inc, Start 
 SPPA.psig             4900.00:  SPP Avg 
 SPPN.psig             4800.00:  SPP Min 
 SPPX.psig             5050.00:  SPP Max 
 STIM.      13.41.20 06-Nov-20:  Start Time 
 SVCS.                 DD, MWD:  Services 
 SVER.                    9.20:  Sperry Version 
 TDAT.m                4762.01:  Tot Depth Attmp 
 TDDF.                      No:  Trip for DD 
 TDLG.m                1313.00:  Tot Depth Loggd 
 TFF .                      No:  Trip for Fail 
 TQAA.f-kp               13.00:  Torque Abs Avg 
 TQAN.f-kp               13.00:  Torque Abs Min 
 TQAX.f-kp               13.00:  Torque Abs Max 
 TRRT.°/30m               1.70:  Turn Rotating 
 MRT .                  EWR-M5:  Maximum Recorded Temperature 
 TTMX.degC               86.00:  Max Tool Temp 
 VS01.                90622122:  Virtual Str1 SN 
 VS02.                90577298:  Virtual Str2 SN 
 VS03.                90563623:  Virtual Str3 SN 
 VS04.                90617559:  Virtual Str4 SN 
 VS05.                11339492:  Virtual Str5 SN 
 VS06.                12385033:  Virtual Str6 SN 
 WBMN.klb                 0.00:  WOB Min 
 WOBA.klb                22.00:  WOB Avg 
 WOBX.klb                26.00:  WOB Max 
 YP  .lhf2               30.00:  Yield Point 
~Curve Information Block
#MNEM.UNIT                 API CODE     Curve Description
#---------               -----------    ---------------------------
 TIME.HHMMSS            00 000 000 000:  GT Time & Date
 GTDEPTH.m              00 000 000 000:  GT Depth
 GTPQH.psia             00 000 000 000:  GT HR Quartz Pressure
 GTTQ.degC              00 000 000 000:  GT Quartz Temperature
 GTTN.NONE              00 000 000 000:  GT Test Number
 GTET.sec               00 000 000 000:  GT Elapsed Test Time
 GTTVD.m                00 000 000 000:  GT True Vertical Depth
#Other Information
#
#WARRANTY: Halliburton will use its best efforts to furnish customers with 
#accurate information and interpretations that are part of, and incident to, the services 
#provided.  However, Halliburton cannot and does not warrant the accuracy 
#or correctness of such information and interpretations.  Under no circumstances should any 
#such information or interpretation be relied upon as the sole basis for any drilling, 
#completion, production, or financial decision or any procedure involving any risk to the 
#safety of any drilling venture, drilling rig or its crew or any other third party.  The 
#Customer has full responsibility for all drilling, completion and production operation.  
#Halliburton makes no representations or warranties, either expressed or 
#implied, including, but not limited to, the implied warranties of merchantability or fitness 
#for a particular purpose, with respect to the services rendered.  In no event will 
#Halliburton be liable for failure to obtain any particular results or for 
#any damages, including, but not limited to, indirect, special or consequential damages, 
#resulting from the use of any information or interpretation provided by Halliburton.
#
~A           TIME           GTDEPTH  GTPQH  GTTQ  GTTN  GTET   GTTVD  
# ...
   12:21:21.000.08-Nov-2020 3568.06 4338.88 69.44 2.00 368.00 2028.53
   12:21:21.200.08-Nov-2020 3568.06 4338.88 69.44 2.00 368.20 2028.53
   12:21:21.400.08-Nov-2020 3568.06 4334.96 69.44 2.00 368.40 2028.53
   12:21:21.600.08-Nov-2020 3568.06 4334.58 69.44 2.00 368.60 2028.53
   12:21:21.800.08-Nov-2020 3568.06 4335.89 69.44 2.00 368.80 2028.53
   12:21:22.000.08-Nov-2020 3568.06 4338.93 69.44 2.00 369.00 2028.53
   12:21:22.200.08-Nov-2020 3568.06 4338.93 69.44 2.00 369.20 2028.53
   12:21:22.400.08-Nov-2020 3568.06 4336.49 69.43 2.00 369.40 2028.53
   12:21:22.600.08-Nov-2020 3568.06 4336.54 69.43 2.00 369.60 2028.53
   12:21:22.800.08-Nov-2020 3568.06 4337.37 69.43 2.00 369.80 2028.53
   12:21:23.000.08-Nov-2020 3568.06 4343.76 69.43 2.00 370.00 2028.53
   12:21:23.200.08-Nov-2020 3568.06 4343.76 69.43 2.00 370.20 2028.53
   12:21:23.400.08-Nov-2020 3568.06 4338.68 69.43 2.00 370.40 2028.53
   12:21:23.600.08-Nov-2020 3568.06 4337.66 69.43 2.00 370.60 2028.53
   12:21:23.800.08-Nov-2020 3568.06 4337.89 69.43 2.00 370.80 2028.53
   12:21:24.000.08-Nov-2020 3568.06 4337.79 69.43 2.00 371.00 2028.53
   12:21:24.200.08-Nov-2020 3568.06 4337.79 69.43 2.00 371.20 2028.53
   12:21:24.400.08-Nov-2020 3568.06 4335.68 69.43 2.00 371.40 2028.53
   12:21:24.600.08-Nov-2020 3568.06 4335.76 69.43 2.00 371.60 2028.53
   12:21:24.800.08-Nov-2020 3568.06 4335.97 69.43 2.00 371.80 2028.53
   12:21:25.000.08-Nov-2020 3568.06 4336.46 69.43 2.00 372.00 2028.53
   12:21:25.200.08-Nov-2020 3568.06 4336.46 69.43 2.00 372.20 2028.53
   12:21:25.400.08-Nov-2020 3568.06 4337.24 69.43 2.00 372.40 2028.53
   12:21:25.600.08-Nov-2020 3568.06 4337.42 69.43 2.00 372.60 2028.53
   12:21:25.800.08-Nov-2020 3568.06 4341.45 69.43 2.00 372.80 2028.53
   12:21:26.000.08-Nov-2020 3568.06 4340.09 69.43 2.00 373.00 2028.53
   12:21:26.200.08-Nov-2020 3568.06 4340.09 69.43 2.00 373.20 2028.53
   12:21:26.400.08-Nov-2020 3568.06 4337.85 69.42 2.00 373.40 2028.53
   12:21:26.600.08-Nov-2020 3568.06 4337.47 69.42 2.00 373.60 2028.53
   12:21:26.800.08-Nov-2020 3568.06 4336.28 69.42 2.00 373.80 2028.53
   12:21:27.000.08-Nov-2020 3568.06 4336.23 69.42 2.00 374.00 2028.53
   12:21:27.200.08-Nov-2020 3568.06 4336.23 69.42 2.00 374.20 2028.53
   12:21:27.400.08-Nov-2020 3568.06 4335.26 69.42 2.00 374.40 2028.53
   12:21:27.600.08-Nov-2020 3568.06 4335.21 69.42 2.00 374.60 2028.53
   12:21:27.800.08-Nov-2020 3568.06 4336.26 69.42 2.00 374.80 2028.53
   12:21:28.000.08-Nov-2020 3568.06 4336.47 69.42 2.00 375.00 2028.53
   12:21:28.200.08-Nov-2020 3568.06 4336.47 69.42 2.00 375.20 2028.53
   12:21:28.400.08-Nov-2020 3568.06 4339.00 69.42 2.00 375.40 2028.53
   12:21:28.600.08-Nov-2020 3568.06 4337.82 69.42 2.00 375.60 2028.53
   12:21:28.800.08-Nov-2020 3568.06 4336.93 69.42 2.00 375.80 2028.53
   12:21:29.000.08-Nov-2020 3568.06 4339.79 69.42 2.00 376.00 2028.53
   12:21:29.200.08-Nov-2020 3568.06 4339.79 69.42 2.00 376.20 2028.53
   12:21:29.400.08-Nov-2020 3568.06 4335.59 69.41 2.00 376.40 2028.53
   12:21:29.600.08-Nov-2020 3568.06 4335.76 69.41 2.00 376.60 2028.53
   12:21:29.800.08-Nov-2020 3568.06 4336.99 69.41 2.00 376.80 2028.53
   12:21:30.000.08-Nov-2020 3568.06 4342.71 69.41 2.00 377.00 2028.53
   12:21:30.200.08-Nov-2020 3568.06 4342.71 69.41 2.00 377.20 2028.53
   12:21:30.400.08-Nov-2020 3568.06 4336.18 69.41 2.00 377.40 2028.53
   12:21:30.600.08-Nov-2020 3568.06 4334.75 69.41 2.00 377.60 2028.53
   12:21:30.800.08-Nov-2020 3568.06 4335.27 69.41 2.00 377.80 2028.53
   12:21:31.000.08-Nov-2020 3568.06 4338.66 69.41 2.00 378.00 2028.53
   12:21:31.200.08-Nov-2020 3568.06 4338.66 69.41 2.00 378.20 2028.53
   12:21:31.400.08-Nov-2020 3568.06 4339.72 69.41 2.00 378.40 2028.53
   12:21:31.600.08-Nov-2020 3568.06 4337.62 69.41 2.00 378.60 2028.53
   12:21:31.800.08-Nov-2020 3568.06 4338.96 69.41 2.00 378.80 2028.53
   12:21:32.000.08-Nov-2020 3568.06 4336.45 69.40 2.00 379.00 2028.53
   12:21:32.200.08-Nov-2020 3568.06 4336.45 69.40 2.00 379.20 2028.53
   12:21:32.400.08-Nov-2020 3568.06 4338.92 69.40 2.00 379.40 2028.53
   12:21:32.600.08-Nov-2020 3568.06 4338.22 69.40 2.00 379.60 2028.53
   12:21:32.800.08-Nov-2020 3568.06 4337.85 69.40 2.00 379.80 2028.53
   12:21:33.000.08-Nov-2020 3568.06 4337.03 69.40 2.00 380.00 2028.53
   12:21:33.200.08-Nov-2020 3568.06 4337.03 69.40 2.00 380.20 2028.53
   12:21:33.400.08-Nov-2020 3568.06 4335.85 69.40 2.00 380.40 2028.53
   12:21:33.600.08-Nov-2020 3568.06 4336.07 69.40 2.00 380.60 2028.53
   12:21:33.800.08-Nov-2020 3568.06 4336.62 69.40 2.00 380.80 2028.53
   12:21:34.000.08-Nov-2020 3568.06 4336.78 69.40 2.00 381.00 2028.53
   12:21:34.200.08-Nov-2020 3568.06 4336.78 69.40 2.00 381.20 2028.53
   12:21:34.400.08-Nov-2020 3568.06 4336.17 69.39 2.00 381.40 2028.53
   12:21:34.600.08-Nov-2020 3568.06 4339.08 69.39 2.00 381.60 2028.53
   12:21:34.800.08-Nov-2020 3568.06 4338.04 69.39 2.00 381.80 2028.53
   12:21:35.000.08-Nov-2020 3568.06 4338.21 69.39 2.00 382.00 2028.53
   12:21:35.200.08-Nov-2020 3568.06 4338.60 69.39 2.00 382.20 2028.53
   12:21:35.400.08-Nov-2020 3568.06 4338.55 69.39 2.00 382.40 2028.53
   12:21:35.600.08-Nov-2020 3568.06 4337.28 69.39 2.00 382.60 2028.53
   12:21:35.800.08-Nov-2020 3568.06 4336.76 69.39 2.00 382.80 2028.53
   12:21:36.000.08-Nov-2020 3568.06 4336.41 69.39 2.00 383.00 2028.53
   12:21:36.200.08-Nov-2020 3568.06 4336.41 69.39 2.00 383.20 2028.53
   12:21:36.400.08-Nov-2020 3568.06 4335.25 69.39 2.00 383.40 2028.53
   12:21:36.600.08-Nov-2020 3568.06 4335.62 69.39 2.00 383.60 2028.53
   12:21:36.800.08-Nov-2020 3568.06 4343.40 69.38 2.00 383.80 2028.53
   12:21:37.000.08-Nov-2020 3568.06 4335.71 69.38 2.00 384.00 2028.53
   12:21:37.200.08-Nov-2020 3568.06 4337.96 69.38 2.00 384.20 2028.53
   12:21:37.400.08-Nov-2020 3568.06 4338.90 69.38 2.00 384.40 2028.53
   12:21:37.600.08-Nov-2020 3568.06 4337.93 69.38 2.00 384.60 2028.53
   12:21:37.800.08-Nov-2020 3568.06 4336.42 69.38 2.00 384.80 2028.53
   12:21:38.000.08-Nov-2020 3568.06 4337.09 69.38 2.00 385.00 2028.53
   12:21:38.200.08-Nov-2020 3568.06 4337.09 69.38 2.00 385.20 2028.53
   12:21:38.400.08-Nov-2020 3568.06 4338.86 69.38 2.00 385.40 2028.53
   12:21:38.600.08-Nov-2020 3568.06 4338.33 69.38 2.00 385.60 2028.53
   12:21:38.800.08-Nov-2020 3568.06 4334.78 69.38 2.00 385.80 2028.53
   12:21:39.000.08-Nov-2020 3568.06 4334.98 69.38 2.00 386.00 2028.53
   12:21:39.200.08-Nov-2020 3568.06 4334.98 69.38 2.00 386.20 2028.53
   12:21:39.400.08-Nov-2020 3568.06 4339.14 69.37 2.00 386.40 2028.53
   12:21:39.600.08-Nov-2020 3568.06 4338.87 69.37 2.00 386.60 2028.53
   12:21:39.800.08-Nov-2020 3568.06 4336.27 69.37 2.00 386.80 2028.53
   12:21:40.000.08-Nov-2020 3568.06 4340.17 69.37 2.00 387.00 2028.53
   12:21:40.200.08-Nov-2020 3568.06 4340.17 69.37 2.00 387.20 2028.53
   12:21:40.400.08-Nov-2020 3568.06 4338.17 69.37 2.00 387.40 2028.53
   12:21:40.600.08-Nov-2020 3568.06 4336.95 69.37 2.00 387.60 2028.53
   12:21:40.800.08-Nov-2020 3568.06 4336.82 69.37 2.00 387.80 2028.53
   12:21:41.000.08-Nov-2020 3568.06 4338.05 69.37 2.00 388.00 2028.53
   12:21:41.200.08-Nov-2020 3568.06 4338.05 69.37 2.00 388.20 2028.53
   12:21:41.400.08-Nov-2020 3568.06 4337.09 69.37 2.00 388.40 2028.53
   12:21:41.600.08-Nov-2020 3568.06 4335.90 69.36 2.00 388.60 2028.53
   12:21:41.800.08-Nov-2020 3568.06 4335.60 69.36 2.00 388.80 2028.53
   12:21:42.000.08-Nov-2020 3568.06 4335.61 69.36 2.00 389.00 2028.53
   12:21:42.200.08-Nov-2020 3568.06 4335.61 69.36 2.00 389.20 2028.53
   12:21:42.400.08-Nov-2020 3568.06 4335.98 69.36 2.00 389.40 2028.53
   12:21:42.600.08-Nov-2020 3568.06 4336.00 69.36 2.00 389.60 2028.53
   12:21:42.800.08-Nov-2020 3568.06 4342.85 69.36 2.00 389.80 2028.53
   12:21:43.000.08-Nov-2020 3568.06 4335.08 69.36 2.00 390.00 2028.53
   12:21:43.200.08-Nov-2020 3568.06 4335.08 69.36 2.00 390.20 2028.53
   12:21:43.400.08-Nov-2020 3568.06 4336.42 69.36 2.00 390.40 2028.53
   12:21:43.600.08-Nov-2020 3568.06 4337.33 69.36 2.00 390.60 2028.53
   12:21:43.800.08-Nov-2020 3568.06 4337.29 69.35 2.00 390.80 2028.53
