~Version Information
 VERS.                  2.0:   CWLS log ASCII Standard -VERSION 2.0
 WRAP.                   NO:   One line per depth step
~Well Information Block
#MNEM.UNIT     VALUE/NAME     DESCRIPTION
#---------     -----------    ---------------------------
 STRT.S             05:02:14 24-Feb-20: START TIME 05:02:14 24-Feb-20
 STOP.S             05:09:32 24-Feb-20: STOP TIME  05:09:32 24-Feb-20
 STEP.S                   0.00: STEP TIME
 NULL.                 -999.25: NULL VALUE
 JOBN.        AZ-XX-0905059384:  JOB TICKET NUMB
 PDAT.          Mean Sea Level:  PERMANENT DATUM
 UNIT.                     N/A:  LOGGING EQUIPMENT ID
 DCON.         Sperry Drilling:  DIRECTNL CONTR
 DOE .                     N/A:  DOE NUMBER
 RIG .             West Chirag:  RIG NAME
 WELL.                     J22:  WELL NAME
 MWDS.                    Baku:  MWD SHOP
 SRVC.     TURAN Drilling & Engineering:  CONTRACTOR
 FLD .                     ACG:  FIELD NAME
 CTRY.              Azerbaijan:  COUNTRY NAME
 PROV.                    Baku:  PROVINCE
 STAT.                    Baku:  STATE NAME
 REGN.                   EESSA:  REGION
 BASE.              Azerbaijan:  LOGGING EQUIPMENT BASE LOCATION
 UWI .                     N/A:  UNIQUE WELL IDENTIFIER
 API .                     N/A:  API NUMBER
 COMP.     BP Exploration (Caspian Sea) Ltd.:  COMPANY
 WTYP.                Deviated:  WELL TYPE
 MDS .        Operator Entered:  MAG DATA SOURCE
 SON .        AZ-XX-0905059384:  JOB NUMBER
 FTOP.          Formation Tops:  FORM TOPS DESC
 ILTD.               Lithology:  INTERP LTH DESC
 SVYD.                  Survey:  SURVEY DESC
 DMOD.             Drill Model:  DRILL MOD DESC
 HPTY.       Minimum Curvature:  HOLE POS TYPE
 NREF.                    Grid:  NORTH REFERENCE
 SPUD.               09-Jan-20:  SPUD DATE
 DATE.      14.04.48 07-Feb-20:  END TIME
 STIM.      07.00.00 09-Jan-20:  START TIME
 DMF .             Drill Floor:  DRILL MEAS FROM
 DFST.                        :  DIST FSL TEXT
 DFWT.                        :  DIST FWL TEXT
 CNTY.                        :  COUNTY
 LOC .                        :  LOCATION
 LMF .             Drill Floor:  LOG MEASURED FROM
 DEP .m                   0.00:  DEPTH
 VSNS.m                  10.28:  VERT SEC N/S
 VSEW.m                  -6.24:  VERT SEC E/W
 AGAP.m                  43.00:  AIR GAP
 APD .m                  43.00:  DEPTH ABOVE PD
 WDMS.m                 169.80:  WD ELEV
 EGL .m                   0.00:  GROUND ELEVATION
 EPD .m                   0.00:  ELEVATION
 AZTC.deg                 6.27:  AZM TOTAL CORR
 GRDC.deg                 0.15:  GRID CORRECTION
 MDEC.deg                 6.42:  MAGNETIC DECL
 MDIP.deg                59.56:  MAGNETIC DIP
 MFLD.nT              50277.00:  MAGNETIC FIELD
 GVFD.g                   1.00:  GRAVITY FIELD
 VSDR.deg               148.53:  VERT SEC DIRECT
 TDD .m                3473.01:  TOTAL DEPTH (DRILLER)
 SDEP.m                 364.00:  START DEPTH
 DFSL.m                   0.00:  DISTANCE FSL
 DFWL.m                   0.00:  DISTANCE FWL
 UTMY.m             4443793.85:  UTM Y
 UTMX.m              519005.06:  UTM X
 WHEW.m                  -6.24:  WELL HEAD E/W
 WHNS.m                  10.28:  WELL HEAD N/S
 LONG.deg                51.22:  LONGITUDE
 LATI.deg                40.13:  LATITUDE
 TVDS.m                  43.00:  TVDSS CORRECTN
 EKB .m                   0.00:  KB ELEVATION
 EDF .m                  43.00:  DF ELEVATION
 TDL .m                 254.00:  TOTAL DEPTH (LOGGER)
 MAGU.                 1850021:  MAGUTM CHECKSUM
 VSC .                       0:  VS TO CLOSURE
~Parameter Information Block
#MNEM.UNIT       Value        Description
#---------     -----------    ---------------------------
 AV  .mps                 0.50:  Ann Velocity 
 AVMX.mps                 1.40:  Max Ann Veloc 
 AZIF.deg               144.94:  Azm, Final 
 BHAT.        Rotary Steerable:  BHA Type 
 BROT.°/30m               0.23:  Build Rotating 
 BS  .in                  8.50:  Bit Size 
 BTPL.psig              264.00:  Bit Press Loss 
 CABU.                     Yes:  Customer Abuse 
 TCS .hr                 87.30:  Time Ciculation Ended 
 CV  .mps                 2.45:  Crit Velocity 
 CVMX.mps                 2.74:  Max Crit Veloc 
 DD1 .             Aziz Aliyev:  Direct Drillr 1 
 DDSV.               Geo-Pilot:  DD Service 
 DEFF.%                 100.00:  % Det Eff 
 DLRX.°/30m               1.22:  Dogleg Rot Max 
 DLSO.°/30m               0.52:  Dogleg Oriented 
 DLSX.°/30m               1.22:  Dogleg Str Max 
 DRET.      12.59.00 23-Feb-20:  Drill End Time 
 DRST.      09.44.00 18-Feb-20:  Drill Start Tim 
 DTIM.hr                 23.03:  Time Drilling 
 EDEP.m                3473.01:  End Depth 
 ENG1.         Almaz Almadatov:  Engineer 1 
 ENG2.         Dair Mahammadov:  Engineer 2 
 ENG3.          Nazrin Asgarli:  Engineer 3 
 ETIM.      10.33.36 26-Feb-20:  End Time 
 FLOI.gpm               480.00:  Flow In 
 FLON.gpm               300.00:  Flow In Min 
 FLOS.cptm                1.00:  Fluid Loss 
 FLOX.gpm               550.00:  Flow In Max 
 HFLO.                      No:  High Flow 
 HPRE.                      No:  High Pressure 
 HTEM.                      No:  High Temp 
 HYDO.m                   1.80:  Hydro Offset 
 IFIN.deg                74.42:  Inc, Final 
 IMAX.deg                76.14:  Inc Max 
 IMIN.deg                74.42:  Inc Min 
 IMND.m                3462.72:  Inc Min Depth 
 IMXD.m                3235.69:  Inc Max Depth 
 JARR.                      No:  Jarring 
 LETM.      12.59.00 23-Feb-20:  Log End Time 
 LOST.hr                     0:  Lost Rig Time 
 LSTM.      09.44.00 18-Feb-20:  Log Start Time 
 MDCL.ppm             45000.00:  Mud Chlorides 
 MDES.     Inversion Oil/Synthetic:  Mud Desc 
 DFD .sg                  1.38:  Mud Density 
 MDMN.sg                  1.34:  Dens Mud Min 
 MDMX.sg                  1.49:  Dens Mud Max 
 MOIL.                      67:  Run Mud Oil % 
 MOWR.                   67:33:  Run Mud OWR 
 MSND.                    0.12:  Run Mud Sand % 
 MSOL.                      22:  Run Mud Solids% 
 DFV .spqt               81.00:  Mud Viscosity 
 MWOD.in                  6.75:  MWD Tool OD 
 MWSI.                      No:  Serv Intrp, MWD 
 OTIM.hr                231.44:  Time Operating 
 PCON.          Wear / Scratch:  Pad Condition 
 PMAX.psia             3400.00:  Press Op, Max 
 PV  .cP                 55.00:  Mud PV 
 RUN .                     800:  Run Number 
 ROPA.m/hr               12.00:  ROP Avg 
 ROPN.m/hr                5.00:  ROP Min 
 ROPX.m/hr               28.00:  ROP Max 
 RPMA.rpm               120.00:  RPM Surface Avg 
 RPMN.rpm                40.00:  RPM Surface Min 
 RPMX.rpm               130.00:  RPM Surface Max 
 RRUN.                    0800:  Rig Run Number 
 RTIM.hr                 45.00:  Time Reaming 
 SAZI.deg               145.38:  Azm, Start 
 SDEP.m                3219.01:  Start Depth 
 SIDD.                      No:  Serv Intrp, DD 
 SINC.deg                75.11:  Inc, Start 
 SPPA.psig             2400.00:  SPP Avg 
 SPPN.psig             2320.00:  SPP Min 
 SPPX.psig             3200.00:  SPP Max 
 STIM.      15.15.00 17-Feb-20:  Start Time 
 SVCS.                 DD, MWD:  Services 
 SVER.                    9.20:  Sperry Version 
 TDAT.m                 254.00:  Tot Depth Attmp 
 TDDF.                      No:  Trip for DD 
 TDLG.m                 254.00:  Tot Depth Loggd 
 TFF .                      No:  Trip for Fail 
 TQAA.f-kp               13.00:  Torque Abs Avg 
 TQAN.f-kp                7.00:  Torque Abs Min 
 TQAX.f-kp               15.00:  Torque Abs Max 
 TRRT.°/30m               0.21:  Turn Rotating 
 MRT .                  EWR-M5:  Maximum Recorded Temperature 
 TTMX.degC               64.00:  Max Tool Temp 
 VS01.                90586516:  Virtual Str1 SN 
 VS02.                90513691:  Virtual Str2 SN 
 VS03.                90586523:  Virtual Str3 SN 
 VS04.                90586520:  Virtual Str4 SN 
 VS05.                90590507:  Virtual Str5 SN 
 WBMN.klb                12.00:  WOB Min 
 WITN.           Rufat Babayev:  Customer Rep 2 
 WITN.         Alistair Sprott:  Customer Rep 
 WOBA.klb                18.00:  WOB Avg 
 WOBX.klb                30.00:  WOB Max 
 YP  .lhf2               41.00:  Yield Point 
~Curve Information Block
#MNEM.UNIT                 API CODE     Curve Description
#---------               -----------    ---------------------------
 TIME.HHMMSS            00 000 000 000:  GT Time & Date
 GTDEPTH.m              00 000 000 000:  GT Depth
 GTPQH.psia             00 000 000 000:  GT HR Quartz Pressure
 GTTQ.degC              00 000 000 000:  GT Quartz Temperature
 GTTN.NONE              00 000 000 000:  GT Test Number
 GTET.sec               00 000 000 000:  GT Elapsed Test Time
 GTTVD.m                00 000 000 000:  GT True Vertical Depth
#Other Information
#
#WARRANTY: Halliburton will use its best efforts to furnish customers with 
#accurate information and interpretations that are part of, and incident to, the services 
#provided.  However, Halliburton cannot and does not warrant the accuracy 
#or correctness of such information and interpretations.  Under no circumstances should any 
#such information or interpretation be relied upon as the sole basis for any drilling, 
#completion, production, or financial decision or any procedure involving any risk to the 
#safety of any drilling venture, drilling rig or its crew or any other third party.  The 
#Customer has full responsibility for all drilling, completion and production operation.  
#Halliburton makes no representations or warranties, either expressed or 
#implied, including, but not limited to, the implied warranties of merchantability or fitness 
#for a particular purpose, with respect to the services rendered.  In no event will 
#Halliburton be liable for failure to obtain any particular results or for 
#any damages, including, but not limited to, indirect, special or consequential damages, 
#resulting from the use of any information or interpretation provided by Halliburton.
#
~A           TIME           GTDEPTH  GTPQH  GTTQ  GTTN  GTET   GTTVD  
# ...
   05:04:32.802.24-Feb-2020 3303.51 4421.06 55.45 8.00 137.96 2690.98
   05:04:33.002.24-Feb-2020 3303.51 4421.06 55.45 8.00 138.16 2690.98
   05:04:33.202.24-Feb-2020 3303.51 4421.06 55.45 8.00 138.36 2690.98
   05:04:33.402.24-Feb-2020 3303.51 4421.09 55.45 8.00 138.56 2690.98
   05:04:33.602.24-Feb-2020 3303.51 4421.10 55.45 8.00 138.76 2690.98
   05:04:33.802.24-Feb-2020 3303.51 4421.11 55.45 8.00 138.96 2690.98
   05:04:34.002.24-Feb-2020 3303.51 4421.11 55.45 8.00 139.16 2690.98
   05:04:34.202.24-Feb-2020 3303.51 4421.07 55.45 8.00 139.36 2690.98
   05:04:34.402.24-Feb-2020 3303.51 4421.09 55.45 8.00 139.56 2690.98
   05:04:34.602.24-Feb-2020 3303.51 4421.10 55.45 8.00 139.76 2690.98
   05:04:34.802.24-Feb-2020 3303.51 4421.07 55.45 8.00 139.96 2690.98
   05:04:35.002.24-Feb-2020 3303.51 4421.07 55.45 8.00 140.16 2690.98
   05:04:35.201.24-Feb-2020 3303.51 4420.82 55.45 8.00 140.36 2690.98
   05:04:35.401.24-Feb-2020 3303.51 4421.34 55.45 8.00 140.56 2690.98
   05:04:35.601.24-Feb-2020 3303.51 4421.09 55.45 8.00 140.76 2690.98
   05:04:35.801.24-Feb-2020 3303.51 4421.34 55.45 8.00 140.96 2690.98
   05:04:36.001.24-Feb-2020 3303.51 4421.34 55.45 8.00 141.16 2690.98
   05:04:36.201.24-Feb-2020 3303.51 4420.93 55.45 8.00 141.36 2690.98
   05:04:36.401.24-Feb-2020 3303.51 4421.15 55.45 8.00 141.56 2690.98
   05:04:36.601.24-Feb-2020 3303.51 4421.04 55.45 8.00 141.76 2690.98
   05:04:36.801.24-Feb-2020 3303.51 4421.11 55.45 8.00 141.96 2690.98
   05:04:37.001.24-Feb-2020 3303.51 4421.49 55.45 8.00 142.16 2690.98
   05:04:37.201.24-Feb-2020 3303.51 4420.83 55.45 8.00 142.36 2690.98
   05:04:37.401.24-Feb-2020 3303.51 4421.04 55.45 8.00 142.56 2690.98
   05:04:37.601.24-Feb-2020 3303.51 4421.17 55.45 8.00 142.76 2690.98
   05:04:37.801.24-Feb-2020 3303.51 4421.10 55.45 8.00 142.96 2690.98
   05:04:38.001.24-Feb-2020 3303.51 4421.10 55.45 8.00 143.16 2690.98
   05:04:38.201.24-Feb-2020 3303.51 4421.29 55.45 8.00 143.36 2690.98
   05:04:38.401.24-Feb-2020 3303.51 4421.06 55.45 8.00 143.56 2690.98
   05:04:38.601.24-Feb-2020 3303.51 4421.00 55.45 8.00 143.76 2690.98
   05:04:38.800.24-Feb-2020 3303.51 4421.05 55.45 8.00 143.96 2690.98
   05:04:39.000.24-Feb-2020 3303.51 4421.05 55.45 8.00 144.16 2690.98
   05:04:39.200.24-Feb-2020 3303.51 4421.08 55.45 8.00 144.36 2690.98
   05:04:39.400.24-Feb-2020 3303.51 4421.07 55.45 8.00 144.56 2690.98
   05:04:39.600.24-Feb-2020 3303.51 4421.07 55.45 8.00 144.76 2690.98
   05:04:39.800.24-Feb-2020 3303.51 4421.08 55.45 8.00 144.96 2690.98
   05:04:40.000.24-Feb-2020 3303.51 4421.08 55.45 8.00 145.16 2690.98
   05:04:40.200.24-Feb-2020 3303.51 4421.08 55.45 8.00 145.36 2690.98
   05:04:40.400.24-Feb-2020 3303.51 4421.08 55.45 8.00 145.56 2690.98
   05:04:40.600.24-Feb-2020 3303.51 4421.10 55.45 8.00 145.76 2690.98
   05:04:40.800.24-Feb-2020 3303.51 4421.11 55.45 8.00 145.96 2690.98
   05:04:41.000.24-Feb-2020 3303.51 4421.52 55.45 8.00 146.16 2690.98
   05:04:41.200.24-Feb-2020 3303.51 4420.84 55.45 8.00 146.36 2690.98
   05:04:41.400.24-Feb-2020 3303.51 4421.00 55.45 8.00 146.56 2690.98
   05:04:41.600.24-Feb-2020 3303.51 4421.14 55.45 8.00 146.76 2690.98
   05:04:41.800.24-Feb-2020 3303.51 4421.10 55.45 8.00 146.96 2690.98
   05:04:42.000.24-Feb-2020 3303.51 4421.10 55.45 8.00 147.16 2690.98
   05:04:42.199.24-Feb-2020 3303.51 4421.04 55.45 8.00 147.36 2690.98
   05:04:42.399.24-Feb-2020 3303.51 4421.04 55.45 8.00 147.56 2690.98
   05:04:42.599.24-Feb-2020 3303.51 4421.08 55.45 8.00 147.76 2690.98
   05:04:42.799.24-Feb-2020 3303.51 4421.11 55.45 8.00 147.96 2690.98
   05:04:42.999.24-Feb-2020 3303.51 4421.11 55.45 8.00 148.16 2690.98
   05:04:43.199.24-Feb-2020 3303.51 4421.07 55.45 8.00 148.36 2690.98
   05:04:43.399.24-Feb-2020 3303.51 4421.06 55.45 8.00 148.56 2690.98
   05:04:43.599.24-Feb-2020 3303.51 4421.06 55.45 8.00 148.76 2690.98
   05:04:43.799.24-Feb-2020 3303.51 4421.09 55.45 8.00 148.96 2690.98
   05:04:43.999.24-Feb-2020 3303.51 4421.09 55.45 8.00 149.16 2690.98
   05:04:44.199.24-Feb-2020 3303.51 4421.05 55.45 8.00 149.36 2690.98
   05:04:44.399.24-Feb-2020 3303.51 4421.30 55.45 8.00 149.56 2690.98
   05:04:44.599.24-Feb-2020 3303.51 4421.30 55.45 8.00 149.76 2690.98
   05:04:44.799.24-Feb-2020 3303.51 4420.98 55.45 8.00 149.96 2690.98
   05:04:44.999.24-Feb-2020 3303.51 4420.98 55.45 8.00 150.16 2690.98
   05:04:45.199.24-Feb-2020 3303.51 4420.79 55.45 8.00 150.36 2690.98
   05:04:45.399.24-Feb-2020 3303.51 4421.33 55.45 8.00 150.56 2690.98
   05:04:45.598.24-Feb-2020 3303.51 4421.04 55.45 8.00 150.76 2690.98
   05:04:45.798.24-Feb-2020 3303.51 4421.05 55.45 8.00 150.96 2690.98
   05:04:45.998.24-Feb-2020 3303.51 4421.05 55.45 8.00 151.16 2690.98
   05:04:46.198.24-Feb-2020 3303.51 4421.07 55.45 8.00 151.36 2690.98
   05:04:46.398.24-Feb-2020 3303.51 4421.06 55.45 8.00 151.56 2690.98
   05:04:46.598.24-Feb-2020 3303.51 4421.35 55.45 8.00 151.76 2690.98
   05:04:46.798.24-Feb-2020 3303.51 4421.10 55.45 8.00 151.96 2690.98
   05:04:46.998.24-Feb-2020 3303.51 4421.10 55.45 8.00 152.16 2690.98
   05:04:47.198.24-Feb-2020 3303.51 4421.45 55.45 8.00 152.36 2690.98
   05:04:47.398.24-Feb-2020 3303.51 4420.81 55.45 8.00 152.56 2690.98
   05:04:47.598.24-Feb-2020 3303.51 4420.97 55.45 8.00 152.76 2690.98
   05:04:47.798.24-Feb-2020 3303.51 4421.11 55.45 8.00 152.96 2690.98
   05:04:47.998.24-Feb-2020 3303.51 4421.11 55.45 8.00 153.15 2690.98
   05:04:48.198.24-Feb-2020 3303.51 4421.06 55.45 8.00 153.35 2690.98
   05:04:48.398.24-Feb-2020 3303.51 4421.04 55.45 8.00 153.55 2690.98
   05:04:48.598.24-Feb-2020 3303.51 4421.06 55.45 8.00 153.75 2690.98
   05:04:48.798.24-Feb-2020 3303.51 4421.08 55.45 8.00 153.95 2690.98
   05:04:48.997.24-Feb-2020 3303.51 4421.07 55.45 8.00 154.15 2690.98
   05:04:49.197.24-Feb-2020 3303.51 4421.08 55.45 8.00 154.35 2690.98
   05:04:49.397.24-Feb-2020 3303.51 4421.08 55.45 8.00 154.55 2690.98
   05:04:49.597.24-Feb-2020 3303.51 4421.07 55.44 8.00 154.75 2690.98
   05:04:49.797.24-Feb-2020 3303.51 4421.07 55.44 8.00 154.95 2690.98
   05:04:49.997.24-Feb-2020 3303.51 4421.07 55.44 8.00 155.15 2690.98
   05:04:50.197.24-Feb-2020 3303.51 4421.08 55.44 8.00 155.35 2690.98
   05:04:50.397.24-Feb-2020 3303.51 4421.07 55.44 8.00 155.55 2690.98
   05:04:50.597.24-Feb-2020 3303.51 4421.29 55.44 8.00 155.75 2690.98
   05:04:50.797.24-Feb-2020 3303.51 4421.09 55.44 8.00 155.95 2690.98
   05:04:50.997.24-Feb-2020 3303.51 4421.09 55.44 8.00 156.15 2690.98
   05:04:51.197.24-Feb-2020 3303.51 4421.05 55.44 8.00 156.35 2690.98
   05:04:51.397.24-Feb-2020 3303.51 4421.05 55.44 8.00 156.55 2690.98
   05:04:51.597.24-Feb-2020 3303.51 4421.06 55.44 8.00 156.75 2690.98
   05:04:51.797.24-Feb-2020 3303.51 4421.04 55.44 8.00 156.95 2690.98
   05:04:51.997.24-Feb-2020 3303.51 4421.04 55.44 8.00 157.15 2690.98
   05:04:52.197.24-Feb-2020 3303.51 4421.09 55.44 8.00 157.35 2690.98
   05:04:52.396.24-Feb-2020 3303.51 4421.09 55.44 8.00 157.55 2690.98
   05:04:52.596.24-Feb-2020 3303.51 4421.06 55.44 8.00 157.75 2690.98
   05:04:52.796.24-Feb-2020 3303.51 4421.07 55.44 8.00 157.95 2690.98
   05:04:52.996.24-Feb-2020 3303.51 4421.08 55.44 8.00 158.15 2690.98
   05:04:53.196.24-Feb-2020 3303.51 4421.10 55.44 8.00 158.35 2690.98
   05:04:53.396.24-Feb-2020 3303.51 4421.07 55.44 8.00 158.55 2690.98
   05:04:53.596.24-Feb-2020 3303.51 4421.23 55.44 8.00 158.75 2690.98
   05:04:53.796.24-Feb-2020 3303.51 4420.83 55.44 8.00 158.95 2690.98
   05:04:53.996.24-Feb-2020 3303.51 4420.83 55.44 8.00 159.15 2690.98
   05:04:54.196.24-Feb-2020 3303.51 4421.07 55.44 8.00 159.35 2690.98
   05:04:54.396.24-Feb-2020 3303.51 4421.34 55.44 8.00 159.55 2690.98
   05:04:54.596.24-Feb-2020 3303.51 4421.08 55.44 8.00 159.75 2690.98
   05:04:54.796.24-Feb-2020 3303.51 4420.90 55.44 8.00 159.95 2690.98
   05:04:54.996.24-Feb-2020 3303.51 4420.90 55.44 8.00 160.15 2690.98
   05:04:55.196.24-Feb-2020 3303.51 4421.03 55.44 8.00 160.35 2690.98
   05:04:55.396.24-Feb-2020 3303.51 4421.08 55.44 8.00 160.55 2690.98
   05:04:55.596.24-Feb-2020 3303.51 4421.47 55.44 8.00 160.75 2690.98
