~Version Information
 VERS.                  2.0:   CWLS log ASCII Standard -VERSION 2.0
 WRAP.                   NO:   One line per depth step
~Well Information Block
#MNEM.UNIT     VALUE/NAME     DESCRIPTION
#---------     -----------    ---------------------------
 STRT.S             06:02:59 24-Feb-20: START TIME 06:02:59 24-Feb-20
 STOP.S             06:10:09 24-Feb-20: STOP TIME  06:10:09 24-Feb-20
 STEP.S                   0.00: STEP TIME
 NULL.                 -999.25: NULL VALUE
 JOBN.        AZ-XX-0905059384:  JOB TICKET NUMB
 PDAT.          Mean Sea Level:  PERMANENT DATUM
 UNIT.                     N/A:  LOGGING EQUIPMENT ID
 DCON.         Sperry Drilling:  DIRECTNL CONTR
 DOE .                     N/A:  DOE NUMBER
 RIG .             West Chirag:  RIG NAME
 WELL.                     J22:  WELL NAME
 MWDS.                    Baku:  MWD SHOP
 SRVC.     TURAN Drilling & Engineering:  CONTRACTOR
 FLD .                     ACG:  FIELD NAME
 CTRY.              Azerbaijan:  COUNTRY NAME
 PROV.                    Baku:  PROVINCE
 STAT.                    Baku:  STATE NAME
 REGN.                   EESSA:  REGION
 BASE.              Azerbaijan:  LOGGING EQUIPMENT BASE LOCATION
 UWI .                     N/A:  UNIQUE WELL IDENTIFIER
 API .                     N/A:  API NUMBER
 COMP.     BP Exploration (Caspian Sea) Ltd.:  COMPANY
 WTYP.                Deviated:  WELL TYPE
 MDS .        Operator Entered:  MAG DATA SOURCE
 SON .        AZ-XX-0905059384:  JOB NUMBER
 FTOP.          Formation Tops:  FORM TOPS DESC
 ILTD.               Lithology:  INTERP LTH DESC
 SVYD.                  Survey:  SURVEY DESC
 DMOD.             Drill Model:  DRILL MOD DESC
 HPTY.       Minimum Curvature:  HOLE POS TYPE
 NREF.                    Grid:  NORTH REFERENCE
 SPUD.               09-Jan-20:  SPUD DATE
 DATE.      14.04.48 07-Feb-20:  END TIME
 STIM.      07.00.00 09-Jan-20:  START TIME
 DMF .             Drill Floor:  DRILL MEAS FROM
 DFST.                        :  DIST FSL TEXT
 DFWT.                        :  DIST FWL TEXT
 CNTY.                        :  COUNTY
 LOC .                        :  LOCATION
 LMF .             Drill Floor:  LOG MEASURED FROM
 DEP .m                   0.00:  DEPTH
 VSNS.m                  10.28:  VERT SEC N/S
 VSEW.m                  -6.24:  VERT SEC E/W
 AGAP.m                  43.00:  AIR GAP
 APD .m                  43.00:  DEPTH ABOVE PD
 WDMS.m                 169.80:  WD ELEV
 EGL .m                   0.00:  GROUND ELEVATION
 EPD .m                   0.00:  ELEVATION
 AZTC.deg                 6.27:  AZM TOTAL CORR
 GRDC.deg                 0.15:  GRID CORRECTION
 MDEC.deg                 6.42:  MAGNETIC DECL
 MDIP.deg                59.56:  MAGNETIC DIP
 MFLD.nT              50277.00:  MAGNETIC FIELD
 GVFD.g                   1.00:  GRAVITY FIELD
 VSDR.deg               148.53:  VERT SEC DIRECT
 TDD .m                3473.01:  TOTAL DEPTH (DRILLER)
 SDEP.m                 364.00:  START DEPTH
 DFSL.m                   0.00:  DISTANCE FSL
 DFWL.m                   0.00:  DISTANCE FWL
 UTMY.m             4443793.85:  UTM Y
 UTMX.m              519005.06:  UTM X
 WHEW.m                  -6.24:  WELL HEAD E/W
 WHNS.m                  10.28:  WELL HEAD N/S
 LONG.deg                51.22:  LONGITUDE
 LATI.deg                40.13:  LATITUDE
 TVDS.m                  43.00:  TVDSS CORRECTN
 EKB .m                   0.00:  KB ELEVATION
 EDF .m                  43.00:  DF ELEVATION
 TDL .m                 254.00:  TOTAL DEPTH (LOGGER)
 MAGU.                 1850021:  MAGUTM CHECKSUM
 VSC .                       0:  VS TO CLOSURE
~Parameter Information Block
#MNEM.UNIT       Value        Description
#---------     -----------    ---------------------------
 AV  .mps                 0.50:  Ann Velocity 
 AVMX.mps                 1.40:  Max Ann Veloc 
 AZIF.deg               144.94:  Azm, Final 
 BHAT.        Rotary Steerable:  BHA Type 
 BROT.°/30m               0.23:  Build Rotating 
 BS  .in                  8.50:  Bit Size 
 BTPL.psig              264.00:  Bit Press Loss 
 CABU.                     Yes:  Customer Abuse 
 COMM.                     ä\:  Run Comments 1 
 TCS .hr                 87.30:  Time Ciculation Ended 
 CV  .mps                 2.45:  Crit Velocity 
 CVMX.mps                 2.74:  Max Crit Veloc 
 DD1 .             Aziz Aliyev:  Direct Drillr 1 
 DDSV.               Geo-Pilot:  DD Service 
 DEFF.%                 100.00:  % Det Eff 
 DLRX.°/30m               1.22:  Dogleg Rot Max 
 DLSO.°/30m               0.52:  Dogleg Oriented 
 DLSX.°/30m               1.22:  Dogleg Str Max 
 DRET.      12.59.00 23-Feb-20:  Drill End Time 
 DRST.      09.44.00 18-Feb-20:  Drill Start Tim 
 DTIM.hr                 23.03:  Time Drilling 
 EDEP.m                3473.01:  End Depth 
 ENG1.         Almaz Almadatov:  Engineer 1 
 ENG2.         Dair Mahammadov:  Engineer 2 
 ENG3.          Nazrin Asgarli:  Engineer 3 
 ETIM.      10.33.36 26-Feb-20:  End Time 
 FLOI.gpm               480.00:  Flow In 
 FLON.gpm               300.00:  Flow In Min 
 FLOS.cptm                1.00:  Fluid Loss 
 FLOX.gpm               550.00:  Flow In Max 
 HFLO.                      No:  High Flow 
 HPRE.                      No:  High Pressure 
 HTEM.                      No:  High Temp 
 HYDO.m                   1.80:  Hydro Offset 
 IFIN.deg                74.42:  Inc, Final 
 IMAX.deg                76.14:  Inc Max 
 IMIN.deg                74.42:  Inc Min 
 IMND.m                3462.72:  Inc Min Depth 
 IMXD.m                3235.69:  Inc Max Depth 
 JARR.                      No:  Jarring 
 LETM.      12.59.00 23-Feb-20:  Log End Time 
 LOST.hr                     0:  Lost Rig Time 
 LSTM.      09.44.00 18-Feb-20:  Log Start Time 
 MDCL.ppm             45000.00:  Mud Chlorides 
 MDES.     Inversion Oil/Synthetic:  Mud Desc 
 DFD .sg                  1.38:  Mud Density 
 MDMN.sg                  1.34:  Dens Mud Min 
 MDMX.sg                  1.49:  Dens Mud Max 
 MOIL.                      67:  Run Mud Oil % 
 MOWR.                   67:33:  Run Mud OWR 
 MSND.                    0.12:  Run Mud Sand % 
 MSOL.                      22:  Run Mud Solids% 
 DFV .spqt               81.00:  Mud Viscosity 
 MWOD.in                  6.75:  MWD Tool OD 
 MWSI.                      No:  Serv Intrp, MWD 
 OTIM.hr                231.44:  Time Operating 
 PCON.          Wear / Scratch:  Pad Condition 
 PMAX.psia             3400.00:  Press Op, Max 
 PV  .cP                 55.00:  Mud PV 
 RUN .                     800:  Run Number 
 ROPA.m/hr               12.00:  ROP Avg 
 ROPN.m/hr                5.00:  ROP Min 
 ROPX.m/hr               28.00:  ROP Max 
 RPMA.rpm               120.00:  RPM Surface Avg 
 RPMN.rpm                40.00:  RPM Surface Min 
 RPMX.rpm               130.00:  RPM Surface Max 
 RRUN.                    0800:  Rig Run Number 
 RTIM.hr                 45.00:  Time Reaming 
 SAZI.deg               145.38:  Azm, Start 
 SDEP.m                3219.01:  Start Depth 
 SIDD.                      No:  Serv Intrp, DD 
 SINC.deg                75.11:  Inc, Start 
 SPPA.psig             2400.00:  SPP Avg 
 SPPN.psig             2320.00:  SPP Min 
 SPPX.psig             3200.00:  SPP Max 
 STIM.      15.15.00 17-Feb-20:  Start Time 
 SVCS.                 DD, MWD:  Services 
 SVER.                    9.20:  Sperry Version 
 TDAT.m                 254.00:  Tot Depth Attmp 
 TDDF.                      No:  Trip for DD 
 TDLG.m                 254.00:  Tot Depth Loggd 
 TFF .                      No:  Trip for Fail 
 TQAA.f-kp               13.00:  Torque Abs Avg 
 TQAN.f-kp                7.00:  Torque Abs Min 
 TQAX.f-kp               15.00:  Torque Abs Max 
 TRRT.°/30m               0.21:  Turn Rotating 
 MRT .                  EWR-M5:  Maximum Recorded Temperature 
 TTMX.degC               64.00:  Max Tool Temp 
 VS01.                90586516:  Virtual Str1 SN 
 VS02.                90513691:  Virtual Str2 SN 
 VS03.                90586523:  Virtual Str3 SN 
 VS04.                90586520:  Virtual Str4 SN 
 VS05.                90590507:  Virtual Str5 SN 
 WBMN.klb                12.00:  WOB Min 
 WITN.           Rufat Babayev:  Customer Rep 2 
 WITN.         Alistair Sprott:  Customer Rep 
 WOBA.klb                18.00:  WOB Avg 
 WOBX.klb                30.00:  WOB Max 
 YP  .lhf2               41.00:  Yield Point 
~Curve Information Block
#MNEM.UNIT                 API CODE     Curve Description
#---------               -----------    ---------------------------
 TIME.HHMMSS            00 000 000 000:  GT Time & Date
 GTDEPTH.m              00 000 000 000:  GT Depth
 GTPQH.psia             00 000 000 000:  GT HR Quartz Pressure
 GTTQ.degC              00 000 000 000:  GT Quartz Temperature
 GTTN.NONE              00 000 000 000:  GT Test Number
 GTET.sec               00 000 000 000:  GT Elapsed Test Time
 GTTVD.m                00 000 000 000:  GT True Vertical Depth
#Other Information
#
#WARRANTY: Halliburton will use its best efforts to furnish customers with 
#accurate information and interpretations that are part of, and incident to, the services 
#provided.  However, Halliburton cannot and does not warrant the accuracy 
#or correctness of such information and interpretations.  Under no circumstances should any 
#such information or interpretation be relied upon as the sole basis for any drilling, 
#completion, production, or financial decision or any procedure involving any risk to the 
#safety of any drilling venture, drilling rig or its crew or any other third party.  The 
#Customer has full responsibility for all drilling, completion and production operation.  
#Halliburton makes no representations or warranties, either expressed or 
#implied, including, but not limited to, the implied warranties of merchantability or fitness 
#for a particular purpose, with respect to the services rendered.  In no event will 
#Halliburton be liable for failure to obtain any particular results or for 
#any damages, including, but not limited to, indirect, special or consequential damages, 
#resulting from the use of any information or interpretation provided by Halliburton.
#
~A           TIME           GTDEPTH  GTPQH  GTTQ  GTTN  GTET   GTTVD  
# ...
   06:03:45.179.24-Feb-2020 3290.31 5382.63 54.73 9.00  46.01 2687.60
   06:03:45.380.24-Feb-2020 3290.31 5382.63 54.73 9.00  46.21 2687.60
   06:03:45.580.24-Feb-2020 3290.31 5412.76 54.73 9.00  46.41 2687.60
   06:03:45.780.24-Feb-2020 3290.31 5425.99 54.73 9.00  46.61 2687.60
   06:03:45.980.24-Feb-2020 3290.31 5440.11 54.73 9.00  46.81 2687.60
   06:03:46.180.24-Feb-2020 3290.31 5455.79 54.73 9.00  47.01 2687.60
   06:03:46.380.24-Feb-2020 3290.31 5470.29 54.73 9.00  47.21 2687.60
   06:03:46.580.24-Feb-2020 3290.31 5489.18 54.73 9.00  47.41 2687.60
   06:03:46.780.24-Feb-2020 3290.31 5509.94 54.73 9.00  47.61 2687.60
   06:03:46.980.24-Feb-2020 3290.31 5524.08 54.73 9.00  47.81 2687.60
   06:03:47.180.24-Feb-2020 3290.31 5537.10 54.73 9.00  48.01 2687.60
   06:03:47.380.24-Feb-2020 3290.31 5537.10 54.73 9.00  48.21 2687.60
   06:03:47.580.24-Feb-2020 3290.31 5561.47 54.73 9.00  48.41 2687.60
   06:03:47.780.24-Feb-2020 3290.31 5575.81 54.73 9.00  48.61 2687.60
   06:03:47.980.24-Feb-2020 3290.31 5587.51 54.73 9.00  48.81 2687.60
   06:03:48.180.24-Feb-2020 3290.31 5598.82 54.73 9.00  49.01 2687.60
   06:03:48.380.24-Feb-2020 3290.31 5598.82 54.73 9.00  49.21 2687.60
   06:03:48.580.24-Feb-2020 3290.31 5623.35 54.73 9.00  49.41 2687.60
   06:03:48.780.24-Feb-2020 3290.31 5634.88 54.73 9.00  49.61 2687.60
   06:03:48.980.24-Feb-2020 3290.31 5645.40 54.73 9.00  49.81 2687.60
   06:03:49.180.24-Feb-2020 3290.31 5657.15 54.73 9.00  50.01 2687.60
   06:03:49.380.24-Feb-2020 3290.31 5657.15 54.73 9.00  50.21 2687.60
   06:03:49.580.24-Feb-2020 3290.31 5683.35 54.73 9.00  50.41 2687.60
   06:03:49.780.24-Feb-2020 3290.31 5697.89 54.73 9.00  50.61 2687.60
   06:03:49.981.24-Feb-2020 3290.31 5712.97 54.73 9.00  50.81 2687.60
   06:03:50.181.24-Feb-2020 3290.31 5727.83 54.73 9.00  51.01 2687.60
   06:03:50.381.24-Feb-2020 3290.31 5741.47 54.73 9.00  51.21 2687.60
   06:03:50.581.24-Feb-2020 3290.31 5754.35 54.73 9.00  51.41 2687.60
   06:03:50.781.24-Feb-2020 3290.31 5765.00 54.73 9.00  51.61 2687.60
   06:03:50.981.24-Feb-2020 3290.31 5775.50 54.73 9.00  51.81 2687.60
   06:03:51.181.24-Feb-2020 3290.31 5786.61 54.73 9.00  52.01 2687.60
   06:03:51.381.24-Feb-2020 3290.31 5786.61 54.73 9.00  52.21 2687.60
   06:03:51.581.24-Feb-2020 3290.31 5806.77 54.73 9.00  52.41 2687.60
   06:03:51.781.24-Feb-2020 3290.31 5821.68 54.73 9.00  52.61 2687.60
   06:03:51.981.24-Feb-2020 3290.31 5835.33 54.73 9.00  52.81 2687.60
   06:03:52.181.24-Feb-2020 3290.31 5848.30 54.73 9.00  53.01 2687.60
   06:03:52.381.24-Feb-2020 3290.31 5848.30 54.73 9.00  53.21 2687.60
   06:03:52.581.24-Feb-2020 3290.31 5881.83 54.73 9.00  53.41 2687.60
   06:03:52.781.24-Feb-2020 3290.31 5899.23 54.73 9.00  53.61 2687.60
   06:03:52.981.24-Feb-2020 3290.31 5908.42 54.73 9.00  53.81 2687.60
   06:03:53.181.24-Feb-2020 3290.31 5927.41 54.73 9.00  54.01 2687.60
   06:03:53.381.24-Feb-2020 3290.31 5927.41 54.73 9.00  54.21 2687.60
   06:03:53.581.24-Feb-2020 3290.31 5969.43 54.73 9.00  54.41 2687.60
   06:03:53.781.24-Feb-2020 3290.31 5989.25 54.73 9.00  54.61 2687.60
   06:03:53.981.24-Feb-2020 3290.31 6007.28 54.73 9.00  54.81 2687.60
   06:03:54.181.24-Feb-2020 3290.31 6024.05 54.73 9.00  55.01 2687.60
   06:03:54.381.24-Feb-2020 3290.31 6037.70 54.73 9.00  55.21 2687.60
   06:03:54.582.24-Feb-2020 3290.31 6065.65 54.73 9.00  55.41 2687.60
   06:03:54.782.24-Feb-2020 3290.31 6104.70 54.73 9.00  55.61 2687.60
   06:03:54.982.24-Feb-2020 3290.31 6148.96 54.73 9.00  55.81 2687.60
   06:03:55.182.24-Feb-2020 3290.31 6193.45 54.73 9.00  56.01 2687.60
   06:03:55.382.24-Feb-2020 3290.31 6193.45 54.73 9.00  56.21 2687.60
   06:03:55.582.24-Feb-2020 3290.31 6278.65 54.73 9.00  56.41 2687.60
   06:03:55.782.24-Feb-2020 3290.31 6325.07 54.73 9.00  56.61 2687.60
   06:03:55.982.24-Feb-2020 3290.31 6382.90 54.73 9.00  56.81 2687.60
   06:03:56.182.24-Feb-2020 3290.31 6412.75 54.73 9.00  57.01 2687.60
   06:03:56.382.24-Feb-2020 3290.31 6412.75 54.73 9.00  57.21 2687.60
   06:03:56.582.24-Feb-2020 3290.31 6435.60 54.73 9.00  57.41 2687.60
   06:03:56.782.24-Feb-2020 3290.31 6467.88 54.73 9.00  57.61 2687.60
   06:03:56.982.24-Feb-2020 3290.31 6486.05 54.73 9.00  57.81 2687.60
   06:03:57.182.24-Feb-2020 3290.31 6489.57 54.73 9.00  58.01 2687.60
   06:03:57.382.24-Feb-2020 3290.31 6489.57 54.73 9.00  58.21 2687.60
   06:03:57.582.24-Feb-2020 3290.31 6468.51 54.73 9.00  58.41 2687.60
   06:03:57.782.24-Feb-2020 3290.31 6277.76 54.73 9.00  58.61 2687.60
   06:03:57.982.24-Feb-2020 3290.31 6311.09 54.73 9.00  58.81 2687.60
   06:03:58.182.24-Feb-2020 3290.31 6345.69 54.73 9.00  59.01 2687.60
   06:03:58.382.24-Feb-2020 3290.31 6376.92 54.73 9.00  59.21 2687.60
   06:03:58.582.24-Feb-2020 3290.31 6399.95 54.73 9.00  59.41 2687.60
   06:03:58.782.24-Feb-2020 3290.31 6408.89 54.73 9.00  59.61 2687.60
   06:03:58.982.24-Feb-2020 3290.31 6416.44 54.73 9.00  59.81 2687.60
   06:03:59.183.24-Feb-2020 3290.31 6425.53 54.73 9.00  60.01 2687.60
   06:03:59.383.24-Feb-2020 3290.31 6425.53 54.73 9.00  60.21 2687.60
   06:03:59.583.24-Feb-2020 3290.31 6444.73 54.73 9.00  60.41 2687.60
   06:03:59.783.24-Feb-2020 3290.31 6452.44 54.73 9.00  60.61 2687.60
   06:03:59.983.24-Feb-2020 3290.31 6457.82 54.73 9.00  60.81 2687.60
   06:04:00.183.24-Feb-2020 3290.31 6459.95 54.73 9.00  61.01 2687.60
   06:04:00.383.24-Feb-2020 3290.31 6459.95 54.73 9.00  61.21 2687.60
   06:04:00.583.24-Feb-2020 3290.31 5630.25 54.73 9.00  61.41 2687.60
   06:04:00.783.24-Feb-2020 3290.31 5051.79 54.73 9.00  61.61 2687.60
   06:04:00.983.24-Feb-2020 3290.31 4067.26 54.74 9.00  61.81 2687.60
   06:04:01.183.24-Feb-2020 3290.31 3250.48 54.73 9.00  62.01 2687.60
   06:04:01.383.24-Feb-2020 3290.31 3250.48 54.73 9.00  62.21 2687.60
   06:04:01.583.24-Feb-2020 3290.31 2376.43 54.73 9.00  62.41 2687.60
   06:04:01.783.24-Feb-2020 3290.31 2139.78 54.73 9.00  62.61 2687.60
   06:04:01.983.24-Feb-2020 3290.31 1785.51 54.73 9.00  62.81 2687.60
   06:04:02.183.24-Feb-2020 3290.31 1502.03 54.73 9.00  63.01 2687.60
   06:04:02.383.24-Feb-2020 3290.31 1322.06 54.73 9.00  63.21 2687.60
   06:04:02.583.24-Feb-2020 3290.31 1245.99 54.73 9.00  63.41 2687.60
   06:04:02.783.24-Feb-2020 3290.31 1184.26 54.72 9.00  63.61 2687.60
   06:04:02.983.24-Feb-2020 3290.31 1131.13 54.72 9.00  63.81 2687.60
   06:04:03.183.24-Feb-2020 3290.31 1071.00 54.72 9.00  64.01 2687.60
   06:04:03.383.24-Feb-2020 3290.31 1071.00 54.72 9.00  64.21 2687.60
   06:04:03.583.24-Feb-2020 3290.31  906.96 54.71 9.00  64.41 2687.60
   06:04:03.784.24-Feb-2020 3290.31  806.69 54.71 9.00  64.61 2687.60
   06:04:03.984.24-Feb-2020 3290.31  700.69 54.71 9.00  64.81 2687.60
   06:04:04.184.24-Feb-2020 3290.31  594.93 54.70 9.00  65.01 2687.60
   06:04:04.384.24-Feb-2020 3290.31  594.93 54.70 9.00  65.21 2687.60
   06:04:04.584.24-Feb-2020 3290.31  388.46 54.69 9.00  65.41 2687.60
   06:04:04.784.24-Feb-2020 3290.31  300.03 54.69 9.00  65.61 2687.60
   06:04:04.984.24-Feb-2020 3290.31  225.73 54.69 9.00  65.81 2687.60
   06:04:05.184.24-Feb-2020 3290.31  166.60 54.68 9.00  66.01 2687.60
   06:04:05.384.24-Feb-2020 3290.31  166.60 54.68 9.00  66.21 2687.60
   06:04:05.584.24-Feb-2020 3290.31   78.74 54.68 9.00  66.41 2687.60
   06:04:05.784.24-Feb-2020 3290.31   66.03 54.67 9.00  66.61 2687.60
   06:04:05.984.24-Feb-2020 3290.31   59.80 54.67 9.00  66.81 2687.60
   06:04:06.184.24-Feb-2020 3290.31   58.59 54.67 9.00  67.01 2687.60
   06:04:06.384.24-Feb-2020 3290.31   55.61 54.66 9.00  67.21 2687.60
   06:04:06.584.24-Feb-2020 3290.31   51.68 54.66 9.00  67.41 2687.60
   06:04:06.784.24-Feb-2020 3290.31   47.33 54.65 9.00  67.61 2687.60
   06:04:06.984.24-Feb-2020 3290.31   43.11 54.65 9.00  67.81 2687.60
   06:04:07.184.24-Feb-2020 3290.31   39.42 54.65 9.00  68.01 2687.60
   06:04:07.384.24-Feb-2020 3290.31   39.42 54.65 9.00  68.21 2687.60
   06:04:07.584.24-Feb-2020 3290.31   33.83 54.64 9.00  68.41 2687.60
   06:04:07.784.24-Feb-2020 3290.31   31.75 54.64 9.00  68.62 2687.60
   06:04:07.984.24-Feb-2020 3290.31   30.07 54.64 9.00  68.82 2687.60
