~Version Information
 VERS.                  2.0:   CWLS log ASCII Standard -VERSION 2.0
 WRAP.                   NO:   One line per depth step
~Well Information Block
#MNEM.UNIT     VALUE/NAME     DESCRIPTION
#---------     -----------    ---------------------------
 STRT.S             06:02:59 24-Feb-20: START TIME 06:02:59 24-Feb-20
 STOP.S             06:10:09 24-Feb-20: STOP TIME  06:10:09 24-Feb-20
 STEP.S                   0.00: STEP TIME
 NULL.                 -999.25: NULL VALUE
 JOBN.        AZ-XX-0905059384:  JOB TICKET NUMB
 PDAT.          Mean Sea Level:  PERMANENT DATUM
 UNIT.                     N/A:  LOGGING EQUIPMENT ID
 DCON.         Sperry Drilling:  DIRECTNL CONTR
 DOE .                     N/A:  DOE NUMBER
 RIG .             West Chirag:  RIG NAME
 WELL.                     J22:  WELL NAME
 MWDS.                    Baku:  MWD SHOP
 SRVC.     TURAN Drilling & Engineering:  CONTRACTOR
 FLD .                     ACG:  FIELD NAME
 CTRY.              Azerbaijan:  COUNTRY NAME
 PROV.                    Baku:  PROVINCE
 STAT.                    Baku:  STATE NAME
 REGN.                   EESSA:  REGION
 BASE.              Azerbaijan:  LOGGING EQUIPMENT BASE LOCATION
 UWI .                     N/A:  UNIQUE WELL IDENTIFIER
 API .                     N/A:  API NUMBER
 COMP.     BP Exploration (Caspian Sea) Ltd.:  COMPANY
 WTYP.                Deviated:  WELL TYPE
 MDS .        Operator Entered:  MAG DATA SOURCE
 SON .        AZ-XX-0905059384:  JOB NUMBER
 FTOP.          Formation Tops:  FORM TOPS DESC
 ILTD.               Lithology:  INTERP LTH DESC
 SVYD.                  Survey:  SURVEY DESC
 DMOD.             Drill Model:  DRILL MOD DESC
 HPTY.       Minimum Curvature:  HOLE POS TYPE
 NREF.                    Grid:  NORTH REFERENCE
 SPUD.               09-Jan-20:  SPUD DATE
 DATE.      14.04.48 07-Feb-20:  END TIME
 STIM.      07.00.00 09-Jan-20:  START TIME
 DMF .             Drill Floor:  DRILL MEAS FROM
 DFST.                        :  DIST FSL TEXT
 DFWT.                        :  DIST FWL TEXT
 CNTY.                        :  COUNTY
 LOC .                        :  LOCATION
 LMF .             Drill Floor:  LOG MEASURED FROM
 DEP .m                   0.00:  DEPTH
 VSNS.m                  10.28:  VERT SEC N/S
 VSEW.m                  -6.24:  VERT SEC E/W
 AGAP.m                  43.00:  AIR GAP
 APD .m                  43.00:  DEPTH ABOVE PD
 WDMS.m                 169.80:  WD ELEV
 EGL .m                   0.00:  GROUND ELEVATION
 EPD .m                   0.00:  ELEVATION
 AZTC.deg                 6.27:  AZM TOTAL CORR
 GRDC.deg                 0.15:  GRID CORRECTION
 MDEC.deg                 6.42:  MAGNETIC DECL
 MDIP.deg                59.56:  MAGNETIC DIP
 MFLD.nT              50277.00:  MAGNETIC FIELD
 GVFD.g                   1.00:  GRAVITY FIELD
 VSDR.deg               148.53:  VERT SEC DIRECT
 TDD .m                3473.01:  TOTAL DEPTH (DRILLER)
 SDEP.m                 364.00:  START DEPTH
 DFSL.m                   0.00:  DISTANCE FSL
 DFWL.m                   0.00:  DISTANCE FWL
 UTMY.m             4443793.85:  UTM Y
 UTMX.m              519005.06:  UTM X
 WHEW.m                  -6.24:  WELL HEAD E/W
 WHNS.m                  10.28:  WELL HEAD N/S
 LONG.deg                51.22:  LONGITUDE
 LATI.deg                40.13:  LATITUDE
 TVDS.m                  43.00:  TVDSS CORRECTN
 EKB .m                   0.00:  KB ELEVATION
 EDF .m                  43.00:  DF ELEVATION
 TDL .m                 254.00:  TOTAL DEPTH (LOGGER)
 MAGU.                 1850021:  MAGUTM CHECKSUM
 VSC .                       0:  VS TO CLOSURE
~Parameter Information Block
#MNEM.UNIT       Value        Description
#---------     -----------    ---------------------------
 AV  .mps                 0.50:  Ann Velocity 
 AVMX.mps                 1.40:  Max Ann Veloc 
 AZIF.deg               144.94:  Azm, Final 
 BHAT.        Rotary Steerable:  BHA Type 
 BROT.°/30m               0.23:  Build Rotating 
 BS  .in                  8.50:  Bit Size 
 BTPL.psig              264.00:  Bit Press Loss 
 CABU.                     Yes:  Customer Abuse 
 COMM.                     ä\:  Run Comments 1 
 TCS .hr                 87.30:  Time Ciculation Ended 
 CV  .mps                 2.45:  Crit Velocity 
 CVMX.mps                 2.74:  Max Crit Veloc 
 DD1 .             Aziz Aliyev:  Direct Drillr 1 
 DDSV.               Geo-Pilot:  DD Service 
 DEFF.%                 100.00:  % Det Eff 
 DLRX.°/30m               1.22:  Dogleg Rot Max 
 DLSO.°/30m               0.52:  Dogleg Oriented 
 DLSX.°/30m               1.22:  Dogleg Str Max 
 DRET.      12.59.00 23-Feb-20:  Drill End Time 
 DRST.      09.44.00 18-Feb-20:  Drill Start Tim 
 DTIM.hr                 23.03:  Time Drilling 
 EDEP.m                3473.01:  End Depth 
 ENG1.         Almaz Almadatov:  Engineer 1 
 ENG2.         Dair Mahammadov:  Engineer 2 
 ENG3.          Nazrin Asgarli:  Engineer 3 
 ETIM.      10.33.36 26-Feb-20:  End Time 
 FLOI.gpm               480.00:  Flow In 
 FLON.gpm               300.00:  Flow In Min 
 FLOS.cptm                1.00:  Fluid Loss 
 FLOX.gpm               550.00:  Flow In Max 
 HFLO.                      No:  High Flow 
 HPRE.                      No:  High Pressure 
 HTEM.                      No:  High Temp 
 HYDO.m                   1.80:  Hydro Offset 
 IFIN.deg                74.42:  Inc, Final 
 IMAX.deg                76.14:  Inc Max 
 IMIN.deg                74.42:  Inc Min 
 IMND.m                3462.72:  Inc Min Depth 
 IMXD.m                3235.69:  Inc Max Depth 
 JARR.                      No:  Jarring 
 LETM.      12.59.00 23-Feb-20:  Log End Time 
 LOST.hr                     0:  Lost Rig Time 
 LSTM.      09.44.00 18-Feb-20:  Log Start Time 
 MDCL.ppm             45000.00:  Mud Chlorides 
 MDES.     Inversion Oil/Synthetic:  Mud Desc 
 DFD .sg                  1.38:  Mud Density 
 MDMN.sg                  1.34:  Dens Mud Min 
 MDMX.sg                  1.49:  Dens Mud Max 
 MOIL.                      67:  Run Mud Oil % 
 MOWR.                   67:33:  Run Mud OWR 
 MSND.                    0.12:  Run Mud Sand % 
 MSOL.                      22:  Run Mud Solids% 
 DFV .spqt               81.00:  Mud Viscosity 
 MWOD.in                  6.75:  MWD Tool OD 
 MWSI.                      No:  Serv Intrp, MWD 
 OTIM.hr                231.44:  Time Operating 
 PCON.          Wear / Scratch:  Pad Condition 
 PMAX.psia             3400.00:  Press Op, Max 
 PV  .cP                 55.00:  Mud PV 
 RUN .                     800:  Run Number 
 ROPA.m/hr               12.00:  ROP Avg 
 ROPN.m/hr                5.00:  ROP Min 
 ROPX.m/hr               28.00:  ROP Max 
 RPMA.rpm               120.00:  RPM Surface Avg 
 RPMN.rpm                40.00:  RPM Surface Min 
 RPMX.rpm               130.00:  RPM Surface Max 
 RRUN.                    0800:  Rig Run Number 
 RTIM.hr                 45.00:  Time Reaming 
 SAZI.deg               145.38:  Azm, Start 
 SDEP.m                3219.01:  Start Depth 
 SIDD.                      No:  Serv Intrp, DD 
 SINC.deg                75.11:  Inc, Start 
 SPPA.psig             2400.00:  SPP Avg 
 SPPN.psig             2320.00:  SPP Min 
 SPPX.psig             3200.00:  SPP Max 
 STIM.      15.15.00 17-Feb-20:  Start Time 
 SVCS.                 DD, MWD:  Services 
 SVER.                    9.20:  Sperry Version 
 TDAT.m                 254.00:  Tot Depth Attmp 
 TDDF.                      No:  Trip for DD 
 TDLG.m                 254.00:  Tot Depth Loggd 
 TFF .                      No:  Trip for Fail 
 TQAA.f-kp               13.00:  Torque Abs Avg 
 TQAN.f-kp                7.00:  Torque Abs Min 
 TQAX.f-kp               15.00:  Torque Abs Max 
 TRRT.°/30m               0.21:  Turn Rotating 
 MRT .                  EWR-M5:  Maximum Recorded Temperature 
 TTMX.degC               64.00:  Max Tool Temp 
 VS01.                90586516:  Virtual Str1 SN 
 VS02.                90513691:  Virtual Str2 SN 
 VS03.                90586523:  Virtual Str3 SN 
 VS04.                90586520:  Virtual Str4 SN 
 VS05.                90590507:  Virtual Str5 SN 
 WBMN.klb                12.00:  WOB Min 
 WITN.           Rufat Babayev:  Customer Rep 2 
 WITN.         Alistair Sprott:  Customer Rep 
 WOBA.klb                18.00:  WOB Avg 
 WOBX.klb                30.00:  WOB Max 
 YP  .lhf2               41.00:  Yield Point 
~Curve Information Block
#MNEM.UNIT                 API CODE     Curve Description
#---------               -----------    ---------------------------
 TIME.HHMMSS            00 000 000 000:  GT Time & Date
 GTDEPTH.m              00 000 000 000:  GT Depth
 GTPQH.psia             00 000 000 000:  GT HR Quartz Pressure
 GTTQ.degC              00 000 000 000:  GT Quartz Temperature
 GTTN.NONE              00 000 000 000:  GT Test Number
 GTET.sec               00 000 000 000:  GT Elapsed Test Time
 GTTVD.m                00 000 000 000:  GT True Vertical Depth
#Other Information
#
#WARRANTY: Halliburton will use its best efforts to furnish customers with 
#accurate information and interpretations that are part of, and incident to, the services 
#provided.  However, Halliburton cannot and does not warrant the accuracy 
#or correctness of such information and interpretations.  Under no circumstances should any 
#such information or interpretation be relied upon as the sole basis for any drilling, 
#completion, production, or financial decision or any procedure involving any risk to the 
#safety of any drilling venture, drilling rig or its crew or any other third party.  The 
#Customer has full responsibility for all drilling, completion and production operation.  
#Halliburton makes no representations or warranties, either expressed or 
#implied, including, but not limited to, the implied warranties of merchantability or fitness 
#for a particular purpose, with respect to the services rendered.  In no event will 
#Halliburton be liable for failure to obtain any particular results or for 
#any damages, including, but not limited to, indirect, special or consequential damages, 
#resulting from the use of any information or interpretation provided by Halliburton.
#
~A           TIME           GTDEPTH  GTPQH  GTTQ  GTTN  GTET   GTTVD  
# ...
   06:09:07.250.24-Feb-2020 3290.31   21.38 54.50 9.00 368.08 2687.60
   06:09:07.450.24-Feb-2020 3290.31   21.38 54.50 9.00 368.28 2687.60
   06:09:07.650.24-Feb-2020 3290.31   21.39 54.50 9.00 368.48 2687.60
   06:09:07.850.24-Feb-2020 3290.31   21.39 54.50 9.00 368.68 2687.60
   06:09:08.050.24-Feb-2020 3290.31   21.39 54.50 9.00 368.88 2687.60
   06:09:08.250.24-Feb-2020 3290.31   21.40 54.50 9.00 369.08 2687.60
   06:09:08.450.24-Feb-2020 3290.31   21.40 54.50 9.00 369.28 2687.60
   06:09:08.650.24-Feb-2020 3290.31   21.41 54.50 9.00 369.48 2687.60
   06:09:08.850.24-Feb-2020 3290.31   21.41 54.50 9.00 369.68 2687.60
   06:09:09.050.24-Feb-2020 3290.31   21.41 54.50 9.00 369.88 2687.60
   06:09:09.250.24-Feb-2020 3290.31   21.43 54.50 9.00 370.08 2687.60
   06:09:09.450.24-Feb-2020 3290.31   21.43 54.50 9.00 370.28 2687.60
   06:09:09.650.24-Feb-2020 3290.31   21.43 54.50 9.00 370.48 2687.60
   06:09:09.850.24-Feb-2020 3290.31   21.43 54.50 9.00 370.68 2687.60
   06:09:10.050.24-Feb-2020 3290.31   21.44 54.50 9.00 370.88 2687.60
   06:09:10.251.24-Feb-2020 3290.31   21.44 54.50 9.00 371.08 2687.60
   06:09:10.451.24-Feb-2020 3290.31   21.44 54.50 9.00 371.28 2687.60
   06:09:10.651.24-Feb-2020 3290.31   21.45 54.50 9.00 371.48 2687.60
   06:09:10.851.24-Feb-2020 3290.31   21.45 54.50 9.00 371.68 2687.60
   06:09:11.051.24-Feb-2020 3290.31   21.45 54.50 9.00 371.88 2687.60
   06:09:11.251.24-Feb-2020 3290.31   21.45 54.50 9.00 372.08 2687.60
   06:09:11.451.24-Feb-2020 3290.31   21.45 54.50 9.00 372.28 2687.60
   06:09:11.651.24-Feb-2020 3290.31   21.46 54.50 9.00 372.48 2687.60
   06:09:11.851.24-Feb-2020 3290.31   21.47 54.50 9.00 372.68 2687.60
   06:09:12.051.24-Feb-2020 3290.31   21.47 54.50 9.00 372.88 2687.60
   06:09:12.251.24-Feb-2020 3290.31   21.47 54.50 9.00 373.08 2687.60
   06:09:12.451.24-Feb-2020 3290.31   21.47 54.50 9.00 373.28 2687.60
   06:09:12.651.24-Feb-2020 3290.31   21.48 54.50 9.00 373.48 2687.60
   06:09:12.851.24-Feb-2020 3290.31   21.49 54.50 9.00 373.68 2687.60
   06:09:13.051.24-Feb-2020 3290.31   21.48 54.50 9.00 373.88 2687.60
   06:09:13.251.24-Feb-2020 3290.31   21.49 54.50 9.00 374.08 2687.60
   06:09:13.451.24-Feb-2020 3290.31   21.49 54.50 9.00 374.28 2687.60
   06:09:13.651.24-Feb-2020 3290.31   21.50 54.50 9.00 374.48 2687.60
   06:09:13.851.24-Feb-2020 3290.31   21.50 54.50 9.00 374.68 2687.60
   06:09:14.051.24-Feb-2020 3290.31   21.50 54.50 9.00 374.88 2687.60
   06:09:14.251.24-Feb-2020 3290.31   21.51 54.50 9.00 375.08 2687.60
   06:09:14.451.24-Feb-2020 3290.31   21.51 54.50 9.00 375.28 2687.60
   06:09:14.652.24-Feb-2020 3290.31   21.51 54.50 9.00 375.48 2687.60
   06:09:14.852.24-Feb-2020 3290.31   21.52 54.50 9.00 375.68 2687.60
   06:09:15.052.24-Feb-2020 3290.31   21.52 54.50 9.00 375.88 2687.60
   06:09:15.252.24-Feb-2020 3290.31   21.53 54.50 9.00 376.08 2687.60
   06:09:15.452.24-Feb-2020 3290.31   21.53 54.50 9.00 376.28 2687.60
   06:09:15.652.24-Feb-2020 3290.31   21.53 54.50 9.00 376.48 2687.60
   06:09:15.852.24-Feb-2020 3290.31   21.53 54.50 9.00 376.68 2687.60
   06:09:16.052.24-Feb-2020 3290.31   21.54 54.50 9.00 376.88 2687.60
   06:09:16.252.24-Feb-2020 3290.31   21.53 54.50 9.00 377.08 2687.60
   06:09:16.452.24-Feb-2020 3290.31   21.53 54.50 9.00 377.28 2687.60
   06:09:16.652.24-Feb-2020 3290.31   21.55 54.50 9.00 377.48 2687.60
   06:09:16.852.24-Feb-2020 3290.31   21.55 54.50 9.00 377.68 2687.60
   06:09:17.052.24-Feb-2020 3290.31   21.55 54.50 9.00 377.88 2687.60
   06:09:17.252.24-Feb-2020 3290.31   21.55 54.50 9.00 378.08 2687.60
   06:09:17.452.24-Feb-2020 3290.31   21.55 54.50 9.00 378.28 2687.60
   06:09:17.652.24-Feb-2020 3290.31   21.56 54.50 9.00 378.48 2687.60
   06:09:17.852.24-Feb-2020 3290.31   21.57 54.50 9.00 378.68 2687.60
   06:09:18.052.24-Feb-2020 3290.31   21.57 54.50 9.00 378.88 2687.60
   06:09:18.252.24-Feb-2020 3290.31   21.57 54.50 9.00 379.08 2687.60
   06:09:18.452.24-Feb-2020 3290.31   21.57 54.50 9.00 379.28 2687.60
   06:09:18.652.24-Feb-2020 3290.31   21.58 54.50 9.00 379.48 2687.60
   06:09:18.852.24-Feb-2020 3290.31   21.59 54.50 9.00 379.68 2687.60
   06:09:19.052.24-Feb-2020 3290.31   21.59 54.50 9.00 379.88 2687.60
   06:09:19.253.24-Feb-2020 3290.31   21.59 54.50 9.00 380.08 2687.60
   06:09:19.453.24-Feb-2020 3290.31   21.59 54.50 9.00 380.28 2687.60
   06:09:19.653.24-Feb-2020 3290.31   21.60 54.50 9.00 380.48 2687.60
   06:09:19.853.24-Feb-2020 3290.31   21.63 54.50 9.00 380.68 2687.60
   06:09:20.053.24-Feb-2020 3290.31   21.71 54.50 9.00 380.88 2687.60
   06:09:20.253.24-Feb-2020 3290.31   21.76 54.50 9.00 381.08 2687.60
   06:09:20.453.24-Feb-2020 3290.31   21.76 54.50 9.00 381.28 2687.60
   06:09:20.653.24-Feb-2020 3290.31   21.78 54.50 9.00 381.48 2687.60
   06:09:20.853.24-Feb-2020 3290.31   48.14 54.50 9.00 381.68 2687.60
   06:09:21.053.24-Feb-2020 3290.31  621.82 54.50 9.00 381.88 2687.60
   06:09:21.253.24-Feb-2020 3290.31 5667.15 54.49 9.00 382.08 2687.60
   06:09:21.453.24-Feb-2020 3290.31 5667.15 54.49 9.00 382.28 2687.60
   06:09:21.653.24-Feb-2020 3290.31 5672.30 54.50 9.00 382.48 2687.60
   06:09:21.853.24-Feb-2020 3290.31 5660.22 54.50 9.00 382.68 2687.60
   06:09:22.053.24-Feb-2020 3290.31 5661.30 54.50 9.00 382.88 2687.60
   06:09:22.253.24-Feb-2020 3290.31 5665.57 54.50 9.00 383.08 2687.60
   06:09:22.453.24-Feb-2020 3290.31 5666.63 54.50 9.00 383.28 2687.60
   06:09:22.653.24-Feb-2020 3290.31 5666.13 54.51 9.00 383.48 2687.60
   06:09:22.853.24-Feb-2020 3290.31 5666.96 54.51 9.00 383.68 2687.60
   06:09:23.053.24-Feb-2020 3290.31 5667.85 54.51 9.00 383.88 2687.60
   06:09:23.253.24-Feb-2020 3290.31 5670.15 54.52 9.00 384.08 2687.60
   06:09:23.453.24-Feb-2020 3290.31 5670.15 54.52 9.00 384.28 2687.60
   06:09:23.653.24-Feb-2020 3290.31 5671.96 54.52 9.00 384.48 2687.60
   06:09:23.854.24-Feb-2020 3290.31 5671.96 54.53 9.00 384.68 2687.60
   06:09:24.054.24-Feb-2020 3290.31 5672.04 54.53 9.00 384.88 2687.60
   06:09:24.254.24-Feb-2020 3290.31 5673.59 54.53 9.00 385.08 2687.60
   06:09:24.454.24-Feb-2020 3290.31 5673.59 54.53 9.00 385.28 2687.60
   06:09:24.654.24-Feb-2020 3290.31 5678.75 54.54 9.00 385.48 2687.60
   06:09:24.854.24-Feb-2020 3290.31 5677.27 54.55 9.00 385.68 2687.60
   06:09:25.054.24-Feb-2020 3290.31 5673.27 54.55 9.00 385.88 2687.60
   06:09:25.254.24-Feb-2020 3290.31 5673.35 54.55 9.00 386.08 2687.60
   06:09:25.454.24-Feb-2020 3290.31 5673.35 54.55 9.00 386.28 2687.60
   06:09:25.654.24-Feb-2020 3290.31 5672.04 54.56 9.00 386.48 2687.60
   06:09:25.854.24-Feb-2020 3290.31 5674.47 54.56 9.00 386.68 2687.60
   06:09:26.054.24-Feb-2020 3290.31 5677.08 54.57 9.00 386.88 2687.60
   06:09:26.254.24-Feb-2020 3290.31 5675.62 54.57 9.00 387.08 2687.60
   06:09:26.454.24-Feb-2020 3290.31 5684.17 54.57 9.00 387.28 2687.60
   06:09:26.654.24-Feb-2020 3290.31 5671.84 54.58 9.00 387.48 2687.60
   06:09:26.854.24-Feb-2020 3290.31 5671.48 54.58 9.00 387.68 2687.60
   06:09:27.054.24-Feb-2020 3290.31 5673.91 54.58 9.00 387.88 2687.60
   06:09:27.254.24-Feb-2020 3290.31 5673.95 54.59 9.00 388.08 2687.60
   06:09:27.454.24-Feb-2020 3290.31 5673.95 54.59 9.00 388.28 2687.60
   06:09:27.654.24-Feb-2020 3290.31 5677.30 54.59 9.00 388.48 2687.60
   06:09:27.854.24-Feb-2020 3290.31 5674.13 54.59 9.00 388.68 2687.60
   06:09:28.054.24-Feb-2020 3290.31 5674.54 54.60 9.00 388.89 2687.60
   06:09:28.254.24-Feb-2020 3290.31 5674.61 54.60 9.00 389.09 2687.60
   06:09:28.455.24-Feb-2020 3290.31 5674.61 54.60 9.00 389.29 2687.60
   06:09:28.655.24-Feb-2020 3290.31 5675.12 54.60 9.00 389.49 2687.60
   06:09:28.855.24-Feb-2020 3290.31 5674.03 54.60 9.00 389.69 2687.60
   06:09:29.055.24-Feb-2020 3290.31 5673.67 54.60 9.00 389.89 2687.60
   06:09:29.255.24-Feb-2020 3290.31 5673.87 54.61 9.00 390.09 2687.60
   06:09:29.455.24-Feb-2020 3290.31 5673.87 54.61 9.00 390.29 2687.60
   06:09:29.655.24-Feb-2020 3290.31 5676.71 54.61 9.00 390.49 2687.60
   06:09:29.855.24-Feb-2020 3290.31 5677.00 54.61 9.00 390.69 2687.60
   06:09:30.055.24-Feb-2020 3290.31 5676.79 54.61 9.00 390.89 2687.60
