~Version Information
 VERS.                  2.0:   CWLS log ASCII Standard -VERSION 2.0
 WRAP.                   NO:   One line per depth step
~Well Information Block
#MNEM.UNIT     VALUE/NAME     DESCRIPTION
#---------     -----------    ---------------------------
 STRT.S             06:02:59 24-Feb-20: START TIME 06:02:59 24-Feb-20
 STOP.S             06:10:09 24-Feb-20: STOP TIME  06:10:09 24-Feb-20
 STEP.S                   0.00: STEP TIME
 NULL.                 -999.25: NULL VALUE
 JOBN.        AZ-XX-0905059384:  JOB TICKET NUMB
 PDAT.          Mean Sea Level:  PERMANENT DATUM
 UNIT.                     N/A:  LOGGING EQUIPMENT ID
 DCON.         Sperry Drilling:  DIRECTNL CONTR
 DOE .                     N/A:  DOE NUMBER
 RIG .             West Chirag:  RIG NAME
 WELL.                     J22:  WELL NAME
 MWDS.                    Baku:  MWD SHOP
 SRVC.     TURAN Drilling & Engineering:  CONTRACTOR
 FLD .                     ACG:  FIELD NAME
 CTRY.              Azerbaijan:  COUNTRY NAME
 PROV.                    Baku:  PROVINCE
 STAT.                    Baku:  STATE NAME
 REGN.                   EESSA:  REGION
 BASE.              Azerbaijan:  LOGGING EQUIPMENT BASE LOCATION
 UWI .                     N/A:  UNIQUE WELL IDENTIFIER
 API .                     N/A:  API NUMBER
 COMP.     BP Exploration (Caspian Sea) Ltd.:  COMPANY
 WTYP.                Deviated:  WELL TYPE
 MDS .        Operator Entered:  MAG DATA SOURCE
 SON .        AZ-XX-0905059384:  JOB NUMBER
 FTOP.          Formation Tops:  FORM TOPS DESC
 ILTD.               Lithology:  INTERP LTH DESC
 SVYD.                  Survey:  SURVEY DESC
 DMOD.             Drill Model:  DRILL MOD DESC
 HPTY.       Minimum Curvature:  HOLE POS TYPE
 NREF.                    Grid:  NORTH REFERENCE
 SPUD.               09-Jan-20:  SPUD DATE
 DATE.      14.04.48 07-Feb-20:  END TIME
 STIM.      07.00.00 09-Jan-20:  START TIME
 DMF .             Drill Floor:  DRILL MEAS FROM
 DFST.                        :  DIST FSL TEXT
 DFWT.                        :  DIST FWL TEXT
 CNTY.                        :  COUNTY
 LOC .                        :  LOCATION
 LMF .             Drill Floor:  LOG MEASURED FROM
 DEP .m                   0.00:  DEPTH
 VSNS.m                  10.28:  VERT SEC N/S
 VSEW.m                  -6.24:  VERT SEC E/W
 AGAP.m                  43.00:  AIR GAP
 APD .m                  43.00:  DEPTH ABOVE PD
 WDMS.m                 169.80:  WD ELEV
 EGL .m                   0.00:  GROUND ELEVATION
 EPD .m                   0.00:  ELEVATION
 AZTC.deg                 6.27:  AZM TOTAL CORR
 GRDC.deg                 0.15:  GRID CORRECTION
 MDEC.deg                 6.42:  MAGNETIC DECL
 MDIP.deg                59.56:  MAGNETIC DIP
 MFLD.nT              50277.00:  MAGNETIC FIELD
 GVFD.g                   1.00:  GRAVITY FIELD
 VSDR.deg               148.53:  VERT SEC DIRECT
 TDD .m                3473.01:  TOTAL DEPTH (DRILLER)
 SDEP.m                 364.00:  START DEPTH
 DFSL.m                   0.00:  DISTANCE FSL
 DFWL.m                   0.00:  DISTANCE FWL
 UTMY.m             4443793.85:  UTM Y
 UTMX.m              519005.06:  UTM X
 WHEW.m                  -6.24:  WELL HEAD E/W
 WHNS.m                  10.28:  WELL HEAD N/S
 LONG.deg                51.22:  LONGITUDE
 LATI.deg                40.13:  LATITUDE
 TVDS.m                  43.00:  TVDSS CORRECTN
 EKB .m                   0.00:  KB ELEVATION
 EDF .m                  43.00:  DF ELEVATION
 TDL .m                 254.00:  TOTAL DEPTH (LOGGER)
 MAGU.                 1850021:  MAGUTM CHECKSUM
 VSC .                       0:  VS TO CLOSURE
~Parameter Information Block
#MNEM.UNIT       Value        Description
#---------     -----------    ---------------------------
 AV  .mps                 0.50:  Ann Velocity 
 AVMX.mps                 1.40:  Max Ann Veloc 
 AZIF.deg               144.94:  Azm, Final 
 BHAT.        Rotary Steerable:  BHA Type 
 BROT.°/30m               0.23:  Build Rotating 
 BS  .in                  8.50:  Bit Size 
 BTPL.psig              264.00:  Bit Press Loss 
 CABU.                     Yes:  Customer Abuse 
 COMM.                     ä\:  Run Comments 1 
 TCS .hr                 87.30:  Time Ciculation Ended 
 CV  .mps                 2.45:  Crit Velocity 
 CVMX.mps                 2.74:  Max Crit Veloc 
 DD1 .             Aziz Aliyev:  Direct Drillr 1 
 DDSV.               Geo-Pilot:  DD Service 
 DEFF.%                 100.00:  % Det Eff 
 DLRX.°/30m               1.22:  Dogleg Rot Max 
 DLSO.°/30m               0.52:  Dogleg Oriented 
 DLSX.°/30m               1.22:  Dogleg Str Max 
 DRET.      12.59.00 23-Feb-20:  Drill End Time 
 DRST.      09.44.00 18-Feb-20:  Drill Start Tim 
 DTIM.hr                 23.03:  Time Drilling 
 EDEP.m                3473.01:  End Depth 
 ENG1.         Almaz Almadatov:  Engineer 1 
 ENG2.         Dair Mahammadov:  Engineer 2 
 ENG3.          Nazrin Asgarli:  Engineer 3 
 ETIM.      10.33.36 26-Feb-20:  End Time 
 FLOI.gpm               480.00:  Flow In 
 FLON.gpm               300.00:  Flow In Min 
 FLOS.cptm                1.00:  Fluid Loss 
 FLOX.gpm               550.00:  Flow In Max 
 HFLO.                      No:  High Flow 
 HPRE.                      No:  High Pressure 
 HTEM.                      No:  High Temp 
 HYDO.m                   1.80:  Hydro Offset 
 IFIN.deg                74.42:  Inc, Final 
 IMAX.deg                76.14:  Inc Max 
 IMIN.deg                74.42:  Inc Min 
 IMND.m                3462.72:  Inc Min Depth 
 IMXD.m                3235.69:  Inc Max Depth 
 JARR.                      No:  Jarring 
 LETM.      12.59.00 23-Feb-20:  Log End Time 
 LOST.hr                     0:  Lost Rig Time 
 LSTM.      09.44.00 18-Feb-20:  Log Start Time 
 MDCL.ppm             45000.00:  Mud Chlorides 
 MDES.     Inversion Oil/Synthetic:  Mud Desc 
 DFD .sg                  1.38:  Mud Density 
 MDMN.sg                  1.34:  Dens Mud Min 
 MDMX.sg                  1.49:  Dens Mud Max 
 MOIL.                      67:  Run Mud Oil % 
 MOWR.                   67:33:  Run Mud OWR 
 MSND.                    0.12:  Run Mud Sand % 
 MSOL.                      22:  Run Mud Solids% 
 DFV .spqt               81.00:  Mud Viscosity 
 MWOD.in                  6.75:  MWD Tool OD 
 MWSI.                      No:  Serv Intrp, MWD 
 OTIM.hr                231.44:  Time Operating 
 PCON.          Wear / Scratch:  Pad Condition 
 PMAX.psia             3400.00:  Press Op, Max 
 PV  .cP                 55.00:  Mud PV 
 RUN .                     800:  Run Number 
 ROPA.m/hr               12.00:  ROP Avg 
 ROPN.m/hr                5.00:  ROP Min 
 ROPX.m/hr               28.00:  ROP Max 
 RPMA.rpm               120.00:  RPM Surface Avg 
 RPMN.rpm                40.00:  RPM Surface Min 
 RPMX.rpm               130.00:  RPM Surface Max 
 RRUN.                    0800:  Rig Run Number 
 RTIM.hr                 45.00:  Time Reaming 
 SAZI.deg               145.38:  Azm, Start 
 SDEP.m                3219.01:  Start Depth 
 SIDD.                      No:  Serv Intrp, DD 
 SINC.deg                75.11:  Inc, Start 
 SPPA.psig             2400.00:  SPP Avg 
 SPPN.psig             2320.00:  SPP Min 
 SPPX.psig             3200.00:  SPP Max 
 STIM.      15.15.00 17-Feb-20:  Start Time 
 SVCS.                 DD, MWD:  Services 
 SVER.                    9.20:  Sperry Version 
 TDAT.m                 254.00:  Tot Depth Attmp 
 TDDF.                      No:  Trip for DD 
 TDLG.m                 254.00:  Tot Depth Loggd 
 TFF .                      No:  Trip for Fail 
 TQAA.f-kp               13.00:  Torque Abs Avg 
 TQAN.f-kp                7.00:  Torque Abs Min 
 TQAX.f-kp               15.00:  Torque Abs Max 
 TRRT.°/30m               0.21:  Turn Rotating 
 MRT .                  EWR-M5:  Maximum Recorded Temperature 
 TTMX.degC               64.00:  Max Tool Temp 
 VS01.                90586516:  Virtual Str1 SN 
 VS02.                90513691:  Virtual Str2 SN 
 VS03.                90586523:  Virtual Str3 SN 
 VS04.                90586520:  Virtual Str4 SN 
 VS05.                90590507:  Virtual Str5 SN 
 WBMN.klb                12.00:  WOB Min 
 WITN.           Rufat Babayev:  Customer Rep 2 
 WITN.         Alistair Sprott:  Customer Rep 
 WOBA.klb                18.00:  WOB Avg 
 WOBX.klb                30.00:  WOB Max 
 YP  .lhf2               41.00:  Yield Point 
~Curve Information Block
#MNEM.UNIT                 API CODE     Curve Description
#---------               -----------    ---------------------------
 TIME.HHMMSS            00 000 000 000:  GT Time & Date
 GTDEPTH.m              00 000 000 000:  GT Depth
 GTPQH.psia             00 000 000 000:  GT HR Quartz Pressure
 GTTQ.degC              00 000 000 000:  GT Quartz Temperature
 GTTN.NONE              00 000 000 000:  GT Test Number
 GTET.sec               00 000 000 000:  GT Elapsed Test Time
 GTTVD.m                00 000 000 000:  GT True Vertical Depth
#Other Information
#
#WARRANTY: Halliburton will use its best efforts to furnish customers with 
#accurate information and interpretations that are part of, and incident to, the services 
#provided.  However, Halliburton cannot and does not warrant the accuracy 
#or correctness of such information and interpretations.  Under no circumstances should any 
#such information or interpretation be relied upon as the sole basis for any drilling, 
#completion, production, or financial decision or any procedure involving any risk to the 
#safety of any drilling venture, drilling rig or its crew or any other third party.  The 
#Customer has full responsibility for all drilling, completion and production operation.  
#Halliburton makes no representations or warranties, either expressed or 
#implied, including, but not limited to, the implied warranties of merchantability or fitness 
#for a particular purpose, with respect to the services rendered.  In no event will 
#Halliburton be liable for failure to obtain any particular results or for 
#any damages, including, but not limited to, indirect, special or consequential damages, 
#resulting from the use of any information or interpretation provided by Halliburton.
#
~A           TIME           GTDEPTH  GTPQH  GTTQ  GTTN  GTET   GTTVD  
# ...
   06:03:22.174.24-Feb-2020 3290.31 5673.78 54.75 9.00  23.01 2687.60
   06:03:22.374.24-Feb-2020 3290.31 5675.14 54.75 9.00  23.21 2687.60
   06:03:22.575.24-Feb-2020 3290.31 5674.97 54.75 9.00  23.41 2687.60
   06:03:22.775.24-Feb-2020 3290.31 5675.53 54.75 9.00  23.61 2687.60
   06:03:22.975.24-Feb-2020 3290.31 5674.64 54.75 9.00  23.81 2687.60
   06:03:23.175.24-Feb-2020 3290.31 5675.18 54.75 9.00  24.01 2687.60
   06:03:23.375.24-Feb-2020 3290.31 5675.18 54.75 9.00  24.21 2687.60
   06:03:23.575.24-Feb-2020 3290.31 5675.67 54.75 9.00  24.41 2687.60
   06:03:23.775.24-Feb-2020 3290.31 5674.49 54.75 9.00  24.61 2687.60
   06:03:23.975.24-Feb-2020 3290.31 5674.38 54.75 9.00  24.81 2687.60
   06:03:24.175.24-Feb-2020 3290.31 5674.99 54.75 9.00  25.01 2687.60
   06:03:24.375.24-Feb-2020 3290.31 5674.99 54.75 9.00  25.21 2687.60
   06:03:24.575.24-Feb-2020 3290.31 5676.29 54.75 9.00  25.41 2687.60
   06:03:24.775.24-Feb-2020 3290.31 5674.71 54.75 9.00  25.61 2687.60
   06:03:24.975.24-Feb-2020 3290.31 5674.49 54.75 9.00  25.81 2687.60
   06:03:25.175.24-Feb-2020 3290.31 5680.99 54.75 9.00  26.01 2687.60
   06:03:25.375.24-Feb-2020 3290.31 5680.99 54.75 9.00  26.21 2687.60
   06:03:25.575.24-Feb-2020 3290.31 5674.10 54.75 9.00  26.41 2687.60
   06:03:25.775.24-Feb-2020 3290.31 5675.41 54.74 9.00  26.61 2687.60
   06:03:25.975.24-Feb-2020 3290.31 5675.49 54.74 9.00  26.81 2687.60
   06:03:26.175.24-Feb-2020 3290.31 5684.25 54.74 9.00  27.01 2687.60
   06:03:26.375.24-Feb-2020 3290.31 5672.29 54.74 9.00  27.21 2687.60
   06:03:26.575.24-Feb-2020 3290.31 5672.76 54.74 9.00  27.41 2687.60
   06:03:26.775.24-Feb-2020 3290.31 5679.63 54.74 9.00  27.61 2687.60
   06:03:26.975.24-Feb-2020 3290.31 5678.08 54.74 9.00  27.81 2687.60
   06:03:27.176.24-Feb-2020 3290.31 5673.64 54.74 9.00  28.01 2687.60
   06:03:27.376.24-Feb-2020 3290.31 5673.64 54.74 9.00  28.21 2687.60
   06:03:27.576.24-Feb-2020 3290.31 5675.88 54.74 9.00  28.41 2687.60
   06:03:27.776.24-Feb-2020 3290.31 5680.14 54.74 9.00  28.61 2687.60
   06:03:27.976.24-Feb-2020 3290.31 5677.43 54.74 9.00  28.81 2687.60
   06:03:28.176.24-Feb-2020 3290.31 5673.14 54.74 9.00  29.01 2687.60
   06:03:28.376.24-Feb-2020 3290.31 5673.14 54.74 9.00  29.21 2687.60
   06:03:28.576.24-Feb-2020 3290.31 5675.19 54.74 9.00  29.41 2687.60
   06:03:28.776.24-Feb-2020 3290.31 5675.52 54.74 9.00  29.61 2687.60
   06:03:28.976.24-Feb-2020 3290.31 5675.62 54.74 9.00  29.81 2687.60
   06:03:29.176.24-Feb-2020 3290.31 5675.45 54.74 9.00  30.01 2687.60
   06:03:29.376.24-Feb-2020 3290.31 5675.45 54.74 9.00  30.21 2687.60
   06:03:29.576.24-Feb-2020 3290.31 5675.63 54.74 9.00  30.41 2687.60
   06:03:29.776.24-Feb-2020 3290.31 5675.69 54.74 9.00  30.61 2687.60
   06:03:29.976.24-Feb-2020 3290.31 5675.57 54.74 9.00  30.81 2687.60
   06:03:30.176.24-Feb-2020 3290.31 5675.71 54.74 9.00  31.01 2687.60
   06:03:30.376.24-Feb-2020 3290.31 5675.67 54.74 9.00  31.21 2687.60
   06:03:30.576.24-Feb-2020 3290.31 5675.70 54.74 9.00  31.41 2687.60
   06:03:30.776.24-Feb-2020 3290.31 5676.18 54.74 9.00  31.61 2687.60
   06:03:30.976.24-Feb-2020 3290.31 5685.54 54.74 9.00  31.81 2687.60
   06:03:31.176.24-Feb-2020 3290.31 5673.35 54.74 9.00  32.01 2687.60
   06:03:31.376.24-Feb-2020 3290.31 5673.35 54.74 9.00  32.21 2687.60
   06:03:31.576.24-Feb-2020 3290.31 5674.09 54.74 9.00  32.41 2687.60
   06:03:31.777.24-Feb-2020 3290.31 5674.61 54.74 9.00  32.61 2687.60
   06:03:31.977.24-Feb-2020 3290.31 5675.54 54.74 9.00  32.81 2687.60
   06:03:32.177.24-Feb-2020 3290.31 5676.31 54.74 9.00  33.01 2687.60
   06:03:32.377.24-Feb-2020 3290.31 5676.31 54.74 9.00  33.21 2687.60
   06:03:32.577.24-Feb-2020 3290.31 5675.19 54.74 9.00  33.41 2687.60
   06:03:32.777.24-Feb-2020 3290.31 5675.33 54.74 9.00  33.61 2687.60
   06:03:32.977.24-Feb-2020 3290.31 5675.69 54.74 9.00  33.81 2687.60
   06:03:33.177.24-Feb-2020 3290.31 5674.69 54.74 9.00  34.01 2687.60
   06:03:33.377.24-Feb-2020 3290.31 5674.69 54.74 9.00  34.21 2687.60
   06:03:33.577.24-Feb-2020 3290.31 5675.80 54.74 9.00  34.41 2687.60
   06:03:33.777.24-Feb-2020 3290.31 5676.03 54.74 9.00  34.61 2687.60
   06:03:33.977.24-Feb-2020 3290.31 5675.93 54.74 9.00  34.81 2687.60
   06:03:34.177.24-Feb-2020 3290.31 5674.43 54.74 9.00  35.01 2687.60
   06:03:34.377.24-Feb-2020 3290.31 5674.43 54.74 9.00  35.21 2687.60
   06:03:34.577.24-Feb-2020 3290.31 5672.24 54.74 9.00  35.41 2687.60
   06:03:34.777.24-Feb-2020 3290.31 5672.37 54.74 9.00  35.61 2687.60
   06:03:34.977.24-Feb-2020 3290.31 5675.19 54.74 9.00  35.81 2687.60
   06:03:35.177.24-Feb-2020 3290.31 5675.28 54.74 9.00  36.01 2687.60
   06:03:35.377.24-Feb-2020 3290.31 5675.28 54.74 9.00  36.21 2687.60
   06:03:35.577.24-Feb-2020 3290.31 5677.95 54.74 9.00  36.41 2687.60
   06:03:35.777.24-Feb-2020 3290.31 5673.71 54.74 9.00  36.61 2687.60
   06:03:35.977.24-Feb-2020 3290.31 5674.20 54.74 9.00  36.81 2687.60
   06:03:36.178.24-Feb-2020 3290.31 5685.08 54.74 9.00  37.01 2687.60
   06:03:36.378.24-Feb-2020 3290.31 5685.08 54.74 9.00  37.21 2687.60
   06:03:36.578.24-Feb-2020 3290.31 5672.63 54.74 9.00  37.41 2687.60
   06:03:36.778.24-Feb-2020 3290.31 5676.10 54.74 9.00  37.61 2687.60
   06:03:36.978.24-Feb-2020 3290.31 5676.45 54.74 9.00  37.81 2687.60
   06:03:37.178.24-Feb-2020 3290.31 5681.78 54.74 9.00  38.01 2687.60
   06:03:37.378.24-Feb-2020 3290.31 5681.78 54.74 9.00  38.21 2687.60
   06:03:37.578.24-Feb-2020 3290.31 5673.52 54.74 9.00  38.41 2687.60
   06:03:37.778.24-Feb-2020 3290.31 5675.16 54.74 9.00  38.61 2687.60
   06:03:37.978.24-Feb-2020 3290.31 5675.59 54.74 9.00  38.81 2687.60
   06:03:38.178.24-Feb-2020 3290.31 5675.65 54.74 9.00  39.01 2687.60
   06:03:38.378.24-Feb-2020 3290.31 5675.57 54.74 9.00  39.21 2687.60
   06:03:38.578.24-Feb-2020 3290.31 5675.61 54.74 9.00  39.41 2687.60
   06:03:38.778.24-Feb-2020 3290.31 5675.71 54.74 9.00  39.61 2687.60
   06:03:38.978.24-Feb-2020 3290.31 5675.81 54.74 9.00  39.81 2687.60
   06:03:39.178.24-Feb-2020 3290.31 5675.77 54.74 9.00  40.01 2687.60
   06:03:39.378.24-Feb-2020 3290.31 5675.77 54.74 9.00  40.21 2687.60
   06:03:39.578.24-Feb-2020 3290.31 5675.69 54.74 9.00  40.41 2687.60
   06:03:39.778.24-Feb-2020 3290.31 5675.76 54.74 9.00  40.61 2687.60
   06:03:39.978.24-Feb-2020 3290.31 5675.87 54.74 9.00  40.81 2687.60
   06:03:40.178.24-Feb-2020 3290.31 5676.27 54.74 9.00  41.01 2687.60
   06:03:40.378.24-Feb-2020 3290.31 5676.27 54.73 9.00  41.21 2687.60
   06:03:40.578.24-Feb-2020 3290.31 5679.11 54.73 9.00  41.41 2687.60
   06:03:40.779.24-Feb-2020 3290.31 5677.28 54.73 9.00  41.61 2687.60
   06:03:40.979.24-Feb-2020 3290.31 5673.44 54.73 9.00  41.81 2687.60
   06:03:41.179.24-Feb-2020 3290.31 5674.47 54.73 9.00  42.01 2687.60
   06:03:41.379.24-Feb-2020 3290.31 5674.47 54.73 9.00  42.21 2687.60
   06:03:41.579.24-Feb-2020 3290.31 5675.81 54.73 9.00  42.41 2687.60
   06:03:41.779.24-Feb-2020 3290.31 5674.76 54.73 9.00  42.61 2687.60
   06:03:41.979.24-Feb-2020 3290.31 5675.32 54.73 9.00  42.81 2687.60
   06:03:42.179.24-Feb-2020 3290.31 5675.70 54.73 9.00  43.01 2687.60
   06:03:42.379.24-Feb-2020 3290.31 5675.23 54.73 9.00  43.21 2687.60
   06:03:42.579.24-Feb-2020 3290.31 5597.26 54.73 9.00  43.41 2687.60
   06:03:42.779.24-Feb-2020 3290.31 5551.42 54.73 9.00  43.61 2687.60
   06:03:42.979.24-Feb-2020 3290.31 5448.70 54.73 9.00  43.81 2687.60
   06:03:43.179.24-Feb-2020 3290.31 5457.83 54.73 9.00  44.01 2687.60
   06:03:43.379.24-Feb-2020 3290.31 5457.83 54.73 9.00  44.21 2687.60
   06:03:43.579.24-Feb-2020 3290.31 5476.25 54.73 9.00  44.41 2687.60
   06:03:43.779.24-Feb-2020 3290.31 5492.63 54.73 9.00  44.61 2687.60
   06:03:43.979.24-Feb-2020 3290.31 5465.53 54.73 9.00  44.81 2687.60
   06:03:44.179.24-Feb-2020 3290.31 5438.21 54.73 9.00  45.01 2687.60
   06:03:44.379.24-Feb-2020 3290.31 5438.21 54.73 9.00  45.21 2687.60
   06:03:44.579.24-Feb-2020 3290.31 5385.89 54.73 9.00  45.41 2687.60
   06:03:44.779.24-Feb-2020 3290.31 5372.99 54.73 9.00  45.61 2687.60
   06:03:44.979.24-Feb-2020 3290.31 5374.52 54.73 9.00  45.81 2687.60
