~Version Information
 VERS.                  2.0:   CWLS log ASCII Standard -VERSION 2.0
 WRAP.                   NO:   One line per depth step
~Well Information Block
#MNEM.UNIT     VALUE/NAME     DESCRIPTION
#---------     -----------    ---------------------------
 STRT.S             01:46:16 24-Feb-20: START TIME 01:46:16 24-Feb-20
 STOP.S             01:53:27 24-Feb-20: STOP TIME  01:53:27 24-Feb-20
 STEP.S                   0.00: STEP TIME
 NULL.                 -999.25: NULL VALUE
 JOBN.        AZ-XX-0905059384:  JOB TICKET NUMB
 PDAT.          Mean Sea Level:  PERMANENT DATUM
 UNIT.                     N/A:  LOGGING EQUIPMENT ID
 DCON.         Sperry Drilling:  DIRECTNL CONTR
 DOE .                     N/A:  DOE NUMBER
 RIG .             West Chirag:  RIG NAME
 WELL.                     J22:  WELL NAME
 MWDS.                    Baku:  MWD SHOP
 SRVC.     TURAN Drilling & Engineering:  CONTRACTOR
 FLD .                     ACG:  FIELD NAME
 CTRY.              Azerbaijan:  COUNTRY NAME
 PROV.                    Baku:  PROVINCE
 STAT.                    Baku:  STATE NAME
 REGN.                   EESSA:  REGION
 BASE.              Azerbaijan:  LOGGING EQUIPMENT BASE LOCATION
 UWI .                     N/A:  UNIQUE WELL IDENTIFIER
 API .                     N/A:  API NUMBER
 COMP.     BP Exploration (Caspian Sea) Ltd.:  COMPANY
 WTYP.                Deviated:  WELL TYPE
 MDS .        Operator Entered:  MAG DATA SOURCE
 SON .        AZ-XX-0905059384:  JOB NUMBER
 FTOP.          Formation Tops:  FORM TOPS DESC
 ILTD.               Lithology:  INTERP LTH DESC
 SVYD.                  Survey:  SURVEY DESC
 DMOD.             Drill Model:  DRILL MOD DESC
 HPTY.       Minimum Curvature:  HOLE POS TYPE
 NREF.                    Grid:  NORTH REFERENCE
 SPUD.               09-Jan-20:  SPUD DATE
 DATE.      14.04.48 07-Feb-20:  END TIME
 STIM.      07.00.00 09-Jan-20:  START TIME
 DMF .             Drill Floor:  DRILL MEAS FROM
 DFST.                        :  DIST FSL TEXT
 DFWT.                        :  DIST FWL TEXT
 CNTY.                        :  COUNTY
 LOC .                        :  LOCATION
 LMF .             Drill Floor:  LOG MEASURED FROM
 DEP .m                   0.00:  DEPTH
 VSNS.m                  10.28:  VERT SEC N/S
 VSEW.m                  -6.24:  VERT SEC E/W
 AGAP.m                  43.00:  AIR GAP
 APD .m                  43.00:  DEPTH ABOVE PD
 WDMS.m                 169.80:  WD ELEV
 EGL .m                   0.00:  GROUND ELEVATION
 EPD .m                   0.00:  ELEVATION
 AZTC.deg                 6.27:  AZM TOTAL CORR
 GRDC.deg                 0.15:  GRID CORRECTION
 MDEC.deg                 6.42:  MAGNETIC DECL
 MDIP.deg                59.56:  MAGNETIC DIP
 MFLD.nT              50277.00:  MAGNETIC FIELD
 GVFD.g                   1.00:  GRAVITY FIELD
 VSDR.deg               148.53:  VERT SEC DIRECT
 TDD .m                3473.01:  TOTAL DEPTH (DRILLER)
 SDEP.m                 364.00:  START DEPTH
 DFSL.m                   0.00:  DISTANCE FSL
 DFWL.m                   0.00:  DISTANCE FWL
 UTMY.m             4443793.85:  UTM Y
 UTMX.m              519005.06:  UTM X
 WHEW.m                  -6.24:  WELL HEAD E/W
 WHNS.m                  10.28:  WELL HEAD N/S
 LONG.deg                51.22:  LONGITUDE
 LATI.deg                40.13:  LATITUDE
 TVDS.m                  43.00:  TVDSS CORRECTN
 EKB .m                   0.00:  KB ELEVATION
 EDF .m                  43.00:  DF ELEVATION
 TDL .m                 254.00:  TOTAL DEPTH (LOGGER)
 MAGU.                 1850021:  MAGUTM CHECKSUM
 VSC .                       0:  VS TO CLOSURE
~Parameter Information Block
#MNEM.UNIT       Value        Description
#---------     -----------    ---------------------------
 AV  .mps                 0.50:  Ann Velocity 
 AVMX.mps                 1.40:  Max Ann Veloc 
 AZIF.deg               144.94:  Azm, Final 
 BHAT.        Rotary Steerable:  BHA Type 
 BROT.°/30m               0.23:  Build Rotating 
 BS  .in                  8.50:  Bit Size 
 BTPL.psig              264.00:  Bit Press Loss 
 CABU.                     Yes:  Customer Abuse 
 COMM.                     $æx:  Run Comments 1 
 TCS .hr                 87.30:  Time Ciculation Ended 
 CV  .mps                 2.45:  Crit Velocity 
 CVMX.mps                 2.74:  Max Crit Veloc 
 DD1 .             Aziz Aliyev:  Direct Drillr 1 
 DDSV.               Geo-Pilot:  DD Service 
 DEFF.%                 100.00:  % Det Eff 
 DLRX.°/30m               1.22:  Dogleg Rot Max 
 DLSO.°/30m               0.52:  Dogleg Oriented 
 DLSX.°/30m               1.22:  Dogleg Str Max 
 DRET.      12.59.00 23-Feb-20:  Drill End Time 
 DRST.      09.44.00 18-Feb-20:  Drill Start Tim 
 DTIM.hr                 23.03:  Time Drilling 
 EDEP.m                3473.01:  End Depth 
 ENG1.         Almaz Almadatov:  Engineer 1 
 ENG2.         Dair Mahammadov:  Engineer 2 
 ENG3.          Nazrin Asgarli:  Engineer 3 
 ETIM.      10.33.36 26-Feb-20:  End Time 
 FLOI.gpm               480.00:  Flow In 
 FLON.gpm               300.00:  Flow In Min 
 FLOS.cptm                1.00:  Fluid Loss 
 FLOX.gpm               550.00:  Flow In Max 
 HFLO.                      No:  High Flow 
 HPRE.                      No:  High Pressure 
 HTEM.                      No:  High Temp 
 HYDO.m                   1.80:  Hydro Offset 
 IFIN.deg                74.42:  Inc, Final 
 IMAX.deg                76.14:  Inc Max 
 IMIN.deg                74.42:  Inc Min 
 IMND.m                3462.72:  Inc Min Depth 
 IMXD.m                3235.69:  Inc Max Depth 
 JARR.                      No:  Jarring 
 LETM.      12.59.00 23-Feb-20:  Log End Time 
 LOST.hr                     0:  Lost Rig Time 
 LSTM.      09.44.00 18-Feb-20:  Log Start Time 
 MDCL.ppm             45000.00:  Mud Chlorides 
 MDES.     Inversion Oil/Synthetic:  Mud Desc 
 DFD .sg                  1.38:  Mud Density 
 MDMN.sg                  1.34:  Dens Mud Min 
 MDMX.sg                  1.49:  Dens Mud Max 
 MOIL.                      67:  Run Mud Oil % 
 MOWR.                   67:33:  Run Mud OWR 
 MSND.                    0.12:  Run Mud Sand % 
 MSOL.                      22:  Run Mud Solids% 
 DFV .spqt               81.00:  Mud Viscosity 
 MWOD.in                  6.75:  MWD Tool OD 
 MWSI.                      No:  Serv Intrp, MWD 
 OTIM.hr                231.44:  Time Operating 
 PCON.          Wear / Scratch:  Pad Condition 
 PMAX.psia             3400.00:  Press Op, Max 
 PV  .cP                 55.00:  Mud PV 
 RUN .                     800:  Run Number 
 ROPA.m/hr               12.00:  ROP Avg 
 ROPN.m/hr                5.00:  ROP Min 
 ROPX.m/hr               28.00:  ROP Max 
 RPMA.rpm               120.00:  RPM Surface Avg 
 RPMN.rpm                40.00:  RPM Surface Min 
 RPMX.rpm               130.00:  RPM Surface Max 
 RRUN.                    0800:  Rig Run Number 
 RTIM.hr                 45.00:  Time Reaming 
 SAZI.deg               145.38:  Azm, Start 
 SDEP.m                3219.01:  Start Depth 
 SIDD.                      No:  Serv Intrp, DD 
 SINC.deg                75.11:  Inc, Start 
 SPPA.psig             2400.00:  SPP Avg 
 SPPN.psig             2320.00:  SPP Min 
 SPPX.psig             3200.00:  SPP Max 
 STIM.      15.15.00 17-Feb-20:  Start Time 
 SVCS.                 DD, MWD:  Services 
 SVER.                    9.20:  Sperry Version 
 TDAT.m                 254.00:  Tot Depth Attmp 
 TDDF.                      No:  Trip for DD 
 TDLG.m                 254.00:  Tot Depth Loggd 
 TFF .                      No:  Trip for Fail 
 TQAA.f-kp               13.00:  Torque Abs Avg 
 TQAN.f-kp                7.00:  Torque Abs Min 
 TQAX.f-kp               15.00:  Torque Abs Max 
 TRRT.°/30m               0.21:  Turn Rotating 
 MRT .                  EWR-M5:  Maximum Recorded Temperature 
 TTMX.degC               64.00:  Max Tool Temp 
 VS01.                90586516:  Virtual Str1 SN 
 VS02.                90513691:  Virtual Str2 SN 
 VS03.                90586523:  Virtual Str3 SN 
 VS04.                90586520:  Virtual Str4 SN 
 VS05.                90590507:  Virtual Str5 SN 
 WBMN.klb                12.00:  WOB Min 
 WITN.           Rufat Babayev:  Customer Rep 2 
 WITN.         Alistair Sprott:  Customer Rep 
 WOBA.klb                18.00:  WOB Avg 
 WOBX.klb                30.00:  WOB Max 
 YP  .lhf2               41.00:  Yield Point 
~Curve Information Block
#MNEM.UNIT                 API CODE     Curve Description
#---------               -----------    ---------------------------
 TIME.HHMMSS            00 000 000 000:  GT Time & Date
 GTDEPTH.m              00 000 000 000:  GT Depth
 GTPQH.psia             00 000 000 000:  GT HR Quartz Pressure
 GTTQ.degC              00 000 000 000:  GT Quartz Temperature
 GTTN.NONE              00 000 000 000:  GT Test Number
 GTET.sec               00 000 000 000:  GT Elapsed Test Time
 GTTVD.m                00 000 000 000:  GT True Vertical Depth
#Other Information
#
#WARRANTY: Halliburton will use its best efforts to furnish customers with 
#accurate information and interpretations that are part of, and incident to, the services 
#provided.  However, Halliburton cannot and does not warrant the accuracy 
#or correctness of such information and interpretations.  Under no circumstances should any 
#such information or interpretation be relied upon as the sole basis for any drilling, 
#completion, production, or financial decision or any procedure involving any risk to the 
#safety of any drilling venture, drilling rig or its crew or any other third party.  The 
#Customer has full responsibility for all drilling, completion and production operation.  
#Halliburton makes no representations or warranties, either expressed or 
#implied, including, but not limited to, the implied warranties of merchantability or fitness 
#for a particular purpose, with respect to the services rendered.  In no event will 
#Halliburton be liable for failure to obtain any particular results or for 
#any damages, including, but not limited to, indirect, special or consequential damages, 
#resulting from the use of any information or interpretation provided by Halliburton.
#
~A           TIME           GTDEPTH  GTPQH  GTTQ  GTTN  GTET   GTTVD  
# ...
   01:46:39.418.24-Feb-2020 3392.01 5715.69 56.03 4.00  23.00 2713.39
   01:46:39.618.24-Feb-2020 3392.01 5715.69 56.03 4.00  23.20 2713.39
   01:46:39.818.24-Feb-2020 3392.01 5715.41 56.03 4.00  23.40 2713.39
   01:46:40.018.24-Feb-2020 3392.01 5715.90 56.03 4.00  23.60 2713.39
   01:46:40.218.24-Feb-2020 3392.01 5715.66 56.03 4.00  23.80 2713.39
   01:46:40.418.24-Feb-2020 3392.01 5714.56 56.03 4.00  24.01 2713.39
   01:46:40.618.24-Feb-2020 3392.01 5714.56 56.03 4.00  24.21 2713.39
   01:46:40.818.24-Feb-2020 3392.01 5714.66 56.02 4.00  24.41 2713.39
   01:46:41.018.24-Feb-2020 3392.01 5715.55 56.02 4.00  24.61 2713.39
   01:46:41.218.24-Feb-2020 3392.01 5715.86 56.02 4.00  24.81 2713.39
   01:46:41.418.24-Feb-2020 3392.01 5715.56 56.02 4.00  25.01 2713.39
   01:46:41.619.24-Feb-2020 3392.01 5715.56 56.02 4.00  25.21 2713.39
   01:46:41.819.24-Feb-2020 3392.01 5716.63 56.02 4.00  25.41 2713.39
   01:46:42.019.24-Feb-2020 3392.01 5716.63 56.02 4.00  25.61 2713.39
   01:46:42.219.24-Feb-2020 3392.01 5713.62 56.02 4.00  25.81 2713.39
   01:46:42.419.24-Feb-2020 3392.01 5715.16 56.02 4.00  26.01 2713.39
   01:46:42.619.24-Feb-2020 3392.01 5715.16 56.02 4.00  26.21 2713.39
   01:46:42.819.24-Feb-2020 3392.01 5715.45 56.02 4.00  26.41 2713.39
   01:46:43.019.24-Feb-2020 3392.01 5715.24 56.02 4.00  26.61 2713.39
   01:46:43.219.24-Feb-2020 3392.01 5714.96 56.02 4.00  26.81 2713.39
   01:46:43.419.24-Feb-2020 3392.01 5715.76 56.02 4.00  27.01 2713.39
   01:46:43.619.24-Feb-2020 3392.01 5715.76 56.02 4.00  27.21 2713.39
   01:46:43.819.24-Feb-2020 3392.01 5715.76 56.02 4.00  27.41 2713.39
   01:46:44.019.24-Feb-2020 3392.01 5714.21 56.02 4.00  27.61 2713.39
   01:46:44.219.24-Feb-2020 3392.01 5714.70 56.02 4.00  27.81 2713.39
   01:46:44.419.24-Feb-2020 3392.01 5715.64 56.02 4.00  28.01 2713.39
   01:46:44.619.24-Feb-2020 3392.01 5715.64 56.02 4.00  28.21 2713.39
   01:46:44.819.24-Feb-2020 3392.01 5715.70 56.02 4.00  28.41 2713.39
   01:46:45.019.24-Feb-2020 3392.01 5714.36 56.02 4.00  28.61 2713.39
   01:46:45.219.24-Feb-2020 3392.01 5716.41 56.02 4.00  28.81 2713.39
   01:46:45.419.24-Feb-2020 3392.01 5716.37 56.02 4.00  29.01 2713.39
   01:46:45.619.24-Feb-2020 3392.01 5716.37 56.02 4.00  29.21 2713.39
   01:46:45.819.24-Feb-2020 3392.01 5717.89 56.02 4.00  29.41 2713.39
   01:46:46.019.24-Feb-2020 3392.01 5714.70 56.02 4.00  29.61 2713.39
   01:46:46.219.24-Feb-2020 3392.01 5715.01 56.02 4.00  29.81 2713.39
   01:46:46.420.24-Feb-2020 3392.01 5716.37 56.02 4.00  30.01 2713.39
   01:46:46.620.24-Feb-2020 3392.01 5716.37 56.02 4.00  30.21 2713.39
   01:46:46.820.24-Feb-2020 3392.01 5715.85 56.02 4.00  30.41 2713.39
   01:46:47.020.24-Feb-2020 3392.01 5719.35 56.02 4.00  30.61 2713.39
   01:46:47.220.24-Feb-2020 3392.01 5712.52 56.02 4.00  30.81 2713.39
   01:46:47.420.24-Feb-2020 3392.01 5717.63 56.02 4.00  31.01 2713.39
   01:46:47.620.24-Feb-2020 3392.01 5717.63 56.02 4.00  31.21 2713.39
   01:46:47.820.24-Feb-2020 3392.01 5716.10 56.02 4.00  31.41 2713.39
   01:46:48.020.24-Feb-2020 3392.01 5719.77 56.02 4.00  31.61 2713.39
   01:46:48.220.24-Feb-2020 3392.01 5712.03 56.02 4.00  31.81 2713.39
   01:46:48.420.24-Feb-2020 3392.01 5717.36 56.02 4.00  32.01 2713.39
   01:46:48.620.24-Feb-2020 3392.01 5717.36 56.02 4.00  32.21 2713.39
   01:46:48.820.24-Feb-2020 3392.01 5715.20 56.02 4.00  32.41 2713.39
   01:46:49.020.24-Feb-2020 3392.01 5716.40 56.02 4.00  32.61 2713.39
   01:46:49.220.24-Feb-2020 3392.01 5715.36 56.02 4.00  32.81 2713.39
   01:46:49.420.24-Feb-2020 3392.01 5715.77 56.02 4.00  33.01 2713.39
   01:46:49.620.24-Feb-2020 3392.01 5715.77 56.02 4.00  33.21 2713.39
   01:46:49.820.24-Feb-2020 3392.01 5716.13 56.02 4.00  33.41 2713.39
   01:46:50.020.24-Feb-2020 3392.01 5716.35 56.02 4.00  33.61 2713.39
   01:46:50.220.24-Feb-2020 3392.01 5716.39 56.02 4.00  33.81 2713.39
   01:46:50.420.24-Feb-2020 3392.01 5716.26 56.02 4.00  34.01 2713.39
   01:46:50.620.24-Feb-2020 3392.01 5716.26 56.02 4.00  34.21 2713.39
   01:46:50.820.24-Feb-2020 3392.01 5716.70 56.02 4.00  34.41 2713.39
   01:46:51.020.24-Feb-2020 3392.01 5717.18 56.02 4.00  34.61 2713.39
   01:46:51.221.24-Feb-2020 3392.01 5716.96 56.02 4.00  34.81 2713.39
   01:46:51.421.24-Feb-2020 3392.01 5716.23 56.02 4.00  35.01 2713.39
   01:46:51.621.24-Feb-2020 3392.01 5716.23 56.02 4.00  35.21 2713.39
   01:46:51.821.24-Feb-2020 3392.01 5717.86 56.02 4.00  35.41 2713.39
   01:46:52.021.24-Feb-2020 3392.01 5717.59 56.02 4.00  35.61 2713.39
   01:46:52.221.24-Feb-2020 3392.01 5713.91 56.02 4.00  35.81 2713.39
   01:46:52.421.24-Feb-2020 3392.01 5715.64 56.02 4.00  36.01 2713.39
   01:46:52.621.24-Feb-2020 3392.01 5715.64 56.02 4.00  36.21 2713.39
   01:46:52.821.24-Feb-2020 3392.01 5715.18 56.02 4.00  36.41 2713.39
   01:46:53.021.24-Feb-2020 3392.01 5716.50 56.02 4.00  36.61 2713.39
   01:46:53.221.24-Feb-2020 3392.01 5716.29 56.01 4.00  36.81 2713.39
   01:46:53.421.24-Feb-2020 3392.01 5715.80 56.01 4.00  37.01 2713.39
   01:46:53.621.24-Feb-2020 3392.01 5715.80 56.01 4.00  37.21 2713.39
   01:46:53.821.24-Feb-2020 3392.01 5715.45 56.01 4.00  37.41 2713.39
   01:46:54.021.24-Feb-2020 3392.01 5716.38 56.01 4.00  37.61 2713.39
   01:46:54.221.24-Feb-2020 3392.01 5716.78 56.01 4.00  37.81 2713.39
   01:46:54.421.24-Feb-2020 3392.01 5716.80 56.01 4.00  38.01 2713.39
   01:46:54.621.24-Feb-2020 3392.01 5716.80 56.01 4.00  38.21 2713.39
   01:46:54.821.24-Feb-2020 3392.01 5715.36 56.01 4.00  38.41 2713.39
   01:46:55.021.24-Feb-2020 3392.01 5715.59 56.01 4.00  38.61 2713.39
   01:46:55.221.24-Feb-2020 3392.01 5716.19 56.01 4.00  38.81 2713.39
   01:46:55.421.24-Feb-2020 3392.01 5717.99 56.01 4.00  39.01 2713.39
   01:46:55.621.24-Feb-2020 3392.01 5717.99 56.01 4.00  39.21 2713.39
   01:46:55.821.24-Feb-2020 3392.01 5715.51 56.01 4.00  39.41 2713.39
   01:46:56.022.24-Feb-2020 3392.01 5716.14 56.01 4.00  39.61 2713.39
   01:46:56.222.24-Feb-2020 3392.01 5715.98 56.01 4.00  39.81 2713.39
   01:46:56.422.24-Feb-2020 3392.01 5719.25 56.01 4.00  40.01 2713.39
   01:46:56.622.24-Feb-2020 3392.01 5719.25 56.01 4.00  40.21 2713.39
   01:46:56.822.24-Feb-2020 3392.01 5717.91 56.01 4.00  40.41 2713.39
   01:46:57.022.24-Feb-2020 3392.01 5715.96 56.01 4.00  40.61 2713.39
   01:46:57.222.24-Feb-2020 3392.01 5721.03 56.01 4.00  40.81 2713.39
   01:46:57.422.24-Feb-2020 3392.01 5713.06 56.01 4.00  41.01 2713.39
   01:46:57.622.24-Feb-2020 3392.01 5713.06 56.01 4.00  41.21 2713.39
   01:46:57.822.24-Feb-2020 3392.01 5718.10 56.01 4.00  41.41 2713.39
   01:46:58.022.24-Feb-2020 3392.01 5715.86 56.01 4.00  41.61 2713.39
   01:46:58.222.24-Feb-2020 3392.01 5718.16 56.01 4.00  41.81 2713.39
   01:46:58.422.24-Feb-2020 3392.01 5718.14 56.01 4.00  42.01 2713.39
   01:46:58.622.24-Feb-2020 3392.01 5718.14 56.01 4.00  42.21 2713.39
   01:46:58.822.24-Feb-2020 3392.01 5719.14 56.01 4.00  42.41 2713.39
   01:46:59.022.24-Feb-2020 3392.01 5716.08 56.01 4.00  42.61 2713.39
   01:46:59.222.24-Feb-2020 3392.01 5715.79 56.01 4.00  42.81 2713.39
   01:46:59.422.24-Feb-2020 3392.01 5717.06 56.01 4.00  43.01 2713.39
   01:46:59.622.24-Feb-2020 3392.01 5716.60 56.01 4.00  43.21 2713.39
   01:46:59.822.24-Feb-2020 3392.01 5719.67 56.01 4.00  43.41 2713.39
   01:47:00.022.24-Feb-2020 3392.01 5713.80 56.01 4.00  43.61 2713.39
   01:47:00.222.24-Feb-2020 3392.01 5718.57 56.01 4.00  43.81 2713.39
   01:47:00.422.24-Feb-2020 3392.01 5716.47 56.01 4.00  44.01 2713.39
   01:47:00.622.24-Feb-2020 3392.01 5716.58 56.01 4.00  44.21 2713.39
   01:47:00.823.24-Feb-2020 3392.01 5717.57 56.01 4.00  44.41 2713.39
   01:47:01.023.24-Feb-2020 3392.01 5716.79 56.01 4.00  44.61 2713.39
   01:47:01.223.24-Feb-2020 3392.01 5717.54 56.01 4.00  44.81 2713.39
   01:47:01.423.24-Feb-2020 3392.01 5718.04 56.01 4.00  45.01 2713.39
   01:47:01.623.24-Feb-2020 3392.01 5718.04 56.01 4.00  45.21 2713.39
   01:47:01.823.24-Feb-2020 3392.01 5716.68 56.01 4.00  45.41 2713.39
   01:47:02.023.24-Feb-2020 3392.01 5737.70 56.01 4.00  45.61 2713.39
   01:47:02.223.24-Feb-2020 3392.01 5819.29 56.01 4.00  45.81 2713.39
