~Version Information
 VERS.                  2.0:   CWLS log ASCII Standard -VERSION 2.0
 WRAP.                   NO:   One line per depth step
~Well Information Block
#MNEM.UNIT     VALUE/NAME     DESCRIPTION
#---------     -----------    ---------------------------
 STRT.S             01:46:16 24-Feb-20: START TIME 01:46:16 24-Feb-20
 STOP.S             01:53:27 24-Feb-20: STOP TIME  01:53:27 24-Feb-20
 STEP.S                   0.00: STEP TIME
 NULL.                 -999.25: NULL VALUE
 JOBN.        AZ-XX-0905059384:  JOB TICKET NUMB
 PDAT.          Mean Sea Level:  PERMANENT DATUM
 UNIT.                     N/A:  LOGGING EQUIPMENT ID
 DCON.         Sperry Drilling:  DIRECTNL CONTR
 DOE .                     N/A:  DOE NUMBER
 RIG .             West Chirag:  RIG NAME
 WELL.                     J22:  WELL NAME
 MWDS.                    Baku:  MWD SHOP
 SRVC.     TURAN Drilling & Engineering:  CONTRACTOR
 FLD .                     ACG:  FIELD NAME
 CTRY.              Azerbaijan:  COUNTRY NAME
 PROV.                    Baku:  PROVINCE
 STAT.                    Baku:  STATE NAME
 REGN.                   EESSA:  REGION
 BASE.              Azerbaijan:  LOGGING EQUIPMENT BASE LOCATION
 UWI .                     N/A:  UNIQUE WELL IDENTIFIER
 API .                     N/A:  API NUMBER
 COMP.     BP Exploration (Caspian Sea) Ltd.:  COMPANY
 WTYP.                Deviated:  WELL TYPE
 MDS .        Operator Entered:  MAG DATA SOURCE
 SON .        AZ-XX-0905059384:  JOB NUMBER
 FTOP.          Formation Tops:  FORM TOPS DESC
 ILTD.               Lithology:  INTERP LTH DESC
 SVYD.                  Survey:  SURVEY DESC
 DMOD.             Drill Model:  DRILL MOD DESC
 HPTY.       Minimum Curvature:  HOLE POS TYPE
 NREF.                    Grid:  NORTH REFERENCE
 SPUD.               09-Jan-20:  SPUD DATE
 DATE.      14.04.48 07-Feb-20:  END TIME
 STIM.      07.00.00 09-Jan-20:  START TIME
 DMF .             Drill Floor:  DRILL MEAS FROM
 DFST.                        :  DIST FSL TEXT
 DFWT.                        :  DIST FWL TEXT
 CNTY.                        :  COUNTY
 LOC .                        :  LOCATION
 LMF .             Drill Floor:  LOG MEASURED FROM
 DEP .m                   0.00:  DEPTH
 VSNS.m                  10.28:  VERT SEC N/S
 VSEW.m                  -6.24:  VERT SEC E/W
 AGAP.m                  43.00:  AIR GAP
 APD .m                  43.00:  DEPTH ABOVE PD
 WDMS.m                 169.80:  WD ELEV
 EGL .m                   0.00:  GROUND ELEVATION
 EPD .m                   0.00:  ELEVATION
 AZTC.deg                 6.27:  AZM TOTAL CORR
 GRDC.deg                 0.15:  GRID CORRECTION
 MDEC.deg                 6.42:  MAGNETIC DECL
 MDIP.deg                59.56:  MAGNETIC DIP
 MFLD.nT              50277.00:  MAGNETIC FIELD
 GVFD.g                   1.00:  GRAVITY FIELD
 VSDR.deg               148.53:  VERT SEC DIRECT
 TDD .m                3473.01:  TOTAL DEPTH (DRILLER)
 SDEP.m                 364.00:  START DEPTH
 DFSL.m                   0.00:  DISTANCE FSL
 DFWL.m                   0.00:  DISTANCE FWL
 UTMY.m             4443793.85:  UTM Y
 UTMX.m              519005.06:  UTM X
 WHEW.m                  -6.24:  WELL HEAD E/W
 WHNS.m                  10.28:  WELL HEAD N/S
 LONG.deg                51.22:  LONGITUDE
 LATI.deg                40.13:  LATITUDE
 TVDS.m                  43.00:  TVDSS CORRECTN
 EKB .m                   0.00:  KB ELEVATION
 EDF .m                  43.00:  DF ELEVATION
 TDL .m                 254.00:  TOTAL DEPTH (LOGGER)
 MAGU.                 1850021:  MAGUTM CHECKSUM
 VSC .                       0:  VS TO CLOSURE
~Parameter Information Block
#MNEM.UNIT       Value        Description
#---------     -----------    ---------------------------
 AV  .mps                 0.50:  Ann Velocity 
 AVMX.mps                 1.40:  Max Ann Veloc 
 AZIF.deg               144.94:  Azm, Final 
 BHAT.        Rotary Steerable:  BHA Type 
 BROT.°/30m               0.23:  Build Rotating 
 BS  .in                  8.50:  Bit Size 
 BTPL.psig              264.00:  Bit Press Loss 
 CABU.                     Yes:  Customer Abuse 
 COMM.                     $æx:  Run Comments 1 
 TCS .hr                 87.30:  Time Ciculation Ended 
 CV  .mps                 2.45:  Crit Velocity 
 CVMX.mps                 2.74:  Max Crit Veloc 
 DD1 .             Aziz Aliyev:  Direct Drillr 1 
 DDSV.               Geo-Pilot:  DD Service 
 DEFF.%                 100.00:  % Det Eff 
 DLRX.°/30m               1.22:  Dogleg Rot Max 
 DLSO.°/30m               0.52:  Dogleg Oriented 
 DLSX.°/30m               1.22:  Dogleg Str Max 
 DRET.      12.59.00 23-Feb-20:  Drill End Time 
 DRST.      09.44.00 18-Feb-20:  Drill Start Tim 
 DTIM.hr                 23.03:  Time Drilling 
 EDEP.m                3473.01:  End Depth 
 ENG1.         Almaz Almadatov:  Engineer 1 
 ENG2.         Dair Mahammadov:  Engineer 2 
 ENG3.          Nazrin Asgarli:  Engineer 3 
 ETIM.      10.33.36 26-Feb-20:  End Time 
 FLOI.gpm               480.00:  Flow In 
 FLON.gpm               300.00:  Flow In Min 
 FLOS.cptm                1.00:  Fluid Loss 
 FLOX.gpm               550.00:  Flow In Max 
 HFLO.                      No:  High Flow 
 HPRE.                      No:  High Pressure 
 HTEM.                      No:  High Temp 
 HYDO.m                   1.80:  Hydro Offset 
 IFIN.deg                74.42:  Inc, Final 
 IMAX.deg                76.14:  Inc Max 
 IMIN.deg                74.42:  Inc Min 
 IMND.m                3462.72:  Inc Min Depth 
 IMXD.m                3235.69:  Inc Max Depth 
 JARR.                      No:  Jarring 
 LETM.      12.59.00 23-Feb-20:  Log End Time 
 LOST.hr                     0:  Lost Rig Time 
 LSTM.      09.44.00 18-Feb-20:  Log Start Time 
 MDCL.ppm             45000.00:  Mud Chlorides 
 MDES.     Inversion Oil/Synthetic:  Mud Desc 
 DFD .sg                  1.38:  Mud Density 
 MDMN.sg                  1.34:  Dens Mud Min 
 MDMX.sg                  1.49:  Dens Mud Max 
 MOIL.                      67:  Run Mud Oil % 
 MOWR.                   67:33:  Run Mud OWR 
 MSND.                    0.12:  Run Mud Sand % 
 MSOL.                      22:  Run Mud Solids% 
 DFV .spqt               81.00:  Mud Viscosity 
 MWOD.in                  6.75:  MWD Tool OD 
 MWSI.                      No:  Serv Intrp, MWD 
 OTIM.hr                231.44:  Time Operating 
 PCON.          Wear / Scratch:  Pad Condition 
 PMAX.psia             3400.00:  Press Op, Max 
 PV  .cP                 55.00:  Mud PV 
 RUN .                     800:  Run Number 
 ROPA.m/hr               12.00:  ROP Avg 
 ROPN.m/hr                5.00:  ROP Min 
 ROPX.m/hr               28.00:  ROP Max 
 RPMA.rpm               120.00:  RPM Surface Avg 
 RPMN.rpm                40.00:  RPM Surface Min 
 RPMX.rpm               130.00:  RPM Surface Max 
 RRUN.                    0800:  Rig Run Number 
 RTIM.hr                 45.00:  Time Reaming 
 SAZI.deg               145.38:  Azm, Start 
 SDEP.m                3219.01:  Start Depth 
 SIDD.                      No:  Serv Intrp, DD 
 SINC.deg                75.11:  Inc, Start 
 SPPA.psig             2400.00:  SPP Avg 
 SPPN.psig             2320.00:  SPP Min 
 SPPX.psig             3200.00:  SPP Max 
 STIM.      15.15.00 17-Feb-20:  Start Time 
 SVCS.                 DD, MWD:  Services 
 SVER.                    9.20:  Sperry Version 
 TDAT.m                 254.00:  Tot Depth Attmp 
 TDDF.                      No:  Trip for DD 
 TDLG.m                 254.00:  Tot Depth Loggd 
 TFF .                      No:  Trip for Fail 
 TQAA.f-kp               13.00:  Torque Abs Avg 
 TQAN.f-kp                7.00:  Torque Abs Min 
 TQAX.f-kp               15.00:  Torque Abs Max 
 TRRT.°/30m               0.21:  Turn Rotating 
 MRT .                  EWR-M5:  Maximum Recorded Temperature 
 TTMX.degC               64.00:  Max Tool Temp 
 VS01.                90586516:  Virtual Str1 SN 
 VS02.                90513691:  Virtual Str2 SN 
 VS03.                90586523:  Virtual Str3 SN 
 VS04.                90586520:  Virtual Str4 SN 
 VS05.                90590507:  Virtual Str5 SN 
 WBMN.klb                12.00:  WOB Min 
 WITN.           Rufat Babayev:  Customer Rep 2 
 WITN.         Alistair Sprott:  Customer Rep 
 WOBA.klb                18.00:  WOB Avg 
 WOBX.klb                30.00:  WOB Max 
 YP  .lhf2               41.00:  Yield Point 
~Curve Information Block
#MNEM.UNIT                 API CODE     Curve Description
#---------               -----------    ---------------------------
 TIME.HHMMSS            00 000 000 000:  GT Time & Date
 GTDEPTH.m              00 000 000 000:  GT Depth
 GTPQH.psia             00 000 000 000:  GT HR Quartz Pressure
 GTTQ.degC              00 000 000 000:  GT Quartz Temperature
 GTTN.NONE              00 000 000 000:  GT Test Number
 GTET.sec               00 000 000 000:  GT Elapsed Test Time
 GTTVD.m                00 000 000 000:  GT True Vertical Depth
#Other Information
#
#WARRANTY: Halliburton will use its best efforts to furnish customers with 
#accurate information and interpretations that are part of, and incident to, the services 
#provided.  However, Halliburton cannot and does not warrant the accuracy 
#or correctness of such information and interpretations.  Under no circumstances should any 
#such information or interpretation be relied upon as the sole basis for any drilling, 
#completion, production, or financial decision or any procedure involving any risk to the 
#safety of any drilling venture, drilling rig or its crew or any other third party.  The 
#Customer has full responsibility for all drilling, completion and production operation.  
#Halliburton makes no representations or warranties, either expressed or 
#implied, including, but not limited to, the implied warranties of merchantability or fitness 
#for a particular purpose, with respect to the services rendered.  In no event will 
#Halliburton be liable for failure to obtain any particular results or for 
#any damages, including, but not limited to, indirect, special or consequential damages, 
#resulting from the use of any information or interpretation provided by Halliburton.
#
~A           TIME           GTDEPTH  GTPQH  GTTQ  GTTN  GTET   GTTVD  
# ...
   01:51:38.480.24-Feb-2020 3392.01 4211.68 55.85 4.00 322.07 2713.39
   01:51:38.680.24-Feb-2020 3392.01 4211.68 55.85 4.00 322.27 2713.39
   01:51:38.881.24-Feb-2020 3392.01 4211.54 55.85 4.00 322.47 2713.39
   01:51:39.081.24-Feb-2020 3392.01 4211.58 55.85 4.00 322.67 2713.39
   01:51:39.281.24-Feb-2020 3392.01 4211.62 55.85 4.00 322.87 2713.39
   01:51:39.481.24-Feb-2020 3392.01 4211.46 55.85 4.00 323.07 2713.39
   01:51:39.681.24-Feb-2020 3392.01 4211.46 55.85 4.00 323.27 2713.39
   01:51:39.881.24-Feb-2020 3392.01 4211.55 55.85 4.00 323.47 2713.39
   01:51:40.081.24-Feb-2020 3392.01 4211.55 55.85 4.00 323.67 2713.39
   01:51:40.281.24-Feb-2020 3392.01 4211.55 55.85 4.00 323.87 2713.39
   01:51:40.481.24-Feb-2020 3392.01 4211.56 55.85 4.00 324.07 2713.39
   01:51:40.681.24-Feb-2020 3392.01 4211.56 55.85 4.00 324.27 2713.39
   01:51:40.881.24-Feb-2020 3392.01 4211.56 55.85 4.00 324.47 2713.39
   01:51:41.081.24-Feb-2020 3392.01 4211.55 55.85 4.00 324.67 2713.39
   01:51:41.281.24-Feb-2020 3392.01 4211.56 55.85 4.00 324.87 2713.39
   01:51:41.481.24-Feb-2020 3392.01 4211.55 55.85 4.00 325.07 2713.39
   01:51:41.681.24-Feb-2020 3392.01 4211.55 55.85 4.00 325.27 2713.39
   01:51:41.881.24-Feb-2020 3392.01 4211.55 55.85 4.00 325.47 2713.39
   01:51:42.081.24-Feb-2020 3392.01 4211.56 55.85 4.00 325.67 2713.39
   01:51:42.281.24-Feb-2020 3392.01 4211.55 55.85 4.00 325.87 2713.39
   01:51:42.481.24-Feb-2020 3392.01 4211.49 55.85 4.00 326.07 2713.39
   01:51:42.681.24-Feb-2020 3392.01 4211.66 55.85 4.00 326.27 2713.39
   01:51:42.881.24-Feb-2020 3392.01 4211.55 55.85 4.00 326.47 2713.39
   01:51:43.081.24-Feb-2020 3392.01 4211.52 55.85 4.00 326.67 2713.39
   01:51:43.281.24-Feb-2020 3392.01 4211.57 55.85 4.00 326.87 2713.39
   01:51:43.481.24-Feb-2020 3392.01 4211.54 55.85 4.00 327.07 2713.39
   01:51:43.682.24-Feb-2020 3392.01 4211.54 55.85 4.00 327.27 2713.39
   01:51:43.882.24-Feb-2020 3392.01 4211.55 55.85 4.00 327.47 2713.39
   01:51:44.082.24-Feb-2020 3392.01 4211.55 55.85 4.00 327.67 2713.39
   01:51:44.282.24-Feb-2020 3392.01 4211.56 55.85 4.00 327.87 2713.39
   01:51:44.482.24-Feb-2020 3392.01 4211.56 55.85 4.00 328.07 2713.39
   01:51:44.682.24-Feb-2020 3392.01 4211.56 55.85 4.00 328.27 2713.39
   01:51:44.882.24-Feb-2020 3392.01 4211.54 55.85 4.00 328.47 2713.39
   01:51:45.082.24-Feb-2020 3392.01 4211.55 55.85 4.00 328.67 2713.39
   01:51:45.282.24-Feb-2020 3392.01 4211.57 55.85 4.00 328.87 2713.39
   01:51:45.482.24-Feb-2020 3392.01 4211.55 55.85 4.00 329.07 2713.39
   01:51:45.682.24-Feb-2020 3392.01 4211.55 55.85 4.00 329.27 2713.39
   01:51:45.882.24-Feb-2020 3392.01 4211.45 55.85 4.00 329.47 2713.39
   01:51:46.082.24-Feb-2020 3392.01 4211.60 55.85 4.00 329.67 2713.39
   01:51:46.282.24-Feb-2020 3392.01 4211.54 55.85 4.00 329.87 2713.39
   01:51:46.482.24-Feb-2020 3392.01 4211.53 55.85 4.00 330.07 2713.39
   01:51:46.682.24-Feb-2020 3392.01 4211.53 55.85 4.00 330.27 2713.39
   01:51:46.882.24-Feb-2020 3392.01 4211.54 55.85 4.00 330.47 2713.39
   01:51:47.082.24-Feb-2020 3392.01 4211.59 55.85 4.00 330.67 2713.39
   01:51:47.282.24-Feb-2020 3392.01 4211.53 55.85 4.00 330.87 2713.39
   01:51:47.482.24-Feb-2020 3392.01 4211.56 55.85 4.00 331.07 2713.39
   01:51:47.682.24-Feb-2020 3392.01 4211.57 55.85 4.00 331.27 2713.39
   01:51:47.882.24-Feb-2020 3392.01 4211.54 55.85 4.00 331.47 2713.39
   01:51:48.082.24-Feb-2020 3392.01 4211.50 55.85 4.00 331.67 2713.39
   01:51:48.282.24-Feb-2020 3392.01 4211.68 55.85 4.00 331.87 2713.39
   01:51:48.483.24-Feb-2020 3392.01 4211.53 55.85 4.00 332.07 2713.39
   01:51:48.683.24-Feb-2020 3392.01 4211.53 55.85 4.00 332.27 2713.39
   01:51:48.883.24-Feb-2020 3392.01 4211.54 55.85 4.00 332.47 2713.39
   01:51:49.083.24-Feb-2020 3392.01 4211.65 55.85 4.00 332.67 2713.39
   01:51:49.283.24-Feb-2020 3392.01 4211.48 55.85 4.00 332.87 2713.39
   01:51:49.483.24-Feb-2020 3392.01 4211.54 55.85 4.00 333.07 2713.39
   01:51:49.683.24-Feb-2020 3392.01 4211.54 55.85 4.00 333.27 2713.39
   01:51:49.883.24-Feb-2020 3392.01 4211.55 55.85 4.00 333.47 2713.39
   01:51:50.083.24-Feb-2020 3392.01 4211.54 55.85 4.00 333.67 2713.39
   01:51:50.283.24-Feb-2020 3392.01 4211.55 55.85 4.00 333.87 2713.39
   01:51:50.483.24-Feb-2020 3392.01 4211.55 55.85 4.00 334.07 2713.39
   01:51:50.683.24-Feb-2020 3392.01 4211.56 55.85 4.00 334.27 2713.39
   01:51:50.883.24-Feb-2020 3392.01 4211.55 55.85 4.00 334.47 2713.39
   01:51:51.083.24-Feb-2020 3392.01 4211.55 55.85 4.00 334.67 2713.39
   01:51:51.283.24-Feb-2020 3392.01 4211.55 55.85 4.00 334.87 2713.39
   01:51:51.483.24-Feb-2020 3392.01 4211.57 55.85 4.00 335.07 2713.39
   01:51:51.683.24-Feb-2020 3392.01 4211.57 55.85 4.00 335.27 2713.39
   01:51:51.883.24-Feb-2020 3392.01 4211.56 55.85 4.00 335.47 2713.39
   01:51:52.083.24-Feb-2020 3392.01 4211.55 55.85 4.00 335.67 2713.39
   01:51:52.283.24-Feb-2020 3392.01 4211.53 55.85 4.00 335.87 2713.39
   01:51:52.483.24-Feb-2020 3392.01 4211.60 55.85 4.00 336.07 2713.39
   01:51:52.683.24-Feb-2020 3392.01 4211.60 55.85 4.00 336.27 2713.39
   01:51:52.883.24-Feb-2020 3392.01 4211.55 55.85 4.00 336.47 2713.39
   01:51:53.083.24-Feb-2020 3392.01 4211.56 55.85 4.00 336.67 2713.39
   01:51:53.284.24-Feb-2020 3392.01 4211.53 55.85 4.00 336.87 2713.39
   01:51:53.484.24-Feb-2020 3392.01 4211.55 55.85 4.00 337.07 2713.39
   01:51:53.684.24-Feb-2020 3392.01 4211.55 55.85 4.00 337.27 2713.39
   01:51:53.884.24-Feb-2020 3392.01 4211.56 55.85 4.00 337.47 2713.39
   01:51:54.084.24-Feb-2020 3392.01 4211.56 55.85 4.00 337.67 2713.39
   01:51:54.284.24-Feb-2020 3392.01 4211.55 55.85 4.00 337.87 2713.39
   01:51:54.484.24-Feb-2020 3392.01 4211.54 55.85 4.00 338.07 2713.39
   01:51:54.684.24-Feb-2020 3392.01 4211.55 55.85 4.00 338.27 2713.39
   01:51:54.884.24-Feb-2020 3392.01 4211.57 55.85 4.00 338.47 2713.39
   01:51:55.084.24-Feb-2020 3392.01 4211.55 55.85 4.00 338.67 2713.39
   01:51:55.284.24-Feb-2020 3392.01 4211.51 55.85 4.00 338.87 2713.39
   01:51:55.484.24-Feb-2020 3392.01 4211.66 55.85 4.00 339.07 2713.39
   01:51:55.684.24-Feb-2020 3392.01 4211.48 55.85 4.00 339.27 2713.39
   01:51:55.884.24-Feb-2020 3392.01 4211.53 55.85 4.00 339.47 2713.39
   01:51:56.084.24-Feb-2020 3392.01 4211.58 55.85 4.00 339.67 2713.39
   01:51:56.284.24-Feb-2020 3392.01 4211.62 55.85 4.00 339.87 2713.39
   01:51:56.484.24-Feb-2020 3392.01 4211.45 55.85 4.00 340.07 2713.39
   01:51:56.684.24-Feb-2020 3392.01 4211.45 55.85 4.00 340.27 2713.39
   01:51:56.884.24-Feb-2020 3392.01 4211.55 55.85 4.00 340.47 2713.39
   01:51:57.084.24-Feb-2020 3392.01 4211.53 55.85 4.00 340.67 2713.39
   01:51:57.284.24-Feb-2020 3392.01 4211.56 55.85 4.00 340.87 2713.39
   01:51:57.484.24-Feb-2020 3392.01 4211.54 55.85 4.00 341.07 2713.39
   01:51:57.684.24-Feb-2020 3392.01 4211.54 55.85 4.00 341.27 2713.39
   01:51:57.884.24-Feb-2020 3392.01 4211.54 55.85 4.00 341.47 2713.39
   01:51:58.085.24-Feb-2020 3392.01 4211.59 55.85 4.00 341.67 2713.39
   01:51:58.285.24-Feb-2020 3392.01 4211.52 55.84 4.00 341.87 2713.39
   01:51:58.485.24-Feb-2020 3392.01 4211.56 55.84 4.00 342.07 2713.39
   01:51:58.685.24-Feb-2020 3392.01 4211.56 55.84 4.00 342.27 2713.39
   01:51:58.885.24-Feb-2020 3392.01 4211.66 55.84 4.00 342.47 2713.39
   01:51:59.085.24-Feb-2020 3392.01 4211.52 55.84 4.00 342.67 2713.39
   01:51:59.285.24-Feb-2020 3392.01 4211.52 55.84 4.00 342.87 2713.39
   01:51:59.485.24-Feb-2020 3392.01 4211.56 55.84 4.00 343.07 2713.39
   01:51:59.685.24-Feb-2020 3392.01 4211.53 55.84 4.00 343.27 2713.39
   01:51:59.885.24-Feb-2020 3392.01 4211.55 55.84 4.00 343.47 2713.39
   01:52:00.085.24-Feb-2020 3392.01 4211.54 55.84 4.00 343.67 2713.39
   01:52:00.285.24-Feb-2020 3392.01 4211.55 55.84 4.00 343.87 2713.39
   01:52:00.485.24-Feb-2020 3392.01 4211.54 55.84 4.00 344.07 2713.39
   01:52:00.685.24-Feb-2020 3392.01 4211.54 55.84 4.00 344.27 2713.39
   01:52:00.885.24-Feb-2020 3392.01 4211.54 55.84 4.00 344.47 2713.39
   01:52:01.085.24-Feb-2020 3392.01 4211.55 55.84 4.00 344.67 2713.39
   01:52:01.285.24-Feb-2020 3392.01 4211.55 55.84 4.00 344.87 2713.39
