~Version Information
 VERS.                  2.0:   CWLS log ASCII Standard -VERSION 2.0
 WRAP.                   NO:   One line per depth step
~Well Information Block
#MNEM.UNIT     VALUE/NAME     DESCRIPTION
#---------     -----------    ---------------------------
 STRT.S             03:19:12 24-Feb-20: START TIME 03:19:12 24-Feb-20
 STOP.S             03:27:48 24-Feb-20: STOP TIME  03:27:48 24-Feb-20
 STEP.S                   0.00: STEP TIME
 NULL.                 -999.25: NULL VALUE
 JOBN.        AZ-XX-0905059384:  JOB TICKET NUMB
 PDAT.          Mean Sea Level:  PERMANENT DATUM
 UNIT.                     N/A:  LOGGING EQUIPMENT ID
 DCON.         Sperry Drilling:  DIRECTNL CONTR
 DOE .                     N/A:  DOE NUMBER
 RIG .             West Chirag:  RIG NAME
 WELL.                     J22:  WELL NAME
 MWDS.                    Baku:  MWD SHOP
 SRVC.     TURAN Drilling & Engineering:  CONTRACTOR
 FLD .                     ACG:  FIELD NAME
 CTRY.              Azerbaijan:  COUNTRY NAME
 PROV.                    Baku:  PROVINCE
 STAT.                    Baku:  STATE NAME
 REGN.                   EESSA:  REGION
 BASE.              Azerbaijan:  LOGGING EQUIPMENT BASE LOCATION
 UWI .                     N/A:  UNIQUE WELL IDENTIFIER
 API .                     N/A:  API NUMBER
 COMP.     BP Exploration (Caspian Sea) Ltd.:  COMPANY
 WTYP.                Deviated:  WELL TYPE
 MDS .        Operator Entered:  MAG DATA SOURCE
 SON .        AZ-XX-0905059384:  JOB NUMBER
 FTOP.          Formation Tops:  FORM TOPS DESC
 ILTD.               Lithology:  INTERP LTH DESC
 SVYD.                  Survey:  SURVEY DESC
 DMOD.             Drill Model:  DRILL MOD DESC
 HPTY.       Minimum Curvature:  HOLE POS TYPE
 NREF.                    Grid:  NORTH REFERENCE
 SPUD.               09-Jan-20:  SPUD DATE
 DATE.      14.04.48 07-Feb-20:  END TIME
 STIM.      07.00.00 09-Jan-20:  START TIME
 DMF .             Drill Floor:  DRILL MEAS FROM
 DFST.                        :  DIST FSL TEXT
 DFWT.                        :  DIST FWL TEXT
 CNTY.                        :  COUNTY
 LOC .                        :  LOCATION
 LMF .             Drill Floor:  LOG MEASURED FROM
 DEP .m                   0.00:  DEPTH
 VSNS.m                  10.28:  VERT SEC N/S
 VSEW.m                  -6.24:  VERT SEC E/W
 AGAP.m                  43.00:  AIR GAP
 APD .m                  43.00:  DEPTH ABOVE PD
 WDMS.m                 169.80:  WD ELEV
 EGL .m                   0.00:  GROUND ELEVATION
 EPD .m                   0.00:  ELEVATION
 AZTC.deg                 6.27:  AZM TOTAL CORR
 GRDC.deg                 0.15:  GRID CORRECTION
 MDEC.deg                 6.42:  MAGNETIC DECL
 MDIP.deg                59.56:  MAGNETIC DIP
 MFLD.nT              50277.00:  MAGNETIC FIELD
 GVFD.g                   1.00:  GRAVITY FIELD
 VSDR.deg               148.53:  VERT SEC DIRECT
 TDD .m                3473.01:  TOTAL DEPTH (DRILLER)
 SDEP.m                 364.00:  START DEPTH
 DFSL.m                   0.00:  DISTANCE FSL
 DFWL.m                   0.00:  DISTANCE FWL
 UTMY.m             4443793.85:  UTM Y
 UTMX.m              519005.06:  UTM X
 WHEW.m                  -6.24:  WELL HEAD E/W
 WHNS.m                  10.28:  WELL HEAD N/S
 LONG.deg                51.22:  LONGITUDE
 LATI.deg                40.13:  LATITUDE
 TVDS.m                  43.00:  TVDSS CORRECTN
 EKB .m                   0.00:  KB ELEVATION
 EDF .m                  43.00:  DF ELEVATION
 TDL .m                 254.00:  TOTAL DEPTH (LOGGER)
 MAGU.                 1850021:  MAGUTM CHECKSUM
 VSC .                       0:  VS TO CLOSURE
~Parameter Information Block
#MNEM.UNIT       Value        Description
#---------     -----------    ---------------------------
 AV  .mps                 0.50:  Ann Velocity 
 AVMX.mps                 1.40:  Max Ann Veloc 
 AZIF.deg               144.94:  Azm, Final 
 BHAT.        Rotary Steerable:  BHA Type 
 BROT.°/30m               0.23:  Build Rotating 
 BS  .in                  8.50:  Bit Size 
 BTPL.psig              264.00:  Bit Press Loss 
 CABU.                     Yes:  Customer Abuse 
 COMM.                     ´á{:  Run Comments 1 
 TCS .hr                 87.30:  Time Ciculation Ended 
 CV  .mps                 2.45:  Crit Velocity 
 CVMX.mps                 2.74:  Max Crit Veloc 
 DD1 .             Aziz Aliyev:  Direct Drillr 1 
 DDSV.               Geo-Pilot:  DD Service 
 DEFF.%                 100.00:  % Det Eff 
 DLRX.°/30m               1.22:  Dogleg Rot Max 
 DLSO.°/30m               0.52:  Dogleg Oriented 
 DLSX.°/30m               1.22:  Dogleg Str Max 
 DRET.      12.59.00 23-Feb-20:  Drill End Time 
 DRST.      09.44.00 18-Feb-20:  Drill Start Tim 
 DTIM.hr                 23.03:  Time Drilling 
 EDEP.m                3473.01:  End Depth 
 ENG1.         Almaz Almadatov:  Engineer 1 
 ENG2.         Dair Mahammadov:  Engineer 2 
 ENG3.          Nazrin Asgarli:  Engineer 3 
 ETIM.      10.33.36 26-Feb-20:  End Time 
 FLOI.gpm               480.00:  Flow In 
 FLON.gpm               300.00:  Flow In Min 
 FLOS.cptm                1.00:  Fluid Loss 
 FLOX.gpm               550.00:  Flow In Max 
 HFLO.                      No:  High Flow 
 HPRE.                      No:  High Pressure 
 HTEM.                      No:  High Temp 
 HYDO.m                   1.80:  Hydro Offset 
 IFIN.deg                74.42:  Inc, Final 
 IMAX.deg                76.14:  Inc Max 
 IMIN.deg                74.42:  Inc Min 
 IMND.m                3462.72:  Inc Min Depth 
 IMXD.m                3235.69:  Inc Max Depth 
 JARR.                      No:  Jarring 
 LETM.      12.59.00 23-Feb-20:  Log End Time 
 LOST.hr                     0:  Lost Rig Time 
 LSTM.      09.44.00 18-Feb-20:  Log Start Time 
 MDCL.ppm             45000.00:  Mud Chlorides 
 MDES.     Inversion Oil/Synthetic:  Mud Desc 
 DFD .sg                  1.38:  Mud Density 
 MDMN.sg                  1.34:  Dens Mud Min 
 MDMX.sg                  1.49:  Dens Mud Max 
 MOIL.                      67:  Run Mud Oil % 
 MOWR.                   67:33:  Run Mud OWR 
 MSND.                    0.12:  Run Mud Sand % 
 MSOL.                      22:  Run Mud Solids% 
 DFV .spqt               81.00:  Mud Viscosity 
 MWOD.in                  6.75:  MWD Tool OD 
 MWSI.                      No:  Serv Intrp, MWD 
 OTIM.hr                231.44:  Time Operating 
 PCON.          Wear / Scratch:  Pad Condition 
 PMAX.psia             3400.00:  Press Op, Max 
 PV  .cP                 55.00:  Mud PV 
 RUN .                     800:  Run Number 
 ROPA.m/hr               12.00:  ROP Avg 
 ROPN.m/hr                5.00:  ROP Min 
 ROPX.m/hr               28.00:  ROP Max 
 RPMA.rpm               120.00:  RPM Surface Avg 
 RPMN.rpm                40.00:  RPM Surface Min 
 RPMX.rpm               130.00:  RPM Surface Max 
 RRUN.                    0800:  Rig Run Number 
 RTIM.hr                 45.00:  Time Reaming 
 SAZI.deg               145.38:  Azm, Start 
 SDEP.m                3219.01:  Start Depth 
 SIDD.                      No:  Serv Intrp, DD 
 SINC.deg                75.11:  Inc, Start 
 SPPA.psig             2400.00:  SPP Avg 
 SPPN.psig             2320.00:  SPP Min 
 SPPX.psig             3200.00:  SPP Max 
 STIM.      15.15.00 17-Feb-20:  Start Time 
 SVCS.                 DD, MWD:  Services 
 SVER.                    9.20:  Sperry Version 
 TDAT.m                 254.00:  Tot Depth Attmp 
 TDDF.                      No:  Trip for DD 
 TDLG.m                 254.00:  Tot Depth Loggd 
 TFF .                      No:  Trip for Fail 
 TQAA.f-kp               13.00:  Torque Abs Avg 
 TQAN.f-kp                7.00:  Torque Abs Min 
 TQAX.f-kp               15.00:  Torque Abs Max 
 TRRT.°/30m               0.21:  Turn Rotating 
 MRT .                  EWR-M5:  Maximum Recorded Temperature 
 TTMX.degC               64.00:  Max Tool Temp 
 VS01.                90586516:  Virtual Str1 SN 
 VS02.                90513691:  Virtual Str2 SN 
 VS03.                90586523:  Virtual Str3 SN 
 VS04.                90586520:  Virtual Str4 SN 
 VS05.                90590507:  Virtual Str5 SN 
 WBMN.klb                12.00:  WOB Min 
 WITN.           Rufat Babayev:  Customer Rep 2 
 WITN.         Alistair Sprott:  Customer Rep 
 WOBA.klb                18.00:  WOB Avg 
 WOBX.klb                30.00:  WOB Max 
 YP  .lhf2               41.00:  Yield Point 
~Curve Information Block
#MNEM.UNIT                 API CODE     Curve Description
#---------               -----------    ---------------------------
 TIME.HHMMSS            00 000 000 000:  GT Time & Date
 GTDEPTH.m              00 000 000 000:  GT Depth
 GTPQH.psia             00 000 000 000:  GT HR Quartz Pressure
 GTTQ.degC              00 000 000 000:  GT Quartz Temperature
 GTTN.NONE              00 000 000 000:  GT Test Number
 GTET.sec               00 000 000 000:  GT Elapsed Test Time
 GTTVD.m                00 000 000 000:  GT True Vertical Depth
#Other Information
#
#WARRANTY: Halliburton will use its best efforts to furnish customers with 
#accurate information and interpretations that are part of, and incident to, the services 
#provided.  However, Halliburton cannot and does not warrant the accuracy 
#or correctness of such information and interpretations.  Under no circumstances should any 
#such information or interpretation be relied upon as the sole basis for any drilling, 
#completion, production, or financial decision or any procedure involving any risk to the 
#safety of any drilling venture, drilling rig or its crew or any other third party.  The 
#Customer has full responsibility for all drilling, completion and production operation.  
#Halliburton makes no representations or warranties, either expressed or 
#implied, including, but not limited to, the implied warranties of merchantability or fitness 
#for a particular purpose, with respect to the services rendered.  In no event will 
#Halliburton be liable for failure to obtain any particular results or for 
#any damages, including, but not limited to, indirect, special or consequential damages, 
#resulting from the use of any information or interpretation provided by Halliburton.
#
~A           TIME           GTDEPTH  GTPQH  GTTQ  GTTN  GTET   GTTVD  
# ...
   03:20:21.133.24-Feb-2020 3366.71 4218.95 55.03 6.00  69.03 2706.89
   03:20:21.333.24-Feb-2020 3366.71 4218.95 55.03 6.00  69.23 2706.89
   03:20:21.533.24-Feb-2020 3366.71 4264.87 55.03 6.00  69.43 2706.89
   03:20:21.733.24-Feb-2020 3366.71 4282.29 55.03 6.00  69.63 2706.89
   03:20:21.934.24-Feb-2020 3366.71 4298.26 55.03 6.00  69.83 2706.89
   03:20:22.134.24-Feb-2020 3366.71 4311.00 55.03 6.00  70.03 2706.89
   03:20:22.334.24-Feb-2020 3366.71 4311.00 55.03 6.00  70.23 2706.89
   03:20:22.534.24-Feb-2020 3366.71 4331.22 55.03 6.00  70.43 2706.89
   03:20:22.734.24-Feb-2020 3366.71 4340.25 55.03 6.00  70.63 2706.89
   03:20:22.934.24-Feb-2020 3366.71 4347.39 55.03 6.00  70.83 2706.89
   03:20:23.134.24-Feb-2020 3366.71 4354.01 55.03 6.00  71.03 2706.89
   03:20:23.334.24-Feb-2020 3366.71 4354.01 55.03 6.00  71.23 2706.89
   03:20:23.534.24-Feb-2020 3366.71 4364.10 55.04 6.00  71.43 2706.89
   03:20:23.734.24-Feb-2020 3366.71 4367.68 55.04 6.00  71.63 2706.89
   03:20:23.934.24-Feb-2020 3366.71 4372.69 55.04 6.00  71.83 2706.89
   03:20:24.134.24-Feb-2020 3366.71 4376.78 55.04 6.00  72.03 2706.89
   03:20:24.334.24-Feb-2020 3366.71 4376.78 55.04 6.00  72.23 2706.89
   03:20:24.535.24-Feb-2020 3366.71 4382.47 55.04 6.00  72.43 2706.89
   03:20:24.735.24-Feb-2020 3366.71 4384.99 55.04 6.00  72.63 2706.89
   03:20:24.935.24-Feb-2020 3366.71 4387.30 55.04 6.00  72.83 2706.89
   03:20:25.135.24-Feb-2020 3366.71 4389.35 55.04 6.00  73.03 2706.89
   03:20:25.335.24-Feb-2020 3366.71 4389.35 55.04 6.00  73.23 2706.89
   03:20:25.535.24-Feb-2020 3366.71 4393.12 55.05 6.00  73.43 2706.89
   03:20:25.735.24-Feb-2020 3366.71 4394.77 55.05 6.00  73.63 2706.89
   03:20:25.935.24-Feb-2020 3366.71 4396.30 55.05 6.00  73.83 2706.89
   03:20:26.135.24-Feb-2020 3366.71 4397.79 55.05 6.00  74.03 2706.89
   03:20:26.335.24-Feb-2020 3366.71 4397.79 55.05 6.00  74.23 2706.89
   03:20:26.535.24-Feb-2020 3366.71 4400.46 55.05 6.00  74.43 2706.89
   03:20:26.735.24-Feb-2020 3366.71 4401.62 55.05 6.00  74.63 2706.89
   03:20:26.936.24-Feb-2020 3366.71 4401.44 55.05 6.00  74.83 2706.89
   03:20:27.136.24-Feb-2020 3366.71 4404.03 55.05 6.00  75.03 2706.89
   03:20:27.336.24-Feb-2020 3366.71 4404.03 55.05 6.00  75.23 2706.89
   03:20:27.536.24-Feb-2020 3366.71 4406.00 55.05 6.00  75.43 2706.89
   03:20:27.736.24-Feb-2020 3366.71 4406.67 55.05 6.00  75.63 2706.89
   03:20:27.936.24-Feb-2020 3366.71 4407.44 55.05 6.00  75.83 2706.89
   03:20:28.136.24-Feb-2020 3366.71 4408.01 55.05 6.00  76.03 2706.89
   03:20:28.336.24-Feb-2020 3366.71 4408.01 55.05 6.00  76.23 2706.89
   03:20:28.536.24-Feb-2020 3366.71 4409.36 55.05 6.00  76.43 2706.89
   03:20:28.736.24-Feb-2020 3366.71 4409.86 55.06 6.00  76.63 2706.89
   03:20:28.936.24-Feb-2020 3366.71 4410.33 55.06 6.00  76.83 2706.89
   03:20:29.136.24-Feb-2020 3366.71 4410.96 55.06 6.00  77.03 2706.89
   03:20:29.336.24-Feb-2020 3366.71 4410.96 55.06 6.00  77.23 2706.89
   03:20:29.537.24-Feb-2020 3366.71 4412.07 55.06 6.00  77.43 2706.89
   03:20:29.737.24-Feb-2020 3366.71 4412.56 55.06 6.00  77.63 2706.89
   03:20:29.937.24-Feb-2020 3366.71 4413.02 55.06 6.00  77.83 2706.89
   03:20:30.137.24-Feb-2020 3366.71 4412.90 55.06 6.00  78.03 2706.89
   03:20:30.337.24-Feb-2020 3366.71 4412.90 55.06 6.00  78.23 2706.89
   03:20:30.537.24-Feb-2020 3366.71 4414.56 55.06 6.00  78.43 2706.89
   03:20:30.737.24-Feb-2020 3366.71 4415.06 55.06 6.00  78.63 2706.89
   03:20:30.937.24-Feb-2020 3366.71 4414.94 55.06 6.00  78.83 2706.89
   03:20:31.137.24-Feb-2020 3366.71 4415.77 55.06 6.00  79.03 2706.89
   03:20:31.337.24-Feb-2020 3366.71 4415.77 55.06 6.00  79.23 2706.89
   03:20:31.537.24-Feb-2020 3366.71 4416.46 55.06 6.00  79.43 2706.89
   03:20:31.737.24-Feb-2020 3366.71 4416.22 55.06 6.00  79.63 2706.89
   03:20:31.938.24-Feb-2020 3366.71 4417.13 55.06 6.00  79.83 2706.89
   03:20:32.138.24-Feb-2020 3366.71 4417.90 55.06 6.00  80.03 2706.89
   03:20:32.338.24-Feb-2020 3366.71 4417.90 55.06 6.00  80.23 2706.89
   03:20:32.538.24-Feb-2020 3366.71 4418.07 55.06 6.00  80.43 2706.89
   03:20:32.738.24-Feb-2020 3366.71 4418.54 55.06 6.00  80.63 2706.89
   03:20:32.938.24-Feb-2020 3366.71 4418.95 55.06 6.00  80.83 2706.89
   03:20:33.138.24-Feb-2020 3366.71 4418.66 55.06 6.00  81.03 2706.89
   03:20:33.338.24-Feb-2020 3366.71 4418.66 55.06 6.00  81.23 2706.89
   03:20:33.538.24-Feb-2020 3366.71 4419.39 55.06 6.00  81.43 2706.89
   03:20:33.738.24-Feb-2020 3366.71 4419.67 55.06 6.00  81.63 2706.89
   03:20:33.938.24-Feb-2020 3366.71 4419.64 55.06 6.00  81.83 2706.89
   03:20:34.138.24-Feb-2020 3366.71 4419.61 55.06 6.00  82.03 2706.89
   03:20:34.338.24-Feb-2020 3366.71 4419.61 55.06 6.00  82.23 2706.89
   03:20:34.539.24-Feb-2020 3366.71 4419.77 55.06 6.00  82.43 2706.89
   03:20:34.739.24-Feb-2020 3366.71 4419.87 55.06 6.00  82.63 2706.89
   03:20:34.939.24-Feb-2020 3366.71 4419.99 55.06 6.00  82.83 2706.89
   03:20:35.139.24-Feb-2020 3366.71 4420.06 55.06 6.00  83.03 2706.89
   03:20:35.339.24-Feb-2020 3366.71 4420.06 55.06 6.00  83.23 2706.89
   03:20:35.539.24-Feb-2020 3366.71 4420.33 55.06 6.00  83.43 2706.89
   03:20:35.739.24-Feb-2020 3366.71 4420.48 55.07 6.00  83.63 2706.89
   03:20:35.939.24-Feb-2020 3366.71 4420.71 55.06 6.00  83.83 2706.89
   03:20:36.139.24-Feb-2020 3366.71 4419.78 55.07 6.00  84.03 2706.89
   03:20:36.339.24-Feb-2020 3366.71 4419.78 55.07 6.00  84.23 2706.89
   03:20:36.539.24-Feb-2020 3366.71 4422.04 55.07 6.00  84.43 2706.89
   03:20:36.739.24-Feb-2020 3366.71 4421.71 55.07 6.00  84.63 2706.89
   03:20:36.940.24-Feb-2020 3366.71 4421.70 55.07 6.00  84.83 2706.89
   03:20:37.140.24-Feb-2020 3366.71 4421.76 55.07 6.00  85.03 2706.89
   03:20:37.340.24-Feb-2020 3366.71 4421.76 55.07 6.00  85.23 2706.89
   03:20:37.540.24-Feb-2020 3366.71 4421.66 55.07 6.00  85.43 2706.89
   03:20:37.740.24-Feb-2020 3366.71 4421.81 55.07 6.00  85.63 2706.89
   03:20:37.940.24-Feb-2020 3366.71 4421.87 55.07 6.00  85.83 2706.89
   03:20:38.140.24-Feb-2020 3366.71 4421.80 55.07 6.00  86.03 2706.89
   03:20:38.340.24-Feb-2020 3366.71 4421.80 55.07 6.00  86.23 2706.89
   03:20:38.540.24-Feb-2020 3366.71 4421.96 55.07 6.00  86.43 2706.89
   03:20:38.740.24-Feb-2020 3366.71 4422.03 55.07 6.00  86.63 2706.89
   03:20:38.940.24-Feb-2020 3366.71 4422.20 55.07 6.00  86.83 2706.89
   03:20:39.140.24-Feb-2020 3366.71 4422.32 55.07 6.00  87.03 2706.89
   03:20:39.340.24-Feb-2020 3366.71 4422.32 55.07 6.00  87.23 2706.89
   03:20:39.541.24-Feb-2020 3366.71 4421.49 55.07 6.00  87.43 2706.89
   03:20:39.741.24-Feb-2020 3366.71 4423.04 55.07 6.00  87.64 2706.89
   03:20:39.941.24-Feb-2020 3366.71 4423.51 55.07 6.00  87.84 2706.89
   03:20:40.141.24-Feb-2020 3366.71 4423.18 55.07 6.00  88.04 2706.89
   03:20:40.341.24-Feb-2020 3366.71 4423.18 55.07 6.00  88.24 2706.89
   03:20:40.541.24-Feb-2020 3366.71 4422.33 55.07 6.00  88.44 2706.89
   03:20:40.741.24-Feb-2020 3366.71 4423.69 55.07 6.00  88.64 2706.89
   03:20:40.941.24-Feb-2020 3366.71 4424.14 55.07 6.00  88.84 2706.89
   03:20:41.141.24-Feb-2020 3366.71 4423.80 55.07 6.00  89.04 2706.89
   03:20:41.341.24-Feb-2020 3366.71 4423.80 55.07 6.00  89.24 2706.89
   03:20:41.541.24-Feb-2020 3366.71 4423.34 55.07 6.00  89.44 2706.89
   03:20:41.741.24-Feb-2020 3366.71 4424.37 55.07 6.00  89.64 2706.89
   03:20:41.942.24-Feb-2020 3366.71 4424.08 55.07 6.00  89.84 2706.89
   03:20:42.142.24-Feb-2020 3366.71 4423.15 55.07 6.00  90.04 2706.89
   03:20:42.342.24-Feb-2020 3366.71 4423.15 55.07 6.00  90.24 2706.89
   03:20:42.542.24-Feb-2020 3366.71 4425.71 55.07 6.00  90.44 2706.89
   03:20:42.742.24-Feb-2020 3366.71 4425.04 55.07 6.00  90.64 2706.89
   03:20:42.942.24-Feb-2020 3366.71 4424.82 55.07 6.00  90.84 2706.89
   03:20:43.142.24-Feb-2020 3366.71 4424.67 55.07 6.00  91.04 2706.89
   03:20:43.342.24-Feb-2020 3366.71 4424.67 55.07 6.00  91.24 2706.89
   03:20:43.542.24-Feb-2020 3366.71 4424.38 55.07 6.00  91.44 2706.89
   03:20:43.742.24-Feb-2020 3366.71 4424.33 55.07 6.00  91.64 2706.89
   03:20:43.942.24-Feb-2020 3366.71 4424.23 55.07 6.00  91.84 2706.89
