~Version Information
 VERS.                  2.0:   CWLS log ASCII Standard -VERSION 2.0
 WRAP.                   NO:   One line per depth step
~Well Information Block
#MNEM.UNIT     VALUE/NAME     DESCRIPTION
#---------     -----------    ---------------------------
 STRT.S             01:46:16 24-Feb-20: START TIME 01:46:16 24-Feb-20
 STOP.S             01:53:27 24-Feb-20: STOP TIME  01:53:27 24-Feb-20
 STEP.S                   0.00: STEP TIME
 NULL.                 -999.25: NULL VALUE
 JOBN.        AZ-XX-0905059384:  JOB TICKET NUMB
 PDAT.          Mean Sea Level:  PERMANENT DATUM
 UNIT.                     N/A:  LOGGING EQUIPMENT ID
 DCON.         Sperry Drilling:  DIRECTNL CONTR
 DOE .                     N/A:  DOE NUMBER
 RIG .             West Chirag:  RIG NAME
 WELL.                     J22:  WELL NAME
 MWDS.                    Baku:  MWD SHOP
 SRVC.     TURAN Drilling & Engineering:  CONTRACTOR
 FLD .                     ACG:  FIELD NAME
 CTRY.              Azerbaijan:  COUNTRY NAME
 PROV.                    Baku:  PROVINCE
 STAT.                    Baku:  STATE NAME
 REGN.                   EESSA:  REGION
 BASE.              Azerbaijan:  LOGGING EQUIPMENT BASE LOCATION
 UWI .                     N/A:  UNIQUE WELL IDENTIFIER
 API .                     N/A:  API NUMBER
 COMP.     BP Exploration (Caspian Sea) Ltd.:  COMPANY
 WTYP.                Deviated:  WELL TYPE
 MDS .        Operator Entered:  MAG DATA SOURCE
 SON .        AZ-XX-0905059384:  JOB NUMBER
 FTOP.          Formation Tops:  FORM TOPS DESC
 ILTD.               Lithology:  INTERP LTH DESC
 SVYD.                  Survey:  SURVEY DESC
 DMOD.             Drill Model:  DRILL MOD DESC
 HPTY.       Minimum Curvature:  HOLE POS TYPE
 NREF.                    Grid:  NORTH REFERENCE
 SPUD.               09-Jan-20:  SPUD DATE
 DATE.      14.04.48 07-Feb-20:  END TIME
 STIM.      07.00.00 09-Jan-20:  START TIME
 DMF .             Drill Floor:  DRILL MEAS FROM
 DFST.                        :  DIST FSL TEXT
 DFWT.                        :  DIST FWL TEXT
 CNTY.                        :  COUNTY
 LOC .                        :  LOCATION
 LMF .             Drill Floor:  LOG MEASURED FROM
 DEP .m                   0.00:  DEPTH
 VSNS.m                  10.28:  VERT SEC N/S
 VSEW.m                  -6.24:  VERT SEC E/W
 AGAP.m                  43.00:  AIR GAP
 APD .m                  43.00:  DEPTH ABOVE PD
 WDMS.m                 169.80:  WD ELEV
 EGL .m                   0.00:  GROUND ELEVATION
 EPD .m                   0.00:  ELEVATION
 AZTC.deg                 6.27:  AZM TOTAL CORR
 GRDC.deg                 0.15:  GRID CORRECTION
 MDEC.deg                 6.42:  MAGNETIC DECL
 MDIP.deg                59.56:  MAGNETIC DIP
 MFLD.nT              50277.00:  MAGNETIC FIELD
 GVFD.g                   1.00:  GRAVITY FIELD
 VSDR.deg               148.53:  VERT SEC DIRECT
 TDD .m                3473.01:  TOTAL DEPTH (DRILLER)
 SDEP.m                 364.00:  START DEPTH
 DFSL.m                   0.00:  DISTANCE FSL
 DFWL.m                   0.00:  DISTANCE FWL
 UTMY.m             4443793.85:  UTM Y
 UTMX.m              519005.06:  UTM X
 WHEW.m                  -6.24:  WELL HEAD E/W
 WHNS.m                  10.28:  WELL HEAD N/S
 LONG.deg                51.22:  LONGITUDE
 LATI.deg                40.13:  LATITUDE
 TVDS.m                  43.00:  TVDSS CORRECTN
 EKB .m                   0.00:  KB ELEVATION
 EDF .m                  43.00:  DF ELEVATION
 TDL .m                 254.00:  TOTAL DEPTH (LOGGER)
 MAGU.                 1850021:  MAGUTM CHECKSUM
 VSC .                       0:  VS TO CLOSURE
~Parameter Information Block
#MNEM.UNIT       Value        Description
#---------     -----------    ---------------------------
 AV  .mps                 0.50:  Ann Velocity 
 AVMX.mps                 1.40:  Max Ann Veloc 
 AZIF.deg               144.94:  Azm, Final 
 BHAT.        Rotary Steerable:  BHA Type 
 BROT.°/30m               0.23:  Build Rotating 
 BS  .in                  8.50:  Bit Size 
 BTPL.psig              264.00:  Bit Press Loss 
 CABU.                     Yes:  Customer Abuse 
 COMM.                     $æx:  Run Comments 1 
 TCS .hr                 87.30:  Time Ciculation Ended 
 CV  .mps                 2.45:  Crit Velocity 
 CVMX.mps                 2.74:  Max Crit Veloc 
 DD1 .             Aziz Aliyev:  Direct Drillr 1 
 DDSV.               Geo-Pilot:  DD Service 
 DEFF.%                 100.00:  % Det Eff 
 DLRX.°/30m               1.22:  Dogleg Rot Max 
 DLSO.°/30m               0.52:  Dogleg Oriented 
 DLSX.°/30m               1.22:  Dogleg Str Max 
 DRET.      12.59.00 23-Feb-20:  Drill End Time 
 DRST.      09.44.00 18-Feb-20:  Drill Start Tim 
 DTIM.hr                 23.03:  Time Drilling 
 EDEP.m                3473.01:  End Depth 
 ENG1.         Almaz Almadatov:  Engineer 1 
 ENG2.         Dair Mahammadov:  Engineer 2 
 ENG3.          Nazrin Asgarli:  Engineer 3 
 ETIM.      10.33.36 26-Feb-20:  End Time 
 FLOI.gpm               480.00:  Flow In 
 FLON.gpm               300.00:  Flow In Min 
 FLOS.cptm                1.00:  Fluid Loss 
 FLOX.gpm               550.00:  Flow In Max 
 HFLO.                      No:  High Flow 
 HPRE.                      No:  High Pressure 
 HTEM.                      No:  High Temp 
 HYDO.m                   1.80:  Hydro Offset 
 IFIN.deg                74.42:  Inc, Final 
 IMAX.deg                76.14:  Inc Max 
 IMIN.deg                74.42:  Inc Min 
 IMND.m                3462.72:  Inc Min Depth 
 IMXD.m                3235.69:  Inc Max Depth 
 JARR.                      No:  Jarring 
 LETM.      12.59.00 23-Feb-20:  Log End Time 
 LOST.hr                     0:  Lost Rig Time 
 LSTM.      09.44.00 18-Feb-20:  Log Start Time 
 MDCL.ppm             45000.00:  Mud Chlorides 
 MDES.     Inversion Oil/Synthetic:  Mud Desc 
 DFD .sg                  1.38:  Mud Density 
 MDMN.sg                  1.34:  Dens Mud Min 
 MDMX.sg                  1.49:  Dens Mud Max 
 MOIL.                      67:  Run Mud Oil % 
 MOWR.                   67:33:  Run Mud OWR 
 MSND.                    0.12:  Run Mud Sand % 
 MSOL.                      22:  Run Mud Solids% 
 DFV .spqt               81.00:  Mud Viscosity 
 MWOD.in                  6.75:  MWD Tool OD 
 MWSI.                      No:  Serv Intrp, MWD 
 OTIM.hr                231.44:  Time Operating 
 PCON.          Wear / Scratch:  Pad Condition 
 PMAX.psia             3400.00:  Press Op, Max 
 PV  .cP                 55.00:  Mud PV 
 RUN .                     800:  Run Number 
 ROPA.m/hr               12.00:  ROP Avg 
 ROPN.m/hr                5.00:  ROP Min 
 ROPX.m/hr               28.00:  ROP Max 
 RPMA.rpm               120.00:  RPM Surface Avg 
 RPMN.rpm                40.00:  RPM Surface Min 
 RPMX.rpm               130.00:  RPM Surface Max 
 RRUN.                    0800:  Rig Run Number 
 RTIM.hr                 45.00:  Time Reaming 
 SAZI.deg               145.38:  Azm, Start 
 SDEP.m                3219.01:  Start Depth 
 SIDD.                      No:  Serv Intrp, DD 
 SINC.deg                75.11:  Inc, Start 
 SPPA.psig             2400.00:  SPP Avg 
 SPPN.psig             2320.00:  SPP Min 
 SPPX.psig             3200.00:  SPP Max 
 STIM.      15.15.00 17-Feb-20:  Start Time 
 SVCS.                 DD, MWD:  Services 
 SVER.                    9.20:  Sperry Version 
 TDAT.m                 254.00:  Tot Depth Attmp 
 TDDF.                      No:  Trip for DD 
 TDLG.m                 254.00:  Tot Depth Loggd 
 TFF .                      No:  Trip for Fail 
 TQAA.f-kp               13.00:  Torque Abs Avg 
 TQAN.f-kp                7.00:  Torque Abs Min 
 TQAX.f-kp               15.00:  Torque Abs Max 
 TRRT.°/30m               0.21:  Turn Rotating 
 MRT .                  EWR-M5:  Maximum Recorded Temperature 
 TTMX.degC               64.00:  Max Tool Temp 
 VS01.                90586516:  Virtual Str1 SN 
 VS02.                90513691:  Virtual Str2 SN 
 VS03.                90586523:  Virtual Str3 SN 
 VS04.                90586520:  Virtual Str4 SN 
 VS05.                90590507:  Virtual Str5 SN 
 WBMN.klb                12.00:  WOB Min 
 WITN.           Rufat Babayev:  Customer Rep 2 
 WITN.         Alistair Sprott:  Customer Rep 
 WOBA.klb                18.00:  WOB Avg 
 WOBX.klb                30.00:  WOB Max 
 YP  .lhf2               41.00:  Yield Point 
~Curve Information Block
#MNEM.UNIT                 API CODE     Curve Description
#---------               -----------    ---------------------------
 TIME.HHMMSS            00 000 000 000:  GT Time & Date
 GTDEPTH.m              00 000 000 000:  GT Depth
 GTPQH.psia             00 000 000 000:  GT HR Quartz Pressure
 GTTQ.degC              00 000 000 000:  GT Quartz Temperature
 GTTN.NONE              00 000 000 000:  GT Test Number
 GTET.sec               00 000 000 000:  GT Elapsed Test Time
 GTTVD.m                00 000 000 000:  GT True Vertical Depth
#Other Information
#
#WARRANTY: Halliburton will use its best efforts to furnish customers with 
#accurate information and interpretations that are part of, and incident to, the services 
#provided.  However, Halliburton cannot and does not warrant the accuracy 
#or correctness of such information and interpretations.  Under no circumstances should any 
#such information or interpretation be relied upon as the sole basis for any drilling, 
#completion, production, or financial decision or any procedure involving any risk to the 
#safety of any drilling venture, drilling rig or its crew or any other third party.  The 
#Customer has full responsibility for all drilling, completion and production operation.  
#Halliburton makes no representations or warranties, either expressed or 
#implied, including, but not limited to, the implied warranties of merchantability or fitness 
#for a particular purpose, with respect to the services rendered.  In no event will 
#Halliburton be liable for failure to obtain any particular results or for 
#any damages, including, but not limited to, indirect, special or consequential damages, 
#resulting from the use of any information or interpretation provided by Halliburton.
#
~A           TIME           GTDEPTH  GTPQH  GTTQ  GTTN  GTET   GTTVD  
# ...
   01:49:20.452.24-Feb-2020 3392.01 4211.65 55.91 4.00 184.04 2713.39
   01:49:20.652.24-Feb-2020 3392.01 4211.64 55.91 4.00 184.24 2713.39
   01:49:20.852.24-Feb-2020 3392.01 4211.62 55.91 4.00 184.44 2713.39
   01:49:21.052.24-Feb-2020 3392.01 4211.75 55.91 4.00 184.64 2713.39
   01:49:21.252.24-Feb-2020 3392.01 4211.56 55.91 4.00 184.84 2713.39
   01:49:21.452.24-Feb-2020 3392.01 4211.63 55.91 4.00 185.04 2713.39
   01:49:21.652.24-Feb-2020 3392.01 4211.63 55.91 4.00 185.24 2713.39
   01:49:21.852.24-Feb-2020 3392.01 4211.71 55.91 4.00 185.44 2713.39
   01:49:22.052.24-Feb-2020 3392.01 4211.55 55.91 4.00 185.64 2713.39
   01:49:22.252.24-Feb-2020 3392.01 4211.70 55.91 4.00 185.84 2713.39
   01:49:22.452.24-Feb-2020 3392.01 4211.64 55.91 4.00 186.04 2713.39
   01:49:22.652.24-Feb-2020 3392.01 4211.64 55.91 4.00 186.24 2713.39
   01:49:22.852.24-Feb-2020 3392.01 4211.66 55.91 4.00 186.44 2713.39
   01:49:23.052.24-Feb-2020 3392.01 4211.64 55.91 4.00 186.64 2713.39
   01:49:23.252.24-Feb-2020 3392.01 4211.64 55.91 4.00 186.84 2713.39
   01:49:23.452.24-Feb-2020 3392.01 4211.66 55.91 4.00 187.04 2713.39
   01:49:23.652.24-Feb-2020 3392.01 4211.66 55.91 4.00 187.24 2713.39
   01:49:23.852.24-Feb-2020 3392.01 4211.62 55.91 4.00 187.44 2713.39
   01:49:24.052.24-Feb-2020 3392.01 4211.65 55.91 4.00 187.64 2713.39
   01:49:24.252.24-Feb-2020 3392.01 4211.60 55.91 4.00 187.84 2713.39
   01:49:24.452.24-Feb-2020 3392.01 4211.75 55.91 4.00 188.04 2713.39
   01:49:24.653.24-Feb-2020 3392.01 4211.62 55.91 4.00 188.24 2713.39
   01:49:24.853.24-Feb-2020 3392.01 4211.62 55.91 4.00 188.44 2713.39
   01:49:25.053.24-Feb-2020 3392.01 4211.66 55.91 4.00 188.64 2713.39
   01:49:25.253.24-Feb-2020 3392.01 4211.63 55.91 4.00 188.84 2713.39
   01:49:25.453.24-Feb-2020 3392.01 4211.64 55.91 4.00 189.04 2713.39
   01:49:25.653.24-Feb-2020 3392.01 4211.64 55.91 4.00 189.24 2713.39
   01:49:25.853.24-Feb-2020 3392.01 4211.64 55.91 4.00 189.44 2713.39
   01:49:26.053.24-Feb-2020 3392.01 4211.65 55.91 4.00 189.64 2713.39
   01:49:26.253.24-Feb-2020 3392.01 4211.63 55.91 4.00 189.84 2713.39
   01:49:26.453.24-Feb-2020 3392.01 4211.64 55.91 4.00 190.04 2713.39
   01:49:26.653.24-Feb-2020 3392.01 4211.64 55.91 4.00 190.24 2713.39
   01:49:26.853.24-Feb-2020 3392.01 4211.65 55.91 4.00 190.44 2713.39
   01:49:27.053.24-Feb-2020 3392.01 4211.65 55.91 4.00 190.64 2713.39
   01:49:27.253.24-Feb-2020 3392.01 4211.72 55.91 4.00 190.84 2713.39
   01:49:27.453.24-Feb-2020 3392.01 4211.53 55.91 4.00 191.04 2713.39
   01:49:27.653.24-Feb-2020 3392.01 4211.70 55.91 4.00 191.24 2713.39
   01:49:27.853.24-Feb-2020 3392.01 4211.64 55.91 4.00 191.44 2713.39
   01:49:28.053.24-Feb-2020 3392.01 4211.63 55.91 4.00 191.64 2713.39
   01:49:28.253.24-Feb-2020 3392.01 4211.64 55.91 4.00 191.84 2713.39
   01:49:28.453.24-Feb-2020 3392.01 4211.63 55.91 4.00 192.04 2713.39
   01:49:28.653.24-Feb-2020 3392.01 4211.63 55.91 4.00 192.24 2713.39
   01:49:28.853.24-Feb-2020 3392.01 4211.64 55.91 4.00 192.44 2713.39
   01:49:29.053.24-Feb-2020 3392.01 4211.64 55.91 4.00 192.64 2713.39
   01:49:29.253.24-Feb-2020 3392.01 4211.65 55.91 4.00 192.84 2713.39
   01:49:29.454.24-Feb-2020 3392.01 4211.64 55.91 4.00 193.04 2713.39
   01:49:29.654.24-Feb-2020 3392.01 4211.64 55.91 4.00 193.24 2713.39
   01:49:29.854.24-Feb-2020 3392.01 4211.63 55.91 4.00 193.44 2713.39
   01:49:30.054.24-Feb-2020 3392.01 4211.65 55.91 4.00 193.64 2713.39
   01:49:30.254.24-Feb-2020 3392.01 4211.64 55.91 4.00 193.84 2713.39
   01:49:30.454.24-Feb-2020 3392.01 4211.64 55.91 4.00 194.04 2713.39
   01:49:30.654.24-Feb-2020 3392.01 4211.64 55.91 4.00 194.24 2713.39
   01:49:30.854.24-Feb-2020 3392.01 4211.76 55.91 4.00 194.44 2713.39
   01:49:31.054.24-Feb-2020 3392.01 4211.61 55.91 4.00 194.64 2713.39
   01:49:31.254.24-Feb-2020 3392.01 4211.60 55.91 4.00 194.84 2713.39
   01:49:31.454.24-Feb-2020 3392.01 4211.63 55.91 4.00 195.04 2713.39
   01:49:31.654.24-Feb-2020 3392.01 4211.63 55.91 4.00 195.24 2713.39
   01:49:31.854.24-Feb-2020 3392.01 4211.57 55.91 4.00 195.44 2713.39
   01:49:32.054.24-Feb-2020 3392.01 4211.64 55.91 4.00 195.64 2713.39
   01:49:32.254.24-Feb-2020 3392.01 4211.66 55.91 4.00 195.84 2713.39
   01:49:32.454.24-Feb-2020 3392.01 4211.64 55.91 4.00 196.04 2713.39
   01:49:32.654.24-Feb-2020 3392.01 4211.64 55.91 4.00 196.24 2713.39
   01:49:32.854.24-Feb-2020 3392.01 4211.72 55.91 4.00 196.44 2713.39
   01:49:33.054.24-Feb-2020 3392.01 4211.55 55.91 4.00 196.64 2713.39
   01:49:33.254.24-Feb-2020 3392.01 4211.70 55.91 4.00 196.84 2713.39
   01:49:33.454.24-Feb-2020 3392.01 4211.64 55.90 4.00 197.04 2713.39
   01:49:33.654.24-Feb-2020 3392.01 4211.64 55.90 4.00 197.24 2713.39
   01:49:33.854.24-Feb-2020 3392.01 4211.63 55.90 4.00 197.44 2713.39
   01:49:34.054.24-Feb-2020 3392.01 4211.65 55.90 4.00 197.64 2713.39
   01:49:34.255.24-Feb-2020 3392.01 4211.67 55.90 4.00 197.84 2713.39
   01:49:34.455.24-Feb-2020 3392.01 4211.61 55.90 4.00 198.04 2713.39
   01:49:34.655.24-Feb-2020 3392.01 4211.61 55.90 4.00 198.24 2713.39
   01:49:34.855.24-Feb-2020 3392.01 4211.64 55.90 4.00 198.44 2713.39
   01:49:35.055.24-Feb-2020 3392.01 4211.62 55.90 4.00 198.64 2713.39
   01:49:35.255.24-Feb-2020 3392.01 4211.64 55.90 4.00 198.84 2713.39
   01:49:35.455.24-Feb-2020 3392.01 4211.64 55.90 4.00 199.04 2713.39
   01:49:35.655.24-Feb-2020 3392.01 4211.64 55.90 4.00 199.24 2713.39
   01:49:35.855.24-Feb-2020 3392.01 4211.64 55.90 4.00 199.44 2713.39
   01:49:36.055.24-Feb-2020 3392.01 4211.63 55.90 4.00 199.64 2713.39
   01:49:36.255.24-Feb-2020 3392.01 4211.63 55.90 4.00 199.84 2713.39
   01:49:36.455.24-Feb-2020 3392.01 4211.64 55.90 4.00 200.04 2713.39
   01:49:36.655.24-Feb-2020 3392.01 4211.64 55.90 4.00 200.24 2713.39
   01:49:36.855.24-Feb-2020 3392.01 4211.61 55.90 4.00 200.44 2713.39
   01:49:37.055.24-Feb-2020 3392.01 4211.74 55.90 4.00 200.64 2713.39
   01:49:37.255.24-Feb-2020 3392.01 4211.56 55.90 4.00 200.84 2713.39
   01:49:37.455.24-Feb-2020 3392.01 4211.63 55.90 4.00 201.04 2713.39
   01:49:37.655.24-Feb-2020 3392.01 4211.63 55.90 4.00 201.24 2713.39
   01:49:37.855.24-Feb-2020 3392.01 4211.62 55.90 4.00 201.44 2713.39
   01:49:38.055.24-Feb-2020 3392.01 4211.62 55.90 4.00 201.64 2713.39
   01:49:38.255.24-Feb-2020 3392.01 4211.63 55.90 4.00 201.84 2713.39
   01:49:38.455.24-Feb-2020 3392.01 4211.63 55.90 4.00 202.04 2713.39
   01:49:38.655.24-Feb-2020 3392.01 4211.63 55.90 4.00 202.24 2713.39
   01:49:38.855.24-Feb-2020 3392.01 4211.65 55.90 4.00 202.44 2713.39
   01:49:39.056.24-Feb-2020 3392.01 4211.64 55.90 4.00 202.64 2713.39
   01:49:39.256.24-Feb-2020 3392.01 4211.62 55.90 4.00 202.84 2713.39
   01:49:39.456.24-Feb-2020 3392.01 4211.62 55.90 4.00 203.04 2713.39
   01:49:39.656.24-Feb-2020 3392.01 4211.64 55.90 4.00 203.24 2713.39
   01:49:39.856.24-Feb-2020 3392.01 4211.64 55.90 4.00 203.44 2713.39
   01:49:40.056.24-Feb-2020 3392.01 4211.64 55.90 4.00 203.64 2713.39
   01:49:40.256.24-Feb-2020 3392.01 4211.61 55.90 4.00 203.84 2713.39
   01:49:40.456.24-Feb-2020 3392.01 4211.63 55.90 4.00 204.04 2713.39
   01:49:40.656.24-Feb-2020 3392.01 4211.67 55.90 4.00 204.24 2713.39
   01:49:40.856.24-Feb-2020 3392.01 4211.60 55.90 4.00 204.44 2713.39
   01:49:41.056.24-Feb-2020 3392.01 4211.64 55.90 4.00 204.64 2713.39
   01:49:41.256.24-Feb-2020 3392.01 4211.58 55.90 4.00 204.84 2713.39
   01:49:41.456.24-Feb-2020 3392.01 4211.73 55.90 4.00 205.04 2713.39
   01:49:41.656.24-Feb-2020 3392.01 4211.73 55.90 4.00 205.24 2713.39
   01:49:41.856.24-Feb-2020 3392.01 4211.60 55.90 4.00 205.44 2713.39
   01:49:42.056.24-Feb-2020 3392.01 4211.65 55.90 4.00 205.64 2713.39
   01:49:42.256.24-Feb-2020 3392.01 4211.61 55.90 4.00 205.84 2713.39
   01:49:42.456.24-Feb-2020 3392.01 4211.60 55.90 4.00 206.04 2713.39
   01:49:42.656.24-Feb-2020 3392.01 4211.60 55.90 4.00 206.24 2713.39
   01:49:42.856.24-Feb-2020 3392.01 4211.56 55.90 4.00 206.44 2713.39
   01:49:43.056.24-Feb-2020 3392.01 4211.63 55.90 4.00 206.64 2713.39
   01:49:43.256.24-Feb-2020 3392.01 4211.64 55.90 4.00 206.84 2713.39
