~Version Information
 VERS.                  2.0:   CWLS log ASCII Standard -VERSION 2.0
 WRAP.                   NO:   One line per depth step
~Well Information Block
#MNEM.UNIT     VALUE/NAME     DESCRIPTION
#---------     -----------    ---------------------------
 STRT.S             01:26:08 24-Feb-20: START TIME 01:26:08 24-Feb-20
 STOP.S             01:33:25 24-Feb-20: STOP TIME  01:33:25 24-Feb-20
 STEP.S                   0.00: STEP TIME
 NULL.                 -999.25: NULL VALUE
 JOBN.        AZ-XX-0905059384:  JOB TICKET NUMB
 PDAT.          Mean Sea Level:  PERMANENT DATUM
 UNIT.                     N/A:  LOGGING EQUIPMENT ID
 DCON.         Sperry Drilling:  DIRECTNL CONTR
 DOE .                     N/A:  DOE NUMBER
 RIG .             West Chirag:  RIG NAME
 WELL.                     J22:  WELL NAME
 MWDS.                    Baku:  MWD SHOP
 SRVC.     TURAN Drilling & Engineering:  CONTRACTOR
 FLD .                     ACG:  FIELD NAME
 CTRY.              Azerbaijan:  COUNTRY NAME
 PROV.                    Baku:  PROVINCE
 STAT.                    Baku:  STATE NAME
 REGN.                   EESSA:  REGION
 BASE.              Azerbaijan:  LOGGING EQUIPMENT BASE LOCATION
 UWI .                     N/A:  UNIQUE WELL IDENTIFIER
 API .                     N/A:  API NUMBER
 COMP.     BP Exploration (Caspian Sea) Ltd.:  COMPANY
 WTYP.                Deviated:  WELL TYPE
 MDS .        Operator Entered:  MAG DATA SOURCE
 SON .        AZ-XX-0905059384:  JOB NUMBER
 FTOP.          Formation Tops:  FORM TOPS DESC
 ILTD.               Lithology:  INTERP LTH DESC
 SVYD.                  Survey:  SURVEY DESC
 DMOD.             Drill Model:  DRILL MOD DESC
 HPTY.       Minimum Curvature:  HOLE POS TYPE
 NREF.                    Grid:  NORTH REFERENCE
 SPUD.               09-Jan-20:  SPUD DATE
 DATE.      14.04.48 07-Feb-20:  END TIME
 STIM.      07.00.00 09-Jan-20:  START TIME
 DMF .             Drill Floor:  DRILL MEAS FROM
 DFST.                        :  DIST FSL TEXT
 DFWT.                        :  DIST FWL TEXT
 CNTY.                        :  COUNTY
 LOC .                        :  LOCATION
 LMF .             Drill Floor:  LOG MEASURED FROM
 DEP .m                   0.00:  DEPTH
 VSNS.m                  10.28:  VERT SEC N/S
 VSEW.m                  -6.24:  VERT SEC E/W
 AGAP.m                  43.00:  AIR GAP
 APD .m                  43.00:  DEPTH ABOVE PD
 WDMS.m                 169.80:  WD ELEV
 EGL .m                   0.00:  GROUND ELEVATION
 EPD .m                   0.00:  ELEVATION
 AZTC.deg                 6.27:  AZM TOTAL CORR
 GRDC.deg                 0.15:  GRID CORRECTION
 MDEC.deg                 6.42:  MAGNETIC DECL
 MDIP.deg                59.56:  MAGNETIC DIP
 MFLD.nT              50277.00:  MAGNETIC FIELD
 GVFD.g                   1.00:  GRAVITY FIELD
 VSDR.deg               148.53:  VERT SEC DIRECT
 TDD .m                3473.01:  TOTAL DEPTH (DRILLER)
 SDEP.m                 364.00:  START DEPTH
 DFSL.m                   0.00:  DISTANCE FSL
 DFWL.m                   0.00:  DISTANCE FWL
 UTMY.m             4443793.85:  UTM Y
 UTMX.m              519005.06:  UTM X
 WHEW.m                  -6.24:  WELL HEAD E/W
 WHNS.m                  10.28:  WELL HEAD N/S
 LONG.deg                51.22:  LONGITUDE
 LATI.deg                40.13:  LATITUDE
 TVDS.m                  43.00:  TVDSS CORRECTN
 EKB .m                   0.00:  KB ELEVATION
 EDF .m                  43.00:  DF ELEVATION
 TDL .m                 254.00:  TOTAL DEPTH (LOGGER)
 MAGU.                 1850021:  MAGUTM CHECKSUM
 VSC .                       0:  VS TO CLOSURE
~Parameter Information Block
#MNEM.UNIT       Value        Description
#---------     -----------    ---------------------------
 AV  .mps                 0.50:  Ann Velocity 
 AVMX.mps                 1.40:  Max Ann Veloc 
 AZIF.deg               144.94:  Azm, Final 
 BHAT.        Rotary Steerable:  BHA Type 
 BROT.°/30m               0.23:  Build Rotating 
 BS  .in                  8.50:  Bit Size 
 BTPL.psig              264.00:  Bit Press Loss 
 CABU.                     Yes:  Customer Abuse 
 TCS .hr                 87.30:  Time Ciculation Ended 
 CV  .mps                 2.45:  Crit Velocity 
 CVMX.mps                 2.74:  Max Crit Veloc 
 DD1 .             Aziz Aliyev:  Direct Drillr 1 
 DDSV.               Geo-Pilot:  DD Service 
 DEFF.%                 100.00:  % Det Eff 
 DLRX.°/30m               1.22:  Dogleg Rot Max 
 DLSO.°/30m               0.52:  Dogleg Oriented 
 DLSX.°/30m               1.22:  Dogleg Str Max 
 DRET.      12.59.00 23-Feb-20:  Drill End Time 
 DRST.      09.44.00 18-Feb-20:  Drill Start Tim 
 DTIM.hr                 23.03:  Time Drilling 
 EDEP.m                3473.01:  End Depth 
 ENG1.         Almaz Almadatov:  Engineer 1 
 ENG2.         Dair Mahammadov:  Engineer 2 
 ENG3.          Nazrin Asgarli:  Engineer 3 
 ETIM.      10.33.36 26-Feb-20:  End Time 
 FLOI.gpm               480.00:  Flow In 
 FLON.gpm               300.00:  Flow In Min 
 FLOS.cptm                1.00:  Fluid Loss 
 FLOX.gpm               550.00:  Flow In Max 
 HFLO.                      No:  High Flow 
 HPRE.                      No:  High Pressure 
 HTEM.                      No:  High Temp 
 HYDO.m                   1.80:  Hydro Offset 
 IFIN.deg                74.42:  Inc, Final 
 IMAX.deg                76.14:  Inc Max 
 IMIN.deg                74.42:  Inc Min 
 IMND.m                3462.72:  Inc Min Depth 
 IMXD.m                3235.69:  Inc Max Depth 
 JARR.                      No:  Jarring 
 LETM.      12.59.00 23-Feb-20:  Log End Time 
 LOST.hr                     0:  Lost Rig Time 
 LSTM.      09.44.00 18-Feb-20:  Log Start Time 
 MDCL.ppm             45000.00:  Mud Chlorides 
 MDES.     Inversion Oil/Synthetic:  Mud Desc 
 DFD .sg                  1.38:  Mud Density 
 MDMN.sg                  1.34:  Dens Mud Min 
 MDMX.sg                  1.49:  Dens Mud Max 
 MOIL.                      67:  Run Mud Oil % 
 MOWR.                   67:33:  Run Mud OWR 
 MSND.                    0.12:  Run Mud Sand % 
 MSOL.                      22:  Run Mud Solids% 
 DFV .spqt               81.00:  Mud Viscosity 
 MWOD.in                  6.75:  MWD Tool OD 
 MWSI.                      No:  Serv Intrp, MWD 
 OTIM.hr                231.44:  Time Operating 
 PCON.          Wear / Scratch:  Pad Condition 
 PMAX.psia             3400.00:  Press Op, Max 
 PV  .cP                 55.00:  Mud PV 
 RUN .                     800:  Run Number 
 ROPA.m/hr               12.00:  ROP Avg 
 ROPN.m/hr                5.00:  ROP Min 
 ROPX.m/hr               28.00:  ROP Max 
 RPMA.rpm               120.00:  RPM Surface Avg 
 RPMN.rpm                40.00:  RPM Surface Min 
 RPMX.rpm               130.00:  RPM Surface Max 
 RRUN.                    0800:  Rig Run Number 
 RTIM.hr                 45.00:  Time Reaming 
 SAZI.deg               145.38:  Azm, Start 
 SDEP.m                3219.01:  Start Depth 
 SIDD.                      No:  Serv Intrp, DD 
 SINC.deg                75.11:  Inc, Start 
 SPPA.psig             2400.00:  SPP Avg 
 SPPN.psig             2320.00:  SPP Min 
 SPPX.psig             3200.00:  SPP Max 
 STIM.      15.15.00 17-Feb-20:  Start Time 
 SVCS.                 DD, MWD:  Services 
 SVER.                    9.20:  Sperry Version 
 TDAT.m                 254.00:  Tot Depth Attmp 
 TDDF.                      No:  Trip for DD 
 TDLG.m                 254.00:  Tot Depth Loggd 
 TFF .                      No:  Trip for Fail 
 TQAA.f-kp               13.00:  Torque Abs Avg 
 TQAN.f-kp                7.00:  Torque Abs Min 
 TQAX.f-kp               15.00:  Torque Abs Max 
 TRRT.°/30m               0.21:  Turn Rotating 
 MRT .                  EWR-M5:  Maximum Recorded Temperature 
 TTMX.degC               64.00:  Max Tool Temp 
 VS01.                90586516:  Virtual Str1 SN 
 VS02.                90513691:  Virtual Str2 SN 
 VS03.                90586523:  Virtual Str3 SN 
 VS04.                90586520:  Virtual Str4 SN 
 VS05.                90590507:  Virtual Str5 SN 
 WBMN.klb                12.00:  WOB Min 
 WITN.           Rufat Babayev:  Customer Rep 2 
 WITN.         Alistair Sprott:  Customer Rep 
 WOBA.klb                18.00:  WOB Avg 
 WOBX.klb                30.00:  WOB Max 
 YP  .lhf2               41.00:  Yield Point 
~Curve Information Block
#MNEM.UNIT                 API CODE     Curve Description
#---------               -----------    ---------------------------
 TIME.HHMMSS            00 000 000 000:  GT Time & Date
 GTDEPTH.m              00 000 000 000:  GT Depth
 GTPQH.psia             00 000 000 000:  GT HR Quartz Pressure
 GTTQ.degC              00 000 000 000:  GT Quartz Temperature
 GTTN.NONE              00 000 000 000:  GT Test Number
 GTET.sec               00 000 000 000:  GT Elapsed Test Time
 GTTVD.m                00 000 000 000:  GT True Vertical Depth
#Other Information
#
#WARRANTY: Halliburton will use its best efforts to furnish customers with 
#accurate information and interpretations that are part of, and incident to, the services 
#provided.  However, Halliburton cannot and does not warrant the accuracy 
#or correctness of such information and interpretations.  Under no circumstances should any 
#such information or interpretation be relied upon as the sole basis for any drilling, 
#completion, production, or financial decision or any procedure involving any risk to the 
#safety of any drilling venture, drilling rig or its crew or any other third party.  The 
#Customer has full responsibility for all drilling, completion and production operation.  
#Halliburton makes no representations or warranties, either expressed or 
#implied, including, but not limited to, the implied warranties of merchantability or fitness 
#for a particular purpose, with respect to the services rendered.  In no event will 
#Halliburton be liable for failure to obtain any particular results or for 
#any damages, including, but not limited to, indirect, special or consequential damages, 
#resulting from the use of any information or interpretation provided by Halliburton.
#
~A           TIME           GTDEPTH  GTPQH  GTTQ  GTTN  GTET   GTTVD  
# ...
   01:32:16.238.24-Feb-2020 3405.01 4215.15 56.77 3.00 368.08 2716.73
   01:32:16.438.24-Feb-2020 3405.01 4215.15 56.77 3.00 368.28 2716.73
   01:32:16.638.24-Feb-2020 3405.01 4215.01 56.77 3.00 368.48 2716.73
   01:32:16.838.24-Feb-2020 3405.01 4215.39 56.77 3.00 368.68 2716.73
   01:32:17.038.24-Feb-2020 3405.01 4215.18 56.77 3.00 368.88 2716.73
   01:32:17.238.24-Feb-2020 3405.01 4215.12 56.77 3.00 369.08 2716.73
   01:32:17.438.24-Feb-2020 3405.01 4215.12 56.77 3.00 369.28 2716.73
   01:32:17.638.24-Feb-2020 3405.01 4215.49 56.77 3.00 369.48 2716.73
   01:32:17.838.24-Feb-2020 3405.01 4215.19 56.77 3.00 369.68 2716.73
   01:32:18.038.24-Feb-2020 3405.01 4215.05 56.77 3.00 369.88 2716.73
   01:32:18.238.24-Feb-2020 3405.01 4215.17 56.77 3.00 370.08 2716.73
   01:32:18.439.24-Feb-2020 3405.01 4215.17 56.77 3.00 370.28 2716.73
   01:32:18.639.24-Feb-2020 3405.01 4215.16 56.77 3.00 370.48 2716.73
   01:32:18.839.24-Feb-2020 3405.01 4215.14 56.77 3.00 370.68 2716.73
   01:32:19.039.24-Feb-2020 3405.01 4215.01 56.77 3.00 370.88 2716.73
   01:32:19.239.24-Feb-2020 3405.01 4215.39 56.77 3.00 371.08 2716.73
   01:32:19.439.24-Feb-2020 3405.01 4215.19 56.77 3.00 371.28 2716.73
   01:32:19.639.24-Feb-2020 3405.01 4214.85 56.77 3.00 371.48 2716.73
   01:32:19.839.24-Feb-2020 3405.01 4215.48 56.77 3.00 371.68 2716.73
   01:32:20.039.24-Feb-2020 3405.01 4215.18 56.77 3.00 371.88 2716.73
   01:32:20.239.24-Feb-2020 3405.01 4215.07 56.77 3.00 372.08 2716.73
   01:32:20.439.24-Feb-2020 3405.01 4215.17 56.77 3.00 372.28 2716.73
   01:32:20.639.24-Feb-2020 3405.01 4215.17 56.77 3.00 372.48 2716.73
   01:32:20.839.24-Feb-2020 3405.01 4215.17 56.77 3.00 372.68 2716.73
   01:32:21.039.24-Feb-2020 3405.01 4215.16 56.77 3.00 372.88 2716.73
   01:32:21.239.24-Feb-2020 3405.01 4215.17 56.77 3.00 373.08 2716.73
   01:32:21.439.24-Feb-2020 3405.01 4215.17 56.77 3.00 373.28 2716.73
   01:32:21.639.24-Feb-2020 3405.01 4215.17 56.77 3.00 373.48 2716.73
   01:32:21.839.24-Feb-2020 3405.01 4215.17 56.77 3.00 373.68 2716.73
   01:32:22.039.24-Feb-2020 3405.01 4215.16 56.77 3.00 373.88 2716.73
   01:32:22.239.24-Feb-2020 3405.01 4215.18 56.77 3.00 374.08 2716.73
   01:32:22.439.24-Feb-2020 3405.01 4215.17 56.77 3.00 374.28 2716.73
   01:32:22.639.24-Feb-2020 3405.01 4215.36 56.77 3.00 374.48 2716.73
   01:32:22.839.24-Feb-2020 3405.01 4215.00 56.77 3.00 374.68 2716.73
   01:32:23.040.24-Feb-2020 3405.01 4215.08 56.77 3.00 374.88 2716.73
   01:32:23.240.24-Feb-2020 3405.01 4215.20 56.77 3.00 375.08 2716.73
   01:32:23.440.24-Feb-2020 3405.01 4215.20 56.77 3.00 375.28 2716.73
   01:32:23.640.24-Feb-2020 3405.01 4215.17 56.77 3.00 375.48 2716.73
   01:32:23.840.24-Feb-2020 3405.01 4215.11 56.77 3.00 375.68 2716.73
   01:32:24.040.24-Feb-2020 3405.01 4215.16 56.77 3.00 375.88 2716.73
   01:32:24.240.24-Feb-2020 3405.01 4215.18 56.77 3.00 376.08 2716.73
   01:32:24.440.24-Feb-2020 3405.01 4215.15 56.77 3.00 376.28 2716.73
   01:32:24.640.24-Feb-2020 3405.01 4215.17 56.77 3.00 376.48 2716.73
   01:32:24.840.24-Feb-2020 3405.01 4215.18 56.77 3.00 376.68 2716.73
   01:32:25.040.24-Feb-2020 3405.01 4215.15 56.77 3.00 376.88 2716.73
   01:32:25.240.24-Feb-2020 3405.01 4215.15 56.77 3.00 377.08 2716.73
   01:32:25.440.24-Feb-2020 3405.01 4215.15 56.77 3.00 377.28 2716.73
   01:32:25.640.24-Feb-2020 3405.01 4215.17 56.77 3.00 377.48 2716.73
   01:32:25.840.24-Feb-2020 3405.01 4215.16 56.77 3.00 377.68 2716.73
   01:32:26.040.24-Feb-2020 3405.01 4214.90 56.77 3.00 377.88 2716.73
   01:32:26.240.24-Feb-2020 3405.01 4215.50 56.77 3.00 378.08 2716.73
   01:32:26.440.24-Feb-2020 3405.01 4215.50 56.77 3.00 378.28 2716.73
   01:32:26.640.24-Feb-2020 3405.01 4215.05 56.77 3.00 378.48 2716.73
   01:32:26.840.24-Feb-2020 3405.01 4215.21 56.76 3.00 378.68 2716.73
   01:32:27.040.24-Feb-2020 3405.01 4215.25 56.76 3.00 378.88 2716.73
   01:32:27.240.24-Feb-2020 3405.01 4215.11 56.76 3.00 379.08 2716.73
   01:32:27.440.24-Feb-2020 3405.01 4215.09 56.76 3.00 379.28 2716.73
   01:32:27.640.24-Feb-2020 3405.01 4215.14 56.76 3.00 379.48 2716.73
   01:32:27.841.24-Feb-2020 3405.01 4215.21 56.76 3.00 379.68 2716.73
   01:32:28.041.24-Feb-2020 3405.01 4215.16 56.76 3.00 379.88 2716.73
   01:32:28.241.24-Feb-2020 3405.01 4215.15 56.76 3.00 380.08 2716.73
   01:32:28.441.24-Feb-2020 3405.01 4215.15 56.76 3.00 380.28 2716.73
   01:32:28.641.24-Feb-2020 3405.01 4222.45 56.76 3.00 380.48 2716.73
   01:32:28.841.24-Feb-2020 3405.01 4369.63 56.76 3.00 380.68 2716.73
   01:32:29.041.24-Feb-2020 3405.01 5725.69 56.76 3.00 380.88 2716.73
   01:32:29.241.24-Feb-2020 3405.01 5724.38 56.76 3.00 381.08 2716.73
   01:32:29.441.24-Feb-2020 3405.01 5724.38 56.76 3.00 381.28 2716.73
   01:32:29.641.24-Feb-2020 3405.01 5724.93 56.76 3.00 381.48 2716.73
   01:32:29.841.24-Feb-2020 3405.01 5723.23 56.76 3.00 381.68 2716.73
   01:32:30.041.24-Feb-2020 3405.01 5726.32 56.76 3.00 381.88 2716.73
   01:32:30.241.24-Feb-2020 3405.01 5725.89 56.76 3.00 382.08 2716.73
   01:32:30.441.24-Feb-2020 3405.01 5725.89 56.76 3.00 382.28 2716.73
   01:32:30.641.24-Feb-2020 3405.01 5725.61 56.77 3.00 382.48 2716.73
   01:32:30.841.24-Feb-2020 3405.01 5725.72 56.77 3.00 382.68 2716.73
   01:32:31.041.24-Feb-2020 3405.01 5726.06 56.77 3.00 382.88 2716.73
   01:32:31.241.24-Feb-2020 3405.01 5726.54 56.77 3.00 383.08 2716.73
   01:32:31.441.24-Feb-2020 3405.01 5726.56 56.77 3.00 383.28 2716.73
   01:32:31.641.24-Feb-2020 3405.01 5726.68 56.77 3.00 383.48 2716.73
   01:32:31.841.24-Feb-2020 3405.01 5727.41 56.77 3.00 383.68 2716.73
   01:32:32.041.24-Feb-2020 3405.01 5728.33 56.77 3.00 383.88 2716.73
   01:32:32.241.24-Feb-2020 3405.01 5734.98 56.77 3.00 384.08 2716.73
   01:32:32.441.24-Feb-2020 3405.01 5734.98 56.77 3.00 384.28 2716.73
   01:32:32.642.24-Feb-2020 3405.01 5728.85 56.77 3.00 384.48 2716.73
   01:32:32.842.24-Feb-2020 3405.01 5730.85 56.78 3.00 384.68 2716.73
   01:32:33.042.24-Feb-2020 3405.01 5726.91 56.78 3.00 384.88 2716.73
   01:32:33.242.24-Feb-2020 3405.01 5727.90 56.78 3.00 385.08 2716.73
   01:32:33.442.24-Feb-2020 3405.01 5727.90 56.78 3.00 385.28 2716.73
   01:32:33.642.24-Feb-2020 3405.01 5726.36 56.78 3.00 385.48 2716.73
   01:32:33.842.24-Feb-2020 3405.01 5726.90 56.78 3.00 385.68 2716.73
   01:32:34.042.24-Feb-2020 3405.01 5726.09 56.78 3.00 385.88 2716.73
   01:32:34.242.24-Feb-2020 3405.01 5726.97 56.78 3.00 386.08 2716.73
   01:32:34.442.24-Feb-2020 3405.01 5726.97 56.78 3.00 386.28 2716.73
   01:32:34.642.24-Feb-2020 3405.01 5726.74 56.78 3.00 386.48 2716.73
   01:32:34.842.24-Feb-2020 3405.01 5725.78 56.78 3.00 386.68 2716.73
   01:32:35.042.24-Feb-2020 3405.01 5725.83 56.78 3.00 386.88 2716.73
   01:32:35.242.24-Feb-2020 3405.01 5727.40 56.78 3.00 387.08 2716.73
   01:32:35.442.24-Feb-2020 3405.01 5728.17 56.78 3.00 387.28 2716.73
   01:32:35.642.24-Feb-2020 3405.01 5727.14 56.78 3.00 387.48 2716.73
   01:32:35.842.24-Feb-2020 3405.01 5728.04 56.79 3.00 387.68 2716.73
   01:32:36.042.24-Feb-2020 3405.01 5727.10 56.79 3.00 387.88 2716.73
   01:32:36.242.24-Feb-2020 3405.01 5724.31 56.79 3.00 388.08 2716.73
   01:32:36.442.24-Feb-2020 3405.01 5724.31 56.79 3.00 388.28 2716.73
   01:32:36.642.24-Feb-2020 3405.01 5724.80 56.79 3.00 388.48 2716.73
   01:32:36.842.24-Feb-2020 3405.01 5723.68 56.79 3.00 388.68 2716.73
   01:32:37.042.24-Feb-2020 3405.01 5727.93 56.79 3.00 388.88 2716.73
   01:32:37.242.24-Feb-2020 3405.01 5727.35 56.79 3.00 389.08 2716.73
   01:32:37.443.24-Feb-2020 3405.01 5727.35 56.79 3.00 389.28 2716.73
   01:32:37.643.24-Feb-2020 3405.01 5726.96 56.79 3.00 389.48 2716.73
   01:32:37.843.24-Feb-2020 3405.01 5727.85 56.79 3.00 389.68 2716.73
   01:32:38.043.24-Feb-2020 3405.01 5728.55 56.79 3.00 389.88 2716.73
   01:32:38.243.24-Feb-2020 3405.01 5729.74 56.79 3.00 390.08 2716.73
   01:32:38.443.24-Feb-2020 3405.01 5729.74 56.79 3.00 390.28 2716.73
   01:32:38.643.24-Feb-2020 3405.01 5733.54 56.79 3.00 390.48 2716.73
   01:32:38.843.24-Feb-2020 3405.01 5725.90 56.79 3.00 390.68 2716.73
   01:32:39.043.24-Feb-2020 3405.01 5725.98 56.79 3.00 390.88 2716.73
