~Version Information
 VERS.                  2.0:   CWLS log ASCII Standard -VERSION 2.0
 WRAP.                   NO:   One line per depth step
~Well Information Block
#MNEM.UNIT     VALUE/NAME     DESCRIPTION
#---------     -----------    ---------------------------
 STRT.S             06:02:59 24-Feb-20: START TIME 06:02:59 24-Feb-20
 STOP.S             06:10:09 24-Feb-20: STOP TIME  06:10:09 24-Feb-20
 STEP.S                   0.00: STEP TIME
 NULL.                 -999.25: NULL VALUE
 JOBN.        AZ-XX-0905059384:  JOB TICKET NUMB
 PDAT.          Mean Sea Level:  PERMANENT DATUM
 UNIT.                     N/A:  LOGGING EQUIPMENT ID
 DCON.         Sperry Drilling:  DIRECTNL CONTR
 DOE .                     N/A:  DOE NUMBER
 RIG .             West Chirag:  RIG NAME
 WELL.                     J22:  WELL NAME
 MWDS.                    Baku:  MWD SHOP
 SRVC.     TURAN Drilling & Engineering:  CONTRACTOR
 FLD .                     ACG:  FIELD NAME
 CTRY.              Azerbaijan:  COUNTRY NAME
 PROV.                    Baku:  PROVINCE
 STAT.                    Baku:  STATE NAME
 REGN.                   EESSA:  REGION
 BASE.              Azerbaijan:  LOGGING EQUIPMENT BASE LOCATION
 UWI .                     N/A:  UNIQUE WELL IDENTIFIER
 API .                     N/A:  API NUMBER
 COMP.     BP Exploration (Caspian Sea) Ltd.:  COMPANY
 WTYP.                Deviated:  WELL TYPE
 MDS .        Operator Entered:  MAG DATA SOURCE
 SON .        AZ-XX-0905059384:  JOB NUMBER
 FTOP.          Formation Tops:  FORM TOPS DESC
 ILTD.               Lithology:  INTERP LTH DESC
 SVYD.                  Survey:  SURVEY DESC
 DMOD.             Drill Model:  DRILL MOD DESC
 HPTY.       Minimum Curvature:  HOLE POS TYPE
 NREF.                    Grid:  NORTH REFERENCE
 SPUD.               09-Jan-20:  SPUD DATE
 DATE.      14.04.48 07-Feb-20:  END TIME
 STIM.      07.00.00 09-Jan-20:  START TIME
 DMF .             Drill Floor:  DRILL MEAS FROM
 DFST.                        :  DIST FSL TEXT
 DFWT.                        :  DIST FWL TEXT
 CNTY.                        :  COUNTY
 LOC .                        :  LOCATION
 LMF .             Drill Floor:  LOG MEASURED FROM
 DEP .m                   0.00:  DEPTH
 VSNS.m                  10.28:  VERT SEC N/S
 VSEW.m                  -6.24:  VERT SEC E/W
 AGAP.m                  43.00:  AIR GAP
 APD .m                  43.00:  DEPTH ABOVE PD
 WDMS.m                 169.80:  WD ELEV
 EGL .m                   0.00:  GROUND ELEVATION
 EPD .m                   0.00:  ELEVATION
 AZTC.deg                 6.27:  AZM TOTAL CORR
 GRDC.deg                 0.15:  GRID CORRECTION
 MDEC.deg                 6.42:  MAGNETIC DECL
 MDIP.deg                59.56:  MAGNETIC DIP
 MFLD.nT              50277.00:  MAGNETIC FIELD
 GVFD.g                   1.00:  GRAVITY FIELD
 VSDR.deg               148.53:  VERT SEC DIRECT
 TDD .m                3473.01:  TOTAL DEPTH (DRILLER)
 SDEP.m                 364.00:  START DEPTH
 DFSL.m                   0.00:  DISTANCE FSL
 DFWL.m                   0.00:  DISTANCE FWL
 UTMY.m             4443793.85:  UTM Y
 UTMX.m              519005.06:  UTM X
 WHEW.m                  -6.24:  WELL HEAD E/W
 WHNS.m                  10.28:  WELL HEAD N/S
 LONG.deg                51.22:  LONGITUDE
 LATI.deg                40.13:  LATITUDE
 TVDS.m                  43.00:  TVDSS CORRECTN
 EKB .m                   0.00:  KB ELEVATION
 EDF .m                  43.00:  DF ELEVATION
 TDL .m                 254.00:  TOTAL DEPTH (LOGGER)
 MAGU.                 1850021:  MAGUTM CHECKSUM
 VSC .                       0:  VS TO CLOSURE
~Parameter Information Block
#MNEM.UNIT       Value        Description
#---------     -----------    ---------------------------
 AV  .mps                 0.50:  Ann Velocity 
 AVMX.mps                 1.40:  Max Ann Veloc 
 AZIF.deg               144.94:  Azm, Final 
 BHAT.        Rotary Steerable:  BHA Type 
 BROT.°/30m               0.23:  Build Rotating 
 BS  .in                  8.50:  Bit Size 
 BTPL.psig              264.00:  Bit Press Loss 
 CABU.                     Yes:  Customer Abuse 
 COMM.                     ä\:  Run Comments 1 
 TCS .hr                 87.30:  Time Ciculation Ended 
 CV  .mps                 2.45:  Crit Velocity 
 CVMX.mps                 2.74:  Max Crit Veloc 
 DD1 .             Aziz Aliyev:  Direct Drillr 1 
 DDSV.               Geo-Pilot:  DD Service 
 DEFF.%                 100.00:  % Det Eff 
 DLRX.°/30m               1.22:  Dogleg Rot Max 
 DLSO.°/30m               0.52:  Dogleg Oriented 
 DLSX.°/30m               1.22:  Dogleg Str Max 
 DRET.      12.59.00 23-Feb-20:  Drill End Time 
 DRST.      09.44.00 18-Feb-20:  Drill Start Tim 
 DTIM.hr                 23.03:  Time Drilling 
 EDEP.m                3473.01:  End Depth 
 ENG1.         Almaz Almadatov:  Engineer 1 
 ENG2.         Dair Mahammadov:  Engineer 2 
 ENG3.          Nazrin Asgarli:  Engineer 3 
 ETIM.      10.33.36 26-Feb-20:  End Time 
 FLOI.gpm               480.00:  Flow In 
 FLON.gpm               300.00:  Flow In Min 
 FLOS.cptm                1.00:  Fluid Loss 
 FLOX.gpm               550.00:  Flow In Max 
 HFLO.                      No:  High Flow 
 HPRE.                      No:  High Pressure 
 HTEM.                      No:  High Temp 
 HYDO.m                   1.80:  Hydro Offset 
 IFIN.deg                74.42:  Inc, Final 
 IMAX.deg                76.14:  Inc Max 
 IMIN.deg                74.42:  Inc Min 
 IMND.m                3462.72:  Inc Min Depth 
 IMXD.m                3235.69:  Inc Max Depth 
 JARR.                      No:  Jarring 
 LETM.      12.59.00 23-Feb-20:  Log End Time 
 LOST.hr                     0:  Lost Rig Time 
 LSTM.      09.44.00 18-Feb-20:  Log Start Time 
 MDCL.ppm             45000.00:  Mud Chlorides 
 MDES.     Inversion Oil/Synthetic:  Mud Desc 
 DFD .sg                  1.38:  Mud Density 
 MDMN.sg                  1.34:  Dens Mud Min 
 MDMX.sg                  1.49:  Dens Mud Max 
 MOIL.                      67:  Run Mud Oil % 
 MOWR.                   67:33:  Run Mud OWR 
 MSND.                    0.12:  Run Mud Sand % 
 MSOL.                      22:  Run Mud Solids% 
 DFV .spqt               81.00:  Mud Viscosity 
 MWOD.in                  6.75:  MWD Tool OD 
 MWSI.                      No:  Serv Intrp, MWD 
 OTIM.hr                231.44:  Time Operating 
 PCON.          Wear / Scratch:  Pad Condition 
 PMAX.psia             3400.00:  Press Op, Max 
 PV  .cP                 55.00:  Mud PV 
 RUN .                     800:  Run Number 
 ROPA.m/hr               12.00:  ROP Avg 
 ROPN.m/hr                5.00:  ROP Min 
 ROPX.m/hr               28.00:  ROP Max 
 RPMA.rpm               120.00:  RPM Surface Avg 
 RPMN.rpm                40.00:  RPM Surface Min 
 RPMX.rpm               130.00:  RPM Surface Max 
 RRUN.                    0800:  Rig Run Number 
 RTIM.hr                 45.00:  Time Reaming 
 SAZI.deg               145.38:  Azm, Start 
 SDEP.m                3219.01:  Start Depth 
 SIDD.                      No:  Serv Intrp, DD 
 SINC.deg                75.11:  Inc, Start 
 SPPA.psig             2400.00:  SPP Avg 
 SPPN.psig             2320.00:  SPP Min 
 SPPX.psig             3200.00:  SPP Max 
 STIM.      15.15.00 17-Feb-20:  Start Time 
 SVCS.                 DD, MWD:  Services 
 SVER.                    9.20:  Sperry Version 
 TDAT.m                 254.00:  Tot Depth Attmp 
 TDDF.                      No:  Trip for DD 
 TDLG.m                 254.00:  Tot Depth Loggd 
 TFF .                      No:  Trip for Fail 
 TQAA.f-kp               13.00:  Torque Abs Avg 
 TQAN.f-kp                7.00:  Torque Abs Min 
 TQAX.f-kp               15.00:  Torque Abs Max 
 TRRT.°/30m               0.21:  Turn Rotating 
 MRT .                  EWR-M5:  Maximum Recorded Temperature 
 TTMX.degC               64.00:  Max Tool Temp 
 VS01.                90586516:  Virtual Str1 SN 
 VS02.                90513691:  Virtual Str2 SN 
 VS03.                90586523:  Virtual Str3 SN 
 VS04.                90586520:  Virtual Str4 SN 
 VS05.                90590507:  Virtual Str5 SN 
 WBMN.klb                12.00:  WOB Min 
 WITN.           Rufat Babayev:  Customer Rep 2 
 WITN.         Alistair Sprott:  Customer Rep 
 WOBA.klb                18.00:  WOB Avg 
 WOBX.klb                30.00:  WOB Max 
 YP  .lhf2               41.00:  Yield Point 
~Curve Information Block
#MNEM.UNIT                 API CODE     Curve Description
#---------               -----------    ---------------------------
 TIME.HHMMSS            00 000 000 000:  GT Time & Date
 GTDEPTH.m              00 000 000 000:  GT Depth
 GTPQH.psia             00 000 000 000:  GT HR Quartz Pressure
 GTTQ.degC              00 000 000 000:  GT Quartz Temperature
 GTTN.NONE              00 000 000 000:  GT Test Number
 GTET.sec               00 000 000 000:  GT Elapsed Test Time
 GTTVD.m                00 000 000 000:  GT True Vertical Depth
#Other Information
#
#WARRANTY: Halliburton will use its best efforts to furnish customers with 
#accurate information and interpretations that are part of, and incident to, the services 
#provided.  However, Halliburton cannot and does not warrant the accuracy 
#or correctness of such information and interpretations.  Under no circumstances should any 
#such information or interpretation be relied upon as the sole basis for any drilling, 
#completion, production, or financial decision or any procedure involving any risk to the 
#safety of any drilling venture, drilling rig or its crew or any other third party.  The 
#Customer has full responsibility for all drilling, completion and production operation.  
#Halliburton makes no representations or warranties, either expressed or 
#implied, including, but not limited to, the implied warranties of merchantability or fitness 
#for a particular purpose, with respect to the services rendered.  In no event will 
#Halliburton be liable for failure to obtain any particular results or for 
#any damages, including, but not limited to, indirect, special or consequential damages, 
#resulting from the use of any information or interpretation provided by Halliburton.
#
~A           TIME           GTDEPTH  GTPQH  GTTQ  GTTN  GTET   GTTVD  
# ...
   06:07:58.235.24-Feb-2020 3290.31   19.30 54.54 9.00 299.07 2687.60
   06:07:58.435.24-Feb-2020 3290.31   19.31 54.54 9.00 299.27 2687.60
   06:07:58.635.24-Feb-2020 3290.31   19.32 54.54 9.00 299.47 2687.60
   06:07:58.835.24-Feb-2020 3290.31   19.32 54.54 9.00 299.67 2687.60
   06:07:59.035.24-Feb-2020 3290.31   19.34 54.54 9.00 299.87 2687.60
   06:07:59.235.24-Feb-2020 3290.31   19.35 54.54 9.00 300.07 2687.60
   06:07:59.435.24-Feb-2020 3290.31   19.35 54.54 9.00 300.27 2687.60
   06:07:59.635.24-Feb-2020 3290.31   19.37 54.54 9.00 300.47 2687.60
   06:07:59.835.24-Feb-2020 3290.31   19.38 54.54 9.00 300.67 2687.60
   06:08:00.035.24-Feb-2020 3290.31   19.40 54.54 9.00 300.87 2687.60
   06:08:00.235.24-Feb-2020 3290.31   19.40 54.54 9.00 301.07 2687.60
   06:08:00.435.24-Feb-2020 3290.31   19.40 54.54 9.00 301.27 2687.60
   06:08:00.635.24-Feb-2020 3290.31   19.42 54.54 9.00 301.47 2687.60
   06:08:00.835.24-Feb-2020 3290.31   19.44 54.54 9.00 301.67 2687.60
   06:08:01.035.24-Feb-2020 3290.31   19.45 54.54 9.00 301.87 2687.60
   06:08:01.235.24-Feb-2020 3290.31   19.46 54.54 9.00 302.07 2687.60
   06:08:01.435.24-Feb-2020 3290.31   19.46 54.54 9.00 302.27 2687.60
   06:08:01.636.24-Feb-2020 3290.31   19.48 54.54 9.00 302.47 2687.60
   06:08:01.836.24-Feb-2020 3290.31   19.48 54.54 9.00 302.67 2687.60
   06:08:02.036.24-Feb-2020 3290.31   19.50 54.54 9.00 302.87 2687.60
   06:08:02.236.24-Feb-2020 3290.31   19.51 54.54 9.00 303.07 2687.60
   06:08:02.436.24-Feb-2020 3290.31   19.52 54.54 9.00 303.27 2687.60
   06:08:02.636.24-Feb-2020 3290.31   19.53 54.54 9.00 303.47 2687.60
   06:08:02.836.24-Feb-2020 3290.31   19.54 54.54 9.00 303.67 2687.60
   06:08:03.036.24-Feb-2020 3290.31   19.55 54.54 9.00 303.87 2687.60
   06:08:03.236.24-Feb-2020 3290.31   19.56 54.54 9.00 304.07 2687.60
   06:08:03.436.24-Feb-2020 3290.31   19.56 54.54 9.00 304.27 2687.60
   06:08:03.636.24-Feb-2020 3290.31   19.58 54.54 9.00 304.47 2687.60
   06:08:03.836.24-Feb-2020 3290.31   19.58 54.54 9.00 304.67 2687.60
   06:08:04.036.24-Feb-2020 3290.31   19.60 54.54 9.00 304.87 2687.60
   06:08:04.236.24-Feb-2020 3290.31   19.60 54.54 9.00 305.07 2687.60
   06:08:04.436.24-Feb-2020 3290.31   19.60 54.54 9.00 305.27 2687.60
   06:08:04.636.24-Feb-2020 3290.31   19.61 54.54 9.00 305.47 2687.60
   06:08:04.836.24-Feb-2020 3290.31   19.63 54.54 9.00 305.67 2687.60
   06:08:05.036.24-Feb-2020 3290.31   19.63 54.54 9.00 305.87 2687.60
   06:08:05.236.24-Feb-2020 3290.31   19.65 54.54 9.00 306.07 2687.60
   06:08:05.436.24-Feb-2020 3290.31   19.65 54.54 9.00 306.27 2687.60
   06:08:05.636.24-Feb-2020 3290.31   19.67 54.54 9.00 306.47 2687.60
   06:08:05.836.24-Feb-2020 3290.31   19.67 54.54 9.00 306.67 2687.60
   06:08:06.037.24-Feb-2020 3290.31   19.68 54.54 9.00 306.87 2687.60
   06:08:06.237.24-Feb-2020 3290.31   19.69 54.54 9.00 307.07 2687.60
   06:08:06.437.24-Feb-2020 3290.31   19.70 54.54 9.00 307.27 2687.60
   06:08:06.637.24-Feb-2020 3290.31   19.71 54.54 9.00 307.47 2687.60
   06:08:06.837.24-Feb-2020 3290.31   19.72 54.54 9.00 307.67 2687.60
   06:08:07.037.24-Feb-2020 3290.31   19.73 54.54 9.00 307.87 2687.60
   06:08:07.237.24-Feb-2020 3290.31   19.74 54.54 9.00 308.07 2687.60
   06:08:07.437.24-Feb-2020 3290.31   19.74 54.54 9.00 308.27 2687.60
   06:08:07.637.24-Feb-2020 3290.31   19.76 54.54 9.00 308.47 2687.60
   06:08:07.837.24-Feb-2020 3290.31   19.76 54.54 9.00 308.67 2687.60
   06:08:08.037.24-Feb-2020 3290.31   19.77 54.54 9.00 308.87 2687.60
   06:08:08.237.24-Feb-2020 3290.31   19.78 54.54 9.00 309.07 2687.60
   06:08:08.437.24-Feb-2020 3290.31   19.78 54.54 9.00 309.27 2687.60
   06:08:08.637.24-Feb-2020 3290.31   19.79 54.54 9.00 309.47 2687.60
   06:08:08.837.24-Feb-2020 3290.31   19.80 54.54 9.00 309.67 2687.60
   06:08:09.037.24-Feb-2020 3290.31   19.81 54.54 9.00 309.87 2687.60
   06:08:09.237.24-Feb-2020 3290.31   19.82 54.54 9.00 310.07 2687.60
   06:08:09.437.24-Feb-2020 3290.31   19.82 54.54 9.00 310.27 2687.60
   06:08:09.637.24-Feb-2020 3290.31   19.84 54.54 9.00 310.47 2687.60
   06:08:09.837.24-Feb-2020 3290.31   19.84 54.54 9.00 310.67 2687.60
   06:08:10.037.24-Feb-2020 3290.31   19.85 54.54 9.00 310.87 2687.60
   06:08:10.237.24-Feb-2020 3290.31   19.86 54.54 9.00 311.07 2687.60
   06:08:10.437.24-Feb-2020 3290.31   19.87 54.54 9.00 311.27 2687.60
   06:08:10.638.24-Feb-2020 3290.31   19.88 54.54 9.00 311.47 2687.60
   06:08:10.838.24-Feb-2020 3290.31   19.88 54.54 9.00 311.67 2687.60
   06:08:11.038.24-Feb-2020 3290.31   19.90 54.54 9.00 311.87 2687.60
   06:08:11.238.24-Feb-2020 3290.31   19.89 54.54 9.00 312.07 2687.60
   06:08:11.438.24-Feb-2020 3290.31   19.89 54.54 9.00 312.27 2687.60
   06:08:11.638.24-Feb-2020 3290.31   19.91 54.54 9.00 312.47 2687.60
   06:08:11.838.24-Feb-2020 3290.31   19.92 54.54 9.00 312.67 2687.60
   06:08:12.038.24-Feb-2020 3290.31   19.93 54.54 9.00 312.87 2687.60
   06:08:12.238.24-Feb-2020 3290.31   19.94 54.54 9.00 313.07 2687.60
   06:08:12.438.24-Feb-2020 3290.31   19.94 54.54 9.00 313.27 2687.60
   06:08:12.638.24-Feb-2020 3290.31   19.96 54.54 9.00 313.47 2687.60
   06:08:12.838.24-Feb-2020 3290.31   19.96 54.54 9.00 313.67 2687.60
   06:08:13.038.24-Feb-2020 3290.31   19.97 54.54 9.00 313.87 2687.60
   06:08:13.238.24-Feb-2020 3290.31   19.98 54.54 9.00 314.07 2687.60
   06:08:13.438.24-Feb-2020 3290.31   19.98 54.54 9.00 314.27 2687.60
   06:08:13.638.24-Feb-2020 3290.31   19.99 54.54 9.00 314.47 2687.60
   06:08:13.838.24-Feb-2020 3290.31   20.00 54.54 9.00 314.67 2687.60
   06:08:14.038.24-Feb-2020 3290.31   20.01 54.54 9.00 314.87 2687.60
   06:08:14.238.24-Feb-2020 3290.31   20.02 54.54 9.00 315.07 2687.60
   06:08:14.438.24-Feb-2020 3290.31   20.02 54.54 9.00 315.27 2687.60
   06:08:14.638.24-Feb-2020 3290.31   20.04 54.54 9.00 315.47 2687.60
   06:08:14.838.24-Feb-2020 3290.31   20.04 54.53 9.00 315.67 2687.60
   06:08:15.038.24-Feb-2020 3290.31   20.05 54.53 9.00 315.87 2687.60
   06:08:15.239.24-Feb-2020 3290.31   20.06 54.53 9.00 316.07 2687.60
   06:08:15.439.24-Feb-2020 3290.31   20.06 54.53 9.00 316.27 2687.60
   06:08:15.639.24-Feb-2020 3290.31   20.07 54.53 9.00 316.47 2687.60
   06:08:15.839.24-Feb-2020 3290.31   20.08 54.53 9.00 316.67 2687.60
   06:08:16.039.24-Feb-2020 3290.31   20.08 54.53 9.00 316.87 2687.60
   06:08:16.239.24-Feb-2020 3290.31   20.09 54.53 9.00 317.07 2687.60
   06:08:16.439.24-Feb-2020 3290.31   20.09 54.53 9.00 317.27 2687.60
   06:08:16.639.24-Feb-2020 3290.31   20.11 54.53 9.00 317.47 2687.60
   06:08:16.839.24-Feb-2020 3290.31   20.11 54.53 9.00 317.67 2687.60
   06:08:17.039.24-Feb-2020 3290.31   20.12 54.53 9.00 317.87 2687.60
   06:08:17.239.24-Feb-2020 3290.31   20.13 54.53 9.00 318.07 2687.60
   06:08:17.439.24-Feb-2020 3290.31   20.13 54.53 9.00 318.27 2687.60
   06:08:17.639.24-Feb-2020 3290.31   20.14 54.53 9.00 318.47 2687.60
   06:08:17.839.24-Feb-2020 3290.31   20.15 54.53 9.00 318.67 2687.60
   06:08:18.039.24-Feb-2020 3290.31   20.16 54.53 9.00 318.87 2687.60
   06:08:18.239.24-Feb-2020 3290.31   20.16 54.53 9.00 319.07 2687.60
   06:08:18.439.24-Feb-2020 3290.31   20.17 54.53 9.00 319.27 2687.60
   06:08:18.639.24-Feb-2020 3290.31   20.18 54.53 9.00 319.47 2687.60
   06:08:18.839.24-Feb-2020 3290.31   20.18 54.53 9.00 319.67 2687.60
   06:08:19.039.24-Feb-2020 3290.31   20.19 54.53 9.00 319.87 2687.60
   06:08:19.239.24-Feb-2020 3290.31   20.19 54.53 9.00 320.07 2687.60
   06:08:19.439.24-Feb-2020 3290.31   20.19 54.53 9.00 320.27 2687.60
   06:08:19.639.24-Feb-2020 3290.31   20.21 54.53 9.00 320.47 2687.60
   06:08:19.840.24-Feb-2020 3290.31   20.21 54.53 9.00 320.67 2687.60
   06:08:20.040.24-Feb-2020 3290.31   20.22 54.53 9.00 320.87 2687.60
   06:08:20.240.24-Feb-2020 3290.31   20.23 54.53 9.00 321.07 2687.60
   06:08:20.440.24-Feb-2020 3290.31   20.23 54.53 9.00 321.27 2687.60
   06:08:20.640.24-Feb-2020 3290.31   20.24 54.53 9.00 321.47 2687.60
   06:08:20.840.24-Feb-2020 3290.31   20.25 54.53 9.00 321.67 2687.60
   06:08:21.040.24-Feb-2020 3290.31   20.25 54.53 9.00 321.87 2687.60
