~Version Information
 VERS.                  2.0:   CWLS log ASCII Standard -VERSION 2.0
 WRAP.                   NO:   One line per depth step
~Well Information Block
#MNEM.UNIT     VALUE/NAME     DESCRIPTION
#---------     -----------    ---------------------------
 STRT.S             01:26:08 24-Feb-20: START TIME 01:26:08 24-Feb-20
 STOP.S             01:33:25 24-Feb-20: STOP TIME  01:33:25 24-Feb-20
 STEP.S                   0.00: STEP TIME
 NULL.                 -999.25: NULL VALUE
 JOBN.        AZ-XX-0905059384:  JOB TICKET NUMB
 PDAT.          Mean Sea Level:  PERMANENT DATUM
 UNIT.                     N/A:  LOGGING EQUIPMENT ID
 DCON.         Sperry Drilling:  DIRECTNL CONTR
 DOE .                     N/A:  DOE NUMBER
 RIG .             West Chirag:  RIG NAME
 WELL.                     J22:  WELL NAME
 MWDS.                    Baku:  MWD SHOP
 SRVC.     TURAN Drilling & Engineering:  CONTRACTOR
 FLD .                     ACG:  FIELD NAME
 CTRY.              Azerbaijan:  COUNTRY NAME
 PROV.                    Baku:  PROVINCE
 STAT.                    Baku:  STATE NAME
 REGN.                   EESSA:  REGION
 BASE.              Azerbaijan:  LOGGING EQUIPMENT BASE LOCATION
 UWI .                     N/A:  UNIQUE WELL IDENTIFIER
 API .                     N/A:  API NUMBER
 COMP.     BP Exploration (Caspian Sea) Ltd.:  COMPANY
 WTYP.                Deviated:  WELL TYPE
 MDS .        Operator Entered:  MAG DATA SOURCE
 SON .        AZ-XX-0905059384:  JOB NUMBER
 FTOP.          Formation Tops:  FORM TOPS DESC
 ILTD.               Lithology:  INTERP LTH DESC
 SVYD.                  Survey:  SURVEY DESC
 DMOD.             Drill Model:  DRILL MOD DESC
 HPTY.       Minimum Curvature:  HOLE POS TYPE
 NREF.                    Grid:  NORTH REFERENCE
 SPUD.               09-Jan-20:  SPUD DATE
 DATE.      14.04.48 07-Feb-20:  END TIME
 STIM.      07.00.00 09-Jan-20:  START TIME
 DMF .             Drill Floor:  DRILL MEAS FROM
 DFST.                        :  DIST FSL TEXT
 DFWT.                        :  DIST FWL TEXT
 CNTY.                        :  COUNTY
 LOC .                        :  LOCATION
 LMF .             Drill Floor:  LOG MEASURED FROM
 DEP .m                   0.00:  DEPTH
 VSNS.m                  10.28:  VERT SEC N/S
 VSEW.m                  -6.24:  VERT SEC E/W
 AGAP.m                  43.00:  AIR GAP
 APD .m                  43.00:  DEPTH ABOVE PD
 WDMS.m                 169.80:  WD ELEV
 EGL .m                   0.00:  GROUND ELEVATION
 EPD .m                   0.00:  ELEVATION
 AZTC.deg                 6.27:  AZM TOTAL CORR
 GRDC.deg                 0.15:  GRID CORRECTION
 MDEC.deg                 6.42:  MAGNETIC DECL
 MDIP.deg                59.56:  MAGNETIC DIP
 MFLD.nT              50277.00:  MAGNETIC FIELD
 GVFD.g                   1.00:  GRAVITY FIELD
 VSDR.deg               148.53:  VERT SEC DIRECT
 TDD .m                3473.01:  TOTAL DEPTH (DRILLER)
 SDEP.m                 364.00:  START DEPTH
 DFSL.m                   0.00:  DISTANCE FSL
 DFWL.m                   0.00:  DISTANCE FWL
 UTMY.m             4443793.85:  UTM Y
 UTMX.m              519005.06:  UTM X
 WHEW.m                  -6.24:  WELL HEAD E/W
 WHNS.m                  10.28:  WELL HEAD N/S
 LONG.deg                51.22:  LONGITUDE
 LATI.deg                40.13:  LATITUDE
 TVDS.m                  43.00:  TVDSS CORRECTN
 EKB .m                   0.00:  KB ELEVATION
 EDF .m                  43.00:  DF ELEVATION
 TDL .m                 254.00:  TOTAL DEPTH (LOGGER)
 MAGU.                 1850021:  MAGUTM CHECKSUM
 VSC .                       0:  VS TO CLOSURE
~Parameter Information Block
#MNEM.UNIT       Value        Description
#---------     -----------    ---------------------------
 AV  .mps                 0.50:  Ann Velocity 
 AVMX.mps                 1.40:  Max Ann Veloc 
 AZIF.deg               144.94:  Azm, Final 
 BHAT.        Rotary Steerable:  BHA Type 
 BROT.°/30m               0.23:  Build Rotating 
 BS  .in                  8.50:  Bit Size 
 BTPL.psig              264.00:  Bit Press Loss 
 CABU.                     Yes:  Customer Abuse 
 TCS .hr                 87.30:  Time Ciculation Ended 
 CV  .mps                 2.45:  Crit Velocity 
 CVMX.mps                 2.74:  Max Crit Veloc 
 DD1 .             Aziz Aliyev:  Direct Drillr 1 
 DDSV.               Geo-Pilot:  DD Service 
 DEFF.%                 100.00:  % Det Eff 
 DLRX.°/30m               1.22:  Dogleg Rot Max 
 DLSO.°/30m               0.52:  Dogleg Oriented 
 DLSX.°/30m               1.22:  Dogleg Str Max 
 DRET.      12.59.00 23-Feb-20:  Drill End Time 
 DRST.      09.44.00 18-Feb-20:  Drill Start Tim 
 DTIM.hr                 23.03:  Time Drilling 
 EDEP.m                3473.01:  End Depth 
 ENG1.         Almaz Almadatov:  Engineer 1 
 ENG2.         Dair Mahammadov:  Engineer 2 
 ENG3.          Nazrin Asgarli:  Engineer 3 
 ETIM.      10.33.36 26-Feb-20:  End Time 
 FLOI.gpm               480.00:  Flow In 
 FLON.gpm               300.00:  Flow In Min 
 FLOS.cptm                1.00:  Fluid Loss 
 FLOX.gpm               550.00:  Flow In Max 
 HFLO.                      No:  High Flow 
 HPRE.                      No:  High Pressure 
 HTEM.                      No:  High Temp 
 HYDO.m                   1.80:  Hydro Offset 
 IFIN.deg                74.42:  Inc, Final 
 IMAX.deg                76.14:  Inc Max 
 IMIN.deg                74.42:  Inc Min 
 IMND.m                3462.72:  Inc Min Depth 
 IMXD.m                3235.69:  Inc Max Depth 
 JARR.                      No:  Jarring 
 LETM.      12.59.00 23-Feb-20:  Log End Time 
 LOST.hr                     0:  Lost Rig Time 
 LSTM.      09.44.00 18-Feb-20:  Log Start Time 
 MDCL.ppm             45000.00:  Mud Chlorides 
 MDES.     Inversion Oil/Synthetic:  Mud Desc 
 DFD .sg                  1.38:  Mud Density 
 MDMN.sg                  1.34:  Dens Mud Min 
 MDMX.sg                  1.49:  Dens Mud Max 
 MOIL.                      67:  Run Mud Oil % 
 MOWR.                   67:33:  Run Mud OWR 
 MSND.                    0.12:  Run Mud Sand % 
 MSOL.                      22:  Run Mud Solids% 
 DFV .spqt               81.00:  Mud Viscosity 
 MWOD.in                  6.75:  MWD Tool OD 
 MWSI.                      No:  Serv Intrp, MWD 
 OTIM.hr                231.44:  Time Operating 
 PCON.          Wear / Scratch:  Pad Condition 
 PMAX.psia             3400.00:  Press Op, Max 
 PV  .cP                 55.00:  Mud PV 
 RUN .                     800:  Run Number 
 ROPA.m/hr               12.00:  ROP Avg 
 ROPN.m/hr                5.00:  ROP Min 
 ROPX.m/hr               28.00:  ROP Max 
 RPMA.rpm               120.00:  RPM Surface Avg 
 RPMN.rpm                40.00:  RPM Surface Min 
 RPMX.rpm               130.00:  RPM Surface Max 
 RRUN.                    0800:  Rig Run Number 
 RTIM.hr                 45.00:  Time Reaming 
 SAZI.deg               145.38:  Azm, Start 
 SDEP.m                3219.01:  Start Depth 
 SIDD.                      No:  Serv Intrp, DD 
 SINC.deg                75.11:  Inc, Start 
 SPPA.psig             2400.00:  SPP Avg 
 SPPN.psig             2320.00:  SPP Min 
 SPPX.psig             3200.00:  SPP Max 
 STIM.      15.15.00 17-Feb-20:  Start Time 
 SVCS.                 DD, MWD:  Services 
 SVER.                    9.20:  Sperry Version 
 TDAT.m                 254.00:  Tot Depth Attmp 
 TDDF.                      No:  Trip for DD 
 TDLG.m                 254.00:  Tot Depth Loggd 
 TFF .                      No:  Trip for Fail 
 TQAA.f-kp               13.00:  Torque Abs Avg 
 TQAN.f-kp                7.00:  Torque Abs Min 
 TQAX.f-kp               15.00:  Torque Abs Max 
 TRRT.°/30m               0.21:  Turn Rotating 
 MRT .                  EWR-M5:  Maximum Recorded Temperature 
 TTMX.degC               64.00:  Max Tool Temp 
 VS01.                90586516:  Virtual Str1 SN 
 VS02.                90513691:  Virtual Str2 SN 
 VS03.                90586523:  Virtual Str3 SN 
 VS04.                90586520:  Virtual Str4 SN 
 VS05.                90590507:  Virtual Str5 SN 
 WBMN.klb                12.00:  WOB Min 
 WITN.           Rufat Babayev:  Customer Rep 2 
 WITN.         Alistair Sprott:  Customer Rep 
 WOBA.klb                18.00:  WOB Avg 
 WOBX.klb                30.00:  WOB Max 
 YP  .lhf2               41.00:  Yield Point 
~Curve Information Block
#MNEM.UNIT                 API CODE     Curve Description
#---------               -----------    ---------------------------
 TIME.HHMMSS            00 000 000 000:  GT Time & Date
 GTDEPTH.m              00 000 000 000:  GT Depth
 GTPQH.psia             00 000 000 000:  GT HR Quartz Pressure
 GTTQ.degC              00 000 000 000:  GT Quartz Temperature
 GTTN.NONE              00 000 000 000:  GT Test Number
 GTET.sec               00 000 000 000:  GT Elapsed Test Time
 GTTVD.m                00 000 000 000:  GT True Vertical Depth
#Other Information
#
#WARRANTY: Halliburton will use its best efforts to furnish customers with 
#accurate information and interpretations that are part of, and incident to, the services 
#provided.  However, Halliburton cannot and does not warrant the accuracy 
#or correctness of such information and interpretations.  Under no circumstances should any 
#such information or interpretation be relied upon as the sole basis for any drilling, 
#completion, production, or financial decision or any procedure involving any risk to the 
#safety of any drilling venture, drilling rig or its crew or any other third party.  The 
#Customer has full responsibility for all drilling, completion and production operation.  
#Halliburton makes no representations or warranties, either expressed or 
#implied, including, but not limited to, the implied warranties of merchantability or fitness 
#for a particular purpose, with respect to the services rendered.  In no event will 
#Halliburton be liable for failure to obtain any particular results or for 
#any damages, including, but not limited to, indirect, special or consequential damages, 
#resulting from the use of any information or interpretation provided by Halliburton.
#
~A           TIME           GTDEPTH  GTPQH  GTTQ  GTTN  GTET   GTTVD  
# ...
   01:30:44.219.24-Feb-2020 3405.01 4196.02 56.83 3.00 276.06 2716.73
   01:30:44.419.24-Feb-2020 3405.01 4196.02 56.83 3.00 276.26 2716.73
   01:30:44.619.24-Feb-2020 3405.01 4196.10 56.83 3.00 276.46 2716.73
   01:30:44.819.24-Feb-2020 3405.01 4195.77 56.83 3.00 276.66 2716.73
   01:30:45.019.24-Feb-2020 3405.01 4195.90 56.83 3.00 276.86 2716.73
   01:30:45.219.24-Feb-2020 3405.01 4196.10 56.83 3.00 277.06 2716.73
   01:30:45.419.24-Feb-2020 3405.01 4196.10 56.83 3.00 277.26 2716.73
   01:30:45.619.24-Feb-2020 3405.01 4196.11 56.83 3.00 277.46 2716.73
   01:30:45.819.24-Feb-2020 3405.01 4196.06 56.83 3.00 277.66 2716.73
   01:30:46.019.24-Feb-2020 3405.01 4196.27 56.83 3.00 277.86 2716.73
   01:30:46.219.24-Feb-2020 3405.01 4195.85 56.83 3.00 278.06 2716.73
   01:30:46.419.24-Feb-2020 3405.01 4195.85 56.83 3.00 278.26 2716.73
   01:30:46.619.24-Feb-2020 3405.01 4195.95 56.83 3.00 278.46 2716.73
   01:30:46.819.24-Feb-2020 3405.01 4195.21 56.83 3.00 278.66 2716.73
   01:30:47.019.24-Feb-2020 3405.01 4196.68 56.83 3.00 278.86 2716.73
   01:30:47.220.24-Feb-2020 3405.01 4196.32 56.83 3.00 279.06 2716.73
   01:30:47.420.24-Feb-2020 3405.01 4195.77 56.83 3.00 279.26 2716.73
   01:30:47.620.24-Feb-2020 3405.01 4196.00 56.83 3.00 279.46 2716.73
   01:30:47.820.24-Feb-2020 3405.01 4196.25 56.83 3.00 279.66 2716.73
   01:30:48.020.24-Feb-2020 3405.01 4195.61 56.83 3.00 279.86 2716.73
   01:30:48.220.24-Feb-2020 3405.01 4196.11 56.83 3.00 280.06 2716.73
   01:30:48.420.24-Feb-2020 3405.01 4196.11 56.83 3.00 280.26 2716.73
   01:30:48.620.24-Feb-2020 3405.01 4196.03 56.83 3.00 280.46 2716.73
   01:30:48.820.24-Feb-2020 3405.01 4196.09 56.83 3.00 280.66 2716.73
   01:30:49.020.24-Feb-2020 3405.01 4196.13 56.83 3.00 280.86 2716.73
   01:30:49.220.24-Feb-2020 3405.01 4196.09 56.83 3.00 281.06 2716.73
   01:30:49.420.24-Feb-2020 3405.01 4196.09 56.83 3.00 281.26 2716.73
   01:30:49.620.24-Feb-2020 3405.01 4196.11 56.83 3.00 281.46 2716.73
   01:30:49.820.24-Feb-2020 3405.01 4196.07 56.83 3.00 281.66 2716.73
   01:30:50.020.24-Feb-2020 3405.01 4196.69 56.83 3.00 281.86 2716.73
   01:30:50.220.24-Feb-2020 3405.01 4195.67 56.83 3.00 282.06 2716.73
   01:30:50.420.24-Feb-2020 3405.01 4195.67 56.83 3.00 282.26 2716.73
   01:30:50.620.24-Feb-2020 3405.01 4196.28 56.83 3.00 282.46 2716.73
   01:30:50.820.24-Feb-2020 3405.01 4196.34 56.83 3.00 282.66 2716.73
   01:30:51.020.24-Feb-2020 3405.01 4196.31 56.83 3.00 282.86 2716.73
   01:30:51.220.24-Feb-2020 3405.01 4200.80 56.83 3.00 283.06 2716.73
   01:30:51.420.24-Feb-2020 3405.01 4215.22 56.83 3.00 283.26 2716.73
   01:30:51.620.24-Feb-2020 3405.01 4215.07 56.83 3.00 283.46 2716.73
   01:30:51.820.24-Feb-2020 3405.01 4214.99 56.83 3.00 283.66 2716.73
   01:30:52.021.24-Feb-2020 3405.01 4215.04 56.83 3.00 283.86 2716.73
   01:30:52.221.24-Feb-2020 3405.01 4215.07 56.83 3.00 284.06 2716.73
   01:30:52.421.24-Feb-2020 3405.01 4215.07 56.83 3.00 284.26 2716.73
   01:30:52.621.24-Feb-2020 3405.01 4214.97 56.83 3.00 284.46 2716.73
   01:30:52.821.24-Feb-2020 3405.01 4215.47 56.83 3.00 284.66 2716.73
   01:30:53.021.24-Feb-2020 3405.01 4215.77 56.83 3.00 284.86 2716.73
   01:30:53.221.24-Feb-2020 3405.01 4215.80 56.83 3.00 285.06 2716.73
   01:30:53.421.24-Feb-2020 3405.01 4215.80 56.83 3.00 285.26 2716.73
   01:30:53.621.24-Feb-2020 3405.01 4215.91 56.83 3.00 285.46 2716.73
   01:30:53.821.24-Feb-2020 3405.01 4215.75 56.83 3.00 285.66 2716.73
   01:30:54.021.24-Feb-2020 3405.01 4215.70 56.83 3.00 285.86 2716.73
   01:30:54.221.24-Feb-2020 3405.01 4215.68 56.83 3.00 286.06 2716.73
   01:30:54.421.24-Feb-2020 3405.01 4215.68 56.83 3.00 286.26 2716.73
   01:30:54.621.24-Feb-2020 3405.01 4215.64 56.83 3.00 286.46 2716.73
   01:30:54.821.24-Feb-2020 3405.01 4215.62 56.83 3.00 286.66 2716.73
   01:30:55.021.24-Feb-2020 3405.01 4215.61 56.83 3.00 286.86 2716.73
   01:30:55.221.24-Feb-2020 3405.01 4215.58 56.83 3.00 287.06 2716.73
   01:30:55.421.24-Feb-2020 3405.01 4215.53 56.83 3.00 287.26 2716.73
   01:30:55.621.24-Feb-2020 3405.01 4215.50 56.83 3.00 287.46 2716.73
   01:30:55.821.24-Feb-2020 3405.01 4215.46 56.83 3.00 287.66 2716.73
   01:30:56.021.24-Feb-2020 3405.01 4215.43 56.83 3.00 287.86 2716.73
   01:30:56.221.24-Feb-2020 3405.01 4215.45 56.83 3.00 288.06 2716.73
   01:30:56.421.24-Feb-2020 3405.01 4215.45 56.83 3.00 288.26 2716.73
   01:30:56.621.24-Feb-2020 3405.01 4215.26 56.83 3.00 288.46 2716.73
   01:30:56.822.24-Feb-2020 3405.01 4215.19 56.83 3.00 288.66 2716.73
   01:30:57.022.24-Feb-2020 3405.01 4215.20 56.83 3.00 288.86 2716.73
   01:30:57.222.24-Feb-2020 3405.01 4215.25 56.83 3.00 289.06 2716.73
   01:30:57.422.24-Feb-2020 3405.01 4215.25 56.83 3.00 289.26 2716.73
   01:30:57.622.24-Feb-2020 3405.01 4215.18 56.83 3.00 289.46 2716.73
   01:30:57.822.24-Feb-2020 3405.01 4215.20 56.83 3.00 289.66 2716.73
   01:30:58.022.24-Feb-2020 3405.01 4215.19 56.83 3.00 289.86 2716.73
   01:30:58.222.24-Feb-2020 3405.01 4215.21 56.83 3.00 290.06 2716.73
   01:30:58.422.24-Feb-2020 3405.01 4215.21 56.83 3.00 290.26 2716.73
   01:30:58.622.24-Feb-2020 3405.01 4215.19 56.83 3.00 290.46 2716.73
   01:30:58.822.24-Feb-2020 3405.01 4215.19 56.83 3.00 290.66 2716.73
   01:30:59.022.24-Feb-2020 3405.01 4215.19 56.83 3.00 290.86 2716.73
   01:30:59.222.24-Feb-2020 3405.01 4215.20 56.83 3.00 291.06 2716.73
   01:30:59.422.24-Feb-2020 3405.01 4215.19 56.82 3.00 291.26 2716.73
   01:30:59.622.24-Feb-2020 3405.01 4215.24 56.82 3.00 291.46 2716.73
   01:30:59.822.24-Feb-2020 3405.01 4215.18 56.82 3.00 291.66 2716.73
   01:31:00.022.24-Feb-2020 3405.01 4215.45 56.82 3.00 291.86 2716.73
   01:31:00.222.24-Feb-2020 3405.01 4215.20 56.82 3.00 292.06 2716.73
   01:31:00.422.24-Feb-2020 3405.01 4215.20 56.82 3.00 292.26 2716.73
   01:31:00.622.24-Feb-2020 3405.01 4215.36 56.82 3.00 292.46 2716.73
   01:31:00.822.24-Feb-2020 3405.01 4215.16 56.82 3.00 292.66 2716.73
   01:31:01.022.24-Feb-2020 3405.01 4215.12 56.82 3.00 292.86 2716.73
   01:31:01.222.24-Feb-2020 3405.01 4215.16 56.82 3.00 293.06 2716.73
   01:31:01.422.24-Feb-2020 3405.01 4215.16 56.82 3.00 293.26 2716.73
   01:31:01.623.24-Feb-2020 3405.01 4215.19 56.82 3.00 293.46 2716.73
   01:31:01.823.24-Feb-2020 3405.01 4215.35 56.82 3.00 293.66 2716.73
   01:31:02.023.24-Feb-2020 3405.01 4215.14 56.82 3.00 293.86 2716.73
   01:31:02.223.24-Feb-2020 3405.01 4215.11 56.82 3.00 294.06 2716.73
   01:31:02.423.24-Feb-2020 3405.01 4215.11 56.82 3.00 294.26 2716.73
   01:31:02.623.24-Feb-2020 3405.01 4215.21 56.82 3.00 294.46 2716.73
   01:31:02.823.24-Feb-2020 3405.01 4215.15 56.82 3.00 294.66 2716.73
   01:31:03.023.24-Feb-2020 3405.01 4215.15 56.82 3.00 294.86 2716.73
   01:31:03.223.24-Feb-2020 3405.01 4214.97 56.82 3.00 295.06 2716.73
   01:31:03.423.24-Feb-2020 3405.01 4214.97 56.82 3.00 295.26 2716.73
   01:31:03.623.24-Feb-2020 3405.01 4215.19 56.82 3.00 295.46 2716.73
   01:31:03.823.24-Feb-2020 3405.01 4215.05 56.82 3.00 295.66 2716.73
   01:31:04.023.24-Feb-2020 3405.01 4215.17 56.82 3.00 295.86 2716.73
   01:31:04.223.24-Feb-2020 3405.01 4215.18 56.82 3.00 296.06 2716.73
   01:31:04.423.24-Feb-2020 3405.01 4215.18 56.82 3.00 296.26 2716.73
   01:31:04.623.24-Feb-2020 3405.01 4215.17 56.82 3.00 296.46 2716.73
   01:31:04.823.24-Feb-2020 3405.01 4215.15 56.82 3.00 296.66 2716.73
   01:31:05.023.24-Feb-2020 3405.01 4215.16 56.82 3.00 296.86 2716.73
   01:31:05.223.24-Feb-2020 3405.01 4215.16 56.82 3.00 297.06 2716.73
   01:31:05.423.24-Feb-2020 3405.01 4215.16 56.82 3.00 297.26 2716.73
   01:31:05.623.24-Feb-2020 3405.01 4215.16 56.82 3.00 297.46 2716.73
   01:31:05.823.24-Feb-2020 3405.01 4215.16 56.82 3.00 297.66 2716.73
   01:31:06.023.24-Feb-2020 3405.01 4215.14 56.82 3.00 297.86 2716.73
   01:31:06.223.24-Feb-2020 3405.01 4215.35 56.82 3.00 298.06 2716.73
   01:31:06.424.24-Feb-2020 3405.01 4215.35 56.82 3.00 298.26 2716.73
   01:31:06.624.24-Feb-2020 3405.01 4215.06 56.82 3.00 298.46 2716.73
   01:31:06.824.24-Feb-2020 3405.01 4215.19 56.82 3.00 298.66 2716.73
   01:31:07.024.24-Feb-2020 3405.01 4215.20 56.82 3.00 298.86 2716.73
