~Version Information
 VERS.                  2.0:   CWLS log ASCII Standard -VERSION 2.0
 WRAP.                   NO:   One line per depth step
~Well Information Block
#MNEM.UNIT     VALUE/NAME     DESCRIPTION
#---------     -----------    ---------------------------
 STRT.S             03:19:12 24-Feb-20: START TIME 03:19:12 24-Feb-20
 STOP.S             03:27:48 24-Feb-20: STOP TIME  03:27:48 24-Feb-20
 STEP.S                   0.00: STEP TIME
 NULL.                 -999.25: NULL VALUE
 JOBN.        AZ-XX-0905059384:  JOB TICKET NUMB
 PDAT.          Mean Sea Level:  PERMANENT DATUM
 UNIT.                     N/A:  LOGGING EQUIPMENT ID
 DCON.         Sperry Drilling:  DIRECTNL CONTR
 DOE .                     N/A:  DOE NUMBER
 RIG .             West Chirag:  RIG NAME
 WELL.                     J22:  WELL NAME
 MWDS.                    Baku:  MWD SHOP
 SRVC.     TURAN Drilling & Engineering:  CONTRACTOR
 FLD .                     ACG:  FIELD NAME
 CTRY.              Azerbaijan:  COUNTRY NAME
 PROV.                    Baku:  PROVINCE
 STAT.                    Baku:  STATE NAME
 REGN.                   EESSA:  REGION
 BASE.              Azerbaijan:  LOGGING EQUIPMENT BASE LOCATION
 UWI .                     N/A:  UNIQUE WELL IDENTIFIER
 API .                     N/A:  API NUMBER
 COMP.     BP Exploration (Caspian Sea) Ltd.:  COMPANY
 WTYP.                Deviated:  WELL TYPE
 MDS .        Operator Entered:  MAG DATA SOURCE
 SON .        AZ-XX-0905059384:  JOB NUMBER
 FTOP.          Formation Tops:  FORM TOPS DESC
 ILTD.               Lithology:  INTERP LTH DESC
 SVYD.                  Survey:  SURVEY DESC
 DMOD.             Drill Model:  DRILL MOD DESC
 HPTY.       Minimum Curvature:  HOLE POS TYPE
 NREF.                    Grid:  NORTH REFERENCE
 SPUD.               09-Jan-20:  SPUD DATE
 DATE.      14.04.48 07-Feb-20:  END TIME
 STIM.      07.00.00 09-Jan-20:  START TIME
 DMF .             Drill Floor:  DRILL MEAS FROM
 DFST.                        :  DIST FSL TEXT
 DFWT.                        :  DIST FWL TEXT
 CNTY.                        :  COUNTY
 LOC .                        :  LOCATION
 LMF .             Drill Floor:  LOG MEASURED FROM
 DEP .m                   0.00:  DEPTH
 VSNS.m                  10.28:  VERT SEC N/S
 VSEW.m                  -6.24:  VERT SEC E/W
 AGAP.m                  43.00:  AIR GAP
 APD .m                  43.00:  DEPTH ABOVE PD
 WDMS.m                 169.80:  WD ELEV
 EGL .m                   0.00:  GROUND ELEVATION
 EPD .m                   0.00:  ELEVATION
 AZTC.deg                 6.27:  AZM TOTAL CORR
 GRDC.deg                 0.15:  GRID CORRECTION
 MDEC.deg                 6.42:  MAGNETIC DECL
 MDIP.deg                59.56:  MAGNETIC DIP
 MFLD.nT              50277.00:  MAGNETIC FIELD
 GVFD.g                   1.00:  GRAVITY FIELD
 VSDR.deg               148.53:  VERT SEC DIRECT
 TDD .m                3473.01:  TOTAL DEPTH (DRILLER)
 SDEP.m                 364.00:  START DEPTH
 DFSL.m                   0.00:  DISTANCE FSL
 DFWL.m                   0.00:  DISTANCE FWL
 UTMY.m             4443793.85:  UTM Y
 UTMX.m              519005.06:  UTM X
 WHEW.m                  -6.24:  WELL HEAD E/W
 WHNS.m                  10.28:  WELL HEAD N/S
 LONG.deg                51.22:  LONGITUDE
 LATI.deg                40.13:  LATITUDE
 TVDS.m                  43.00:  TVDSS CORRECTN
 EKB .m                   0.00:  KB ELEVATION
 EDF .m                  43.00:  DF ELEVATION
 TDL .m                 254.00:  TOTAL DEPTH (LOGGER)
 MAGU.                 1850021:  MAGUTM CHECKSUM
 VSC .                       0:  VS TO CLOSURE
~Parameter Information Block
#MNEM.UNIT       Value        Description
#---------     -----------    ---------------------------
 AV  .mps                 0.50:  Ann Velocity 
 AVMX.mps                 1.40:  Max Ann Veloc 
 AZIF.deg               144.94:  Azm, Final 
 BHAT.        Rotary Steerable:  BHA Type 
 BROT.°/30m               0.23:  Build Rotating 
 BS  .in                  8.50:  Bit Size 
 BTPL.psig              264.00:  Bit Press Loss 
 CABU.                     Yes:  Customer Abuse 
 COMM.                     ´á{:  Run Comments 1 
 TCS .hr                 87.30:  Time Ciculation Ended 
 CV  .mps                 2.45:  Crit Velocity 
 CVMX.mps                 2.74:  Max Crit Veloc 
 DD1 .             Aziz Aliyev:  Direct Drillr 1 
 DDSV.               Geo-Pilot:  DD Service 
 DEFF.%                 100.00:  % Det Eff 
 DLRX.°/30m               1.22:  Dogleg Rot Max 
 DLSO.°/30m               0.52:  Dogleg Oriented 
 DLSX.°/30m               1.22:  Dogleg Str Max 
 DRET.      12.59.00 23-Feb-20:  Drill End Time 
 DRST.      09.44.00 18-Feb-20:  Drill Start Tim 
 DTIM.hr                 23.03:  Time Drilling 
 EDEP.m                3473.01:  End Depth 
 ENG1.         Almaz Almadatov:  Engineer 1 
 ENG2.         Dair Mahammadov:  Engineer 2 
 ENG3.          Nazrin Asgarli:  Engineer 3 
 ETIM.      10.33.36 26-Feb-20:  End Time 
 FLOI.gpm               480.00:  Flow In 
 FLON.gpm               300.00:  Flow In Min 
 FLOS.cptm                1.00:  Fluid Loss 
 FLOX.gpm               550.00:  Flow In Max 
 HFLO.                      No:  High Flow 
 HPRE.                      No:  High Pressure 
 HTEM.                      No:  High Temp 
 HYDO.m                   1.80:  Hydro Offset 
 IFIN.deg                74.42:  Inc, Final 
 IMAX.deg                76.14:  Inc Max 
 IMIN.deg                74.42:  Inc Min 
 IMND.m                3462.72:  Inc Min Depth 
 IMXD.m                3235.69:  Inc Max Depth 
 JARR.                      No:  Jarring 
 LETM.      12.59.00 23-Feb-20:  Log End Time 
 LOST.hr                     0:  Lost Rig Time 
 LSTM.      09.44.00 18-Feb-20:  Log Start Time 
 MDCL.ppm             45000.00:  Mud Chlorides 
 MDES.     Inversion Oil/Synthetic:  Mud Desc 
 DFD .sg                  1.38:  Mud Density 
 MDMN.sg                  1.34:  Dens Mud Min 
 MDMX.sg                  1.49:  Dens Mud Max 
 MOIL.                      67:  Run Mud Oil % 
 MOWR.                   67:33:  Run Mud OWR 
 MSND.                    0.12:  Run Mud Sand % 
 MSOL.                      22:  Run Mud Solids% 
 DFV .spqt               81.00:  Mud Viscosity 
 MWOD.in                  6.75:  MWD Tool OD 
 MWSI.                      No:  Serv Intrp, MWD 
 OTIM.hr                231.44:  Time Operating 
 PCON.          Wear / Scratch:  Pad Condition 
 PMAX.psia             3400.00:  Press Op, Max 
 PV  .cP                 55.00:  Mud PV 
 RUN .                     800:  Run Number 
 ROPA.m/hr               12.00:  ROP Avg 
 ROPN.m/hr                5.00:  ROP Min 
 ROPX.m/hr               28.00:  ROP Max 
 RPMA.rpm               120.00:  RPM Surface Avg 
 RPMN.rpm                40.00:  RPM Surface Min 
 RPMX.rpm               130.00:  RPM Surface Max 
 RRUN.                    0800:  Rig Run Number 
 RTIM.hr                 45.00:  Time Reaming 
 SAZI.deg               145.38:  Azm, Start 
 SDEP.m                3219.01:  Start Depth 
 SIDD.                      No:  Serv Intrp, DD 
 SINC.deg                75.11:  Inc, Start 
 SPPA.psig             2400.00:  SPP Avg 
 SPPN.psig             2320.00:  SPP Min 
 SPPX.psig             3200.00:  SPP Max 
 STIM.      15.15.00 17-Feb-20:  Start Time 
 SVCS.                 DD, MWD:  Services 
 SVER.                    9.20:  Sperry Version 
 TDAT.m                 254.00:  Tot Depth Attmp 
 TDDF.                      No:  Trip for DD 
 TDLG.m                 254.00:  Tot Depth Loggd 
 TFF .                      No:  Trip for Fail 
 TQAA.f-kp               13.00:  Torque Abs Avg 
 TQAN.f-kp                7.00:  Torque Abs Min 
 TQAX.f-kp               15.00:  Torque Abs Max 
 TRRT.°/30m               0.21:  Turn Rotating 
 MRT .                  EWR-M5:  Maximum Recorded Temperature 
 TTMX.degC               64.00:  Max Tool Temp 
 VS01.                90586516:  Virtual Str1 SN 
 VS02.                90513691:  Virtual Str2 SN 
 VS03.                90586523:  Virtual Str3 SN 
 VS04.                90586520:  Virtual Str4 SN 
 VS05.                90590507:  Virtual Str5 SN 
 WBMN.klb                12.00:  WOB Min 
 WITN.           Rufat Babayev:  Customer Rep 2 
 WITN.         Alistair Sprott:  Customer Rep 
 WOBA.klb                18.00:  WOB Avg 
 WOBX.klb                30.00:  WOB Max 
 YP  .lhf2               41.00:  Yield Point 
~Curve Information Block
#MNEM.UNIT                 API CODE     Curve Description
#---------               -----------    ---------------------------
 TIME.HHMMSS            00 000 000 000:  GT Time & Date
 GTDEPTH.m              00 000 000 000:  GT Depth
 GTPQH.psia             00 000 000 000:  GT HR Quartz Pressure
 GTTQ.degC              00 000 000 000:  GT Quartz Temperature
 GTTN.NONE              00 000 000 000:  GT Test Number
 GTET.sec               00 000 000 000:  GT Elapsed Test Time
 GTTVD.m                00 000 000 000:  GT True Vertical Depth
#Other Information
#
#WARRANTY: Halliburton will use its best efforts to furnish customers with 
#accurate information and interpretations that are part of, and incident to, the services 
#provided.  However, Halliburton cannot and does not warrant the accuracy 
#or correctness of such information and interpretations.  Under no circumstances should any 
#such information or interpretation be relied upon as the sole basis for any drilling, 
#completion, production, or financial decision or any procedure involving any risk to the 
#safety of any drilling venture, drilling rig or its crew or any other third party.  The 
#Customer has full responsibility for all drilling, completion and production operation.  
#Halliburton makes no representations or warranties, either expressed or 
#implied, including, but not limited to, the implied warranties of merchantability or fitness 
#for a particular purpose, with respect to the services rendered.  In no event will 
#Halliburton be liable for failure to obtain any particular results or for 
#any damages, including, but not limited to, indirect, special or consequential damages, 
#resulting from the use of any information or interpretation provided by Halliburton.
#
~A           TIME           GTDEPTH  GTPQH  GTTQ  GTTN  GTET   GTTVD  
# ...
   03:20:44.142.24-Feb-2020 3366.71 4424.20 55.07 6.00  92.04 2706.89
   03:20:44.342.24-Feb-2020 3366.71 4424.20 55.07 6.00  92.24 2706.89
   03:20:44.543.24-Feb-2020 3366.71 4424.20 55.07 6.00  92.44 2706.89
   03:20:44.743.24-Feb-2020 3366.71 4424.20 55.07 6.00  92.64 2706.89
   03:20:44.943.24-Feb-2020 3366.71 4424.22 55.07 6.00  92.84 2706.89
   03:20:45.143.24-Feb-2020 3366.71 4424.26 55.07 6.00  93.04 2706.89
   03:20:45.343.24-Feb-2020 3366.71 4424.26 55.07 6.00  93.24 2706.89
   03:20:45.543.24-Feb-2020 3366.71 4425.24 55.07 6.00  93.44 2706.89
   03:20:45.743.24-Feb-2020 3366.71 4424.87 55.07 6.00  93.64 2706.89
   03:20:45.943.24-Feb-2020 3366.71 4424.80 55.07 6.00  93.84 2706.89
   03:20:46.143.24-Feb-2020 3366.71 4424.87 55.07 6.00  94.04 2706.89
   03:20:46.343.24-Feb-2020 3366.71 4424.87 55.07 6.00  94.24 2706.89
   03:20:46.543.24-Feb-2020 3366.71 4424.73 55.07 6.00  94.44 2706.89
   03:20:46.743.24-Feb-2020 3366.71 4424.70 55.07 6.00  94.64 2706.89
   03:20:46.944.24-Feb-2020 3366.71 4424.53 55.07 6.00  94.84 2706.89
   03:20:47.144.24-Feb-2020 3366.71 4424.61 55.07 6.00  95.04 2706.89
   03:20:47.344.24-Feb-2020 3366.71 4424.61 55.07 6.00  95.24 2706.89
   03:20:47.544.24-Feb-2020 3366.71 4424.67 55.07 6.00  95.44 2706.89
   03:20:47.744.24-Feb-2020 3366.71 4424.61 55.07 6.00  95.64 2706.89
   03:20:47.944.24-Feb-2020 3366.71 4424.64 55.07 6.00  95.84 2706.89
   03:20:48.144.24-Feb-2020 3366.71 4424.76 55.07 6.00  96.04 2706.89
   03:20:48.344.24-Feb-2020 3366.71 4424.76 55.07 6.00  96.24 2706.89
   03:20:48.544.24-Feb-2020 3366.71 4424.20 55.07 6.00  96.44 2706.89
   03:20:48.744.24-Feb-2020 3366.71 4424.99 55.07 6.00  96.64 2706.89
   03:20:48.944.24-Feb-2020 3366.71 4425.47 55.07 6.00  96.84 2706.89
   03:20:49.144.24-Feb-2020 3366.71 4425.35 55.07 6.00  97.04 2706.89
   03:20:49.344.24-Feb-2020 3366.71 4425.35 55.07 6.00  97.24 2706.89
   03:20:49.545.24-Feb-2020 3366.71 4425.79 55.07 6.00  97.44 2706.89
   03:20:49.745.24-Feb-2020 3366.71 4426.05 55.07 6.00  97.64 2706.89
   03:20:49.945.24-Feb-2020 3366.71 4425.71 55.07 6.00  97.84 2706.89
   03:20:50.145.24-Feb-2020 3366.71 4425.56 55.07 6.00  98.04 2706.89
   03:20:50.345.24-Feb-2020 3366.71 4425.56 55.07 6.00  98.24 2706.89
   03:20:50.545.24-Feb-2020 3366.71 4424.36 55.07 6.00  98.44 2706.89
   03:20:50.745.24-Feb-2020 3366.71 4425.92 55.07 6.00  98.64 2706.89
   03:20:50.945.24-Feb-2020 3366.71 4426.51 55.07 6.00  98.84 2706.89
   03:20:51.145.24-Feb-2020 3366.71 4426.03 55.07 6.00  99.04 2706.89
   03:20:51.345.24-Feb-2020 3366.71 4426.03 55.07 6.00  99.24 2706.89
   03:20:51.545.24-Feb-2020 3366.71 4425.44 55.07 6.00  99.44 2706.89
   03:20:51.745.24-Feb-2020 3366.71 4426.27 55.07 6.00  99.64 2706.89
   03:20:51.946.24-Feb-2020 3366.71 4425.85 55.07 6.00  99.84 2706.89
   03:20:52.146.24-Feb-2020 3366.71 4425.94 55.07 6.00 100.04 2706.89
   03:20:52.346.24-Feb-2020 3366.71 4425.94 55.07 6.00 100.24 2706.89
   03:20:52.546.24-Feb-2020 3366.71 4425.72 55.07 6.00 100.44 2706.89
   03:20:52.746.24-Feb-2020 3366.71 4425.64 55.07 6.00 100.64 2706.89
   03:20:52.946.24-Feb-2020 3366.71 4425.62 55.07 6.00 100.84 2706.89
   03:20:53.146.24-Feb-2020 3366.71 4425.57 55.07 6.00 101.04 2706.89
   03:20:53.346.24-Feb-2020 3366.71 4425.57 55.07 6.00 101.24 2706.89
   03:20:53.546.24-Feb-2020 3366.71 4425.55 55.07 6.00 101.44 2706.89
   03:20:53.746.24-Feb-2020 3366.71 4425.60 55.07 6.00 101.64 2706.89
   03:20:53.946.24-Feb-2020 3366.71 4425.57 55.07 6.00 101.84 2706.89
   03:20:54.146.24-Feb-2020 3366.71 4425.58 55.07 6.00 102.04 2706.89
   03:20:54.346.24-Feb-2020 3366.71 4425.58 55.07 6.00 102.24 2706.89
   03:20:54.547.24-Feb-2020 3366.71 4424.66 55.07 6.00 102.44 2706.89
   03:20:54.747.24-Feb-2020 3366.71 4426.26 55.07 6.00 102.64 2706.89
   03:20:54.947.24-Feb-2020 3366.71 4426.82 55.07 6.00 102.84 2706.89
   03:20:55.147.24-Feb-2020 3366.71 4426.26 55.07 6.00 103.04 2706.89
   03:20:55.347.24-Feb-2020 3366.71 4426.26 55.07 6.00 103.24 2706.89
   03:20:55.547.24-Feb-2020 3366.71 4426.10 55.07 6.00 103.44 2706.89
   03:20:55.747.24-Feb-2020 3366.71 4425.83 55.07 6.00 103.64 2706.89
   03:20:55.947.24-Feb-2020 3366.71 4425.79 55.07 6.00 103.84 2706.89
   03:20:56.147.24-Feb-2020 3366.71 4425.75 55.07 6.00 104.04 2706.89
   03:20:56.347.24-Feb-2020 3366.71 4425.77 55.07 6.00 104.24 2706.89
   03:20:56.547.24-Feb-2020 3366.71 4425.78 55.07 6.00 104.44 2706.89
   03:20:56.747.24-Feb-2020 3366.71 4425.84 55.07 6.00 104.64 2706.89
   03:20:56.948.24-Feb-2020 3366.71 4425.67 55.07 6.00 104.84 2706.89
   03:20:57.148.24-Feb-2020 3366.71 4425.75 55.07 6.00 105.04 2706.89
   03:20:57.348.24-Feb-2020 3366.71 4425.88 55.07 6.00 105.24 2706.89
   03:20:57.548.24-Feb-2020 3366.71 4425.90 55.07 6.00 105.44 2706.89
   03:20:57.748.24-Feb-2020 3366.71 4425.83 55.07 6.00 105.64 2706.89
   03:20:57.948.24-Feb-2020 3366.71 4424.97 55.07 6.00 105.84 2706.89
   03:20:58.148.24-Feb-2020 3366.71 4426.38 55.07 6.00 106.04 2706.89
   03:20:58.348.24-Feb-2020 3366.71 4426.79 55.07 6.00 106.24 2706.89
   03:20:58.548.24-Feb-2020 3366.71 4426.48 55.07 6.00 106.44 2706.89
   03:20:58.748.24-Feb-2020 3366.71 4425.59 55.07 6.00 106.64 2706.89
   03:20:58.948.24-Feb-2020 3366.71 4426.85 55.07 6.00 106.84 2706.89
   03:20:59.148.24-Feb-2020 3366.71 4427.33 55.07 6.00 107.04 2706.89
   03:20:59.348.24-Feb-2020 3366.71 4427.33 55.07 6.00 107.24 2706.89
   03:20:59.549.24-Feb-2020 3366.71 4426.74 55.07 6.00 107.44 2706.89
   03:20:59.749.24-Feb-2020 3366.71 4426.15 55.07 6.00 107.64 2706.89
   03:20:59.949.24-Feb-2020 3366.71 4426.89 55.07 6.00 107.84 2706.89
   03:21:00.149.24-Feb-2020 3366.71 4427.33 55.07 6.00 108.04 2706.89
   03:21:00.349.24-Feb-2020 3366.71 4427.33 55.07 6.00 108.24 2706.89
   03:21:00.549.24-Feb-2020 3366.71 4426.99 55.07 6.00 108.44 2706.89
   03:21:00.749.24-Feb-2020 3366.71 4427.00 55.07 6.00 108.64 2706.89
   03:21:00.949.24-Feb-2020 3366.71 4426.30 55.07 6.00 108.84 2706.89
   03:21:01.149.24-Feb-2020 3366.71 4426.93 55.07 6.00 109.04 2706.89
   03:21:01.349.24-Feb-2020 3366.71 4426.93 55.07 6.00 109.24 2706.89
   03:21:01.549.24-Feb-2020 3366.71 4426.89 55.07 6.00 109.44 2706.89
   03:21:01.749.24-Feb-2020 3366.71 4426.87 55.07 6.00 109.64 2706.89
   03:21:01.950.24-Feb-2020 3366.71 4426.83 55.07 6.00 109.84 2706.89
   03:21:02.150.24-Feb-2020 3366.71 4426.66 55.07 6.00 110.04 2706.89
   03:21:02.350.24-Feb-2020 3366.71 4426.66 55.07 6.00 110.24 2706.89
   03:21:02.550.24-Feb-2020 3366.71 4426.49 55.07 6.00 110.44 2706.89
   03:21:02.750.24-Feb-2020 3366.71 4426.45 55.07 6.00 110.64 2706.89
   03:21:02.950.24-Feb-2020 3366.71 4426.44 55.07 6.00 110.84 2706.89
   03:21:03.150.24-Feb-2020 3366.71 4426.41 55.07 6.00 111.04 2706.89
   03:21:03.350.24-Feb-2020 3366.71 4426.41 55.07 6.00 111.24 2706.89
   03:21:03.550.24-Feb-2020 3366.71 4426.43 55.07 6.00 111.44 2706.89
   03:21:03.750.24-Feb-2020 3366.71 4426.55 55.07 6.00 111.64 2706.89
   03:21:03.950.24-Feb-2020 3366.71 4426.49 55.07 6.00 111.84 2706.89
   03:21:04.150.24-Feb-2020 3366.71 4425.66 55.07 6.00 112.04 2706.89
   03:21:04.351.24-Feb-2020 3366.71 4425.66 55.07 6.00 112.24 2706.89
   03:21:04.551.24-Feb-2020 3366.71 4427.47 55.07 6.00 112.44 2706.89
   03:21:04.751.24-Feb-2020 3366.71 4427.11 55.07 6.00 112.65 2706.89
   03:21:04.951.24-Feb-2020 3366.71 4426.92 55.07 6.00 112.85 2706.89
   03:21:05.151.24-Feb-2020 3366.71 4426.65 55.07 6.00 113.05 2706.89
   03:21:05.351.24-Feb-2020 3366.71 4426.65 55.07 6.00 113.25 2706.89
   03:21:05.551.24-Feb-2020 3366.71 4426.64 55.07 6.00 113.45 2706.89
   03:21:05.751.24-Feb-2020 3366.71 4426.60 55.07 6.00 113.65 2706.89
   03:21:05.951.24-Feb-2020 3366.71 4426.59 55.07 6.00 113.85 2706.89
   03:21:06.151.24-Feb-2020 3366.71 4426.45 55.07 6.00 114.05 2706.89
   03:21:06.351.24-Feb-2020 3366.71 4426.45 55.07 6.00 114.25 2706.89
   03:21:06.551.24-Feb-2020 3366.71 4426.45 55.07 6.00 114.45 2706.89
   03:21:06.751.24-Feb-2020 3366.71 4426.49 55.07 6.00 114.65 2706.89
   03:21:06.952.24-Feb-2020 3366.71 4426.58 55.07 6.00 114.85 2706.89
