~Version Information
 VERS.                  2.0:   CWLS log ASCII Standard -VERSION 2.0
 WRAP.                   NO:   One line per depth step
~Well Information Block
#MNEM.UNIT     VALUE/NAME     DESCRIPTION
#---------     -----------    ---------------------------
 STRT.S             01:26:08 24-Feb-20: START TIME 01:26:08 24-Feb-20
 STOP.S             01:33:25 24-Feb-20: STOP TIME  01:33:25 24-Feb-20
 STEP.S                   0.00: STEP TIME
 NULL.                 -999.25: NULL VALUE
 JOBN.        AZ-XX-0905059384:  JOB TICKET NUMB
 PDAT.          Mean Sea Level:  PERMANENT DATUM
 UNIT.                     N/A:  LOGGING EQUIPMENT ID
 DCON.         Sperry Drilling:  DIRECTNL CONTR
 DOE .                     N/A:  DOE NUMBER
 RIG .             West Chirag:  RIG NAME
 WELL.                     J22:  WELL NAME
 MWDS.                    Baku:  MWD SHOP
 SRVC.     TURAN Drilling & Engineering:  CONTRACTOR
 FLD .                     ACG:  FIELD NAME
 CTRY.              Azerbaijan:  COUNTRY NAME
 PROV.                    Baku:  PROVINCE
 STAT.                    Baku:  STATE NAME
 REGN.                   EESSA:  REGION
 BASE.              Azerbaijan:  LOGGING EQUIPMENT BASE LOCATION
 UWI .                     N/A:  UNIQUE WELL IDENTIFIER
 API .                     N/A:  API NUMBER
 COMP.     BP Exploration (Caspian Sea) Ltd.:  COMPANY
 WTYP.                Deviated:  WELL TYPE
 MDS .        Operator Entered:  MAG DATA SOURCE
 SON .        AZ-XX-0905059384:  JOB NUMBER
 FTOP.          Formation Tops:  FORM TOPS DESC
 ILTD.               Lithology:  INTERP LTH DESC
 SVYD.                  Survey:  SURVEY DESC
 DMOD.             Drill Model:  DRILL MOD DESC
 HPTY.       Minimum Curvature:  HOLE POS TYPE
 NREF.                    Grid:  NORTH REFERENCE
 SPUD.               09-Jan-20:  SPUD DATE
 DATE.      14.04.48 07-Feb-20:  END TIME
 STIM.      07.00.00 09-Jan-20:  START TIME
 DMF .             Drill Floor:  DRILL MEAS FROM
 DFST.                        :  DIST FSL TEXT
 DFWT.                        :  DIST FWL TEXT
 CNTY.                        :  COUNTY
 LOC .                        :  LOCATION
 LMF .             Drill Floor:  LOG MEASURED FROM
 DEP .m                   0.00:  DEPTH
 VSNS.m                  10.28:  VERT SEC N/S
 VSEW.m                  -6.24:  VERT SEC E/W
 AGAP.m                  43.00:  AIR GAP
 APD .m                  43.00:  DEPTH ABOVE PD
 WDMS.m                 169.80:  WD ELEV
 EGL .m                   0.00:  GROUND ELEVATION
 EPD .m                   0.00:  ELEVATION
 AZTC.deg                 6.27:  AZM TOTAL CORR
 GRDC.deg                 0.15:  GRID CORRECTION
 MDEC.deg                 6.42:  MAGNETIC DECL
 MDIP.deg                59.56:  MAGNETIC DIP
 MFLD.nT              50277.00:  MAGNETIC FIELD
 GVFD.g                   1.00:  GRAVITY FIELD
 VSDR.deg               148.53:  VERT SEC DIRECT
 TDD .m                3473.01:  TOTAL DEPTH (DRILLER)
 SDEP.m                 364.00:  START DEPTH
 DFSL.m                   0.00:  DISTANCE FSL
 DFWL.m                   0.00:  DISTANCE FWL
 UTMY.m             4443793.85:  UTM Y
 UTMX.m              519005.06:  UTM X
 WHEW.m                  -6.24:  WELL HEAD E/W
 WHNS.m                  10.28:  WELL HEAD N/S
 LONG.deg                51.22:  LONGITUDE
 LATI.deg                40.13:  LATITUDE
 TVDS.m                  43.00:  TVDSS CORRECTN
 EKB .m                   0.00:  KB ELEVATION
 EDF .m                  43.00:  DF ELEVATION
 TDL .m                 254.00:  TOTAL DEPTH (LOGGER)
 MAGU.                 1850021:  MAGUTM CHECKSUM
 VSC .                       0:  VS TO CLOSURE
~Parameter Information Block
#MNEM.UNIT       Value        Description
#---------     -----------    ---------------------------
 AV  .mps                 0.50:  Ann Velocity 
 AVMX.mps                 1.40:  Max Ann Veloc 
 AZIF.deg               144.94:  Azm, Final 
 BHAT.        Rotary Steerable:  BHA Type 
 BROT.°/30m               0.23:  Build Rotating 
 BS  .in                  8.50:  Bit Size 
 BTPL.psig              264.00:  Bit Press Loss 
 CABU.                     Yes:  Customer Abuse 
 TCS .hr                 87.30:  Time Ciculation Ended 
 CV  .mps                 2.45:  Crit Velocity 
 CVMX.mps                 2.74:  Max Crit Veloc 
 DD1 .             Aziz Aliyev:  Direct Drillr 1 
 DDSV.               Geo-Pilot:  DD Service 
 DEFF.%                 100.00:  % Det Eff 
 DLRX.°/30m               1.22:  Dogleg Rot Max 
 DLSO.°/30m               0.52:  Dogleg Oriented 
 DLSX.°/30m               1.22:  Dogleg Str Max 
 DRET.      12.59.00 23-Feb-20:  Drill End Time 
 DRST.      09.44.00 18-Feb-20:  Drill Start Tim 
 DTIM.hr                 23.03:  Time Drilling 
 EDEP.m                3473.01:  End Depth 
 ENG1.         Almaz Almadatov:  Engineer 1 
 ENG2.         Dair Mahammadov:  Engineer 2 
 ENG3.          Nazrin Asgarli:  Engineer 3 
 ETIM.      10.33.36 26-Feb-20:  End Time 
 FLOI.gpm               480.00:  Flow In 
 FLON.gpm               300.00:  Flow In Min 
 FLOS.cptm                1.00:  Fluid Loss 
 FLOX.gpm               550.00:  Flow In Max 
 HFLO.                      No:  High Flow 
 HPRE.                      No:  High Pressure 
 HTEM.                      No:  High Temp 
 HYDO.m                   1.80:  Hydro Offset 
 IFIN.deg                74.42:  Inc, Final 
 IMAX.deg                76.14:  Inc Max 
 IMIN.deg                74.42:  Inc Min 
 IMND.m                3462.72:  Inc Min Depth 
 IMXD.m                3235.69:  Inc Max Depth 
 JARR.                      No:  Jarring 
 LETM.      12.59.00 23-Feb-20:  Log End Time 
 LOST.hr                     0:  Lost Rig Time 
 LSTM.      09.44.00 18-Feb-20:  Log Start Time 
 MDCL.ppm             45000.00:  Mud Chlorides 
 MDES.     Inversion Oil/Synthetic:  Mud Desc 
 DFD .sg                  1.38:  Mud Density 
 MDMN.sg                  1.34:  Dens Mud Min 
 MDMX.sg                  1.49:  Dens Mud Max 
 MOIL.                      67:  Run Mud Oil % 
 MOWR.                   67:33:  Run Mud OWR 
 MSND.                    0.12:  Run Mud Sand % 
 MSOL.                      22:  Run Mud Solids% 
 DFV .spqt               81.00:  Mud Viscosity 
 MWOD.in                  6.75:  MWD Tool OD 
 MWSI.                      No:  Serv Intrp, MWD 
 OTIM.hr                231.44:  Time Operating 
 PCON.          Wear / Scratch:  Pad Condition 
 PMAX.psia             3400.00:  Press Op, Max 
 PV  .cP                 55.00:  Mud PV 
 RUN .                     800:  Run Number 
 ROPA.m/hr               12.00:  ROP Avg 
 ROPN.m/hr                5.00:  ROP Min 
 ROPX.m/hr               28.00:  ROP Max 
 RPMA.rpm               120.00:  RPM Surface Avg 
 RPMN.rpm                40.00:  RPM Surface Min 
 RPMX.rpm               130.00:  RPM Surface Max 
 RRUN.                    0800:  Rig Run Number 
 RTIM.hr                 45.00:  Time Reaming 
 SAZI.deg               145.38:  Azm, Start 
 SDEP.m                3219.01:  Start Depth 
 SIDD.                      No:  Serv Intrp, DD 
 SINC.deg                75.11:  Inc, Start 
 SPPA.psig             2400.00:  SPP Avg 
 SPPN.psig             2320.00:  SPP Min 
 SPPX.psig             3200.00:  SPP Max 
 STIM.      15.15.00 17-Feb-20:  Start Time 
 SVCS.                 DD, MWD:  Services 
 SVER.                    9.20:  Sperry Version 
 TDAT.m                 254.00:  Tot Depth Attmp 
 TDDF.                      No:  Trip for DD 
 TDLG.m                 254.00:  Tot Depth Loggd 
 TFF .                      No:  Trip for Fail 
 TQAA.f-kp               13.00:  Torque Abs Avg 
 TQAN.f-kp                7.00:  Torque Abs Min 
 TQAX.f-kp               15.00:  Torque Abs Max 
 TRRT.°/30m               0.21:  Turn Rotating 
 MRT .                  EWR-M5:  Maximum Recorded Temperature 
 TTMX.degC               64.00:  Max Tool Temp 
 VS01.                90586516:  Virtual Str1 SN 
 VS02.                90513691:  Virtual Str2 SN 
 VS03.                90586523:  Virtual Str3 SN 
 VS04.                90586520:  Virtual Str4 SN 
 VS05.                90590507:  Virtual Str5 SN 
 WBMN.klb                12.00:  WOB Min 
 WITN.           Rufat Babayev:  Customer Rep 2 
 WITN.         Alistair Sprott:  Customer Rep 
 WOBA.klb                18.00:  WOB Avg 
 WOBX.klb                30.00:  WOB Max 
 YP  .lhf2               41.00:  Yield Point 
~Curve Information Block
#MNEM.UNIT                 API CODE     Curve Description
#---------               -----------    ---------------------------
 TIME.HHMMSS            00 000 000 000:  GT Time & Date
 GTDEPTH.m              00 000 000 000:  GT Depth
 GTPQH.psia             00 000 000 000:  GT HR Quartz Pressure
 GTTQ.degC              00 000 000 000:  GT Quartz Temperature
 GTTN.NONE              00 000 000 000:  GT Test Number
 GTET.sec               00 000 000 000:  GT Elapsed Test Time
 GTTVD.m                00 000 000 000:  GT True Vertical Depth
#Other Information
#
#WARRANTY: Halliburton will use its best efforts to furnish customers with 
#accurate information and interpretations that are part of, and incident to, the services 
#provided.  However, Halliburton cannot and does not warrant the accuracy 
#or correctness of such information and interpretations.  Under no circumstances should any 
#such information or interpretation be relied upon as the sole basis for any drilling, 
#completion, production, or financial decision or any procedure involving any risk to the 
#safety of any drilling venture, drilling rig or its crew or any other third party.  The 
#Customer has full responsibility for all drilling, completion and production operation.  
#Halliburton makes no representations or warranties, either expressed or 
#implied, including, but not limited to, the implied warranties of merchantability or fitness 
#for a particular purpose, with respect to the services rendered.  In no event will 
#Halliburton be liable for failure to obtain any particular results or for 
#any damages, including, but not limited to, indirect, special or consequential damages, 
#resulting from the use of any information or interpretation provided by Halliburton.
#
~A           TIME           GTDEPTH  GTPQH  GTTQ  GTTN  GTET   GTTVD  
   01:26:08.161.24-Feb-2020 3405.01 5728.19 56.99 3.00   0.00 2716.73
   01:26:08.361.24-Feb-2020 3405.01 5728.19 56.99 3.00   0.20 2716.73
   01:26:08.561.24-Feb-2020 3405.01 5717.99 56.99 3.00   0.40 2716.73
   01:26:08.761.24-Feb-2020 3405.01 5722.03 56.99 3.00   0.60 2716.73
   01:26:08.962.24-Feb-2020 3405.01 5720.20 56.99 3.00   0.80 2716.73
   01:26:09.162.24-Feb-2020 3405.01 5724.65 56.99 3.00   1.00 2716.73
   01:26:09.362.24-Feb-2020 3405.01 5724.65 56.99 3.00   1.20 2716.73
   01:26:09.562.24-Feb-2020 3405.01 5720.93 56.99 3.00   1.40 2716.73
   01:26:09.762.24-Feb-2020 3405.01 5721.86 56.99 3.00   1.60 2716.73
   01:26:09.962.24-Feb-2020 3405.01 5724.33 56.99 3.00   1.80 2716.73
   01:26:10.162.24-Feb-2020 3405.01 5730.81 56.99 3.00   2.00 2716.73
   01:26:10.362.24-Feb-2020 3405.01 5730.81 56.99 3.00   2.20 2716.73
   01:26:10.562.24-Feb-2020 3405.01 5719.56 56.99 3.00   2.40 2716.73
   01:26:10.762.24-Feb-2020 3405.01 5724.16 56.99 3.00   2.60 2716.73
   01:26:10.962.24-Feb-2020 3405.01 5723.49 56.99 3.00   2.80 2716.73
   01:26:11.162.24-Feb-2020 3405.01 5723.51 56.99 3.00   3.00 2716.73
   01:26:11.362.24-Feb-2020 3405.01 5722.58 56.99 3.00   3.20 2716.73
   01:26:11.562.24-Feb-2020 3405.01 5723.03 56.99 3.00   3.40 2716.73
   01:26:11.762.24-Feb-2020 3405.01 5723.99 56.99 3.00   3.60 2716.73
   01:26:11.962.24-Feb-2020 3405.01 5724.70 56.99 3.00   3.80 2716.73
   01:26:12.162.24-Feb-2020 3405.01 5724.70 56.99 3.00   4.00 2716.73
   01:26:12.362.24-Feb-2020 3405.01 5724.70 56.99 3.00   4.20 2716.73
   01:26:12.562.24-Feb-2020 3405.01 5724.70 56.99 3.00   4.40 2716.73
   01:26:12.762.24-Feb-2020 3405.01 5724.15 56.99 3.00   4.60 2716.73
   01:26:12.962.24-Feb-2020 3405.01 5724.75 56.99 3.00   4.80 2716.73
   01:26:13.162.24-Feb-2020 3405.01 5725.36 56.99 3.00   5.00 2716.73
   01:26:13.362.24-Feb-2020 3405.01 5725.36 56.99 3.00   5.20 2716.73
   01:26:13.562.24-Feb-2020 3405.01 5723.90 56.99 3.00   5.40 2716.73
   01:26:13.763.24-Feb-2020 3405.01 5730.16 56.99 3.00   5.60 2716.73
   01:26:13.963.24-Feb-2020 3405.01 5716.64 56.99 3.00   5.80 2716.73
   01:26:14.163.24-Feb-2020 3405.01 5726.22 56.99 3.00   6.00 2716.73
   01:26:14.363.24-Feb-2020 3405.01 5726.22 56.99 3.00   6.20 2716.73
   01:26:14.563.24-Feb-2020 3405.01 5724.05 56.99 3.00   6.40 2716.73
   01:26:14.763.24-Feb-2020 3405.01 5723.80 56.99 3.00   6.60 2716.73
   01:26:14.963.24-Feb-2020 3405.01 5724.76 56.99 3.00   6.80 2716.73
   01:26:15.163.24-Feb-2020 3405.01 5725.27 56.99 3.00   7.00 2716.73
   01:26:15.363.24-Feb-2020 3405.01 5724.72 56.99 3.00   7.20 2716.73
   01:26:15.563.24-Feb-2020 3405.01 5724.28 56.99 3.00   7.40 2716.73
   01:26:15.763.24-Feb-2020 3405.01 5725.19 56.99 3.00   7.60 2716.73
   01:26:15.963.24-Feb-2020 3405.01 5725.22 56.99 3.00   7.80 2716.73
   01:26:16.163.24-Feb-2020 3405.01 5726.23 56.99 3.00   8.00 2716.73
   01:26:16.363.24-Feb-2020 3405.01 5726.23 56.99 3.00   8.20 2716.73
   01:26:16.563.24-Feb-2020 3405.01 5725.79 56.99 3.00   8.40 2716.73
   01:26:16.763.24-Feb-2020 3405.01 5724.94 56.99 3.00   8.60 2716.73
   01:26:16.963.24-Feb-2020 3405.01 5725.46 56.99 3.00   8.80 2716.73
   01:26:17.163.24-Feb-2020 3405.01 5725.85 56.99 3.00   9.00 2716.73
   01:26:17.363.24-Feb-2020 3405.01 5725.85 56.99 3.00   9.20 2716.73
   01:26:17.563.24-Feb-2020 3405.01 5724.30 56.99 3.00   9.40 2716.73
   01:26:17.763.24-Feb-2020 3405.01 5726.05 56.99 3.00   9.60 2716.73
   01:26:17.963.24-Feb-2020 3405.01 5729.17 56.99 3.00   9.80 2716.73
   01:26:18.163.24-Feb-2020 3405.01 5724.52 56.99 3.00  10.00 2716.73
   01:26:18.363.24-Feb-2020 3405.01 5724.52 56.99 3.00  10.20 2716.73
   01:26:18.564.24-Feb-2020 3405.01 5734.09 56.99 3.00  10.40 2716.73
   01:26:18.764.24-Feb-2020 3405.01 5722.43 56.99 3.00  10.60 2716.73
   01:26:18.964.24-Feb-2020 3405.01 5721.73 56.99 3.00  10.80 2716.73
   01:26:19.164.24-Feb-2020 3405.01 5726.41 56.99 3.00  11.00 2716.73
   01:26:19.364.24-Feb-2020 3405.01 5727.35 56.99 3.00  11.20 2716.73
   01:26:19.564.24-Feb-2020 3405.01 5727.39 56.99 3.00  11.40 2716.73
   01:26:19.764.24-Feb-2020 3405.01 5726.97 56.99 3.00  11.60 2716.73
   01:26:19.964.24-Feb-2020 3405.01 5726.21 56.99 3.00  11.80 2716.73
   01:26:20.164.24-Feb-2020 3405.01 5731.07 56.99 3.00  12.00 2716.73
   01:26:20.364.24-Feb-2020 3405.01 5731.07 56.99 3.00  12.20 2716.73
   01:26:20.564.24-Feb-2020 3405.01 5728.90 56.99 3.00  12.40 2716.73
   01:26:20.764.24-Feb-2020 3405.01 5727.90 56.99 3.00  12.60 2716.73
   01:26:20.964.24-Feb-2020 3405.01 5723.91 56.99 3.00  12.80 2716.73
   01:26:21.164.24-Feb-2020 3405.01 5728.02 56.99 3.00  13.00 2716.73
   01:26:21.364.24-Feb-2020 3405.01 5728.02 56.99 3.00  13.20 2716.73
   01:26:21.564.24-Feb-2020 3405.01 5725.60 56.99 3.00  13.40 2716.73
   01:26:21.764.24-Feb-2020 3405.01 5725.89 56.99 3.00  13.60 2716.73
   01:26:21.964.24-Feb-2020 3405.01 5734.83 56.99 3.00  13.80 2716.73
   01:26:22.164.24-Feb-2020 3405.01 5723.44 56.99 3.00  14.00 2716.73
   01:26:22.364.24-Feb-2020 3405.01 5723.44 56.99 3.00  14.20 2716.73
   01:26:22.564.24-Feb-2020 3405.01 5727.44 56.99 3.00  14.40 2716.73
   01:26:22.764.24-Feb-2020 3405.01 5727.11 56.99 3.00  14.60 2716.73
   01:26:22.964.24-Feb-2020 3405.01 5727.84 56.99 3.00  14.80 2716.73
   01:26:23.164.24-Feb-2020 3405.01 5727.11 56.99 3.00  15.00 2716.73
   01:26:23.365.24-Feb-2020 3405.01 5727.11 56.99 3.00  15.20 2716.73
   01:26:23.565.24-Feb-2020 3405.01 5728.35 56.99 3.00  15.40 2716.73
   01:26:23.765.24-Feb-2020 3405.01 5727.99 56.99 3.00  15.60 2716.73
   01:26:23.965.24-Feb-2020 3405.01 5727.04 56.98 3.00  15.80 2716.73
   01:26:24.165.24-Feb-2020 3405.01 5726.46 56.98 3.00  16.00 2716.73
   01:26:24.365.24-Feb-2020 3405.01 5726.46 56.98 3.00  16.20 2716.73
   01:26:24.565.24-Feb-2020 3405.01 5727.98 56.98 3.00  16.40 2716.73
   01:26:24.765.24-Feb-2020 3405.01 5728.15 56.98 3.00  16.60 2716.73
   01:26:24.965.24-Feb-2020 3405.01 5727.91 56.98 3.00  16.80 2716.73
   01:26:25.165.24-Feb-2020 3405.01 5733.15 56.98 3.00  17.00 2716.73
   01:26:25.365.24-Feb-2020 3405.01 5733.15 56.98 3.00  17.20 2716.73
   01:26:25.565.24-Feb-2020 3405.01 5729.19 56.98 3.00  17.40 2716.73
   01:26:25.765.24-Feb-2020 3405.01 5729.66 56.98 3.00  17.60 2716.73
   01:26:25.965.24-Feb-2020 3405.01 5726.23 56.98 3.00  17.80 2716.73
   01:26:26.165.24-Feb-2020 3405.01 5727.68 56.98 3.00  18.00 2716.73
   01:26:26.365.24-Feb-2020 3405.01 5727.68 56.98 3.00  18.20 2716.73
   01:26:26.565.24-Feb-2020 3405.01 5727.48 56.98 3.00  18.40 2716.73
   01:26:26.765.24-Feb-2020 3405.01 5727.33 56.98 3.00  18.60 2716.73
   01:26:26.965.24-Feb-2020 3405.01 5728.56 56.98 3.00  18.80 2716.73
   01:26:27.165.24-Feb-2020 3405.01 5728.09 56.98 3.00  19.00 2716.73
   01:26:27.365.24-Feb-2020 3405.01 5727.19 56.98 3.00  19.20 2716.73
   01:26:27.565.24-Feb-2020 3405.01 5726.92 56.98 3.00  19.40 2716.73
   01:26:27.765.24-Feb-2020 3405.01 5727.65 56.98 3.00  19.60 2716.73
   01:26:27.965.24-Feb-2020 3405.01 5728.22 56.98 3.00  19.80 2716.73
   01:26:28.166.24-Feb-2020 3405.01 5728.47 56.98 3.00  20.00 2716.73
   01:26:28.366.24-Feb-2020 3405.01 5728.47 56.98 3.00  20.20 2716.73
   01:26:28.566.24-Feb-2020 3405.01 5733.34 56.98 3.00  20.40 2716.73
   01:26:28.766.24-Feb-2020 3405.01 5719.57 56.98 3.00  20.60 2716.73
   01:26:28.966.24-Feb-2020 3405.01 5728.99 56.98 3.00  20.80 2716.73
   01:26:29.166.24-Feb-2020 3405.01 5729.40 56.98 3.00  21.00 2716.73
   01:26:29.366.24-Feb-2020 3405.01 5729.40 56.98 3.00  21.20 2716.73
   01:26:29.566.24-Feb-2020 3405.01 5719.74 56.98 3.00  21.40 2716.73
   01:26:29.766.24-Feb-2020 3405.01 5729.00 56.98 3.00  21.60 2716.73
   01:26:29.966.24-Feb-2020 3405.01 5730.44 56.98 3.00  21.80 2716.73
   01:26:30.166.24-Feb-2020 3405.01 5727.59 56.98 3.00  22.00 2716.73
   01:26:30.366.24-Feb-2020 3405.01 5728.33 56.98 3.00  22.20 2716.73
   01:26:30.566.24-Feb-2020 3405.01 5728.59 56.98 3.00  22.40 2716.73
   01:26:30.766.24-Feb-2020 3405.01 5736.47 56.98 3.00  22.60 2716.73
   01:26:30.966.24-Feb-2020 3405.01 5725.23 56.98 3.00  22.80 2716.73
