~Version Information
 VERS.                  2.0:   CWLS log ASCII Standard -VERSION 2.0
 WRAP.                   NO:   One line per depth step
~Well Information Block
#MNEM.UNIT     VALUE/NAME     DESCRIPTION
#---------     -----------    ---------------------------
 STRT.S             00:23:32 24-Feb-20: START TIME 00:23:32 24-Feb-20
 STOP.S             00:30:40 24-Feb-20: STOP TIME  00:30:40 24-Feb-20
 STEP.S                   0.00: STEP TIME
 NULL.                 -999.25: NULL VALUE
 JOBN.        AZ-XX-0905059384:  JOB TICKET NUMB
 PDAT.          Mean Sea Level:  PERMANENT DATUM
 UNIT.                     N/A:  LOGGING EQUIPMENT ID
 DCON.         Sperry Drilling:  DIRECTNL CONTR
 DOE .                     N/A:  DOE NUMBER
 RIG .             West Chirag:  RIG NAME
 WELL.                     J22:  WELL NAME
 MWDS.                    Baku:  MWD SHOP
 SRVC.     TURAN Drilling & Engineering:  CONTRACTOR
 FLD .                     ACG:  FIELD NAME
 CTRY.              Azerbaijan:  COUNTRY NAME
 PROV.                    Baku:  PROVINCE
 STAT.                    Baku:  STATE NAME
 REGN.                   EESSA:  REGION
 BASE.              Azerbaijan:  LOGGING EQUIPMENT BASE LOCATION
 UWI .                     N/A:  UNIQUE WELL IDENTIFIER
 API .                     N/A:  API NUMBER
 COMP.     BP Exploration (Caspian Sea) Ltd.:  COMPANY
 WTYP.                Deviated:  WELL TYPE
 MDS .        Operator Entered:  MAG DATA SOURCE
 SON .        AZ-XX-0905059384:  JOB NUMBER
 FTOP.          Formation Tops:  FORM TOPS DESC
 ILTD.               Lithology:  INTERP LTH DESC
 SVYD.                  Survey:  SURVEY DESC
 DMOD.             Drill Model:  DRILL MOD DESC
 HPTY.       Minimum Curvature:  HOLE POS TYPE
 NREF.                    Grid:  NORTH REFERENCE
 SPUD.               09-Jan-20:  SPUD DATE
 DATE.      14.04.48 07-Feb-20:  END TIME
 STIM.      07.00.00 09-Jan-20:  START TIME
 DMF .             Drill Floor:  DRILL MEAS FROM
 DFST.                        :  DIST FSL TEXT
 DFWT.                        :  DIST FWL TEXT
 CNTY.                        :  COUNTY
 LOC .                        :  LOCATION
 LMF .             Drill Floor:  LOG MEASURED FROM
 DEP .m                   0.00:  DEPTH
 VSNS.m                  10.28:  VERT SEC N/S
 VSEW.m                  -6.24:  VERT SEC E/W
 AGAP.m                  43.00:  AIR GAP
 APD .m                  43.00:  DEPTH ABOVE PD
 WDMS.m                 169.80:  WD ELEV
 EGL .m                   0.00:  GROUND ELEVATION
 EPD .m                   0.00:  ELEVATION
 AZTC.deg                 6.27:  AZM TOTAL CORR
 GRDC.deg                 0.15:  GRID CORRECTION
 MDEC.deg                 6.42:  MAGNETIC DECL
 MDIP.deg                59.56:  MAGNETIC DIP
 MFLD.nT              50277.00:  MAGNETIC FIELD
 GVFD.g                   1.00:  GRAVITY FIELD
 VSDR.deg               148.53:  VERT SEC DIRECT
 TDD .m                3473.01:  TOTAL DEPTH (DRILLER)
 SDEP.m                 364.00:  START DEPTH
 DFSL.m                   0.00:  DISTANCE FSL
 DFWL.m                   0.00:  DISTANCE FWL
 UTMY.m             4443793.85:  UTM Y
 UTMX.m              519005.06:  UTM X
 WHEW.m                  -6.24:  WELL HEAD E/W
 WHNS.m                  10.28:  WELL HEAD N/S
 LONG.deg                51.22:  LONGITUDE
 LATI.deg                40.13:  LATITUDE
 TVDS.m                  43.00:  TVDSS CORRECTN
 EKB .m                   0.00:  KB ELEVATION
 EDF .m                  43.00:  DF ELEVATION
 TDL .m                 254.00:  TOTAL DEPTH (LOGGER)
 MAGU.                 1850021:  MAGUTM CHECKSUM
 VSC .                       0:  VS TO CLOSURE
~Parameter Information Block
#MNEM.UNIT       Value        Description
#---------     -----------    ---------------------------
 AV  .mps                 0.50:  Ann Velocity 
 AVMX.mps                 1.40:  Max Ann Veloc 
 AZIF.deg               144.94:  Azm, Final 
 BHAT.        Rotary Steerable:  BHA Type 
 BROT.∞/30m               0.23:  Build Rotating 
 BS  .in                  8.50:  Bit Size 
 BTPL.psig              264.00:  Bit Press Loss 
 CABU.                     Yes:  Customer Abuse 
 COMM.                     ÙP`:  Run Comments 1 
 TCS .hr                 87.30:  Time Ciculation Ended 
 CV  .mps                 2.45:  Crit Velocity 
 CVMX.mps                 2.74:  Max Crit Veloc 
 DD1 .             Aziz Aliyev:  Direct Drillr 1 
 DDSV.               Geo-Pilot:  DD Service 
 DEFF.%                 100.00:  % Det Eff 
 DLRX.∞/30m               1.22:  Dogleg Rot Max 
 DLSO.∞/30m               0.52:  Dogleg Oriented 
 DLSX.∞/30m               1.22:  Dogleg Str Max 
 DRET.      12.59.00 23-Feb-20:  Drill End Time 
 DRST.      09.44.00 18-Feb-20:  Drill Start Tim 
 DTIM.hr                 23.03:  Time Drilling 
 EDEP.m                3473.01:  End Depth 
 ENG1.         Almaz Almadatov:  Engineer 1 
 ENG2.         Dair Mahammadov:  Engineer 2 
 ENG3.          Nazrin Asgarli:  Engineer 3 
 ETIM.      10.33.36 26-Feb-20:  End Time 
 FLOI.gpm               480.00:  Flow In 
 FLON.gpm               300.00:  Flow In Min 
 FLOS.cptm                1.00:  Fluid Loss 
 FLOX.gpm               550.00:  Flow In Max 
 HFLO.                      No:  High Flow 
 HPRE.                      No:  High Pressure 
 HTEM.                      No:  High Temp 
 HYDO.m                   1.80:  Hydro Offset 
 IFIN.deg                74.42:  Inc, Final 
 IMAX.deg                76.14:  Inc Max 
 IMIN.deg                74.42:  Inc Min 
 IMND.m                3462.72:  Inc Min Depth 
 IMXD.m                3235.69:  Inc Max Depth 
 JARR.                      No:  Jarring 
 LETM.      12.59.00 23-Feb-20:  Log End Time 
 LOST.hr                     0:  Lost Rig Time 
 LSTM.      09.44.00 18-Feb-20:  Log Start Time 
 MDCL.ppm             45000.00:  Mud Chlorides 
 MDES.     Inversion Oil/Synthetic:  Mud Desc 
 DFD .sg                  1.38:  Mud Density 
 MDMN.sg                  1.34:  Dens Mud Min 
 MDMX.sg                  1.49:  Dens Mud Max 
 MOIL.                      67:  Run Mud Oil % 
 MOWR.                   67:33:  Run Mud OWR 
 MSND.                    0.12:  Run Mud Sand % 
 MSOL.                      22:  Run Mud Solids% 
 DFV .spqt               81.00:  Mud Viscosity 
 MWOD.in                  6.75:  MWD Tool OD 
 MWSI.                      No:  Serv Intrp, MWD 
 OTIM.hr                231.44:  Time Operating 
 PCON.          Wear / Scratch:  Pad Condition 
 PMAX.psia             3400.00:  Press Op, Max 
 PV  .cP                 55.00:  Mud PV 
 RUN .                     800:  Run Number 
 ROPA.m/hr               12.00:  ROP Avg 
 ROPN.m/hr                5.00:  ROP Min 
 ROPX.m/hr               28.00:  ROP Max 
 RPMA.rpm               120.00:  RPM Surface Avg 
 RPMN.rpm                40.00:  RPM Surface Min 
 RPMX.rpm               130.00:  RPM Surface Max 
 RRUN.                    0800:  Rig Run Number 
 RTIM.hr                 45.00:  Time Reaming 
 SAZI.deg               145.38:  Azm, Start 
 SDEP.m                3219.01:  Start Depth 
 SIDD.                      No:  Serv Intrp, DD 
 SINC.deg                75.11:  Inc, Start 
 SPPA.psig             2400.00:  SPP Avg 
 SPPN.psig             2320.00:  SPP Min 
 SPPX.psig             3200.00:  SPP Max 
 STIM.      15.15.00 17-Feb-20:  Start Time 
 SVCS.                 DD, MWD:  Services 
 SVER.                    9.20:  Sperry Version 
 TDAT.m                 254.00:  Tot Depth Attmp 
 TDDF.                      No:  Trip for DD 
 TDLG.m                 254.00:  Tot Depth Loggd 
 TFF .                      No:  Trip for Fail 
 TQAA.f-kp               13.00:  Torque Abs Avg 
 TQAN.f-kp                7.00:  Torque Abs Min 
 TQAX.f-kp               15.00:  Torque Abs Max 
 TRRT.∞/30m               0.21:  Turn Rotating 
 MRT .                  EWR-M5:  Maximum Recorded Temperature 
 TTMX.degC               64.00:  Max Tool Temp 
 VS01.                90586516:  Virtual Str1 SN 
 VS02.                90513691:  Virtual Str2 SN 
 VS03.                90586523:  Virtual Str3 SN 
 VS04.                90586520:  Virtual Str4 SN 
 VS05.                90590507:  Virtual Str5 SN 
 WBMN.klb                12.00:  WOB Min 
 WITN.           Rufat Babayev:  Customer Rep 2 
 WITN.         Alistair Sprott:  Customer Rep 
 WOBA.klb                18.00:  WOB Avg 
 WOBX.klb                30.00:  WOB Max 
 YP  .lhf2               41.00:  Yield Point 
~Curve Information Block
#MNEM.UNIT                 API CODE     Curve Description
#---------               -----------    ---------------------------
 TIME.HHMMSS            00 000 000 000:  GT Time & Date
 GTDEPTH.m              00 000 000 000:  GT Depth
 GTPQH.psia             00 000 000 000:  GT HR Quartz Pressure
 GTTQ.degC              00 000 000 000:  GT Quartz Temperature
 GTTN.NONE              00 000 000 000:  GT Test Number
 GTET.sec               00 000 000 000:  GT Elapsed Test Time
 GTTVD.m                00 000 000 000:  GT True Vertical Depth
#Other Information
#
#WARRANTY: Halliburton will use its best efforts to furnish customers with 
#accurate information and interpretations that are part of, and incident to, the services 
#provided.  However, Halliburton cannot and does not warrant the accuracy 
#or correctness of such information and interpretations.  Under no circumstances should any 
#such information or interpretation be relied upon as the sole basis for any drilling, 
#completion, production, or financial decision or any procedure involving any risk to the 
#safety of any drilling venture, drilling rig or its crew or any other third party.  The 
#Customer has full responsibility for all drilling, completion and production operation.  
#Halliburton makes no representations or warranties, either expressed or 
#implied, including, but not limited to, the implied warranties of merchantability or fitness 
#for a particular purpose, with respect to the services rendered.  In no event will 
#Halliburton be liable for failure to obtain any particular results or for 
#any damages, including, but not limited to, indirect, special or consequential damages, 
#resulting from the use of any information or interpretation provided by Halliburton.
#
~A           TIME           GTDEPTH  GTPQH  GTTQ  GTTN  GTET   GTTVD  
# ...
   00:27:45.686.24-Feb-2020 3430.51 4219.15 56.39 2.00 253.03 2723.35
   00:27:45.886.24-Feb-2020 3430.51 4219.15 56.39 2.00 253.23 2723.35
   00:27:46.086.24-Feb-2020 3430.51 4219.05 56.39 2.00 253.43 2723.35
   00:27:46.286.24-Feb-2020 3430.51 4220.02 56.39 2.00 253.63 2723.35
   00:27:46.486.24-Feb-2020 3430.51 4220.21 56.39 2.00 253.83 2723.35
   00:27:46.686.24-Feb-2020 3430.51 4219.13 56.39 2.00 254.03 2723.35
   00:27:46.886.24-Feb-2020 3430.51 4219.13 56.39 2.00 254.23 2723.35
   00:27:47.086.24-Feb-2020 3430.51 4219.19 56.39 2.00 254.43 2723.35
   00:27:47.286.24-Feb-2020 3430.51 4219.40 56.39 2.00 254.63 2723.35
   00:27:47.486.24-Feb-2020 3430.51 4219.68 56.39 2.00 254.83 2723.35
   00:27:47.686.24-Feb-2020 3430.51 4219.53 56.39 2.00 255.03 2723.35
   00:27:47.886.24-Feb-2020 3430.51 4219.53 56.39 2.00 255.23 2723.35
   00:27:48.086.24-Feb-2020 3430.51 4219.32 56.39 2.00 255.43 2723.35
   00:27:48.286.24-Feb-2020 3430.51 4219.29 56.39 2.00 255.63 2723.35
   00:27:48.486.24-Feb-2020 3430.51 4219.25 56.39 2.00 255.83 2723.35
   00:27:48.686.24-Feb-2020 3430.51 4219.37 56.39 2.00 256.03 2723.35
   00:27:48.886.24-Feb-2020 3430.51 4219.37 56.39 2.00 256.23 2723.35
   00:27:49.086.24-Feb-2020 3430.51 4219.32 56.39 2.00 256.43 2723.35
   00:27:49.286.24-Feb-2020 3430.51 4219.67 56.39 2.00 256.63 2723.35
   00:27:49.486.24-Feb-2020 3430.51 4218.87 56.39 2.00 256.83 2723.35
   00:27:49.686.24-Feb-2020 3430.51 4219.52 56.39 2.00 257.03 2723.35
   00:27:49.886.24-Feb-2020 3430.51 4219.52 56.39 2.00 257.23 2723.35
   00:27:50.086.24-Feb-2020 3430.51 4219.64 56.39 2.00 257.43 2723.35
   00:27:50.286.24-Feb-2020 3430.51 4220.45 56.39 2.00 257.63 2723.35
   00:27:50.486.24-Feb-2020 3430.51 4218.22 56.39 2.00 257.83 2723.35
   00:27:50.686.24-Feb-2020 3430.51 4220.13 56.39 2.00 258.03 2723.35
   00:27:50.886.24-Feb-2020 3430.51 4220.13 56.39 2.00 258.23 2723.35
   00:27:51.086.24-Feb-2020 3430.51 4219.78 56.39 2.00 258.43 2723.35
   00:27:51.286.24-Feb-2020 3430.51 4219.74 56.39 2.00 258.63 2723.35
   00:27:51.486.24-Feb-2020 3430.51 4219.22 56.39 2.00 258.83 2723.35
   00:27:51.686.24-Feb-2020 3430.51 4219.87 56.39 2.00 259.03 2723.35
   00:27:51.887.24-Feb-2020 3430.51 4219.87 56.39 2.00 259.23 2723.35
   00:27:52.087.24-Feb-2020 3430.51 4219.47 56.39 2.00 259.43 2723.35
   00:27:52.287.24-Feb-2020 3430.51 4219.09 56.39 2.00 259.63 2723.35
   00:27:52.487.24-Feb-2020 3430.51 4219.48 56.39 2.00 259.83 2723.35
   00:27:52.687.24-Feb-2020 3430.51 4219.69 56.39 2.00 260.03 2723.35
   00:27:52.887.24-Feb-2020 3430.51 4219.69 56.39 2.00 260.23 2723.35
   00:27:53.087.24-Feb-2020 3430.51 4219.78 56.39 2.00 260.43 2723.35
   00:27:53.287.24-Feb-2020 3430.51 4219.54 56.39 2.00 260.63 2723.35
   00:27:53.487.24-Feb-2020 3430.51 4220.00 56.39 2.00 260.83 2723.35
   00:27:53.687.24-Feb-2020 3430.51 4219.05 56.39 2.00 261.03 2723.35
   00:27:53.887.24-Feb-2020 3430.51 4219.05 56.39 2.00 261.23 2723.35
   00:27:54.087.24-Feb-2020 3430.51 4219.72 56.39 2.00 261.43 2723.35
   00:27:54.287.24-Feb-2020 3430.51 4219.66 56.39 2.00 261.63 2723.35
   00:27:54.487.24-Feb-2020 3430.51 4219.55 56.39 2.00 261.83 2723.35
   00:27:54.687.24-Feb-2020 3430.51 4219.55 56.39 2.00 262.03 2723.35
   00:27:54.887.24-Feb-2020 3430.51 4219.55 56.39 2.00 262.23 2723.35
   00:27:55.087.24-Feb-2020 3430.51 4219.61 56.39 2.00 262.43 2723.35
   00:27:55.287.24-Feb-2020 3430.51 4219.58 56.39 2.00 262.63 2723.35
   00:27:55.487.24-Feb-2020 3430.51 4219.54 56.39 2.00 262.83 2723.35
   00:27:55.687.24-Feb-2020 3430.51 4219.41 56.39 2.00 263.03 2723.35
   00:27:55.887.24-Feb-2020 3430.51 4219.41 56.39 2.00 263.23 2723.35
   00:27:56.087.24-Feb-2020 3430.51 4220.02 56.39 2.00 263.43 2723.35
   00:27:56.287.24-Feb-2020 3430.51 4218.08 56.39 2.00 263.63 2723.35
   00:27:56.487.24-Feb-2020 3430.51 4219.70 56.39 2.00 263.83 2723.35
   00:27:56.687.24-Feb-2020 3430.51 4051.20 56.39 2.00 264.03 2723.35
   00:27:56.887.24-Feb-2020 3430.51 4051.20 56.39 2.00 264.23 2723.35
   00:27:57.087.24-Feb-2020 3430.51 3372.06 56.39 2.00 264.43 2723.35
   00:27:57.287.24-Feb-2020 3430.51 3203.23 56.39 2.00 264.63 2723.35
   00:27:57.487.24-Feb-2020 3430.51 3093.74 56.39 2.00 264.83 2723.35
   00:27:57.687.24-Feb-2020 3430.51 3019.76 56.39 2.00 265.03 2723.35
   00:27:57.887.24-Feb-2020 3430.51 3019.76 56.39 2.00 265.23 2723.35
   00:27:58.087.24-Feb-2020 3430.51 2938.47 56.39 2.00 265.43 2723.35
   00:27:58.287.24-Feb-2020 3430.51 2918.33 56.39 2.00 265.63 2723.35
   00:27:58.487.24-Feb-2020 3430.51 2902.41 56.39 2.00 265.83 2723.35
   00:27:58.687.24-Feb-2020 3430.51 2894.60 56.38 2.00 266.03 2723.35
   00:27:58.887.24-Feb-2020 3430.51 2894.60 56.38 2.00 266.23 2723.35
   00:27:59.087.24-Feb-2020 3430.51 2885.85 56.38 2.00 266.43 2723.35
   00:27:59.287.24-Feb-2020 3430.51 2882.12 56.38 2.00 266.63 2723.35
   00:27:59.487.24-Feb-2020 3430.51 2879.21 56.38 2.00 266.83 2723.35
   00:27:59.687.24-Feb-2020 3430.51 2879.72 56.38 2.00 267.03 2723.35
   00:27:59.887.24-Feb-2020 3430.51 2879.72 56.38 2.00 267.23 2723.35
   00:28:00.087.24-Feb-2020 3430.51 2878.17 56.38 2.00 267.43 2723.35
   00:28:00.287.24-Feb-2020 3430.51 2876.20 56.38 2.00 267.63 2723.35
   00:28:00.488.24-Feb-2020 3430.51 2874.19 56.38 2.00 267.83 2723.35
   00:28:00.688.24-Feb-2020 3430.51 2865.26 56.38 2.00 268.03 2723.35
   00:28:00.888.24-Feb-2020 3430.51 2865.26 56.38 2.00 268.23 2723.35
   00:28:01.088.24-Feb-2020 3430.51 2867.36 56.37 2.00 268.43 2723.35
   00:28:01.288.24-Feb-2020 3430.51 2866.16 56.37 2.00 268.63 2723.35
   00:28:01.488.24-Feb-2020 3430.51 2865.38 56.37 2.00 268.83 2723.35
   00:28:01.688.24-Feb-2020 3430.51 2864.70 56.37 2.00 269.03 2723.35
   00:28:01.888.24-Feb-2020 3430.51 2864.70 56.37 2.00 269.23 2723.35
   00:28:02.088.24-Feb-2020 3430.51 2858.92 56.37 2.00 269.43 2723.35
   00:28:02.288.24-Feb-2020 3430.51 2868.63 56.37 2.00 269.63 2723.35
   00:28:02.488.24-Feb-2020 3430.51 2866.55 56.37 2.00 269.83 2723.35
   00:28:02.688.24-Feb-2020 3430.51 2865.98 56.37 2.00 270.03 2723.35
   00:28:02.888.24-Feb-2020 3430.51 2865.98 56.37 2.00 270.23 2723.35
   00:28:03.088.24-Feb-2020 3430.51 2865.17 56.37 2.00 270.43 2723.35
   00:28:03.288.24-Feb-2020 3430.51 2854.94 56.37 2.00 270.63 2723.35
   00:28:03.488.24-Feb-2020 3430.51 2862.12 56.36 2.00 270.83 2723.35
   00:28:03.688.24-Feb-2020 3430.51 2865.02 56.36 2.00 271.03 2723.35
   00:28:03.888.24-Feb-2020 3430.51 2857.64 56.36 2.00 271.23 2723.35
   00:28:04.088.24-Feb-2020 3430.51 2857.67 56.36 2.00 271.43 2723.35
   00:28:04.288.24-Feb-2020 3430.51 2856.26 56.36 2.00 271.63 2723.35
   00:28:04.488.24-Feb-2020 3430.51 2856.72 56.36 2.00 271.83 2723.35
   00:28:04.688.24-Feb-2020 3430.51 2854.15 56.36 2.00 272.03 2723.35
   00:28:04.888.24-Feb-2020 3430.51 2854.15 56.36 2.00 272.23 2723.35
   00:28:05.088.24-Feb-2020 3430.51 2853.33 56.36 2.00 272.43 2723.35
   00:28:05.288.24-Feb-2020 3430.51 2851.90 56.36 2.00 272.63 2723.35
   00:28:05.488.24-Feb-2020 3430.51 2850.50 56.36 2.00 272.83 2723.35
   00:28:05.688.24-Feb-2020 3430.51 2846.22 56.36 2.00 273.03 2723.35
   00:28:05.888.24-Feb-2020 3430.51 2846.22 56.36 2.00 273.23 2723.35
   00:28:06.088.24-Feb-2020 3430.51 2842.43 56.36 2.00 273.43 2723.35
   00:28:06.288.24-Feb-2020 3430.51 2844.00 56.36 2.00 273.63 2723.35
   00:28:06.488.24-Feb-2020 3430.51 2839.14 56.36 2.00 273.83 2723.35
   00:28:06.688.24-Feb-2020 3430.51 2839.70 56.36 2.00 274.03 2723.35
   00:28:06.888.24-Feb-2020 3430.51 2839.70 56.36 2.00 274.23 2723.35
   00:28:07.088.24-Feb-2020 3430.51 3396.99 56.36 2.00 274.43 2723.35
   00:28:07.288.24-Feb-2020 3430.51 3651.12 56.36 2.00 274.63 2723.35
   00:28:07.488.24-Feb-2020 3430.51 3832.72 56.36 2.00 274.83 2723.35
   00:28:07.688.24-Feb-2020 3430.51 3953.14 56.36 2.00 275.03 2723.35
   00:28:07.888.24-Feb-2020 3430.51 3953.14 56.36 2.00 275.23 2723.35
   00:28:08.088.24-Feb-2020 3430.51 4088.34 56.36 2.00 275.43 2723.35
   00:28:08.288.24-Feb-2020 3430.51 4125.37 56.36 2.00 275.63 2723.35
   00:28:08.488.24-Feb-2020 3430.51 4151.09 56.36 2.00 275.83 2723.35
