~Version Information
 VERS.                  2.0:   CWLS log ASCII Standard -VERSION 2.0
 WRAP.                   NO:   One line per depth step
~Well Information Block
#MNEM.UNIT     VALUE/NAME     DESCRIPTION
#---------     -----------    ---------------------------
 STRT.S             05:02:14 24-Feb-20: START TIME 05:02:14 24-Feb-20
 STOP.S             05:09:32 24-Feb-20: STOP TIME  05:09:32 24-Feb-20
 STEP.S                   0.00: STEP TIME
 NULL.                 -999.25: NULL VALUE
 JOBN.        AZ-XX-0905059384:  JOB TICKET NUMB
 PDAT.          Mean Sea Level:  PERMANENT DATUM
 UNIT.                     N/A:  LOGGING EQUIPMENT ID
 DCON.         Sperry Drilling:  DIRECTNL CONTR
 DOE .                     N/A:  DOE NUMBER
 RIG .             West Chirag:  RIG NAME
 WELL.                     J22:  WELL NAME
 MWDS.                    Baku:  MWD SHOP
 SRVC.     TURAN Drilling & Engineering:  CONTRACTOR
 FLD .                     ACG:  FIELD NAME
 CTRY.              Azerbaijan:  COUNTRY NAME
 PROV.                    Baku:  PROVINCE
 STAT.                    Baku:  STATE NAME
 REGN.                   EESSA:  REGION
 BASE.              Azerbaijan:  LOGGING EQUIPMENT BASE LOCATION
 UWI .                     N/A:  UNIQUE WELL IDENTIFIER
 API .                     N/A:  API NUMBER
 COMP.     BP Exploration (Caspian Sea) Ltd.:  COMPANY
 WTYP.                Deviated:  WELL TYPE
 MDS .        Operator Entered:  MAG DATA SOURCE
 SON .        AZ-XX-0905059384:  JOB NUMBER
 FTOP.          Formation Tops:  FORM TOPS DESC
 ILTD.               Lithology:  INTERP LTH DESC
 SVYD.                  Survey:  SURVEY DESC
 DMOD.             Drill Model:  DRILL MOD DESC
 HPTY.       Minimum Curvature:  HOLE POS TYPE
 NREF.                    Grid:  NORTH REFERENCE
 SPUD.               09-Jan-20:  SPUD DATE
 DATE.      14.04.48 07-Feb-20:  END TIME
 STIM.      07.00.00 09-Jan-20:  START TIME
 DMF .             Drill Floor:  DRILL MEAS FROM
 DFST.                        :  DIST FSL TEXT
 DFWT.                        :  DIST FWL TEXT
 CNTY.                        :  COUNTY
 LOC .                        :  LOCATION
 LMF .             Drill Floor:  LOG MEASURED FROM
 DEP .m                   0.00:  DEPTH
 VSNS.m                  10.28:  VERT SEC N/S
 VSEW.m                  -6.24:  VERT SEC E/W
 AGAP.m                  43.00:  AIR GAP
 APD .m                  43.00:  DEPTH ABOVE PD
 WDMS.m                 169.80:  WD ELEV
 EGL .m                   0.00:  GROUND ELEVATION
 EPD .m                   0.00:  ELEVATION
 AZTC.deg                 6.27:  AZM TOTAL CORR
 GRDC.deg                 0.15:  GRID CORRECTION
 MDEC.deg                 6.42:  MAGNETIC DECL
 MDIP.deg                59.56:  MAGNETIC DIP
 MFLD.nT              50277.00:  MAGNETIC FIELD
 GVFD.g                   1.00:  GRAVITY FIELD
 VSDR.deg               148.53:  VERT SEC DIRECT
 TDD .m                3473.01:  TOTAL DEPTH (DRILLER)
 SDEP.m                 364.00:  START DEPTH
 DFSL.m                   0.00:  DISTANCE FSL
 DFWL.m                   0.00:  DISTANCE FWL
 UTMY.m             4443793.85:  UTM Y
 UTMX.m              519005.06:  UTM X
 WHEW.m                  -6.24:  WELL HEAD E/W
 WHNS.m                  10.28:  WELL HEAD N/S
 LONG.deg                51.22:  LONGITUDE
 LATI.deg                40.13:  LATITUDE
 TVDS.m                  43.00:  TVDSS CORRECTN
 EKB .m                   0.00:  KB ELEVATION
 EDF .m                  43.00:  DF ELEVATION
 TDL .m                 254.00:  TOTAL DEPTH (LOGGER)
 MAGU.                 1850021:  MAGUTM CHECKSUM
 VSC .                       0:  VS TO CLOSURE
~Parameter Information Block
#MNEM.UNIT       Value        Description
#---------     -----------    ---------------------------
 AV  .mps                 0.50:  Ann Velocity 
 AVMX.mps                 1.40:  Max Ann Veloc 
 AZIF.deg               144.94:  Azm, Final 
 BHAT.        Rotary Steerable:  BHA Type 
 BROT.°/30m               0.23:  Build Rotating 
 BS  .in                  8.50:  Bit Size 
 BTPL.psig              264.00:  Bit Press Loss 
 CABU.                     Yes:  Customer Abuse 
 TCS .hr                 87.30:  Time Ciculation Ended 
 CV  .mps                 2.45:  Crit Velocity 
 CVMX.mps                 2.74:  Max Crit Veloc 
 DD1 .             Aziz Aliyev:  Direct Drillr 1 
 DDSV.               Geo-Pilot:  DD Service 
 DEFF.%                 100.00:  % Det Eff 
 DLRX.°/30m               1.22:  Dogleg Rot Max 
 DLSO.°/30m               0.52:  Dogleg Oriented 
 DLSX.°/30m               1.22:  Dogleg Str Max 
 DRET.      12.59.00 23-Feb-20:  Drill End Time 
 DRST.      09.44.00 18-Feb-20:  Drill Start Tim 
 DTIM.hr                 23.03:  Time Drilling 
 EDEP.m                3473.01:  End Depth 
 ENG1.         Almaz Almadatov:  Engineer 1 
 ENG2.         Dair Mahammadov:  Engineer 2 
 ENG3.          Nazrin Asgarli:  Engineer 3 
 ETIM.      10.33.36 26-Feb-20:  End Time 
 FLOI.gpm               480.00:  Flow In 
 FLON.gpm               300.00:  Flow In Min 
 FLOS.cptm                1.00:  Fluid Loss 
 FLOX.gpm               550.00:  Flow In Max 
 HFLO.                      No:  High Flow 
 HPRE.                      No:  High Pressure 
 HTEM.                      No:  High Temp 
 HYDO.m                   1.80:  Hydro Offset 
 IFIN.deg                74.42:  Inc, Final 
 IMAX.deg                76.14:  Inc Max 
 IMIN.deg                74.42:  Inc Min 
 IMND.m                3462.72:  Inc Min Depth 
 IMXD.m                3235.69:  Inc Max Depth 
 JARR.                      No:  Jarring 
 LETM.      12.59.00 23-Feb-20:  Log End Time 
 LOST.hr                     0:  Lost Rig Time 
 LSTM.      09.44.00 18-Feb-20:  Log Start Time 
 MDCL.ppm             45000.00:  Mud Chlorides 
 MDES.     Inversion Oil/Synthetic:  Mud Desc 
 DFD .sg                  1.38:  Mud Density 
 MDMN.sg                  1.34:  Dens Mud Min 
 MDMX.sg                  1.49:  Dens Mud Max 
 MOIL.                      67:  Run Mud Oil % 
 MOWR.                   67:33:  Run Mud OWR 
 MSND.                    0.12:  Run Mud Sand % 
 MSOL.                      22:  Run Mud Solids% 
 DFV .spqt               81.00:  Mud Viscosity 
 MWOD.in                  6.75:  MWD Tool OD 
 MWSI.                      No:  Serv Intrp, MWD 
 OTIM.hr                231.44:  Time Operating 
 PCON.          Wear / Scratch:  Pad Condition 
 PMAX.psia             3400.00:  Press Op, Max 
 PV  .cP                 55.00:  Mud PV 
 RUN .                     800:  Run Number 
 ROPA.m/hr               12.00:  ROP Avg 
 ROPN.m/hr                5.00:  ROP Min 
 ROPX.m/hr               28.00:  ROP Max 
 RPMA.rpm               120.00:  RPM Surface Avg 
 RPMN.rpm                40.00:  RPM Surface Min 
 RPMX.rpm               130.00:  RPM Surface Max 
 RRUN.                    0800:  Rig Run Number 
 RTIM.hr                 45.00:  Time Reaming 
 SAZI.deg               145.38:  Azm, Start 
 SDEP.m                3219.01:  Start Depth 
 SIDD.                      No:  Serv Intrp, DD 
 SINC.deg                75.11:  Inc, Start 
 SPPA.psig             2400.00:  SPP Avg 
 SPPN.psig             2320.00:  SPP Min 
 SPPX.psig             3200.00:  SPP Max 
 STIM.      15.15.00 17-Feb-20:  Start Time 
 SVCS.                 DD, MWD:  Services 
 SVER.                    9.20:  Sperry Version 
 TDAT.m                 254.00:  Tot Depth Attmp 
 TDDF.                      No:  Trip for DD 
 TDLG.m                 254.00:  Tot Depth Loggd 
 TFF .                      No:  Trip for Fail 
 TQAA.f-kp               13.00:  Torque Abs Avg 
 TQAN.f-kp                7.00:  Torque Abs Min 
 TQAX.f-kp               15.00:  Torque Abs Max 
 TRRT.°/30m               0.21:  Turn Rotating 
 MRT .                  EWR-M5:  Maximum Recorded Temperature 
 TTMX.degC               64.00:  Max Tool Temp 
 VS01.                90586516:  Virtual Str1 SN 
 VS02.                90513691:  Virtual Str2 SN 
 VS03.                90586523:  Virtual Str3 SN 
 VS04.                90586520:  Virtual Str4 SN 
 VS05.                90590507:  Virtual Str5 SN 
 WBMN.klb                12.00:  WOB Min 
 WITN.           Rufat Babayev:  Customer Rep 2 
 WITN.         Alistair Sprott:  Customer Rep 
 WOBA.klb                18.00:  WOB Avg 
 WOBX.klb                30.00:  WOB Max 
 YP  .lhf2               41.00:  Yield Point 
~Curve Information Block
#MNEM.UNIT                 API CODE     Curve Description
#---------               -----------    ---------------------------
 TIME.HHMMSS            00 000 000 000:  GT Time & Date
 GTDEPTH.m              00 000 000 000:  GT Depth
 GTPQH.psia             00 000 000 000:  GT HR Quartz Pressure
 GTTQ.degC              00 000 000 000:  GT Quartz Temperature
 GTTN.NONE              00 000 000 000:  GT Test Number
 GTET.sec               00 000 000 000:  GT Elapsed Test Time
 GTTVD.m                00 000 000 000:  GT True Vertical Depth
#Other Information
#
#WARRANTY: Halliburton will use its best efforts to furnish customers with 
#accurate information and interpretations that are part of, and incident to, the services 
#provided.  However, Halliburton cannot and does not warrant the accuracy 
#or correctness of such information and interpretations.  Under no circumstances should any 
#such information or interpretation be relied upon as the sole basis for any drilling, 
#completion, production, or financial decision or any procedure involving any risk to the 
#safety of any drilling venture, drilling rig or its crew or any other third party.  The 
#Customer has full responsibility for all drilling, completion and production operation.  
#Halliburton makes no representations or warranties, either expressed or 
#implied, including, but not limited to, the implied warranties of merchantability or fitness 
#for a particular purpose, with respect to the services rendered.  In no event will 
#Halliburton be liable for failure to obtain any particular results or for 
#any damages, including, but not limited to, indirect, special or consequential damages, 
#resulting from the use of any information or interpretation provided by Halliburton.
#
~A           TIME           GTDEPTH  GTPQH  GTTQ  GTTN  GTET   GTTVD  
# ...
   05:07:13.755.24-Feb-2020 3303.51 4421.17 55.38 8.00 298.91 2690.98
   05:07:13.955.24-Feb-2020 3303.51 4421.17 55.38 8.00 299.11 2690.98
   05:07:14.155.24-Feb-2020 3303.51 4421.37 55.37 8.00 299.31 2690.98
   05:07:14.355.24-Feb-2020 3303.51 4420.71 55.37 8.00 299.51 2690.98
   05:07:14.555.24-Feb-2020 3303.51 4420.91 55.37 8.00 299.71 2690.98
   05:07:14.755.24-Feb-2020 3303.51 4421.07 55.37 8.00 299.91 2690.98
   05:07:14.955.24-Feb-2020 3303.51 4421.07 55.37 8.00 300.11 2690.98
   05:07:15.154.24-Feb-2020 3303.51 4421.00 55.37 8.00 300.31 2690.98
   05:07:15.354.24-Feb-2020 3303.51 4421.45 55.37 8.00 300.51 2690.98
   05:07:15.554.24-Feb-2020 3303.51 4420.69 55.37 8.00 300.71 2690.98
   05:07:15.754.24-Feb-2020 3303.51 4420.97 55.37 8.00 300.91 2690.98
   05:07:15.954.24-Feb-2020 3303.51 4420.97 55.37 8.00 301.11 2690.98
   05:07:16.154.24-Feb-2020 3303.51 4421.02 55.37 8.00 301.31 2690.98
   05:07:16.354.24-Feb-2020 3303.51 4421.42 55.37 8.00 301.51 2690.98
   05:07:16.554.24-Feb-2020 3303.51 4420.69 55.37 8.00 301.71 2690.98
   05:07:16.754.24-Feb-2020 3303.51 4420.89 55.37 8.00 301.91 2690.98
   05:07:16.954.24-Feb-2020 3303.51 4421.05 55.37 8.00 302.11 2690.98
   05:07:17.154.24-Feb-2020 3303.51 4420.99 55.37 8.00 302.31 2690.98
   05:07:17.354.24-Feb-2020 3303.51 4420.99 55.37 8.00 302.51 2690.98
   05:07:17.554.24-Feb-2020 3303.51 4420.98 55.37 8.00 302.71 2690.98
   05:07:17.754.24-Feb-2020 3303.51 4421.01 55.37 8.00 302.91 2690.98
   05:07:17.954.24-Feb-2020 3303.51 4421.01 55.37 8.00 303.11 2690.98
   05:07:18.154.24-Feb-2020 3303.51 4421.01 55.37 8.00 303.31 2690.98
   05:07:18.354.24-Feb-2020 3303.51 4421.02 55.37 8.00 303.51 2690.98
   05:07:18.553.24-Feb-2020 3303.51 4421.02 55.37 8.00 303.71 2690.98
   05:07:18.753.24-Feb-2020 3303.51 4421.01 55.37 8.00 303.91 2690.98
   05:07:18.953.24-Feb-2020 3303.51 4421.01 55.37 8.00 304.11 2690.98
   05:07:19.153.24-Feb-2020 3303.51 4421.03 55.37 8.00 304.31 2690.98
   05:07:19.353.24-Feb-2020 3303.51 4421.03 55.37 8.00 304.51 2690.98
   05:07:19.553.24-Feb-2020 3303.51 4420.97 55.37 8.00 304.71 2690.98
   05:07:19.753.24-Feb-2020 3303.51 4421.17 55.37 8.00 304.91 2690.98
   05:07:19.953.24-Feb-2020 3303.51 4421.17 55.37 8.00 305.11 2690.98
   05:07:20.153.24-Feb-2020 3303.51 4420.95 55.37 8.00 305.31 2690.98
   05:07:20.353.24-Feb-2020 3303.51 4420.98 55.37 8.00 305.51 2690.98
   05:07:20.553.24-Feb-2020 3303.51 4420.98 55.37 8.00 305.71 2690.98
   05:07:20.753.24-Feb-2020 3303.51 4420.98 55.37 8.00 305.91 2690.98
   05:07:20.953.24-Feb-2020 3303.51 4421.00 55.37 8.00 306.11 2690.98
   05:07:21.153.24-Feb-2020 3303.51 4421.03 55.37 8.00 306.31 2690.98
   05:07:21.353.24-Feb-2020 3303.51 4421.03 55.37 8.00 306.51 2690.98
   05:07:21.553.24-Feb-2020 3303.51 4421.01 55.37 8.00 306.71 2690.98
   05:07:21.753.24-Feb-2020 3303.51 4421.00 55.37 8.00 306.91 2690.98
   05:07:21.952.24-Feb-2020 3303.51 4421.00 55.37 8.00 307.11 2690.98
   05:07:22.152.24-Feb-2020 3303.51 4421.03 55.37 8.00 307.31 2690.98
   05:07:22.352.24-Feb-2020 3303.51 4421.05 55.37 8.00 307.51 2690.98
   05:07:22.552.24-Feb-2020 3303.51 4421.00 55.37 8.00 307.71 2690.98
   05:07:22.752.24-Feb-2020 3303.51 4421.28 55.37 8.00 307.91 2690.98
   05:07:22.952.24-Feb-2020 3303.51 4421.28 55.37 8.00 308.11 2690.98
   05:07:23.152.24-Feb-2020 3303.51 4421.18 55.37 8.00 308.31 2690.98
   05:07:23.352.24-Feb-2020 3303.51 4420.98 55.37 8.00 308.51 2690.98
   05:07:23.552.24-Feb-2020 3303.51 4421.09 55.37 8.00 308.71 2690.98
   05:07:23.752.24-Feb-2020 3303.51 4421.06 55.37 8.00 308.91 2690.98
   05:07:23.952.24-Feb-2020 3303.51 4421.06 55.37 8.00 309.11 2690.98
   05:07:24.152.24-Feb-2020 3303.51 4421.06 55.37 8.00 309.31 2690.98
   05:07:24.352.24-Feb-2020 3303.51 4420.96 55.37 8.00 309.51 2690.98
   05:07:24.552.24-Feb-2020 3303.51 4421.03 55.37 8.00 309.71 2690.98
   05:07:24.752.24-Feb-2020 3303.51 4421.44 55.37 8.00 309.91 2690.98
   05:07:24.952.24-Feb-2020 3303.51 4420.68 55.37 8.00 310.11 2690.98
   05:07:25.152.24-Feb-2020 3303.51 4420.96 55.37 8.00 310.31 2690.98
   05:07:25.351.24-Feb-2020 3303.51 4421.08 55.37 8.00 310.51 2690.98
   05:07:25.551.24-Feb-2020 3303.51 4421.03 55.37 8.00 310.71 2690.98
   05:07:25.751.24-Feb-2020 3303.51 4420.91 55.37 8.00 310.91 2690.98
   05:07:25.951.24-Feb-2020 3303.51 4420.91 55.37 8.00 311.11 2690.98
   05:07:26.151.24-Feb-2020 3303.51 4420.98 55.37 8.00 311.31 2690.98
   05:07:26.351.24-Feb-2020 3303.51 4420.93 55.37 8.00 311.51 2690.98
   05:07:26.551.24-Feb-2020 3303.51 4421.00 55.37 8.00 311.71 2690.98
   05:07:26.751.24-Feb-2020 3303.51 4421.01 55.37 8.00 311.91 2690.98
   05:07:26.951.24-Feb-2020 3303.51 4421.01 55.37 8.00 312.11 2690.98
   05:07:27.151.24-Feb-2020 3303.51 4421.01 55.37 8.00 312.31 2690.98
   05:07:27.351.24-Feb-2020 3303.51 4421.03 55.37 8.00 312.51 2690.98
   05:07:27.551.24-Feb-2020 3303.51 4421.01 55.37 8.00 312.71 2690.98
   05:07:27.751.24-Feb-2020 3303.51 4421.03 55.37 8.00 312.91 2690.98
   05:07:27.951.24-Feb-2020 3303.51 4421.03 55.37 8.00 313.11 2690.98
   05:07:28.151.24-Feb-2020 3303.51 4421.02 55.37 8.00 313.31 2690.98
   05:07:28.351.24-Feb-2020 3303.51 4421.02 55.37 8.00 313.51 2690.98
   05:07:28.551.24-Feb-2020 3303.51 4421.05 55.37 8.00 313.71 2690.98
   05:07:28.750.24-Feb-2020 3303.51 4421.46 55.37 8.00 313.91 2690.98
   05:07:28.950.24-Feb-2020 3303.51 4420.71 55.37 8.00 314.11 2690.98
   05:07:29.150.24-Feb-2020 3303.51 4420.90 55.37 8.00 314.31 2690.98
   05:07:29.350.24-Feb-2020 3303.51 4421.05 55.37 8.00 314.51 2690.98
   05:07:29.550.24-Feb-2020 3303.51 4421.01 55.37 8.00 314.71 2690.98
   05:07:29.750.24-Feb-2020 3303.51 4420.97 55.37 8.00 314.91 2690.98
   05:07:29.950.24-Feb-2020 3303.51 4420.97 55.37 8.00 315.11 2690.98
   05:07:30.150.24-Feb-2020 3303.51 4420.98 55.37 8.00 315.31 2690.98
   05:07:30.350.24-Feb-2020 3303.51 4421.03 55.37 8.00 315.51 2690.98
   05:07:30.550.24-Feb-2020 3303.51 4421.04 55.36 8.00 315.71 2690.98
   05:07:30.750.24-Feb-2020 3303.51 4421.03 55.36 8.00 315.91 2690.98
   05:07:30.950.24-Feb-2020 3303.51 4421.03 55.36 8.00 316.11 2690.98
   05:07:31.150.24-Feb-2020 3303.51 4421.01 55.36 8.00 316.31 2690.98
   05:07:31.350.24-Feb-2020 3303.51 4421.01 55.36 8.00 316.51 2690.98
   05:07:31.550.24-Feb-2020 3303.51 4421.03 55.36 8.00 316.71 2690.98
   05:07:31.750.24-Feb-2020 3303.51 4421.06 55.36 8.00 316.91 2690.98
   05:07:31.950.24-Feb-2020 3303.51 4421.06 55.36 8.00 317.11 2690.98
   05:07:32.149.24-Feb-2020 3303.51 4421.11 55.36 8.00 317.31 2690.98
   05:07:32.349.24-Feb-2020 3303.51 4421.06 55.36 8.00 317.51 2690.98
   05:07:32.549.24-Feb-2020 3303.51 4420.90 55.36 8.00 317.71 2690.98
   05:07:32.749.24-Feb-2020 3303.51 4421.34 55.36 8.00 317.91 2690.98
   05:07:32.949.24-Feb-2020 3303.51 4420.63 55.36 8.00 318.11 2690.98
   05:07:33.149.24-Feb-2020 3303.51 4421.21 55.36 8.00 318.31 2690.98
   05:07:33.349.24-Feb-2020 3303.51 4420.98 55.36 8.00 318.51 2690.98
   05:07:33.549.24-Feb-2020 3303.51 4421.02 55.36 8.00 318.71 2690.98
   05:07:33.749.24-Feb-2020 3303.51 4421.00 55.36 8.00 318.91 2690.98
   05:07:33.949.24-Feb-2020 3303.51 4421.00 55.36 8.00 319.11 2690.98
   05:07:34.149.24-Feb-2020 3303.51 4420.95 55.36 8.00 319.31 2690.98
   05:07:34.349.24-Feb-2020 3303.51 4421.21 55.36 8.00 319.51 2690.98
   05:07:34.549.24-Feb-2020 3303.51 4421.04 55.36 8.00 319.71 2690.98
   05:07:34.749.24-Feb-2020 3303.51 4420.98 55.36 8.00 319.91 2690.98
   05:07:34.949.24-Feb-2020 3303.51 4420.98 55.36 8.00 320.11 2690.98
   05:07:35.149.24-Feb-2020 3303.51 4420.70 55.36 8.00 320.31 2690.98
   05:07:35.349.24-Feb-2020 3303.51 4420.90 55.36 8.00 320.51 2690.98
   05:07:35.548.24-Feb-2020 3303.51 4421.04 55.36 8.00 320.71 2690.98
   05:07:35.748.24-Feb-2020 3303.51 4420.98 55.36 8.00 320.91 2690.98
   05:07:35.948.24-Feb-2020 3303.51 4420.98 55.36 8.00 321.11 2690.98
   05:07:36.148.24-Feb-2020 3303.51 4420.99 55.36 8.00 321.31 2690.98
   05:07:36.348.24-Feb-2020 3303.51 4421.01 55.36 8.00 321.51 2690.98
   05:07:36.548.24-Feb-2020 3303.51 4421.04 55.36 8.00 321.71 2690.98
