~Version Information
 VERS.                  2.0:   CWLS log ASCII Standard -VERSION 2.0
 WRAP.                   NO:   One line per depth step
~Well Information Block
#MNEM.UNIT     VALUE/NAME     DESCRIPTION
#---------     -----------    ---------------------------
 STRT.S             06:02:59 24-Feb-20: START TIME 06:02:59 24-Feb-20
 STOP.S             06:10:09 24-Feb-20: STOP TIME  06:10:09 24-Feb-20
 STEP.S                   0.00: STEP TIME
 NULL.                 -999.25: NULL VALUE
 JOBN.        AZ-XX-0905059384:  JOB TICKET NUMB
 PDAT.          Mean Sea Level:  PERMANENT DATUM
 UNIT.                     N/A:  LOGGING EQUIPMENT ID
 DCON.         Sperry Drilling:  DIRECTNL CONTR
 DOE .                     N/A:  DOE NUMBER
 RIG .             West Chirag:  RIG NAME
 WELL.                     J22:  WELL NAME
 MWDS.                    Baku:  MWD SHOP
 SRVC.     TURAN Drilling & Engineering:  CONTRACTOR
 FLD .                     ACG:  FIELD NAME
 CTRY.              Azerbaijan:  COUNTRY NAME
 PROV.                    Baku:  PROVINCE
 STAT.                    Baku:  STATE NAME
 REGN.                   EESSA:  REGION
 BASE.              Azerbaijan:  LOGGING EQUIPMENT BASE LOCATION
 UWI .                     N/A:  UNIQUE WELL IDENTIFIER
 API .                     N/A:  API NUMBER
 COMP.     BP Exploration (Caspian Sea) Ltd.:  COMPANY
 WTYP.                Deviated:  WELL TYPE
 MDS .        Operator Entered:  MAG DATA SOURCE
 SON .        AZ-XX-0905059384:  JOB NUMBER
 FTOP.          Formation Tops:  FORM TOPS DESC
 ILTD.               Lithology:  INTERP LTH DESC
 SVYD.                  Survey:  SURVEY DESC
 DMOD.             Drill Model:  DRILL MOD DESC
 HPTY.       Minimum Curvature:  HOLE POS TYPE
 NREF.                    Grid:  NORTH REFERENCE
 SPUD.               09-Jan-20:  SPUD DATE
 DATE.      14.04.48 07-Feb-20:  END TIME
 STIM.      07.00.00 09-Jan-20:  START TIME
 DMF .             Drill Floor:  DRILL MEAS FROM
 DFST.                        :  DIST FSL TEXT
 DFWT.                        :  DIST FWL TEXT
 CNTY.                        :  COUNTY
 LOC .                        :  LOCATION
 LMF .             Drill Floor:  LOG MEASURED FROM
 DEP .m                   0.00:  DEPTH
 VSNS.m                  10.28:  VERT SEC N/S
 VSEW.m                  -6.24:  VERT SEC E/W
 AGAP.m                  43.00:  AIR GAP
 APD .m                  43.00:  DEPTH ABOVE PD
 WDMS.m                 169.80:  WD ELEV
 EGL .m                   0.00:  GROUND ELEVATION
 EPD .m                   0.00:  ELEVATION
 AZTC.deg                 6.27:  AZM TOTAL CORR
 GRDC.deg                 0.15:  GRID CORRECTION
 MDEC.deg                 6.42:  MAGNETIC DECL
 MDIP.deg                59.56:  MAGNETIC DIP
 MFLD.nT              50277.00:  MAGNETIC FIELD
 GVFD.g                   1.00:  GRAVITY FIELD
 VSDR.deg               148.53:  VERT SEC DIRECT
 TDD .m                3473.01:  TOTAL DEPTH (DRILLER)
 SDEP.m                 364.00:  START DEPTH
 DFSL.m                   0.00:  DISTANCE FSL
 DFWL.m                   0.00:  DISTANCE FWL
 UTMY.m             4443793.85:  UTM Y
 UTMX.m              519005.06:  UTM X
 WHEW.m                  -6.24:  WELL HEAD E/W
 WHNS.m                  10.28:  WELL HEAD N/S
 LONG.deg                51.22:  LONGITUDE
 LATI.deg                40.13:  LATITUDE
 TVDS.m                  43.00:  TVDSS CORRECTN
 EKB .m                   0.00:  KB ELEVATION
 EDF .m                  43.00:  DF ELEVATION
 TDL .m                 254.00:  TOTAL DEPTH (LOGGER)
 MAGU.                 1850021:  MAGUTM CHECKSUM
 VSC .                       0:  VS TO CLOSURE
~Parameter Information Block
#MNEM.UNIT       Value        Description
#---------     -----------    ---------------------------
 AV  .mps                 0.50:  Ann Velocity 
 AVMX.mps                 1.40:  Max Ann Veloc 
 AZIF.deg               144.94:  Azm, Final 
 BHAT.        Rotary Steerable:  BHA Type 
 BROT.°/30m               0.23:  Build Rotating 
 BS  .in                  8.50:  Bit Size 
 BTPL.psig              264.00:  Bit Press Loss 
 CABU.                     Yes:  Customer Abuse 
 COMM.                     ä\:  Run Comments 1 
 TCS .hr                 87.30:  Time Ciculation Ended 
 CV  .mps                 2.45:  Crit Velocity 
 CVMX.mps                 2.74:  Max Crit Veloc 
 DD1 .             Aziz Aliyev:  Direct Drillr 1 
 DDSV.               Geo-Pilot:  DD Service 
 DEFF.%                 100.00:  % Det Eff 
 DLRX.°/30m               1.22:  Dogleg Rot Max 
 DLSO.°/30m               0.52:  Dogleg Oriented 
 DLSX.°/30m               1.22:  Dogleg Str Max 
 DRET.      12.59.00 23-Feb-20:  Drill End Time 
 DRST.      09.44.00 18-Feb-20:  Drill Start Tim 
 DTIM.hr                 23.03:  Time Drilling 
 EDEP.m                3473.01:  End Depth 
 ENG1.         Almaz Almadatov:  Engineer 1 
 ENG2.         Dair Mahammadov:  Engineer 2 
 ENG3.          Nazrin Asgarli:  Engineer 3 
 ETIM.      10.33.36 26-Feb-20:  End Time 
 FLOI.gpm               480.00:  Flow In 
 FLON.gpm               300.00:  Flow In Min 
 FLOS.cptm                1.00:  Fluid Loss 
 FLOX.gpm               550.00:  Flow In Max 
 HFLO.                      No:  High Flow 
 HPRE.                      No:  High Pressure 
 HTEM.                      No:  High Temp 
 HYDO.m                   1.80:  Hydro Offset 
 IFIN.deg                74.42:  Inc, Final 
 IMAX.deg                76.14:  Inc Max 
 IMIN.deg                74.42:  Inc Min 
 IMND.m                3462.72:  Inc Min Depth 
 IMXD.m                3235.69:  Inc Max Depth 
 JARR.                      No:  Jarring 
 LETM.      12.59.00 23-Feb-20:  Log End Time 
 LOST.hr                     0:  Lost Rig Time 
 LSTM.      09.44.00 18-Feb-20:  Log Start Time 
 MDCL.ppm             45000.00:  Mud Chlorides 
 MDES.     Inversion Oil/Synthetic:  Mud Desc 
 DFD .sg                  1.38:  Mud Density 
 MDMN.sg                  1.34:  Dens Mud Min 
 MDMX.sg                  1.49:  Dens Mud Max 
 MOIL.                      67:  Run Mud Oil % 
 MOWR.                   67:33:  Run Mud OWR 
 MSND.                    0.12:  Run Mud Sand % 
 MSOL.                      22:  Run Mud Solids% 
 DFV .spqt               81.00:  Mud Viscosity 
 MWOD.in                  6.75:  MWD Tool OD 
 MWSI.                      No:  Serv Intrp, MWD 
 OTIM.hr                231.44:  Time Operating 
 PCON.          Wear / Scratch:  Pad Condition 
 PMAX.psia             3400.00:  Press Op, Max 
 PV  .cP                 55.00:  Mud PV 
 RUN .                     800:  Run Number 
 ROPA.m/hr               12.00:  ROP Avg 
 ROPN.m/hr                5.00:  ROP Min 
 ROPX.m/hr               28.00:  ROP Max 
 RPMA.rpm               120.00:  RPM Surface Avg 
 RPMN.rpm                40.00:  RPM Surface Min 
 RPMX.rpm               130.00:  RPM Surface Max 
 RRUN.                    0800:  Rig Run Number 
 RTIM.hr                 45.00:  Time Reaming 
 SAZI.deg               145.38:  Azm, Start 
 SDEP.m                3219.01:  Start Depth 
 SIDD.                      No:  Serv Intrp, DD 
 SINC.deg                75.11:  Inc, Start 
 SPPA.psig             2400.00:  SPP Avg 
 SPPN.psig             2320.00:  SPP Min 
 SPPX.psig             3200.00:  SPP Max 
 STIM.      15.15.00 17-Feb-20:  Start Time 
 SVCS.                 DD, MWD:  Services 
 SVER.                    9.20:  Sperry Version 
 TDAT.m                 254.00:  Tot Depth Attmp 
 TDDF.                      No:  Trip for DD 
 TDLG.m                 254.00:  Tot Depth Loggd 
 TFF .                      No:  Trip for Fail 
 TQAA.f-kp               13.00:  Torque Abs Avg 
 TQAN.f-kp                7.00:  Torque Abs Min 
 TQAX.f-kp               15.00:  Torque Abs Max 
 TRRT.°/30m               0.21:  Turn Rotating 
 MRT .                  EWR-M5:  Maximum Recorded Temperature 
 TTMX.degC               64.00:  Max Tool Temp 
 VS01.                90586516:  Virtual Str1 SN 
 VS02.                90513691:  Virtual Str2 SN 
 VS03.                90586523:  Virtual Str3 SN 
 VS04.                90586520:  Virtual Str4 SN 
 VS05.                90590507:  Virtual Str5 SN 
 WBMN.klb                12.00:  WOB Min 
 WITN.           Rufat Babayev:  Customer Rep 2 
 WITN.         Alistair Sprott:  Customer Rep 
 WOBA.klb                18.00:  WOB Avg 
 WOBX.klb                30.00:  WOB Max 
 YP  .lhf2               41.00:  Yield Point 
~Curve Information Block
#MNEM.UNIT                 API CODE     Curve Description
#---------               -----------    ---------------------------
 TIME.HHMMSS            00 000 000 000:  GT Time & Date
 GTDEPTH.m              00 000 000 000:  GT Depth
 GTPQH.psia             00 000 000 000:  GT HR Quartz Pressure
 GTTQ.degC              00 000 000 000:  GT Quartz Temperature
 GTTN.NONE              00 000 000 000:  GT Test Number
 GTET.sec               00 000 000 000:  GT Elapsed Test Time
 GTTVD.m                00 000 000 000:  GT True Vertical Depth
#Other Information
#
#WARRANTY: Halliburton will use its best efforts to furnish customers with 
#accurate information and interpretations that are part of, and incident to, the services 
#provided.  However, Halliburton cannot and does not warrant the accuracy 
#or correctness of such information and interpretations.  Under no circumstances should any 
#such information or interpretation be relied upon as the sole basis for any drilling, 
#completion, production, or financial decision or any procedure involving any risk to the 
#safety of any drilling venture, drilling rig or its crew or any other third party.  The 
#Customer has full responsibility for all drilling, completion and production operation.  
#Halliburton makes no representations or warranties, either expressed or 
#implied, including, but not limited to, the implied warranties of merchantability or fitness 
#for a particular purpose, with respect to the services rendered.  In no event will 
#Halliburton be liable for failure to obtain any particular results or for 
#any damages, including, but not limited to, indirect, special or consequential damages, 
#resulting from the use of any information or interpretation provided by Halliburton.
#
~A           TIME           GTDEPTH  GTPQH  GTTQ  GTTN  GTET   GTTVD  
# ...
   06:09:53.260.24-Feb-2020 3290.31 5675.21 54.60 9.00 414.09 2687.60
   06:09:53.460.24-Feb-2020 3290.31 5675.21 54.60 9.00 414.29 2687.60
   06:09:53.660.24-Feb-2020 3290.31 5678.63 54.60 9.00 414.49 2687.60
   06:09:53.860.24-Feb-2020 3290.31 5677.99 54.60 9.00 414.69 2687.60
   06:09:54.060.24-Feb-2020 3290.31 5687.42 54.60 9.00 414.89 2687.60
   06:09:54.260.24-Feb-2020 3290.31 5676.13 54.59 9.00 415.09 2687.60
   06:09:54.460.24-Feb-2020 3290.31 5676.21 54.59 9.00 415.29 2687.60
   06:09:54.660.24-Feb-2020 3290.31 5678.91 54.59 9.00 415.49 2687.60
   06:09:54.860.24-Feb-2020 3290.31 5687.42 54.59 9.00 415.69 2687.60
   06:09:55.060.24-Feb-2020 3290.31 5675.52 54.59 9.00 415.89 2687.60
   06:09:55.260.24-Feb-2020 3290.31 5676.80 54.59 9.00 416.09 2687.60
   06:09:55.460.24-Feb-2020 3290.31 5676.80 54.59 9.00 416.29 2687.60
   06:09:55.660.24-Feb-2020 3290.31 5682.95 54.59 9.00 416.49 2687.60
   06:09:55.861.24-Feb-2020 3290.31 5680.87 54.59 9.00 416.69 2687.60
   06:09:56.061.24-Feb-2020 3290.31 5676.98 54.59 9.00 416.89 2687.60
   06:09:56.261.24-Feb-2020 3290.31 5676.82 54.59 9.00 417.09 2687.60
   06:09:56.461.24-Feb-2020 3290.31 5676.82 54.59 9.00 417.29 2687.60
   06:09:56.661.24-Feb-2020 3290.31 5678.02 54.59 9.00 417.49 2687.60
   06:09:56.861.24-Feb-2020 3290.31 5678.41 54.59 9.00 417.69 2687.60
   06:09:57.061.24-Feb-2020 3290.31 5678.64 54.59 9.00 417.89 2687.60
   06:09:57.261.24-Feb-2020 3290.31 5678.67 54.59 9.00 418.09 2687.60
   06:09:57.461.24-Feb-2020 3290.31 5678.67 54.59 9.00 418.29 2687.60
   06:09:57.661.24-Feb-2020 3290.31 5678.98 54.59 9.00 418.49 2687.60
   06:09:57.861.24-Feb-2020 3290.31 5678.72 54.59 9.00 418.69 2687.60
   06:09:58.061.24-Feb-2020 3290.31 5678.86 54.59 9.00 418.89 2687.60
   06:09:58.261.24-Feb-2020 3290.31 5678.95 54.59 9.00 419.09 2687.60
   06:09:58.461.24-Feb-2020 3290.31 5678.95 54.59 9.00 419.29 2687.60
   06:09:58.661.24-Feb-2020 3290.31 5679.33 54.59 9.00 419.49 2687.60
   06:09:58.861.24-Feb-2020 3290.31 5688.93 54.59 9.00 419.69 2687.60
   06:09:59.061.24-Feb-2020 3290.31 5677.12 54.59 9.00 419.89 2687.60
   06:09:59.261.24-Feb-2020 3290.31 5675.44 54.59 9.00 420.09 2687.60
   06:09:59.461.24-Feb-2020 3290.31 5675.44 54.59 9.00 420.29 2687.60
   06:09:59.661.24-Feb-2020 3290.31 5677.39 54.58 9.00 420.49 2687.60
   06:09:59.861.24-Feb-2020 3290.31 5678.06 54.58 9.00 420.69 2687.60
   06:10:00.061.24-Feb-2020 3290.31 5679.00 54.58 9.00 420.89 2687.60
   06:10:00.261.24-Feb-2020 3290.31 5678.25 54.58 9.00 421.09 2687.60
   06:10:00.462.24-Feb-2020 3290.31 5678.25 54.58 9.00 421.29 2687.60
   06:10:00.662.24-Feb-2020 3290.31 5678.11 54.58 9.00 421.49 2687.60
   06:10:00.862.24-Feb-2020 3290.31 5678.84 54.58 9.00 421.69 2687.60
   06:10:01.062.24-Feb-2020 3290.31 5678.07 54.58 9.00 421.89 2687.60
   06:10:01.262.24-Feb-2020 3290.31 5677.75 54.58 9.00 422.09 2687.60
   06:10:01.462.24-Feb-2020 3290.31 5677.75 54.58 9.00 422.29 2687.60
   06:10:01.662.24-Feb-2020 3290.31 5679.33 54.58 9.00 422.49 2687.60
   06:10:01.862.24-Feb-2020 3290.31 5679.56 54.58 9.00 422.69 2687.60
   06:10:02.062.24-Feb-2020 3290.31 5678.02 54.58 9.00 422.89 2687.60
   06:10:02.262.24-Feb-2020 3290.31 5686.66 54.58 9.00 423.09 2687.60
   06:10:02.462.24-Feb-2020 3290.31 5676.19 54.58 9.00 423.29 2687.60
   06:10:02.662.24-Feb-2020 3290.31 5677.38 54.58 9.00 423.49 2687.60
   06:10:02.862.24-Feb-2020 3290.31 5685.64 54.58 9.00 423.69 2687.60
   06:10:03.062.24-Feb-2020 3290.31 5690.60 54.58 9.00 423.89 2687.60
   06:10:03.262.24-Feb-2020 3290.31 5689.79 54.58 9.00 424.09 2687.60
   06:10:03.462.24-Feb-2020 3290.31 5774.52 54.58 9.00 424.29 2687.60
   06:10:03.662.24-Feb-2020 3290.31 5780.18 54.58 9.00 424.49 2687.60
   06:10:03.862.24-Feb-2020 3290.31 5678.84 54.58 9.00 424.69 2687.60
   06:10:04.062.24-Feb-2020 3290.31 5739.52 54.58 9.00 424.89 2687.60
   06:10:04.262.24-Feb-2020 3290.31 5681.63 54.58 9.00 425.09 2687.60
   06:10:04.462.24-Feb-2020 3290.31 5681.63 54.58 9.00 425.29 2687.60
   06:10:04.662.24-Feb-2020 3290.31 5683.28 54.58 9.00 425.49 2687.60
   06:10:04.862.24-Feb-2020 3290.31 5680.44 54.58 9.00 425.69 2687.60
   06:10:05.063.24-Feb-2020 3290.31 5688.16 54.57 9.00 425.89 2687.60
   06:10:05.263.24-Feb-2020 3290.31 5675.62 54.57 9.00 426.09 2687.60
   06:10:05.463.24-Feb-2020 3290.31 5675.62 54.57 9.00 426.29 2687.60
   06:10:05.663.24-Feb-2020 3290.31 5678.67 54.57 9.00 426.49 2687.60
   06:10:05.863.24-Feb-2020 3290.31 5678.23 54.57 9.00 426.69 2687.60
   06:10:06.063.24-Feb-2020 3290.31 5677.59 54.57 9.00 426.89 2687.60
   06:10:06.263.24-Feb-2020 3290.31 5677.62 54.57 9.00 427.09 2687.60
   06:10:06.463.24-Feb-2020 3290.31 5677.52 54.57 9.00 427.29 2687.60
   06:10:06.663.24-Feb-2020 3290.31 5677.69 54.57 9.00 427.49 2687.60
   06:10:06.863.24-Feb-2020 3290.31 5677.75 54.57 9.00 427.69 2687.60
   06:10:07.063.24-Feb-2020 3290.31 5677.74 54.57 9.00 427.89 2687.60
   06:10:07.263.24-Feb-2020 3290.31 5677.69 54.57 9.00 428.09 2687.60
   06:10:07.463.24-Feb-2020 3290.31 5677.69 54.57 9.00 428.29 2687.60
   06:10:07.663.24-Feb-2020 3290.31 5677.92 54.57 9.00 428.49 2687.60
   06:10:07.863.24-Feb-2020 3290.31 5678.07 54.57 9.00 428.69 2687.60
   06:10:08.063.24-Feb-2020 3290.31 5678.56 54.57 9.00 428.89 2687.60
   06:10:08.263.24-Feb-2020 3290.31 5684.71 54.57 9.00 429.09 2687.60
   06:10:08.463.24-Feb-2020 3290.31 5684.71 54.57 9.00 429.29 2687.60
   06:10:08.663.24-Feb-2020 3290.31 5675.58 54.57 9.00 429.49 2687.60
   06:10:08.863.24-Feb-2020 3290.31 5676.46 54.57 9.00 429.69 2687.60
   06:10:09.063.24-Feb-2020 3290.31 5676.44 54.57 9.00 429.89 2687.60
