~Version Information
 VERS.                  2.0:   CWLS log ASCII Standard -VERSION 2.0
 WRAP.                   NO:   One line per depth step
~Well Information Block
#MNEM.UNIT     VALUE/NAME     DESCRIPTION
#---------     -----------    ---------------------------
 STRT.S             06:21:10 24-Feb-20: START TIME 06:21:10 24-Feb-20
 STOP.S             06:29:09 24-Feb-20: STOP TIME  06:29:09 24-Feb-20
 STEP.S                   0.00: STEP TIME
 NULL.                 -999.25: NULL VALUE
 JOBN.        AZ-XX-0905059384:  JOB TICKET NUMB
 PDAT.          Mean Sea Level:  PERMANENT DATUM
 UNIT.                     N/A:  LOGGING EQUIPMENT ID
 DCON.         Sperry Drilling:  DIRECTNL CONTR
 DOE .                     N/A:  DOE NUMBER
 RIG .             West Chirag:  RIG NAME
 WELL.                     J22:  WELL NAME
 MWDS.                    Baku:  MWD SHOP
 SRVC.     TURAN Drilling & Engineering:  CONTRACTOR
 FLD .                     ACG:  FIELD NAME
 CTRY.              Azerbaijan:  COUNTRY NAME
 PROV.                    Baku:  PROVINCE
 STAT.                    Baku:  STATE NAME
 REGN.                   EESSA:  REGION
 BASE.              Azerbaijan:  LOGGING EQUIPMENT BASE LOCATION
 UWI .                     N/A:  UNIQUE WELL IDENTIFIER
 API .                     N/A:  API NUMBER
 COMP.     BP Exploration (Caspian Sea) Ltd.:  COMPANY
 WTYP.                Deviated:  WELL TYPE
 MDS .        Operator Entered:  MAG DATA SOURCE
 SON .        AZ-XX-0905059384:  JOB NUMBER
 FTOP.          Formation Tops:  FORM TOPS DESC
 ILTD.               Lithology:  INTERP LTH DESC
 SVYD.                  Survey:  SURVEY DESC
 DMOD.             Drill Model:  DRILL MOD DESC
 HPTY.       Minimum Curvature:  HOLE POS TYPE
 NREF.                    Grid:  NORTH REFERENCE
 SPUD.               09-Jan-20:  SPUD DATE
 DATE.      14.04.48 07-Feb-20:  END TIME
 STIM.      07.00.00 09-Jan-20:  START TIME
 DMF .             Drill Floor:  DRILL MEAS FROM
 DFST.                        :  DIST FSL TEXT
 DFWT.                        :  DIST FWL TEXT
 CNTY.                        :  COUNTY
 LOC .                        :  LOCATION
 LMF .             Drill Floor:  LOG MEASURED FROM
 DEP .m                   0.00:  DEPTH
 VSNS.m                  10.28:  VERT SEC N/S
 VSEW.m                  -6.24:  VERT SEC E/W
 AGAP.m                  43.00:  AIR GAP
 APD .m                  43.00:  DEPTH ABOVE PD
 WDMS.m                 169.80:  WD ELEV
 EGL .m                   0.00:  GROUND ELEVATION
 EPD .m                   0.00:  ELEVATION
 AZTC.deg                 6.27:  AZM TOTAL CORR
 GRDC.deg                 0.15:  GRID CORRECTION
 MDEC.deg                 6.42:  MAGNETIC DECL
 MDIP.deg                59.56:  MAGNETIC DIP
 MFLD.nT              50277.00:  MAGNETIC FIELD
 GVFD.g                   1.00:  GRAVITY FIELD
 VSDR.deg               148.53:  VERT SEC DIRECT
 TDD .m                3473.01:  TOTAL DEPTH (DRILLER)
 SDEP.m                 364.00:  START DEPTH
 DFSL.m                   0.00:  DISTANCE FSL
 DFWL.m                   0.00:  DISTANCE FWL
 UTMY.m             4443793.85:  UTM Y
 UTMX.m              519005.06:  UTM X
 WHEW.m                  -6.24:  WELL HEAD E/W
 WHNS.m                  10.28:  WELL HEAD N/S
 LONG.deg                51.22:  LONGITUDE
 LATI.deg                40.13:  LATITUDE
 TVDS.m                  43.00:  TVDSS CORRECTN
 EKB .m                   0.00:  KB ELEVATION
 EDF .m                  43.00:  DF ELEVATION
 TDL .m                 254.00:  TOTAL DEPTH (LOGGER)
 MAGU.                 1850021:  MAGUTM CHECKSUM
 VSC .                       0:  VS TO CLOSURE
~Parameter Information Block
#MNEM.UNIT       Value        Description
#---------     -----------    ---------------------------
 AV  .mps                 0.50:  Ann Velocity 
 AVMX.mps                 1.40:  Max Ann Veloc 
 AZIF.deg               144.94:  Azm, Final 
 BHAT.        Rotary Steerable:  BHA Type 
 BROT.°/30m               0.23:  Build Rotating 
 BS  .in                  8.50:  Bit Size 
 BTPL.psig              264.00:  Bit Press Loss 
 CABU.                     Yes:  Customer Abuse 
 COMM.                     î^:  Run Comments 1 
 TCS .hr                 87.30:  Time Ciculation Ended 
 CV  .mps                 2.45:  Crit Velocity 
 CVMX.mps                 2.74:  Max Crit Veloc 
 DD1 .             Aziz Aliyev:  Direct Drillr 1 
 DDSV.               Geo-Pilot:  DD Service 
 DEFF.%                 100.00:  % Det Eff 
 DLRX.°/30m               1.22:  Dogleg Rot Max 
 DLSO.°/30m               0.52:  Dogleg Oriented 
 DLSX.°/30m               1.22:  Dogleg Str Max 
 DRET.      12.59.00 23-Feb-20:  Drill End Time 
 DRST.      09.44.00 18-Feb-20:  Drill Start Tim 
 DTIM.hr                 23.03:  Time Drilling 
 EDEP.m                3473.01:  End Depth 
 ENG1.         Almaz Almadatov:  Engineer 1 
 ENG2.         Dair Mahammadov:  Engineer 2 
 ENG3.          Nazrin Asgarli:  Engineer 3 
 ETIM.      10.33.36 26-Feb-20:  End Time 
 FLOI.gpm               480.00:  Flow In 
 FLON.gpm               300.00:  Flow In Min 
 FLOS.cptm                1.00:  Fluid Loss 
 FLOX.gpm               550.00:  Flow In Max 
 HFLO.                      No:  High Flow 
 HPRE.                      No:  High Pressure 
 HTEM.                      No:  High Temp 
 HYDO.m                   1.80:  Hydro Offset 
 IFIN.deg                74.42:  Inc, Final 
 IMAX.deg                76.14:  Inc Max 
 IMIN.deg                74.42:  Inc Min 
 IMND.m                3462.72:  Inc Min Depth 
 IMXD.m                3235.69:  Inc Max Depth 
 JARR.                      No:  Jarring 
 LETM.      12.59.00 23-Feb-20:  Log End Time 
 LOST.hr                     0:  Lost Rig Time 
 LSTM.      09.44.00 18-Feb-20:  Log Start Time 
 MDCL.ppm             45000.00:  Mud Chlorides 
 MDES.     Inversion Oil/Synthetic:  Mud Desc 
 DFD .sg                  1.38:  Mud Density 
 MDMN.sg                  1.34:  Dens Mud Min 
 MDMX.sg                  1.49:  Dens Mud Max 
 MOIL.                      67:  Run Mud Oil % 
 MOWR.                   67:33:  Run Mud OWR 
 MSND.                    0.12:  Run Mud Sand % 
 MSOL.                      22:  Run Mud Solids% 
 DFV .spqt               81.00:  Mud Viscosity 
 MWOD.in                  6.75:  MWD Tool OD 
 MWSI.                      No:  Serv Intrp, MWD 
 OTIM.hr                231.44:  Time Operating 
 PCON.          Wear / Scratch:  Pad Condition 
 PMAX.psia             3400.00:  Press Op, Max 
 PV  .cP                 55.00:  Mud PV 
 RUN .                     800:  Run Number 
 ROPA.m/hr               12.00:  ROP Avg 
 ROPN.m/hr                5.00:  ROP Min 
 ROPX.m/hr               28.00:  ROP Max 
 RPMA.rpm               120.00:  RPM Surface Avg 
 RPMN.rpm                40.00:  RPM Surface Min 
 RPMX.rpm               130.00:  RPM Surface Max 
 RRUN.                    0800:  Rig Run Number 
 RTIM.hr                 45.00:  Time Reaming 
 SAZI.deg               145.38:  Azm, Start 
 SDEP.m                3219.01:  Start Depth 
 SIDD.                      No:  Serv Intrp, DD 
 SINC.deg                75.11:  Inc, Start 
 SPPA.psig             2400.00:  SPP Avg 
 SPPN.psig             2320.00:  SPP Min 
 SPPX.psig             3200.00:  SPP Max 
 STIM.      15.15.00 17-Feb-20:  Start Time 
 SVCS.                 DD, MWD:  Services 
 SVER.                    9.20:  Sperry Version 
 TDAT.m                 254.00:  Tot Depth Attmp 
 TDDF.                      No:  Trip for DD 
 TDLG.m                 254.00:  Tot Depth Loggd 
 TFF .                      No:  Trip for Fail 
 TQAA.f-kp               13.00:  Torque Abs Avg 
 TQAN.f-kp                7.00:  Torque Abs Min 
 TQAX.f-kp               15.00:  Torque Abs Max 
 TRRT.°/30m               0.21:  Turn Rotating 
 MRT .                  EWR-M5:  Maximum Recorded Temperature 
 TTMX.degC               64.00:  Max Tool Temp 
 VS01.                90586516:  Virtual Str1 SN 
 VS02.                90513691:  Virtual Str2 SN 
 VS03.                90586523:  Virtual Str3 SN 
 VS04.                90586520:  Virtual Str4 SN 
 VS05.                90590507:  Virtual Str5 SN 
 WBMN.klb                12.00:  WOB Min 
 WITN.           Rufat Babayev:  Customer Rep 2 
 WITN.         Alistair Sprott:  Customer Rep 
 WOBA.klb                18.00:  WOB Avg 
 WOBX.klb                30.00:  WOB Max 
 YP  .lhf2               41.00:  Yield Point 
~Curve Information Block
#MNEM.UNIT                 API CODE     Curve Description
#---------               -----------    ---------------------------
 TIME.HHMMSS            00 000 000 000:  GT Time & Date
 GTDEPTH.m              00 000 000 000:  GT Depth
 GTPQH.psia             00 000 000 000:  GT HR Quartz Pressure
 GTTQ.degC              00 000 000 000:  GT Quartz Temperature
 GTTN.NONE              00 000 000 000:  GT Test Number
 GTET.sec               00 000 000 000:  GT Elapsed Test Time
 GTTVD.m                00 000 000 000:  GT True Vertical Depth
#Other Information
#
#WARRANTY: Halliburton will use its best efforts to furnish customers with 
#accurate information and interpretations that are part of, and incident to, the services 
#provided.  However, Halliburton cannot and does not warrant the accuracy 
#or correctness of such information and interpretations.  Under no circumstances should any 
#such information or interpretation be relied upon as the sole basis for any drilling, 
#completion, production, or financial decision or any procedure involving any risk to the 
#safety of any drilling venture, drilling rig or its crew or any other third party.  The 
#Customer has full responsibility for all drilling, completion and production operation.  
#Halliburton makes no representations or warranties, either expressed or 
#implied, including, but not limited to, the implied warranties of merchantability or fitness 
#for a particular purpose, with respect to the services rendered.  In no event will 
#Halliburton be liable for failure to obtain any particular results or for 
#any damages, including, but not limited to, indirect, special or consequential damages, 
#resulting from the use of any information or interpretation provided by Halliburton.
#
~A           TIME           GTDEPTH  GTPQH  GTTQ  GTTN   GTET   GTTVD  
# ...
   06:26:49.482.24-Feb-2020 3290.51 4401.87 53.91 10.00 339.07 2687.65
   06:26:49.682.24-Feb-2020 3290.51 4401.87 53.91 10.00 339.27 2687.65
   06:26:49.882.24-Feb-2020 3290.51 4401.94 53.91 10.00 339.47 2687.65
   06:26:50.082.24-Feb-2020 3290.51 4401.93 53.91 10.00 339.67 2687.65
   06:26:50.282.24-Feb-2020 3290.51 4401.82 53.91 10.00 339.87 2687.65
   06:26:50.482.24-Feb-2020 3290.51 4402.17 53.91 10.00 340.07 2687.65
   06:26:50.682.24-Feb-2020 3290.51 4402.17 53.91 10.00 340.27 2687.65
   06:26:50.882.24-Feb-2020 3290.51 4402.40 53.91 10.00 340.47 2687.65
   06:26:51.082.24-Feb-2020 3290.51 4402.74 53.91 10.00 340.67 2687.65
   06:26:51.283.24-Feb-2020 3290.51 4402.44 53.91 10.00 340.87 2687.65
   06:26:51.483.24-Feb-2020 3290.51 4402.37 53.91 10.00 341.07 2687.65
   06:26:51.683.24-Feb-2020 3290.51 4402.37 53.91 10.00 341.27 2687.65
   06:26:51.883.24-Feb-2020 3290.51 4403.00 53.91 10.00 341.47 2687.65
   06:26:52.083.24-Feb-2020 3290.51 4403.22 53.91 10.00 341.67 2687.65
   06:26:52.283.24-Feb-2020 3290.51 4403.05 53.91 10.00 341.87 2687.65
   06:26:52.483.24-Feb-2020 3290.51 4402.73 53.91 10.00 342.07 2687.65
   06:26:52.683.24-Feb-2020 3290.51 4403.33 53.91 10.00 342.27 2687.65
   06:26:52.883.24-Feb-2020 3290.51 4403.82 53.91 10.00 342.47 2687.65
   06:26:53.083.24-Feb-2020 3290.51 4403.51 53.91 10.00 342.67 2687.65
   06:26:53.283.24-Feb-2020 3290.51 4403.00 53.91 10.00 342.87 2687.65
   06:26:53.483.24-Feb-2020 3290.51 4402.82 53.91 10.00 343.08 2687.65
   06:26:53.683.24-Feb-2020 3290.51 4402.82 53.91 10.00 343.28 2687.65
   06:26:53.883.24-Feb-2020 3290.51 4403.13 53.91 10.00 343.48 2687.65
   06:26:54.083.24-Feb-2020 3290.51 4403.52 53.91 10.00 343.68 2687.65
   06:26:54.283.24-Feb-2020 3290.51 4403.35 53.91 10.00 343.88 2687.65
   06:26:54.483.24-Feb-2020 3290.51 4402.92 53.91 10.00 344.08 2687.65
   06:26:54.683.24-Feb-2020 3290.51 4402.92 53.91 10.00 344.28 2687.65
   06:26:54.883.24-Feb-2020 3290.51 4402.56 53.91 10.00 344.48 2687.65
   06:26:55.083.24-Feb-2020 3290.51 4402.48 53.91 10.00 344.68 2687.65
   06:26:55.283.24-Feb-2020 3290.51 4402.40 53.91 10.00 344.88 2687.65
   06:26:55.483.24-Feb-2020 3290.51 4402.34 53.91 10.00 345.08 2687.65
   06:26:55.683.24-Feb-2020 3290.51 4402.34 53.91 10.00 345.28 2687.65
   06:26:55.884.24-Feb-2020 3290.51 4402.26 53.91 10.00 345.48 2687.65
   06:26:56.084.24-Feb-2020 3290.51 4402.31 53.91 10.00 345.68 2687.65
   06:26:56.284.24-Feb-2020 3290.51 4402.23 53.91 10.00 345.88 2687.65
   06:26:56.484.24-Feb-2020 3290.51 4402.21 53.91 10.00 346.08 2687.65
   06:26:56.684.24-Feb-2020 3290.51 4401.84 53.91 10.00 346.28 2687.65
   06:26:56.884.24-Feb-2020 3290.51 4402.12 53.91 10.00 346.48 2687.65
   06:26:57.084.24-Feb-2020 3290.51 4402.61 53.91 10.00 346.68 2687.65
   06:26:57.284.24-Feb-2020 3290.51 4402.85 53.91 10.00 346.88 2687.65
   06:26:57.484.24-Feb-2020 3290.51 4402.62 53.91 10.00 347.08 2687.65
   06:26:57.684.24-Feb-2020 3290.51 4402.62 53.91 10.00 347.28 2687.65
   06:26:57.884.24-Feb-2020 3290.51 4402.33 53.91 10.00 347.48 2687.65
   06:26:58.084.24-Feb-2020 3290.51 4402.32 53.91 10.00 347.68 2687.65
   06:26:58.284.24-Feb-2020 3290.51 4402.25 53.91 10.00 347.88 2687.65
   06:26:58.484.24-Feb-2020 3290.51 4402.14 53.91 10.00 348.08 2687.65
   06:26:58.684.24-Feb-2020 3290.51 4402.14 53.91 10.00 348.28 2687.65
   06:26:58.884.24-Feb-2020 3290.51 4402.13 53.91 10.00 348.48 2687.65
   06:26:59.084.24-Feb-2020 3290.51 4402.17 53.91 10.00 348.68 2687.65
   06:26:59.284.24-Feb-2020 3290.51 4402.25 53.91 10.00 348.88 2687.65
   06:26:59.484.24-Feb-2020 3290.51 4402.20 53.91 10.00 349.08 2687.65
   06:26:59.684.24-Feb-2020 3290.51 4402.20 53.91 10.00 349.28 2687.65
   06:26:59.884.24-Feb-2020 3290.51 4401.70 53.91 10.00 349.48 2687.65
   06:27:00.084.24-Feb-2020 3290.51 4402.15 53.91 10.00 349.68 2687.65
   06:27:00.284.24-Feb-2020 3290.51 4401.97 53.91 10.00 349.88 2687.65
   06:27:00.485.24-Feb-2020 3290.51 4402.61 53.91 10.00 350.08 2687.65
   06:27:00.685.24-Feb-2020 3290.51 4402.59 53.91 10.00 350.28 2687.65
   06:27:00.885.24-Feb-2020 3290.51 4402.40 53.91 10.00 350.48 2687.65
   06:27:01.085.24-Feb-2020 3290.51 4402.33 53.91 10.00 350.68 2687.65
   06:27:01.285.24-Feb-2020 3290.51 4402.66 53.91 10.00 350.88 2687.65
   06:27:01.485.24-Feb-2020 3290.51 4402.96 53.91 10.00 351.08 2687.65
   06:27:01.685.24-Feb-2020 3290.51 4402.96 53.91 10.00 351.28 2687.65
   06:27:01.885.24-Feb-2020 3290.51 4402.61 53.91 10.00 351.48 2687.65
   06:27:02.085.24-Feb-2020 3290.51 4402.80 53.91 10.00 351.68 2687.65
   06:27:02.285.24-Feb-2020 3290.51 4403.17 53.91 10.00 351.88 2687.65
   06:27:02.485.24-Feb-2020 3290.51 4403.17 53.91 10.00 352.08 2687.65
   06:27:02.685.24-Feb-2020 3290.51 4403.17 53.91 10.00 352.28 2687.65
   06:27:02.885.24-Feb-2020 3290.51 4402.57 53.91 10.00 352.48 2687.65
   06:27:03.085.24-Feb-2020 3290.51 4402.56 53.91 10.00 352.68 2687.65
   06:27:03.285.24-Feb-2020 3290.51 4402.44 53.91 10.00 352.88 2687.65
   06:27:03.485.24-Feb-2020 3290.51 4402.78 53.91 10.00 353.08 2687.65
   06:27:03.685.24-Feb-2020 3290.51 4402.78 53.91 10.00 353.28 2687.65
   06:27:03.885.24-Feb-2020 3290.51 4403.26 53.91 10.00 353.48 2687.65
   06:27:04.085.24-Feb-2020 3290.51 4403.07 53.91 10.00 353.68 2687.65
   06:27:04.285.24-Feb-2020 3290.51 4403.03 53.91 10.00 353.88 2687.65
   06:27:04.485.24-Feb-2020 3290.51 4403.45 53.91 10.00 354.08 2687.65
   06:27:04.685.24-Feb-2020 3290.51 4403.45 53.91 10.00 354.28 2687.65
   06:27:04.885.24-Feb-2020 3290.51 4407.73 53.91 10.00 354.48 2687.65
   06:27:05.086.24-Feb-2020 3290.51 4406.20 53.91 10.00 354.68 2687.65
   06:27:05.286.24-Feb-2020 3290.51 4405.08 53.91 10.00 354.88 2687.65
   06:27:05.486.24-Feb-2020 3290.51 4404.54 53.91 10.00 355.08 2687.65
   06:27:05.686.24-Feb-2020 3290.51 4404.54 53.91 10.00 355.28 2687.65
   06:27:05.886.24-Feb-2020 3290.51 4403.68 53.91 10.00 355.48 2687.65
   06:27:06.086.24-Feb-2020 3290.51 4403.31 53.91 10.00 355.68 2687.65
   06:27:06.286.24-Feb-2020 3290.51 4403.07 53.91 10.00 355.88 2687.65
   06:27:06.486.24-Feb-2020 3290.51 4403.43 53.91 10.00 356.08 2687.65
   06:27:06.686.24-Feb-2020 3290.51 4403.43 53.91 10.00 356.28 2687.65
   06:27:06.886.24-Feb-2020 3290.51 4404.12 53.91 10.00 356.48 2687.65
   06:27:07.086.24-Feb-2020 3290.51 4403.64 53.91 10.00 356.68 2687.65
   06:27:07.286.24-Feb-2020 3290.51 4403.34 53.91 10.00 356.88 2687.65
   06:27:07.486.24-Feb-2020 3290.51 4403.29 53.91 10.00 357.08 2687.65
   06:27:07.686.24-Feb-2020 3290.51 4403.29 53.91 10.00 357.28 2687.65
   06:27:07.886.24-Feb-2020 3290.51 4403.08 53.91 10.00 357.48 2687.65
   06:27:08.086.24-Feb-2020 3290.51 4402.83 53.91 10.00 357.68 2687.65
   06:27:08.286.24-Feb-2020 3290.51 4402.91 53.91 10.00 357.88 2687.65
   06:27:08.486.24-Feb-2020 3290.51 4402.94 53.91 10.00 358.08 2687.65
   06:27:08.686.24-Feb-2020 3290.51 4402.92 53.91 10.00 358.28 2687.65
   06:27:08.886.24-Feb-2020 3290.51 4402.91 53.91 10.00 358.48 2687.65
   06:27:09.086.24-Feb-2020 3290.51 4402.79 53.91 10.00 358.68 2687.65
   06:27:09.286.24-Feb-2020 3290.51 4402.70 53.91 10.00 358.88 2687.65
   06:27:09.486.24-Feb-2020 3290.51 4402.47 53.91 10.00 359.08 2687.65
   06:27:09.687.24-Feb-2020 3290.51 4402.47 53.91 10.00 359.28 2687.65
   06:27:09.887.24-Feb-2020 3290.51 4402.64 53.91 10.00 359.48 2687.65
   06:27:10.087.24-Feb-2020 3290.51 4403.58 53.91 10.00 359.68 2687.65
   06:27:10.287.24-Feb-2020 3290.51 4403.72 53.91 10.00 359.88 2687.65
   06:27:10.487.24-Feb-2020 3290.51 4403.25 53.91 10.00 360.08 2687.65
   06:27:10.687.24-Feb-2020 3290.51 4403.25 53.91 10.00 360.28 2687.65
   06:27:10.887.24-Feb-2020 3290.51 4467.21 53.91 10.00 360.48 2687.65
   06:27:11.087.24-Feb-2020 3290.51 4615.30 53.91 10.00 360.68 2687.65
   06:27:11.287.24-Feb-2020 3290.51 4539.12 53.91 10.00 360.88 2687.65
   06:27:11.487.24-Feb-2020 3290.51 4482.65 53.91 10.00 361.08 2687.65
   06:27:11.687.24-Feb-2020 3290.51 4482.65 53.91 10.00 361.28 2687.65
   06:27:11.887.24-Feb-2020 3290.51 4441.72 53.91 10.00 361.48 2687.65
