~Version Information
 VERS.                  2.0:   CWLS log ASCII Standard -VERSION 2.0
 WRAP.                   NO:   One line per depth step
~Well Information Block
#MNEM.UNIT     VALUE/NAME     DESCRIPTION
#---------     -----------    ---------------------------
 STRT.S             07:13:35 24-Feb-20: START TIME 07:13:35 24-Feb-20
 STOP.S             07:20:48 24-Feb-20: STOP TIME  07:20:48 24-Feb-20
 STEP.S                   0.00: STEP TIME
 NULL.                 -999.25: NULL VALUE
 JOBN.        AZ-XX-0905059384:  JOB TICKET NUMB
 PDAT.          Mean Sea Level:  PERMANENT DATUM
 UNIT.                     N/A:  LOGGING EQUIPMENT ID
 DCON.         Sperry Drilling:  DIRECTNL CONTR
 DOE .                     N/A:  DOE NUMBER
 RIG .             West Chirag:  RIG NAME
 WELL.                     J22:  WELL NAME
 MWDS.                    Baku:  MWD SHOP
 SRVC.     TURAN Drilling & Engineering:  CONTRACTOR
 FLD .                     ACG:  FIELD NAME
 CTRY.              Azerbaijan:  COUNTRY NAME
 PROV.                    Baku:  PROVINCE
 STAT.                    Baku:  STATE NAME
 REGN.                   EESSA:  REGION
 BASE.              Azerbaijan:  LOGGING EQUIPMENT BASE LOCATION
 UWI .                     N/A:  UNIQUE WELL IDENTIFIER
 API .                     N/A:  API NUMBER
 COMP.     BP Exploration (Caspian Sea) Ltd.:  COMPANY
 WTYP.                Deviated:  WELL TYPE
 MDS .        Operator Entered:  MAG DATA SOURCE
 SON .        AZ-XX-0905059384:  JOB NUMBER
 FTOP.          Formation Tops:  FORM TOPS DESC
 ILTD.               Lithology:  INTERP LTH DESC
 SVYD.                  Survey:  SURVEY DESC
 DMOD.             Drill Model:  DRILL MOD DESC
 HPTY.       Minimum Curvature:  HOLE POS TYPE
 NREF.                    Grid:  NORTH REFERENCE
 SPUD.               09-Jan-20:  SPUD DATE
 DATE.      14.04.48 07-Feb-20:  END TIME
 STIM.      07.00.00 09-Jan-20:  START TIME
 DMF .             Drill Floor:  DRILL MEAS FROM
 DFST.                        :  DIST FSL TEXT
 DFWT.                        :  DIST FWL TEXT
 CNTY.                        :  COUNTY
 LOC .                        :  LOCATION
 LMF .             Drill Floor:  LOG MEASURED FROM
 DEP .m                   0.00:  DEPTH
 VSNS.m                  10.28:  VERT SEC N/S
 VSEW.m                  -6.24:  VERT SEC E/W
 AGAP.m                  43.00:  AIR GAP
 APD .m                  43.00:  DEPTH ABOVE PD
 WDMS.m                 169.80:  WD ELEV
 EGL .m                   0.00:  GROUND ELEVATION
 EPD .m                   0.00:  ELEVATION
 AZTC.deg                 6.27:  AZM TOTAL CORR
 GRDC.deg                 0.15:  GRID CORRECTION
 MDEC.deg                 6.42:  MAGNETIC DECL
 MDIP.deg                59.56:  MAGNETIC DIP
 MFLD.nT              50277.00:  MAGNETIC FIELD
 GVFD.g                   1.00:  GRAVITY FIELD
 VSDR.deg               148.53:  VERT SEC DIRECT
 TDD .m                3473.01:  TOTAL DEPTH (DRILLER)
 SDEP.m                 364.00:  START DEPTH
 DFSL.m                   0.00:  DISTANCE FSL
 DFWL.m                   0.00:  DISTANCE FWL
 UTMY.m             4443793.85:  UTM Y
 UTMX.m              519005.06:  UTM X
 WHEW.m                  -6.24:  WELL HEAD E/W
 WHNS.m                  10.28:  WELL HEAD N/S
 LONG.deg                51.22:  LONGITUDE
 LATI.deg                40.13:  LATITUDE
 TVDS.m                  43.00:  TVDSS CORRECTN
 EKB .m                   0.00:  KB ELEVATION
 EDF .m                  43.00:  DF ELEVATION
 TDL .m                 254.00:  TOTAL DEPTH (LOGGER)
 MAGU.                 1850021:  MAGUTM CHECKSUM
 VSC .                       0:  VS TO CLOSURE
~Parameter Information Block
#MNEM.UNIT       Value        Description
#---------     -----------    ---------------------------
 AV  .mps                 0.50:  Ann Velocity 
 AVMX.mps                 1.40:  Max Ann Veloc 
 AZIF.deg               144.94:  Azm, Final 
 BHAT.        Rotary Steerable:  BHA Type 
 BROT.°/30m               0.23:  Build Rotating 
 BS  .in                  8.50:  Bit Size 
 BTPL.psig              264.00:  Bit Press Loss 
 CABU.                     Yes:  Customer Abuse 
 COMM.                     ëh:  Run Comments 1 
 TCS .hr                 87.30:  Time Ciculation Ended 
 CV  .mps                 2.45:  Crit Velocity 
 CVMX.mps                 2.74:  Max Crit Veloc 
 DD1 .             Aziz Aliyev:  Direct Drillr 1 
 DDSV.               Geo-Pilot:  DD Service 
 DEFF.%                 100.00:  % Det Eff 
 DLRX.°/30m               1.22:  Dogleg Rot Max 
 DLSO.°/30m               0.52:  Dogleg Oriented 
 DLSX.°/30m               1.22:  Dogleg Str Max 
 DRET.      12.59.00 23-Feb-20:  Drill End Time 
 DRST.      09.44.00 18-Feb-20:  Drill Start Tim 
 DTIM.hr                 23.03:  Time Drilling 
 EDEP.m                3473.01:  End Depth 
 ENG1.         Almaz Almadatov:  Engineer 1 
 ENG2.         Dair Mahammadov:  Engineer 2 
 ENG3.          Nazrin Asgarli:  Engineer 3 
 ETIM.      10.33.36 26-Feb-20:  End Time 
 FLOI.gpm               480.00:  Flow In 
 FLON.gpm               300.00:  Flow In Min 
 FLOS.cptm                1.00:  Fluid Loss 
 FLOX.gpm               550.00:  Flow In Max 
 HFLO.                      No:  High Flow 
 HPRE.                      No:  High Pressure 
 HTEM.                      No:  High Temp 
 HYDO.m                   1.80:  Hydro Offset 
 IFIN.deg                74.42:  Inc, Final 
 IMAX.deg                76.14:  Inc Max 
 IMIN.deg                74.42:  Inc Min 
 IMND.m                3462.72:  Inc Min Depth 
 IMXD.m                3235.69:  Inc Max Depth 
 JARR.                      No:  Jarring 
 LETM.      12.59.00 23-Feb-20:  Log End Time 
 LOST.hr                     0:  Lost Rig Time 
 LSTM.      09.44.00 18-Feb-20:  Log Start Time 
 MDCL.ppm             45000.00:  Mud Chlorides 
 MDES.     Inversion Oil/Synthetic:  Mud Desc 
 DFD .sg                  1.38:  Mud Density 
 MDMN.sg                  1.34:  Dens Mud Min 
 MDMX.sg                  1.49:  Dens Mud Max 
 MOIL.                      67:  Run Mud Oil % 
 MOWR.                   67:33:  Run Mud OWR 
 MSND.                    0.12:  Run Mud Sand % 
 MSOL.                      22:  Run Mud Solids% 
 DFV .spqt               81.00:  Mud Viscosity 
 MWOD.in                  6.75:  MWD Tool OD 
 MWSI.                      No:  Serv Intrp, MWD 
 OTIM.hr                231.44:  Time Operating 
 PCON.          Wear / Scratch:  Pad Condition 
 PMAX.psia             3400.00:  Press Op, Max 
 PV  .cP                 55.00:  Mud PV 
 RUN .                     800:  Run Number 
 ROPA.m/hr               12.00:  ROP Avg 
 ROPN.m/hr                5.00:  ROP Min 
 ROPX.m/hr               28.00:  ROP Max 
 RPMA.rpm               120.00:  RPM Surface Avg 
 RPMN.rpm                40.00:  RPM Surface Min 
 RPMX.rpm               130.00:  RPM Surface Max 
 RRUN.                    0800:  Rig Run Number 
 RTIM.hr                 45.00:  Time Reaming 
 SAZI.deg               145.38:  Azm, Start 
 SDEP.m                3219.01:  Start Depth 
 SIDD.                      No:  Serv Intrp, DD 
 SINC.deg                75.11:  Inc, Start 
 SPPA.psig             2400.00:  SPP Avg 
 SPPN.psig             2320.00:  SPP Min 
 SPPX.psig             3200.00:  SPP Max 
 STIM.      15.15.00 17-Feb-20:  Start Time 
 SVCS.                 DD, MWD:  Services 
 SVER.                    9.20:  Sperry Version 
 TDAT.m                 254.00:  Tot Depth Attmp 
 TDDF.                      No:  Trip for DD 
 TDLG.m                 254.00:  Tot Depth Loggd 
 TFF .                      No:  Trip for Fail 
 TQAA.f-kp               13.00:  Torque Abs Avg 
 TQAN.f-kp                7.00:  Torque Abs Min 
 TQAX.f-kp               15.00:  Torque Abs Max 
 TRRT.°/30m               0.21:  Turn Rotating 
 MRT .                  EWR-M5:  Maximum Recorded Temperature 
 TTMX.degC               64.00:  Max Tool Temp 
 VS01.                90586516:  Virtual Str1 SN 
 VS02.                90513691:  Virtual Str2 SN 
 VS03.                90586523:  Virtual Str3 SN 
 VS04.                90586520:  Virtual Str4 SN 
 VS05.                90590507:  Virtual Str5 SN 
 WBMN.klb                12.00:  WOB Min 
 WITN.           Rufat Babayev:  Customer Rep 2 
 WITN.         Alistair Sprott:  Customer Rep 
 WOBA.klb                18.00:  WOB Avg 
 WOBX.klb                30.00:  WOB Max 
 YP  .lhf2               41.00:  Yield Point 
~Curve Information Block
#MNEM.UNIT                 API CODE     Curve Description
#---------               -----------    ---------------------------
 TIME.HHMMSS            00 000 000 000:  GT Time & Date
 GTDEPTH.m              00 000 000 000:  GT Depth
 GTPQH.psia             00 000 000 000:  GT HR Quartz Pressure
 GTTQ.degC              00 000 000 000:  GT Quartz Temperature
 GTTN.NONE              00 000 000 000:  GT Test Number
 GTET.sec               00 000 000 000:  GT Elapsed Test Time
 GTTVD.m                00 000 000 000:  GT True Vertical Depth
#Other Information
#
#WARRANTY: Halliburton will use its best efforts to furnish customers with 
#accurate information and interpretations that are part of, and incident to, the services 
#provided.  However, Halliburton cannot and does not warrant the accuracy 
#or correctness of such information and interpretations.  Under no circumstances should any 
#such information or interpretation be relied upon as the sole basis for any drilling, 
#completion, production, or financial decision or any procedure involving any risk to the 
#safety of any drilling venture, drilling rig or its crew or any other third party.  The 
#Customer has full responsibility for all drilling, completion and production operation.  
#Halliburton makes no representations or warranties, either expressed or 
#implied, including, but not limited to, the implied warranties of merchantability or fitness 
#for a particular purpose, with respect to the services rendered.  In no event will 
#Halliburton be liable for failure to obtain any particular results or for 
#any damages, including, but not limited to, indirect, special or consequential damages, 
#resulting from the use of any information or interpretation provided by Halliburton.
#
~A           TIME           GTDEPTH  GTPQH  GTTQ  GTTN   GTET   GTTVD  
# ...
   07:15:05.400.24-Feb-2020 3225.01 4278.96 54.51 11.00  90.40 2671.15
   07:15:05.600.24-Feb-2020 3225.01 4278.96 54.51 11.00  90.60 2671.15
   07:15:05.800.24-Feb-2020 3225.01 4278.92 54.51 11.00  90.80 2671.15
   07:15:06.000.24-Feb-2020 3225.01 4278.95 54.51 11.00  91.00 2671.15
   07:15:06.200.24-Feb-2020 3225.01 4278.95 54.51 11.00  91.20 2671.15
   07:15:06.400.24-Feb-2020 3225.01 4278.95 54.51 11.00  91.40 2671.15
   07:15:06.600.24-Feb-2020 3225.01 4278.94 54.51 11.00  91.60 2671.15
   07:15:06.800.24-Feb-2020 3225.01 4279.36 54.51 11.00  91.80 2671.15
   07:15:07.000.24-Feb-2020 3225.01 4278.53 54.51 11.00  92.00 2671.15
   07:15:07.200.24-Feb-2020 3225.01 4278.85 54.51 11.00  92.20 2671.15
   07:15:07.400.24-Feb-2020 3225.01 4279.12 54.51 11.00  92.40 2671.15
   07:15:07.600.24-Feb-2020 3225.01 4278.93 54.51 11.00  92.60 2671.15
   07:15:07.800.24-Feb-2020 3225.01 4278.94 54.51 11.00  92.80 2671.15
   07:15:08.000.24-Feb-2020 3225.01 4278.96 54.51 11.00  93.00 2671.15
   07:15:08.200.24-Feb-2020 3225.01 4278.96 54.51 11.00  93.20 2671.15
   07:15:08.400.24-Feb-2020 3225.01 4278.46 54.51 11.00  93.40 2671.15
   07:15:08.600.24-Feb-2020 3225.01 4278.91 54.51 11.00  93.60 2671.15
   07:15:08.800.24-Feb-2020 3225.01 4279.07 54.51 11.00  93.80 2671.15
   07:15:09.000.24-Feb-2020 3225.01 4278.94 54.51 11.00  94.00 2671.15
   07:15:09.200.24-Feb-2020 3225.01 4278.94 54.51 11.00  94.20 2671.15
   07:15:09.400.24-Feb-2020 3225.01 4278.48 54.51 11.00  94.40 2671.15
   07:15:09.600.24-Feb-2020 3225.01 4278.85 54.51 11.00  94.60 2671.15
   07:15:09.800.24-Feb-2020 3225.01 4279.02 54.51 11.00  94.80 2671.15
   07:15:10.000.24-Feb-2020 3225.01 4278.98 54.51 11.00  95.00 2671.15
   07:15:10.200.24-Feb-2020 3225.01 4278.98 54.51 11.00  95.20 2671.15
   07:15:10.400.24-Feb-2020 3225.01 4279.05 54.51 11.00  95.40 2671.15
   07:15:10.600.24-Feb-2020 3225.01 4278.95 54.51 11.00  95.60 2671.15
   07:15:10.800.24-Feb-2020 3225.01 4278.94 54.51 11.00  95.80 2671.15
   07:15:11.000.24-Feb-2020 3225.01 4278.95 54.51 11.00  96.00 2671.15
   07:15:11.200.24-Feb-2020 3225.01 4278.95 54.51 11.00  96.20 2671.15
   07:15:11.400.24-Feb-2020 3225.01 4278.96 54.51 11.00  96.40 2671.15
   07:15:11.600.24-Feb-2020 3225.01 4278.96 54.51 11.00  96.60 2671.15
   07:15:11.800.24-Feb-2020 3225.01 4278.96 54.51 11.00  96.80 2671.15
   07:15:12.000.24-Feb-2020 3225.01 4278.95 54.51 11.00  97.00 2671.15
   07:15:12.200.24-Feb-2020 3225.01 4278.95 54.51 11.00  97.20 2671.15
   07:15:12.400.24-Feb-2020 3225.01 4278.98 54.51 11.00  97.40 2671.15
   07:15:12.600.24-Feb-2020 3225.01 4278.95 54.51 11.00  97.60 2671.15
   07:15:12.800.24-Feb-2020 3225.01 4278.95 54.51 11.00  97.80 2671.15
   07:15:13.000.24-Feb-2020 3225.01 4279.38 54.51 11.00  98.00 2671.15
   07:15:13.200.24-Feb-2020 3225.01 4279.38 54.51 11.00  98.20 2671.15
   07:15:13.400.24-Feb-2020 3225.01 4278.92 54.51 11.00  98.40 2671.15
   07:15:13.600.24-Feb-2020 3225.01 4279.06 54.51 11.00  98.60 2671.15
   07:15:13.800.24-Feb-2020 3225.01 4278.96 54.51 11.00  98.80 2671.15
   07:15:14.000.24-Feb-2020 3225.01 4278.95 54.51 11.00  99.00 2671.15
   07:15:14.200.24-Feb-2020 3225.01 4278.95 54.51 11.00  99.20 2671.15
   07:15:14.400.24-Feb-2020 3225.01 4278.94 54.51 11.00  99.40 2671.15
   07:15:14.600.24-Feb-2020 3225.01 4278.97 54.51 11.00  99.60 2671.15
   07:15:14.800.24-Feb-2020 3225.01 4278.98 54.51 11.00  99.80 2671.15
   07:15:15.000.24-Feb-2020 3225.01 4278.98 54.51 11.00 100.00 2671.15
   07:15:15.200.24-Feb-2020 3225.01 4278.94 54.51 11.00 100.20 2671.15
   07:15:15.400.24-Feb-2020 3225.01 4278.95 54.51 11.00 100.40 2671.15
   07:15:15.600.24-Feb-2020 3225.01 4278.98 54.51 11.00 100.60 2671.15
   07:15:15.800.24-Feb-2020 3225.01 4278.97 54.51 11.00 100.80 2671.15
   07:15:16.000.24-Feb-2020 3225.01 4278.95 54.51 11.00 101.00 2671.15
   07:15:16.200.24-Feb-2020 3225.01 4278.95 54.51 11.00 101.20 2671.15
   07:15:16.400.24-Feb-2020 3225.01 4279.01 54.51 11.00 101.40 2671.15
   07:15:16.600.24-Feb-2020 3225.01 4278.91 54.51 11.00 101.60 2671.15
   07:15:16.800.24-Feb-2020 3225.01 4279.05 54.51 11.00 101.80 2671.15
   07:15:17.000.24-Feb-2020 3225.01 4278.95 54.51 11.00 102.00 2671.15
   07:15:17.200.24-Feb-2020 3225.01 4278.95 54.51 11.00 102.20 2671.15
   07:15:17.400.24-Feb-2020 3225.01 4278.98 54.51 11.00 102.40 2671.15
   07:15:17.600.24-Feb-2020 3225.01 4279.37 54.51 11.00 102.60 2671.15
   07:15:17.800.24-Feb-2020 3225.01 4278.52 54.51 11.00 102.80 2671.15
   07:15:18.000.24-Feb-2020 3225.01 4278.86 54.51 11.00 103.00 2671.15
   07:15:18.200.24-Feb-2020 3225.01 4278.86 54.51 11.00 103.20 2671.15
   07:15:18.400.24-Feb-2020 3225.01 4278.95 54.51 11.00 103.40 2671.15
   07:15:18.600.24-Feb-2020 3225.01 4279.38 54.51 11.00 103.60 2671.15
   07:15:18.800.24-Feb-2020 3225.01 4278.53 54.51 11.00 103.80 2671.15
   07:15:19.000.24-Feb-2020 3225.01 4278.83 54.51 11.00 104.00 2671.15
   07:15:19.200.24-Feb-2020 3225.01 4279.12 54.51 11.00 104.20 2671.15
   07:15:19.400.24-Feb-2020 3225.01 4278.90 54.51 11.00 104.40 2671.15
   07:15:19.600.24-Feb-2020 3225.01 4279.07 54.51 11.00 104.60 2671.15
   07:15:19.800.24-Feb-2020 3225.01 4278.91 54.51 11.00 104.80 2671.15
   07:15:20.000.24-Feb-2020 3225.01 4278.98 54.51 11.00 105.00 2671.15
   07:15:20.200.24-Feb-2020 3225.01 4278.98 54.51 11.00 105.20 2671.15
   07:15:20.400.24-Feb-2020 3225.01 4278.96 54.51 11.00 105.40 2671.15
   07:15:20.600.24-Feb-2020 3225.01 4278.97 54.50 11.00 105.60 2671.15
   07:15:20.800.24-Feb-2020 3225.01 4278.97 54.51 11.00 105.80 2671.15
   07:15:21.000.24-Feb-2020 3225.01 4278.98 54.50 11.00 106.00 2671.15
   07:15:21.200.24-Feb-2020 3225.01 4278.98 54.50 11.00 106.20 2671.15
   07:15:21.400.24-Feb-2020 3225.01 4278.96 54.50 11.00 106.40 2671.15
   07:15:21.600.24-Feb-2020 3225.01 4278.97 54.50 11.00 106.60 2671.15
   07:15:21.800.24-Feb-2020 3225.01 4278.98 54.50 11.00 106.80 2671.15
   07:15:22.000.24-Feb-2020 3225.01 4278.97 54.50 11.00 107.00 2671.15
   07:15:22.200.24-Feb-2020 3225.01 4278.97 54.50 11.00 107.20 2671.15
   07:15:22.400.24-Feb-2020 3225.01 4279.33 54.50 11.00 107.40 2671.15
   07:15:22.600.24-Feb-2020 3225.01 4278.53 54.50 11.00 107.60 2671.15
   07:15:22.800.24-Feb-2020 3225.01 4278.88 54.50 11.00 107.80 2671.15
   07:15:23.000.24-Feb-2020 3225.01 4279.12 54.50 11.00 108.00 2671.15
   07:15:23.200.24-Feb-2020 3225.01 4278.97 54.50 11.00 108.20 2671.15
   07:15:23.400.24-Feb-2020 3225.01 4278.95 54.50 11.00 108.40 2671.15
   07:15:23.600.24-Feb-2020 3225.01 4278.96 54.50 11.00 108.60 2671.15
   07:15:23.800.24-Feb-2020 3225.01 4278.95 54.50 11.00 108.80 2671.15
   07:15:24.000.24-Feb-2020 3225.01 4278.97 54.50 11.00 109.00 2671.15
   07:15:24.200.24-Feb-2020 3225.01 4278.97 54.50 11.00 109.20 2671.15
   07:15:24.400.24-Feb-2020 3225.01 4278.98 54.50 11.00 109.40 2671.15
   07:15:24.600.24-Feb-2020 3225.01 4278.97 54.50 11.00 109.60 2671.15
   07:15:24.800.24-Feb-2020 3225.01 4278.95 54.50 11.00 109.80 2671.15
   07:15:25.000.24-Feb-2020 3225.01 4278.99 54.50 11.00 110.00 2671.15
   07:15:25.200.24-Feb-2020 3225.01 4278.99 54.50 11.00 110.20 2671.15
   07:15:25.400.24-Feb-2020 3225.01 4278.95 54.50 11.00 110.40 2671.15
   07:15:25.600.24-Feb-2020 3225.01 4278.97 54.50 11.00 110.60 2671.15
   07:15:25.800.24-Feb-2020 3225.01 4278.93 54.50 11.00 110.80 2671.15
   07:15:26.000.24-Feb-2020 3225.01 4279.08 54.50 11.00 111.00 2671.15
   07:15:26.200.24-Feb-2020 3225.01 4279.08 54.50 11.00 111.20 2671.15
   07:15:26.400.24-Feb-2020 3225.01 4278.97 54.50 11.00 111.40 2671.15
   07:15:26.600.24-Feb-2020 3225.01 4278.97 54.50 11.00 111.60 2671.15
   07:15:26.800.24-Feb-2020 3225.01 4278.97 54.50 11.00 111.80 2671.15
   07:15:27.000.24-Feb-2020 3225.01 4278.94 54.50 11.00 112.00 2671.15
   07:15:27.200.24-Feb-2020 3225.01 4278.99 54.50 11.00 112.20 2671.15
   07:15:27.400.24-Feb-2020 3225.01 4278.91 54.50 11.00 112.40 2671.15
   07:15:27.600.24-Feb-2020 3225.01 4279.06 54.50 11.00 112.60 2671.15
   07:15:27.800.24-Feb-2020 3225.01 4278.96 54.50 11.00 112.80 2671.15
