~Version Information
 VERS.                  2.0:   CWLS log ASCII Standard -VERSION 2.0
 WRAP.                   NO:   One line per depth step
~Well Information Block
#MNEM.UNIT     VALUE/NAME     DESCRIPTION
#---------     -----------    ---------------------------
 STRT.S             06:02:59 24-Feb-20: START TIME 06:02:59 24-Feb-20
 STOP.S             06:10:09 24-Feb-20: STOP TIME  06:10:09 24-Feb-20
 STEP.S                   0.00: STEP TIME
 NULL.                 -999.25: NULL VALUE
 JOBN.        AZ-XX-0905059384:  JOB TICKET NUMB
 PDAT.          Mean Sea Level:  PERMANENT DATUM
 UNIT.                     N/A:  LOGGING EQUIPMENT ID
 DCON.         Sperry Drilling:  DIRECTNL CONTR
 DOE .                     N/A:  DOE NUMBER
 RIG .             West Chirag:  RIG NAME
 WELL.                     J22:  WELL NAME
 MWDS.                    Baku:  MWD SHOP
 SRVC.     TURAN Drilling & Engineering:  CONTRACTOR
 FLD .                     ACG:  FIELD NAME
 CTRY.              Azerbaijan:  COUNTRY NAME
 PROV.                    Baku:  PROVINCE
 STAT.                    Baku:  STATE NAME
 REGN.                   EESSA:  REGION
 BASE.              Azerbaijan:  LOGGING EQUIPMENT BASE LOCATION
 UWI .                     N/A:  UNIQUE WELL IDENTIFIER
 API .                     N/A:  API NUMBER
 COMP.     BP Exploration (Caspian Sea) Ltd.:  COMPANY
 WTYP.                Deviated:  WELL TYPE
 MDS .        Operator Entered:  MAG DATA SOURCE
 SON .        AZ-XX-0905059384:  JOB NUMBER
 FTOP.          Formation Tops:  FORM TOPS DESC
 ILTD.               Lithology:  INTERP LTH DESC
 SVYD.                  Survey:  SURVEY DESC
 DMOD.             Drill Model:  DRILL MOD DESC
 HPTY.       Minimum Curvature:  HOLE POS TYPE
 NREF.                    Grid:  NORTH REFERENCE
 SPUD.               09-Jan-20:  SPUD DATE
 DATE.      14.04.48 07-Feb-20:  END TIME
 STIM.      07.00.00 09-Jan-20:  START TIME
 DMF .             Drill Floor:  DRILL MEAS FROM
 DFST.                        :  DIST FSL TEXT
 DFWT.                        :  DIST FWL TEXT
 CNTY.                        :  COUNTY
 LOC .                        :  LOCATION
 LMF .             Drill Floor:  LOG MEASURED FROM
 DEP .m                   0.00:  DEPTH
 VSNS.m                  10.28:  VERT SEC N/S
 VSEW.m                  -6.24:  VERT SEC E/W
 AGAP.m                  43.00:  AIR GAP
 APD .m                  43.00:  DEPTH ABOVE PD
 WDMS.m                 169.80:  WD ELEV
 EGL .m                   0.00:  GROUND ELEVATION
 EPD .m                   0.00:  ELEVATION
 AZTC.deg                 6.27:  AZM TOTAL CORR
 GRDC.deg                 0.15:  GRID CORRECTION
 MDEC.deg                 6.42:  MAGNETIC DECL
 MDIP.deg                59.56:  MAGNETIC DIP
 MFLD.nT              50277.00:  MAGNETIC FIELD
 GVFD.g                   1.00:  GRAVITY FIELD
 VSDR.deg               148.53:  VERT SEC DIRECT
 TDD .m                3473.01:  TOTAL DEPTH (DRILLER)
 SDEP.m                 364.00:  START DEPTH
 DFSL.m                   0.00:  DISTANCE FSL
 DFWL.m                   0.00:  DISTANCE FWL
 UTMY.m             4443793.85:  UTM Y
 UTMX.m              519005.06:  UTM X
 WHEW.m                  -6.24:  WELL HEAD E/W
 WHNS.m                  10.28:  WELL HEAD N/S
 LONG.deg                51.22:  LONGITUDE
 LATI.deg                40.13:  LATITUDE
 TVDS.m                  43.00:  TVDSS CORRECTN
 EKB .m                   0.00:  KB ELEVATION
 EDF .m                  43.00:  DF ELEVATION
 TDL .m                 254.00:  TOTAL DEPTH (LOGGER)
 MAGU.                 1850021:  MAGUTM CHECKSUM
 VSC .                       0:  VS TO CLOSURE
~Parameter Information Block
#MNEM.UNIT       Value        Description
#---------     -----------    ---------------------------
 AV  .mps                 0.50:  Ann Velocity 
 AVMX.mps                 1.40:  Max Ann Veloc 
 AZIF.deg               144.94:  Azm, Final 
 BHAT.        Rotary Steerable:  BHA Type 
 BROT.°/30m               0.23:  Build Rotating 
 BS  .in                  8.50:  Bit Size 
 BTPL.psig              264.00:  Bit Press Loss 
 CABU.                     Yes:  Customer Abuse 
 COMM.                     ä\:  Run Comments 1 
 TCS .hr                 87.30:  Time Ciculation Ended 
 CV  .mps                 2.45:  Crit Velocity 
 CVMX.mps                 2.74:  Max Crit Veloc 
 DD1 .             Aziz Aliyev:  Direct Drillr 1 
 DDSV.               Geo-Pilot:  DD Service 
 DEFF.%                 100.00:  % Det Eff 
 DLRX.°/30m               1.22:  Dogleg Rot Max 
 DLSO.°/30m               0.52:  Dogleg Oriented 
 DLSX.°/30m               1.22:  Dogleg Str Max 
 DRET.      12.59.00 23-Feb-20:  Drill End Time 
 DRST.      09.44.00 18-Feb-20:  Drill Start Tim 
 DTIM.hr                 23.03:  Time Drilling 
 EDEP.m                3473.01:  End Depth 
 ENG1.         Almaz Almadatov:  Engineer 1 
 ENG2.         Dair Mahammadov:  Engineer 2 
 ENG3.          Nazrin Asgarli:  Engineer 3 
 ETIM.      10.33.36 26-Feb-20:  End Time 
 FLOI.gpm               480.00:  Flow In 
 FLON.gpm               300.00:  Flow In Min 
 FLOS.cptm                1.00:  Fluid Loss 
 FLOX.gpm               550.00:  Flow In Max 
 HFLO.                      No:  High Flow 
 HPRE.                      No:  High Pressure 
 HTEM.                      No:  High Temp 
 HYDO.m                   1.80:  Hydro Offset 
 IFIN.deg                74.42:  Inc, Final 
 IMAX.deg                76.14:  Inc Max 
 IMIN.deg                74.42:  Inc Min 
 IMND.m                3462.72:  Inc Min Depth 
 IMXD.m                3235.69:  Inc Max Depth 
 JARR.                      No:  Jarring 
 LETM.      12.59.00 23-Feb-20:  Log End Time 
 LOST.hr                     0:  Lost Rig Time 
 LSTM.      09.44.00 18-Feb-20:  Log Start Time 
 MDCL.ppm             45000.00:  Mud Chlorides 
 MDES.     Inversion Oil/Synthetic:  Mud Desc 
 DFD .sg                  1.38:  Mud Density 
 MDMN.sg                  1.34:  Dens Mud Min 
 MDMX.sg                  1.49:  Dens Mud Max 
 MOIL.                      67:  Run Mud Oil % 
 MOWR.                   67:33:  Run Mud OWR 
 MSND.                    0.12:  Run Mud Sand % 
 MSOL.                      22:  Run Mud Solids% 
 DFV .spqt               81.00:  Mud Viscosity 
 MWOD.in                  6.75:  MWD Tool OD 
 MWSI.                      No:  Serv Intrp, MWD 
 OTIM.hr                231.44:  Time Operating 
 PCON.          Wear / Scratch:  Pad Condition 
 PMAX.psia             3400.00:  Press Op, Max 
 PV  .cP                 55.00:  Mud PV 
 RUN .                     800:  Run Number 
 ROPA.m/hr               12.00:  ROP Avg 
 ROPN.m/hr                5.00:  ROP Min 
 ROPX.m/hr               28.00:  ROP Max 
 RPMA.rpm               120.00:  RPM Surface Avg 
 RPMN.rpm                40.00:  RPM Surface Min 
 RPMX.rpm               130.00:  RPM Surface Max 
 RRUN.                    0800:  Rig Run Number 
 RTIM.hr                 45.00:  Time Reaming 
 SAZI.deg               145.38:  Azm, Start 
 SDEP.m                3219.01:  Start Depth 
 SIDD.                      No:  Serv Intrp, DD 
 SINC.deg                75.11:  Inc, Start 
 SPPA.psig             2400.00:  SPP Avg 
 SPPN.psig             2320.00:  SPP Min 
 SPPX.psig             3200.00:  SPP Max 
 STIM.      15.15.00 17-Feb-20:  Start Time 
 SVCS.                 DD, MWD:  Services 
 SVER.                    9.20:  Sperry Version 
 TDAT.m                 254.00:  Tot Depth Attmp 
 TDDF.                      No:  Trip for DD 
 TDLG.m                 254.00:  Tot Depth Loggd 
 TFF .                      No:  Trip for Fail 
 TQAA.f-kp               13.00:  Torque Abs Avg 
 TQAN.f-kp                7.00:  Torque Abs Min 
 TQAX.f-kp               15.00:  Torque Abs Max 
 TRRT.°/30m               0.21:  Turn Rotating 
 MRT .                  EWR-M5:  Maximum Recorded Temperature 
 TTMX.degC               64.00:  Max Tool Temp 
 VS01.                90586516:  Virtual Str1 SN 
 VS02.                90513691:  Virtual Str2 SN 
 VS03.                90586523:  Virtual Str3 SN 
 VS04.                90586520:  Virtual Str4 SN 
 VS05.                90590507:  Virtual Str5 SN 
 WBMN.klb                12.00:  WOB Min 
 WITN.           Rufat Babayev:  Customer Rep 2 
 WITN.         Alistair Sprott:  Customer Rep 
 WOBA.klb                18.00:  WOB Avg 
 WOBX.klb                30.00:  WOB Max 
 YP  .lhf2               41.00:  Yield Point 
~Curve Information Block
#MNEM.UNIT                 API CODE     Curve Description
#---------               -----------    ---------------------------
 TIME.HHMMSS            00 000 000 000:  GT Time & Date
 GTDEPTH.m              00 000 000 000:  GT Depth
 GTPQH.psia             00 000 000 000:  GT HR Quartz Pressure
 GTTQ.degC              00 000 000 000:  GT Quartz Temperature
 GTTN.NONE              00 000 000 000:  GT Test Number
 GTET.sec               00 000 000 000:  GT Elapsed Test Time
 GTTVD.m                00 000 000 000:  GT True Vertical Depth
#Other Information
#
#WARRANTY: Halliburton will use its best efforts to furnish customers with 
#accurate information and interpretations that are part of, and incident to, the services 
#provided.  However, Halliburton cannot and does not warrant the accuracy 
#or correctness of such information and interpretations.  Under no circumstances should any 
#such information or interpretation be relied upon as the sole basis for any drilling, 
#completion, production, or financial decision or any procedure involving any risk to the 
#safety of any drilling venture, drilling rig or its crew or any other third party.  The 
#Customer has full responsibility for all drilling, completion and production operation.  
#Halliburton makes no representations or warranties, either expressed or 
#implied, including, but not limited to, the implied warranties of merchantability or fitness 
#for a particular purpose, with respect to the services rendered.  In no event will 
#Halliburton be liable for failure to obtain any particular results or for 
#any damages, including, but not limited to, indirect, special or consequential damages, 
#resulting from the use of any information or interpretation provided by Halliburton.
#
~A           TIME           GTDEPTH  GTPQH  GTTQ  GTTN  GTET   GTTVD  
# ...
   06:04:31.190.24-Feb-2020 3290.31   45.56 54.58 9.00  92.02 2687.60
   06:04:31.390.24-Feb-2020 3290.31   45.56 54.58 9.00  92.22 2687.60
   06:04:31.590.24-Feb-2020 3290.31   45.79 54.58 9.00  92.42 2687.60
   06:04:31.790.24-Feb-2020 3290.31   45.91 54.58 9.00  92.62 2687.60
   06:04:31.990.24-Feb-2020 3290.31   46.03 54.58 9.00  92.82 2687.60
   06:04:32.190.24-Feb-2020 3290.31   46.14 54.58 9.00  93.02 2687.60
   06:04:32.390.24-Feb-2020 3290.31   46.14 54.58 9.00  93.22 2687.60
   06:04:32.590.24-Feb-2020 3290.31   46.37 54.58 9.00  93.42 2687.60
   06:04:32.790.24-Feb-2020 3290.31   46.48 54.58 9.00  93.62 2687.60
   06:04:32.990.24-Feb-2020 3290.31   46.59 54.58 9.00  93.82 2687.60
   06:04:33.190.24-Feb-2020 3290.31   46.70 54.58 9.00  94.02 2687.60
   06:04:33.390.24-Feb-2020 3290.31   46.70 54.58 9.00  94.22 2687.60
   06:04:33.590.24-Feb-2020 3290.31   46.91 54.58 9.00  94.42 2687.60
   06:04:33.790.24-Feb-2020 3290.31   47.02 54.58 9.00  94.62 2687.60
   06:04:33.990.24-Feb-2020 3290.31   47.13 54.59 9.00  94.82 2687.60
   06:04:34.190.24-Feb-2020 3290.31   47.24 54.59 9.00  95.02 2687.60
   06:04:34.390.24-Feb-2020 3290.31   47.34 54.59 9.00  95.22 2687.60
   06:04:34.590.24-Feb-2020 3290.31   47.45 54.59 9.00  95.42 2687.60
   06:04:34.790.24-Feb-2020 3290.31   47.56 54.59 9.00  95.62 2687.60
   06:04:34.990.24-Feb-2020 3290.31   47.66 54.59 9.00  95.82 2687.60
   06:04:35.190.24-Feb-2020 3290.31   47.75 54.59 9.00  96.02 2687.60
   06:04:35.390.24-Feb-2020 3290.31   47.75 54.59 9.00  96.22 2687.60
   06:04:35.590.24-Feb-2020 3290.31   47.96 54.59 9.00  96.42 2687.60
   06:04:35.791.24-Feb-2020 3290.31   48.06 54.59 9.00  96.62 2687.60
   06:04:35.991.24-Feb-2020 3290.31   48.17 54.59 9.00  96.82 2687.60
   06:04:36.191.24-Feb-2020 3290.31   48.26 54.59 9.00  97.02 2687.60
   06:04:36.391.24-Feb-2020 3290.31   48.26 54.59 9.00  97.22 2687.60
   06:04:36.591.24-Feb-2020 3290.31   48.45 54.59 9.00  97.42 2687.60
   06:04:36.791.24-Feb-2020 3290.31   48.56 54.59 9.00  97.62 2687.60
   06:04:36.991.24-Feb-2020 3290.31   48.65 54.59 9.00  97.82 2687.60
   06:04:37.191.24-Feb-2020 3290.31   48.75 54.59 9.00  98.02 2687.60
   06:04:37.391.24-Feb-2020 3290.31   48.75 54.59 9.00  98.22 2687.60
   06:04:37.591.24-Feb-2020 3290.31   48.95 54.59 9.00  98.42 2687.60
   06:04:37.791.24-Feb-2020 3290.31   49.04 54.59 9.00  98.62 2687.60
   06:04:37.991.24-Feb-2020 3290.31   49.14 54.59 9.00  98.82 2687.60
   06:04:38.191.24-Feb-2020 3290.31   49.23 54.59 9.00  99.02 2687.60
   06:04:38.391.24-Feb-2020 3290.31   49.32 54.59 9.00  99.22 2687.60
   06:04:38.591.24-Feb-2020 3290.31   49.42 54.59 9.00  99.42 2687.60
   06:04:38.791.24-Feb-2020 3290.31   49.51 54.59 9.00  99.62 2687.60
   06:04:38.991.24-Feb-2020 3290.31   49.61 54.59 9.00  99.82 2687.60
   06:04:39.191.24-Feb-2020 3290.31   49.69 54.59 9.00 100.02 2687.60
   06:04:39.391.24-Feb-2020 3290.31   49.69 54.59 9.00 100.22 2687.60
   06:04:39.591.24-Feb-2020 3290.31   49.86 54.59 9.00 100.42 2687.60
   06:04:39.791.24-Feb-2020 3290.31   49.96 54.59 9.00 100.62 2687.60
   06:04:39.991.24-Feb-2020 3290.31   50.05 54.59 9.00 100.82 2687.60
   06:04:40.191.24-Feb-2020 3290.31   50.14 54.59 9.00 101.02 2687.60
   06:04:40.392.24-Feb-2020 3290.31   50.14 54.59 9.00 101.22 2687.60
   06:04:40.592.24-Feb-2020 3290.31   50.31 54.59 9.00 101.42 2687.60
   06:04:40.792.24-Feb-2020 3290.31   50.40 54.59 9.00 101.62 2687.60
   06:04:40.992.24-Feb-2020 3290.31   50.49 54.59 9.00 101.82 2687.60
   06:04:41.192.24-Feb-2020 3290.31   50.57 54.59 9.00 102.02 2687.60
   06:04:41.392.24-Feb-2020 3290.31   50.57 54.59 9.00 102.22 2687.60
   06:04:41.592.24-Feb-2020 3290.31   50.75 54.59 9.00 102.42 2687.60
   06:04:41.792.24-Feb-2020 3290.31   50.83 54.59 9.00 102.62 2687.60
   06:04:41.992.24-Feb-2020 3290.31   50.91 54.59 9.00 102.82 2687.60
   06:04:42.192.24-Feb-2020 3290.31   50.99 54.59 9.00 103.02 2687.60
   06:04:42.392.24-Feb-2020 3290.31   51.08 54.59 9.00 103.22 2687.60
   06:04:42.592.24-Feb-2020 3290.31   51.15 54.59 9.00 103.42 2687.60
   06:04:42.792.24-Feb-2020 3290.31   51.24 54.59 9.00 103.62 2687.60
   06:04:42.992.24-Feb-2020 3290.31   51.32 54.59 9.00 103.82 2687.60
   06:04:43.192.24-Feb-2020 3290.31   51.40 54.59 9.00 104.02 2687.60
   06:04:43.392.24-Feb-2020 3290.31   51.40 54.59 9.00 104.22 2687.60
   06:04:43.592.24-Feb-2020 3290.31   51.57 54.59 9.00 104.42 2687.60
   06:04:43.792.24-Feb-2020 3290.31   51.65 54.59 9.00 104.62 2687.60
   06:04:43.992.24-Feb-2020 3290.31   51.72 54.59 9.00 104.82 2687.60
   06:04:44.192.24-Feb-2020 3290.31   51.81 54.59 9.00 105.02 2687.60
   06:04:44.392.24-Feb-2020 3290.31   51.81 54.59 9.00 105.22 2687.60
   06:04:44.592.24-Feb-2020 3290.31   51.96 54.59 9.00 105.42 2687.60
   06:04:44.793.24-Feb-2020 3290.31   52.05 54.59 9.00 105.62 2687.60
   06:04:44.993.24-Feb-2020 3290.31   52.12 54.59 9.00 105.82 2687.60
   06:04:45.193.24-Feb-2020 3290.31   52.20 54.59 9.00 106.02 2687.60
   06:04:45.393.24-Feb-2020 3290.31   52.20 54.59 9.00 106.22 2687.60
   06:04:45.593.24-Feb-2020 3290.31   52.36 54.59 9.00 106.42 2687.60
   06:04:45.793.24-Feb-2020 3290.31   52.44 54.59 9.00 106.62 2687.60
   06:04:45.993.24-Feb-2020 3290.31   52.51 54.59 9.00 106.82 2687.60
   06:04:46.193.24-Feb-2020 3290.31   52.59 54.59 9.00 107.02 2687.60
   06:04:46.393.24-Feb-2020 3290.31   52.66 54.59 9.00 107.22 2687.60
   06:04:46.593.24-Feb-2020 3290.31   52.74 54.59 9.00 107.42 2687.60
   06:04:46.793.24-Feb-2020 3290.31   52.82 54.59 9.00 107.62 2687.60
   06:04:46.993.24-Feb-2020 3290.31   52.90 54.59 9.00 107.82 2687.60
   06:04:47.193.24-Feb-2020 3290.31   52.96 54.59 9.00 108.02 2687.60
   06:04:47.393.24-Feb-2020 3290.31   52.96 54.59 9.00 108.22 2687.60
   06:04:47.593.24-Feb-2020 3290.31   53.12 54.59 9.00 108.42 2687.60
   06:04:47.793.24-Feb-2020 3290.31   53.19 54.59 9.00 108.62 2687.60
   06:04:47.993.24-Feb-2020 3290.31   53.27 54.59 9.00 108.82 2687.60
   06:04:48.193.24-Feb-2020 3290.31   53.33 54.59 9.00 109.02 2687.60
   06:04:48.393.24-Feb-2020 3290.31   53.41 54.59 9.00 109.22 2687.60
   06:04:48.593.24-Feb-2020 3290.31   53.47 54.59 9.00 109.42 2687.60
   06:04:48.793.24-Feb-2020 3290.31   53.55 54.59 9.00 109.62 2687.60
   06:04:48.993.24-Feb-2020 3290.31   53.63 54.59 9.00 109.82 2687.60
   06:04:49.193.24-Feb-2020 3290.31   53.69 54.59 9.00 110.02 2687.60
   06:04:49.394.24-Feb-2020 3290.31   53.69 54.59 9.00 110.22 2687.60
   06:04:49.594.24-Feb-2020 3290.31   53.84 54.59 9.00 110.42 2687.60
   06:04:49.794.24-Feb-2020 3290.31   53.91 54.59 9.00 110.62 2687.60
   06:04:49.994.24-Feb-2020 3290.31   53.98 54.59 9.00 110.82 2687.60
   06:04:50.194.24-Feb-2020 3290.31   54.05 54.59 9.00 111.02 2687.60
   06:04:50.394.24-Feb-2020 3290.31   54.12 54.60 9.00 111.22 2687.60
   06:04:50.594.24-Feb-2020 3290.31   54.19 54.59 9.00 111.42 2687.60
   06:04:50.794.24-Feb-2020 3290.31   54.26 54.60 9.00 111.62 2687.60
   06:04:50.994.24-Feb-2020 3290.31   54.33 54.60 9.00 111.82 2687.60
   06:04:51.194.24-Feb-2020 3290.31   54.41 54.60 9.00 112.02 2687.60
   06:04:51.394.24-Feb-2020 3290.31   54.41 54.60 9.00 112.22 2687.60
   06:04:51.594.24-Feb-2020 3290.31   54.55 54.60 9.00 112.42 2687.60
   06:04:51.794.24-Feb-2020 3290.31   54.60 54.60 9.00 112.62 2687.60
   06:04:51.994.24-Feb-2020 3290.31   54.68 54.60 9.00 112.82 2687.60
   06:04:52.194.24-Feb-2020 3290.31   54.74 54.60 9.00 113.02 2687.60
   06:04:52.394.24-Feb-2020 3290.31   54.74 54.60 9.00 113.22 2687.60
   06:04:52.594.24-Feb-2020 3290.31   54.88 54.60 9.00 113.42 2687.60
   06:04:52.794.24-Feb-2020 3290.31   54.95 54.60 9.00 113.62 2687.60
   06:04:52.994.24-Feb-2020 3290.31   55.02 54.60 9.00 113.82 2687.60
   06:04:53.194.24-Feb-2020 3290.31   55.10 54.60 9.00 114.02 2687.60
   06:04:53.394.24-Feb-2020 3290.31   55.10 54.60 9.00 114.22 2687.60
   06:04:53.594.24-Feb-2020 3290.31   55.23 54.60 9.00 114.43 2687.60
   06:04:53.794.24-Feb-2020 3290.31   55.30 54.60 9.00 114.63 2687.60
   06:04:53.995.24-Feb-2020 3290.31   55.39 54.60 9.00 114.83 2687.60
