~Version Information
 VERS.                  2.0:   CWLS log ASCII Standard -VERSION 2.0
 WRAP.                   NO:   One line per depth step
~Well Information Block
#MNEM.UNIT     VALUE/NAME     DESCRIPTION
#---------     -----------    ---------------------------
 STRT.S             01:46:16 24-Feb-20: START TIME 01:46:16 24-Feb-20
 STOP.S             01:53:27 24-Feb-20: STOP TIME  01:53:27 24-Feb-20
 STEP.S                   0.00: STEP TIME
 NULL.                 -999.25: NULL VALUE
 JOBN.        AZ-XX-0905059384:  JOB TICKET NUMB
 PDAT.          Mean Sea Level:  PERMANENT DATUM
 UNIT.                     N/A:  LOGGING EQUIPMENT ID
 DCON.         Sperry Drilling:  DIRECTNL CONTR
 DOE .                     N/A:  DOE NUMBER
 RIG .             West Chirag:  RIG NAME
 WELL.                     J22:  WELL NAME
 MWDS.                    Baku:  MWD SHOP
 SRVC.     TURAN Drilling & Engineering:  CONTRACTOR
 FLD .                     ACG:  FIELD NAME
 CTRY.              Azerbaijan:  COUNTRY NAME
 PROV.                    Baku:  PROVINCE
 STAT.                    Baku:  STATE NAME
 REGN.                   EESSA:  REGION
 BASE.              Azerbaijan:  LOGGING EQUIPMENT BASE LOCATION
 UWI .                     N/A:  UNIQUE WELL IDENTIFIER
 API .                     N/A:  API NUMBER
 COMP.     BP Exploration (Caspian Sea) Ltd.:  COMPANY
 WTYP.                Deviated:  WELL TYPE
 MDS .        Operator Entered:  MAG DATA SOURCE
 SON .        AZ-XX-0905059384:  JOB NUMBER
 FTOP.          Formation Tops:  FORM TOPS DESC
 ILTD.               Lithology:  INTERP LTH DESC
 SVYD.                  Survey:  SURVEY DESC
 DMOD.             Drill Model:  DRILL MOD DESC
 HPTY.       Minimum Curvature:  HOLE POS TYPE
 NREF.                    Grid:  NORTH REFERENCE
 SPUD.               09-Jan-20:  SPUD DATE
 DATE.      14.04.48 07-Feb-20:  END TIME
 STIM.      07.00.00 09-Jan-20:  START TIME
 DMF .             Drill Floor:  DRILL MEAS FROM
 DFST.                        :  DIST FSL TEXT
 DFWT.                        :  DIST FWL TEXT
 CNTY.                        :  COUNTY
 LOC .                        :  LOCATION
 LMF .             Drill Floor:  LOG MEASURED FROM
 DEP .m                   0.00:  DEPTH
 VSNS.m                  10.28:  VERT SEC N/S
 VSEW.m                  -6.24:  VERT SEC E/W
 AGAP.m                  43.00:  AIR GAP
 APD .m                  43.00:  DEPTH ABOVE PD
 WDMS.m                 169.80:  WD ELEV
 EGL .m                   0.00:  GROUND ELEVATION
 EPD .m                   0.00:  ELEVATION
 AZTC.deg                 6.27:  AZM TOTAL CORR
 GRDC.deg                 0.15:  GRID CORRECTION
 MDEC.deg                 6.42:  MAGNETIC DECL
 MDIP.deg                59.56:  MAGNETIC DIP
 MFLD.nT              50277.00:  MAGNETIC FIELD
 GVFD.g                   1.00:  GRAVITY FIELD
 VSDR.deg               148.53:  VERT SEC DIRECT
 TDD .m                3473.01:  TOTAL DEPTH (DRILLER)
 SDEP.m                 364.00:  START DEPTH
 DFSL.m                   0.00:  DISTANCE FSL
 DFWL.m                   0.00:  DISTANCE FWL
 UTMY.m             4443793.85:  UTM Y
 UTMX.m              519005.06:  UTM X
 WHEW.m                  -6.24:  WELL HEAD E/W
 WHNS.m                  10.28:  WELL HEAD N/S
 LONG.deg                51.22:  LONGITUDE
 LATI.deg                40.13:  LATITUDE
 TVDS.m                  43.00:  TVDSS CORRECTN
 EKB .m                   0.00:  KB ELEVATION
 EDF .m                  43.00:  DF ELEVATION
 TDL .m                 254.00:  TOTAL DEPTH (LOGGER)
 MAGU.                 1850021:  MAGUTM CHECKSUM
 VSC .                       0:  VS TO CLOSURE
~Parameter Information Block
#MNEM.UNIT       Value        Description
#---------     -----------    ---------------------------
 AV  .mps                 0.50:  Ann Velocity 
 AVMX.mps                 1.40:  Max Ann Veloc 
 AZIF.deg               144.94:  Azm, Final 
 BHAT.        Rotary Steerable:  BHA Type 
 BROT.°/30m               0.23:  Build Rotating 
 BS  .in                  8.50:  Bit Size 
 BTPL.psig              264.00:  Bit Press Loss 
 CABU.                     Yes:  Customer Abuse 
 COMM.                     $æx:  Run Comments 1 
 TCS .hr                 87.30:  Time Ciculation Ended 
 CV  .mps                 2.45:  Crit Velocity 
 CVMX.mps                 2.74:  Max Crit Veloc 
 DD1 .             Aziz Aliyev:  Direct Drillr 1 
 DDSV.               Geo-Pilot:  DD Service 
 DEFF.%                 100.00:  % Det Eff 
 DLRX.°/30m               1.22:  Dogleg Rot Max 
 DLSO.°/30m               0.52:  Dogleg Oriented 
 DLSX.°/30m               1.22:  Dogleg Str Max 
 DRET.      12.59.00 23-Feb-20:  Drill End Time 
 DRST.      09.44.00 18-Feb-20:  Drill Start Tim 
 DTIM.hr                 23.03:  Time Drilling 
 EDEP.m                3473.01:  End Depth 
 ENG1.         Almaz Almadatov:  Engineer 1 
 ENG2.         Dair Mahammadov:  Engineer 2 
 ENG3.          Nazrin Asgarli:  Engineer 3 
 ETIM.      10.33.36 26-Feb-20:  End Time 
 FLOI.gpm               480.00:  Flow In 
 FLON.gpm               300.00:  Flow In Min 
 FLOS.cptm                1.00:  Fluid Loss 
 FLOX.gpm               550.00:  Flow In Max 
 HFLO.                      No:  High Flow 
 HPRE.                      No:  High Pressure 
 HTEM.                      No:  High Temp 
 HYDO.m                   1.80:  Hydro Offset 
 IFIN.deg                74.42:  Inc, Final 
 IMAX.deg                76.14:  Inc Max 
 IMIN.deg                74.42:  Inc Min 
 IMND.m                3462.72:  Inc Min Depth 
 IMXD.m                3235.69:  Inc Max Depth 
 JARR.                      No:  Jarring 
 LETM.      12.59.00 23-Feb-20:  Log End Time 
 LOST.hr                     0:  Lost Rig Time 
 LSTM.      09.44.00 18-Feb-20:  Log Start Time 
 MDCL.ppm             45000.00:  Mud Chlorides 
 MDES.     Inversion Oil/Synthetic:  Mud Desc 
 DFD .sg                  1.38:  Mud Density 
 MDMN.sg                  1.34:  Dens Mud Min 
 MDMX.sg                  1.49:  Dens Mud Max 
 MOIL.                      67:  Run Mud Oil % 
 MOWR.                   67:33:  Run Mud OWR 
 MSND.                    0.12:  Run Mud Sand % 
 MSOL.                      22:  Run Mud Solids% 
 DFV .spqt               81.00:  Mud Viscosity 
 MWOD.in                  6.75:  MWD Tool OD 
 MWSI.                      No:  Serv Intrp, MWD 
 OTIM.hr                231.44:  Time Operating 
 PCON.          Wear / Scratch:  Pad Condition 
 PMAX.psia             3400.00:  Press Op, Max 
 PV  .cP                 55.00:  Mud PV 
 RUN .                     800:  Run Number 
 ROPA.m/hr               12.00:  ROP Avg 
 ROPN.m/hr                5.00:  ROP Min 
 ROPX.m/hr               28.00:  ROP Max 
 RPMA.rpm               120.00:  RPM Surface Avg 
 RPMN.rpm                40.00:  RPM Surface Min 
 RPMX.rpm               130.00:  RPM Surface Max 
 RRUN.                    0800:  Rig Run Number 
 RTIM.hr                 45.00:  Time Reaming 
 SAZI.deg               145.38:  Azm, Start 
 SDEP.m                3219.01:  Start Depth 
 SIDD.                      No:  Serv Intrp, DD 
 SINC.deg                75.11:  Inc, Start 
 SPPA.psig             2400.00:  SPP Avg 
 SPPN.psig             2320.00:  SPP Min 
 SPPX.psig             3200.00:  SPP Max 
 STIM.      15.15.00 17-Feb-20:  Start Time 
 SVCS.                 DD, MWD:  Services 
 SVER.                    9.20:  Sperry Version 
 TDAT.m                 254.00:  Tot Depth Attmp 
 TDDF.                      No:  Trip for DD 
 TDLG.m                 254.00:  Tot Depth Loggd 
 TFF .                      No:  Trip for Fail 
 TQAA.f-kp               13.00:  Torque Abs Avg 
 TQAN.f-kp                7.00:  Torque Abs Min 
 TQAX.f-kp               15.00:  Torque Abs Max 
 TRRT.°/30m               0.21:  Turn Rotating 
 MRT .                  EWR-M5:  Maximum Recorded Temperature 
 TTMX.degC               64.00:  Max Tool Temp 
 VS01.                90586516:  Virtual Str1 SN 
 VS02.                90513691:  Virtual Str2 SN 
 VS03.                90586523:  Virtual Str3 SN 
 VS04.                90586520:  Virtual Str4 SN 
 VS05.                90590507:  Virtual Str5 SN 
 WBMN.klb                12.00:  WOB Min 
 WITN.           Rufat Babayev:  Customer Rep 2 
 WITN.         Alistair Sprott:  Customer Rep 
 WOBA.klb                18.00:  WOB Avg 
 WOBX.klb                30.00:  WOB Max 
 YP  .lhf2               41.00:  Yield Point 
~Curve Information Block
#MNEM.UNIT                 API CODE     Curve Description
#---------               -----------    ---------------------------
 TIME.HHMMSS            00 000 000 000:  GT Time & Date
 GTDEPTH.m              00 000 000 000:  GT Depth
 GTPQH.psia             00 000 000 000:  GT HR Quartz Pressure
 GTTQ.degC              00 000 000 000:  GT Quartz Temperature
 GTTN.NONE              00 000 000 000:  GT Test Number
 GTET.sec               00 000 000 000:  GT Elapsed Test Time
 GTTVD.m                00 000 000 000:  GT True Vertical Depth
#Other Information
#
#WARRANTY: Halliburton will use its best efforts to furnish customers with 
#accurate information and interpretations that are part of, and incident to, the services 
#provided.  However, Halliburton cannot and does not warrant the accuracy 
#or correctness of such information and interpretations.  Under no circumstances should any 
#such information or interpretation be relied upon as the sole basis for any drilling, 
#completion, production, or financial decision or any procedure involving any risk to the 
#safety of any drilling venture, drilling rig or its crew or any other third party.  The 
#Customer has full responsibility for all drilling, completion and production operation.  
#Halliburton makes no representations or warranties, either expressed or 
#implied, including, but not limited to, the implied warranties of merchantability or fitness 
#for a particular purpose, with respect to the services rendered.  In no event will 
#Halliburton be liable for failure to obtain any particular results or for 
#any damages, including, but not limited to, indirect, special or consequential damages, 
#resulting from the use of any information or interpretation provided by Halliburton.
#
~A           TIME           GTDEPTH  GTPQH  GTTQ  GTTN  GTET   GTTVD  
# ...
   01:50:29.466.24-Feb-2020 3392.01 4211.60 55.88 4.00 253.05 2713.39
   01:50:29.666.24-Feb-2020 3392.01 4211.59 55.88 4.00 253.25 2713.39
   01:50:29.866.24-Feb-2020 3392.01 4211.63 55.88 4.00 253.45 2713.39
   01:50:30.066.24-Feb-2020 3392.01 4211.57 55.88 4.00 253.65 2713.39
   01:50:30.266.24-Feb-2020 3392.01 4211.60 55.88 4.00 253.85 2713.39
   01:50:30.466.24-Feb-2020 3392.01 4211.61 55.88 4.00 254.05 2713.39
   01:50:30.666.24-Feb-2020 3392.01 4211.58 55.88 4.00 254.25 2713.39
   01:50:30.866.24-Feb-2020 3392.01 4211.54 55.88 4.00 254.45 2713.39
   01:50:31.066.24-Feb-2020 3392.01 4211.73 55.88 4.00 254.65 2713.39
   01:50:31.266.24-Feb-2020 3392.01 4211.56 55.88 4.00 254.85 2713.39
   01:50:31.466.24-Feb-2020 3392.01 4211.57 55.88 4.00 255.05 2713.39
   01:50:31.666.24-Feb-2020 3392.01 4211.57 55.88 4.00 255.25 2713.39
   01:50:31.867.24-Feb-2020 3392.01 4211.70 55.88 4.00 255.45 2713.39
   01:50:32.067.24-Feb-2020 3392.01 4211.52 55.88 4.00 255.65 2713.39
   01:50:32.267.24-Feb-2020 3392.01 4211.59 55.88 4.00 255.85 2713.39
   01:50:32.467.24-Feb-2020 3392.01 4211.62 55.88 4.00 256.05 2713.39
   01:50:32.667.24-Feb-2020 3392.01 4211.62 55.88 4.00 256.25 2713.39
   01:50:32.867.24-Feb-2020 3392.01 4211.59 55.88 4.00 256.45 2713.39
   01:50:33.067.24-Feb-2020 3392.01 4211.59 55.88 4.00 256.65 2713.39
   01:50:33.267.24-Feb-2020 3392.01 4211.59 55.88 4.00 256.85 2713.39
   01:50:33.467.24-Feb-2020 3392.01 4211.60 55.88 4.00 257.05 2713.39
   01:50:33.667.24-Feb-2020 3392.01 4211.60 55.88 4.00 257.25 2713.39
   01:50:33.867.24-Feb-2020 3392.01 4211.60 55.88 4.00 257.45 2713.39
   01:50:34.067.24-Feb-2020 3392.01 4211.59 55.88 4.00 257.65 2713.39
   01:50:34.267.24-Feb-2020 3392.01 4211.60 55.88 4.00 257.85 2713.39
   01:50:34.467.24-Feb-2020 3392.01 4211.61 55.88 4.00 258.05 2713.39
   01:50:34.667.24-Feb-2020 3392.01 4211.60 55.88 4.00 258.25 2713.39
   01:50:34.867.24-Feb-2020 3392.01 4211.58 55.88 4.00 258.45 2713.39
   01:50:35.067.24-Feb-2020 3392.01 4211.58 55.88 4.00 258.65 2713.39
   01:50:35.267.24-Feb-2020 3392.01 4211.64 55.88 4.00 258.85 2713.39
   01:50:35.467.24-Feb-2020 3392.01 4211.57 55.88 4.00 259.05 2713.39
   01:50:35.667.24-Feb-2020 3392.01 4211.60 55.88 4.00 259.25 2713.39
   01:50:35.867.24-Feb-2020 3392.01 4211.60 55.88 4.00 259.45 2713.39
   01:50:36.067.24-Feb-2020 3392.01 4211.57 55.88 4.00 259.65 2713.39
   01:50:36.267.24-Feb-2020 3392.01 4211.60 55.88 4.00 259.85 2713.39
   01:50:36.467.24-Feb-2020 3392.01 4211.59 55.88 4.00 260.05 2713.39
   01:50:36.668.24-Feb-2020 3392.01 4211.59 55.88 4.00 260.25 2713.39
   01:50:36.868.24-Feb-2020 3392.01 4211.60 55.88 4.00 260.45 2713.39
   01:50:37.068.24-Feb-2020 3392.01 4211.59 55.88 4.00 260.65 2713.39
   01:50:37.268.24-Feb-2020 3392.01 4211.58 55.88 4.00 260.85 2713.39
   01:50:37.468.24-Feb-2020 3392.01 4211.60 55.88 4.00 261.05 2713.39
   01:50:37.668.24-Feb-2020 3392.01 4211.60 55.88 4.00 261.25 2713.39
   01:50:37.868.24-Feb-2020 3392.01 4211.60 55.88 4.00 261.45 2713.39
   01:50:38.068.24-Feb-2020 3392.01 4211.55 55.88 4.00 261.65 2713.39
   01:50:38.268.24-Feb-2020 3392.01 4211.69 55.88 4.00 261.85 2713.39
   01:50:38.468.24-Feb-2020 3392.01 4211.52 55.88 4.00 262.05 2713.39
   01:50:38.668.24-Feb-2020 3392.01 4211.52 55.88 4.00 262.25 2713.39
   01:50:38.868.24-Feb-2020 3392.01 4211.61 55.88 4.00 262.45 2713.39
   01:50:39.068.24-Feb-2020 3392.01 4211.66 55.88 4.00 262.65 2713.39
   01:50:39.268.24-Feb-2020 3392.01 4211.49 55.88 4.00 262.85 2713.39
   01:50:39.468.24-Feb-2020 3392.01 4211.65 55.88 4.00 263.05 2713.39
   01:50:39.668.24-Feb-2020 3392.01 4211.58 55.88 4.00 263.25 2713.39
   01:50:39.868.24-Feb-2020 3392.01 4211.58 55.88 4.00 263.45 2713.39
   01:50:40.068.24-Feb-2020 3392.01 4211.60 55.88 4.00 263.65 2713.39
   01:50:40.268.24-Feb-2020 3392.01 4211.59 55.88 4.00 263.86 2713.39
   01:50:40.468.24-Feb-2020 3392.01 4211.59 55.88 4.00 264.06 2713.39
   01:50:40.668.24-Feb-2020 3392.01 4211.59 55.88 4.00 264.26 2713.39
   01:50:40.868.24-Feb-2020 3392.01 4211.64 55.88 4.00 264.46 2713.39
   01:50:41.068.24-Feb-2020 3392.01 4211.56 55.88 4.00 264.66 2713.39
   01:50:41.268.24-Feb-2020 3392.01 4211.60 55.88 4.00 264.86 2713.39
   01:50:41.469.24-Feb-2020 3392.01 4211.53 55.88 4.00 265.06 2713.39
   01:50:41.669.24-Feb-2020 3392.01 4211.53 55.88 4.00 265.26 2713.39
   01:50:41.869.24-Feb-2020 3392.01 4211.56 55.88 4.00 265.46 2713.39
   01:50:42.069.24-Feb-2020 3392.01 4211.56 55.88 4.00 265.66 2713.39
   01:50:42.269.24-Feb-2020 3392.01 4211.61 55.88 4.00 265.86 2713.39
   01:50:42.469.24-Feb-2020 3392.01 4211.58 55.88 4.00 266.06 2713.39
   01:50:42.669.24-Feb-2020 3392.01 4211.58 55.88 4.00 266.26 2713.39
   01:50:42.869.24-Feb-2020 3392.01 4211.59 55.88 4.00 266.46 2713.39
   01:50:43.069.24-Feb-2020 3392.01 4210.89 55.88 4.00 266.66 2713.39
   01:50:43.269.24-Feb-2020 3392.01 4204.76 55.88 4.00 266.86 2713.39
   01:50:43.469.24-Feb-2020 3392.01 4204.31 55.88 4.00 267.06 2713.39
   01:50:43.669.24-Feb-2020 3392.01 4204.31 55.88 4.00 267.26 2713.39
   01:50:43.869.24-Feb-2020 3392.01 4204.31 55.88 4.00 267.46 2713.39
   01:50:44.069.24-Feb-2020 3392.01 4204.34 55.87 4.00 267.66 2713.39
   01:50:44.269.24-Feb-2020 3392.01 4204.42 55.87 4.00 267.86 2713.39
   01:50:44.469.24-Feb-2020 3392.01 4204.36 55.87 4.00 268.06 2713.39
   01:50:44.669.24-Feb-2020 3392.01 4204.36 55.87 4.00 268.26 2713.39
   01:50:44.869.24-Feb-2020 3392.01 4204.54 55.87 4.00 268.46 2713.39
   01:50:45.069.24-Feb-2020 3392.01 4204.47 55.87 4.00 268.66 2713.39
   01:50:45.269.24-Feb-2020 3392.01 4204.43 55.87 4.00 268.86 2713.39
   01:50:45.469.24-Feb-2020 3392.01 4204.47 55.87 4.00 269.06 2713.39
   01:50:45.669.24-Feb-2020 3392.01 4204.47 55.87 4.00 269.26 2713.39
   01:50:45.869.24-Feb-2020 3392.01 4204.49 55.87 4.00 269.46 2713.39
   01:50:46.069.24-Feb-2020 3392.01 4204.54 55.87 4.00 269.66 2713.39
   01:50:46.270.24-Feb-2020 3392.01 4204.53 55.87 4.00 269.86 2713.39
   01:50:46.470.24-Feb-2020 3392.01 4204.59 55.87 4.00 270.06 2713.39
   01:50:46.670.24-Feb-2020 3392.01 4204.59 55.87 4.00 270.26 2713.39
   01:50:46.870.24-Feb-2020 3392.01 4204.54 55.87 4.00 270.46 2713.39
   01:50:47.070.24-Feb-2020 3392.01 4204.59 55.87 4.00 270.66 2713.39
   01:50:47.270.24-Feb-2020 3392.01 4204.59 55.87 4.00 270.86 2713.39
   01:50:47.470.24-Feb-2020 3392.01 4204.70 55.87 4.00 271.06 2713.39
   01:50:47.670.24-Feb-2020 3392.01 4204.70 55.87 4.00 271.26 2713.39
   01:50:47.870.24-Feb-2020 3392.01 4204.41 55.87 4.00 271.46 2713.39
   01:50:48.070.24-Feb-2020 3392.01 4204.89 55.87 4.00 271.66 2713.39
   01:50:48.270.24-Feb-2020 3392.01 4204.60 55.87 4.00 271.86 2713.39
   01:50:48.470.24-Feb-2020 3392.01 4204.59 55.87 4.00 272.06 2713.39
   01:50:48.670.24-Feb-2020 3392.01 4204.59 55.87 4.00 272.26 2713.39
   01:50:48.870.24-Feb-2020 3392.01 4204.84 55.87 4.00 272.46 2713.39
   01:50:49.070.24-Feb-2020 3392.01 4204.60 55.87 4.00 272.66 2713.39
   01:50:49.270.24-Feb-2020 3392.01 4204.78 55.87 4.00 272.86 2713.39
   01:50:49.470.24-Feb-2020 3392.01 4204.83 55.87 4.00 273.06 2713.39
   01:50:49.670.24-Feb-2020 3392.01 4204.79 55.87 4.00 273.26 2713.39
   01:50:49.870.24-Feb-2020 3392.01 4204.74 55.87 4.00 273.46 2713.39
   01:50:50.070.24-Feb-2020 3392.01 4204.95 55.87 4.00 273.66 2713.39
   01:50:50.270.24-Feb-2020 3392.01 4204.61 55.87 4.00 273.86 2713.39
   01:50:50.470.24-Feb-2020 3392.01 4204.97 55.87 4.00 274.06 2713.39
   01:50:50.670.24-Feb-2020 3392.01 4204.97 55.87 4.00 274.26 2713.39
   01:50:50.870.24-Feb-2020 3392.01 4204.83 55.87 4.00 274.46 2713.39
   01:50:51.071.24-Feb-2020 3392.01 4204.87 55.87 4.00 274.66 2713.39
   01:50:51.271.24-Feb-2020 3392.01 4204.84 55.87 4.00 274.86 2713.39
   01:50:51.471.24-Feb-2020 3392.01 4205.00 55.87 4.00 275.06 2713.39
   01:50:51.671.24-Feb-2020 3392.01 4205.00 55.87 4.00 275.26 2713.39
   01:50:51.871.24-Feb-2020 3392.01 4204.97 55.87 4.00 275.46 2713.39
   01:50:52.071.24-Feb-2020 3392.01 4205.02 55.87 4.00 275.66 2713.39
   01:50:52.271.24-Feb-2020 3392.01 4204.96 55.87 4.00 275.86 2713.39
