~Version Information
 VERS.                  2.0:   CWLS log ASCII Standard -VERSION 2.0
 WRAP.                   NO:   One line per depth step
~Well Information Block
#MNEM.UNIT     VALUE/NAME     DESCRIPTION
#---------     -----------    ---------------------------
 STRT.S             05:02:14 24-Feb-20: START TIME 05:02:14 24-Feb-20
 STOP.S             05:09:32 24-Feb-20: STOP TIME  05:09:32 24-Feb-20
 STEP.S                   0.00: STEP TIME
 NULL.                 -999.25: NULL VALUE
 JOBN.        AZ-XX-0905059384:  JOB TICKET NUMB
 PDAT.          Mean Sea Level:  PERMANENT DATUM
 UNIT.                     N/A:  LOGGING EQUIPMENT ID
 DCON.         Sperry Drilling:  DIRECTNL CONTR
 DOE .                     N/A:  DOE NUMBER
 RIG .             West Chirag:  RIG NAME
 WELL.                     J22:  WELL NAME
 MWDS.                    Baku:  MWD SHOP
 SRVC.     TURAN Drilling & Engineering:  CONTRACTOR
 FLD .                     ACG:  FIELD NAME
 CTRY.              Azerbaijan:  COUNTRY NAME
 PROV.                    Baku:  PROVINCE
 STAT.                    Baku:  STATE NAME
 REGN.                   EESSA:  REGION
 BASE.              Azerbaijan:  LOGGING EQUIPMENT BASE LOCATION
 UWI .                     N/A:  UNIQUE WELL IDENTIFIER
 API .                     N/A:  API NUMBER
 COMP.     BP Exploration (Caspian Sea) Ltd.:  COMPANY
 WTYP.                Deviated:  WELL TYPE
 MDS .        Operator Entered:  MAG DATA SOURCE
 SON .        AZ-XX-0905059384:  JOB NUMBER
 FTOP.          Formation Tops:  FORM TOPS DESC
 ILTD.               Lithology:  INTERP LTH DESC
 SVYD.                  Survey:  SURVEY DESC
 DMOD.             Drill Model:  DRILL MOD DESC
 HPTY.       Minimum Curvature:  HOLE POS TYPE
 NREF.                    Grid:  NORTH REFERENCE
 SPUD.               09-Jan-20:  SPUD DATE
 DATE.      14.04.48 07-Feb-20:  END TIME
 STIM.      07.00.00 09-Jan-20:  START TIME
 DMF .             Drill Floor:  DRILL MEAS FROM
 DFST.                        :  DIST FSL TEXT
 DFWT.                        :  DIST FWL TEXT
 CNTY.                        :  COUNTY
 LOC .                        :  LOCATION
 LMF .             Drill Floor:  LOG MEASURED FROM
 DEP .m                   0.00:  DEPTH
 VSNS.m                  10.28:  VERT SEC N/S
 VSEW.m                  -6.24:  VERT SEC E/W
 AGAP.m                  43.00:  AIR GAP
 APD .m                  43.00:  DEPTH ABOVE PD
 WDMS.m                 169.80:  WD ELEV
 EGL .m                   0.00:  GROUND ELEVATION
 EPD .m                   0.00:  ELEVATION
 AZTC.deg                 6.27:  AZM TOTAL CORR
 GRDC.deg                 0.15:  GRID CORRECTION
 MDEC.deg                 6.42:  MAGNETIC DECL
 MDIP.deg                59.56:  MAGNETIC DIP
 MFLD.nT              50277.00:  MAGNETIC FIELD
 GVFD.g                   1.00:  GRAVITY FIELD
 VSDR.deg               148.53:  VERT SEC DIRECT
 TDD .m                3473.01:  TOTAL DEPTH (DRILLER)
 SDEP.m                 364.00:  START DEPTH
 DFSL.m                   0.00:  DISTANCE FSL
 DFWL.m                   0.00:  DISTANCE FWL
 UTMY.m             4443793.85:  UTM Y
 UTMX.m              519005.06:  UTM X
 WHEW.m                  -6.24:  WELL HEAD E/W
 WHNS.m                  10.28:  WELL HEAD N/S
 LONG.deg                51.22:  LONGITUDE
 LATI.deg                40.13:  LATITUDE
 TVDS.m                  43.00:  TVDSS CORRECTN
 EKB .m                   0.00:  KB ELEVATION
 EDF .m                  43.00:  DF ELEVATION
 TDL .m                 254.00:  TOTAL DEPTH (LOGGER)
 MAGU.                 1850021:  MAGUTM CHECKSUM
 VSC .                       0:  VS TO CLOSURE
~Parameter Information Block
#MNEM.UNIT       Value        Description
#---------     -----------    ---------------------------
 AV  .mps                 0.50:  Ann Velocity 
 AVMX.mps                 1.40:  Max Ann Veloc 
 AZIF.deg               144.94:  Azm, Final 
 BHAT.        Rotary Steerable:  BHA Type 
 BROT.°/30m               0.23:  Build Rotating 
 BS  .in                  8.50:  Bit Size 
 BTPL.psig              264.00:  Bit Press Loss 
 CABU.                     Yes:  Customer Abuse 
 TCS .hr                 87.30:  Time Ciculation Ended 
 CV  .mps                 2.45:  Crit Velocity 
 CVMX.mps                 2.74:  Max Crit Veloc 
 DD1 .             Aziz Aliyev:  Direct Drillr 1 
 DDSV.               Geo-Pilot:  DD Service 
 DEFF.%                 100.00:  % Det Eff 
 DLRX.°/30m               1.22:  Dogleg Rot Max 
 DLSO.°/30m               0.52:  Dogleg Oriented 
 DLSX.°/30m               1.22:  Dogleg Str Max 
 DRET.      12.59.00 23-Feb-20:  Drill End Time 
 DRST.      09.44.00 18-Feb-20:  Drill Start Tim 
 DTIM.hr                 23.03:  Time Drilling 
 EDEP.m                3473.01:  End Depth 
 ENG1.         Almaz Almadatov:  Engineer 1 
 ENG2.         Dair Mahammadov:  Engineer 2 
 ENG3.          Nazrin Asgarli:  Engineer 3 
 ETIM.      10.33.36 26-Feb-20:  End Time 
 FLOI.gpm               480.00:  Flow In 
 FLON.gpm               300.00:  Flow In Min 
 FLOS.cptm                1.00:  Fluid Loss 
 FLOX.gpm               550.00:  Flow In Max 
 HFLO.                      No:  High Flow 
 HPRE.                      No:  High Pressure 
 HTEM.                      No:  High Temp 
 HYDO.m                   1.80:  Hydro Offset 
 IFIN.deg                74.42:  Inc, Final 
 IMAX.deg                76.14:  Inc Max 
 IMIN.deg                74.42:  Inc Min 
 IMND.m                3462.72:  Inc Min Depth 
 IMXD.m                3235.69:  Inc Max Depth 
 JARR.                      No:  Jarring 
 LETM.      12.59.00 23-Feb-20:  Log End Time 
 LOST.hr                     0:  Lost Rig Time 
 LSTM.      09.44.00 18-Feb-20:  Log Start Time 
 MDCL.ppm             45000.00:  Mud Chlorides 
 MDES.     Inversion Oil/Synthetic:  Mud Desc 
 DFD .sg                  1.38:  Mud Density 
 MDMN.sg                  1.34:  Dens Mud Min 
 MDMX.sg                  1.49:  Dens Mud Max 
 MOIL.                      67:  Run Mud Oil % 
 MOWR.                   67:33:  Run Mud OWR 
 MSND.                    0.12:  Run Mud Sand % 
 MSOL.                      22:  Run Mud Solids% 
 DFV .spqt               81.00:  Mud Viscosity 
 MWOD.in                  6.75:  MWD Tool OD 
 MWSI.                      No:  Serv Intrp, MWD 
 OTIM.hr                231.44:  Time Operating 
 PCON.          Wear / Scratch:  Pad Condition 
 PMAX.psia             3400.00:  Press Op, Max 
 PV  .cP                 55.00:  Mud PV 
 RUN .                     800:  Run Number 
 ROPA.m/hr               12.00:  ROP Avg 
 ROPN.m/hr                5.00:  ROP Min 
 ROPX.m/hr               28.00:  ROP Max 
 RPMA.rpm               120.00:  RPM Surface Avg 
 RPMN.rpm                40.00:  RPM Surface Min 
 RPMX.rpm               130.00:  RPM Surface Max 
 RRUN.                    0800:  Rig Run Number 
 RTIM.hr                 45.00:  Time Reaming 
 SAZI.deg               145.38:  Azm, Start 
 SDEP.m                3219.01:  Start Depth 
 SIDD.                      No:  Serv Intrp, DD 
 SINC.deg                75.11:  Inc, Start 
 SPPA.psig             2400.00:  SPP Avg 
 SPPN.psig             2320.00:  SPP Min 
 SPPX.psig             3200.00:  SPP Max 
 STIM.      15.15.00 17-Feb-20:  Start Time 
 SVCS.                 DD, MWD:  Services 
 SVER.                    9.20:  Sperry Version 
 TDAT.m                 254.00:  Tot Depth Attmp 
 TDDF.                      No:  Trip for DD 
 TDLG.m                 254.00:  Tot Depth Loggd 
 TFF .                      No:  Trip for Fail 
 TQAA.f-kp               13.00:  Torque Abs Avg 
 TQAN.f-kp                7.00:  Torque Abs Min 
 TQAX.f-kp               15.00:  Torque Abs Max 
 TRRT.°/30m               0.21:  Turn Rotating 
 MRT .                  EWR-M5:  Maximum Recorded Temperature 
 TTMX.degC               64.00:  Max Tool Temp 
 VS01.                90586516:  Virtual Str1 SN 
 VS02.                90513691:  Virtual Str2 SN 
 VS03.                90586523:  Virtual Str3 SN 
 VS04.                90586520:  Virtual Str4 SN 
 VS05.                90590507:  Virtual Str5 SN 
 WBMN.klb                12.00:  WOB Min 
 WITN.           Rufat Babayev:  Customer Rep 2 
 WITN.         Alistair Sprott:  Customer Rep 
 WOBA.klb                18.00:  WOB Avg 
 WOBX.klb                30.00:  WOB Max 
 YP  .lhf2               41.00:  Yield Point 
~Curve Information Block
#MNEM.UNIT                 API CODE     Curve Description
#---------               -----------    ---------------------------
 TIME.HHMMSS            00 000 000 000:  GT Time & Date
 GTDEPTH.m              00 000 000 000:  GT Depth
 GTPQH.psia             00 000 000 000:  GT HR Quartz Pressure
 GTTQ.degC              00 000 000 000:  GT Quartz Temperature
 GTTN.NONE              00 000 000 000:  GT Test Number
 GTET.sec               00 000 000 000:  GT Elapsed Test Time
 GTTVD.m                00 000 000 000:  GT True Vertical Depth
#Other Information
#
#WARRANTY: Halliburton will use its best efforts to furnish customers with 
#accurate information and interpretations that are part of, and incident to, the services 
#provided.  However, Halliburton cannot and does not warrant the accuracy 
#or correctness of such information and interpretations.  Under no circumstances should any 
#such information or interpretation be relied upon as the sole basis for any drilling, 
#completion, production, or financial decision or any procedure involving any risk to the 
#safety of any drilling venture, drilling rig or its crew or any other third party.  The 
#Customer has full responsibility for all drilling, completion and production operation.  
#Halliburton makes no representations or warranties, either expressed or 
#implied, including, but not limited to, the implied warranties of merchantability or fitness 
#for a particular purpose, with respect to the services rendered.  In no event will 
#Halliburton be liable for failure to obtain any particular results or for 
#any damages, including, but not limited to, indirect, special or consequential damages, 
#resulting from the use of any information or interpretation provided by Halliburton.
#
~A           TIME           GTDEPTH  GTPQH  GTTQ  GTTN  GTET   GTTVD  
# ...
   05:08:22.735.24-Feb-2020 3303.51 4421.01 55.33 8.00 367.89 2690.98
   05:08:22.935.24-Feb-2020 3303.51 4421.01 55.33 8.00 368.09 2690.98
   05:08:23.134.24-Feb-2020 3303.51 4421.00 55.33 8.00 368.29 2690.98
   05:08:23.334.24-Feb-2020 3303.51 4421.02 55.33 8.00 368.49 2690.98
   05:08:23.534.24-Feb-2020 3303.51 4421.03 55.33 8.00 368.69 2690.98
   05:08:23.734.24-Feb-2020 3303.51 4421.02 55.33 8.00 368.89 2690.98
   05:08:23.934.24-Feb-2020 3303.51 4421.02 55.33 8.00 369.09 2690.98
   05:08:24.134.24-Feb-2020 3303.51 4421.03 55.33 8.00 369.29 2690.98
   05:08:24.334.24-Feb-2020 3303.51 4421.04 55.33 8.00 369.49 2690.98
   05:08:24.534.24-Feb-2020 3303.51 4421.04 55.33 8.00 369.69 2690.98
   05:08:24.734.24-Feb-2020 3303.51 4421.49 55.33 8.00 369.89 2690.98
   05:08:24.934.24-Feb-2020 3303.51 4421.49 55.33 8.00 370.09 2690.98
   05:08:25.134.24-Feb-2020 3303.51 4420.93 55.33 8.00 370.29 2690.98
   05:08:25.334.24-Feb-2020 3303.51 4421.05 55.33 8.00 370.49 2690.98
   05:08:25.534.24-Feb-2020 3303.51 4421.00 55.33 8.00 370.69 2690.98
   05:08:25.734.24-Feb-2020 3303.51 4420.97 55.33 8.00 370.89 2690.98
   05:08:25.934.24-Feb-2020 3303.51 4420.97 55.33 8.00 371.09 2690.98
   05:08:26.134.24-Feb-2020 3303.51 4420.99 55.33 8.00 371.29 2690.98
   05:08:26.334.24-Feb-2020 3303.51 4421.03 55.33 8.00 371.49 2690.98
   05:08:26.533.24-Feb-2020 3303.51 4421.02 55.33 8.00 371.69 2690.98
   05:08:26.733.24-Feb-2020 3303.51 4421.05 55.33 8.00 371.89 2690.98
   05:08:26.933.24-Feb-2020 3303.51 4421.05 55.33 8.00 372.09 2690.98
   05:08:27.133.24-Feb-2020 3303.51 4421.00 55.33 8.00 372.29 2690.98
   05:08:27.333.24-Feb-2020 3303.51 4421.02 55.33 8.00 372.49 2690.98
   05:08:27.533.24-Feb-2020 3303.51 4421.03 55.33 8.00 372.69 2690.98
   05:08:27.733.24-Feb-2020 3303.51 4421.05 55.33 8.00 372.89 2690.98
   05:08:27.933.24-Feb-2020 3303.51 4421.05 55.33 8.00 373.09 2690.98
   05:08:28.133.24-Feb-2020 3303.51 4421.10 55.33 8.00 373.29 2690.98
   05:08:28.333.24-Feb-2020 3303.51 4421.07 55.33 8.00 373.49 2690.98
   05:08:28.533.24-Feb-2020 3303.51 4420.90 55.33 8.00 373.69 2690.98
   05:08:28.733.24-Feb-2020 3303.51 4421.34 55.33 8.00 373.89 2690.98
   05:08:28.933.24-Feb-2020 3303.51 4420.63 55.33 8.00 374.09 2690.98
   05:08:29.133.24-Feb-2020 3303.51 4421.22 55.33 8.00 374.29 2690.98
   05:08:29.333.24-Feb-2020 3303.51 4420.97 55.33 8.00 374.49 2690.98
   05:08:29.533.24-Feb-2020 3303.51 4421.00 55.33 8.00 374.69 2690.98
   05:08:29.733.24-Feb-2020 3303.51 4421.00 55.33 8.00 374.89 2690.98
   05:08:29.932.24-Feb-2020 3303.51 4421.00 55.33 8.00 375.09 2690.98
   05:08:30.132.24-Feb-2020 3303.51 4420.95 55.33 8.00 375.29 2690.98
   05:08:30.332.24-Feb-2020 3303.51 4421.22 55.33 8.00 375.49 2690.98
   05:08:30.532.24-Feb-2020 3303.51 4421.05 55.33 8.00 375.69 2690.98
   05:08:30.732.24-Feb-2020 3303.51 4420.98 55.33 8.00 375.89 2690.98
   05:08:30.932.24-Feb-2020 3303.51 4420.98 55.33 8.00 376.09 2690.98
   05:08:31.132.24-Feb-2020 3303.51 4420.70 55.33 8.00 376.29 2690.98
   05:08:31.332.24-Feb-2020 3303.51 4420.92 55.33 8.00 376.49 2690.98
   05:08:31.532.24-Feb-2020 3303.51 4421.04 55.33 8.00 376.69 2690.98
   05:08:31.732.24-Feb-2020 3303.51 4420.99 55.33 8.00 376.89 2690.98
   05:08:31.932.24-Feb-2020 3303.51 4420.99 55.33 8.00 377.09 2690.98
   05:08:32.132.24-Feb-2020 3303.51 4420.99 55.32 8.00 377.29 2690.98
   05:08:32.332.24-Feb-2020 3303.51 4421.01 55.32 8.00 377.49 2690.98
   05:08:32.532.24-Feb-2020 3303.51 4421.02 55.32 8.00 377.69 2690.98
   05:08:32.732.24-Feb-2020 3303.51 4421.02 55.32 8.00 377.89 2690.98
   05:08:32.932.24-Feb-2020 3303.51 4421.02 55.32 8.00 378.09 2690.98
   05:08:33.132.24-Feb-2020 3303.51 4421.03 55.32 8.00 378.29 2690.98
   05:08:33.331.24-Feb-2020 3303.51 4421.01 55.32 8.00 378.49 2690.98
   05:08:33.531.24-Feb-2020 3303.51 4421.03 55.32 8.00 378.69 2690.98
   05:08:33.731.24-Feb-2020 3303.51 4421.04 55.32 8.00 378.89 2690.98
   05:08:33.931.24-Feb-2020 3303.51 4421.03 55.32 8.00 379.09 2690.98
   05:08:34.131.24-Feb-2020 3303.51 4420.98 55.32 8.00 379.29 2690.98
   05:08:34.331.24-Feb-2020 3303.51 4421.17 55.32 8.00 379.49 2690.98
   05:08:34.531.24-Feb-2020 3303.51 4421.04 55.32 8.00 379.69 2690.98
   05:08:34.731.24-Feb-2020 3303.51 4420.95 55.32 8.00 379.89 2690.98
   05:08:34.931.24-Feb-2020 3303.51 4420.95 55.32 8.00 380.09 2690.98
   05:08:35.131.24-Feb-2020 3303.51 4420.98 55.32 8.00 380.29 2690.98
   05:08:35.331.24-Feb-2020 3303.51 4421.00 55.32 8.00 380.49 2690.98
   05:08:35.531.24-Feb-2020 3303.51 4420.99 55.32 8.00 380.69 2690.98
   05:08:35.731.24-Feb-2020 3303.51 4421.04 55.32 8.00 380.89 2690.98
   05:08:35.931.24-Feb-2020 3303.51 4421.04 55.32 8.00 381.09 2690.98
   05:08:36.131.24-Feb-2020 3303.51 4424.84 55.32 8.00 381.29 2690.98
   05:08:36.331.24-Feb-2020 3303.51 4424.09 55.32 8.00 381.49 2690.98
   05:08:36.531.24-Feb-2020 3303.51 5330.17 55.32 8.00 381.69 2690.98
   05:08:36.730.24-Feb-2020 3303.51 5684.56 55.32 8.00 381.89 2690.98
   05:08:36.930.24-Feb-2020 3303.51 5685.02 55.32 8.00 382.09 2690.98
   05:08:37.130.24-Feb-2020 3303.51 5685.92 55.32 8.00 382.29 2690.98
   05:08:37.330.24-Feb-2020 3303.51 5689.39 55.32 8.00 382.49 2690.98
   05:08:37.530.24-Feb-2020 3303.51 5687.12 55.32 8.00 382.69 2690.98
   05:08:37.730.24-Feb-2020 3303.51 5687.20 55.32 8.00 382.89 2690.98
   05:08:37.930.24-Feb-2020 3303.51 5687.20 55.32 8.00 383.09 2690.98
   05:08:38.130.24-Feb-2020 3303.51 5695.45 55.32 8.00 383.29 2690.98
   05:08:38.330.24-Feb-2020 3303.51 5686.62 55.32 8.00 383.49 2690.98
   05:08:38.530.24-Feb-2020 3303.51 5687.48 55.32 8.00 383.69 2690.98
   05:08:38.730.24-Feb-2020 3303.51 5687.76 55.33 8.00 383.89 2690.98
   05:08:38.930.24-Feb-2020 3303.51 5687.76 55.33 8.00 384.09 2690.98
   05:08:39.130.24-Feb-2020 3303.51 5686.95 55.33 8.00 384.29 2690.98
   05:08:39.330.24-Feb-2020 3303.51 5695.31 55.33 8.00 384.49 2690.98
   05:08:39.530.24-Feb-2020 3303.51 5687.84 55.33 8.00 384.69 2690.98
   05:08:39.730.24-Feb-2020 3303.51 5689.50 55.33 8.00 384.89 2690.98
   05:08:39.930.24-Feb-2020 3303.51 5689.50 55.33 8.00 385.09 2690.98
   05:08:40.129.24-Feb-2020 3303.51 5689.34 55.33 8.00 385.29 2690.98
   05:08:40.329.24-Feb-2020 3303.51 5697.08 55.33 8.00 385.49 2690.98
   05:08:40.529.24-Feb-2020 3303.51 5688.49 55.33 8.00 385.69 2690.98
   05:08:40.729.24-Feb-2020 3303.51 5688.49 55.33 8.00 385.89 2690.98
   05:08:40.929.24-Feb-2020 3303.51 5688.69 55.33 8.00 386.09 2690.98
   05:08:41.129.24-Feb-2020 3303.51 5687.28 55.33 8.00 386.29 2690.98
   05:08:41.329.24-Feb-2020 3303.51 5687.97 55.33 8.00 386.49 2690.98
   05:08:41.529.24-Feb-2020 3303.51 5687.33 55.34 8.00 386.69 2690.98
   05:08:41.729.24-Feb-2020 3303.51 5687.42 55.34 8.00 386.89 2690.98
   05:08:41.929.24-Feb-2020 3303.51 5687.42 55.34 8.00 387.09 2690.98
   05:08:42.129.24-Feb-2020 3303.51 5687.85 55.34 8.00 387.29 2690.98
   05:08:42.329.24-Feb-2020 3303.51 5688.23 55.34 8.00 387.49 2690.98
   05:08:42.529.24-Feb-2020 3303.51 5688.17 55.34 8.00 387.69 2690.98
   05:08:42.729.24-Feb-2020 3303.51 5688.05 55.34 8.00 387.89 2690.98
   05:08:42.929.24-Feb-2020 3303.51 5688.05 55.34 8.00 388.09 2690.98
   05:08:43.129.24-Feb-2020 3303.51 5688.82 55.34 8.00 388.29 2690.98
   05:08:43.329.24-Feb-2020 3303.51 5693.46 55.34 8.00 388.49 2690.98
   05:08:43.528.24-Feb-2020 3303.51 5691.98 55.34 8.00 388.69 2690.98
   05:08:43.728.24-Feb-2020 3303.51 5690.38 55.34 8.00 388.89 2690.98
   05:08:43.928.24-Feb-2020 3303.51 5690.38 55.34 8.00 389.09 2690.98
   05:08:44.128.24-Feb-2020 3303.51 5689.38 55.34 8.00 389.29 2690.98
   05:08:44.328.24-Feb-2020 3303.51 5687.54 55.34 8.00 389.49 2690.98
   05:08:44.528.24-Feb-2020 3303.51 5686.38 55.34 8.00 389.69 2690.98
   05:08:44.728.24-Feb-2020 3303.51 5685.34 55.34 8.00 389.89 2690.98
   05:08:44.928.24-Feb-2020 3303.51 5685.34 55.34 8.00 390.09 2690.98
   05:08:45.128.24-Feb-2020 3303.51 5686.96 55.34 8.00 390.29 2690.98
   05:08:45.328.24-Feb-2020 3303.51 5687.86 55.34 8.00 390.49 2690.98
   05:08:45.528.24-Feb-2020 3303.51 5687.71 55.34 8.00 390.69 2690.98
