~Version Information
 VERS.                  2.0:   CWLS log ASCII Standard -VERSION 2.0
 WRAP.                   NO:   One line per depth step
~Well Information Block
#MNEM.UNIT     VALUE/NAME     DESCRIPTION
#---------     -----------    ---------------------------
 STRT.S             02:47:37 24-Feb-20: START TIME 02:47:37 24-Feb-20
 STOP.S             02:54:57 24-Feb-20: STOP TIME  02:54:57 24-Feb-20
 STEP.S                   0.00: STEP TIME
 NULL.                 -999.25: NULL VALUE
 JOBN.        AZ-XX-0905059384:  JOB TICKET NUMB
 PDAT.          Mean Sea Level:  PERMANENT DATUM
 UNIT.                     N/A:  LOGGING EQUIPMENT ID
 DCON.         Sperry Drilling:  DIRECTNL CONTR
 DOE .                     N/A:  DOE NUMBER
 RIG .             West Chirag:  RIG NAME
 WELL.                     J22:  WELL NAME
 MWDS.                    Baku:  MWD SHOP
 SRVC.     TURAN Drilling & Engineering:  CONTRACTOR
 FLD .                     ACG:  FIELD NAME
 CTRY.              Azerbaijan:  COUNTRY NAME
 PROV.                    Baku:  PROVINCE
 STAT.                    Baku:  STATE NAME
 REGN.                   EESSA:  REGION
 BASE.              Azerbaijan:  LOGGING EQUIPMENT BASE LOCATION
 UWI .                     N/A:  UNIQUE WELL IDENTIFIER
 API .                     N/A:  API NUMBER
 COMP.     BP Exploration (Caspian Sea) Ltd.:  COMPANY
 WTYP.                Deviated:  WELL TYPE
 MDS .        Operator Entered:  MAG DATA SOURCE
 SON .        AZ-XX-0905059384:  JOB NUMBER
 FTOP.          Formation Tops:  FORM TOPS DESC
 ILTD.               Lithology:  INTERP LTH DESC
 SVYD.                  Survey:  SURVEY DESC
 DMOD.             Drill Model:  DRILL MOD DESC
 HPTY.       Minimum Curvature:  HOLE POS TYPE
 NREF.                    Grid:  NORTH REFERENCE
 SPUD.               09-Jan-20:  SPUD DATE
 DATE.      14.04.48 07-Feb-20:  END TIME
 STIM.      07.00.00 09-Jan-20:  START TIME
 DMF .             Drill Floor:  DRILL MEAS FROM
 DFST.                        :  DIST FSL TEXT
 DFWT.                        :  DIST FWL TEXT
 CNTY.                        :  COUNTY
 LOC .                        :  LOCATION
 LMF .             Drill Floor:  LOG MEASURED FROM
 DEP .m                   0.00:  DEPTH
 VSNS.m                  10.28:  VERT SEC N/S
 VSEW.m                  -6.24:  VERT SEC E/W
 AGAP.m                  43.00:  AIR GAP
 APD .m                  43.00:  DEPTH ABOVE PD
 WDMS.m                 169.80:  WD ELEV
 EGL .m                   0.00:  GROUND ELEVATION
 EPD .m                   0.00:  ELEVATION
 AZTC.deg                 6.27:  AZM TOTAL CORR
 GRDC.deg                 0.15:  GRID CORRECTION
 MDEC.deg                 6.42:  MAGNETIC DECL
 MDIP.deg                59.56:  MAGNETIC DIP
 MFLD.nT              50277.00:  MAGNETIC FIELD
 GVFD.g                   1.00:  GRAVITY FIELD
 VSDR.deg               148.53:  VERT SEC DIRECT
 TDD .m                3473.01:  TOTAL DEPTH (DRILLER)
 SDEP.m                 364.00:  START DEPTH
 DFSL.m                   0.00:  DISTANCE FSL
 DFWL.m                   0.00:  DISTANCE FWL
 UTMY.m             4443793.85:  UTM Y
 UTMX.m              519005.06:  UTM X
 WHEW.m                  -6.24:  WELL HEAD E/W
 WHNS.m                  10.28:  WELL HEAD N/S
 LONG.deg                51.22:  LONGITUDE
 LATI.deg                40.13:  LATITUDE
 TVDS.m                  43.00:  TVDSS CORRECTN
 EKB .m                   0.00:  KB ELEVATION
 EDF .m                  43.00:  DF ELEVATION
 TDL .m                 254.00:  TOTAL DEPTH (LOGGER)
 MAGU.                 1850021:  MAGUTM CHECKSUM
 VSC .                       0:  VS TO CLOSURE
~Parameter Information Block
#MNEM.UNIT       Value        Description
#---------     -----------    ---------------------------
 AV  .mps                 0.50:  Ann Velocity 
 AVMX.mps                 1.40:  Max Ann Veloc 
 AZIF.deg               144.94:  Azm, Final 
 BHAT.        Rotary Steerable:  BHA Type 
 BROT.°/30m               0.23:  Build Rotating 
 BS  .in                  8.50:  Bit Size 
 BTPL.psig              264.00:  Bit Press Loss 
 CABU.                     Yes:  Customer Abuse 
 COMM.                     D
_:  Run Comments 1 
 TCS .hr                 87.30:  Time Ciculation Ended 
 CV  .mps                 2.45:  Crit Velocity 
 CVMX.mps                 2.74:  Max Crit Veloc 
 DD1 .             Aziz Aliyev:  Direct Drillr 1 
 DDSV.               Geo-Pilot:  DD Service 
 DEFF.%                 100.00:  % Det Eff 
 DLRX.°/30m               1.22:  Dogleg Rot Max 
 DLSO.°/30m               0.52:  Dogleg Oriented 
 DLSX.°/30m               1.22:  Dogleg Str Max 
 DRET.      12.59.00 23-Feb-20:  Drill End Time 
 DRST.      09.44.00 18-Feb-20:  Drill Start Tim 
 DTIM.hr                 23.03:  Time Drilling 
 EDEP.m                3473.01:  End Depth 
 ENG1.         Almaz Almadatov:  Engineer 1 
 ENG2.         Dair Mahammadov:  Engineer 2 
 ENG3.          Nazrin Asgarli:  Engineer 3 
 ETIM.      10.33.36 26-Feb-20:  End Time 
 FLOI.gpm               480.00:  Flow In 
 FLON.gpm               300.00:  Flow In Min 
 FLOS.cptm                1.00:  Fluid Loss 
 FLOX.gpm               550.00:  Flow In Max 
 HFLO.                      No:  High Flow 
 HPRE.                      No:  High Pressure 
 HTEM.                      No:  High Temp 
 HYDO.m                   1.80:  Hydro Offset 
 IFIN.deg                74.42:  Inc, Final 
 IMAX.deg                76.14:  Inc Max 
 IMIN.deg                74.42:  Inc Min 
 IMND.m                3462.72:  Inc Min Depth 
 IMXD.m                3235.69:  Inc Max Depth 
 JARR.                      No:  Jarring 
 LETM.      12.59.00 23-Feb-20:  Log End Time 
 LOST.hr                     0:  Lost Rig Time 
 LSTM.      09.44.00 18-Feb-20:  Log Start Time 
 MDCL.ppm             45000.00:  Mud Chlorides 
 MDES.     Inversion Oil/Synthetic:  Mud Desc 
 DFD .sg                  1.38:  Mud Density 
 MDMN.sg                  1.34:  Dens Mud Min 
 MDMX.sg                  1.49:  Dens Mud Max 
 MOIL.                      67:  Run Mud Oil % 
 MOWR.                   67:33:  Run Mud OWR 
 MSND.                    0.12:  Run Mud Sand % 
 MSOL.                      22:  Run Mud Solids% 
 DFV .spqt               81.00:  Mud Viscosity 
 MWOD.in                  6.75:  MWD Tool OD 
 MWSI.                      No:  Serv Intrp, MWD 
 OTIM.hr                231.44:  Time Operating 
 PCON.          Wear / Scratch:  Pad Condition 
 PMAX.psia             3400.00:  Press Op, Max 
 PV  .cP                 55.00:  Mud PV 
 RUN .                     800:  Run Number 
 ROPA.m/hr               12.00:  ROP Avg 
 ROPN.m/hr                5.00:  ROP Min 
 ROPX.m/hr               28.00:  ROP Max 
 RPMA.rpm               120.00:  RPM Surface Avg 
 RPMN.rpm                40.00:  RPM Surface Min 
 RPMX.rpm               130.00:  RPM Surface Max 
 RRUN.                    0800:  Rig Run Number 
 RTIM.hr                 45.00:  Time Reaming 
 SAZI.deg               145.38:  Azm, Start 
 SDEP.m                3219.01:  Start Depth 
 SIDD.                      No:  Serv Intrp, DD 
 SINC.deg                75.11:  Inc, Start 
 SPPA.psig             2400.00:  SPP Avg 
 SPPN.psig             2320.00:  SPP Min 
 SPPX.psig             3200.00:  SPP Max 
 STIM.      15.15.00 17-Feb-20:  Start Time 
 SVCS.                 DD, MWD:  Services 
 SVER.                    9.20:  Sperry Version 
 TDAT.m                 254.00:  Tot Depth Attmp 
 TDDF.                      No:  Trip for DD 
 TDLG.m                 254.00:  Tot Depth Loggd 
 TFF .                      No:  Trip for Fail 
 TQAA.f-kp               13.00:  Torque Abs Avg 
 TQAN.f-kp                7.00:  Torque Abs Min 
 TQAX.f-kp               15.00:  Torque Abs Max 
 TRRT.°/30m               0.21:  Turn Rotating 
 MRT .                  EWR-M5:  Maximum Recorded Temperature 
 TTMX.degC               64.00:  Max Tool Temp 
 VS01.                90586516:  Virtual Str1 SN 
 VS02.                90513691:  Virtual Str2 SN 
 VS03.                90586523:  Virtual Str3 SN 
 VS04.                90586520:  Virtual Str4 SN 
 VS05.                90590507:  Virtual Str5 SN 
 WBMN.klb                12.00:  WOB Min 
 WITN.           Rufat Babayev:  Customer Rep 2 
 WITN.         Alistair Sprott:  Customer Rep 
 WOBA.klb                18.00:  WOB Avg 
 WOBX.klb                30.00:  WOB Max 
 YP  .lhf2               41.00:  Yield Point 
~Curve Information Block
#MNEM.UNIT                 API CODE     Curve Description
#---------               -----------    ---------------------------
 TIME.HHMMSS            00 000 000 000:  GT Time & Date
 GTDEPTH.m              00 000 000 000:  GT Depth
 GTPQH.psia             00 000 000 000:  GT HR Quartz Pressure
 GTTQ.degC              00 000 000 000:  GT Quartz Temperature
 GTTN.NONE              00 000 000 000:  GT Test Number
 GTET.sec               00 000 000 000:  GT Elapsed Test Time
 GTTVD.m                00 000 000 000:  GT True Vertical Depth
#Other Information
#
#WARRANTY: Halliburton will use its best efforts to furnish customers with 
#accurate information and interpretations that are part of, and incident to, the services 
#provided.  However, Halliburton cannot and does not warrant the accuracy 
#or correctness of such information and interpretations.  Under no circumstances should any 
#such information or interpretation be relied upon as the sole basis for any drilling, 
#completion, production, or financial decision or any procedure involving any risk to the 
#safety of any drilling venture, drilling rig or its crew or any other third party.  The 
#Customer has full responsibility for all drilling, completion and production operation.  
#Halliburton makes no representations or warranties, either expressed or 
#implied, including, but not limited to, the implied warranties of merchantability or fitness 
#for a particular purpose, with respect to the services rendered.  In no event will 
#Halliburton be liable for failure to obtain any particular results or for 
#any damages, including, but not limited to, indirect, special or consequential damages, 
#resulting from the use of any information or interpretation provided by Halliburton.
#
~A           TIME           GTDEPTH  GTPQH  GTTQ  GTTN  GTET   GTTVD  
# ...
   02:48:00.357.24-Feb-2020 3375.51 5709.57 55.92 5.00  23.01 2709.14
   02:48:00.557.24-Feb-2020 3375.51 5707.81 55.92 5.00  23.21 2709.14
   02:48:00.757.24-Feb-2020 3375.51 5709.69 55.92 5.00  23.41 2709.14
   02:48:00.957.24-Feb-2020 3375.51 5708.95 55.92 5.00  23.61 2709.14
   02:48:01.157.24-Feb-2020 3375.51 5709.57 55.92 5.00  23.81 2709.14
   02:48:01.357.24-Feb-2020 3375.51 5707.44 55.92 5.00  24.01 2709.14
   02:48:01.557.24-Feb-2020 3375.51 5709.20 55.92 5.00  24.21 2709.14
   02:48:01.757.24-Feb-2020 3375.51 5708.29 55.92 5.00  24.41 2709.14
   02:48:01.957.24-Feb-2020 3375.51 5708.63 55.92 5.00  24.61 2709.14
   02:48:02.157.24-Feb-2020 3375.51 5708.60 55.92 5.00  24.81 2709.14
   02:48:02.357.24-Feb-2020 3375.51 5708.97 55.92 5.00  25.01 2709.14
   02:48:02.557.24-Feb-2020 3375.51 5708.97 55.92 5.00  25.21 2709.14
   02:48:02.758.24-Feb-2020 3375.51 5708.90 55.92 5.00  25.41 2709.14
   02:48:02.958.24-Feb-2020 3375.51 5709.91 55.92 5.00  25.61 2709.14
   02:48:03.158.24-Feb-2020 3375.51 5707.61 55.92 5.00  25.81 2709.14
   02:48:03.358.24-Feb-2020 3375.51 5709.26 55.92 5.00  26.01 2709.14
   02:48:03.558.24-Feb-2020 3375.51 5709.26 55.92 5.00  26.21 2709.14
   02:48:03.758.24-Feb-2020 3375.51 5708.43 55.92 5.00  26.41 2709.14
   02:48:03.958.24-Feb-2020 3375.51 5709.10 55.92 5.00  26.61 2709.14
   02:48:04.158.24-Feb-2020 3375.51 5708.85 55.92 5.00  26.81 2709.14
   02:48:04.358.24-Feb-2020 3375.51 5709.38 55.92 5.00  27.01 2709.14
   02:48:04.558.24-Feb-2020 3375.51 5709.38 55.92 5.00  27.21 2709.14
   02:48:04.758.24-Feb-2020 3375.51 5709.18 55.92 5.00  27.41 2709.14
   02:48:04.958.24-Feb-2020 3375.51 5708.13 55.92 5.00  27.61 2709.14
   02:48:05.159.24-Feb-2020 3375.51 5707.94 55.92 5.00  27.81 2709.14
   02:48:05.359.24-Feb-2020 3375.51 5708.77 55.92 5.00  28.01 2709.14
   02:48:05.559.24-Feb-2020 3375.51 5708.77 55.92 5.00  28.21 2709.14
   02:48:05.759.24-Feb-2020 3375.51 5709.52 55.92 5.00  28.41 2709.14
   02:48:05.959.24-Feb-2020 3375.51 5708.82 55.92 5.00  28.61 2709.14
   02:48:06.159.24-Feb-2020 3375.51 5709.82 55.92 5.00  28.81 2709.14
   02:48:06.359.24-Feb-2020 3375.51 5707.77 55.92 5.00  29.01 2709.14
   02:48:06.559.24-Feb-2020 3375.51 5707.77 55.92 5.00  29.21 2709.14
   02:48:06.759.24-Feb-2020 3375.51 5708.08 55.92 5.00  29.41 2709.14
   02:48:06.959.24-Feb-2020 3375.51 5708.57 55.92 5.00  29.61 2709.14
   02:48:07.159.24-Feb-2020 3375.51 5709.11 55.92 5.00  29.81 2709.14
   02:48:07.359.24-Feb-2020 3375.51 5709.21 55.92 5.00  30.01 2709.14
   02:48:07.559.24-Feb-2020 3375.51 5709.21 55.92 5.00  30.21 2709.14
   02:48:07.760.24-Feb-2020 3375.51 5708.87 55.92 5.00  30.41 2709.14
   02:48:07.960.24-Feb-2020 3375.51 5709.33 55.92 5.00  30.61 2709.14
   02:48:08.160.24-Feb-2020 3375.51 5709.14 55.92 5.00  30.81 2709.14
   02:48:08.360.24-Feb-2020 3375.51 5708.36 55.92 5.00  31.01 2709.14
   02:48:08.560.24-Feb-2020 3375.51 5708.36 55.92 5.00  31.21 2709.14
   02:48:08.760.24-Feb-2020 3375.51 5708.89 55.91 5.00  31.41 2709.14
   02:48:08.960.24-Feb-2020 3375.51 5709.46 55.91 5.00  31.61 2709.14
   02:48:09.160.24-Feb-2020 3375.51 5709.57 55.91 5.00  31.81 2709.14
   02:48:09.360.24-Feb-2020 3375.51 5708.89 55.91 5.00  32.01 2709.14
   02:48:09.560.24-Feb-2020 3375.51 5708.89 55.91 5.00  32.21 2709.14
   02:48:09.760.24-Feb-2020 3375.51 5707.53 55.91 5.00  32.41 2709.14
   02:48:09.960.24-Feb-2020 3375.51 5709.53 55.91 5.00  32.61 2709.14
   02:48:10.161.24-Feb-2020 3375.51 5708.12 55.91 5.00  32.81 2709.14
   02:48:10.361.24-Feb-2020 3375.51 5710.36 55.91 5.00  33.01 2709.14
   02:48:10.561.24-Feb-2020 3375.51 5710.36 55.91 5.00  33.21 2709.14
   02:48:10.761.24-Feb-2020 3375.51 5709.84 55.91 5.00  33.41 2709.14
   02:48:10.961.24-Feb-2020 3375.51 5708.53 55.91 5.00  33.61 2709.14
   02:48:11.161.24-Feb-2020 3375.51 5708.93 55.91 5.00  33.81 2709.14
   02:48:11.361.24-Feb-2020 3375.51 5709.28 55.91 5.00  34.01 2709.14
   02:48:11.561.24-Feb-2020 3375.51 5709.28 55.91 5.00  34.21 2709.14
   02:48:11.761.24-Feb-2020 3375.51 5708.03 55.91 5.00  34.41 2709.14
   02:48:11.961.24-Feb-2020 3375.51 5710.26 55.91 5.00  34.61 2709.14
   02:48:12.161.24-Feb-2020 3375.51 5709.05 55.91 5.00  34.81 2709.14
   02:48:12.361.24-Feb-2020 3375.51 5709.73 55.91 5.00  35.01 2709.14
   02:48:12.561.24-Feb-2020 3375.51 5709.73 55.91 5.00  35.21 2709.14
   02:48:12.762.24-Feb-2020 3375.51 5707.64 55.91 5.00  35.41 2709.14
   02:48:12.962.24-Feb-2020 3375.51 5709.75 55.91 5.00  35.61 2709.14
   02:48:13.162.24-Feb-2020 3375.51 5708.11 55.91 5.00  35.81 2709.14
   02:48:13.362.24-Feb-2020 3375.51 5708.98 55.91 5.00  36.01 2709.14
   02:48:13.562.24-Feb-2020 3375.51 5708.98 55.91 5.00  36.21 2709.14
   02:48:13.762.24-Feb-2020 3375.51 5709.03 55.91 5.00  36.41 2709.14
   02:48:13.962.24-Feb-2020 3375.51 5709.45 55.91 5.00  36.61 2709.14
   02:48:14.162.24-Feb-2020 3375.51 5709.41 55.91 5.00  36.81 2709.14
   02:48:14.362.24-Feb-2020 3375.51 5708.78 55.91 5.00  37.01 2709.14
   02:48:14.562.24-Feb-2020 3375.51 5708.78 55.91 5.00  37.21 2709.14
   02:48:14.762.24-Feb-2020 3375.51 5360.31 55.91 5.00  37.41 2709.14
   02:48:14.962.24-Feb-2020 3375.51 5274.63 55.91 5.00  37.62 2709.14
   02:48:15.163.24-Feb-2020 3375.51 5240.74 55.91 5.00  37.82 2709.14
   02:48:15.363.24-Feb-2020 3375.51 5223.60 55.91 5.00  38.02 2709.14
   02:48:15.563.24-Feb-2020 3375.51 5223.60 55.91 5.00  38.22 2709.14
   02:48:15.763.24-Feb-2020 3375.51 5195.81 55.91 5.00  38.42 2709.14
   02:48:15.963.24-Feb-2020 3375.51 5175.60 55.91 5.00  38.62 2709.14
   02:48:16.163.24-Feb-2020 3375.51 5148.99 55.91 5.00  38.82 2709.14
   02:48:16.363.24-Feb-2020 3375.51 5119.51 55.91 5.00  39.02 2709.14
   02:48:16.563.24-Feb-2020 3375.51 5119.51 55.91 5.00  39.22 2709.14
   02:48:16.763.24-Feb-2020 3375.51 5070.26 55.91 5.00  39.42 2709.14
   02:48:16.963.24-Feb-2020 3375.51 5047.04 55.91 5.00  39.62 2709.14
   02:48:17.163.24-Feb-2020 3375.51 5022.15 55.91 5.00  39.82 2709.14
   02:48:17.363.24-Feb-2020 3375.51 4996.53 55.91 5.00  40.02 2709.14
   02:48:17.563.24-Feb-2020 3375.51 4996.53 55.91 5.00  40.22 2709.14
   02:48:17.764.24-Feb-2020 3375.51 4944.59 55.91 5.00  40.42 2709.14
   02:48:17.964.24-Feb-2020 3375.51 4917.85 55.91 5.00  40.62 2709.14
   02:48:18.164.24-Feb-2020 3375.51 4892.36 55.91 5.00  40.82 2709.14
   02:48:18.364.24-Feb-2020 3375.51 4867.17 55.91 5.00  41.02 2709.14
   02:48:18.564.24-Feb-2020 3375.51 4867.17 55.91 5.00  41.22 2709.14
   02:48:18.764.24-Feb-2020 3375.51 4813.08 55.90 5.00  41.42 2709.14
   02:48:18.964.24-Feb-2020 3375.51 4785.79 55.90 5.00  41.62 2709.14
   02:48:19.164.24-Feb-2020 3375.51 4758.23 55.90 5.00  41.82 2709.14
   02:48:19.364.24-Feb-2020 3375.51 4730.68 55.90 5.00  42.02 2709.14
   02:48:19.564.24-Feb-2020 3375.51 4730.68 55.90 5.00  42.22 2709.14
   02:48:19.764.24-Feb-2020 3375.51 4684.19 55.90 5.00  42.42 2709.14
   02:48:19.964.24-Feb-2020 3375.51 4663.56 55.90 5.00  42.62 2709.14
   02:48:20.165.24-Feb-2020 3375.51 4642.73 55.90 5.00  42.82 2709.14
   02:48:20.365.24-Feb-2020 3375.51 4620.87 55.90 5.00  43.02 2709.14
   02:48:20.565.24-Feb-2020 3375.51 4620.87 55.90 5.00  43.22 2709.14
   02:48:20.765.24-Feb-2020 3375.51 4578.92 55.90 5.00  43.42 2709.14
   02:48:20.965.24-Feb-2020 3375.51 4562.18 55.90 5.00  43.62 2709.14
   02:48:21.165.24-Feb-2020 3375.51 4541.69 55.90 5.00  43.82 2709.14
   02:48:21.365.24-Feb-2020 3375.51 4521.03 55.90 5.00  44.02 2709.14
   02:48:21.565.24-Feb-2020 3375.51 4494.74 55.90 5.00  44.22 2709.14
   02:48:21.765.24-Feb-2020 3375.51 4469.30 55.89 5.00  44.42 2709.14
   02:48:21.965.24-Feb-2020 3375.51 4440.24 55.89 5.00  44.62 2709.14
   02:48:22.165.24-Feb-2020 3375.51 4413.21 55.89 5.00  44.82 2709.14
   02:48:22.365.24-Feb-2020 3375.51 4380.62 55.89 5.00  45.02 2709.14
   02:48:22.565.24-Feb-2020 3375.51 4380.62 55.89 5.00  45.22 2709.14
   02:48:22.766.24-Feb-2020 3375.51 4333.62 55.89 5.00  45.42 2709.14
   02:48:22.966.24-Feb-2020 3375.51 4299.21 55.89 5.00  45.62 2709.14
   02:48:23.166.24-Feb-2020 3375.51 4265.97 55.89 5.00  45.82 2709.14
