~Version Information
 VERS.                  2.0:   CWLS log ASCII Standard -VERSION 2.0
 WRAP.                   NO:   One line per depth step
~Well Information Block
#MNEM.UNIT     VALUE/NAME     DESCRIPTION
#---------     -----------    ---------------------------
 STRT.S             07:13:35 24-Feb-20: START TIME 07:13:35 24-Feb-20
 STOP.S             07:20:48 24-Feb-20: STOP TIME  07:20:48 24-Feb-20
 STEP.S                   0.00: STEP TIME
 NULL.                 -999.25: NULL VALUE
 JOBN.        AZ-XX-0905059384:  JOB TICKET NUMB
 PDAT.          Mean Sea Level:  PERMANENT DATUM
 UNIT.                     N/A:  LOGGING EQUIPMENT ID
 DCON.         Sperry Drilling:  DIRECTNL CONTR
 DOE .                     N/A:  DOE NUMBER
 RIG .             West Chirag:  RIG NAME
 WELL.                     J22:  WELL NAME
 MWDS.                    Baku:  MWD SHOP
 SRVC.     TURAN Drilling & Engineering:  CONTRACTOR
 FLD .                     ACG:  FIELD NAME
 CTRY.              Azerbaijan:  COUNTRY NAME
 PROV.                    Baku:  PROVINCE
 STAT.                    Baku:  STATE NAME
 REGN.                   EESSA:  REGION
 BASE.              Azerbaijan:  LOGGING EQUIPMENT BASE LOCATION
 UWI .                     N/A:  UNIQUE WELL IDENTIFIER
 API .                     N/A:  API NUMBER
 COMP.     BP Exploration (Caspian Sea) Ltd.:  COMPANY
 WTYP.                Deviated:  WELL TYPE
 MDS .        Operator Entered:  MAG DATA SOURCE
 SON .        AZ-XX-0905059384:  JOB NUMBER
 FTOP.          Formation Tops:  FORM TOPS DESC
 ILTD.               Lithology:  INTERP LTH DESC
 SVYD.                  Survey:  SURVEY DESC
 DMOD.             Drill Model:  DRILL MOD DESC
 HPTY.       Minimum Curvature:  HOLE POS TYPE
 NREF.                    Grid:  NORTH REFERENCE
 SPUD.               09-Jan-20:  SPUD DATE
 DATE.      14.04.48 07-Feb-20:  END TIME
 STIM.      07.00.00 09-Jan-20:  START TIME
 DMF .             Drill Floor:  DRILL MEAS FROM
 DFST.                        :  DIST FSL TEXT
 DFWT.                        :  DIST FWL TEXT
 CNTY.                        :  COUNTY
 LOC .                        :  LOCATION
 LMF .             Drill Floor:  LOG MEASURED FROM
 DEP .m                   0.00:  DEPTH
 VSNS.m                  10.28:  VERT SEC N/S
 VSEW.m                  -6.24:  VERT SEC E/W
 AGAP.m                  43.00:  AIR GAP
 APD .m                  43.00:  DEPTH ABOVE PD
 WDMS.m                 169.80:  WD ELEV
 EGL .m                   0.00:  GROUND ELEVATION
 EPD .m                   0.00:  ELEVATION
 AZTC.deg                 6.27:  AZM TOTAL CORR
 GRDC.deg                 0.15:  GRID CORRECTION
 MDEC.deg                 6.42:  MAGNETIC DECL
 MDIP.deg                59.56:  MAGNETIC DIP
 MFLD.nT              50277.00:  MAGNETIC FIELD
 GVFD.g                   1.00:  GRAVITY FIELD
 VSDR.deg               148.53:  VERT SEC DIRECT
 TDD .m                3473.01:  TOTAL DEPTH (DRILLER)
 SDEP.m                 364.00:  START DEPTH
 DFSL.m                   0.00:  DISTANCE FSL
 DFWL.m                   0.00:  DISTANCE FWL
 UTMY.m             4443793.85:  UTM Y
 UTMX.m              519005.06:  UTM X
 WHEW.m                  -6.24:  WELL HEAD E/W
 WHNS.m                  10.28:  WELL HEAD N/S
 LONG.deg                51.22:  LONGITUDE
 LATI.deg                40.13:  LATITUDE
 TVDS.m                  43.00:  TVDSS CORRECTN
 EKB .m                   0.00:  KB ELEVATION
 EDF .m                  43.00:  DF ELEVATION
 TDL .m                 254.00:  TOTAL DEPTH (LOGGER)
 MAGU.                 1850021:  MAGUTM CHECKSUM
 VSC .                       0:  VS TO CLOSURE
~Parameter Information Block
#MNEM.UNIT       Value        Description
#---------     -----------    ---------------------------
 AV  .mps                 0.50:  Ann Velocity 
 AVMX.mps                 1.40:  Max Ann Veloc 
 AZIF.deg               144.94:  Azm, Final 
 BHAT.        Rotary Steerable:  BHA Type 
 BROT.°/30m               0.23:  Build Rotating 
 BS  .in                  8.50:  Bit Size 
 BTPL.psig              264.00:  Bit Press Loss 
 CABU.                     Yes:  Customer Abuse 
 COMM.                     ëh:  Run Comments 1 
 TCS .hr                 87.30:  Time Ciculation Ended 
 CV  .mps                 2.45:  Crit Velocity 
 CVMX.mps                 2.74:  Max Crit Veloc 
 DD1 .             Aziz Aliyev:  Direct Drillr 1 
 DDSV.               Geo-Pilot:  DD Service 
 DEFF.%                 100.00:  % Det Eff 
 DLRX.°/30m               1.22:  Dogleg Rot Max 
 DLSO.°/30m               0.52:  Dogleg Oriented 
 DLSX.°/30m               1.22:  Dogleg Str Max 
 DRET.      12.59.00 23-Feb-20:  Drill End Time 
 DRST.      09.44.00 18-Feb-20:  Drill Start Tim 
 DTIM.hr                 23.03:  Time Drilling 
 EDEP.m                3473.01:  End Depth 
 ENG1.         Almaz Almadatov:  Engineer 1 
 ENG2.         Dair Mahammadov:  Engineer 2 
 ENG3.          Nazrin Asgarli:  Engineer 3 
 ETIM.      10.33.36 26-Feb-20:  End Time 
 FLOI.gpm               480.00:  Flow In 
 FLON.gpm               300.00:  Flow In Min 
 FLOS.cptm                1.00:  Fluid Loss 
 FLOX.gpm               550.00:  Flow In Max 
 HFLO.                      No:  High Flow 
 HPRE.                      No:  High Pressure 
 HTEM.                      No:  High Temp 
 HYDO.m                   1.80:  Hydro Offset 
 IFIN.deg                74.42:  Inc, Final 
 IMAX.deg                76.14:  Inc Max 
 IMIN.deg                74.42:  Inc Min 
 IMND.m                3462.72:  Inc Min Depth 
 IMXD.m                3235.69:  Inc Max Depth 
 JARR.                      No:  Jarring 
 LETM.      12.59.00 23-Feb-20:  Log End Time 
 LOST.hr                     0:  Lost Rig Time 
 LSTM.      09.44.00 18-Feb-20:  Log Start Time 
 MDCL.ppm             45000.00:  Mud Chlorides 
 MDES.     Inversion Oil/Synthetic:  Mud Desc 
 DFD .sg                  1.38:  Mud Density 
 MDMN.sg                  1.34:  Dens Mud Min 
 MDMX.sg                  1.49:  Dens Mud Max 
 MOIL.                      67:  Run Mud Oil % 
 MOWR.                   67:33:  Run Mud OWR 
 MSND.                    0.12:  Run Mud Sand % 
 MSOL.                      22:  Run Mud Solids% 
 DFV .spqt               81.00:  Mud Viscosity 
 MWOD.in                  6.75:  MWD Tool OD 
 MWSI.                      No:  Serv Intrp, MWD 
 OTIM.hr                231.44:  Time Operating 
 PCON.          Wear / Scratch:  Pad Condition 
 PMAX.psia             3400.00:  Press Op, Max 
 PV  .cP                 55.00:  Mud PV 
 RUN .                     800:  Run Number 
 ROPA.m/hr               12.00:  ROP Avg 
 ROPN.m/hr                5.00:  ROP Min 
 ROPX.m/hr               28.00:  ROP Max 
 RPMA.rpm               120.00:  RPM Surface Avg 
 RPMN.rpm                40.00:  RPM Surface Min 
 RPMX.rpm               130.00:  RPM Surface Max 
 RRUN.                    0800:  Rig Run Number 
 RTIM.hr                 45.00:  Time Reaming 
 SAZI.deg               145.38:  Azm, Start 
 SDEP.m                3219.01:  Start Depth 
 SIDD.                      No:  Serv Intrp, DD 
 SINC.deg                75.11:  Inc, Start 
 SPPA.psig             2400.00:  SPP Avg 
 SPPN.psig             2320.00:  SPP Min 
 SPPX.psig             3200.00:  SPP Max 
 STIM.      15.15.00 17-Feb-20:  Start Time 
 SVCS.                 DD, MWD:  Services 
 SVER.                    9.20:  Sperry Version 
 TDAT.m                 254.00:  Tot Depth Attmp 
 TDDF.                      No:  Trip for DD 
 TDLG.m                 254.00:  Tot Depth Loggd 
 TFF .                      No:  Trip for Fail 
 TQAA.f-kp               13.00:  Torque Abs Avg 
 TQAN.f-kp                7.00:  Torque Abs Min 
 TQAX.f-kp               15.00:  Torque Abs Max 
 TRRT.°/30m               0.21:  Turn Rotating 
 MRT .                  EWR-M5:  Maximum Recorded Temperature 
 TTMX.degC               64.00:  Max Tool Temp 
 VS01.                90586516:  Virtual Str1 SN 
 VS02.                90513691:  Virtual Str2 SN 
 VS03.                90586523:  Virtual Str3 SN 
 VS04.                90586520:  Virtual Str4 SN 
 VS05.                90590507:  Virtual Str5 SN 
 WBMN.klb                12.00:  WOB Min 
 WITN.           Rufat Babayev:  Customer Rep 2 
 WITN.         Alistair Sprott:  Customer Rep 
 WOBA.klb                18.00:  WOB Avg 
 WOBX.klb                30.00:  WOB Max 
 YP  .lhf2               41.00:  Yield Point 
~Curve Information Block
#MNEM.UNIT                 API CODE     Curve Description
#---------               -----------    ---------------------------
 TIME.HHMMSS            00 000 000 000:  GT Time & Date
 GTDEPTH.m              00 000 000 000:  GT Depth
 GTPQH.psia             00 000 000 000:  GT HR Quartz Pressure
 GTTQ.degC              00 000 000 000:  GT Quartz Temperature
 GTTN.NONE              00 000 000 000:  GT Test Number
 GTET.sec               00 000 000 000:  GT Elapsed Test Time
 GTTVD.m                00 000 000 000:  GT True Vertical Depth
#Other Information
#
#WARRANTY: Halliburton will use its best efforts to furnish customers with 
#accurate information and interpretations that are part of, and incident to, the services 
#provided.  However, Halliburton cannot and does not warrant the accuracy 
#or correctness of such information and interpretations.  Under no circumstances should any 
#such information or interpretation be relied upon as the sole basis for any drilling, 
#completion, production, or financial decision or any procedure involving any risk to the 
#safety of any drilling venture, drilling rig or its crew or any other third party.  The 
#Customer has full responsibility for all drilling, completion and production operation.  
#Halliburton makes no representations or warranties, either expressed or 
#implied, including, but not limited to, the implied warranties of merchantability or fitness 
#for a particular purpose, with respect to the services rendered.  In no event will 
#Halliburton be liable for failure to obtain any particular results or for 
#any damages, including, but not limited to, indirect, special or consequential damages, 
#resulting from the use of any information or interpretation provided by Halliburton.
#
~A           TIME           GTDEPTH  GTPQH  GTTQ  GTTN   GTET   GTTVD  
# ...
   07:20:21.800.24-Feb-2020 3225.01 5649.43 54.42 11.00 406.80 2671.15
   07:20:22.000.24-Feb-2020 3225.01 5662.65 54.42 11.00 407.00 2671.15
   07:20:22.200.24-Feb-2020 3225.01 5662.65 54.42 11.00 407.20 2671.15
   07:20:22.400.24-Feb-2020 3225.01 5641.85 54.42 11.00 407.40 2671.15
   07:20:22.600.24-Feb-2020 3225.01 5649.01 54.42 11.00 407.60 2671.15
   07:20:22.800.24-Feb-2020 3225.01 5646.18 54.42 11.00 407.80 2671.15
   07:20:23.000.24-Feb-2020 3225.01 5648.15 54.42 11.00 408.00 2671.15
   07:20:23.200.24-Feb-2020 3225.01 5648.88 54.42 11.00 408.20 2671.15
   07:20:23.400.24-Feb-2020 3225.01 5648.86 54.42 11.00 408.40 2671.15
   07:20:23.600.24-Feb-2020 3225.01 5649.06 54.42 11.00 408.60 2671.15
   07:20:23.800.24-Feb-2020 3225.01 5649.11 54.42 11.00 408.80 2671.15
   07:20:24.000.24-Feb-2020 3225.01 5649.21 54.42 11.00 409.00 2671.15
   07:20:24.200.24-Feb-2020 3225.01 5649.21 54.42 11.00 409.20 2671.15
   07:20:24.400.24-Feb-2020 3225.01 5649.18 54.42 11.00 409.40 2671.15
   07:20:24.600.24-Feb-2020 3225.01 5648.99 54.42 11.00 409.60 2671.15
   07:20:24.800.24-Feb-2020 3225.01 5648.93 54.42 11.00 409.80 2671.15
   07:20:25.000.24-Feb-2020 3225.01 5649.05 54.42 11.00 410.00 2671.15
   07:20:25.200.24-Feb-2020 3225.01 5649.05 54.42 11.00 410.20 2671.15
   07:20:25.400.24-Feb-2020 3225.01 5644.96 54.42 11.00 410.40 2671.15
   07:20:25.600.24-Feb-2020 3225.01 5642.89 54.42 11.00 410.60 2671.15
   07:20:25.800.24-Feb-2020 3225.01 5647.73 54.42 11.00 410.80 2671.15
   07:20:26.000.24-Feb-2020 3225.01 5646.73 54.41 11.00 411.00 2671.15
   07:20:26.200.24-Feb-2020 3225.01 5646.73 54.41 11.00 411.20 2671.15
   07:20:26.400.24-Feb-2020 3225.01 5647.16 54.41 11.00 411.40 2671.15
   07:20:26.600.24-Feb-2020 3225.01 5646.77 54.41 11.00 411.60 2671.15
   07:20:26.800.24-Feb-2020 3225.01 5647.54 54.41 11.00 411.80 2671.15
   07:20:27.000.24-Feb-2020 3225.01 5648.72 54.41 11.00 412.00 2671.15
   07:20:27.200.24-Feb-2020 3225.01 5648.72 54.41 11.00 412.20 2671.15
   07:20:27.400.24-Feb-2020 3225.01 5647.26 54.41 11.00 412.40 2671.15
   07:20:27.600.24-Feb-2020 3225.01 5648.04 54.41 11.00 412.60 2671.15
   07:20:27.800.24-Feb-2020 3225.01 5648.63 54.41 11.00 412.80 2671.15
   07:20:28.000.24-Feb-2020 3225.01 5649.51 54.41 11.00 413.00 2671.15
   07:20:28.200.24-Feb-2020 3225.01 5649.51 54.41 11.00 413.20 2671.15
   07:20:28.400.24-Feb-2020 3225.01 5647.46 54.41 11.00 413.40 2671.15
   07:20:28.600.24-Feb-2020 3225.01 5658.70 54.41 11.00 413.60 2671.15
   07:20:28.800.24-Feb-2020 3225.01 5643.99 54.41 11.00 413.80 2671.15
   07:20:29.000.24-Feb-2020 3225.01 5643.56 54.41 11.00 414.00 2671.15
   07:20:29.200.24-Feb-2020 3225.01 5643.56 54.41 11.00 414.20 2671.15
   07:20:29.400.24-Feb-2020 3225.01 5661.69 54.41 11.00 414.40 2671.15
   07:20:29.600.24-Feb-2020 3225.01 5640.21 54.41 11.00 414.60 2671.15
   07:20:29.800.24-Feb-2020 3225.01 5643.32 54.41 11.00 414.80 2671.15
   07:20:30.000.24-Feb-2020 3225.01 5649.49 54.41 11.00 415.00 2671.15
   07:20:30.200.24-Feb-2020 3225.01 5649.49 54.41 11.00 415.20 2671.15
   07:20:30.400.24-Feb-2020 3225.01 5647.47 54.41 11.00 415.40 2671.15
   07:20:30.600.24-Feb-2020 3225.01 5644.16 54.41 11.00 415.60 2671.15
   07:20:30.800.24-Feb-2020 3225.01 5649.10 54.41 11.00 415.80 2671.15
   07:20:31.000.24-Feb-2020 3225.01 5662.88 54.41 11.00 416.00 2671.15
   07:20:31.200.24-Feb-2020 3225.01 5662.88 54.41 11.00 416.20 2671.15
   07:20:31.400.24-Feb-2020 3225.01 5642.50 54.41 11.00 416.40 2671.15
   07:20:31.600.24-Feb-2020 3225.01 5648.82 54.41 11.00 416.60 2671.15
   07:20:31.800.24-Feb-2020 3225.01 5646.11 54.41 11.00 416.80 2671.15
   07:20:32.000.24-Feb-2020 3225.01 5648.03 54.41 11.00 417.00 2671.15
   07:20:32.200.24-Feb-2020 3225.01 5648.03 54.41 11.00 417.20 2671.15
   07:20:32.400.24-Feb-2020 3225.01 5648.51 54.41 11.00 417.40 2671.15
   07:20:32.600.24-Feb-2020 3225.01 5648.75 54.41 11.00 417.60 2671.15
   07:20:32.800.24-Feb-2020 3225.01 5648.78 54.41 11.00 417.80 2671.15
   07:20:33.000.24-Feb-2020 3225.01 5648.92 54.41 11.00 418.00 2671.15
   07:20:33.200.24-Feb-2020 3225.01 5648.92 54.41 11.00 418.20 2671.15
   07:20:33.400.24-Feb-2020 3225.01 5648.90 54.41 11.00 418.40 2671.15
   07:20:33.600.24-Feb-2020 3225.01 5648.85 54.41 11.00 418.60 2671.15
   07:20:33.800.24-Feb-2020 3225.01 5648.99 54.41 11.00 418.80 2671.15
   07:20:34.000.24-Feb-2020 3225.01 5649.19 54.41 11.00 419.00 2671.15
   07:20:34.200.24-Feb-2020 3225.01 5649.19 54.41 11.00 419.20 2671.15
   07:20:34.400.24-Feb-2020 3225.01 5645.12 54.41 11.00 419.40 2671.15
   07:20:34.600.24-Feb-2020 3225.01 5643.27 54.41 11.00 419.60 2671.15
   07:20:34.800.24-Feb-2020 3225.01 5647.48 54.41 11.00 419.80 2671.15
   07:20:35.000.24-Feb-2020 3225.01 5646.62 54.41 11.00 420.00 2671.15
   07:20:35.200.24-Feb-2020 3225.01 5648.09 54.41 11.00 420.20 2671.15
   07:20:35.400.24-Feb-2020 3225.01 5648.49 54.41 11.00 420.40 2671.15
   07:20:35.600.24-Feb-2020 3225.01 5647.32 54.41 11.00 420.60 2671.15
   07:20:35.800.24-Feb-2020 3225.01 5647.53 54.41 11.00 420.80 2671.15
   07:20:36.000.24-Feb-2020 3225.01 5648.05 54.41 11.00 421.00 2671.15
   07:20:36.200.24-Feb-2020 3225.01 5648.05 54.41 11.00 421.20 2671.15
   07:20:36.400.24-Feb-2020 3225.01 5648.19 54.41 11.00 421.40 2671.15
   07:20:36.600.24-Feb-2020 3225.01 5648.18 54.41 11.00 421.60 2671.15
   07:20:36.800.24-Feb-2020 3225.01 5648.68 54.41 11.00 421.80 2671.15
   07:20:37.000.24-Feb-2020 3225.01 5649.38 54.41 11.00 422.00 2671.15
   07:20:37.200.24-Feb-2020 3225.01 5649.38 54.41 11.00 422.20 2671.15
   07:20:37.400.24-Feb-2020 3225.01 5647.34 54.41 11.00 422.40 2671.15
   07:20:37.600.24-Feb-2020 3225.01 5658.76 54.41 11.00 422.60 2671.15
   07:20:37.800.24-Feb-2020 3225.01 5644.13 54.41 11.00 422.80 2671.15
   07:20:38.000.24-Feb-2020 3225.01 5643.95 54.41 11.00 423.00 2671.15
   07:20:38.200.24-Feb-2020 3225.01 5643.95 54.41 11.00 423.20 2671.15
   07:20:38.400.24-Feb-2020 3225.01 5661.71 54.41 11.00 423.40 2671.15
   07:20:38.600.24-Feb-2020 3225.01 5640.42 54.40 11.00 423.60 2671.15
   07:20:38.800.24-Feb-2020 3225.01 5643.82 54.40 11.00 423.80 2671.15
   07:20:39.000.24-Feb-2020 3225.01 5649.73 54.40 11.00 424.00 2671.15
   07:20:39.200.24-Feb-2020 3225.01 5654.83 54.40 11.00 424.20 2671.15
   07:20:39.400.24-Feb-2020 3225.01 5647.88 54.40 11.00 424.40 2671.15
   07:20:39.600.24-Feb-2020 3225.01 5644.35 54.40 11.00 424.60 2671.15
   07:20:39.800.24-Feb-2020 3225.01 5649.27 54.40 11.00 424.80 2671.15
   07:20:40.000.24-Feb-2020 3225.01 5663.04 54.40 11.00 425.00 2671.15
   07:20:40.200.24-Feb-2020 3225.01 5663.04 54.40 11.00 425.20 2671.15
   07:20:40.400.24-Feb-2020 3225.01 5642.67 54.40 11.00 425.40 2671.15
   07:20:40.600.24-Feb-2020 3225.01 5649.15 54.40 11.00 425.60 2671.15
   07:20:40.800.24-Feb-2020 3225.01 5646.00 54.40 11.00 425.80 2671.15
   07:20:41.000.24-Feb-2020 3225.01 5647.42 54.40 11.00 426.00 2671.15
   07:20:41.200.24-Feb-2020 3225.01 5647.42 54.40 11.00 426.20 2671.15
   07:20:41.400.24-Feb-2020 3225.01 5648.44 54.40 11.00 426.40 2671.15
   07:20:41.600.24-Feb-2020 3225.01 5648.57 54.40 11.00 426.60 2671.15
   07:20:41.800.24-Feb-2020 3225.01 5648.71 54.40 11.00 426.80 2671.15
   07:20:42.000.24-Feb-2020 3225.01 5649.01 54.40 11.00 427.00 2671.15
   07:20:42.200.24-Feb-2020 3225.01 5649.01 54.40 11.00 427.20 2671.15
   07:20:42.400.24-Feb-2020 3225.01 5649.02 54.40 11.00 427.40 2671.15
   07:20:42.600.24-Feb-2020 3225.01 5649.16 54.40 11.00 427.60 2671.15
   07:20:42.800.24-Feb-2020 3225.01 5649.16 54.40 11.00 427.80 2671.15
   07:20:43.000.24-Feb-2020 3225.01 5649.30 54.40 11.00 428.00 2671.15
   07:20:43.200.24-Feb-2020 3225.01 5661.38 54.40 11.00 428.20 2671.15
   07:20:43.400.24-Feb-2020 3225.01 5645.35 54.40 11.00 428.40 2671.15
   07:20:43.600.24-Feb-2020 3225.01 5643.44 54.40 11.00 428.60 2671.15
   07:20:43.800.24-Feb-2020 3225.01 5647.79 54.40 11.00 428.80 2671.15
   07:20:44.000.24-Feb-2020 3225.01 5646.72 54.40 11.00 429.00 2671.15
   07:20:44.200.24-Feb-2020 3225.01 5646.72 54.40 11.00 429.20 2671.15
