~Version Information
 VERS.                  2.0:   CWLS log ASCII Standard -VERSION 2.0
 WRAP.                   NO:   One line per depth step
~Well Information Block
#MNEM.UNIT     VALUE/NAME     DESCRIPTION
#---------     -----------    ---------------------------
 STRT.S             06:21:10 24-Feb-20: START TIME 06:21:10 24-Feb-20
 STOP.S             06:29:09 24-Feb-20: STOP TIME  06:29:09 24-Feb-20
 STEP.S                   0.00: STEP TIME
 NULL.                 -999.25: NULL VALUE
 JOBN.        AZ-XX-0905059384:  JOB TICKET NUMB
 PDAT.          Mean Sea Level:  PERMANENT DATUM
 UNIT.                     N/A:  LOGGING EQUIPMENT ID
 DCON.         Sperry Drilling:  DIRECTNL CONTR
 DOE .                     N/A:  DOE NUMBER
 RIG .             West Chirag:  RIG NAME
 WELL.                     J22:  WELL NAME
 MWDS.                    Baku:  MWD SHOP
 SRVC.     TURAN Drilling & Engineering:  CONTRACTOR
 FLD .                     ACG:  FIELD NAME
 CTRY.              Azerbaijan:  COUNTRY NAME
 PROV.                    Baku:  PROVINCE
 STAT.                    Baku:  STATE NAME
 REGN.                   EESSA:  REGION
 BASE.              Azerbaijan:  LOGGING EQUIPMENT BASE LOCATION
 UWI .                     N/A:  UNIQUE WELL IDENTIFIER
 API .                     N/A:  API NUMBER
 COMP.     BP Exploration (Caspian Sea) Ltd.:  COMPANY
 WTYP.                Deviated:  WELL TYPE
 MDS .        Operator Entered:  MAG DATA SOURCE
 SON .        AZ-XX-0905059384:  JOB NUMBER
 FTOP.          Formation Tops:  FORM TOPS DESC
 ILTD.               Lithology:  INTERP LTH DESC
 SVYD.                  Survey:  SURVEY DESC
 DMOD.             Drill Model:  DRILL MOD DESC
 HPTY.       Minimum Curvature:  HOLE POS TYPE
 NREF.                    Grid:  NORTH REFERENCE
 SPUD.               09-Jan-20:  SPUD DATE
 DATE.      14.04.48 07-Feb-20:  END TIME
 STIM.      07.00.00 09-Jan-20:  START TIME
 DMF .             Drill Floor:  DRILL MEAS FROM
 DFST.                        :  DIST FSL TEXT
 DFWT.                        :  DIST FWL TEXT
 CNTY.                        :  COUNTY
 LOC .                        :  LOCATION
 LMF .             Drill Floor:  LOG MEASURED FROM
 DEP .m                   0.00:  DEPTH
 VSNS.m                  10.28:  VERT SEC N/S
 VSEW.m                  -6.24:  VERT SEC E/W
 AGAP.m                  43.00:  AIR GAP
 APD .m                  43.00:  DEPTH ABOVE PD
 WDMS.m                 169.80:  WD ELEV
 EGL .m                   0.00:  GROUND ELEVATION
 EPD .m                   0.00:  ELEVATION
 AZTC.deg                 6.27:  AZM TOTAL CORR
 GRDC.deg                 0.15:  GRID CORRECTION
 MDEC.deg                 6.42:  MAGNETIC DECL
 MDIP.deg                59.56:  MAGNETIC DIP
 MFLD.nT              50277.00:  MAGNETIC FIELD
 GVFD.g                   1.00:  GRAVITY FIELD
 VSDR.deg               148.53:  VERT SEC DIRECT
 TDD .m                3473.01:  TOTAL DEPTH (DRILLER)
 SDEP.m                 364.00:  START DEPTH
 DFSL.m                   0.00:  DISTANCE FSL
 DFWL.m                   0.00:  DISTANCE FWL
 UTMY.m             4443793.85:  UTM Y
 UTMX.m              519005.06:  UTM X
 WHEW.m                  -6.24:  WELL HEAD E/W
 WHNS.m                  10.28:  WELL HEAD N/S
 LONG.deg                51.22:  LONGITUDE
 LATI.deg                40.13:  LATITUDE
 TVDS.m                  43.00:  TVDSS CORRECTN
 EKB .m                   0.00:  KB ELEVATION
 EDF .m                  43.00:  DF ELEVATION
 TDL .m                 254.00:  TOTAL DEPTH (LOGGER)
 MAGU.                 1850021:  MAGUTM CHECKSUM
 VSC .                       0:  VS TO CLOSURE
~Parameter Information Block
#MNEM.UNIT       Value        Description
#---------     -----------    ---------------------------
 AV  .mps                 0.50:  Ann Velocity 
 AVMX.mps                 1.40:  Max Ann Veloc 
 AZIF.deg               144.94:  Azm, Final 
 BHAT.        Rotary Steerable:  BHA Type 
 BROT.°/30m               0.23:  Build Rotating 
 BS  .in                  8.50:  Bit Size 
 BTPL.psig              264.00:  Bit Press Loss 
 CABU.                     Yes:  Customer Abuse 
 COMM.                     î^:  Run Comments 1 
 TCS .hr                 87.30:  Time Ciculation Ended 
 CV  .mps                 2.45:  Crit Velocity 
 CVMX.mps                 2.74:  Max Crit Veloc 
 DD1 .             Aziz Aliyev:  Direct Drillr 1 
 DDSV.               Geo-Pilot:  DD Service 
 DEFF.%                 100.00:  % Det Eff 
 DLRX.°/30m               1.22:  Dogleg Rot Max 
 DLSO.°/30m               0.52:  Dogleg Oriented 
 DLSX.°/30m               1.22:  Dogleg Str Max 
 DRET.      12.59.00 23-Feb-20:  Drill End Time 
 DRST.      09.44.00 18-Feb-20:  Drill Start Tim 
 DTIM.hr                 23.03:  Time Drilling 
 EDEP.m                3473.01:  End Depth 
 ENG1.         Almaz Almadatov:  Engineer 1 
 ENG2.         Dair Mahammadov:  Engineer 2 
 ENG3.          Nazrin Asgarli:  Engineer 3 
 ETIM.      10.33.36 26-Feb-20:  End Time 
 FLOI.gpm               480.00:  Flow In 
 FLON.gpm               300.00:  Flow In Min 
 FLOS.cptm                1.00:  Fluid Loss 
 FLOX.gpm               550.00:  Flow In Max 
 HFLO.                      No:  High Flow 
 HPRE.                      No:  High Pressure 
 HTEM.                      No:  High Temp 
 HYDO.m                   1.80:  Hydro Offset 
 IFIN.deg                74.42:  Inc, Final 
 IMAX.deg                76.14:  Inc Max 
 IMIN.deg                74.42:  Inc Min 
 IMND.m                3462.72:  Inc Min Depth 
 IMXD.m                3235.69:  Inc Max Depth 
 JARR.                      No:  Jarring 
 LETM.      12.59.00 23-Feb-20:  Log End Time 
 LOST.hr                     0:  Lost Rig Time 
 LSTM.      09.44.00 18-Feb-20:  Log Start Time 
 MDCL.ppm             45000.00:  Mud Chlorides 
 MDES.     Inversion Oil/Synthetic:  Mud Desc 
 DFD .sg                  1.38:  Mud Density 
 MDMN.sg                  1.34:  Dens Mud Min 
 MDMX.sg                  1.49:  Dens Mud Max 
 MOIL.                      67:  Run Mud Oil % 
 MOWR.                   67:33:  Run Mud OWR 
 MSND.                    0.12:  Run Mud Sand % 
 MSOL.                      22:  Run Mud Solids% 
 DFV .spqt               81.00:  Mud Viscosity 
 MWOD.in                  6.75:  MWD Tool OD 
 MWSI.                      No:  Serv Intrp, MWD 
 OTIM.hr                231.44:  Time Operating 
 PCON.          Wear / Scratch:  Pad Condition 
 PMAX.psia             3400.00:  Press Op, Max 
 PV  .cP                 55.00:  Mud PV 
 RUN .                     800:  Run Number 
 ROPA.m/hr               12.00:  ROP Avg 
 ROPN.m/hr                5.00:  ROP Min 
 ROPX.m/hr               28.00:  ROP Max 
 RPMA.rpm               120.00:  RPM Surface Avg 
 RPMN.rpm                40.00:  RPM Surface Min 
 RPMX.rpm               130.00:  RPM Surface Max 
 RRUN.                    0800:  Rig Run Number 
 RTIM.hr                 45.00:  Time Reaming 
 SAZI.deg               145.38:  Azm, Start 
 SDEP.m                3219.01:  Start Depth 
 SIDD.                      No:  Serv Intrp, DD 
 SINC.deg                75.11:  Inc, Start 
 SPPA.psig             2400.00:  SPP Avg 
 SPPN.psig             2320.00:  SPP Min 
 SPPX.psig             3200.00:  SPP Max 
 STIM.      15.15.00 17-Feb-20:  Start Time 
 SVCS.                 DD, MWD:  Services 
 SVER.                    9.20:  Sperry Version 
 TDAT.m                 254.00:  Tot Depth Attmp 
 TDDF.                      No:  Trip for DD 
 TDLG.m                 254.00:  Tot Depth Loggd 
 TFF .                      No:  Trip for Fail 
 TQAA.f-kp               13.00:  Torque Abs Avg 
 TQAN.f-kp                7.00:  Torque Abs Min 
 TQAX.f-kp               15.00:  Torque Abs Max 
 TRRT.°/30m               0.21:  Turn Rotating 
 MRT .                  EWR-M5:  Maximum Recorded Temperature 
 TTMX.degC               64.00:  Max Tool Temp 
 VS01.                90586516:  Virtual Str1 SN 
 VS02.                90513691:  Virtual Str2 SN 
 VS03.                90586523:  Virtual Str3 SN 
 VS04.                90586520:  Virtual Str4 SN 
 VS05.                90590507:  Virtual Str5 SN 
 WBMN.klb                12.00:  WOB Min 
 WITN.           Rufat Babayev:  Customer Rep 2 
 WITN.         Alistair Sprott:  Customer Rep 
 WOBA.klb                18.00:  WOB Avg 
 WOBX.klb                30.00:  WOB Max 
 YP  .lhf2               41.00:  Yield Point 
~Curve Information Block
#MNEM.UNIT                 API CODE     Curve Description
#---------               -----------    ---------------------------
 TIME.HHMMSS            00 000 000 000:  GT Time & Date
 GTDEPTH.m              00 000 000 000:  GT Depth
 GTPQH.psia             00 000 000 000:  GT HR Quartz Pressure
 GTTQ.degC              00 000 000 000:  GT Quartz Temperature
 GTTN.NONE              00 000 000 000:  GT Test Number
 GTET.sec               00 000 000 000:  GT Elapsed Test Time
 GTTVD.m                00 000 000 000:  GT True Vertical Depth
#Other Information
#
#WARRANTY: Halliburton will use its best efforts to furnish customers with 
#accurate information and interpretations that are part of, and incident to, the services 
#provided.  However, Halliburton cannot and does not warrant the accuracy 
#or correctness of such information and interpretations.  Under no circumstances should any 
#such information or interpretation be relied upon as the sole basis for any drilling, 
#completion, production, or financial decision or any procedure involving any risk to the 
#safety of any drilling venture, drilling rig or its crew or any other third party.  The 
#Customer has full responsibility for all drilling, completion and production operation.  
#Halliburton makes no representations or warranties, either expressed or 
#implied, including, but not limited to, the implied warranties of merchantability or fitness 
#for a particular purpose, with respect to the services rendered.  In no event will 
#Halliburton be liable for failure to obtain any particular results or for 
#any damages, including, but not limited to, indirect, special or consequential damages, 
#resulting from the use of any information or interpretation provided by Halliburton.
#
~A           TIME           GTDEPTH  GTPQH  GTTQ  GTTN   GTET   GTTVD  
# ...
   06:22:18.223.24-Feb-2020 3290.51 5427.42 54.01 10.00  67.81 2687.65
   06:22:18.423.24-Feb-2020 3290.51 5429.40 54.01 10.00  68.01 2687.65
   06:22:18.623.24-Feb-2020 3290.51 5429.40 54.01 10.00  68.21 2687.65
   06:22:18.823.24-Feb-2020 3290.51 5434.88 54.01 10.00  68.41 2687.65
   06:22:19.023.24-Feb-2020 3290.51 5437.32 54.01 10.00  68.62 2687.65
   06:22:19.223.24-Feb-2020 3290.51 5438.93 54.01 10.00  68.82 2687.65
   06:22:19.423.24-Feb-2020 3290.51 5439.81 54.01 10.00  69.02 2687.65
   06:22:19.623.24-Feb-2020 3290.51 5439.81 54.01 10.00  69.22 2687.65
   06:22:19.823.24-Feb-2020 3290.51 5440.63 54.01 10.00  69.42 2687.65
   06:22:20.023.24-Feb-2020 3290.51 5440.85 54.01 10.00  69.62 2687.65
   06:22:20.223.24-Feb-2020 3290.51 5441.04 54.01 10.00  69.82 2687.65
   06:22:20.423.24-Feb-2020 3290.51 5441.23 54.01 10.00  70.02 2687.65
   06:22:20.623.24-Feb-2020 3290.51 5440.81 54.01 10.00  70.22 2687.65
   06:22:20.823.24-Feb-2020 3290.51 5440.66 54.01 10.00  70.42 2687.65
   06:22:21.023.24-Feb-2020 3290.51 5440.44 54.01 10.00  70.62 2687.65
   06:22:21.223.24-Feb-2020 3290.51 5440.26 54.01 10.00  70.82 2687.65
   06:22:21.424.24-Feb-2020 3290.51 5439.84 54.01 10.00  71.02 2687.65
   06:22:21.624.24-Feb-2020 3290.51 5439.84 54.01 10.00  71.22 2687.65
   06:22:21.824.24-Feb-2020 3290.51 5438.77 54.01 10.00  71.42 2687.65
   06:22:22.024.24-Feb-2020 3290.51 5441.20 54.01 10.00  71.62 2687.65
   06:22:22.224.24-Feb-2020 3290.51 5442.81 54.01 10.00  71.82 2687.65
   06:22:22.424.24-Feb-2020 3290.51 5443.54 54.01 10.00  72.02 2687.65
   06:22:22.624.24-Feb-2020 3290.51 5443.54 54.01 10.00  72.22 2687.65
   06:22:22.824.24-Feb-2020 3290.51 5449.33 54.01 10.00  72.42 2687.65
   06:22:23.024.24-Feb-2020 3290.51 5451.85 54.01 10.00  72.62 2687.65
   06:22:23.224.24-Feb-2020 3290.51 5453.99 54.01 10.00  72.82 2687.65
   06:22:23.424.24-Feb-2020 3290.51 5455.71 54.01 10.00  73.02 2687.65
   06:22:23.624.24-Feb-2020 3290.51 5455.71 54.01 10.00  73.22 2687.65
   06:22:23.824.24-Feb-2020 3290.51 5459.22 54.01 10.00  73.42 2687.65
   06:22:24.024.24-Feb-2020 3290.51 5461.76 54.01 10.00  73.62 2687.65
   06:22:24.224.24-Feb-2020 3290.51 5465.24 54.01 10.00  73.82 2687.65
   06:22:24.424.24-Feb-2020 3290.51 5469.54 54.01 10.00  74.02 2687.65
   06:22:24.624.24-Feb-2020 3290.51 5473.36 54.01 10.00  74.22 2687.65
   06:22:24.824.24-Feb-2020 3290.51 5483.40 54.01 10.00  74.42 2687.65
   06:22:25.024.24-Feb-2020 3290.51 5491.20 54.01 10.00  74.62 2687.65
   06:22:25.224.24-Feb-2020 3290.51 5497.80 54.01 10.00  74.82 2687.65
   06:22:25.424.24-Feb-2020 3290.51 5503.14 54.01 10.00  75.02 2687.65
   06:22:25.624.24-Feb-2020 3290.51 5503.14 54.01 10.00  75.22 2687.65
   06:22:25.824.24-Feb-2020 3290.51 5511.30 54.01 10.00  75.42 2687.65
   06:22:26.025.24-Feb-2020 3290.51 5514.94 54.01 10.00  75.62 2687.65
   06:22:26.225.24-Feb-2020 3290.51 5518.44 54.01 10.00  75.82 2687.65
   06:22:26.425.24-Feb-2020 3290.51 5521.73 54.01 10.00  76.02 2687.65
   06:22:26.625.24-Feb-2020 3290.51 5521.73 54.01 10.00  76.22 2687.65
   06:22:26.825.24-Feb-2020 3290.51 5527.98 54.01 10.00  76.42 2687.65
   06:22:27.025.24-Feb-2020 3290.51 5531.02 54.01 10.00  76.62 2687.65
   06:22:27.225.24-Feb-2020 3290.51 5534.11 54.01 10.00  76.82 2687.65
   06:22:27.425.24-Feb-2020 3290.51 5537.14 54.01 10.00  77.02 2687.65
   06:22:27.625.24-Feb-2020 3290.51 5537.14 54.01 10.00  77.22 2687.65
   06:22:27.825.24-Feb-2020 3290.51 5542.08 54.01 10.00  77.42 2687.65
   06:22:28.025.24-Feb-2020 3290.51 5550.15 54.01 10.00  77.62 2687.65
   06:22:28.225.24-Feb-2020 3290.51 5554.71 54.01 10.00  77.82 2687.65
   06:22:28.425.24-Feb-2020 3290.51 5558.35 54.01 10.00  78.02 2687.65
   06:22:28.625.24-Feb-2020 3290.51 5560.97 54.01 10.00  78.22 2687.65
   06:22:28.825.24-Feb-2020 3290.51 5563.55 54.01 10.00  78.42 2687.65
   06:22:29.025.24-Feb-2020 3290.51 5566.02 54.01 10.00  78.62 2687.65
   06:22:29.225.24-Feb-2020 3290.51 5568.30 54.01 10.00  78.82 2687.65
   06:22:29.425.24-Feb-2020 3290.51 5570.76 54.01 10.00  79.02 2687.65
   06:22:29.625.24-Feb-2020 3290.51 5570.76 54.01 10.00  79.22 2687.65
   06:22:29.825.24-Feb-2020 3290.51 5575.01 54.01 10.00  79.42 2687.65
   06:22:30.025.24-Feb-2020 3290.51 5576.93 54.01 10.00  79.62 2687.65
   06:22:30.225.24-Feb-2020 3290.51 5579.25 54.01 10.00  79.82 2687.65
   06:22:30.425.24-Feb-2020 3290.51 5581.49 54.01 10.00  80.02 2687.65
   06:22:30.626.24-Feb-2020 3290.51 5581.49 54.01 10.00  80.22 2687.65
   06:22:30.826.24-Feb-2020 3290.51 5585.00 54.01 10.00  80.42 2687.65
   06:22:31.026.24-Feb-2020 3290.51 5586.67 54.01 10.00  80.62 2687.65
   06:22:31.226.24-Feb-2020 3290.51 5588.28 54.01 10.00  80.82 2687.65
   06:22:31.426.24-Feb-2020 3290.51 5596.16 54.01 10.00  81.02 2687.65
   06:22:31.626.24-Feb-2020 3290.51 5596.16 54.01 10.00  81.22 2687.65
   06:22:31.826.24-Feb-2020 3290.51 5604.55 54.01 10.00  81.42 2687.65
   06:22:32.026.24-Feb-2020 3290.51 5610.65 54.01 10.00  81.62 2687.65
   06:22:32.226.24-Feb-2020 3290.51 5616.36 54.01 10.00  81.82 2687.65
   06:22:32.426.24-Feb-2020 3290.51 5620.39 54.01 10.00  82.02 2687.65
   06:22:32.626.24-Feb-2020 3290.51 5623.24 54.01 10.00  82.22 2687.65
   06:22:32.826.24-Feb-2020 3290.51 5625.61 54.01 10.00  82.42 2687.65
   06:22:33.026.24-Feb-2020 3290.51 5627.70 54.01 10.00  82.62 2687.65
   06:22:33.226.24-Feb-2020 3290.51 5634.39 54.01 10.00  82.82 2687.65
   06:22:33.426.24-Feb-2020 3290.51 5639.44 54.01 10.00  83.02 2687.65
   06:22:33.626.24-Feb-2020 3290.51 5639.44 54.01 10.00  83.22 2687.65
   06:22:33.826.24-Feb-2020 3290.51 5644.16 54.01 10.00  83.42 2687.65
   06:22:34.026.24-Feb-2020 3290.51 5650.75 54.01 10.00  83.62 2687.65
   06:22:34.226.24-Feb-2020 3290.51 5656.44 54.01 10.00  83.82 2687.65
   06:22:34.426.24-Feb-2020 3290.51 5659.80 54.01 10.00  84.02 2687.65
   06:22:34.626.24-Feb-2020 3290.51 5659.80 54.01 10.00  84.22 2687.65
   06:22:34.826.24-Feb-2020 3290.51 5664.56 54.01 10.00  84.42 2687.65
   06:22:35.026.24-Feb-2020 3290.51 5666.43 54.01 10.00  84.62 2687.65
   06:22:35.227.24-Feb-2020 3290.51 5668.17 54.01 10.00  84.82 2687.65
   06:22:35.427.24-Feb-2020 3290.51 5669.87 54.01 10.00  85.02 2687.65
   06:22:35.627.24-Feb-2020 3290.51 5669.87 54.01 10.00  85.22 2687.65
   06:22:35.827.24-Feb-2020 3290.51 5672.98 54.01 10.00  85.42 2687.65
   06:22:36.027.24-Feb-2020 3290.51 5674.50 54.01 10.00  85.62 2687.65
   06:22:36.227.24-Feb-2020 3290.51 5675.95 54.01 10.00  85.82 2687.65
   06:22:36.427.24-Feb-2020 3290.51 5677.46 54.01 10.00  86.02 2687.65
   06:22:36.627.24-Feb-2020 3290.51 5678.78 54.01 10.00  86.22 2687.65
   06:22:36.827.24-Feb-2020 3290.51 5679.39 54.01 10.00  86.42 2687.65
   06:22:37.027.24-Feb-2020 3290.51 5681.24 54.01 10.00  86.62 2687.65
   06:22:37.227.24-Feb-2020 3290.51 5686.11 54.01 10.00  86.82 2687.65
   06:22:37.427.24-Feb-2020 3290.51 5688.93 54.01 10.00  87.02 2687.65
   06:22:37.627.24-Feb-2020 3290.51 5688.93 54.01 10.00  87.22 2687.65
   06:22:37.827.24-Feb-2020 3290.51 5694.02 54.01 10.00  87.42 2687.65
   06:22:38.027.24-Feb-2020 3290.51 5695.63 54.01 10.00  87.62 2687.65
   06:22:38.227.24-Feb-2020 3290.51 5697.16 54.01 10.00  87.82 2687.65
   06:22:38.427.24-Feb-2020 3290.51 5698.87 54.01 10.00  88.02 2687.65
   06:22:38.627.24-Feb-2020 3290.51 5698.87 54.01 10.00  88.22 2687.65
   06:22:38.827.24-Feb-2020 3290.51 5702.29 54.01 10.00  88.42 2687.65
   06:22:39.027.24-Feb-2020 3290.51 5703.90 54.01 10.00  88.62 2687.65
   06:22:39.227.24-Feb-2020 3290.51 5704.85 54.01 10.00  88.82 2687.65
   06:22:39.427.24-Feb-2020 3290.51 5706.28 54.01 10.00  89.02 2687.65
   06:22:39.627.24-Feb-2020 3290.51 5706.28 54.01 10.00  89.22 2687.65
   06:22:39.828.24-Feb-2020 3290.51 5709.60 54.01 10.00  89.42 2687.65
   06:22:40.028.24-Feb-2020 3290.51 5711.28 54.01 10.00  89.62 2687.65
   06:22:40.228.24-Feb-2020 3290.51 5712.81 54.01 10.00  89.82 2687.65
   06:22:40.428.24-Feb-2020 3290.51 5715.23 54.01 10.00  90.02 2687.65
   06:22:40.628.24-Feb-2020 3290.51 5720.25 54.01 10.00  90.22 2687.65
