~Version Information
 VERS.                  2.0:   CWLS log ASCII Standard -VERSION 2.0
 WRAP.                   NO:   One line per depth step
~Well Information Block
#MNEM.UNIT     VALUE/NAME     DESCRIPTION
#---------     -----------    ---------------------------
 STRT.S             01:26:08 24-Feb-20: START TIME 01:26:08 24-Feb-20
 STOP.S             01:33:25 24-Feb-20: STOP TIME  01:33:25 24-Feb-20
 STEP.S                   0.00: STEP TIME
 NULL.                 -999.25: NULL VALUE
 JOBN.        AZ-XX-0905059384:  JOB TICKET NUMB
 PDAT.          Mean Sea Level:  PERMANENT DATUM
 UNIT.                     N/A:  LOGGING EQUIPMENT ID
 DCON.         Sperry Drilling:  DIRECTNL CONTR
 DOE .                     N/A:  DOE NUMBER
 RIG .             West Chirag:  RIG NAME
 WELL.                     J22:  WELL NAME
 MWDS.                    Baku:  MWD SHOP
 SRVC.     TURAN Drilling & Engineering:  CONTRACTOR
 FLD .                     ACG:  FIELD NAME
 CTRY.              Azerbaijan:  COUNTRY NAME
 PROV.                    Baku:  PROVINCE
 STAT.                    Baku:  STATE NAME
 REGN.                   EESSA:  REGION
 BASE.              Azerbaijan:  LOGGING EQUIPMENT BASE LOCATION
 UWI .                     N/A:  UNIQUE WELL IDENTIFIER
 API .                     N/A:  API NUMBER
 COMP.     BP Exploration (Caspian Sea) Ltd.:  COMPANY
 WTYP.                Deviated:  WELL TYPE
 MDS .        Operator Entered:  MAG DATA SOURCE
 SON .        AZ-XX-0905059384:  JOB NUMBER
 FTOP.          Formation Tops:  FORM TOPS DESC
 ILTD.               Lithology:  INTERP LTH DESC
 SVYD.                  Survey:  SURVEY DESC
 DMOD.             Drill Model:  DRILL MOD DESC
 HPTY.       Minimum Curvature:  HOLE POS TYPE
 NREF.                    Grid:  NORTH REFERENCE
 SPUD.               09-Jan-20:  SPUD DATE
 DATE.      14.04.48 07-Feb-20:  END TIME
 STIM.      07.00.00 09-Jan-20:  START TIME
 DMF .             Drill Floor:  DRILL MEAS FROM
 DFST.                        :  DIST FSL TEXT
 DFWT.                        :  DIST FWL TEXT
 CNTY.                        :  COUNTY
 LOC .                        :  LOCATION
 LMF .             Drill Floor:  LOG MEASURED FROM
 DEP .m                   0.00:  DEPTH
 VSNS.m                  10.28:  VERT SEC N/S
 VSEW.m                  -6.24:  VERT SEC E/W
 AGAP.m                  43.00:  AIR GAP
 APD .m                  43.00:  DEPTH ABOVE PD
 WDMS.m                 169.80:  WD ELEV
 EGL .m                   0.00:  GROUND ELEVATION
 EPD .m                   0.00:  ELEVATION
 AZTC.deg                 6.27:  AZM TOTAL CORR
 GRDC.deg                 0.15:  GRID CORRECTION
 MDEC.deg                 6.42:  MAGNETIC DECL
 MDIP.deg                59.56:  MAGNETIC DIP
 MFLD.nT              50277.00:  MAGNETIC FIELD
 GVFD.g                   1.00:  GRAVITY FIELD
 VSDR.deg               148.53:  VERT SEC DIRECT
 TDD .m                3473.01:  TOTAL DEPTH (DRILLER)
 SDEP.m                 364.00:  START DEPTH
 DFSL.m                   0.00:  DISTANCE FSL
 DFWL.m                   0.00:  DISTANCE FWL
 UTMY.m             4443793.85:  UTM Y
 UTMX.m              519005.06:  UTM X
 WHEW.m                  -6.24:  WELL HEAD E/W
 WHNS.m                  10.28:  WELL HEAD N/S
 LONG.deg                51.22:  LONGITUDE
 LATI.deg                40.13:  LATITUDE
 TVDS.m                  43.00:  TVDSS CORRECTN
 EKB .m                   0.00:  KB ELEVATION
 EDF .m                  43.00:  DF ELEVATION
 TDL .m                 254.00:  TOTAL DEPTH (LOGGER)
 MAGU.                 1850021:  MAGUTM CHECKSUM
 VSC .                       0:  VS TO CLOSURE
~Parameter Information Block
#MNEM.UNIT       Value        Description
#---------     -----------    ---------------------------
 AV  .mps                 0.50:  Ann Velocity 
 AVMX.mps                 1.40:  Max Ann Veloc 
 AZIF.deg               144.94:  Azm, Final 
 BHAT.        Rotary Steerable:  BHA Type 
 BROT.°/30m               0.23:  Build Rotating 
 BS  .in                  8.50:  Bit Size 
 BTPL.psig              264.00:  Bit Press Loss 
 CABU.                     Yes:  Customer Abuse 
 TCS .hr                 87.30:  Time Ciculation Ended 
 CV  .mps                 2.45:  Crit Velocity 
 CVMX.mps                 2.74:  Max Crit Veloc 
 DD1 .             Aziz Aliyev:  Direct Drillr 1 
 DDSV.               Geo-Pilot:  DD Service 
 DEFF.%                 100.00:  % Det Eff 
 DLRX.°/30m               1.22:  Dogleg Rot Max 
 DLSO.°/30m               0.52:  Dogleg Oriented 
 DLSX.°/30m               1.22:  Dogleg Str Max 
 DRET.      12.59.00 23-Feb-20:  Drill End Time 
 DRST.      09.44.00 18-Feb-20:  Drill Start Tim 
 DTIM.hr                 23.03:  Time Drilling 
 EDEP.m                3473.01:  End Depth 
 ENG1.         Almaz Almadatov:  Engineer 1 
 ENG2.         Dair Mahammadov:  Engineer 2 
 ENG3.          Nazrin Asgarli:  Engineer 3 
 ETIM.      10.33.36 26-Feb-20:  End Time 
 FLOI.gpm               480.00:  Flow In 
 FLON.gpm               300.00:  Flow In Min 
 FLOS.cptm                1.00:  Fluid Loss 
 FLOX.gpm               550.00:  Flow In Max 
 HFLO.                      No:  High Flow 
 HPRE.                      No:  High Pressure 
 HTEM.                      No:  High Temp 
 HYDO.m                   1.80:  Hydro Offset 
 IFIN.deg                74.42:  Inc, Final 
 IMAX.deg                76.14:  Inc Max 
 IMIN.deg                74.42:  Inc Min 
 IMND.m                3462.72:  Inc Min Depth 
 IMXD.m                3235.69:  Inc Max Depth 
 JARR.                      No:  Jarring 
 LETM.      12.59.00 23-Feb-20:  Log End Time 
 LOST.hr                     0:  Lost Rig Time 
 LSTM.      09.44.00 18-Feb-20:  Log Start Time 
 MDCL.ppm             45000.00:  Mud Chlorides 
 MDES.     Inversion Oil/Synthetic:  Mud Desc 
 DFD .sg                  1.38:  Mud Density 
 MDMN.sg                  1.34:  Dens Mud Min 
 MDMX.sg                  1.49:  Dens Mud Max 
 MOIL.                      67:  Run Mud Oil % 
 MOWR.                   67:33:  Run Mud OWR 
 MSND.                    0.12:  Run Mud Sand % 
 MSOL.                      22:  Run Mud Solids% 
 DFV .spqt               81.00:  Mud Viscosity 
 MWOD.in                  6.75:  MWD Tool OD 
 MWSI.                      No:  Serv Intrp, MWD 
 OTIM.hr                231.44:  Time Operating 
 PCON.          Wear / Scratch:  Pad Condition 
 PMAX.psia             3400.00:  Press Op, Max 
 PV  .cP                 55.00:  Mud PV 
 RUN .                     800:  Run Number 
 ROPA.m/hr               12.00:  ROP Avg 
 ROPN.m/hr                5.00:  ROP Min 
 ROPX.m/hr               28.00:  ROP Max 
 RPMA.rpm               120.00:  RPM Surface Avg 
 RPMN.rpm                40.00:  RPM Surface Min 
 RPMX.rpm               130.00:  RPM Surface Max 
 RRUN.                    0800:  Rig Run Number 
 RTIM.hr                 45.00:  Time Reaming 
 SAZI.deg               145.38:  Azm, Start 
 SDEP.m                3219.01:  Start Depth 
 SIDD.                      No:  Serv Intrp, DD 
 SINC.deg                75.11:  Inc, Start 
 SPPA.psig             2400.00:  SPP Avg 
 SPPN.psig             2320.00:  SPP Min 
 SPPX.psig             3200.00:  SPP Max 
 STIM.      15.15.00 17-Feb-20:  Start Time 
 SVCS.                 DD, MWD:  Services 
 SVER.                    9.20:  Sperry Version 
 TDAT.m                 254.00:  Tot Depth Attmp 
 TDDF.                      No:  Trip for DD 
 TDLG.m                 254.00:  Tot Depth Loggd 
 TFF .                      No:  Trip for Fail 
 TQAA.f-kp               13.00:  Torque Abs Avg 
 TQAN.f-kp                7.00:  Torque Abs Min 
 TQAX.f-kp               15.00:  Torque Abs Max 
 TRRT.°/30m               0.21:  Turn Rotating 
 MRT .                  EWR-M5:  Maximum Recorded Temperature 
 TTMX.degC               64.00:  Max Tool Temp 
 VS01.                90586516:  Virtual Str1 SN 
 VS02.                90513691:  Virtual Str2 SN 
 VS03.                90586523:  Virtual Str3 SN 
 VS04.                90586520:  Virtual Str4 SN 
 VS05.                90590507:  Virtual Str5 SN 
 WBMN.klb                12.00:  WOB Min 
 WITN.           Rufat Babayev:  Customer Rep 2 
 WITN.         Alistair Sprott:  Customer Rep 
 WOBA.klb                18.00:  WOB Avg 
 WOBX.klb                30.00:  WOB Max 
 YP  .lhf2               41.00:  Yield Point 
~Curve Information Block
#MNEM.UNIT                 API CODE     Curve Description
#---------               -----------    ---------------------------
 TIME.HHMMSS            00 000 000 000:  GT Time & Date
 GTDEPTH.m              00 000 000 000:  GT Depth
 GTPQH.psia             00 000 000 000:  GT HR Quartz Pressure
 GTTQ.degC              00 000 000 000:  GT Quartz Temperature
 GTTN.NONE              00 000 000 000:  GT Test Number
 GTET.sec               00 000 000 000:  GT Elapsed Test Time
 GTTVD.m                00 000 000 000:  GT True Vertical Depth
#Other Information
#
#WARRANTY: Halliburton will use its best efforts to furnish customers with 
#accurate information and interpretations that are part of, and incident to, the services 
#provided.  However, Halliburton cannot and does not warrant the accuracy 
#or correctness of such information and interpretations.  Under no circumstances should any 
#such information or interpretation be relied upon as the sole basis for any drilling, 
#completion, production, or financial decision or any procedure involving any risk to the 
#safety of any drilling venture, drilling rig or its crew or any other third party.  The 
#Customer has full responsibility for all drilling, completion and production operation.  
#Halliburton makes no representations or warranties, either expressed or 
#implied, including, but not limited to, the implied warranties of merchantability or fitness 
#for a particular purpose, with respect to the services rendered.  In no event will 
#Halliburton be liable for failure to obtain any particular results or for 
#any damages, including, but not limited to, indirect, special or consequential damages, 
#resulting from the use of any information or interpretation provided by Halliburton.
#
~A           TIME           GTDEPTH  GTPQH  GTTQ  GTTN  GTET   GTTVD  
# ...
   01:29:58.209.24-Feb-2020 3405.01 4215.17 56.86 3.00 230.05 2716.73
   01:29:58.409.24-Feb-2020 3405.01 4215.17 56.86 3.00 230.25 2716.73
   01:29:58.609.24-Feb-2020 3405.01 4215.18 56.86 3.00 230.45 2716.73
   01:29:58.809.24-Feb-2020 3405.01 4215.17 56.86 3.00 230.65 2716.73
   01:29:59.009.24-Feb-2020 3405.01 4215.14 56.86 3.00 230.85 2716.73
   01:29:59.210.24-Feb-2020 3405.01 4215.02 56.86 3.00 231.05 2716.73
   01:29:59.410.24-Feb-2020 3405.01 4215.41 56.86 3.00 231.25 2716.73
   01:29:59.610.24-Feb-2020 3405.01 4215.19 56.86 3.00 231.45 2716.73
   01:29:59.810.24-Feb-2020 3405.01 4215.10 56.86 3.00 231.65 2716.73
   01:30:00.010.24-Feb-2020 3405.01 4215.16 56.86 3.00 231.85 2716.73
   01:30:00.210.24-Feb-2020 3405.01 4215.15 56.86 3.00 232.05 2716.73
   01:30:00.410.24-Feb-2020 3405.01 4215.15 56.86 3.00 232.25 2716.73
   01:30:00.610.24-Feb-2020 3405.01 4215.17 56.86 3.00 232.45 2716.73
   01:30:00.810.24-Feb-2020 3405.01 4215.16 56.86 3.00 232.65 2716.73
   01:30:01.010.24-Feb-2020 3405.01 4215.18 56.86 3.00 232.85 2716.73
   01:30:01.210.24-Feb-2020 3405.01 4215.17 56.86 3.00 233.05 2716.73
   01:30:01.410.24-Feb-2020 3405.01 4215.17 56.86 3.00 233.25 2716.73
   01:30:01.610.24-Feb-2020 3405.01 4215.16 56.86 3.00 233.45 2716.73
   01:30:01.810.24-Feb-2020 3405.01 4215.18 56.86 3.00 233.65 2716.73
   01:30:02.010.24-Feb-2020 3405.01 4215.18 56.86 3.00 233.85 2716.73
   01:30:02.210.24-Feb-2020 3405.01 4215.20 56.86 3.00 234.05 2716.73
   01:30:02.410.24-Feb-2020 3405.01 4215.20 56.86 3.00 234.25 2716.73
   01:30:02.610.24-Feb-2020 3405.01 4215.12 56.86 3.00 234.45 2716.73
   01:30:02.810.24-Feb-2020 3405.01 4215.10 56.86 3.00 234.65 2716.73
   01:30:03.010.24-Feb-2020 3405.01 4215.17 56.86 3.00 234.85 2716.73
   01:30:03.210.24-Feb-2020 3405.01 4215.40 56.86 3.00 235.05 2716.73
   01:30:03.410.24-Feb-2020 3405.01 4215.40 56.86 3.00 235.25 2716.73
   01:30:03.610.24-Feb-2020 3405.01 4215.08 56.86 3.00 235.45 2716.73
   01:30:03.810.24-Feb-2020 3405.01 4215.22 56.86 3.00 235.65 2716.73
   01:30:04.011.24-Feb-2020 3405.01 4215.22 56.86 3.00 235.85 2716.73
   01:30:04.211.24-Feb-2020 3405.01 4215.17 56.86 3.00 236.05 2716.73
   01:30:04.411.24-Feb-2020 3405.01 4215.17 56.86 3.00 236.25 2716.73
   01:30:04.611.24-Feb-2020 3405.01 4215.21 56.86 3.00 236.45 2716.73
   01:30:04.811.24-Feb-2020 3405.01 4215.27 56.86 3.00 236.65 2716.73
   01:30:05.011.24-Feb-2020 3405.01 4215.11 56.86 3.00 236.85 2716.73
   01:30:05.211.24-Feb-2020 3405.01 4215.10 56.86 3.00 237.05 2716.73
   01:30:05.411.24-Feb-2020 3405.01 4215.10 56.86 3.00 237.25 2716.73
   01:30:05.611.24-Feb-2020 3405.01 4215.09 56.86 3.00 237.45 2716.73
   01:30:05.811.24-Feb-2020 3405.01 4215.08 56.86 3.00 237.65 2716.73
   01:30:06.011.24-Feb-2020 3405.01 4215.18 56.86 3.00 237.85 2716.73
   01:30:06.211.24-Feb-2020 3405.01 4215.22 56.86 3.00 238.05 2716.73
   01:30:06.411.24-Feb-2020 3405.01 4215.22 56.86 3.00 238.25 2716.73
   01:30:06.611.24-Feb-2020 3405.01 4215.14 56.86 3.00 238.45 2716.73
   01:30:06.811.24-Feb-2020 3405.01 4215.18 56.85 3.00 238.65 2716.73
   01:30:07.011.24-Feb-2020 3405.01 4215.17 56.85 3.00 238.85 2716.73
   01:30:07.211.24-Feb-2020 3405.01 4215.17 56.85 3.00 239.05 2716.73
   01:30:07.411.24-Feb-2020 3405.01 4215.17 56.85 3.00 239.25 2716.73
   01:30:07.611.24-Feb-2020 3405.01 4215.17 56.85 3.00 239.45 2716.73
   01:30:07.811.24-Feb-2020 3405.01 4215.16 56.85 3.00 239.65 2716.73
   01:30:08.011.24-Feb-2020 3405.01 4215.17 56.85 3.00 239.85 2716.73
   01:30:08.211.24-Feb-2020 3405.01 4215.18 56.85 3.00 240.05 2716.73
   01:30:08.411.24-Feb-2020 3405.01 4215.18 56.85 3.00 240.25 2716.73
   01:30:08.611.24-Feb-2020 3405.01 4214.93 56.85 3.00 240.45 2716.73
   01:30:08.812.24-Feb-2020 3405.01 4215.47 56.85 3.00 240.65 2716.73
   01:30:09.012.24-Feb-2020 3405.01 4215.18 56.85 3.00 240.85 2716.73
   01:30:09.212.24-Feb-2020 3405.01 4215.06 56.85 3.00 241.05 2716.73
   01:30:09.412.24-Feb-2020 3405.01 4215.06 56.85 3.00 241.25 2716.73
   01:30:09.612.24-Feb-2020 3405.01 4215.19 56.85 3.00 241.45 2716.73
   01:30:09.812.24-Feb-2020 3405.01 4215.15 56.85 3.00 241.65 2716.73
   01:30:10.012.24-Feb-2020 3405.01 4215.16 56.85 3.00 241.85 2716.73
   01:30:10.212.24-Feb-2020 3405.01 4215.17 56.85 3.00 242.05 2716.73
   01:30:10.412.24-Feb-2020 3405.01 4215.17 56.85 3.00 242.25 2716.73
   01:30:10.612.24-Feb-2020 3405.01 4215.19 56.85 3.00 242.45 2716.73
   01:30:10.812.24-Feb-2020 3405.01 4215.17 56.85 3.00 242.65 2716.73
   01:30:11.012.24-Feb-2020 3405.01 4215.16 56.85 3.00 242.85 2716.73
   01:30:11.212.24-Feb-2020 3405.01 4215.16 56.85 3.00 243.05 2716.73
   01:30:11.412.24-Feb-2020 3405.01 4215.18 56.85 3.00 243.25 2716.73
   01:30:11.612.24-Feb-2020 3405.01 4215.17 56.85 3.00 243.45 2716.73
   01:30:11.812.24-Feb-2020 3405.01 4215.34 56.85 3.00 243.65 2716.73
   01:30:12.012.24-Feb-2020 3405.01 4215.02 56.85 3.00 243.85 2716.73
   01:30:12.212.24-Feb-2020 3405.01 4215.08 56.85 3.00 244.05 2716.73
   01:30:12.412.24-Feb-2020 3405.01 4215.08 56.85 3.00 244.25 2716.73
   01:30:12.612.24-Feb-2020 3405.01 4215.22 56.85 3.00 244.45 2716.73
   01:30:12.812.24-Feb-2020 3405.01 4215.13 56.85 3.00 244.65 2716.73
   01:30:13.012.24-Feb-2020 3405.01 4215.00 56.85 3.00 244.85 2716.73
   01:30:13.212.24-Feb-2020 3405.01 4215.41 56.85 3.00 245.05 2716.73
   01:30:13.412.24-Feb-2020 3405.01 4215.41 56.85 3.00 245.25 2716.73
   01:30:13.613.24-Feb-2020 3405.01 4215.11 56.85 3.00 245.45 2716.73
   01:30:13.813.24-Feb-2020 3405.01 4215.16 56.85 3.00 245.65 2716.73
   01:30:14.013.24-Feb-2020 3405.01 4215.17 56.85 3.00 245.85 2716.73
   01:30:14.213.24-Feb-2020 3405.01 4215.36 56.85 3.00 246.05 2716.73
   01:30:14.413.24-Feb-2020 3405.01 4215.36 56.85 3.00 246.25 2716.73
   01:30:14.613.24-Feb-2020 3405.01 4215.08 56.85 3.00 246.45 2716.73
   01:30:14.813.24-Feb-2020 3405.01 4215.21 56.85 3.00 246.65 2716.73
   01:30:15.013.24-Feb-2020 3405.01 4215.17 56.85 3.00 246.85 2716.73
   01:30:15.213.24-Feb-2020 3405.01 4215.05 56.85 3.00 247.05 2716.73
   01:30:15.413.24-Feb-2020 3405.01 4215.36 56.85 3.00 247.25 2716.73
   01:30:15.613.24-Feb-2020 3405.01 4215.18 56.85 3.00 247.45 2716.73
   01:30:15.813.24-Feb-2020 3405.01 4215.14 56.85 3.00 247.65 2716.73
   01:30:16.013.24-Feb-2020 3405.01 4215.15 56.85 3.00 247.85 2716.73
   01:30:16.213.24-Feb-2020 3405.01 4215.16 56.85 3.00 248.05 2716.73
   01:30:16.413.24-Feb-2020 3405.01 4215.16 56.85 3.00 248.25 2716.73
   01:30:16.613.24-Feb-2020 3405.01 4215.16 56.85 3.00 248.45 2716.73
   01:30:16.813.24-Feb-2020 3405.01 4215.16 56.85 3.00 248.65 2716.73
   01:30:17.013.24-Feb-2020 3405.01 4215.17 56.85 3.00 248.85 2716.73
   01:30:17.213.24-Feb-2020 3405.01 4215.17 56.85 3.00 249.05 2716.73
   01:30:17.413.24-Feb-2020 3405.01 4215.17 56.85 3.00 249.25 2716.73
   01:30:17.613.24-Feb-2020 3405.01 4215.18 56.85 3.00 249.45 2716.73
   01:30:17.813.24-Feb-2020 3405.01 4215.18 56.85 3.00 249.65 2716.73
   01:30:18.013.24-Feb-2020 3405.01 4215.20 56.85 3.00 249.85 2716.73
   01:30:18.213.24-Feb-2020 3405.01 4215.23 56.85 3.00 250.05 2716.73
   01:30:18.414.24-Feb-2020 3405.01 4215.23 56.85 3.00 250.25 2716.73
   01:30:18.614.24-Feb-2020 3405.01 4215.12 56.85 3.00 250.45 2716.73
   01:30:18.814.24-Feb-2020 3405.01 4215.16 56.85 3.00 250.65 2716.73
   01:30:19.014.24-Feb-2020 3405.01 4215.22 56.85 3.00 250.85 2716.73
   01:30:19.214.24-Feb-2020 3405.01 4215.15 56.85 3.00 251.05 2716.73
   01:30:19.414.24-Feb-2020 3405.01 4215.15 56.85 3.00 251.25 2716.73
   01:30:19.614.24-Feb-2020 3405.01 4215.18 56.85 3.00 251.45 2716.73
   01:30:19.814.24-Feb-2020 3405.01 4215.16 56.85 3.00 251.65 2716.73
   01:30:20.014.24-Feb-2020 3405.01 4215.18 56.85 3.00 251.85 2716.73
   01:30:20.214.24-Feb-2020 3405.01 4215.18 56.85 3.00 252.05 2716.73
   01:30:20.414.24-Feb-2020 3405.01 4215.18 56.85 3.00 252.25 2716.73
   01:30:20.614.24-Feb-2020 3405.01 4215.15 56.85 3.00 252.45 2716.73
   01:30:20.814.24-Feb-2020 3405.01 4215.17 56.85 3.00 252.65 2716.73
   01:30:21.014.24-Feb-2020 3405.01 4215.18 56.85 3.00 252.85 2716.73
