~Version Information
 VERS.                  2.0:   CWLS log ASCII Standard -VERSION 2.0
 WRAP.                   NO:   One line per depth step
~Well Information Block
#MNEM.UNIT     VALUE/NAME     DESCRIPTION
#---------     -----------    ---------------------------
 STRT.S             06:02:59 24-Feb-20: START TIME 06:02:59 24-Feb-20
 STOP.S             06:10:09 24-Feb-20: STOP TIME  06:10:09 24-Feb-20
 STEP.S                   0.00: STEP TIME
 NULL.                 -999.25: NULL VALUE
 JOBN.        AZ-XX-0905059384:  JOB TICKET NUMB
 PDAT.          Mean Sea Level:  PERMANENT DATUM
 UNIT.                     N/A:  LOGGING EQUIPMENT ID
 DCON.         Sperry Drilling:  DIRECTNL CONTR
 DOE .                     N/A:  DOE NUMBER
 RIG .             West Chirag:  RIG NAME
 WELL.                     J22:  WELL NAME
 MWDS.                    Baku:  MWD SHOP
 SRVC.     TURAN Drilling & Engineering:  CONTRACTOR
 FLD .                     ACG:  FIELD NAME
 CTRY.              Azerbaijan:  COUNTRY NAME
 PROV.                    Baku:  PROVINCE
 STAT.                    Baku:  STATE NAME
 REGN.                   EESSA:  REGION
 BASE.              Azerbaijan:  LOGGING EQUIPMENT BASE LOCATION
 UWI .                     N/A:  UNIQUE WELL IDENTIFIER
 API .                     N/A:  API NUMBER
 COMP.     BP Exploration (Caspian Sea) Ltd.:  COMPANY
 WTYP.                Deviated:  WELL TYPE
 MDS .        Operator Entered:  MAG DATA SOURCE
 SON .        AZ-XX-0905059384:  JOB NUMBER
 FTOP.          Formation Tops:  FORM TOPS DESC
 ILTD.               Lithology:  INTERP LTH DESC
 SVYD.                  Survey:  SURVEY DESC
 DMOD.             Drill Model:  DRILL MOD DESC
 HPTY.       Minimum Curvature:  HOLE POS TYPE
 NREF.                    Grid:  NORTH REFERENCE
 SPUD.               09-Jan-20:  SPUD DATE
 DATE.      14.04.48 07-Feb-20:  END TIME
 STIM.      07.00.00 09-Jan-20:  START TIME
 DMF .             Drill Floor:  DRILL MEAS FROM
 DFST.                        :  DIST FSL TEXT
 DFWT.                        :  DIST FWL TEXT
 CNTY.                        :  COUNTY
 LOC .                        :  LOCATION
 LMF .             Drill Floor:  LOG MEASURED FROM
 DEP .m                   0.00:  DEPTH
 VSNS.m                  10.28:  VERT SEC N/S
 VSEW.m                  -6.24:  VERT SEC E/W
 AGAP.m                  43.00:  AIR GAP
 APD .m                  43.00:  DEPTH ABOVE PD
 WDMS.m                 169.80:  WD ELEV
 EGL .m                   0.00:  GROUND ELEVATION
 EPD .m                   0.00:  ELEVATION
 AZTC.deg                 6.27:  AZM TOTAL CORR
 GRDC.deg                 0.15:  GRID CORRECTION
 MDEC.deg                 6.42:  MAGNETIC DECL
 MDIP.deg                59.56:  MAGNETIC DIP
 MFLD.nT              50277.00:  MAGNETIC FIELD
 GVFD.g                   1.00:  GRAVITY FIELD
 VSDR.deg               148.53:  VERT SEC DIRECT
 TDD .m                3473.01:  TOTAL DEPTH (DRILLER)
 SDEP.m                 364.00:  START DEPTH
 DFSL.m                   0.00:  DISTANCE FSL
 DFWL.m                   0.00:  DISTANCE FWL
 UTMY.m             4443793.85:  UTM Y
 UTMX.m              519005.06:  UTM X
 WHEW.m                  -6.24:  WELL HEAD E/W
 WHNS.m                  10.28:  WELL HEAD N/S
 LONG.deg                51.22:  LONGITUDE
 LATI.deg                40.13:  LATITUDE
 TVDS.m                  43.00:  TVDSS CORRECTN
 EKB .m                   0.00:  KB ELEVATION
 EDF .m                  43.00:  DF ELEVATION
 TDL .m                 254.00:  TOTAL DEPTH (LOGGER)
 MAGU.                 1850021:  MAGUTM CHECKSUM
 VSC .                       0:  VS TO CLOSURE
~Parameter Information Block
#MNEM.UNIT       Value        Description
#---------     -----------    ---------------------------
 AV  .mps                 0.50:  Ann Velocity 
 AVMX.mps                 1.40:  Max Ann Veloc 
 AZIF.deg               144.94:  Azm, Final 
 BHAT.        Rotary Steerable:  BHA Type 
 BROT.°/30m               0.23:  Build Rotating 
 BS  .in                  8.50:  Bit Size 
 BTPL.psig              264.00:  Bit Press Loss 
 CABU.                     Yes:  Customer Abuse 
 COMM.                     ä\:  Run Comments 1 
 TCS .hr                 87.30:  Time Ciculation Ended 
 CV  .mps                 2.45:  Crit Velocity 
 CVMX.mps                 2.74:  Max Crit Veloc 
 DD1 .             Aziz Aliyev:  Direct Drillr 1 
 DDSV.               Geo-Pilot:  DD Service 
 DEFF.%                 100.00:  % Det Eff 
 DLRX.°/30m               1.22:  Dogleg Rot Max 
 DLSO.°/30m               0.52:  Dogleg Oriented 
 DLSX.°/30m               1.22:  Dogleg Str Max 
 DRET.      12.59.00 23-Feb-20:  Drill End Time 
 DRST.      09.44.00 18-Feb-20:  Drill Start Tim 
 DTIM.hr                 23.03:  Time Drilling 
 EDEP.m                3473.01:  End Depth 
 ENG1.         Almaz Almadatov:  Engineer 1 
 ENG2.         Dair Mahammadov:  Engineer 2 
 ENG3.          Nazrin Asgarli:  Engineer 3 
 ETIM.      10.33.36 26-Feb-20:  End Time 
 FLOI.gpm               480.00:  Flow In 
 FLON.gpm               300.00:  Flow In Min 
 FLOS.cptm                1.00:  Fluid Loss 
 FLOX.gpm               550.00:  Flow In Max 
 HFLO.                      No:  High Flow 
 HPRE.                      No:  High Pressure 
 HTEM.                      No:  High Temp 
 HYDO.m                   1.80:  Hydro Offset 
 IFIN.deg                74.42:  Inc, Final 
 IMAX.deg                76.14:  Inc Max 
 IMIN.deg                74.42:  Inc Min 
 IMND.m                3462.72:  Inc Min Depth 
 IMXD.m                3235.69:  Inc Max Depth 
 JARR.                      No:  Jarring 
 LETM.      12.59.00 23-Feb-20:  Log End Time 
 LOST.hr                     0:  Lost Rig Time 
 LSTM.      09.44.00 18-Feb-20:  Log Start Time 
 MDCL.ppm             45000.00:  Mud Chlorides 
 MDES.     Inversion Oil/Synthetic:  Mud Desc 
 DFD .sg                  1.38:  Mud Density 
 MDMN.sg                  1.34:  Dens Mud Min 
 MDMX.sg                  1.49:  Dens Mud Max 
 MOIL.                      67:  Run Mud Oil % 
 MOWR.                   67:33:  Run Mud OWR 
 MSND.                    0.12:  Run Mud Sand % 
 MSOL.                      22:  Run Mud Solids% 
 DFV .spqt               81.00:  Mud Viscosity 
 MWOD.in                  6.75:  MWD Tool OD 
 MWSI.                      No:  Serv Intrp, MWD 
 OTIM.hr                231.44:  Time Operating 
 PCON.          Wear / Scratch:  Pad Condition 
 PMAX.psia             3400.00:  Press Op, Max 
 PV  .cP                 55.00:  Mud PV 
 RUN .                     800:  Run Number 
 ROPA.m/hr               12.00:  ROP Avg 
 ROPN.m/hr                5.00:  ROP Min 
 ROPX.m/hr               28.00:  ROP Max 
 RPMA.rpm               120.00:  RPM Surface Avg 
 RPMN.rpm                40.00:  RPM Surface Min 
 RPMX.rpm               130.00:  RPM Surface Max 
 RRUN.                    0800:  Rig Run Number 
 RTIM.hr                 45.00:  Time Reaming 
 SAZI.deg               145.38:  Azm, Start 
 SDEP.m                3219.01:  Start Depth 
 SIDD.                      No:  Serv Intrp, DD 
 SINC.deg                75.11:  Inc, Start 
 SPPA.psig             2400.00:  SPP Avg 
 SPPN.psig             2320.00:  SPP Min 
 SPPX.psig             3200.00:  SPP Max 
 STIM.      15.15.00 17-Feb-20:  Start Time 
 SVCS.                 DD, MWD:  Services 
 SVER.                    9.20:  Sperry Version 
 TDAT.m                 254.00:  Tot Depth Attmp 
 TDDF.                      No:  Trip for DD 
 TDLG.m                 254.00:  Tot Depth Loggd 
 TFF .                      No:  Trip for Fail 
 TQAA.f-kp               13.00:  Torque Abs Avg 
 TQAN.f-kp                7.00:  Torque Abs Min 
 TQAX.f-kp               15.00:  Torque Abs Max 
 TRRT.°/30m               0.21:  Turn Rotating 
 MRT .                  EWR-M5:  Maximum Recorded Temperature 
 TTMX.degC               64.00:  Max Tool Temp 
 VS01.                90586516:  Virtual Str1 SN 
 VS02.                90513691:  Virtual Str2 SN 
 VS03.                90586523:  Virtual Str3 SN 
 VS04.                90586520:  Virtual Str4 SN 
 VS05.                90590507:  Virtual Str5 SN 
 WBMN.klb                12.00:  WOB Min 
 WITN.           Rufat Babayev:  Customer Rep 2 
 WITN.         Alistair Sprott:  Customer Rep 
 WOBA.klb                18.00:  WOB Avg 
 WOBX.klb                30.00:  WOB Max 
 YP  .lhf2               41.00:  Yield Point 
~Curve Information Block
#MNEM.UNIT                 API CODE     Curve Description
#---------               -----------    ---------------------------
 TIME.HHMMSS            00 000 000 000:  GT Time & Date
 GTDEPTH.m              00 000 000 000:  GT Depth
 GTPQH.psia             00 000 000 000:  GT HR Quartz Pressure
 GTTQ.degC              00 000 000 000:  GT Quartz Temperature
 GTTN.NONE              00 000 000 000:  GT Test Number
 GTET.sec               00 000 000 000:  GT Elapsed Test Time
 GTTVD.m                00 000 000 000:  GT True Vertical Depth
#Other Information
#
#WARRANTY: Halliburton will use its best efforts to furnish customers with 
#accurate information and interpretations that are part of, and incident to, the services 
#provided.  However, Halliburton cannot and does not warrant the accuracy 
#or correctness of such information and interpretations.  Under no circumstances should any 
#such information or interpretation be relied upon as the sole basis for any drilling, 
#completion, production, or financial decision or any procedure involving any risk to the 
#safety of any drilling venture, drilling rig or its crew or any other third party.  The 
#Customer has full responsibility for all drilling, completion and production operation.  
#Halliburton makes no representations or warranties, either expressed or 
#implied, including, but not limited to, the implied warranties of merchantability or fitness 
#for a particular purpose, with respect to the services rendered.  In no event will 
#Halliburton be liable for failure to obtain any particular results or for 
#any damages, including, but not limited to, indirect, special or consequential damages, 
#resulting from the use of any information or interpretation provided by Halliburton.
#
~A           TIME           GTDEPTH  GTPQH  GTTQ  GTTN  GTET   GTTVD  
# ...
   06:07:12.225.24-Feb-2020 3290.31   27.35 54.57 9.00 253.06 2687.60
   06:07:12.425.24-Feb-2020 3290.31   27.35 54.57 9.00 253.26 2687.60
   06:07:12.625.24-Feb-2020 3290.31   27.37 54.57 9.00 253.46 2687.60
   06:07:12.825.24-Feb-2020 3290.31   27.39 54.57 9.00 253.66 2687.60
   06:07:13.025.24-Feb-2020 3290.31   27.40 54.57 9.00 253.86 2687.60
   06:07:13.225.24-Feb-2020 3290.31   27.41 54.57 9.00 254.06 2687.60
   06:07:13.425.24-Feb-2020 3290.31   27.41 54.57 9.00 254.26 2687.60
   06:07:13.625.24-Feb-2020 3290.31   27.44 54.57 9.00 254.46 2687.60
   06:07:13.825.24-Feb-2020 3290.31   27.45 54.57 9.00 254.66 2687.60
   06:07:14.025.24-Feb-2020 3290.31   27.46 54.57 9.00 254.86 2687.60
   06:07:14.225.24-Feb-2020 3290.31   27.47 54.57 9.00 255.06 2687.60
   06:07:14.425.24-Feb-2020 3290.31   27.48 54.57 9.00 255.26 2687.60
   06:07:14.625.24-Feb-2020 3290.31   27.50 54.57 9.00 255.46 2687.60
   06:07:14.825.24-Feb-2020 3290.31   27.51 54.57 9.00 255.66 2687.60
   06:07:15.025.24-Feb-2020 3290.31   27.52 54.57 9.00 255.86 2687.60
   06:07:15.225.24-Feb-2020 3290.31   27.54 54.57 9.00 256.06 2687.60
   06:07:15.425.24-Feb-2020 3290.31   27.54 54.57 9.00 256.26 2687.60
   06:07:15.625.24-Feb-2020 3290.31   27.55 54.57 9.00 256.46 2687.60
   06:07:15.826.24-Feb-2020 3290.31   27.57 54.57 9.00 256.66 2687.60
   06:07:16.026.24-Feb-2020 3290.31   27.57 54.57 9.00 256.86 2687.60
   06:07:16.226.24-Feb-2020 3290.31   27.59 54.57 9.00 257.06 2687.60
   06:07:16.426.24-Feb-2020 3290.31   27.59 54.57 9.00 257.26 2687.60
   06:07:16.626.24-Feb-2020 3290.31   27.61 54.57 9.00 257.46 2687.60
   06:07:16.826.24-Feb-2020 3290.31   27.63 54.57 9.00 257.66 2687.60
   06:07:17.026.24-Feb-2020 3290.31   27.64 54.57 9.00 257.86 2687.60
   06:07:17.226.24-Feb-2020 3290.31   27.64 54.57 9.00 258.06 2687.60
   06:07:17.426.24-Feb-2020 3290.31   27.64 54.57 9.00 258.26 2687.60
   06:07:17.626.24-Feb-2020 3290.31   27.67 54.57 9.00 258.46 2687.60
   06:07:17.826.24-Feb-2020 3290.31   27.68 54.56 9.00 258.66 2687.60
   06:07:18.026.24-Feb-2020 3290.31   27.70 54.56 9.00 258.86 2687.60
   06:07:18.226.24-Feb-2020 3290.31   27.71 54.56 9.00 259.06 2687.60
   06:07:18.426.24-Feb-2020 3290.31   27.72 54.56 9.00 259.26 2687.60
   06:07:18.626.24-Feb-2020 3290.31   27.73 54.56 9.00 259.46 2687.60
   06:07:18.826.24-Feb-2020 3290.31   27.74 54.56 9.00 259.66 2687.60
   06:07:19.026.24-Feb-2020 3290.31   27.76 54.56 9.00 259.86 2687.60
   06:07:19.226.24-Feb-2020 3290.31   27.77 54.56 9.00 260.06 2687.60
   06:07:19.426.24-Feb-2020 3290.31   27.77 54.56 9.00 260.26 2687.60
   06:07:19.626.24-Feb-2020 3290.31   27.79 54.56 9.00 260.46 2687.60
   06:07:19.826.24-Feb-2020 3290.31   27.81 54.56 9.00 260.66 2687.60
   06:07:20.026.24-Feb-2020 3290.31   27.81 54.56 9.00 260.86 2687.60
   06:07:20.226.24-Feb-2020 3290.31   27.83 54.56 9.00 261.06 2687.60
   06:07:20.427.24-Feb-2020 3290.31   27.83 54.56 9.00 261.26 2687.60
   06:07:20.627.24-Feb-2020 3290.31   27.85 54.56 9.00 261.46 2687.60
   06:07:20.827.24-Feb-2020 3290.31   27.86 54.56 9.00 261.66 2687.60
   06:07:21.027.24-Feb-2020 3290.31   27.88 54.56 9.00 261.86 2687.60
   06:07:21.227.24-Feb-2020 3290.31   27.88 54.56 9.00 262.06 2687.60
   06:07:21.427.24-Feb-2020 3290.31   27.88 54.56 9.00 262.26 2687.60
   06:07:21.627.24-Feb-2020 3290.31   27.91 54.56 9.00 262.46 2687.60
   06:07:21.827.24-Feb-2020 3290.31   27.92 54.56 9.00 262.66 2687.60
   06:07:22.027.24-Feb-2020 3290.31   27.93 54.56 9.00 262.86 2687.60
   06:07:22.227.24-Feb-2020 3290.31   27.94 54.56 9.00 263.06 2687.60
   06:07:22.427.24-Feb-2020 3290.31   27.95 54.56 9.00 263.26 2687.60
   06:07:22.627.24-Feb-2020 3290.31   27.96 54.56 9.00 263.46 2687.60
   06:07:22.827.24-Feb-2020 3290.31   27.97 54.56 9.00 263.66 2687.60
   06:07:23.027.24-Feb-2020 3290.31   27.98 54.56 9.00 263.86 2687.60
   06:07:23.227.24-Feb-2020 3290.31   28.00 54.56 9.00 264.06 2687.60
   06:07:23.427.24-Feb-2020 3290.31   28.01 54.56 9.00 264.26 2687.60
   06:07:23.627.24-Feb-2020 3290.31   28.01 54.56 9.00 264.46 2687.60
   06:07:23.827.24-Feb-2020 3290.31   28.03 54.56 9.00 264.66 2687.60
   06:07:24.027.24-Feb-2020 3290.31   28.05 54.56 9.00 264.86 2687.60
   06:07:24.227.24-Feb-2020 3290.31   28.05 54.56 9.00 265.06 2687.60
   06:07:24.427.24-Feb-2020 3290.31   28.05 54.56 9.00 265.26 2687.60
   06:07:24.627.24-Feb-2020 3290.31   28.07 54.56 9.00 265.46 2687.60
   06:07:24.827.24-Feb-2020 3290.31   28.08 54.56 9.00 265.66 2687.60
   06:07:25.028.24-Feb-2020 3290.31   28.10 54.56 9.00 265.86 2687.60
   06:07:25.228.24-Feb-2020 3290.31   28.10 54.56 9.00 266.06 2687.60
   06:07:25.428.24-Feb-2020 3290.31   28.10 54.56 9.00 266.26 2687.60
   06:07:25.628.24-Feb-2020 3290.31   28.13 54.56 9.00 266.46 2687.60
   06:07:25.828.24-Feb-2020 3290.31   28.14 54.56 9.00 266.66 2687.60
   06:07:26.028.24-Feb-2020 3290.31   28.15 54.56 9.00 266.86 2687.60
   06:07:26.228.24-Feb-2020 3290.31   28.16 54.56 9.00 267.06 2687.60
   06:07:26.428.24-Feb-2020 3290.31   28.17 54.56 9.00 267.26 2687.60
   06:07:26.628.24-Feb-2020 3290.31   28.18 54.56 9.00 267.46 2687.60
   06:07:26.828.24-Feb-2020 3290.31   28.19 54.56 9.00 267.66 2687.60
   06:07:27.028.24-Feb-2020 3290.31   28.20 54.56 9.00 267.86 2687.60
   06:07:27.228.24-Feb-2020 3290.31   28.21 54.56 9.00 268.06 2687.60
   06:07:27.428.24-Feb-2020 3290.31   28.21 54.56 9.00 268.26 2687.60
   06:07:27.628.24-Feb-2020 3290.31   28.24 54.56 9.00 268.46 2687.60
   06:07:27.828.24-Feb-2020 3290.31   28.24 54.56 9.00 268.66 2687.60
   06:07:28.028.24-Feb-2020 3290.31   28.26 54.56 9.00 268.86 2687.60
   06:07:28.228.24-Feb-2020 3290.31   28.27 54.56 9.00 269.06 2687.60
   06:07:28.428.24-Feb-2020 3290.31   28.27 54.56 9.00 269.26 2687.60
   06:07:28.628.24-Feb-2020 3290.31   28.28 54.56 9.00 269.46 2687.60
   06:07:28.828.24-Feb-2020 3290.31   28.30 54.56 9.00 269.66 2687.60
   06:07:29.028.24-Feb-2020 3290.31   28.31 54.56 9.00 269.86 2687.60
   06:07:29.228.24-Feb-2020 3290.31   28.31 54.56 9.00 270.06 2687.60
   06:07:29.428.24-Feb-2020 3290.31   28.31 54.56 9.00 270.26 2687.60
   06:07:29.629.24-Feb-2020 3290.31   28.34 54.56 9.00 270.46 2687.60
   06:07:29.829.24-Feb-2020 3290.31   28.35 54.56 9.00 270.66 2687.60
   06:07:30.029.24-Feb-2020 3290.31   28.37 54.56 9.00 270.86 2687.60
   06:07:30.229.24-Feb-2020 3290.31   28.37 54.56 9.00 271.06 2687.60
   06:07:30.429.24-Feb-2020 3290.31   28.38 54.56 9.00 271.26 2687.60
   06:07:30.629.24-Feb-2020 3290.31   28.39 54.56 9.00 271.46 2687.60
   06:07:30.829.24-Feb-2020 3290.31   28.41 54.56 9.00 271.66 2687.60
   06:07:31.029.24-Feb-2020 3290.31   28.41 54.56 9.00 271.86 2687.60
   06:07:31.229.24-Feb-2020 3290.31   28.42 54.56 9.00 272.06 2687.60
   06:07:31.429.24-Feb-2020 3290.31   28.42 54.56 9.00 272.26 2687.60
   06:07:31.629.24-Feb-2020 3290.31   28.45 54.56 9.00 272.46 2687.60
   06:07:31.829.24-Feb-2020 3290.31   28.46 54.56 9.00 272.66 2687.60
   06:07:32.029.24-Feb-2020 3290.31   28.47 54.56 9.00 272.86 2687.60
   06:07:32.229.24-Feb-2020 3290.31   28.49 54.56 9.00 273.06 2687.60
   06:07:32.429.24-Feb-2020 3290.31   28.49 54.56 9.00 273.26 2687.60
   06:07:32.629.24-Feb-2020 3290.31   28.51 54.56 9.00 273.46 2687.60
   06:07:32.829.24-Feb-2020 3290.31   28.52 54.56 9.00 273.66 2687.60
   06:07:33.029.24-Feb-2020 3290.31   28.51 54.56 9.00 273.86 2687.60
   06:07:33.229.24-Feb-2020 3290.31   28.16 54.56 9.00 274.06 2687.60
   06:07:33.429.24-Feb-2020 3290.31   28.16 54.56 9.00 274.26 2687.60
   06:07:33.629.24-Feb-2020 3290.31   27.35 54.56 9.00 274.46 2687.60
   06:07:33.829.24-Feb-2020 3290.31   26.99 54.56 9.00 274.66 2687.60
   06:07:34.030.24-Feb-2020 3290.31   26.65 54.56 9.00 274.86 2687.60
   06:07:34.230.24-Feb-2020 3290.31   26.33 54.56 9.00 275.06 2687.60
   06:07:34.430.24-Feb-2020 3290.31   26.03 54.56 9.00 275.26 2687.60
   06:07:34.630.24-Feb-2020 3290.31   25.72 54.56 9.00 275.46 2687.60
   06:07:34.830.24-Feb-2020 3290.31   25.44 54.56 9.00 275.66 2687.60
   06:07:35.030.24-Feb-2020 3290.31   25.16 54.56 9.00 275.86 2687.60
