~Version Information
 VERS.                  2.0:   CWLS log ASCII Standard -VERSION 2.0
 WRAP.                   NO:   One line per depth step
~Well Information Block
#MNEM.UNIT     VALUE/NAME     DESCRIPTION
#---------     -----------    ---------------------------
 STRT.S             01:26:08 24-Feb-20: START TIME 01:26:08 24-Feb-20
 STOP.S             01:33:25 24-Feb-20: STOP TIME  01:33:25 24-Feb-20
 STEP.S                   0.00: STEP TIME
 NULL.                 -999.25: NULL VALUE
 JOBN.        AZ-XX-0905059384:  JOB TICKET NUMB
 PDAT.          Mean Sea Level:  PERMANENT DATUM
 UNIT.                     N/A:  LOGGING EQUIPMENT ID
 DCON.         Sperry Drilling:  DIRECTNL CONTR
 DOE .                     N/A:  DOE NUMBER
 RIG .             West Chirag:  RIG NAME
 WELL.                     J22:  WELL NAME
 MWDS.                    Baku:  MWD SHOP
 SRVC.     TURAN Drilling & Engineering:  CONTRACTOR
 FLD .                     ACG:  FIELD NAME
 CTRY.              Azerbaijan:  COUNTRY NAME
 PROV.                    Baku:  PROVINCE
 STAT.                    Baku:  STATE NAME
 REGN.                   EESSA:  REGION
 BASE.              Azerbaijan:  LOGGING EQUIPMENT BASE LOCATION
 UWI .                     N/A:  UNIQUE WELL IDENTIFIER
 API .                     N/A:  API NUMBER
 COMP.     BP Exploration (Caspian Sea) Ltd.:  COMPANY
 WTYP.                Deviated:  WELL TYPE
 MDS .        Operator Entered:  MAG DATA SOURCE
 SON .        AZ-XX-0905059384:  JOB NUMBER
 FTOP.          Formation Tops:  FORM TOPS DESC
 ILTD.               Lithology:  INTERP LTH DESC
 SVYD.                  Survey:  SURVEY DESC
 DMOD.             Drill Model:  DRILL MOD DESC
 HPTY.       Minimum Curvature:  HOLE POS TYPE
 NREF.                    Grid:  NORTH REFERENCE
 SPUD.               09-Jan-20:  SPUD DATE
 DATE.      14.04.48 07-Feb-20:  END TIME
 STIM.      07.00.00 09-Jan-20:  START TIME
 DMF .             Drill Floor:  DRILL MEAS FROM
 DFST.                        :  DIST FSL TEXT
 DFWT.                        :  DIST FWL TEXT
 CNTY.                        :  COUNTY
 LOC .                        :  LOCATION
 LMF .             Drill Floor:  LOG MEASURED FROM
 DEP .m                   0.00:  DEPTH
 VSNS.m                  10.28:  VERT SEC N/S
 VSEW.m                  -6.24:  VERT SEC E/W
 AGAP.m                  43.00:  AIR GAP
 APD .m                  43.00:  DEPTH ABOVE PD
 WDMS.m                 169.80:  WD ELEV
 EGL .m                   0.00:  GROUND ELEVATION
 EPD .m                   0.00:  ELEVATION
 AZTC.deg                 6.27:  AZM TOTAL CORR
 GRDC.deg                 0.15:  GRID CORRECTION
 MDEC.deg                 6.42:  MAGNETIC DECL
 MDIP.deg                59.56:  MAGNETIC DIP
 MFLD.nT              50277.00:  MAGNETIC FIELD
 GVFD.g                   1.00:  GRAVITY FIELD
 VSDR.deg               148.53:  VERT SEC DIRECT
 TDD .m                3473.01:  TOTAL DEPTH (DRILLER)
 SDEP.m                 364.00:  START DEPTH
 DFSL.m                   0.00:  DISTANCE FSL
 DFWL.m                   0.00:  DISTANCE FWL
 UTMY.m             4443793.85:  UTM Y
 UTMX.m              519005.06:  UTM X
 WHEW.m                  -6.24:  WELL HEAD E/W
 WHNS.m                  10.28:  WELL HEAD N/S
 LONG.deg                51.22:  LONGITUDE
 LATI.deg                40.13:  LATITUDE
 TVDS.m                  43.00:  TVDSS CORRECTN
 EKB .m                   0.00:  KB ELEVATION
 EDF .m                  43.00:  DF ELEVATION
 TDL .m                 254.00:  TOTAL DEPTH (LOGGER)
 MAGU.                 1850021:  MAGUTM CHECKSUM
 VSC .                       0:  VS TO CLOSURE
~Parameter Information Block
#MNEM.UNIT       Value        Description
#---------     -----------    ---------------------------
 AV  .mps                 0.50:  Ann Velocity 
 AVMX.mps                 1.40:  Max Ann Veloc 
 AZIF.deg               144.94:  Azm, Final 
 BHAT.        Rotary Steerable:  BHA Type 
 BROT.°/30m               0.23:  Build Rotating 
 BS  .in                  8.50:  Bit Size 
 BTPL.psig              264.00:  Bit Press Loss 
 CABU.                     Yes:  Customer Abuse 
 TCS .hr                 87.30:  Time Ciculation Ended 
 CV  .mps                 2.45:  Crit Velocity 
 CVMX.mps                 2.74:  Max Crit Veloc 
 DD1 .             Aziz Aliyev:  Direct Drillr 1 
 DDSV.               Geo-Pilot:  DD Service 
 DEFF.%                 100.00:  % Det Eff 
 DLRX.°/30m               1.22:  Dogleg Rot Max 
 DLSO.°/30m               0.52:  Dogleg Oriented 
 DLSX.°/30m               1.22:  Dogleg Str Max 
 DRET.      12.59.00 23-Feb-20:  Drill End Time 
 DRST.      09.44.00 18-Feb-20:  Drill Start Tim 
 DTIM.hr                 23.03:  Time Drilling 
 EDEP.m                3473.01:  End Depth 
 ENG1.         Almaz Almadatov:  Engineer 1 
 ENG2.         Dair Mahammadov:  Engineer 2 
 ENG3.          Nazrin Asgarli:  Engineer 3 
 ETIM.      10.33.36 26-Feb-20:  End Time 
 FLOI.gpm               480.00:  Flow In 
 FLON.gpm               300.00:  Flow In Min 
 FLOS.cptm                1.00:  Fluid Loss 
 FLOX.gpm               550.00:  Flow In Max 
 HFLO.                      No:  High Flow 
 HPRE.                      No:  High Pressure 
 HTEM.                      No:  High Temp 
 HYDO.m                   1.80:  Hydro Offset 
 IFIN.deg                74.42:  Inc, Final 
 IMAX.deg                76.14:  Inc Max 
 IMIN.deg                74.42:  Inc Min 
 IMND.m                3462.72:  Inc Min Depth 
 IMXD.m                3235.69:  Inc Max Depth 
 JARR.                      No:  Jarring 
 LETM.      12.59.00 23-Feb-20:  Log End Time 
 LOST.hr                     0:  Lost Rig Time 
 LSTM.      09.44.00 18-Feb-20:  Log Start Time 
 MDCL.ppm             45000.00:  Mud Chlorides 
 MDES.     Inversion Oil/Synthetic:  Mud Desc 
 DFD .sg                  1.38:  Mud Density 
 MDMN.sg                  1.34:  Dens Mud Min 
 MDMX.sg                  1.49:  Dens Mud Max 
 MOIL.                      67:  Run Mud Oil % 
 MOWR.                   67:33:  Run Mud OWR 
 MSND.                    0.12:  Run Mud Sand % 
 MSOL.                      22:  Run Mud Solids% 
 DFV .spqt               81.00:  Mud Viscosity 
 MWOD.in                  6.75:  MWD Tool OD 
 MWSI.                      No:  Serv Intrp, MWD 
 OTIM.hr                231.44:  Time Operating 
 PCON.          Wear / Scratch:  Pad Condition 
 PMAX.psia             3400.00:  Press Op, Max 
 PV  .cP                 55.00:  Mud PV 
 RUN .                     800:  Run Number 
 ROPA.m/hr               12.00:  ROP Avg 
 ROPN.m/hr                5.00:  ROP Min 
 ROPX.m/hr               28.00:  ROP Max 
 RPMA.rpm               120.00:  RPM Surface Avg 
 RPMN.rpm                40.00:  RPM Surface Min 
 RPMX.rpm               130.00:  RPM Surface Max 
 RRUN.                    0800:  Rig Run Number 
 RTIM.hr                 45.00:  Time Reaming 
 SAZI.deg               145.38:  Azm, Start 
 SDEP.m                3219.01:  Start Depth 
 SIDD.                      No:  Serv Intrp, DD 
 SINC.deg                75.11:  Inc, Start 
 SPPA.psig             2400.00:  SPP Avg 
 SPPN.psig             2320.00:  SPP Min 
 SPPX.psig             3200.00:  SPP Max 
 STIM.      15.15.00 17-Feb-20:  Start Time 
 SVCS.                 DD, MWD:  Services 
 SVER.                    9.20:  Sperry Version 
 TDAT.m                 254.00:  Tot Depth Attmp 
 TDDF.                      No:  Trip for DD 
 TDLG.m                 254.00:  Tot Depth Loggd 
 TFF .                      No:  Trip for Fail 
 TQAA.f-kp               13.00:  Torque Abs Avg 
 TQAN.f-kp                7.00:  Torque Abs Min 
 TQAX.f-kp               15.00:  Torque Abs Max 
 TRRT.°/30m               0.21:  Turn Rotating 
 MRT .                  EWR-M5:  Maximum Recorded Temperature 
 TTMX.degC               64.00:  Max Tool Temp 
 VS01.                90586516:  Virtual Str1 SN 
 VS02.                90513691:  Virtual Str2 SN 
 VS03.                90586523:  Virtual Str3 SN 
 VS04.                90586520:  Virtual Str4 SN 
 VS05.                90590507:  Virtual Str5 SN 
 WBMN.klb                12.00:  WOB Min 
 WITN.           Rufat Babayev:  Customer Rep 2 
 WITN.         Alistair Sprott:  Customer Rep 
 WOBA.klb                18.00:  WOB Avg 
 WOBX.klb                30.00:  WOB Max 
 YP  .lhf2               41.00:  Yield Point 
~Curve Information Block
#MNEM.UNIT                 API CODE     Curve Description
#---------               -----------    ---------------------------
 TIME.HHMMSS            00 000 000 000:  GT Time & Date
 GTDEPTH.m              00 000 000 000:  GT Depth
 GTPQH.psia             00 000 000 000:  GT HR Quartz Pressure
 GTTQ.degC              00 000 000 000:  GT Quartz Temperature
 GTTN.NONE              00 000 000 000:  GT Test Number
 GTET.sec               00 000 000 000:  GT Elapsed Test Time
 GTTVD.m                00 000 000 000:  GT True Vertical Depth
#Other Information
#
#WARRANTY: Halliburton will use its best efforts to furnish customers with 
#accurate information and interpretations that are part of, and incident to, the services 
#provided.  However, Halliburton cannot and does not warrant the accuracy 
#or correctness of such information and interpretations.  Under no circumstances should any 
#such information or interpretation be relied upon as the sole basis for any drilling, 
#completion, production, or financial decision or any procedure involving any risk to the 
#safety of any drilling venture, drilling rig or its crew or any other third party.  The 
#Customer has full responsibility for all drilling, completion and production operation.  
#Halliburton makes no representations or warranties, either expressed or 
#implied, including, but not limited to, the implied warranties of merchantability or fitness 
#for a particular purpose, with respect to the services rendered.  In no event will 
#Halliburton be liable for failure to obtain any particular results or for 
#any damages, including, but not limited to, indirect, special or consequential damages, 
#resulting from the use of any information or interpretation provided by Halliburton.
#
~A           TIME           GTDEPTH  GTPQH  GTTQ  GTTN  GTET   GTTVD  
# ...
   01:28:03.185.24-Feb-2020 3405.01 4215.20 56.91 3.00 115.02 2716.73
   01:28:03.385.24-Feb-2020 3405.01 4215.22 56.91 3.00 115.22 2716.73
   01:28:03.585.24-Feb-2020 3405.01 4215.21 56.91 3.00 115.42 2716.73
   01:28:03.785.24-Feb-2020 3405.01 4215.22 56.91 3.00 115.62 2716.73
   01:28:03.985.24-Feb-2020 3405.01 4215.38 56.91 3.00 115.82 2716.73
   01:28:04.186.24-Feb-2020 3405.01 4215.06 56.91 3.00 116.02 2716.73
   01:28:04.386.24-Feb-2020 3405.01 4215.06 56.91 3.00 116.22 2716.73
   01:28:04.586.24-Feb-2020 3405.01 4215.28 56.91 3.00 116.42 2716.73
   01:28:04.786.24-Feb-2020 3405.01 4215.24 56.91 3.00 116.62 2716.73
   01:28:04.986.24-Feb-2020 3405.01 4215.21 56.91 3.00 116.82 2716.73
   01:28:05.186.24-Feb-2020 3405.01 4215.17 56.91 3.00 117.02 2716.73
   01:28:05.386.24-Feb-2020 3405.01 4215.17 56.91 3.00 117.22 2716.73
   01:28:05.586.24-Feb-2020 3405.01 4215.21 56.91 3.00 117.42 2716.73
   01:28:05.786.24-Feb-2020 3405.01 4215.21 56.91 3.00 117.62 2716.73
   01:28:05.986.24-Feb-2020 3405.01 4215.22 56.91 3.00 117.82 2716.73
   01:28:06.186.24-Feb-2020 3405.01 4215.21 56.91 3.00 118.02 2716.73
   01:28:06.386.24-Feb-2020 3405.01 4215.21 56.91 3.00 118.22 2716.73
   01:28:06.586.24-Feb-2020 3405.01 4215.19 56.91 3.00 118.42 2716.73
   01:28:06.786.24-Feb-2020 3405.01 4215.22 56.91 3.00 118.62 2716.73
   01:28:06.986.24-Feb-2020 3405.01 4215.23 56.91 3.00 118.82 2716.73
   01:28:07.186.24-Feb-2020 3405.01 4215.20 56.91 3.00 119.02 2716.73
   01:28:07.386.24-Feb-2020 3405.01 4214.98 56.91 3.00 119.22 2716.73
   01:28:07.586.24-Feb-2020 3405.01 4215.54 56.91 3.00 119.42 2716.73
   01:28:07.786.24-Feb-2020 3405.01 4215.21 56.91 3.00 119.62 2716.73
   01:28:07.986.24-Feb-2020 3405.01 4215.09 56.91 3.00 119.82 2716.73
   01:28:08.186.24-Feb-2020 3405.01 4215.26 56.91 3.00 120.03 2716.73
   01:28:08.386.24-Feb-2020 3405.01 4215.26 56.91 3.00 120.23 2716.73
   01:28:08.586.24-Feb-2020 3405.01 4215.13 56.91 3.00 120.43 2716.73
   01:28:08.786.24-Feb-2020 3405.01 4215.14 56.91 3.00 120.63 2716.73
   01:28:08.987.24-Feb-2020 3405.01 4215.20 56.91 3.00 120.83 2716.73
   01:28:09.187.24-Feb-2020 3405.01 4215.26 56.91 3.00 121.03 2716.73
   01:28:09.387.24-Feb-2020 3405.01 4215.26 56.91 3.00 121.23 2716.73
   01:28:09.587.24-Feb-2020 3405.01 4215.20 56.91 3.00 121.43 2716.73
   01:28:09.787.24-Feb-2020 3405.01 4214.99 56.91 3.00 121.63 2716.73
   01:28:09.987.24-Feb-2020 3405.01 4215.54 56.91 3.00 121.83 2716.73
   01:28:10.187.24-Feb-2020 3405.01 4215.21 56.91 3.00 122.03 2716.73
   01:28:10.387.24-Feb-2020 3405.01 4215.21 56.91 3.00 122.23 2716.73
   01:28:10.587.24-Feb-2020 3405.01 4215.30 56.91 3.00 122.43 2716.73
   01:28:10.787.24-Feb-2020 3405.01 4215.16 56.91 3.00 122.63 2716.73
   01:28:10.987.24-Feb-2020 3405.01 4215.14 56.91 3.00 122.83 2716.73
   01:28:11.187.24-Feb-2020 3405.01 4215.20 56.91 3.00 123.03 2716.73
   01:28:11.387.24-Feb-2020 3405.01 4215.26 56.91 3.00 123.23 2716.73
   01:28:11.587.24-Feb-2020 3405.01 4215.20 56.91 3.00 123.43 2716.73
   01:28:11.787.24-Feb-2020 3405.01 4215.20 56.91 3.00 123.63 2716.73
   01:28:11.987.24-Feb-2020 3405.01 4215.21 56.91 3.00 123.83 2716.73
   01:28:12.187.24-Feb-2020 3405.01 4215.20 56.91 3.00 124.03 2716.73
   01:28:12.387.24-Feb-2020 3405.01 4215.20 56.91 3.00 124.23 2716.73
   01:28:12.587.24-Feb-2020 3405.01 4215.21 56.91 3.00 124.43 2716.73
   01:28:12.787.24-Feb-2020 3405.01 4215.21 56.91 3.00 124.63 2716.73
   01:28:12.987.24-Feb-2020 3405.01 4215.22 56.91 3.00 124.83 2716.73
   01:28:13.187.24-Feb-2020 3405.01 4215.21 56.90 3.00 125.03 2716.73
   01:28:13.387.24-Feb-2020 3405.01 4215.21 56.90 3.00 125.23 2716.73
   01:28:13.587.24-Feb-2020 3405.01 4215.16 56.90 3.00 125.43 2716.73
   01:28:13.788.24-Feb-2020 3405.01 4215.06 56.90 3.00 125.63 2716.73
   01:28:13.988.24-Feb-2020 3405.01 4215.45 56.90 3.00 125.83 2716.73
   01:28:14.188.24-Feb-2020 3405.01 4215.24 56.90 3.00 126.03 2716.73
   01:28:14.388.24-Feb-2020 3405.01 4215.24 56.90 3.00 126.23 2716.73
   01:28:14.588.24-Feb-2020 3405.01 4215.21 56.90 3.00 126.43 2716.73
   01:28:14.788.24-Feb-2020 3405.01 4215.19 56.90 3.00 126.63 2716.73
   01:28:14.988.24-Feb-2020 3405.01 4215.21 56.90 3.00 126.83 2716.73
   01:28:15.188.24-Feb-2020 3405.01 4215.21 56.90 3.00 127.03 2716.73
   01:28:15.388.24-Feb-2020 3405.01 4215.21 56.90 3.00 127.23 2716.73
   01:28:15.588.24-Feb-2020 3405.01 4215.22 56.90 3.00 127.43 2716.73
   01:28:15.788.24-Feb-2020 3405.01 4215.21 56.90 3.00 127.63 2716.73
   01:28:15.988.24-Feb-2020 3405.01 4215.20 56.90 3.00 127.83 2716.73
   01:28:16.188.24-Feb-2020 3405.01 4215.19 56.90 3.00 128.03 2716.73
   01:28:16.388.24-Feb-2020 3405.01 4215.19 56.90 3.00 128.23 2716.73
   01:28:16.588.24-Feb-2020 3405.01 4215.21 56.90 3.00 128.43 2716.73
   01:28:16.788.24-Feb-2020 3405.01 4215.23 56.90 3.00 128.63 2716.73
   01:28:16.988.24-Feb-2020 3405.01 4215.29 56.90 3.00 128.83 2716.73
   01:28:17.188.24-Feb-2020 3405.01 4215.13 56.90 3.00 129.03 2716.73
   01:28:17.388.24-Feb-2020 3405.01 4215.13 56.90 3.00 129.23 2716.73
   01:28:17.588.24-Feb-2020 3405.01 4215.21 56.90 3.00 129.43 2716.73
   01:28:17.788.24-Feb-2020 3405.01 4215.43 56.90 3.00 129.63 2716.73
   01:28:17.988.24-Feb-2020 3405.01 4215.07 56.90 3.00 129.83 2716.73
   01:28:18.188.24-Feb-2020 3405.01 4215.11 56.90 3.00 130.03 2716.73
   01:28:18.388.24-Feb-2020 3405.01 4215.11 56.90 3.00 130.23 2716.73
   01:28:18.589.24-Feb-2020 3405.01 4215.26 56.90 3.00 130.43 2716.73
   01:28:18.789.24-Feb-2020 3405.01 4215.21 56.90 3.00 130.63 2716.73
   01:28:18.989.24-Feb-2020 3405.01 4215.18 56.90 3.00 130.83 2716.73
   01:28:19.189.24-Feb-2020 3405.01 4215.25 56.90 3.00 131.03 2716.73
   01:28:19.389.24-Feb-2020 3405.01 4215.30 56.90 3.00 131.23 2716.73
   01:28:19.589.24-Feb-2020 3405.01 4215.12 56.90 3.00 131.43 2716.73
   01:28:19.789.24-Feb-2020 3405.01 4215.15 56.90 3.00 131.63 2716.73
   01:28:19.989.24-Feb-2020 3405.01 4215.35 56.90 3.00 131.83 2716.73
   01:28:20.189.24-Feb-2020 3405.01 4215.13 56.90 3.00 132.03 2716.73
   01:28:20.389.24-Feb-2020 3405.01 4215.13 56.90 3.00 132.23 2716.73
   01:28:20.589.24-Feb-2020 3405.01 4215.22 56.90 3.00 132.43 2716.73
   01:28:20.789.24-Feb-2020 3405.01 4215.26 56.90 3.00 132.63 2716.73
   01:28:20.989.24-Feb-2020 3405.01 4215.20 56.90 3.00 132.83 2716.73
   01:28:21.189.24-Feb-2020 3405.01 4215.18 56.90 3.00 133.03 2716.73
   01:28:21.389.24-Feb-2020 3405.01 4215.18 56.90 3.00 133.23 2716.73
   01:28:21.589.24-Feb-2020 3405.01 4215.20 56.90 3.00 133.43 2716.73
   01:28:21.789.24-Feb-2020 3405.01 4215.21 56.90 3.00 133.63 2716.73
   01:28:21.989.24-Feb-2020 3405.01 4215.20 56.90 3.00 133.83 2716.73
   01:28:22.189.24-Feb-2020 3405.01 4215.21 56.90 3.00 134.03 2716.73
   01:28:22.389.24-Feb-2020 3405.01 4215.21 56.90 3.00 134.23 2716.73
   01:28:22.589.24-Feb-2020 3405.01 4215.20 56.90 3.00 134.43 2716.73
   01:28:22.789.24-Feb-2020 3405.01 4215.22 56.90 3.00 134.63 2716.73
   01:28:22.989.24-Feb-2020 3405.01 4215.20 56.90 3.00 134.83 2716.73
   01:28:23.189.24-Feb-2020 3405.01 4214.97 56.90 3.00 135.03 2716.73
   01:28:23.390.24-Feb-2020 3405.01 4215.51 56.90 3.00 135.23 2716.73
   01:28:23.590.24-Feb-2020 3405.01 4215.22 56.90 3.00 135.43 2716.73
   01:28:23.790.24-Feb-2020 3405.01 4215.10 56.90 3.00 135.63 2716.73
   01:28:23.990.24-Feb-2020 3405.01 4215.20 56.90 3.00 135.83 2716.73
   01:28:24.190.24-Feb-2020 3405.01 4215.22 56.90 3.00 136.03 2716.73
   01:28:24.390.24-Feb-2020 3405.01 4215.22 56.90 3.00 136.23 2716.73
   01:28:24.590.24-Feb-2020 3405.01 4215.21 56.90 3.00 136.43 2716.73
   01:28:24.790.24-Feb-2020 3405.01 4215.20 56.90 3.00 136.63 2716.73
   01:28:24.990.24-Feb-2020 3405.01 4215.20 56.90 3.00 136.83 2716.73
   01:28:25.190.24-Feb-2020 3405.01 4215.22 56.90 3.00 137.03 2716.73
   01:28:25.390.24-Feb-2020 3405.01 4215.22 56.90 3.00 137.23 2716.73
   01:28:25.590.24-Feb-2020 3405.01 4215.20 56.90 3.00 137.43 2716.73
   01:28:25.790.24-Feb-2020 3405.01 4215.19 56.90 3.00 137.63 2716.73
   01:28:25.990.24-Feb-2020 3405.01 4215.22 56.90 3.00 137.83 2716.73
