~Version Information
 VERS.                  2.0:   CWLS log ASCII Standard -VERSION 2.0
 WRAP.                   NO:   One line per depth step
~Well Information Block
#MNEM.UNIT     VALUE/NAME     DESCRIPTION
#---------     -----------    ---------------------------
 STRT.S             04:05:13 24-Feb-20: START TIME 04:05:13 24-Feb-20
 STOP.S             04:12:30 24-Feb-20: STOP TIME  04:12:30 24-Feb-20
 STEP.S                   0.00: STEP TIME
 NULL.                 -999.25: NULL VALUE
 JOBN.        AZ-XX-0905059384:  JOB TICKET NUMB
 PDAT.          Mean Sea Level:  PERMANENT DATUM
 UNIT.                     N/A:  LOGGING EQUIPMENT ID
 DCON.         Sperry Drilling:  DIRECTNL CONTR
 DOE .                     N/A:  DOE NUMBER
 RIG .             West Chirag:  RIG NAME
 WELL.                     J22:  WELL NAME
 MWDS.                    Baku:  MWD SHOP
 SRVC.     TURAN Drilling & Engineering:  CONTRACTOR
 FLD .                     ACG:  FIELD NAME
 CTRY.              Azerbaijan:  COUNTRY NAME
 PROV.                    Baku:  PROVINCE
 STAT.                    Baku:  STATE NAME
 REGN.                   EESSA:  REGION
 BASE.              Azerbaijan:  LOGGING EQUIPMENT BASE LOCATION
 UWI .                     N/A:  UNIQUE WELL IDENTIFIER
 API .                     N/A:  API NUMBER
 COMP.     BP Exploration (Caspian Sea) Ltd.:  COMPANY
 WTYP.                Deviated:  WELL TYPE
 MDS .        Operator Entered:  MAG DATA SOURCE
 SON .        AZ-XX-0905059384:  JOB NUMBER
 FTOP.          Formation Tops:  FORM TOPS DESC
 ILTD.               Lithology:  INTERP LTH DESC
 SVYD.                  Survey:  SURVEY DESC
 DMOD.             Drill Model:  DRILL MOD DESC
 HPTY.       Minimum Curvature:  HOLE POS TYPE
 NREF.                    Grid:  NORTH REFERENCE
 SPUD.               09-Jan-20:  SPUD DATE
 DATE.      14.04.48 07-Feb-20:  END TIME
 STIM.      07.00.00 09-Jan-20:  START TIME
 DMF .             Drill Floor:  DRILL MEAS FROM
 DFST.                        :  DIST FSL TEXT
 DFWT.                        :  DIST FWL TEXT
 CNTY.                        :  COUNTY
 LOC .                        :  LOCATION
 LMF .             Drill Floor:  LOG MEASURED FROM
 DEP .m                   0.00:  DEPTH
 VSNS.m                  10.28:  VERT SEC N/S
 VSEW.m                  -6.24:  VERT SEC E/W
 AGAP.m                  43.00:  AIR GAP
 APD .m                  43.00:  DEPTH ABOVE PD
 WDMS.m                 169.80:  WD ELEV
 EGL .m                   0.00:  GROUND ELEVATION
 EPD .m                   0.00:  ELEVATION
 AZTC.deg                 6.27:  AZM TOTAL CORR
 GRDC.deg                 0.15:  GRID CORRECTION
 MDEC.deg                 6.42:  MAGNETIC DECL
 MDIP.deg                59.56:  MAGNETIC DIP
 MFLD.nT              50277.00:  MAGNETIC FIELD
 GVFD.g                   1.00:  GRAVITY FIELD
 VSDR.deg               148.53:  VERT SEC DIRECT
 TDD .m                3473.01:  TOTAL DEPTH (DRILLER)
 SDEP.m                 364.00:  START DEPTH
 DFSL.m                   0.00:  DISTANCE FSL
 DFWL.m                   0.00:  DISTANCE FWL
 UTMY.m             4443793.85:  UTM Y
 UTMX.m              519005.06:  UTM X
 WHEW.m                  -6.24:  WELL HEAD E/W
 WHNS.m                  10.28:  WELL HEAD N/S
 LONG.deg                51.22:  LONGITUDE
 LATI.deg                40.13:  LATITUDE
 TVDS.m                  43.00:  TVDSS CORRECTN
 EKB .m                   0.00:  KB ELEVATION
 EDF .m                  43.00:  DF ELEVATION
 TDL .m                 254.00:  TOTAL DEPTH (LOGGER)
 MAGU.                 1850021:  MAGUTM CHECKSUM
 VSC .                       0:  VS TO CLOSURE
~Parameter Information Block
#MNEM.UNIT       Value        Description
#---------     -----------    ---------------------------
 AV  .mps                 0.50:  Ann Velocity 
 AVMX.mps                 1.40:  Max Ann Veloc 
 AZIF.deg               144.94:  Azm, Final 
 BHAT.        Rotary Steerable:  BHA Type 
 BROT.°/30m               0.23:  Build Rotating 
 BS  .in                  8.50:  Bit Size 
 BTPL.psig              264.00:  Bit Press Loss 
 CABU.                     Yes:  Customer Abuse 
 COMM.                     \ys:  Run Comments 1 
 TCS .hr                 87.30:  Time Ciculation Ended 
 CV  .mps                 2.45:  Crit Velocity 
 CVMX.mps                 2.74:  Max Crit Veloc 
 DD1 .             Aziz Aliyev:  Direct Drillr 1 
 DDSV.               Geo-Pilot:  DD Service 
 DEFF.%                 100.00:  % Det Eff 
 DLRX.°/30m               1.22:  Dogleg Rot Max 
 DLSO.°/30m               0.52:  Dogleg Oriented 
 DLSX.°/30m               1.22:  Dogleg Str Max 
 DRET.      12.59.00 23-Feb-20:  Drill End Time 
 DRST.      09.44.00 18-Feb-20:  Drill Start Tim 
 DTIM.hr                 23.03:  Time Drilling 
 EDEP.m                3473.01:  End Depth 
 ENG1.         Almaz Almadatov:  Engineer 1 
 ENG2.         Dair Mahammadov:  Engineer 2 
 ENG3.          Nazrin Asgarli:  Engineer 3 
 ETIM.      10.33.36 26-Feb-20:  End Time 
 FLOI.gpm               480.00:  Flow In 
 FLON.gpm               300.00:  Flow In Min 
 FLOS.cptm                1.00:  Fluid Loss 
 FLOX.gpm               550.00:  Flow In Max 
 HFLO.                      No:  High Flow 
 HPRE.                      No:  High Pressure 
 HTEM.                      No:  High Temp 
 HYDO.m                   1.80:  Hydro Offset 
 IFIN.deg                74.42:  Inc, Final 
 IMAX.deg                76.14:  Inc Max 
 IMIN.deg                74.42:  Inc Min 
 IMND.m                3462.72:  Inc Min Depth 
 IMXD.m                3235.69:  Inc Max Depth 
 JARR.                      No:  Jarring 
 LETM.      12.59.00 23-Feb-20:  Log End Time 
 LOST.hr                     0:  Lost Rig Time 
 LSTM.      09.44.00 18-Feb-20:  Log Start Time 
 MDCL.ppm             45000.00:  Mud Chlorides 
 MDES.     Inversion Oil/Synthetic:  Mud Desc 
 DFD .sg                  1.38:  Mud Density 
 MDMN.sg                  1.34:  Dens Mud Min 
 MDMX.sg                  1.49:  Dens Mud Max 
 MOIL.                      67:  Run Mud Oil % 
 MOWR.                   67:33:  Run Mud OWR 
 MSND.                    0.12:  Run Mud Sand % 
 MSOL.                      22:  Run Mud Solids% 
 DFV .spqt               81.00:  Mud Viscosity 
 MWOD.in                  6.75:  MWD Tool OD 
 MWSI.                      No:  Serv Intrp, MWD 
 OTIM.hr                231.44:  Time Operating 
 PCON.          Wear / Scratch:  Pad Condition 
 PMAX.psia             3400.00:  Press Op, Max 
 PV  .cP                 55.00:  Mud PV 
 RUN .                     800:  Run Number 
 ROPA.m/hr               12.00:  ROP Avg 
 ROPN.m/hr                5.00:  ROP Min 
 ROPX.m/hr               28.00:  ROP Max 
 RPMA.rpm               120.00:  RPM Surface Avg 
 RPMN.rpm                40.00:  RPM Surface Min 
 RPMX.rpm               130.00:  RPM Surface Max 
 RRUN.                    0800:  Rig Run Number 
 RTIM.hr                 45.00:  Time Reaming 
 SAZI.deg               145.38:  Azm, Start 
 SDEP.m                3219.01:  Start Depth 
 SIDD.                      No:  Serv Intrp, DD 
 SINC.deg                75.11:  Inc, Start 
 SPPA.psig             2400.00:  SPP Avg 
 SPPN.psig             2320.00:  SPP Min 
 SPPX.psig             3200.00:  SPP Max 
 STIM.      15.15.00 17-Feb-20:  Start Time 
 SVCS.                 DD, MWD:  Services 
 SVER.                    9.20:  Sperry Version 
 TDAT.m                 254.00:  Tot Depth Attmp 
 TDDF.                      No:  Trip for DD 
 TDLG.m                 254.00:  Tot Depth Loggd 
 TFF .                      No:  Trip for Fail 
 TQAA.f-kp               13.00:  Torque Abs Avg 
 TQAN.f-kp                7.00:  Torque Abs Min 
 TQAX.f-kp               15.00:  Torque Abs Max 
 TRRT.°/30m               0.21:  Turn Rotating 
 MRT .                  EWR-M5:  Maximum Recorded Temperature 
 TTMX.degC               64.00:  Max Tool Temp 
 VS01.                90586516:  Virtual Str1 SN 
 VS02.                90513691:  Virtual Str2 SN 
 VS03.                90586523:  Virtual Str3 SN 
 VS04.                90586520:  Virtual Str4 SN 
 VS05.                90590507:  Virtual Str5 SN 
 WBMN.klb                12.00:  WOB Min 
 WITN.           Rufat Babayev:  Customer Rep 2 
 WITN.         Alistair Sprott:  Customer Rep 
 WOBA.klb                18.00:  WOB Avg 
 WOBX.klb                30.00:  WOB Max 
 YP  .lhf2               41.00:  Yield Point 
~Curve Information Block
#MNEM.UNIT                 API CODE     Curve Description
#---------               -----------    ---------------------------
 TIME.HHMMSS            00 000 000 000:  GT Time & Date
 GTDEPTH.m              00 000 000 000:  GT Depth
 GTPQH.psia             00 000 000 000:  GT HR Quartz Pressure
 GTTQ.degC              00 000 000 000:  GT Quartz Temperature
 GTTN.NONE              00 000 000 000:  GT Test Number
 GTET.sec               00 000 000 000:  GT Elapsed Test Time
 GTTVD.m                00 000 000 000:  GT True Vertical Depth
#Other Information
#
#WARRANTY: Halliburton will use its best efforts to furnish customers with 
#accurate information and interpretations that are part of, and incident to, the services 
#provided.  However, Halliburton cannot and does not warrant the accuracy 
#or correctness of such information and interpretations.  Under no circumstances should any 
#such information or interpretation be relied upon as the sole basis for any drilling, 
#completion, production, or financial decision or any procedure involving any risk to the 
#safety of any drilling venture, drilling rig or its crew or any other third party.  The 
#Customer has full responsibility for all drilling, completion and production operation.  
#Halliburton makes no representations or warranties, either expressed or 
#implied, including, but not limited to, the implied warranties of merchantability or fitness 
#for a particular purpose, with respect to the services rendered.  In no event will 
#Halliburton be liable for failure to obtain any particular results or for 
#any damages, including, but not limited to, indirect, special or consequential damages, 
#resulting from the use of any information or interpretation provided by Halliburton.
#
~A           TIME           GTDEPTH  GTPQH  GTTQ  GTTN  GTET   GTTVD  
# ...
   04:12:07.000.24-Feb-2020 3356.51 5708.50 55.48 7.00 414.00 2704.30
   04:12:07.200.24-Feb-2020 3356.51 5708.50 55.48 7.00 414.20 2704.30
   04:12:07.400.24-Feb-2020 3356.51 5704.56 55.48 7.00 414.40 2704.30
   04:12:07.600.24-Feb-2020 3356.51 5708.37 55.48 7.00 414.60 2704.30
   04:12:07.800.24-Feb-2020 3356.51 5707.45 55.48 7.00 414.80 2704.30
   04:12:08.000.24-Feb-2020 3356.51 5707.53 55.48 7.00 415.00 2704.30
   04:12:08.200.24-Feb-2020 3356.51 5707.53 55.48 7.00 415.20 2704.30
   04:12:08.400.24-Feb-2020 3356.51 5707.50 55.48 7.00 415.40 2704.30
   04:12:08.600.24-Feb-2020 3356.51 5707.22 55.48 7.00 415.60 2704.30
   04:12:08.800.24-Feb-2020 3356.51 5707.57 55.48 7.00 415.80 2704.30
   04:12:09.000.24-Feb-2020 3356.51 5707.58 55.48 7.00 416.00 2704.30
   04:12:09.200.24-Feb-2020 3356.51 5707.58 55.48 7.00 416.20 2704.30
   04:12:09.400.24-Feb-2020 3356.51 5707.52 55.48 7.00 416.40 2704.30
   04:12:09.600.24-Feb-2020 3356.51 5707.48 55.48 7.00 416.60 2704.30
   04:12:09.800.24-Feb-2020 3356.51 5707.57 55.48 7.00 416.80 2704.30
   04:12:10.000.24-Feb-2020 3356.51 5707.92 55.48 7.00 417.00 2704.30
   04:12:10.200.24-Feb-2020 3356.51 5707.92 55.48 7.00 417.20 2704.30
   04:12:10.400.24-Feb-2020 3356.51 5710.55 55.48 7.00 417.40 2704.30
   04:12:10.600.24-Feb-2020 3356.51 5706.53 55.48 7.00 417.60 2704.30
   04:12:10.800.24-Feb-2020 3356.51 5707.74 55.48 7.00 417.80 2704.30
   04:12:11.000.24-Feb-2020 3356.51 5707.22 55.48 7.00 418.00 2704.30
   04:12:11.200.24-Feb-2020 3356.51 5707.73 55.48 7.00 418.20 2704.30
   04:12:11.400.24-Feb-2020 3356.51 5707.09 55.48 7.00 418.40 2704.30
   04:12:11.600.24-Feb-2020 3356.51 5706.73 55.48 7.00 418.60 2704.30
   04:12:11.800.24-Feb-2020 3356.51 5706.20 55.48 7.00 418.80 2704.30
   04:12:12.000.24-Feb-2020 3356.51 5706.94 55.48 7.00 419.00 2704.30
   04:12:12.200.24-Feb-2020 3356.51 5706.94 55.48 7.00 419.20 2704.30
   04:12:12.400.24-Feb-2020 3356.51 5707.67 55.48 7.00 419.40 2704.30
   04:12:12.600.24-Feb-2020 3356.51 5706.91 55.48 7.00 419.60 2704.30
   04:12:12.800.24-Feb-2020 3356.51 5706.30 55.48 7.00 419.80 2704.30
   04:12:13.000.24-Feb-2020 3356.51 5707.02 55.48 7.00 420.00 2704.30
   04:12:13.200.24-Feb-2020 3356.51 5707.02 55.48 7.00 420.20 2704.30
   04:12:13.400.24-Feb-2020 3356.51 5707.89 55.48 7.00 420.40 2704.30
   04:12:13.600.24-Feb-2020 3356.51 5706.98 55.48 7.00 420.60 2704.30
   04:12:13.800.24-Feb-2020 3356.51 5709.51 55.48 7.00 420.80 2704.30
   04:12:14.000.24-Feb-2020 3356.51 5706.14 55.48 7.00 421.00 2704.30
   04:12:14.200.24-Feb-2020 3356.51 5707.64 55.48 7.00 421.20 2704.30
   04:12:14.400.24-Feb-2020 3356.51 5706.89 55.48 7.00 421.40 2704.30
   04:12:14.600.24-Feb-2020 3356.51 5711.29 55.48 7.00 421.60 2704.30
   04:12:14.800.24-Feb-2020 3356.51 5704.07 55.48 7.00 421.80 2704.30
   04:12:15.000.24-Feb-2020 3356.51 5708.28 55.48 7.00 422.00 2704.30
   04:12:15.200.24-Feb-2020 3356.51 5708.28 55.48 7.00 422.20 2704.30
   04:12:15.400.24-Feb-2020 3356.51 5707.26 55.48 7.00 422.40 2704.30
   04:12:15.600.24-Feb-2020 3356.51 5710.30 55.48 7.00 422.60 2704.30
   04:12:15.800.24-Feb-2020 3356.51 5706.53 55.48 7.00 422.80 2704.30
   04:12:16.000.24-Feb-2020 3356.51 5708.58 55.48 7.00 423.00 2704.30
   04:12:16.200.24-Feb-2020 3356.51 5708.58 55.48 7.00 423.20 2704.30
   04:12:16.400.24-Feb-2020 3356.51 5708.14 55.48 7.00 423.40 2704.30
   04:12:16.600.24-Feb-2020 3356.51 5711.01 55.48 7.00 423.60 2704.30
   04:12:16.800.24-Feb-2020 3356.51 5706.53 55.48 7.00 423.80 2704.30
   04:12:17.000.24-Feb-2020 3356.51 5708.45 55.48 7.00 424.00 2704.30
   04:12:17.200.24-Feb-2020 3356.51 5708.45 55.48 7.00 424.20 2704.30
   04:12:17.400.24-Feb-2020 3356.51 5707.23 55.48 7.00 424.40 2704.30
   04:12:17.600.24-Feb-2020 3356.51 5707.42 55.47 7.00 424.60 2704.30
   04:12:17.800.24-Feb-2020 3356.51 5707.13 55.47 7.00 424.80 2704.30
   04:12:18.000.24-Feb-2020 3356.51 5707.18 55.47 7.00 425.00 2704.30
   04:12:18.200.24-Feb-2020 3356.51 5707.18 55.47 7.00 425.20 2704.30
   04:12:18.400.24-Feb-2020 3356.51 5707.34 55.47 7.00 425.40 2704.30
   04:12:18.600.24-Feb-2020 3356.51 5707.46 55.47 7.00 425.60 2704.30
   04:12:18.800.24-Feb-2020 3356.51 5707.49 55.47 7.00 425.80 2704.30
   04:12:19.000.24-Feb-2020 3356.51 5707.41 55.47 7.00 426.00 2704.30
   04:12:19.200.24-Feb-2020 3356.51 5707.41 55.47 7.00 426.20 2704.30
   04:12:19.400.24-Feb-2020 3356.51 5707.63 55.47 7.00 426.40 2704.30
   04:12:19.600.24-Feb-2020 3356.51 5708.02 55.47 7.00 426.60 2704.30
   04:12:19.800.24-Feb-2020 3356.51 5714.28 55.47 7.00 426.80 2704.30
   04:12:20.000.24-Feb-2020 3356.51 5703.00 55.47 7.00 427.00 2704.30
   04:12:20.200.24-Feb-2020 3356.51 5703.00 55.47 7.00 427.20 2704.30
   04:12:20.400.24-Feb-2020 3356.51 5706.53 55.47 7.00 427.40 2704.30
   04:12:20.600.24-Feb-2020 3356.51 5707.21 55.47 7.00 427.60 2704.30
   04:12:20.800.24-Feb-2020 3356.51 5707.63 55.47 7.00 427.80 2704.30
   04:12:21.000.24-Feb-2020 3356.51 5706.81 55.47 7.00 428.00 2704.30
   04:12:21.200.24-Feb-2020 3356.51 5706.81 55.47 7.00 428.20 2704.30
   04:12:21.400.24-Feb-2020 3356.51 5706.64 55.47 7.00 428.40 2704.30
   04:12:21.600.24-Feb-2020 3356.51 5707.26 55.47 7.00 428.60 2704.30
   04:12:21.800.24-Feb-2020 3356.51 5707.91 55.47 7.00 428.80 2704.30
   04:12:22.000.24-Feb-2020 3356.51 5707.30 55.47 7.00 429.00 2704.30
   04:12:22.200.24-Feb-2020 3356.51 5707.30 55.47 7.00 429.20 2704.30
   04:12:22.400.24-Feb-2020 3356.51 5706.51 55.47 7.00 429.40 2704.30
   04:12:22.600.24-Feb-2020 3356.51 5707.61 55.47 7.00 429.60 2704.30
   04:12:22.800.24-Feb-2020 3356.51 5708.08 55.47 7.00 429.80 2704.30
   04:12:23.000.24-Feb-2020 3356.51 5707.55 55.47 7.00 430.00 2704.30
   04:12:23.200.24-Feb-2020 3356.51 5707.55 55.47 7.00 430.20 2704.30
   04:12:23.400.24-Feb-2020 3356.51 5702.61 55.47 7.00 430.40 2704.30
   04:12:23.600.24-Feb-2020 3356.51 5708.31 55.47 7.00 430.60 2704.30
   04:12:23.800.24-Feb-2020 3356.51 5706.60 55.47 7.00 430.80 2704.30
   04:12:24.000.24-Feb-2020 3356.51 5710.24 55.47 7.00 431.00 2704.30
   04:12:24.200.24-Feb-2020 3356.51 5710.24 55.47 7.00 431.20 2704.30
   04:12:24.400.24-Feb-2020 3356.51 5708.52 55.47 7.00 431.40 2704.30
   04:12:24.600.24-Feb-2020 3356.51 5706.33 55.47 7.00 431.60 2704.30
   04:12:24.800.24-Feb-2020 3356.51 5707.09 55.47 7.00 431.80 2704.30
   04:12:25.000.24-Feb-2020 3356.51 5707.23 55.47 7.00 432.00 2704.30
   04:12:25.200.24-Feb-2020 3356.51 5707.23 55.47 7.00 432.20 2704.30
   04:12:25.400.24-Feb-2020 3356.51 5704.53 55.47 7.00 432.40 2704.30
   04:12:25.600.24-Feb-2020 3356.51 5708.76 55.47 7.00 432.60 2704.30
   04:12:25.800.24-Feb-2020 3356.51 5708.02 55.47 7.00 432.80 2704.30
   04:12:26.000.24-Feb-2020 3356.51 5708.41 55.47 7.00 433.00 2704.30
   04:12:26.200.24-Feb-2020 3356.51 5708.41 55.47 7.00 433.20 2704.30
   04:12:26.400.24-Feb-2020 3356.51 5704.64 55.47 7.00 433.40 2704.30
   04:12:26.600.24-Feb-2020 3356.51 5708.42 55.47 7.00 433.60 2704.30
   04:12:26.800.24-Feb-2020 3356.51 5707.56 55.47 7.00 433.80 2704.30
   04:12:27.000.24-Feb-2020 3356.51 5707.74 55.47 7.00 434.00 2704.30
   04:12:27.200.24-Feb-2020 3356.51 5707.74 55.47 7.00 434.20 2704.30
   04:12:27.400.24-Feb-2020 3356.51 5707.54 55.47 7.00 434.40 2704.30
   04:12:27.600.24-Feb-2020 3356.51 5707.39 55.47 7.00 434.60 2704.30
   04:12:27.800.24-Feb-2020 3356.51 5707.52 55.47 7.00 434.80 2704.30
   04:12:28.000.24-Feb-2020 3356.51 5707.59 55.47 7.00 435.00 2704.30
   04:12:28.200.24-Feb-2020 3356.51 5707.59 55.47 7.00 435.20 2704.30
   04:12:28.400.24-Feb-2020 3356.51 5707.35 55.47 7.00 435.40 2704.30
   04:12:28.600.24-Feb-2020 3356.51 5707.34 55.47 7.00 435.60 2704.30
   04:12:28.800.24-Feb-2020 3356.51 5707.49 55.47 7.00 435.80 2704.30
   04:12:29.000.24-Feb-2020 3356.51 5707.79 55.47 7.00 436.00 2704.30
   04:12:29.200.24-Feb-2020 3356.51 5707.79 55.47 7.00 436.20 2704.30
   04:12:29.400.24-Feb-2020 3356.51 5710.51 55.47 7.00 436.40 2704.30
   04:12:29.600.24-Feb-2020 3356.51 5706.42 55.47 7.00 436.60 2704.30
   04:12:29.800.24-Feb-2020 3356.51 5707.62 55.47 7.00 436.80 2704.30
