~Version Information
 VERS.                  2.0:   CWLS log ASCII Standard -VERSION 2.0
 WRAP.                   NO:   One line per depth step
~Well Information Block
#MNEM.UNIT     VALUE/NAME     DESCRIPTION
#---------     -----------    ---------------------------
 STRT.S             23:48:42 23-Feb-20: START TIME 23:48:42 23-Feb-20
 STOP.S             23:55:42 23-Feb-20: STOP TIME  23:55:42 23-Feb-20
 STEP.S                   0.00: STEP TIME
 NULL.                 -999.25: NULL VALUE
 JOBN.        AZ-XX-0905059384:  JOB TICKET NUMB
 PDAT.          Mean Sea Level:  PERMANENT DATUM
 UNIT.                     N/A:  LOGGING EQUIPMENT ID
 DCON.         Sperry Drilling:  DIRECTNL CONTR
 DOE .                     N/A:  DOE NUMBER
 RIG .             West Chirag:  RIG NAME
 WELL.                     J22:  WELL NAME
 MWDS.                    Baku:  MWD SHOP
 SRVC.     TURAN Drilling & Engineering:  CONTRACTOR
 FLD .                     ACG:  FIELD NAME
 CTRY.              Azerbaijan:  COUNTRY NAME
 PROV.                    Baku:  PROVINCE
 STAT.                    Baku:  STATE NAME
 REGN.                   EESSA:  REGION
 BASE.              Azerbaijan:  LOGGING EQUIPMENT BASE LOCATION
 UWI .                     N/A:  UNIQUE WELL IDENTIFIER
 API .                     N/A:  API NUMBER
 COMP.     BP Exploration (Caspian Sea) Ltd.:  COMPANY
 WTYP.                Deviated:  WELL TYPE
 MDS .        Operator Entered:  MAG DATA SOURCE
 SON .        AZ-XX-0905059384:  JOB NUMBER
 FTOP.          Formation Tops:  FORM TOPS DESC
 ILTD.               Lithology:  INTERP LTH DESC
 SVYD.                  Survey:  SURVEY DESC
 DMOD.             Drill Model:  DRILL MOD DESC
 HPTY.       Minimum Curvature:  HOLE POS TYPE
 NREF.                    Grid:  NORTH REFERENCE
 SPUD.               09-Jan-20:  SPUD DATE
 DATE.      14.04.48 07-Feb-20:  END TIME
 STIM.      07.00.00 09-Jan-20:  START TIME
 DMF .             Drill Floor:  DRILL MEAS FROM
 DFST.                        :  DIST FSL TEXT
 DFWT.                        :  DIST FWL TEXT
 CNTY.                        :  COUNTY
 LOC .                        :  LOCATION
 LMF .             Drill Floor:  LOG MEASURED FROM
 DEP .m                   0.00:  DEPTH
 VSNS.m                  10.28:  VERT SEC N/S
 VSEW.m                  -6.24:  VERT SEC E/W
 AGAP.m                  43.00:  AIR GAP
 APD .m                  43.00:  DEPTH ABOVE PD
 WDMS.m                 169.80:  WD ELEV
 EGL .m                   0.00:  GROUND ELEVATION
 EPD .m                   0.00:  ELEVATION
 AZTC.deg                 6.27:  AZM TOTAL CORR
 GRDC.deg                 0.15:  GRID CORRECTION
 MDEC.deg                 6.42:  MAGNETIC DECL
 MDIP.deg                59.56:  MAGNETIC DIP
 MFLD.nT              50277.00:  MAGNETIC FIELD
 GVFD.g                   1.00:  GRAVITY FIELD
 VSDR.deg               148.53:  VERT SEC DIRECT
 TDD .m                3473.01:  TOTAL DEPTH (DRILLER)
 SDEP.m                 364.00:  START DEPTH
 DFSL.m                   0.00:  DISTANCE FSL
 DFWL.m                   0.00:  DISTANCE FWL
 UTMY.m             4443793.85:  UTM Y
 UTMX.m              519005.06:  UTM X
 WHEW.m                  -6.24:  WELL HEAD E/W
 WHNS.m                  10.28:  WELL HEAD N/S
 LONG.deg                51.22:  LONGITUDE
 LATI.deg                40.13:  LATITUDE
 TVDS.m                  43.00:  TVDSS CORRECTN
 EKB .m                   0.00:  KB ELEVATION
 EDF .m                  43.00:  DF ELEVATION
 TDL .m                 254.00:  TOTAL DEPTH (LOGGER)
 MAGU.                 1850021:  MAGUTM CHECKSUM
 VSC .                       0:  VS TO CLOSURE
~Parameter Information Block
#MNEM.UNIT       Value        Description
#---------     -----------    ---------------------------
 AV  .mps                 0.50:  Ann Velocity 
 AVMX.mps                 1.40:  Max Ann Veloc 
 AZIF.deg               144.94:  Azm, Final 
 BHAT.        Rotary Steerable:  BHA Type 
 BROT.°/30m               0.23:  Build Rotating 
 BS  .in                  8.50:  Bit Size 
 BTPL.psig              264.00:  Bit Press Loss 
 CABU.                     Yes:  Customer Abuse 
 COMM.                     ¼ýd:  Run Comments 1 
 TCS .hr                 87.30:  Time Ciculation Ended 
 CV  .mps                 2.45:  Crit Velocity 
 CVMX.mps                 2.74:  Max Crit Veloc 
 DD1 .             Aziz Aliyev:  Direct Drillr 1 
 DDSV.               Geo-Pilot:  DD Service 
 DEFF.%                 100.00:  % Det Eff 
 DLRX.°/30m               1.22:  Dogleg Rot Max 
 DLSO.°/30m               0.52:  Dogleg Oriented 
 DLSX.°/30m               1.22:  Dogleg Str Max 
 DRET.      12.59.00 23-Feb-20:  Drill End Time 
 DRST.      09.44.00 18-Feb-20:  Drill Start Tim 
 DTIM.hr                 23.03:  Time Drilling 
 EDEP.m                3473.01:  End Depth 
 ENG1.         Almaz Almadatov:  Engineer 1 
 ENG2.         Dair Mahammadov:  Engineer 2 
 ENG3.          Nazrin Asgarli:  Engineer 3 
 ETIM.      10.33.36 26-Feb-20:  End Time 
 FLOI.gpm               480.00:  Flow In 
 FLON.gpm               300.00:  Flow In Min 
 FLOS.cptm                1.00:  Fluid Loss 
 FLOX.gpm               550.00:  Flow In Max 
 HFLO.                      No:  High Flow 
 HPRE.                      No:  High Pressure 
 HTEM.                      No:  High Temp 
 HYDO.m                   1.80:  Hydro Offset 
 IFIN.deg                74.42:  Inc, Final 
 IMAX.deg                76.14:  Inc Max 
 IMIN.deg                74.42:  Inc Min 
 IMND.m                3462.72:  Inc Min Depth 
 IMXD.m                3235.69:  Inc Max Depth 
 JARR.                      No:  Jarring 
 LETM.      12.59.00 23-Feb-20:  Log End Time 
 LOST.hr                     0:  Lost Rig Time 
 LSTM.      09.44.00 18-Feb-20:  Log Start Time 
 MDCL.ppm             45000.00:  Mud Chlorides 
 MDES.     Inversion Oil/Synthetic:  Mud Desc 
 DFD .sg                  1.38:  Mud Density 
 MDMN.sg                  1.34:  Dens Mud Min 
 MDMX.sg                  1.49:  Dens Mud Max 
 MOIL.                      67:  Run Mud Oil % 
 MOWR.                   67:33:  Run Mud OWR 
 MSND.                    0.12:  Run Mud Sand % 
 MSOL.                      22:  Run Mud Solids% 
 DFV .spqt               81.00:  Mud Viscosity 
 MWOD.in                  6.75:  MWD Tool OD 
 MWSI.                      No:  Serv Intrp, MWD 
 OTIM.hr                231.44:  Time Operating 
 PCON.          Wear / Scratch:  Pad Condition 
 PMAX.psia             3400.00:  Press Op, Max 
 PV  .cP                 55.00:  Mud PV 
 RUN .                     800:  Run Number 
 ROPA.m/hr               12.00:  ROP Avg 
 ROPN.m/hr                5.00:  ROP Min 
 ROPX.m/hr               28.00:  ROP Max 
 RPMA.rpm               120.00:  RPM Surface Avg 
 RPMN.rpm                40.00:  RPM Surface Min 
 RPMX.rpm               130.00:  RPM Surface Max 
 RRUN.                    0800:  Rig Run Number 
 RTIM.hr                 45.00:  Time Reaming 
 SAZI.deg               145.38:  Azm, Start 
 SDEP.m                3219.01:  Start Depth 
 SIDD.                      No:  Serv Intrp, DD 
 SINC.deg                75.11:  Inc, Start 
 SPPA.psig             2400.00:  SPP Avg 
 SPPN.psig             2320.00:  SPP Min 
 SPPX.psig             3200.00:  SPP Max 
 STIM.      15.15.00 17-Feb-20:  Start Time 
 SVCS.                 DD, MWD:  Services 
 SVER.                    9.20:  Sperry Version 
 TDAT.m                 254.00:  Tot Depth Attmp 
 TDDF.                      No:  Trip for DD 
 TDLG.m                 254.00:  Tot Depth Loggd 
 TFF .                      No:  Trip for Fail 
 TQAA.f-kp               13.00:  Torque Abs Avg 
 TQAN.f-kp                7.00:  Torque Abs Min 
 TQAX.f-kp               15.00:  Torque Abs Max 
 TRRT.°/30m               0.21:  Turn Rotating 
 MRT .                  EWR-M5:  Maximum Recorded Temperature 
 TTMX.degC               64.00:  Max Tool Temp 
 VS01.                90586516:  Virtual Str1 SN 
 VS02.                90513691:  Virtual Str2 SN 
 VS03.                90586523:  Virtual Str3 SN 
 VS04.                90586520:  Virtual Str4 SN 
 VS05.                90590507:  Virtual Str5 SN 
 WBMN.klb                12.00:  WOB Min 
 WITN.           Rufat Babayev:  Customer Rep 2 
 WITN.         Alistair Sprott:  Customer Rep 
 WOBA.klb                18.00:  WOB Avg 
 WOBX.klb                30.00:  WOB Max 
 YP  .lhf2               41.00:  Yield Point 
~Curve Information Block
#MNEM.UNIT                 API CODE     Curve Description
#---------               -----------    ---------------------------
 TIME.HHMMSS            00 000 000 000:  GT Time & Date
 GTDEPTH.m              00 000 000 000:  GT Depth
 GTPQH.psia             00 000 000 000:  GT HR Quartz Pressure
 GTTQ.degC              00 000 000 000:  GT Quartz Temperature
 GTTN.NONE              00 000 000 000:  GT Test Number
 GTET.sec               00 000 000 000:  GT Elapsed Test Time
 GTTVD.m                00 000 000 000:  GT True Vertical Depth
#Other Information
#
#WARRANTY: Halliburton will use its best efforts to furnish customers with 
#accurate information and interpretations that are part of, and incident to, the services 
#provided.  However, Halliburton cannot and does not warrant the accuracy 
#or correctness of such information and interpretations.  Under no circumstances should any 
#such information or interpretation be relied upon as the sole basis for any drilling, 
#completion, production, or financial decision or any procedure involving any risk to the 
#safety of any drilling venture, drilling rig or its crew or any other third party.  The 
#Customer has full responsibility for all drilling, completion and production operation.  
#Halliburton makes no representations or warranties, either expressed or 
#implied, including, but not limited to, the implied warranties of merchantability or fitness 
#for a particular purpose, with respect to the services rendered.  In no event will 
#Halliburton be liable for failure to obtain any particular results or for 
#any damages, including, but not limited to, indirect, special or consequential damages, 
#resulting from the use of any information or interpretation provided by Halliburton.
#
~A           TIME           GTDEPTH  GTPQH  GTTQ  GTTN  GTET   GTTVD  
# ...
   23:49:05.419.23-Feb-2020 3441.51 5712.69 56.63 1.00  23.00 2726.26
   23:49:05.619.23-Feb-2020 3441.51 5712.69 56.63 1.00  23.20 2726.26
   23:49:05.819.23-Feb-2020 3441.51 5696.94 56.63 1.00  23.40 2726.26
   23:49:06.019.23-Feb-2020 3441.51 5711.68 56.63 1.00  23.60 2726.26
   23:49:06.219.23-Feb-2020 3441.51 5705.30 56.63 1.00  23.80 2726.26
   23:49:06.419.23-Feb-2020 3441.51 5706.54 56.63 1.00  24.00 2726.26
   23:49:06.619.23-Feb-2020 3441.51 5706.54 56.63 1.00  24.20 2726.26
   23:49:06.819.23-Feb-2020 3441.51 5706.45 56.63 1.00  24.40 2726.26
   23:49:07.019.23-Feb-2020 3441.51 5707.19 56.63 1.00  24.60 2726.26
   23:49:07.219.23-Feb-2020 3441.51 5706.20 56.63 1.00  24.80 2726.26
   23:49:07.419.23-Feb-2020 3441.51 5706.52 56.63 1.00  25.00 2726.26
   23:49:07.619.23-Feb-2020 3441.51 5706.52 56.63 1.00  25.20 2726.26
   23:49:07.819.23-Feb-2020 3441.51 5707.02 56.63 1.00  25.40 2726.26
   23:49:08.019.23-Feb-2020 3441.51 5706.88 56.63 1.00  25.60 2726.26
   23:49:08.219.23-Feb-2020 3441.51 5707.55 56.63 1.00  25.80 2726.26
   23:49:08.419.23-Feb-2020 3441.51 5707.23 56.63 1.00  26.00 2726.26
   23:49:08.619.23-Feb-2020 3441.51 5707.23 56.63 1.00  26.20 2726.26
   23:49:08.819.23-Feb-2020 3441.51 5716.41 56.63 1.00  26.40 2726.26
   23:49:09.019.23-Feb-2020 3441.51 5695.09 56.63 1.00  26.60 2726.26
   23:49:09.219.23-Feb-2020 3441.51 5715.51 56.63 1.00  26.80 2726.26
   23:49:09.419.23-Feb-2020 3441.51 5702.71 56.63 1.00  27.00 2726.26
   23:49:09.619.23-Feb-2020 3441.51 5702.71 56.63 1.00  27.20 2726.26
   23:49:09.819.23-Feb-2020 3441.51 5706.54 56.63 1.00  27.40 2726.26
   23:49:10.019.23-Feb-2020 3441.51 5706.09 56.63 1.00  27.60 2726.26
   23:49:10.219.23-Feb-2020 3441.51 5706.44 56.63 1.00  27.80 2726.26
   23:49:10.419.23-Feb-2020 3441.51 5706.00 56.63 1.00  28.00 2726.26
   23:49:10.619.23-Feb-2020 3441.51 5706.22 56.63 1.00  28.20 2726.26
   23:49:10.819.23-Feb-2020 3441.51 5707.91 56.63 1.00  28.40 2726.26
   23:49:11.019.23-Feb-2020 3441.51 5707.38 56.63 1.00  28.60 2726.26
   23:49:11.219.23-Feb-2020 3441.51 5707.89 56.63 1.00  28.80 2726.26
   23:49:11.420.23-Feb-2020 3441.51 5706.51 56.63 1.00  29.00 2726.26
   23:49:11.620.23-Feb-2020 3441.51 5706.51 56.63 1.00  29.20 2726.26
   23:49:11.820.23-Feb-2020 3441.51 5707.79 56.63 1.00  29.40 2726.26
   23:49:12.020.23-Feb-2020 3441.51 5707.97 56.63 1.00  29.60 2726.26
   23:49:12.220.23-Feb-2020 3441.51 5713.29 56.63 1.00  29.80 2726.26
   23:49:12.420.23-Feb-2020 3441.51 5696.69 56.63 1.00  30.00 2726.26
   23:49:12.620.23-Feb-2020 3441.51 5715.00 56.63 1.00  30.20 2726.26
   23:49:12.820.23-Feb-2020 3441.51 5703.53 56.63 1.00  30.40 2726.26
   23:49:13.020.23-Feb-2020 3441.51 5716.61 56.63 1.00  30.60 2726.26
   23:49:13.220.23-Feb-2020 3441.51 5696.05 56.63 1.00  30.80 2726.26
   23:49:13.420.23-Feb-2020 3441.51 5715.14 56.63 1.00  31.00 2726.26
   23:49:13.620.23-Feb-2020 3441.51 5715.14 56.63 1.00  31.20 2726.26
   23:49:13.820.23-Feb-2020 3441.51 5709.70 56.63 1.00  31.40 2726.26
   23:49:14.020.23-Feb-2020 3441.51 5714.33 56.63 1.00  31.60 2726.26
   23:49:14.220.23-Feb-2020 3441.51 5702.29 56.63 1.00  31.80 2726.26
   23:49:14.420.23-Feb-2020 3441.51 5705.30 56.63 1.00  32.00 2726.26
   23:49:14.620.23-Feb-2020 3441.51 5705.30 56.63 1.00  32.20 2726.26
   23:49:14.820.23-Feb-2020 3441.51 5714.45 56.63 1.00  32.40 2726.26
   23:49:15.020.23-Feb-2020 3441.51 5698.36 56.63 1.00  32.60 2726.26
   23:49:15.220.23-Feb-2020 3441.51 5714.45 56.63 1.00  32.80 2726.26
   23:49:15.420.23-Feb-2020 3441.51 5704.62 56.63 1.00  33.00 2726.26
   23:49:15.620.23-Feb-2020 3441.51 5704.62 56.63 1.00  33.20 2726.26
   23:49:15.820.23-Feb-2020 3441.51 5708.27 56.63 1.00  33.40 2726.26
   23:49:16.020.23-Feb-2020 3441.51 5707.40 56.63 1.00  33.60 2726.26
   23:49:16.220.23-Feb-2020 3441.51 5708.57 56.63 1.00  33.80 2726.26
   23:49:16.420.23-Feb-2020 3441.51 5739.07 56.63 1.00  34.00 2726.26
   23:49:16.620.23-Feb-2020 3441.51 5739.07 56.63 1.00  34.20 2726.26
   23:49:16.820.23-Feb-2020 3441.51 6218.64 56.63 1.00  34.40 2726.26
   23:49:17.020.23-Feb-2020 3441.51 6384.83 56.63 1.00  34.60 2726.26
   23:49:17.220.23-Feb-2020 3441.51 6490.38 56.63 1.00  34.80 2726.26
   23:49:17.420.23-Feb-2020 3441.51 6540.87 56.63 1.00  35.00 2726.26
   23:49:17.620.23-Feb-2020 3441.51 6540.87 56.63 1.00  35.20 2726.26
   23:49:17.820.23-Feb-2020 3441.51 6492.32 56.63 1.00  35.40 2726.26
   23:49:18.020.23-Feb-2020 3441.51 6476.77 56.63 1.00  35.60 2726.26
   23:49:18.220.23-Feb-2020 3441.51 6463.56 56.63 1.00  35.80 2726.26
   23:49:18.420.23-Feb-2020 3441.51 6459.40 56.63 1.00  36.00 2726.26
   23:49:18.620.23-Feb-2020 3441.51 6459.40 56.63 1.00  36.20 2726.26
   23:49:18.820.23-Feb-2020 3441.51 6442.37 56.63 1.00  36.40 2726.26
   23:49:19.020.23-Feb-2020 3441.51 6432.37 56.63 1.00  36.60 2726.26
   23:49:19.220.23-Feb-2020 3441.51 6440.17 56.63 1.00  36.80 2726.26
   23:49:19.420.23-Feb-2020 3441.51 6461.88 56.63 1.00  37.00 2726.26
   23:49:19.620.23-Feb-2020 3441.51 6473.11 56.63 1.00  37.20 2726.26
   23:49:19.820.23-Feb-2020 3441.51 6485.51 56.64 1.00  37.40 2726.26
   23:49:20.020.23-Feb-2020 3441.51 6495.09 56.64 1.00  37.60 2726.26
   23:49:20.221.23-Feb-2020 3441.51 6492.40 56.64 1.00  37.80 2726.26
   23:49:20.421.23-Feb-2020 3441.51 6484.58 56.64 1.00  38.00 2726.26
   23:49:20.621.23-Feb-2020 3441.51 6472.41 56.64 1.00  38.20 2726.26
   23:49:20.821.23-Feb-2020 3441.51 6461.25 56.64 1.00  38.40 2726.26
   23:49:21.021.23-Feb-2020 3441.51 6454.13 56.64 1.00  38.60 2726.26
   23:49:21.221.23-Feb-2020 3441.51 6443.23 56.64 1.00  38.80 2726.26
   23:49:21.421.23-Feb-2020 3441.51 6432.83 56.64 1.00  39.00 2726.26
   23:49:21.621.23-Feb-2020 3441.51 6432.83 56.64 1.00  39.20 2726.26
   23:49:21.821.23-Feb-2020 3441.51 6416.29 56.64 1.00  39.40 2726.26
   23:49:22.021.23-Feb-2020 3441.51 6406.70 56.64 1.00  39.60 2726.26
   23:49:22.221.23-Feb-2020 3441.51 6403.06 56.64 1.00  39.80 2726.26
   23:49:22.421.23-Feb-2020 3441.51 6393.86 56.64 1.00  40.00 2726.26
   23:49:22.621.23-Feb-2020 3441.51 6393.86 56.64 1.00  40.20 2726.26
   23:49:22.821.23-Feb-2020 3441.51 6377.86 56.64 1.00  40.40 2726.26
   23:49:23.021.23-Feb-2020 3441.51 6370.68 56.64 1.00  40.60 2726.26
   23:49:23.221.23-Feb-2020 3441.51 6365.14 56.64 1.00  40.80 2726.26
   23:49:23.421.23-Feb-2020 3441.51 6360.21 56.64 1.00  41.00 2726.26
   23:49:23.621.23-Feb-2020 3441.51 6360.21 56.64 1.00  41.20 2726.26
   23:49:23.821.23-Feb-2020 3441.51 6347.60 56.64 1.00  41.40 2726.26
   23:49:24.021.23-Feb-2020 3441.51 6339.90 56.64 1.00  41.60 2726.26
   23:49:24.221.23-Feb-2020 3441.51 6336.00 56.64 1.00  41.80 2726.26
   23:49:24.421.23-Feb-2020 3441.51 6331.22 56.64 1.00  42.00 2726.26
   23:49:24.621.23-Feb-2020 3441.51 6331.22 56.64 1.00  42.20 2726.26
   23:49:24.821.23-Feb-2020 3441.51 4834.71 56.64 1.00  42.40 2726.26
   23:49:25.021.23-Feb-2020 3441.51 4062.40 56.64 1.00  42.60 2726.26
   23:49:25.221.23-Feb-2020 3441.51 4099.91 56.64 1.00  42.80 2726.26
   23:49:25.421.23-Feb-2020 3441.51 4144.20 56.64 1.00  43.00 2726.26
   23:49:25.621.23-Feb-2020 3441.51 4144.20 56.64 1.00  43.20 2726.26
   23:49:25.821.23-Feb-2020 3441.51 4123.95 56.64 1.00  43.40 2726.26
   23:49:26.021.23-Feb-2020 3441.51 4106.84 56.64 1.00  43.61 2726.26
   23:49:26.221.23-Feb-2020 3441.51 4104.46 56.64 1.00  43.81 2726.26
   23:49:26.421.23-Feb-2020 3441.51 4107.43 56.64 1.00  44.01 2726.26
   23:49:26.621.23-Feb-2020 3441.51 4107.43 56.64 1.00  44.21 2726.26
   23:49:26.821.23-Feb-2020 3441.51 4112.67 56.63 1.00  44.41 2726.26
   23:49:27.021.23-Feb-2020 3441.51 4111.21 56.63 1.00  44.61 2726.26
   23:49:27.221.23-Feb-2020 3441.51 4104.52 56.63 1.00  44.81 2726.26
   23:49:27.421.23-Feb-2020 3441.51 4109.19 56.63 1.00  45.01 2726.26
   23:49:27.621.23-Feb-2020 3441.51 4109.19 56.63 1.00  45.21 2726.26
   23:49:27.821.23-Feb-2020 3441.51 4103.75 56.63 1.00  45.41 2726.26
   23:49:28.021.23-Feb-2020 3441.51 4104.57 56.63 1.00  45.61 2726.26
   23:49:28.221.23-Feb-2020 3441.51 4104.63 56.62 1.00  45.81 2726.26
