~Version Information
 VERS.                  2.0:   CWLS log ASCII Standard -VERSION 2.0
 WRAP.                   NO:   One line per depth step
~Well Information Block
#MNEM.UNIT     VALUE/NAME     DESCRIPTION
#---------     -----------    ---------------------------
 STRT.S             05:02:14 24-Feb-20: START TIME 05:02:14 24-Feb-20
 STOP.S             05:09:32 24-Feb-20: STOP TIME  05:09:32 24-Feb-20
 STEP.S                   0.00: STEP TIME
 NULL.                 -999.25: NULL VALUE
 JOBN.        AZ-XX-0905059384:  JOB TICKET NUMB
 PDAT.          Mean Sea Level:  PERMANENT DATUM
 UNIT.                     N/A:  LOGGING EQUIPMENT ID
 DCON.         Sperry Drilling:  DIRECTNL CONTR
 DOE .                     N/A:  DOE NUMBER
 RIG .             West Chirag:  RIG NAME
 WELL.                     J22:  WELL NAME
 MWDS.                    Baku:  MWD SHOP
 SRVC.     TURAN Drilling & Engineering:  CONTRACTOR
 FLD .                     ACG:  FIELD NAME
 CTRY.              Azerbaijan:  COUNTRY NAME
 PROV.                    Baku:  PROVINCE
 STAT.                    Baku:  STATE NAME
 REGN.                   EESSA:  REGION
 BASE.              Azerbaijan:  LOGGING EQUIPMENT BASE LOCATION
 UWI .                     N/A:  UNIQUE WELL IDENTIFIER
 API .                     N/A:  API NUMBER
 COMP.     BP Exploration (Caspian Sea) Ltd.:  COMPANY
 WTYP.                Deviated:  WELL TYPE
 MDS .        Operator Entered:  MAG DATA SOURCE
 SON .        AZ-XX-0905059384:  JOB NUMBER
 FTOP.          Formation Tops:  FORM TOPS DESC
 ILTD.               Lithology:  INTERP LTH DESC
 SVYD.                  Survey:  SURVEY DESC
 DMOD.             Drill Model:  DRILL MOD DESC
 HPTY.       Minimum Curvature:  HOLE POS TYPE
 NREF.                    Grid:  NORTH REFERENCE
 SPUD.               09-Jan-20:  SPUD DATE
 DATE.      14.04.48 07-Feb-20:  END TIME
 STIM.      07.00.00 09-Jan-20:  START TIME
 DMF .             Drill Floor:  DRILL MEAS FROM
 DFST.                        :  DIST FSL TEXT
 DFWT.                        :  DIST FWL TEXT
 CNTY.                        :  COUNTY
 LOC .                        :  LOCATION
 LMF .             Drill Floor:  LOG MEASURED FROM
 DEP .m                   0.00:  DEPTH
 VSNS.m                  10.28:  VERT SEC N/S
 VSEW.m                  -6.24:  VERT SEC E/W
 AGAP.m                  43.00:  AIR GAP
 APD .m                  43.00:  DEPTH ABOVE PD
 WDMS.m                 169.80:  WD ELEV
 EGL .m                   0.00:  GROUND ELEVATION
 EPD .m                   0.00:  ELEVATION
 AZTC.deg                 6.27:  AZM TOTAL CORR
 GRDC.deg                 0.15:  GRID CORRECTION
 MDEC.deg                 6.42:  MAGNETIC DECL
 MDIP.deg                59.56:  MAGNETIC DIP
 MFLD.nT              50277.00:  MAGNETIC FIELD
 GVFD.g                   1.00:  GRAVITY FIELD
 VSDR.deg               148.53:  VERT SEC DIRECT
 TDD .m                3473.01:  TOTAL DEPTH (DRILLER)
 SDEP.m                 364.00:  START DEPTH
 DFSL.m                   0.00:  DISTANCE FSL
 DFWL.m                   0.00:  DISTANCE FWL
 UTMY.m             4443793.85:  UTM Y
 UTMX.m              519005.06:  UTM X
 WHEW.m                  -6.24:  WELL HEAD E/W
 WHNS.m                  10.28:  WELL HEAD N/S
 LONG.deg                51.22:  LONGITUDE
 LATI.deg                40.13:  LATITUDE
 TVDS.m                  43.00:  TVDSS CORRECTN
 EKB .m                   0.00:  KB ELEVATION
 EDF .m                  43.00:  DF ELEVATION
 TDL .m                 254.00:  TOTAL DEPTH (LOGGER)
 MAGU.                 1850021:  MAGUTM CHECKSUM
 VSC .                       0:  VS TO CLOSURE
~Parameter Information Block
#MNEM.UNIT       Value        Description
#---------     -----------    ---------------------------
 AV  .mps                 0.50:  Ann Velocity 
 AVMX.mps                 1.40:  Max Ann Veloc 
 AZIF.deg               144.94:  Azm, Final 
 BHAT.        Rotary Steerable:  BHA Type 
 BROT.°/30m               0.23:  Build Rotating 
 BS  .in                  8.50:  Bit Size 
 BTPL.psig              264.00:  Bit Press Loss 
 CABU.                     Yes:  Customer Abuse 
 TCS .hr                 87.30:  Time Ciculation Ended 
 CV  .mps                 2.45:  Crit Velocity 
 CVMX.mps                 2.74:  Max Crit Veloc 
 DD1 .             Aziz Aliyev:  Direct Drillr 1 
 DDSV.               Geo-Pilot:  DD Service 
 DEFF.%                 100.00:  % Det Eff 
 DLRX.°/30m               1.22:  Dogleg Rot Max 
 DLSO.°/30m               0.52:  Dogleg Oriented 
 DLSX.°/30m               1.22:  Dogleg Str Max 
 DRET.      12.59.00 23-Feb-20:  Drill End Time 
 DRST.      09.44.00 18-Feb-20:  Drill Start Tim 
 DTIM.hr                 23.03:  Time Drilling 
 EDEP.m                3473.01:  End Depth 
 ENG1.         Almaz Almadatov:  Engineer 1 
 ENG2.         Dair Mahammadov:  Engineer 2 
 ENG3.          Nazrin Asgarli:  Engineer 3 
 ETIM.      10.33.36 26-Feb-20:  End Time 
 FLOI.gpm               480.00:  Flow In 
 FLON.gpm               300.00:  Flow In Min 
 FLOS.cptm                1.00:  Fluid Loss 
 FLOX.gpm               550.00:  Flow In Max 
 HFLO.                      No:  High Flow 
 HPRE.                      No:  High Pressure 
 HTEM.                      No:  High Temp 
 HYDO.m                   1.80:  Hydro Offset 
 IFIN.deg                74.42:  Inc, Final 
 IMAX.deg                76.14:  Inc Max 
 IMIN.deg                74.42:  Inc Min 
 IMND.m                3462.72:  Inc Min Depth 
 IMXD.m                3235.69:  Inc Max Depth 
 JARR.                      No:  Jarring 
 LETM.      12.59.00 23-Feb-20:  Log End Time 
 LOST.hr                     0:  Lost Rig Time 
 LSTM.      09.44.00 18-Feb-20:  Log Start Time 
 MDCL.ppm             45000.00:  Mud Chlorides 
 MDES.     Inversion Oil/Synthetic:  Mud Desc 
 DFD .sg                  1.38:  Mud Density 
 MDMN.sg                  1.34:  Dens Mud Min 
 MDMX.sg                  1.49:  Dens Mud Max 
 MOIL.                      67:  Run Mud Oil % 
 MOWR.                   67:33:  Run Mud OWR 
 MSND.                    0.12:  Run Mud Sand % 
 MSOL.                      22:  Run Mud Solids% 
 DFV .spqt               81.00:  Mud Viscosity 
 MWOD.in                  6.75:  MWD Tool OD 
 MWSI.                      No:  Serv Intrp, MWD 
 OTIM.hr                231.44:  Time Operating 
 PCON.          Wear / Scratch:  Pad Condition 
 PMAX.psia             3400.00:  Press Op, Max 
 PV  .cP                 55.00:  Mud PV 
 RUN .                     800:  Run Number 
 ROPA.m/hr               12.00:  ROP Avg 
 ROPN.m/hr                5.00:  ROP Min 
 ROPX.m/hr               28.00:  ROP Max 
 RPMA.rpm               120.00:  RPM Surface Avg 
 RPMN.rpm                40.00:  RPM Surface Min 
 RPMX.rpm               130.00:  RPM Surface Max 
 RRUN.                    0800:  Rig Run Number 
 RTIM.hr                 45.00:  Time Reaming 
 SAZI.deg               145.38:  Azm, Start 
 SDEP.m                3219.01:  Start Depth 
 SIDD.                      No:  Serv Intrp, DD 
 SINC.deg                75.11:  Inc, Start 
 SPPA.psig             2400.00:  SPP Avg 
 SPPN.psig             2320.00:  SPP Min 
 SPPX.psig             3200.00:  SPP Max 
 STIM.      15.15.00 17-Feb-20:  Start Time 
 SVCS.                 DD, MWD:  Services 
 SVER.                    9.20:  Sperry Version 
 TDAT.m                 254.00:  Tot Depth Attmp 
 TDDF.                      No:  Trip for DD 
 TDLG.m                 254.00:  Tot Depth Loggd 
 TFF .                      No:  Trip for Fail 
 TQAA.f-kp               13.00:  Torque Abs Avg 
 TQAN.f-kp                7.00:  Torque Abs Min 
 TQAX.f-kp               15.00:  Torque Abs Max 
 TRRT.°/30m               0.21:  Turn Rotating 
 MRT .                  EWR-M5:  Maximum Recorded Temperature 
 TTMX.degC               64.00:  Max Tool Temp 
 VS01.                90586516:  Virtual Str1 SN 
 VS02.                90513691:  Virtual Str2 SN 
 VS03.                90586523:  Virtual Str3 SN 
 VS04.                90586520:  Virtual Str4 SN 
 VS05.                90590507:  Virtual Str5 SN 
 WBMN.klb                12.00:  WOB Min 
 WITN.           Rufat Babayev:  Customer Rep 2 
 WITN.         Alistair Sprott:  Customer Rep 
 WOBA.klb                18.00:  WOB Avg 
 WOBX.klb                30.00:  WOB Max 
 YP  .lhf2               41.00:  Yield Point 
~Curve Information Block
#MNEM.UNIT                 API CODE     Curve Description
#---------               -----------    ---------------------------
 TIME.HHMMSS            00 000 000 000:  GT Time & Date
 GTDEPTH.m              00 000 000 000:  GT Depth
 GTPQH.psia             00 000 000 000:  GT HR Quartz Pressure
 GTTQ.degC              00 000 000 000:  GT Quartz Temperature
 GTTN.NONE              00 000 000 000:  GT Test Number
 GTET.sec               00 000 000 000:  GT Elapsed Test Time
 GTTVD.m                00 000 000 000:  GT True Vertical Depth
#Other Information
#
#WARRANTY: Halliburton will use its best efforts to furnish customers with 
#accurate information and interpretations that are part of, and incident to, the services 
#provided.  However, Halliburton cannot and does not warrant the accuracy 
#or correctness of such information and interpretations.  Under no circumstances should any 
#such information or interpretation be relied upon as the sole basis for any drilling, 
#completion, production, or financial decision or any procedure involving any risk to the 
#safety of any drilling venture, drilling rig or its crew or any other third party.  The 
#Customer has full responsibility for all drilling, completion and production operation.  
#Halliburton makes no representations or warranties, either expressed or 
#implied, including, but not limited to, the implied warranties of merchantability or fitness 
#for a particular purpose, with respect to the services rendered.  In no event will 
#Halliburton be liable for failure to obtain any particular results or for 
#any damages, including, but not limited to, indirect, special or consequential damages, 
#resulting from the use of any information or interpretation provided by Halliburton.
#
~A           TIME           GTDEPTH  GTPQH  GTTQ  GTTN  GTET   GTTVD  
# ...
   05:05:18.789.24-Feb-2020 3303.51 4421.09 55.43 8.00 183.95 2690.98
   05:05:18.989.24-Feb-2020 3303.51 4421.09 55.43 8.00 184.15 2690.98
   05:05:19.189.24-Feb-2020 3303.51 4420.98 55.43 8.00 184.35 2690.98
   05:05:19.389.24-Feb-2020 3303.51 4420.99 55.43 8.00 184.55 2690.98
   05:05:19.588.24-Feb-2020 3303.51 4421.00 55.43 8.00 184.75 2690.98
   05:05:19.788.24-Feb-2020 3303.51 4421.04 55.43 8.00 184.95 2690.98
   05:05:19.988.24-Feb-2020 3303.51 4421.04 55.43 8.00 185.15 2690.98
   05:05:20.188.24-Feb-2020 3303.51 4421.04 55.43 8.00 185.35 2690.98
   05:05:20.388.24-Feb-2020 3303.51 4421.02 55.43 8.00 185.55 2690.98
   05:05:20.588.24-Feb-2020 3303.51 4421.02 55.43 8.00 185.75 2690.98
   05:05:20.788.24-Feb-2020 3303.51 4421.02 55.43 8.00 185.95 2690.98
   05:05:20.988.24-Feb-2020 3303.51 4421.04 55.43 8.00 186.15 2690.98
   05:05:21.188.24-Feb-2020 3303.51 4421.07 55.43 8.00 186.35 2690.98
   05:05:21.388.24-Feb-2020 3303.51 4421.01 55.43 8.00 186.55 2690.98
   05:05:21.588.24-Feb-2020 3303.51 4421.17 55.43 8.00 186.75 2690.98
   05:05:21.788.24-Feb-2020 3303.51 4421.19 55.43 8.00 186.95 2690.98
   05:05:21.988.24-Feb-2020 3303.51 4421.19 55.43 8.00 187.14 2690.98
   05:05:22.188.24-Feb-2020 3303.51 4421.13 55.43 8.00 187.34 2690.98
   05:05:22.388.24-Feb-2020 3303.51 4421.00 55.43 8.00 187.54 2690.98
   05:05:22.588.24-Feb-2020 3303.51 4421.09 55.43 8.00 187.74 2690.98
   05:05:22.788.24-Feb-2020 3303.51 4421.34 55.43 8.00 187.94 2690.98
   05:05:22.987.24-Feb-2020 3303.51 4421.34 55.43 8.00 188.14 2690.98
   05:05:23.187.24-Feb-2020 3303.51 4421.01 55.43 8.00 188.34 2690.98
   05:05:23.387.24-Feb-2020 3303.51 4421.06 55.43 8.00 188.54 2690.98
   05:05:23.587.24-Feb-2020 3303.51 4421.25 55.43 8.00 188.74 2690.98
   05:05:23.787.24-Feb-2020 3303.51 4421.31 55.43 8.00 188.94 2690.98
   05:05:23.987.24-Feb-2020 3303.51 4421.31 55.43 8.00 189.14 2690.98
   05:05:24.187.24-Feb-2020 3303.51 4421.20 55.43 8.00 189.34 2690.98
   05:05:24.387.24-Feb-2020 3303.51 4421.01 55.43 8.00 189.54 2690.98
   05:05:24.587.24-Feb-2020 3303.51 4421.35 55.43 8.00 189.74 2690.98
   05:05:24.787.24-Feb-2020 3303.51 4420.82 55.43 8.00 189.94 2690.98
   05:05:24.987.24-Feb-2020 3303.51 4421.37 55.43 8.00 190.14 2690.98
   05:05:25.187.24-Feb-2020 3303.51 4421.10 55.43 8.00 190.34 2690.98
   05:05:25.387.24-Feb-2020 3303.51 4421.08 55.43 8.00 190.54 2690.98
   05:05:25.587.24-Feb-2020 3303.51 4421.04 55.43 8.00 190.74 2690.98
   05:05:25.787.24-Feb-2020 3303.51 4421.05 55.43 8.00 190.94 2690.98
   05:05:25.987.24-Feb-2020 3303.51 4421.05 55.43 8.00 191.14 2690.98
   05:05:26.187.24-Feb-2020 3303.51 4421.06 55.43 8.00 191.34 2690.98
   05:05:26.386.24-Feb-2020 3303.51 4421.06 55.43 8.00 191.54 2690.98
   05:05:26.586.24-Feb-2020 3303.51 4421.06 55.43 8.00 191.74 2690.98
   05:05:26.786.24-Feb-2020 3303.51 4421.05 55.43 8.00 191.94 2690.98
   05:05:26.986.24-Feb-2020 3303.51 4421.05 55.43 8.00 192.14 2690.98
   05:05:27.186.24-Feb-2020 3303.51 4421.07 55.43 8.00 192.34 2690.98
   05:05:27.386.24-Feb-2020 3303.51 4421.07 55.43 8.00 192.54 2690.98
   05:05:27.586.24-Feb-2020 3303.51 4421.09 55.43 8.00 192.74 2690.98
   05:05:27.786.24-Feb-2020 3303.51 4421.26 55.43 8.00 192.94 2690.98
   05:05:27.986.24-Feb-2020 3303.51 4421.26 55.43 8.00 193.14 2690.98
   05:05:28.186.24-Feb-2020 3303.51 4420.95 55.43 8.00 193.34 2690.98
   05:05:28.386.24-Feb-2020 3303.51 4421.15 55.43 8.00 193.54 2690.98
   05:05:28.586.24-Feb-2020 3303.51 4421.02 55.43 8.00 193.74 2690.98
   05:05:28.786.24-Feb-2020 3303.51 4421.03 55.43 8.00 193.94 2690.98
   05:05:28.986.24-Feb-2020 3303.51 4421.00 55.43 8.00 194.14 2690.98
   05:05:29.186.24-Feb-2020 3303.51 4421.04 55.43 8.00 194.34 2690.98
   05:05:29.386.24-Feb-2020 3303.51 4421.06 55.43 8.00 194.54 2690.98
   05:05:29.586.24-Feb-2020 3303.51 4421.08 55.43 8.00 194.74 2690.98
   05:05:29.785.24-Feb-2020 3303.51 4421.02 55.43 8.00 194.94 2690.98
   05:05:29.985.24-Feb-2020 3303.51 4421.02 55.43 8.00 195.14 2690.98
   05:05:30.185.24-Feb-2020 3303.51 4421.04 55.43 8.00 195.34 2690.98
   05:05:30.385.24-Feb-2020 3303.51 4421.06 55.43 8.00 195.54 2690.98
   05:05:30.585.24-Feb-2020 3303.51 4421.06 55.43 8.00 195.74 2690.98
   05:05:30.785.24-Feb-2020 3303.51 4421.05 55.43 8.00 195.94 2690.98
   05:05:30.985.24-Feb-2020 3303.51 4421.05 55.43 8.00 196.14 2690.98
   05:05:31.185.24-Feb-2020 3303.51 4421.08 55.43 8.00 196.34 2690.98
   05:05:31.385.24-Feb-2020 3303.51 4421.35 55.43 8.00 196.54 2690.98
   05:05:31.585.24-Feb-2020 3303.51 4421.10 55.43 8.00 196.74 2690.98
   05:05:31.785.24-Feb-2020 3303.51 4421.46 55.43 8.00 196.94 2690.98
   05:05:31.985.24-Feb-2020 3303.51 4421.46 55.43 8.00 197.14 2690.98
   05:05:32.185.24-Feb-2020 3303.51 4421.04 55.43 8.00 197.34 2690.98
   05:05:32.385.24-Feb-2020 3303.51 4421.13 55.43 8.00 197.54 2690.98
   05:05:32.585.24-Feb-2020 3303.51 4421.03 55.43 8.00 197.74 2690.98
   05:05:32.785.24-Feb-2020 3303.51 4421.03 55.43 8.00 197.94 2690.98
   05:05:32.985.24-Feb-2020 3303.51 4421.31 55.43 8.00 198.14 2690.98
   05:05:33.184.24-Feb-2020 3303.51 4420.77 55.43 8.00 198.34 2690.98
   05:05:33.384.24-Feb-2020 3303.51 4421.35 55.43 8.00 198.54 2690.98
   05:05:33.584.24-Feb-2020 3303.51 4421.06 55.43 8.00 198.74 2690.98
   05:05:33.784.24-Feb-2020 3303.51 4421.07 55.43 8.00 198.94 2690.98
   05:05:33.984.24-Feb-2020 3303.51 4421.07 55.43 8.00 199.14 2690.98
   05:05:34.184.24-Feb-2020 3303.51 4421.16 55.43 8.00 199.34 2690.98
   05:05:34.384.24-Feb-2020 3303.51 4420.94 55.43 8.00 199.54 2690.98
   05:05:34.584.24-Feb-2020 3303.51 4421.10 55.43 8.00 199.74 2690.98
   05:05:34.784.24-Feb-2020 3303.51 4420.98 55.43 8.00 199.94 2690.98
   05:05:34.984.24-Feb-2020 3303.51 4420.98 55.43 8.00 200.14 2690.98
   05:05:35.184.24-Feb-2020 3303.51 4421.03 55.43 8.00 200.34 2690.98
   05:05:35.384.24-Feb-2020 3303.51 4421.04 55.43 8.00 200.54 2690.98
   05:05:35.584.24-Feb-2020 3303.51 4421.04 55.43 8.00 200.74 2690.98
   05:05:35.784.24-Feb-2020 3303.51 4421.07 55.43 8.00 200.94 2690.98
   05:05:35.984.24-Feb-2020 3303.51 4421.07 55.43 8.00 201.14 2690.98
   05:05:36.184.24-Feb-2020 3303.51 4421.05 55.43 8.00 201.34 2690.98
   05:05:36.384.24-Feb-2020 3303.51 4421.06 55.43 8.00 201.54 2690.98
   05:05:36.583.24-Feb-2020 3303.51 4421.05 55.43 8.00 201.74 2690.98
   05:05:36.783.24-Feb-2020 3303.51 4421.07 55.43 8.00 201.94 2690.98
   05:05:36.983.24-Feb-2020 3303.51 4421.33 55.43 8.00 202.14 2690.98
   05:05:37.183.24-Feb-2020 3303.51 4420.84 55.43 8.00 202.34 2690.98
   05:05:37.383.24-Feb-2020 3303.51 4421.31 55.43 8.00 202.54 2690.98
   05:05:37.583.24-Feb-2020 3303.51 4421.06 55.43 8.00 202.74 2690.98
   05:05:37.783.24-Feb-2020 3303.51 4421.05 55.43 8.00 202.94 2690.98
   05:05:37.983.24-Feb-2020 3303.51 4421.05 55.43 8.00 203.14 2690.98
   05:05:38.183.24-Feb-2020 3303.51 4421.02 55.42 8.00 203.34 2690.98
   05:05:38.383.24-Feb-2020 3303.51 4421.03 55.43 8.00 203.54 2690.98
   05:05:38.583.24-Feb-2020 3303.51 4421.04 55.42 8.00 203.74 2690.98
   05:05:38.783.24-Feb-2020 3303.51 4421.06 55.42 8.00 203.94 2690.98
   05:05:38.983.24-Feb-2020 3303.51 4421.06 55.42 8.00 204.14 2690.98
   05:05:39.183.24-Feb-2020 3303.51 4421.06 55.42 8.00 204.34 2690.98
   05:05:39.383.24-Feb-2020 3303.51 4421.03 55.42 8.00 204.54 2690.98
   05:05:39.583.24-Feb-2020 3303.51 4421.05 55.42 8.00 204.74 2690.98
   05:05:39.783.24-Feb-2020 3303.51 4421.05 55.42 8.00 204.94 2690.98
   05:05:39.982.24-Feb-2020 3303.51 4421.05 55.42 8.00 205.14 2690.98
   05:05:40.182.24-Feb-2020 3303.51 4421.03 55.42 8.00 205.34 2690.98
   05:05:40.382.24-Feb-2020 3303.51 4421.48 55.42 8.00 205.54 2690.98
   05:05:40.582.24-Feb-2020 3303.51 4420.84 55.42 8.00 205.74 2690.98
   05:05:40.782.24-Feb-2020 3303.51 4421.03 55.42 8.00 205.94 2690.98
   05:05:40.982.24-Feb-2020 3303.51 4421.12 55.42 8.00 206.14 2690.98
   05:05:41.182.24-Feb-2020 3303.51 4421.04 55.42 8.00 206.34 2690.98
   05:05:41.382.24-Feb-2020 3303.51 4421.30 55.42 8.00 206.54 2690.98
   05:05:41.582.24-Feb-2020 3303.51 4421.08 55.42 8.00 206.74 2690.98
