~Version Information
 VERS.                  2.0:   CWLS log ASCII Standard -VERSION 2.0
 WRAP.                   NO:   One line per depth step
~Well Information Block
#MNEM.UNIT     VALUE/NAME     DESCRIPTION
#---------     -----------    ---------------------------
 STRT.S             06:21:10 24-Feb-20: START TIME 06:21:10 24-Feb-20
 STOP.S             06:29:09 24-Feb-20: STOP TIME  06:29:09 24-Feb-20
 STEP.S                   0.00: STEP TIME
 NULL.                 -999.25: NULL VALUE
 JOBN.        AZ-XX-0905059384:  JOB TICKET NUMB
 PDAT.          Mean Sea Level:  PERMANENT DATUM
 UNIT.                     N/A:  LOGGING EQUIPMENT ID
 DCON.         Sperry Drilling:  DIRECTNL CONTR
 DOE .                     N/A:  DOE NUMBER
 RIG .             West Chirag:  RIG NAME
 WELL.                     J22:  WELL NAME
 MWDS.                    Baku:  MWD SHOP
 SRVC.     TURAN Drilling & Engineering:  CONTRACTOR
 FLD .                     ACG:  FIELD NAME
 CTRY.              Azerbaijan:  COUNTRY NAME
 PROV.                    Baku:  PROVINCE
 STAT.                    Baku:  STATE NAME
 REGN.                   EESSA:  REGION
 BASE.              Azerbaijan:  LOGGING EQUIPMENT BASE LOCATION
 UWI .                     N/A:  UNIQUE WELL IDENTIFIER
 API .                     N/A:  API NUMBER
 COMP.     BP Exploration (Caspian Sea) Ltd.:  COMPANY
 WTYP.                Deviated:  WELL TYPE
 MDS .        Operator Entered:  MAG DATA SOURCE
 SON .        AZ-XX-0905059384:  JOB NUMBER
 FTOP.          Formation Tops:  FORM TOPS DESC
 ILTD.               Lithology:  INTERP LTH DESC
 SVYD.                  Survey:  SURVEY DESC
 DMOD.             Drill Model:  DRILL MOD DESC
 HPTY.       Minimum Curvature:  HOLE POS TYPE
 NREF.                    Grid:  NORTH REFERENCE
 SPUD.               09-Jan-20:  SPUD DATE
 DATE.      14.04.48 07-Feb-20:  END TIME
 STIM.      07.00.00 09-Jan-20:  START TIME
 DMF .             Drill Floor:  DRILL MEAS FROM
 DFST.                        :  DIST FSL TEXT
 DFWT.                        :  DIST FWL TEXT
 CNTY.                        :  COUNTY
 LOC .                        :  LOCATION
 LMF .             Drill Floor:  LOG MEASURED FROM
 DEP .m                   0.00:  DEPTH
 VSNS.m                  10.28:  VERT SEC N/S
 VSEW.m                  -6.24:  VERT SEC E/W
 AGAP.m                  43.00:  AIR GAP
 APD .m                  43.00:  DEPTH ABOVE PD
 WDMS.m                 169.80:  WD ELEV
 EGL .m                   0.00:  GROUND ELEVATION
 EPD .m                   0.00:  ELEVATION
 AZTC.deg                 6.27:  AZM TOTAL CORR
 GRDC.deg                 0.15:  GRID CORRECTION
 MDEC.deg                 6.42:  MAGNETIC DECL
 MDIP.deg                59.56:  MAGNETIC DIP
 MFLD.nT              50277.00:  MAGNETIC FIELD
 GVFD.g                   1.00:  GRAVITY FIELD
 VSDR.deg               148.53:  VERT SEC DIRECT
 TDD .m                3473.01:  TOTAL DEPTH (DRILLER)
 SDEP.m                 364.00:  START DEPTH
 DFSL.m                   0.00:  DISTANCE FSL
 DFWL.m                   0.00:  DISTANCE FWL
 UTMY.m             4443793.85:  UTM Y
 UTMX.m              519005.06:  UTM X
 WHEW.m                  -6.24:  WELL HEAD E/W
 WHNS.m                  10.28:  WELL HEAD N/S
 LONG.deg                51.22:  LONGITUDE
 LATI.deg                40.13:  LATITUDE
 TVDS.m                  43.00:  TVDSS CORRECTN
 EKB .m                   0.00:  KB ELEVATION
 EDF .m                  43.00:  DF ELEVATION
 TDL .m                 254.00:  TOTAL DEPTH (LOGGER)
 MAGU.                 1850021:  MAGUTM CHECKSUM
 VSC .                       0:  VS TO CLOSURE
~Parameter Information Block
#MNEM.UNIT       Value        Description
#---------     -----------    ---------------------------
 AV  .mps                 0.50:  Ann Velocity 
 AVMX.mps                 1.40:  Max Ann Veloc 
 AZIF.deg               144.94:  Azm, Final 
 BHAT.        Rotary Steerable:  BHA Type 
 BROT.°/30m               0.23:  Build Rotating 
 BS  .in                  8.50:  Bit Size 
 BTPL.psig              264.00:  Bit Press Loss 
 CABU.                     Yes:  Customer Abuse 
 COMM.                     î^:  Run Comments 1 
 TCS .hr                 87.30:  Time Ciculation Ended 
 CV  .mps                 2.45:  Crit Velocity 
 CVMX.mps                 2.74:  Max Crit Veloc 
 DD1 .             Aziz Aliyev:  Direct Drillr 1 
 DDSV.               Geo-Pilot:  DD Service 
 DEFF.%                 100.00:  % Det Eff 
 DLRX.°/30m               1.22:  Dogleg Rot Max 
 DLSO.°/30m               0.52:  Dogleg Oriented 
 DLSX.°/30m               1.22:  Dogleg Str Max 
 DRET.      12.59.00 23-Feb-20:  Drill End Time 
 DRST.      09.44.00 18-Feb-20:  Drill Start Tim 
 DTIM.hr                 23.03:  Time Drilling 
 EDEP.m                3473.01:  End Depth 
 ENG1.         Almaz Almadatov:  Engineer 1 
 ENG2.         Dair Mahammadov:  Engineer 2 
 ENG3.          Nazrin Asgarli:  Engineer 3 
 ETIM.      10.33.36 26-Feb-20:  End Time 
 FLOI.gpm               480.00:  Flow In 
 FLON.gpm               300.00:  Flow In Min 
 FLOS.cptm                1.00:  Fluid Loss 
 FLOX.gpm               550.00:  Flow In Max 
 HFLO.                      No:  High Flow 
 HPRE.                      No:  High Pressure 
 HTEM.                      No:  High Temp 
 HYDO.m                   1.80:  Hydro Offset 
 IFIN.deg                74.42:  Inc, Final 
 IMAX.deg                76.14:  Inc Max 
 IMIN.deg                74.42:  Inc Min 
 IMND.m                3462.72:  Inc Min Depth 
 IMXD.m                3235.69:  Inc Max Depth 
 JARR.                      No:  Jarring 
 LETM.      12.59.00 23-Feb-20:  Log End Time 
 LOST.hr                     0:  Lost Rig Time 
 LSTM.      09.44.00 18-Feb-20:  Log Start Time 
 MDCL.ppm             45000.00:  Mud Chlorides 
 MDES.     Inversion Oil/Synthetic:  Mud Desc 
 DFD .sg                  1.38:  Mud Density 
 MDMN.sg                  1.34:  Dens Mud Min 
 MDMX.sg                  1.49:  Dens Mud Max 
 MOIL.                      67:  Run Mud Oil % 
 MOWR.                   67:33:  Run Mud OWR 
 MSND.                    0.12:  Run Mud Sand % 
 MSOL.                      22:  Run Mud Solids% 
 DFV .spqt               81.00:  Mud Viscosity 
 MWOD.in                  6.75:  MWD Tool OD 
 MWSI.                      No:  Serv Intrp, MWD 
 OTIM.hr                231.44:  Time Operating 
 PCON.          Wear / Scratch:  Pad Condition 
 PMAX.psia             3400.00:  Press Op, Max 
 PV  .cP                 55.00:  Mud PV 
 RUN .                     800:  Run Number 
 ROPA.m/hr               12.00:  ROP Avg 
 ROPN.m/hr                5.00:  ROP Min 
 ROPX.m/hr               28.00:  ROP Max 
 RPMA.rpm               120.00:  RPM Surface Avg 
 RPMN.rpm                40.00:  RPM Surface Min 
 RPMX.rpm               130.00:  RPM Surface Max 
 RRUN.                    0800:  Rig Run Number 
 RTIM.hr                 45.00:  Time Reaming 
 SAZI.deg               145.38:  Azm, Start 
 SDEP.m                3219.01:  Start Depth 
 SIDD.                      No:  Serv Intrp, DD 
 SINC.deg                75.11:  Inc, Start 
 SPPA.psig             2400.00:  SPP Avg 
 SPPN.psig             2320.00:  SPP Min 
 SPPX.psig             3200.00:  SPP Max 
 STIM.      15.15.00 17-Feb-20:  Start Time 
 SVCS.                 DD, MWD:  Services 
 SVER.                    9.20:  Sperry Version 
 TDAT.m                 254.00:  Tot Depth Attmp 
 TDDF.                      No:  Trip for DD 
 TDLG.m                 254.00:  Tot Depth Loggd 
 TFF .                      No:  Trip for Fail 
 TQAA.f-kp               13.00:  Torque Abs Avg 
 TQAN.f-kp                7.00:  Torque Abs Min 
 TQAX.f-kp               15.00:  Torque Abs Max 
 TRRT.°/30m               0.21:  Turn Rotating 
 MRT .                  EWR-M5:  Maximum Recorded Temperature 
 TTMX.degC               64.00:  Max Tool Temp 
 VS01.                90586516:  Virtual Str1 SN 
 VS02.                90513691:  Virtual Str2 SN 
 VS03.                90586523:  Virtual Str3 SN 
 VS04.                90586520:  Virtual Str4 SN 
 VS05.                90590507:  Virtual Str5 SN 
 WBMN.klb                12.00:  WOB Min 
 WITN.           Rufat Babayev:  Customer Rep 2 
 WITN.         Alistair Sprott:  Customer Rep 
 WOBA.klb                18.00:  WOB Avg 
 WOBX.klb                30.00:  WOB Max 
 YP  .lhf2               41.00:  Yield Point 
~Curve Information Block
#MNEM.UNIT                 API CODE     Curve Description
#---------               -----------    ---------------------------
 TIME.HHMMSS            00 000 000 000:  GT Time & Date
 GTDEPTH.m              00 000 000 000:  GT Depth
 GTPQH.psia             00 000 000 000:  GT HR Quartz Pressure
 GTTQ.degC              00 000 000 000:  GT Quartz Temperature
 GTTN.NONE              00 000 000 000:  GT Test Number
 GTET.sec               00 000 000 000:  GT Elapsed Test Time
 GTTVD.m                00 000 000 000:  GT True Vertical Depth
#Other Information
#
#WARRANTY: Halliburton will use its best efforts to furnish customers with 
#accurate information and interpretations that are part of, and incident to, the services 
#provided.  However, Halliburton cannot and does not warrant the accuracy 
#or correctness of such information and interpretations.  Under no circumstances should any 
#such information or interpretation be relied upon as the sole basis for any drilling, 
#completion, production, or financial decision or any procedure involving any risk to the 
#safety of any drilling venture, drilling rig or its crew or any other third party.  The 
#Customer has full responsibility for all drilling, completion and production operation.  
#Halliburton makes no representations or warranties, either expressed or 
#implied, including, but not limited to, the implied warranties of merchantability or fitness 
#for a particular purpose, with respect to the services rendered.  In no event will 
#Halliburton be liable for failure to obtain any particular results or for 
#any damages, including, but not limited to, indirect, special or consequential damages, 
#resulting from the use of any information or interpretation provided by Halliburton.
#
~A           TIME           GTDEPTH  GTPQH  GTTQ  GTTN   GTET   GTTVD  
# ...
   06:26:04.272.24-Feb-2020 3290.51 4402.96 53.93 10.00 293.86 2687.65
   06:26:04.472.24-Feb-2020 3290.51 4403.54 53.92 10.00 294.06 2687.65
   06:26:04.672.24-Feb-2020 3290.51 4403.29 53.93 10.00 294.26 2687.65
   06:26:04.872.24-Feb-2020 3290.51 4403.78 53.92 10.00 294.46 2687.65
   06:26:05.072.24-Feb-2020 3290.51 4403.63 53.92 10.00 294.66 2687.65
   06:26:05.272.24-Feb-2020 3290.51 4403.34 53.92 10.00 294.86 2687.65
   06:26:05.472.24-Feb-2020 3290.51 4403.06 53.92 10.00 295.06 2687.65
   06:26:05.673.24-Feb-2020 3290.51 4403.06 53.92 10.00 295.26 2687.65
   06:26:05.873.24-Feb-2020 3290.51 4403.22 53.92 10.00 295.46 2687.65
   06:26:06.073.24-Feb-2020 3290.51 4403.03 53.92 10.00 295.66 2687.65
   06:26:06.273.24-Feb-2020 3290.51 4403.54 53.92 10.00 295.86 2687.65
   06:26:06.473.24-Feb-2020 3290.51 4403.51 53.92 10.00 296.06 2687.65
   06:26:06.673.24-Feb-2020 3290.51 4403.51 53.92 10.00 296.26 2687.65
   06:26:06.873.24-Feb-2020 3290.51 4403.15 53.92 10.00 296.46 2687.65
   06:26:07.073.24-Feb-2020 3290.51 4403.05 53.92 10.00 296.66 2687.65
   06:26:07.273.24-Feb-2020 3290.51 4402.99 53.92 10.00 296.86 2687.65
   06:26:07.473.24-Feb-2020 3290.51 4402.90 53.92 10.00 297.06 2687.65
   06:26:07.673.24-Feb-2020 3290.51 4402.90 53.92 10.00 297.26 2687.65
   06:26:07.873.24-Feb-2020 3290.51 4402.82 53.92 10.00 297.47 2687.65
   06:26:08.073.24-Feb-2020 3290.51 4402.81 53.92 10.00 297.67 2687.65
   06:26:08.273.24-Feb-2020 3290.51 4402.82 53.92 10.00 297.87 2687.65
   06:26:08.473.24-Feb-2020 3290.51 4402.77 53.92 10.00 298.07 2687.65
   06:26:08.673.24-Feb-2020 3290.51 4402.52 53.92 10.00 298.27 2687.65
   06:26:08.873.24-Feb-2020 3290.51 4402.60 53.92 10.00 298.47 2687.65
   06:26:09.073.24-Feb-2020 3290.51 4401.91 53.92 10.00 298.67 2687.65
   06:26:09.273.24-Feb-2020 3290.51 4402.96 53.92 10.00 298.87 2687.65
   06:26:09.473.24-Feb-2020 3290.51 4403.38 53.92 10.00 299.07 2687.65
   06:26:09.673.24-Feb-2020 3290.51 4403.38 53.92 10.00 299.27 2687.65
   06:26:09.873.24-Feb-2020 3290.51 4402.96 53.92 10.00 299.47 2687.65
   06:26:10.074.24-Feb-2020 3290.51 4402.99 53.92 10.00 299.67 2687.65
   06:26:10.274.24-Feb-2020 3290.51 4402.90 53.92 10.00 299.87 2687.65
   06:26:10.474.24-Feb-2020 3290.51 4402.76 53.92 10.00 300.07 2687.65
   06:26:10.674.24-Feb-2020 3290.51 4402.76 53.92 10.00 300.27 2687.65
   06:26:10.874.24-Feb-2020 3290.51 4402.70 53.92 10.00 300.47 2687.65
   06:26:11.074.24-Feb-2020 3290.51 4402.63 53.92 10.00 300.67 2687.65
   06:26:11.274.24-Feb-2020 3290.51 4402.66 53.92 10.00 300.87 2687.65
   06:26:11.474.24-Feb-2020 3290.51 4402.78 53.92 10.00 301.07 2687.65
   06:26:11.674.24-Feb-2020 3290.51 4402.78 53.92 10.00 301.27 2687.65
   06:26:11.874.24-Feb-2020 3290.51 4402.56 53.92 10.00 301.47 2687.65
   06:26:12.074.24-Feb-2020 3290.51 4402.45 53.92 10.00 301.67 2687.65
   06:26:12.274.24-Feb-2020 3290.51 4402.13 53.92 10.00 301.87 2687.65
   06:26:12.474.24-Feb-2020 3290.51 4402.46 53.92 10.00 302.07 2687.65
   06:26:12.674.24-Feb-2020 3290.51 4402.91 53.92 10.00 302.27 2687.65
   06:26:12.874.24-Feb-2020 3290.51 4403.19 53.92 10.00 302.47 2687.65
   06:26:13.074.24-Feb-2020 3290.51 4402.68 53.92 10.00 302.67 2687.65
   06:26:13.274.24-Feb-2020 3290.51 4403.19 53.92 10.00 302.87 2687.65
   06:26:13.474.24-Feb-2020 3290.51 4403.00 53.92 10.00 303.07 2687.65
   06:26:13.674.24-Feb-2020 3290.51 4403.00 53.92 10.00 303.27 2687.65
   06:26:13.874.24-Feb-2020 3290.51 4403.48 53.92 10.00 303.47 2687.65
   06:26:14.074.24-Feb-2020 3290.51 4403.59 53.92 10.00 303.67 2687.65
   06:26:14.274.24-Feb-2020 3290.51 4402.73 53.92 10.00 303.87 2687.65
   06:26:14.474.24-Feb-2020 3290.51 4403.73 53.92 10.00 304.07 2687.65
   06:26:14.675.24-Feb-2020 3290.51 4403.73 53.92 10.00 304.27 2687.65
   06:26:14.875.24-Feb-2020 3290.51 4403.67 53.92 10.00 304.47 2687.65
   06:26:15.075.24-Feb-2020 3290.51 4403.31 53.92 10.00 304.67 2687.65
   06:26:15.275.24-Feb-2020 3290.51 4403.30 53.92 10.00 304.87 2687.65
   06:26:15.475.24-Feb-2020 3290.51 4403.38 53.92 10.00 305.07 2687.65
   06:26:15.675.24-Feb-2020 3290.51 4403.38 53.92 10.00 305.27 2687.65
   06:26:15.875.24-Feb-2020 3290.51 4403.68 53.92 10.00 305.47 2687.65
   06:26:16.075.24-Feb-2020 3290.51 4403.95 53.92 10.00 305.67 2687.65
   06:26:16.275.24-Feb-2020 3290.51 4403.77 53.92 10.00 305.87 2687.65
   06:26:16.475.24-Feb-2020 3290.51 4403.61 53.92 10.00 306.07 2687.65
   06:26:16.675.24-Feb-2020 3290.51 4403.47 53.92 10.00 306.27 2687.65
   06:26:16.875.24-Feb-2020 3290.51 4403.33 53.92 10.00 306.47 2687.65
   06:26:17.075.24-Feb-2020 3290.51 4403.24 53.92 10.00 306.67 2687.65
   06:26:17.275.24-Feb-2020 3290.51 4403.17 53.92 10.00 306.87 2687.65
   06:26:17.475.24-Feb-2020 3290.51 4403.09 53.92 10.00 307.07 2687.65
   06:26:17.675.24-Feb-2020 3290.51 4403.09 53.92 10.00 307.27 2687.65
   06:26:17.875.24-Feb-2020 3290.51 4403.11 53.92 10.00 307.47 2687.65
   06:26:18.075.24-Feb-2020 3290.51 4403.01 53.92 10.00 307.67 2687.65
   06:26:18.275.24-Feb-2020 3290.51 4402.92 53.92 10.00 307.87 2687.65
   06:26:18.475.24-Feb-2020 3290.51 4402.34 53.92 10.00 308.07 2687.65
   06:26:18.675.24-Feb-2020 3290.51 4402.34 53.92 10.00 308.27 2687.65
   06:26:18.875.24-Feb-2020 3290.51 4402.80 53.92 10.00 308.47 2687.65
   06:26:19.075.24-Feb-2020 3290.51 4403.41 53.92 10.00 308.67 2687.65
   06:26:19.276.24-Feb-2020 3290.51 4403.40 53.92 10.00 308.87 2687.65
   06:26:19.476.24-Feb-2020 3290.51 4403.17 53.92 10.00 309.07 2687.65
   06:26:19.676.24-Feb-2020 3290.51 4403.17 53.92 10.00 309.27 2687.65
   06:26:19.876.24-Feb-2020 3290.51 4403.19 53.92 10.00 309.47 2687.65
   06:26:20.076.24-Feb-2020 3290.51 4403.15 53.92 10.00 309.67 2687.65
   06:26:20.276.24-Feb-2020 3290.51 4402.93 53.92 10.00 309.87 2687.65
   06:26:20.476.24-Feb-2020 3290.51 4402.92 53.92 10.00 310.07 2687.65
   06:26:20.676.24-Feb-2020 3290.51 4402.88 53.92 10.00 310.27 2687.65
   06:26:20.876.24-Feb-2020 3290.51 4402.90 53.92 10.00 310.47 2687.65
   06:26:21.076.24-Feb-2020 3290.51 4402.96 53.92 10.00 310.67 2687.65
   06:26:21.276.24-Feb-2020 3290.51 4402.93 53.92 10.00 310.87 2687.65
   06:26:21.476.24-Feb-2020 3290.51 4402.92 53.92 10.00 311.07 2687.65
   06:26:21.676.24-Feb-2020 3290.51 4402.92 53.92 10.00 311.27 2687.65
   06:26:21.876.24-Feb-2020 3290.51 4402.51 53.92 10.00 311.47 2687.65
   06:26:22.076.24-Feb-2020 3290.51 4402.45 53.92 10.00 311.67 2687.65
   06:26:22.276.24-Feb-2020 3290.51 4402.88 53.92 10.00 311.87 2687.65
   06:26:22.476.24-Feb-2020 3290.51 4403.30 53.92 10.00 312.07 2687.65
   06:26:22.676.24-Feb-2020 3290.51 4403.30 53.92 10.00 312.27 2687.65
   06:26:22.876.24-Feb-2020 3290.51 4403.45 53.92 10.00 312.47 2687.65
   06:26:23.076.24-Feb-2020 3290.51 4402.74 53.92 10.00 312.67 2687.65
   06:26:23.276.24-Feb-2020 3290.51 4403.73 53.92 10.00 312.87 2687.65
   06:26:23.476.24-Feb-2020 3290.51 4404.07 53.92 10.00 313.07 2687.65
   06:26:23.676.24-Feb-2020 3290.51 4404.07 53.92 10.00 313.27 2687.65
   06:26:23.877.24-Feb-2020 3290.51 4404.12 53.92 10.00 313.47 2687.65
   06:26:24.077.24-Feb-2020 3290.51 4403.99 53.92 10.00 313.67 2687.65
   06:26:24.277.24-Feb-2020 3290.51 4404.53 53.92 10.00 313.87 2687.65
   06:26:24.477.24-Feb-2020 3290.51 4404.41 53.92 10.00 314.07 2687.65
   06:26:24.677.24-Feb-2020 3290.51 4404.07 53.92 10.00 314.27 2687.65
   06:26:24.877.24-Feb-2020 3290.51 4403.78 53.92 10.00 314.47 2687.65
   06:26:25.077.24-Feb-2020 3290.51 4403.35 53.92 10.00 314.67 2687.65
   06:26:25.277.24-Feb-2020 3290.51 4403.81 53.92 10.00 314.87 2687.65
   06:26:25.477.24-Feb-2020 3290.51 4403.70 53.92 10.00 315.07 2687.65
   06:26:25.677.24-Feb-2020 3290.51 4403.70 53.92 10.00 315.27 2687.65
   06:26:25.877.24-Feb-2020 3290.51 4404.35 53.92 10.00 315.47 2687.65
   06:26:26.077.24-Feb-2020 3290.51 4404.06 53.92 10.00 315.67 2687.65
   06:26:26.277.24-Feb-2020 3290.51 4403.85 53.92 10.00 315.87 2687.65
   06:26:26.477.24-Feb-2020 3290.51 4287.59 53.92 10.00 316.07 2687.65
   06:26:26.677.24-Feb-2020 3290.51 4287.59 53.92 10.00 316.27 2687.65
