~Version Information
 VERS.                  2.0:   CWLS log ASCII Standard -VERSION 2.0
 WRAP.                   NO:   One line per depth step
~Well Information Block
#MNEM.UNIT     VALUE/NAME     DESCRIPTION
#---------     -----------    ---------------------------
 STRT.S             00:23:32 24-Feb-20: START TIME 00:23:32 24-Feb-20
 STOP.S             00:30:40 24-Feb-20: STOP TIME  00:30:40 24-Feb-20
 STEP.S                   0.00: STEP TIME
 NULL.                 -999.25: NULL VALUE
 JOBN.        AZ-XX-0905059384:  JOB TICKET NUMB
 PDAT.          Mean Sea Level:  PERMANENT DATUM
 UNIT.                     N/A:  LOGGING EQUIPMENT ID
 DCON.         Sperry Drilling:  DIRECTNL CONTR
 DOE .                     N/A:  DOE NUMBER
 RIG .             West Chirag:  RIG NAME
 WELL.                     J22:  WELL NAME
 MWDS.                    Baku:  MWD SHOP
 SRVC.     TURAN Drilling & Engineering:  CONTRACTOR
 FLD .                     ACG:  FIELD NAME
 CTRY.              Azerbaijan:  COUNTRY NAME
 PROV.                    Baku:  PROVINCE
 STAT.                    Baku:  STATE NAME
 REGN.                   EESSA:  REGION
 BASE.              Azerbaijan:  LOGGING EQUIPMENT BASE LOCATION
 UWI .                     N/A:  UNIQUE WELL IDENTIFIER
 API .                     N/A:  API NUMBER
 COMP.     BP Exploration (Caspian Sea) Ltd.:  COMPANY
 WTYP.                Deviated:  WELL TYPE
 MDS .        Operator Entered:  MAG DATA SOURCE
 SON .        AZ-XX-0905059384:  JOB NUMBER
 FTOP.          Formation Tops:  FORM TOPS DESC
 ILTD.               Lithology:  INTERP LTH DESC
 SVYD.                  Survey:  SURVEY DESC
 DMOD.             Drill Model:  DRILL MOD DESC
 HPTY.       Minimum Curvature:  HOLE POS TYPE
 NREF.                    Grid:  NORTH REFERENCE
 SPUD.               09-Jan-20:  SPUD DATE
 DATE.      14.04.48 07-Feb-20:  END TIME
 STIM.      07.00.00 09-Jan-20:  START TIME
 DMF .             Drill Floor:  DRILL MEAS FROM
 DFST.                        :  DIST FSL TEXT
 DFWT.                        :  DIST FWL TEXT
 CNTY.                        :  COUNTY
 LOC .                        :  LOCATION
 LMF .             Drill Floor:  LOG MEASURED FROM
 DEP .m                   0.00:  DEPTH
 VSNS.m                  10.28:  VERT SEC N/S
 VSEW.m                  -6.24:  VERT SEC E/W
 AGAP.m                  43.00:  AIR GAP
 APD .m                  43.00:  DEPTH ABOVE PD
 WDMS.m                 169.80:  WD ELEV
 EGL .m                   0.00:  GROUND ELEVATION
 EPD .m                   0.00:  ELEVATION
 AZTC.deg                 6.27:  AZM TOTAL CORR
 GRDC.deg                 0.15:  GRID CORRECTION
 MDEC.deg                 6.42:  MAGNETIC DECL
 MDIP.deg                59.56:  MAGNETIC DIP
 MFLD.nT              50277.00:  MAGNETIC FIELD
 GVFD.g                   1.00:  GRAVITY FIELD
 VSDR.deg               148.53:  VERT SEC DIRECT
 TDD .m                3473.01:  TOTAL DEPTH (DRILLER)
 SDEP.m                 364.00:  START DEPTH
 DFSL.m                   0.00:  DISTANCE FSL
 DFWL.m                   0.00:  DISTANCE FWL
 UTMY.m             4443793.85:  UTM Y
 UTMX.m              519005.06:  UTM X
 WHEW.m                  -6.24:  WELL HEAD E/W
 WHNS.m                  10.28:  WELL HEAD N/S
 LONG.deg                51.22:  LONGITUDE
 LATI.deg                40.13:  LATITUDE
 TVDS.m                  43.00:  TVDSS CORRECTN
 EKB .m                   0.00:  KB ELEVATION
 EDF .m                  43.00:  DF ELEVATION
 TDL .m                 254.00:  TOTAL DEPTH (LOGGER)
 MAGU.                 1850021:  MAGUTM CHECKSUM
 VSC .                       0:  VS TO CLOSURE
~Parameter Information Block
#MNEM.UNIT       Value        Description
#---------     -----------    ---------------------------
 AV  .mps                 0.50:  Ann Velocity 
 AVMX.mps                 1.40:  Max Ann Veloc 
 AZIF.deg               144.94:  Azm, Final 
 BHAT.        Rotary Steerable:  BHA Type 
 BROT.∞/30m               0.23:  Build Rotating 
 BS  .in                  8.50:  Bit Size 
 BTPL.psig              264.00:  Bit Press Loss 
 CABU.                     Yes:  Customer Abuse 
 COMM.                     ÙP`:  Run Comments 1 
 TCS .hr                 87.30:  Time Ciculation Ended 
 CV  .mps                 2.45:  Crit Velocity 
 CVMX.mps                 2.74:  Max Crit Veloc 
 DD1 .             Aziz Aliyev:  Direct Drillr 1 
 DDSV.               Geo-Pilot:  DD Service 
 DEFF.%                 100.00:  % Det Eff 
 DLRX.∞/30m               1.22:  Dogleg Rot Max 
 DLSO.∞/30m               0.52:  Dogleg Oriented 
 DLSX.∞/30m               1.22:  Dogleg Str Max 
 DRET.      12.59.00 23-Feb-20:  Drill End Time 
 DRST.      09.44.00 18-Feb-20:  Drill Start Tim 
 DTIM.hr                 23.03:  Time Drilling 
 EDEP.m                3473.01:  End Depth 
 ENG1.         Almaz Almadatov:  Engineer 1 
 ENG2.         Dair Mahammadov:  Engineer 2 
 ENG3.          Nazrin Asgarli:  Engineer 3 
 ETIM.      10.33.36 26-Feb-20:  End Time 
 FLOI.gpm               480.00:  Flow In 
 FLON.gpm               300.00:  Flow In Min 
 FLOS.cptm                1.00:  Fluid Loss 
 FLOX.gpm               550.00:  Flow In Max 
 HFLO.                      No:  High Flow 
 HPRE.                      No:  High Pressure 
 HTEM.                      No:  High Temp 
 HYDO.m                   1.80:  Hydro Offset 
 IFIN.deg                74.42:  Inc, Final 
 IMAX.deg                76.14:  Inc Max 
 IMIN.deg                74.42:  Inc Min 
 IMND.m                3462.72:  Inc Min Depth 
 IMXD.m                3235.69:  Inc Max Depth 
 JARR.                      No:  Jarring 
 LETM.      12.59.00 23-Feb-20:  Log End Time 
 LOST.hr                     0:  Lost Rig Time 
 LSTM.      09.44.00 18-Feb-20:  Log Start Time 
 MDCL.ppm             45000.00:  Mud Chlorides 
 MDES.     Inversion Oil/Synthetic:  Mud Desc 
 DFD .sg                  1.38:  Mud Density 
 MDMN.sg                  1.34:  Dens Mud Min 
 MDMX.sg                  1.49:  Dens Mud Max 
 MOIL.                      67:  Run Mud Oil % 
 MOWR.                   67:33:  Run Mud OWR 
 MSND.                    0.12:  Run Mud Sand % 
 MSOL.                      22:  Run Mud Solids% 
 DFV .spqt               81.00:  Mud Viscosity 
 MWOD.in                  6.75:  MWD Tool OD 
 MWSI.                      No:  Serv Intrp, MWD 
 OTIM.hr                231.44:  Time Operating 
 PCON.          Wear / Scratch:  Pad Condition 
 PMAX.psia             3400.00:  Press Op, Max 
 PV  .cP                 55.00:  Mud PV 
 RUN .                     800:  Run Number 
 ROPA.m/hr               12.00:  ROP Avg 
 ROPN.m/hr                5.00:  ROP Min 
 ROPX.m/hr               28.00:  ROP Max 
 RPMA.rpm               120.00:  RPM Surface Avg 
 RPMN.rpm                40.00:  RPM Surface Min 
 RPMX.rpm               130.00:  RPM Surface Max 
 RRUN.                    0800:  Rig Run Number 
 RTIM.hr                 45.00:  Time Reaming 
 SAZI.deg               145.38:  Azm, Start 
 SDEP.m                3219.01:  Start Depth 
 SIDD.                      No:  Serv Intrp, DD 
 SINC.deg                75.11:  Inc, Start 
 SPPA.psig             2400.00:  SPP Avg 
 SPPN.psig             2320.00:  SPP Min 
 SPPX.psig             3200.00:  SPP Max 
 STIM.      15.15.00 17-Feb-20:  Start Time 
 SVCS.                 DD, MWD:  Services 
 SVER.                    9.20:  Sperry Version 
 TDAT.m                 254.00:  Tot Depth Attmp 
 TDDF.                      No:  Trip for DD 
 TDLG.m                 254.00:  Tot Depth Loggd 
 TFF .                      No:  Trip for Fail 
 TQAA.f-kp               13.00:  Torque Abs Avg 
 TQAN.f-kp                7.00:  Torque Abs Min 
 TQAX.f-kp               15.00:  Torque Abs Max 
 TRRT.∞/30m               0.21:  Turn Rotating 
 MRT .                  EWR-M5:  Maximum Recorded Temperature 
 TTMX.degC               64.00:  Max Tool Temp 
 VS01.                90586516:  Virtual Str1 SN 
 VS02.                90513691:  Virtual Str2 SN 
 VS03.                90586523:  Virtual Str3 SN 
 VS04.                90586520:  Virtual Str4 SN 
 VS05.                90590507:  Virtual Str5 SN 
 WBMN.klb                12.00:  WOB Min 
 WITN.           Rufat Babayev:  Customer Rep 2 
 WITN.         Alistair Sprott:  Customer Rep 
 WOBA.klb                18.00:  WOB Avg 
 WOBX.klb                30.00:  WOB Max 
 YP  .lhf2               41.00:  Yield Point 
~Curve Information Block
#MNEM.UNIT                 API CODE     Curve Description
#---------               -----------    ---------------------------
 TIME.HHMMSS            00 000 000 000:  GT Time & Date
 GTDEPTH.m              00 000 000 000:  GT Depth
 GTPQH.psia             00 000 000 000:  GT HR Quartz Pressure
 GTTQ.degC              00 000 000 000:  GT Quartz Temperature
 GTTN.NONE              00 000 000 000:  GT Test Number
 GTET.sec               00 000 000 000:  GT Elapsed Test Time
 GTTVD.m                00 000 000 000:  GT True Vertical Depth
#Other Information
#
#WARRANTY: Halliburton will use its best efforts to furnish customers with 
#accurate information and interpretations that are part of, and incident to, the services 
#provided.  However, Halliburton cannot and does not warrant the accuracy 
#or correctness of such information and interpretations.  Under no circumstances should any 
#such information or interpretation be relied upon as the sole basis for any drilling, 
#completion, production, or financial decision or any procedure involving any risk to the 
#safety of any drilling venture, drilling rig or its crew or any other third party.  The 
#Customer has full responsibility for all drilling, completion and production operation.  
#Halliburton makes no representations or warranties, either expressed or 
#implied, including, but not limited to, the implied warranties of merchantability or fitness 
#for a particular purpose, with respect to the services rendered.  In no event will 
#Halliburton be liable for failure to obtain any particular results or for 
#any damages, including, but not limited to, indirect, special or consequential damages, 
#resulting from the use of any information or interpretation provided by Halliburton.
#
~A           TIME           GTDEPTH  GTPQH  GTTQ  GTTN  GTET   GTTVD  
# ...
   00:25:27.670.24-Feb-2020 3430.51 4219.95 56.39 2.00 115.01 2723.35
   00:25:27.870.24-Feb-2020 3430.51 4219.95 56.39 2.00 115.21 2723.35
   00:25:28.070.24-Feb-2020 3430.51 4220.09 56.39 2.00 115.41 2723.35
   00:25:28.270.24-Feb-2020 3430.51 4219.59 56.39 2.00 115.61 2723.35
   00:25:28.470.24-Feb-2020 3430.51 4219.76 56.39 2.00 115.81 2723.35
   00:25:28.670.24-Feb-2020 3430.51 4220.44 56.39 2.00 116.01 2723.35
   00:25:28.870.24-Feb-2020 3430.51 4220.44 56.39 2.00 116.21 2723.35
   00:25:29.070.24-Feb-2020 3430.51 4220.45 56.39 2.00 116.41 2723.35
   00:25:29.270.24-Feb-2020 3430.51 4219.98 56.39 2.00 116.61 2723.35
   00:25:29.470.24-Feb-2020 3430.51 4219.53 56.39 2.00 116.81 2723.35
   00:25:29.670.24-Feb-2020 3430.51 4219.67 56.39 2.00 117.01 2723.35
   00:25:29.870.24-Feb-2020 3430.51 4219.67 56.39 2.00 117.21 2723.35
   00:25:30.070.24-Feb-2020 3430.51 4219.93 56.39 2.00 117.41 2723.35
   00:25:30.270.24-Feb-2020 3430.51 4219.33 56.39 2.00 117.61 2723.35
   00:25:30.470.24-Feb-2020 3430.51 4220.06 56.39 2.00 117.81 2723.35
   00:25:30.670.24-Feb-2020 3430.51 4219.38 56.39 2.00 118.01 2723.35
   00:25:30.870.24-Feb-2020 3430.51 4219.38 56.39 2.00 118.21 2723.35
   00:25:31.070.24-Feb-2020 3430.51 4219.68 56.39 2.00 118.41 2723.35
   00:25:31.270.24-Feb-2020 3430.51 4219.00 56.39 2.00 118.61 2723.35
   00:25:31.470.24-Feb-2020 3430.51 4220.54 56.39 2.00 118.81 2723.35
   00:25:31.670.24-Feb-2020 3430.51 4219.36 56.39 2.00 119.01 2723.35
   00:25:31.870.24-Feb-2020 3430.51 4220.15 56.39 2.00 119.21 2723.35
   00:25:32.070.24-Feb-2020 3430.51 4219.56 56.39 2.00 119.41 2723.35
   00:25:32.270.24-Feb-2020 3430.51 4219.83 56.39 2.00 119.61 2723.35
   00:25:32.470.24-Feb-2020 3430.51 4219.65 56.39 2.00 119.81 2723.35
   00:25:32.670.24-Feb-2020 3430.51 4219.59 56.39 2.00 120.01 2723.35
   00:25:32.871.24-Feb-2020 3430.51 4219.59 56.39 2.00 120.21 2723.35
   00:25:33.071.24-Feb-2020 3430.51 4219.72 56.39 2.00 120.41 2723.35
   00:25:33.271.24-Feb-2020 3430.51 4219.69 56.39 2.00 120.61 2723.35
   00:25:33.471.24-Feb-2020 3430.51 4219.83 56.39 2.00 120.81 2723.35
   00:25:33.671.24-Feb-2020 3430.51 4219.77 56.39 2.00 121.01 2723.35
   00:25:33.871.24-Feb-2020 3430.51 4219.65 56.39 2.00 121.21 2723.35
   00:25:34.071.24-Feb-2020 3430.51 4219.39 56.39 2.00 121.41 2723.35
   00:25:34.271.24-Feb-2020 3430.51 4219.36 56.39 2.00 121.61 2723.35
   00:25:34.471.24-Feb-2020 3430.51 4220.36 56.39 2.00 121.81 2723.35
   00:25:34.671.24-Feb-2020 3430.51 4218.68 56.39 2.00 122.01 2723.35
   00:25:34.871.24-Feb-2020 3430.51 4220.11 56.39 2.00 122.21 2723.35
   00:25:35.071.24-Feb-2020 3430.51 4219.84 56.39 2.00 122.41 2723.35
   00:25:35.271.24-Feb-2020 3430.51 4219.48 56.39 2.00 122.61 2723.35
   00:25:35.471.24-Feb-2020 3430.51 4219.74 56.39 2.00 122.81 2723.35
   00:25:35.671.24-Feb-2020 3430.51 4219.54 56.39 2.00 123.01 2723.35
   00:25:35.871.24-Feb-2020 3430.51 4219.54 56.39 2.00 123.21 2723.35
   00:25:36.071.24-Feb-2020 3430.51 4219.93 56.39 2.00 123.41 2723.35
   00:25:36.271.24-Feb-2020 3430.51 4219.80 56.39 2.00 123.61 2723.35
   00:25:36.471.24-Feb-2020 3430.51 4219.44 56.39 2.00 123.81 2723.35
   00:25:36.671.24-Feb-2020 3430.51 4219.37 56.39 2.00 124.01 2723.35
   00:25:36.871.24-Feb-2020 3430.51 4219.48 56.39 2.00 124.21 2723.35
   00:25:37.071.24-Feb-2020 3430.51 4219.57 56.39 2.00 124.41 2723.35
   00:25:37.271.24-Feb-2020 3430.51 4219.79 56.39 2.00 124.61 2723.35
   00:25:37.471.24-Feb-2020 3430.51 4219.75 56.39 2.00 124.81 2723.35
   00:25:37.671.24-Feb-2020 3430.51 4219.09 56.39 2.00 125.01 2723.35
   00:25:37.871.24-Feb-2020 3430.51 4219.09 56.39 2.00 125.21 2723.35
   00:25:38.071.24-Feb-2020 3430.51 4219.19 56.39 2.00 125.41 2723.35
   00:25:38.271.24-Feb-2020 3430.51 4220.10 56.39 2.00 125.61 2723.35
   00:25:38.471.24-Feb-2020 3430.51 4219.32 56.39 2.00 125.81 2723.35
   00:25:38.671.24-Feb-2020 3430.51 4219.65 56.39 2.00 126.01 2723.35
   00:25:38.871.24-Feb-2020 3430.51 4219.65 56.39 2.00 126.21 2723.35
   00:25:39.071.24-Feb-2020 3430.51 4219.40 56.39 2.00 126.41 2723.35
   00:25:39.271.24-Feb-2020 3430.51 4220.09 56.39 2.00 126.61 2723.35
   00:25:39.471.24-Feb-2020 3430.51 4219.66 56.39 2.00 126.81 2723.35
   00:25:39.671.24-Feb-2020 3430.51 4219.78 56.39 2.00 127.01 2723.35
   00:25:39.871.24-Feb-2020 3430.51 4219.81 56.39 2.00 127.21 2723.35
   00:25:40.071.24-Feb-2020 3430.51 4218.89 56.39 2.00 127.41 2723.35
   00:25:40.271.24-Feb-2020 3430.51 4220.69 56.39 2.00 127.61 2723.35
   00:25:40.471.24-Feb-2020 3430.51 4219.42 56.39 2.00 127.81 2723.35
   00:25:40.671.24-Feb-2020 3430.51 4220.01 56.39 2.00 128.01 2723.35
   00:25:40.871.24-Feb-2020 3430.51 4220.01 56.39 2.00 128.21 2723.35
   00:25:41.071.24-Feb-2020 3430.51 4219.58 56.39 2.00 128.41 2723.35
   00:25:41.271.24-Feb-2020 3430.51 4219.74 56.39 2.00 128.61 2723.35
   00:25:41.472.24-Feb-2020 3430.51 4219.06 56.39 2.00 128.81 2723.35
   00:25:41.672.24-Feb-2020 3430.51 4219.71 56.39 2.00 129.01 2723.35
   00:25:41.872.24-Feb-2020 3430.51 4220.02 56.39 2.00 129.21 2723.35
   00:25:42.072.24-Feb-2020 3430.51 4220.34 56.39 2.00 129.41 2723.35
   00:25:42.272.24-Feb-2020 3430.51 4219.59 56.39 2.00 129.61 2723.35
   00:25:42.472.24-Feb-2020 3430.51 4219.81 56.39 2.00 129.81 2723.35
   00:25:42.672.24-Feb-2020 3430.51 4219.77 56.39 2.00 130.01 2723.35
   00:25:42.872.24-Feb-2020 3430.51 4219.77 56.39 2.00 130.21 2723.35
   00:25:43.072.24-Feb-2020 3430.51 4219.53 56.39 2.00 130.42 2723.35
   00:25:43.272.24-Feb-2020 3430.51 4219.62 56.39 2.00 130.62 2723.35
   00:25:43.472.24-Feb-2020 3430.51 4219.71 56.39 2.00 130.82 2723.35
   00:25:43.672.24-Feb-2020 3430.51 4219.75 56.39 2.00 131.02 2723.35
   00:25:43.872.24-Feb-2020 3430.51 4219.75 56.39 2.00 131.22 2723.35
   00:25:44.072.24-Feb-2020 3430.51 4219.65 56.39 2.00 131.42 2723.35
   00:25:44.272.24-Feb-2020 3430.51 4219.26 56.39 2.00 131.62 2723.35
   00:25:44.472.24-Feb-2020 3430.51 4219.33 56.39 2.00 131.82 2723.35
   00:25:44.672.24-Feb-2020 3430.51 4220.20 56.39 2.00 132.02 2723.35
   00:25:44.872.24-Feb-2020 3430.51 4220.20 56.39 2.00 132.22 2723.35
   00:25:45.072.24-Feb-2020 3430.51 4220.14 56.39 2.00 132.42 2723.35
   00:25:45.272.24-Feb-2020 3430.51 4219.64 56.39 2.00 132.62 2723.35
   00:25:45.472.24-Feb-2020 3430.51 4219.60 56.39 2.00 132.82 2723.35
   00:25:45.672.24-Feb-2020 3430.51 4219.84 56.39 2.00 133.02 2723.35
   00:25:45.872.24-Feb-2020 3430.51 4219.84 56.39 2.00 133.22 2723.35
   00:25:46.072.24-Feb-2020 3430.51 4219.77 56.39 2.00 133.42 2723.35
   00:25:46.272.24-Feb-2020 3430.51 4219.75 56.39 2.00 133.62 2723.35
   00:25:46.472.24-Feb-2020 3430.51 4219.61 56.39 2.00 133.82 2723.35
   00:25:46.672.24-Feb-2020 3430.51 4219.41 56.39 2.00 134.02 2723.35
   00:25:46.872.24-Feb-2020 3430.51 4219.41 56.39 2.00 134.22 2723.35
   00:25:47.072.24-Feb-2020 3430.51 4219.58 56.39 2.00 134.42 2723.35
   00:25:47.272.24-Feb-2020 3430.51 4219.57 56.39 2.00 134.62 2723.35
   00:25:47.472.24-Feb-2020 3430.51 4219.81 56.39 2.00 134.82 2723.35
   00:25:47.672.24-Feb-2020 3430.51 4219.76 56.39 2.00 135.02 2723.35
   00:25:47.872.24-Feb-2020 3430.51 4219.76 56.39 2.00 135.22 2723.35
   00:25:48.072.24-Feb-2020 3430.51 4219.52 56.39 2.00 135.42 2723.35
   00:25:48.272.24-Feb-2020 3430.51 4219.88 56.39 2.00 135.62 2723.35
   00:25:48.472.24-Feb-2020 3430.51 4220.25 56.39 2.00 135.82 2723.35
   00:25:48.672.24-Feb-2020 3430.51 4219.50 56.39 2.00 136.02 2723.35
   00:25:48.872.24-Feb-2020 3430.51 4219.50 56.39 2.00 136.22 2723.35
   00:25:49.072.24-Feb-2020 3430.51 4220.55 56.39 2.00 136.42 2723.35
   00:25:49.272.24-Feb-2020 3430.51 4219.40 56.39 2.00 136.62 2723.35
   00:25:49.472.24-Feb-2020 3430.51 4220.51 56.39 2.00 136.82 2723.35
   00:25:49.672.24-Feb-2020 3430.51 4219.65 56.39 2.00 137.02 2723.35
   00:25:49.872.24-Feb-2020 3430.51 4219.65 56.39 2.00 137.22 2723.35
   00:25:50.072.24-Feb-2020 3430.51 4219.65 56.39 2.00 137.42 2723.35
   00:25:50.273.24-Feb-2020 3430.51 4219.05 56.39 2.00 137.62 2723.35
   00:25:50.473.24-Feb-2020 3430.51 4219.67 56.39 2.00 137.82 2723.35
