~Version Information
 VERS.                  2.0:   CWLS log ASCII Standard -VERSION 2.0
 WRAP.                   NO:   One line per depth step
~Well Information Block
#MNEM.UNIT     VALUE/NAME     DESCRIPTION
#---------     -----------    ---------------------------
 STRT.S             23:48:42 23-Feb-20: START TIME 23:48:42 23-Feb-20
 STOP.S             23:55:42 23-Feb-20: STOP TIME  23:55:42 23-Feb-20
 STEP.S                   0.00: STEP TIME
 NULL.                 -999.25: NULL VALUE
 JOBN.        AZ-XX-0905059384:  JOB TICKET NUMB
 PDAT.          Mean Sea Level:  PERMANENT DATUM
 UNIT.                     N/A:  LOGGING EQUIPMENT ID
 DCON.         Sperry Drilling:  DIRECTNL CONTR
 DOE .                     N/A:  DOE NUMBER
 RIG .             West Chirag:  RIG NAME
 WELL.                     J22:  WELL NAME
 MWDS.                    Baku:  MWD SHOP
 SRVC.     TURAN Drilling & Engineering:  CONTRACTOR
 FLD .                     ACG:  FIELD NAME
 CTRY.              Azerbaijan:  COUNTRY NAME
 PROV.                    Baku:  PROVINCE
 STAT.                    Baku:  STATE NAME
 REGN.                   EESSA:  REGION
 BASE.              Azerbaijan:  LOGGING EQUIPMENT BASE LOCATION
 UWI .                     N/A:  UNIQUE WELL IDENTIFIER
 API .                     N/A:  API NUMBER
 COMP.     BP Exploration (Caspian Sea) Ltd.:  COMPANY
 WTYP.                Deviated:  WELL TYPE
 MDS .        Operator Entered:  MAG DATA SOURCE
 SON .        AZ-XX-0905059384:  JOB NUMBER
 FTOP.          Formation Tops:  FORM TOPS DESC
 ILTD.               Lithology:  INTERP LTH DESC
 SVYD.                  Survey:  SURVEY DESC
 DMOD.             Drill Model:  DRILL MOD DESC
 HPTY.       Minimum Curvature:  HOLE POS TYPE
 NREF.                    Grid:  NORTH REFERENCE
 SPUD.               09-Jan-20:  SPUD DATE
 DATE.      14.04.48 07-Feb-20:  END TIME
 STIM.      07.00.00 09-Jan-20:  START TIME
 DMF .             Drill Floor:  DRILL MEAS FROM
 DFST.                        :  DIST FSL TEXT
 DFWT.                        :  DIST FWL TEXT
 CNTY.                        :  COUNTY
 LOC .                        :  LOCATION
 LMF .             Drill Floor:  LOG MEASURED FROM
 DEP .m                   0.00:  DEPTH
 VSNS.m                  10.28:  VERT SEC N/S
 VSEW.m                  -6.24:  VERT SEC E/W
 AGAP.m                  43.00:  AIR GAP
 APD .m                  43.00:  DEPTH ABOVE PD
 WDMS.m                 169.80:  WD ELEV
 EGL .m                   0.00:  GROUND ELEVATION
 EPD .m                   0.00:  ELEVATION
 AZTC.deg                 6.27:  AZM TOTAL CORR
 GRDC.deg                 0.15:  GRID CORRECTION
 MDEC.deg                 6.42:  MAGNETIC DECL
 MDIP.deg                59.56:  MAGNETIC DIP
 MFLD.nT              50277.00:  MAGNETIC FIELD
 GVFD.g                   1.00:  GRAVITY FIELD
 VSDR.deg               148.53:  VERT SEC DIRECT
 TDD .m                3473.01:  TOTAL DEPTH (DRILLER)
 SDEP.m                 364.00:  START DEPTH
 DFSL.m                   0.00:  DISTANCE FSL
 DFWL.m                   0.00:  DISTANCE FWL
 UTMY.m             4443793.85:  UTM Y
 UTMX.m              519005.06:  UTM X
 WHEW.m                  -6.24:  WELL HEAD E/W
 WHNS.m                  10.28:  WELL HEAD N/S
 LONG.deg                51.22:  LONGITUDE
 LATI.deg                40.13:  LATITUDE
 TVDS.m                  43.00:  TVDSS CORRECTN
 EKB .m                   0.00:  KB ELEVATION
 EDF .m                  43.00:  DF ELEVATION
 TDL .m                 254.00:  TOTAL DEPTH (LOGGER)
 MAGU.                 1850021:  MAGUTM CHECKSUM
 VSC .                       0:  VS TO CLOSURE
~Parameter Information Block
#MNEM.UNIT       Value        Description
#---------     -----------    ---------------------------
 AV  .mps                 0.50:  Ann Velocity 
 AVMX.mps                 1.40:  Max Ann Veloc 
 AZIF.deg               144.94:  Azm, Final 
 BHAT.        Rotary Steerable:  BHA Type 
 BROT.°/30m               0.23:  Build Rotating 
 BS  .in                  8.50:  Bit Size 
 BTPL.psig              264.00:  Bit Press Loss 
 CABU.                     Yes:  Customer Abuse 
 COMM.                     ¼ýd:  Run Comments 1 
 TCS .hr                 87.30:  Time Ciculation Ended 
 CV  .mps                 2.45:  Crit Velocity 
 CVMX.mps                 2.74:  Max Crit Veloc 
 DD1 .             Aziz Aliyev:  Direct Drillr 1 
 DDSV.               Geo-Pilot:  DD Service 
 DEFF.%                 100.00:  % Det Eff 
 DLRX.°/30m               1.22:  Dogleg Rot Max 
 DLSO.°/30m               0.52:  Dogleg Oriented 
 DLSX.°/30m               1.22:  Dogleg Str Max 
 DRET.      12.59.00 23-Feb-20:  Drill End Time 
 DRST.      09.44.00 18-Feb-20:  Drill Start Tim 
 DTIM.hr                 23.03:  Time Drilling 
 EDEP.m                3473.01:  End Depth 
 ENG1.         Almaz Almadatov:  Engineer 1 
 ENG2.         Dair Mahammadov:  Engineer 2 
 ENG3.          Nazrin Asgarli:  Engineer 3 
 ETIM.      10.33.36 26-Feb-20:  End Time 
 FLOI.gpm               480.00:  Flow In 
 FLON.gpm               300.00:  Flow In Min 
 FLOS.cptm                1.00:  Fluid Loss 
 FLOX.gpm               550.00:  Flow In Max 
 HFLO.                      No:  High Flow 
 HPRE.                      No:  High Pressure 
 HTEM.                      No:  High Temp 
 HYDO.m                   1.80:  Hydro Offset 
 IFIN.deg                74.42:  Inc, Final 
 IMAX.deg                76.14:  Inc Max 
 IMIN.deg                74.42:  Inc Min 
 IMND.m                3462.72:  Inc Min Depth 
 IMXD.m                3235.69:  Inc Max Depth 
 JARR.                      No:  Jarring 
 LETM.      12.59.00 23-Feb-20:  Log End Time 
 LOST.hr                     0:  Lost Rig Time 
 LSTM.      09.44.00 18-Feb-20:  Log Start Time 
 MDCL.ppm             45000.00:  Mud Chlorides 
 MDES.     Inversion Oil/Synthetic:  Mud Desc 
 DFD .sg                  1.38:  Mud Density 
 MDMN.sg                  1.34:  Dens Mud Min 
 MDMX.sg                  1.49:  Dens Mud Max 
 MOIL.                      67:  Run Mud Oil % 
 MOWR.                   67:33:  Run Mud OWR 
 MSND.                    0.12:  Run Mud Sand % 
 MSOL.                      22:  Run Mud Solids% 
 DFV .spqt               81.00:  Mud Viscosity 
 MWOD.in                  6.75:  MWD Tool OD 
 MWSI.                      No:  Serv Intrp, MWD 
 OTIM.hr                231.44:  Time Operating 
 PCON.          Wear / Scratch:  Pad Condition 
 PMAX.psia             3400.00:  Press Op, Max 
 PV  .cP                 55.00:  Mud PV 
 RUN .                     800:  Run Number 
 ROPA.m/hr               12.00:  ROP Avg 
 ROPN.m/hr                5.00:  ROP Min 
 ROPX.m/hr               28.00:  ROP Max 
 RPMA.rpm               120.00:  RPM Surface Avg 
 RPMN.rpm                40.00:  RPM Surface Min 
 RPMX.rpm               130.00:  RPM Surface Max 
 RRUN.                    0800:  Rig Run Number 
 RTIM.hr                 45.00:  Time Reaming 
 SAZI.deg               145.38:  Azm, Start 
 SDEP.m                3219.01:  Start Depth 
 SIDD.                      No:  Serv Intrp, DD 
 SINC.deg                75.11:  Inc, Start 
 SPPA.psig             2400.00:  SPP Avg 
 SPPN.psig             2320.00:  SPP Min 
 SPPX.psig             3200.00:  SPP Max 
 STIM.      15.15.00 17-Feb-20:  Start Time 
 SVCS.                 DD, MWD:  Services 
 SVER.                    9.20:  Sperry Version 
 TDAT.m                 254.00:  Tot Depth Attmp 
 TDDF.                      No:  Trip for DD 
 TDLG.m                 254.00:  Tot Depth Loggd 
 TFF .                      No:  Trip for Fail 
 TQAA.f-kp               13.00:  Torque Abs Avg 
 TQAN.f-kp                7.00:  Torque Abs Min 
 TQAX.f-kp               15.00:  Torque Abs Max 
 TRRT.°/30m               0.21:  Turn Rotating 
 MRT .                  EWR-M5:  Maximum Recorded Temperature 
 TTMX.degC               64.00:  Max Tool Temp 
 VS01.                90586516:  Virtual Str1 SN 
 VS02.                90513691:  Virtual Str2 SN 
 VS03.                90586523:  Virtual Str3 SN 
 VS04.                90586520:  Virtual Str4 SN 
 VS05.                90590507:  Virtual Str5 SN 
 WBMN.klb                12.00:  WOB Min 
 WITN.           Rufat Babayev:  Customer Rep 2 
 WITN.         Alistair Sprott:  Customer Rep 
 WOBA.klb                18.00:  WOB Avg 
 WOBX.klb                30.00:  WOB Max 
 YP  .lhf2               41.00:  Yield Point 
~Curve Information Block
#MNEM.UNIT                 API CODE     Curve Description
#---------               -----------    ---------------------------
 TIME.HHMMSS            00 000 000 000:  GT Time & Date
 GTDEPTH.m              00 000 000 000:  GT Depth
 GTPQH.psia             00 000 000 000:  GT HR Quartz Pressure
 GTTQ.degC              00 000 000 000:  GT Quartz Temperature
 GTTN.NONE              00 000 000 000:  GT Test Number
 GTET.sec               00 000 000 000:  GT Elapsed Test Time
 GTTVD.m                00 000 000 000:  GT True Vertical Depth
#Other Information
#
#WARRANTY: Halliburton will use its best efforts to furnish customers with 
#accurate information and interpretations that are part of, and incident to, the services 
#provided.  However, Halliburton cannot and does not warrant the accuracy 
#or correctness of such information and interpretations.  Under no circumstances should any 
#such information or interpretation be relied upon as the sole basis for any drilling, 
#completion, production, or financial decision or any procedure involving any risk to the 
#safety of any drilling venture, drilling rig or its crew or any other third party.  The 
#Customer has full responsibility for all drilling, completion and production operation.  
#Halliburton makes no representations or warranties, either expressed or 
#implied, including, but not limited to, the implied warranties of merchantability or fitness 
#for a particular purpose, with respect to the services rendered.  In no event will 
#Halliburton be liable for failure to obtain any particular results or for 
#any damages, including, but not limited to, indirect, special or consequential damages, 
#resulting from the use of any information or interpretation provided by Halliburton.
#
~A           TIME           GTDEPTH  GTPQH  GTTQ  GTTN  GTET   GTTVD  
# ...
   23:54:50.459.23-Feb-2020 3441.51 5708.04 56.60 1.00 368.04 2726.26
   23:54:50.659.23-Feb-2020 3441.51 5708.04 56.60 1.00 368.24 2726.26
   23:54:50.859.23-Feb-2020 3441.51 5706.71 56.60 1.00 368.44 2726.26
   23:54:51.059.23-Feb-2020 3441.51 5706.36 56.60 1.00 368.64 2726.26
   23:54:51.259.23-Feb-2020 3441.51 5708.21 56.61 1.00 368.84 2726.26
   23:54:51.459.23-Feb-2020 3441.51 5715.01 56.61 1.00 369.04 2726.26
   23:54:51.659.23-Feb-2020 3441.51 5715.01 56.61 1.00 369.24 2726.26
   23:54:51.859.23-Feb-2020 3441.51 5704.36 56.61 1.00 369.44 2726.26
   23:54:52.059.23-Feb-2020 3441.51 5714.70 56.61 1.00 369.64 2726.26
   23:54:52.259.23-Feb-2020 3441.51 5703.74 56.61 1.00 369.84 2726.26
   23:54:52.459.23-Feb-2020 3441.51 5719.37 56.61 1.00 370.04 2726.26
   23:54:52.659.23-Feb-2020 3441.51 5693.78 56.61 1.00 370.24 2726.26
   23:54:52.859.23-Feb-2020 3441.51 5716.87 56.61 1.00 370.44 2726.26
   23:54:53.059.23-Feb-2020 3441.51 5705.41 56.61 1.00 370.64 2726.26
   23:54:53.259.23-Feb-2020 3441.51 5708.33 56.61 1.00 370.84 2726.26
   23:54:53.459.23-Feb-2020 3441.51 5709.27 56.61 1.00 371.04 2726.26
   23:54:53.659.23-Feb-2020 3441.51 5709.27 56.61 1.00 371.24 2726.26
   23:54:53.859.23-Feb-2020 3441.51 5716.77 56.61 1.00 371.44 2726.26
   23:54:54.059.23-Feb-2020 3441.51 5696.85 56.61 1.00 371.64 2726.26
   23:54:54.259.23-Feb-2020 3441.51 5717.74 56.61 1.00 371.84 2726.26
   23:54:54.459.23-Feb-2020 3441.51 5712.21 56.61 1.00 372.04 2726.26
   23:54:54.659.23-Feb-2020 3441.51 5712.21 56.61 1.00 372.24 2726.26
   23:54:54.859.23-Feb-2020 3441.51 5703.78 56.62 1.00 372.44 2726.26
   23:54:55.059.23-Feb-2020 3441.51 5715.46 56.62 1.00 372.64 2726.26
   23:54:55.259.23-Feb-2020 3441.51 5705.31 56.62 1.00 372.84 2726.26
   23:54:55.459.23-Feb-2020 3441.51 5710.13 56.62 1.00 373.04 2726.26
   23:54:55.659.23-Feb-2020 3441.51 5707.45 56.62 1.00 373.24 2726.26
   23:54:55.859.23-Feb-2020 3441.51 5708.57 56.62 1.00 373.44 2726.26
   23:54:56.059.23-Feb-2020 3441.51 5707.43 56.62 1.00 373.64 2726.26
   23:54:56.259.23-Feb-2020 3441.51 5707.17 56.62 1.00 373.84 2726.26
   23:54:56.459.23-Feb-2020 3441.51 5708.03 56.62 1.00 374.04 2726.26
   23:54:56.659.23-Feb-2020 3441.51 5707.51 56.62 1.00 374.24 2726.26
   23:54:56.859.23-Feb-2020 3441.51 5707.17 56.62 1.00 374.44 2726.26
   23:54:57.059.23-Feb-2020 3441.51 5707.87 56.62 1.00 374.64 2726.26
   23:54:57.259.23-Feb-2020 3441.51 5707.93 56.62 1.00 374.84 2726.26
   23:54:57.459.23-Feb-2020 3441.51 5708.10 56.62 1.00 375.04 2726.26
   23:54:57.659.23-Feb-2020 3441.51 5708.10 56.62 1.00 375.24 2726.26
   23:54:57.859.23-Feb-2020 3441.51 5696.98 56.62 1.00 375.44 2726.26
   23:54:58.059.23-Feb-2020 3441.51 5709.63 56.62 1.00 375.64 2726.26
   23:54:58.259.23-Feb-2020 3441.51 5711.25 56.62 1.00 375.84 2726.26
   23:54:58.459.23-Feb-2020 3441.51 5707.85 56.62 1.00 376.04 2726.26
   23:54:58.659.23-Feb-2020 3441.51 5707.85 56.62 1.00 376.24 2726.26
   23:54:58.859.23-Feb-2020 3441.51 5707.60 56.62 1.00 376.44 2726.26
   23:54:59.060.23-Feb-2020 3441.51 5706.85 56.62 1.00 376.64 2726.26
   23:54:59.260.23-Feb-2020 3441.51 5707.38 56.62 1.00 376.84 2726.26
   23:54:59.460.23-Feb-2020 3441.51 5706.34 56.62 1.00 377.04 2726.26
   23:54:59.660.23-Feb-2020 3441.51 5707.81 56.62 1.00 377.24 2726.26
   23:54:59.860.23-Feb-2020 3441.51 5708.16 56.62 1.00 377.44 2726.26
   23:55:00.060.23-Feb-2020 3441.51 5707.39 56.62 1.00 377.64 2726.26
   23:55:00.260.23-Feb-2020 3441.51 5706.57 56.62 1.00 377.84 2726.26
   23:55:00.460.23-Feb-2020 3441.51 5706.75 56.62 1.00 378.04 2726.26
   23:55:00.660.23-Feb-2020 3441.51 5708.88 56.62 1.00 378.24 2726.26
   23:55:00.860.23-Feb-2020 3441.51 5708.59 56.62 1.00 378.44 2726.26
   23:55:01.060.23-Feb-2020 3441.51 5716.93 56.62 1.00 378.64 2726.26
   23:55:01.260.23-Feb-2020 3441.51 5695.80 56.62 1.00 378.84 2726.26
   23:55:01.460.23-Feb-2020 3441.51 5712.11 56.62 1.00 379.04 2726.26
   23:55:01.660.23-Feb-2020 3441.51 5712.11 56.62 1.00 379.24 2726.26
   23:55:01.860.23-Feb-2020 3441.51 5716.84 56.62 1.00 379.44 2726.26
   23:55:02.060.23-Feb-2020 3441.51 5698.44 56.62 1.00 379.64 2726.26
   23:55:02.260.23-Feb-2020 3441.51 5710.42 56.62 1.00 379.84 2726.26
   23:55:02.460.23-Feb-2020 3441.51 5709.78 56.62 1.00 380.04 2726.26
   23:55:02.660.23-Feb-2020 3441.51 5709.78 56.62 1.00 380.24 2726.26
   23:55:02.860.23-Feb-2020 3441.51 5710.08 56.62 1.00 380.44 2726.26
   23:55:03.060.23-Feb-2020 3441.51 5716.22 56.62 1.00 380.64 2726.26
   23:55:03.260.23-Feb-2020 3441.51 5696.04 56.62 1.00 380.84 2726.26
   23:55:03.460.23-Feb-2020 3441.51 5717.01 56.62 1.00 381.04 2726.26
   23:55:03.660.23-Feb-2020 3441.51 5717.01 56.62 1.00 381.24 2726.26
   23:55:03.860.23-Feb-2020 3441.51 5705.15 56.62 1.00 381.44 2726.26
   23:55:04.060.23-Feb-2020 3441.51 5707.33 56.62 1.00 381.64 2726.26
   23:55:04.260.23-Feb-2020 3441.51 5711.98 56.62 1.00 381.84 2726.26
   23:55:04.460.23-Feb-2020 3441.51 5705.95 56.62 1.00 382.04 2726.26
   23:55:04.660.23-Feb-2020 3441.51 5705.95 56.62 1.00 382.24 2726.26
   23:55:04.860.23-Feb-2020 3441.51 5707.03 56.62 1.00 382.44 2726.26
   23:55:05.060.23-Feb-2020 3441.51 5708.14 56.62 1.00 382.64 2726.26
   23:55:05.260.23-Feb-2020 3441.51 5708.08 56.62 1.00 382.84 2726.26
   23:55:05.460.23-Feb-2020 3441.51 5707.13 56.62 1.00 383.04 2726.26
   23:55:05.660.23-Feb-2020 3441.51 5707.13 56.62 1.00 383.24 2726.26
   23:55:05.860.23-Feb-2020 3441.51 5707.66 56.62 1.00 383.44 2726.26
   23:55:06.060.23-Feb-2020 3441.51 5707.25 56.62 1.00 383.64 2726.26
   23:55:06.260.23-Feb-2020 3441.51 5707.09 56.62 1.00 383.84 2726.26
   23:55:06.460.23-Feb-2020 3441.51 5707.64 56.62 1.00 384.04 2726.26
   23:55:06.660.23-Feb-2020 3441.51 5707.64 56.62 1.00 384.24 2726.26
   23:55:06.860.23-Feb-2020 3441.51 5717.66 56.62 1.00 384.44 2726.26
   23:55:07.060.23-Feb-2020 3441.51 5697.80 56.62 1.00 384.64 2726.26
   23:55:07.260.23-Feb-2020 3441.51 5712.12 56.62 1.00 384.84 2726.26
   23:55:07.460.23-Feb-2020 3441.51 5709.60 56.62 1.00 385.04 2726.26
   23:55:07.660.23-Feb-2020 3441.51 5709.60 56.62 1.00 385.24 2726.26
   23:55:07.861.23-Feb-2020 3441.51 5711.91 56.62 1.00 385.44 2726.26
   23:55:08.061.23-Feb-2020 3441.51 5706.39 56.62 1.00 385.64 2726.26
   23:55:08.261.23-Feb-2020 3441.51 5708.87 56.62 1.00 385.84 2726.26
   23:55:08.461.23-Feb-2020 3441.51 5706.17 56.62 1.00 386.04 2726.26
   23:55:08.661.23-Feb-2020 3441.51 5706.17 56.62 1.00 386.24 2726.26
   23:55:08.861.23-Feb-2020 3441.51 5707.19 56.62 1.00 386.44 2726.26
   23:55:09.061.23-Feb-2020 3441.51 5708.36 56.62 1.00 386.64 2726.26
   23:55:09.261.23-Feb-2020 3441.51 5707.43 56.62 1.00 386.84 2726.26
   23:55:09.461.23-Feb-2020 3441.51 5707.02 56.62 1.00 387.04 2726.26
   23:55:09.661.23-Feb-2020 3441.51 5707.02 56.62 1.00 387.24 2726.26
   23:55:09.861.23-Feb-2020 3441.51 5708.17 56.62 1.00 387.44 2726.26
   23:55:10.061.23-Feb-2020 3441.51 5707.23 56.62 1.00 387.64 2726.26
   23:55:10.261.23-Feb-2020 3441.51 5716.55 56.62 1.00 387.84 2726.26
   23:55:10.461.23-Feb-2020 3441.51 5696.00 56.62 1.00 388.04 2726.26
   23:55:10.661.23-Feb-2020 3441.51 5711.24 56.62 1.00 388.24 2726.26
   23:55:10.861.23-Feb-2020 3441.51 5708.74 56.62 1.00 388.44 2726.26
   23:55:11.061.23-Feb-2020 3441.51 5713.09 56.62 1.00 388.64 2726.26
   23:55:11.261.23-Feb-2020 3441.51 5704.11 56.62 1.00 388.84 2726.26
   23:55:11.461.23-Feb-2020 3441.51 5703.95 56.62 1.00 389.04 2726.26
   23:55:11.661.23-Feb-2020 3441.51 5703.95 56.62 1.00 389.24 2726.26
   23:55:11.861.23-Feb-2020 3441.51 5703.80 56.62 1.00 389.44 2726.26
   23:55:12.061.23-Feb-2020 3441.51 5710.44 56.62 1.00 389.64 2726.26
   23:55:12.261.23-Feb-2020 3441.51 5717.76 56.62 1.00 389.84 2726.26
   23:55:12.461.23-Feb-2020 3441.51 5696.46 56.62 1.00 390.04 2726.26
   23:55:12.661.23-Feb-2020 3441.51 5696.46 56.61 1.00 390.24 2726.26
   23:55:12.861.23-Feb-2020 3441.51 5710.79 56.61 1.00 390.44 2726.26
   23:55:13.061.23-Feb-2020 3441.51 5706.43 56.61 1.00 390.64 2726.26
   23:55:13.261.23-Feb-2020 3441.51 5719.04 56.61 1.00 390.84 2726.26
