~Version Information
 VERS.                  2.0:   CWLS log ASCII Standard -VERSION 2.0
 WRAP.                   NO:   One line per depth step
~Well Information Block
#MNEM.UNIT     VALUE/NAME     DESCRIPTION
#---------     -----------    ---------------------------
 STRT.S             01:46:16 24-Feb-20: START TIME 01:46:16 24-Feb-20
 STOP.S             01:53:27 24-Feb-20: STOP TIME  01:53:27 24-Feb-20
 STEP.S                   0.00: STEP TIME
 NULL.                 -999.25: NULL VALUE
 JOBN.        AZ-XX-0905059384:  JOB TICKET NUMB
 PDAT.          Mean Sea Level:  PERMANENT DATUM
 UNIT.                     N/A:  LOGGING EQUIPMENT ID
 DCON.         Sperry Drilling:  DIRECTNL CONTR
 DOE .                     N/A:  DOE NUMBER
 RIG .             West Chirag:  RIG NAME
 WELL.                     J22:  WELL NAME
 MWDS.                    Baku:  MWD SHOP
 SRVC.     TURAN Drilling & Engineering:  CONTRACTOR
 FLD .                     ACG:  FIELD NAME
 CTRY.              Azerbaijan:  COUNTRY NAME
 PROV.                    Baku:  PROVINCE
 STAT.                    Baku:  STATE NAME
 REGN.                   EESSA:  REGION
 BASE.              Azerbaijan:  LOGGING EQUIPMENT BASE LOCATION
 UWI .                     N/A:  UNIQUE WELL IDENTIFIER
 API .                     N/A:  API NUMBER
 COMP.     BP Exploration (Caspian Sea) Ltd.:  COMPANY
 WTYP.                Deviated:  WELL TYPE
 MDS .        Operator Entered:  MAG DATA SOURCE
 SON .        AZ-XX-0905059384:  JOB NUMBER
 FTOP.          Formation Tops:  FORM TOPS DESC
 ILTD.               Lithology:  INTERP LTH DESC
 SVYD.                  Survey:  SURVEY DESC
 DMOD.             Drill Model:  DRILL MOD DESC
 HPTY.       Minimum Curvature:  HOLE POS TYPE
 NREF.                    Grid:  NORTH REFERENCE
 SPUD.               09-Jan-20:  SPUD DATE
 DATE.      14.04.48 07-Feb-20:  END TIME
 STIM.      07.00.00 09-Jan-20:  START TIME
 DMF .             Drill Floor:  DRILL MEAS FROM
 DFST.                        :  DIST FSL TEXT
 DFWT.                        :  DIST FWL TEXT
 CNTY.                        :  COUNTY
 LOC .                        :  LOCATION
 LMF .             Drill Floor:  LOG MEASURED FROM
 DEP .m                   0.00:  DEPTH
 VSNS.m                  10.28:  VERT SEC N/S
 VSEW.m                  -6.24:  VERT SEC E/W
 AGAP.m                  43.00:  AIR GAP
 APD .m                  43.00:  DEPTH ABOVE PD
 WDMS.m                 169.80:  WD ELEV
 EGL .m                   0.00:  GROUND ELEVATION
 EPD .m                   0.00:  ELEVATION
 AZTC.deg                 6.27:  AZM TOTAL CORR
 GRDC.deg                 0.15:  GRID CORRECTION
 MDEC.deg                 6.42:  MAGNETIC DECL
 MDIP.deg                59.56:  MAGNETIC DIP
 MFLD.nT              50277.00:  MAGNETIC FIELD
 GVFD.g                   1.00:  GRAVITY FIELD
 VSDR.deg               148.53:  VERT SEC DIRECT
 TDD .m                3473.01:  TOTAL DEPTH (DRILLER)
 SDEP.m                 364.00:  START DEPTH
 DFSL.m                   0.00:  DISTANCE FSL
 DFWL.m                   0.00:  DISTANCE FWL
 UTMY.m             4443793.85:  UTM Y
 UTMX.m              519005.06:  UTM X
 WHEW.m                  -6.24:  WELL HEAD E/W
 WHNS.m                  10.28:  WELL HEAD N/S
 LONG.deg                51.22:  LONGITUDE
 LATI.deg                40.13:  LATITUDE
 TVDS.m                  43.00:  TVDSS CORRECTN
 EKB .m                   0.00:  KB ELEVATION
 EDF .m                  43.00:  DF ELEVATION
 TDL .m                 254.00:  TOTAL DEPTH (LOGGER)
 MAGU.                 1850021:  MAGUTM CHECKSUM
 VSC .                       0:  VS TO CLOSURE
~Parameter Information Block
#MNEM.UNIT       Value        Description
#---------     -----------    ---------------------------
 AV  .mps                 0.50:  Ann Velocity 
 AVMX.mps                 1.40:  Max Ann Veloc 
 AZIF.deg               144.94:  Azm, Final 
 BHAT.        Rotary Steerable:  BHA Type 
 BROT.°/30m               0.23:  Build Rotating 
 BS  .in                  8.50:  Bit Size 
 BTPL.psig              264.00:  Bit Press Loss 
 CABU.                     Yes:  Customer Abuse 
 COMM.                     $æx:  Run Comments 1 
 TCS .hr                 87.30:  Time Ciculation Ended 
 CV  .mps                 2.45:  Crit Velocity 
 CVMX.mps                 2.74:  Max Crit Veloc 
 DD1 .             Aziz Aliyev:  Direct Drillr 1 
 DDSV.               Geo-Pilot:  DD Service 
 DEFF.%                 100.00:  % Det Eff 
 DLRX.°/30m               1.22:  Dogleg Rot Max 
 DLSO.°/30m               0.52:  Dogleg Oriented 
 DLSX.°/30m               1.22:  Dogleg Str Max 
 DRET.      12.59.00 23-Feb-20:  Drill End Time 
 DRST.      09.44.00 18-Feb-20:  Drill Start Tim 
 DTIM.hr                 23.03:  Time Drilling 
 EDEP.m                3473.01:  End Depth 
 ENG1.         Almaz Almadatov:  Engineer 1 
 ENG2.         Dair Mahammadov:  Engineer 2 
 ENG3.          Nazrin Asgarli:  Engineer 3 
 ETIM.      10.33.36 26-Feb-20:  End Time 
 FLOI.gpm               480.00:  Flow In 
 FLON.gpm               300.00:  Flow In Min 
 FLOS.cptm                1.00:  Fluid Loss 
 FLOX.gpm               550.00:  Flow In Max 
 HFLO.                      No:  High Flow 
 HPRE.                      No:  High Pressure 
 HTEM.                      No:  High Temp 
 HYDO.m                   1.80:  Hydro Offset 
 IFIN.deg                74.42:  Inc, Final 
 IMAX.deg                76.14:  Inc Max 
 IMIN.deg                74.42:  Inc Min 
 IMND.m                3462.72:  Inc Min Depth 
 IMXD.m                3235.69:  Inc Max Depth 
 JARR.                      No:  Jarring 
 LETM.      12.59.00 23-Feb-20:  Log End Time 
 LOST.hr                     0:  Lost Rig Time 
 LSTM.      09.44.00 18-Feb-20:  Log Start Time 
 MDCL.ppm             45000.00:  Mud Chlorides 
 MDES.     Inversion Oil/Synthetic:  Mud Desc 
 DFD .sg                  1.38:  Mud Density 
 MDMN.sg                  1.34:  Dens Mud Min 
 MDMX.sg                  1.49:  Dens Mud Max 
 MOIL.                      67:  Run Mud Oil % 
 MOWR.                   67:33:  Run Mud OWR 
 MSND.                    0.12:  Run Mud Sand % 
 MSOL.                      22:  Run Mud Solids% 
 DFV .spqt               81.00:  Mud Viscosity 
 MWOD.in                  6.75:  MWD Tool OD 
 MWSI.                      No:  Serv Intrp, MWD 
 OTIM.hr                231.44:  Time Operating 
 PCON.          Wear / Scratch:  Pad Condition 
 PMAX.psia             3400.00:  Press Op, Max 
 PV  .cP                 55.00:  Mud PV 
 RUN .                     800:  Run Number 
 ROPA.m/hr               12.00:  ROP Avg 
 ROPN.m/hr                5.00:  ROP Min 
 ROPX.m/hr               28.00:  ROP Max 
 RPMA.rpm               120.00:  RPM Surface Avg 
 RPMN.rpm                40.00:  RPM Surface Min 
 RPMX.rpm               130.00:  RPM Surface Max 
 RRUN.                    0800:  Rig Run Number 
 RTIM.hr                 45.00:  Time Reaming 
 SAZI.deg               145.38:  Azm, Start 
 SDEP.m                3219.01:  Start Depth 
 SIDD.                      No:  Serv Intrp, DD 
 SINC.deg                75.11:  Inc, Start 
 SPPA.psig             2400.00:  SPP Avg 
 SPPN.psig             2320.00:  SPP Min 
 SPPX.psig             3200.00:  SPP Max 
 STIM.      15.15.00 17-Feb-20:  Start Time 
 SVCS.                 DD, MWD:  Services 
 SVER.                    9.20:  Sperry Version 
 TDAT.m                 254.00:  Tot Depth Attmp 
 TDDF.                      No:  Trip for DD 
 TDLG.m                 254.00:  Tot Depth Loggd 
 TFF .                      No:  Trip for Fail 
 TQAA.f-kp               13.00:  Torque Abs Avg 
 TQAN.f-kp                7.00:  Torque Abs Min 
 TQAX.f-kp               15.00:  Torque Abs Max 
 TRRT.°/30m               0.21:  Turn Rotating 
 MRT .                  EWR-M5:  Maximum Recorded Temperature 
 TTMX.degC               64.00:  Max Tool Temp 
 VS01.                90586516:  Virtual Str1 SN 
 VS02.                90513691:  Virtual Str2 SN 
 VS03.                90586523:  Virtual Str3 SN 
 VS04.                90586520:  Virtual Str4 SN 
 VS05.                90590507:  Virtual Str5 SN 
 WBMN.klb                12.00:  WOB Min 
 WITN.           Rufat Babayev:  Customer Rep 2 
 WITN.         Alistair Sprott:  Customer Rep 
 WOBA.klb                18.00:  WOB Avg 
 WOBX.klb                30.00:  WOB Max 
 YP  .lhf2               41.00:  Yield Point 
~Curve Information Block
#MNEM.UNIT                 API CODE     Curve Description
#---------               -----------    ---------------------------
 TIME.HHMMSS            00 000 000 000:  GT Time & Date
 GTDEPTH.m              00 000 000 000:  GT Depth
 GTPQH.psia             00 000 000 000:  GT HR Quartz Pressure
 GTTQ.degC              00 000 000 000:  GT Quartz Temperature
 GTTN.NONE              00 000 000 000:  GT Test Number
 GTET.sec               00 000 000 000:  GT Elapsed Test Time
 GTTVD.m                00 000 000 000:  GT True Vertical Depth
#Other Information
#
#WARRANTY: Halliburton will use its best efforts to furnish customers with 
#accurate information and interpretations that are part of, and incident to, the services 
#provided.  However, Halliburton cannot and does not warrant the accuracy 
#or correctness of such information and interpretations.  Under no circumstances should any 
#such information or interpretation be relied upon as the sole basis for any drilling, 
#completion, production, or financial decision or any procedure involving any risk to the 
#safety of any drilling venture, drilling rig or its crew or any other third party.  The 
#Customer has full responsibility for all drilling, completion and production operation.  
#Halliburton makes no representations or warranties, either expressed or 
#implied, including, but not limited to, the implied warranties of merchantability or fitness 
#for a particular purpose, with respect to the services rendered.  In no event will 
#Halliburton be liable for failure to obtain any particular results or for 
#any damages, including, but not limited to, indirect, special or consequential damages, 
#resulting from the use of any information or interpretation provided by Halliburton.
#
~A           TIME           GTDEPTH  GTPQH  GTTQ  GTTN  GTET   GTTVD  
# ...
   01:53:10.500.24-Feb-2020 3392.01 5712.71 55.84 4.00 414.09 2713.39
   01:53:10.700.24-Feb-2020 3392.01 5713.38 55.84 4.00 414.29 2713.39
   01:53:10.900.24-Feb-2020 3392.01 5713.48 55.84 4.00 414.49 2713.39
   01:53:11.100.24-Feb-2020 3392.01 5712.06 55.84 4.00 414.69 2713.39
   01:53:11.300.24-Feb-2020 3392.01 5711.76 55.84 4.00 414.89 2713.39
   01:53:11.500.24-Feb-2020 3392.01 5712.97 55.84 4.00 415.09 2713.39
   01:53:11.700.24-Feb-2020 3392.01 5712.97 55.84 4.00 415.29 2713.39
   01:53:11.900.24-Feb-2020 3392.01 5713.62 55.84 4.00 415.49 2713.39
   01:53:12.100.24-Feb-2020 3392.01 5717.24 55.84 4.00 415.69 2713.39
   01:53:12.300.24-Feb-2020 3392.01 5708.89 55.84 4.00 415.89 2713.39
   01:53:12.500.24-Feb-2020 3392.01 5714.36 55.84 4.00 416.09 2713.39
   01:53:12.700.24-Feb-2020 3392.01 5714.36 55.84 4.00 416.29 2713.39
   01:53:12.900.24-Feb-2020 3392.01 5712.43 55.84 4.00 416.49 2713.39
   01:53:13.100.24-Feb-2020 3392.01 5715.64 55.84 4.00 416.69 2713.39
   01:53:13.300.24-Feb-2020 3392.01 5715.40 55.84 4.00 416.89 2713.39
   01:53:13.500.24-Feb-2020 3392.01 5711.84 55.84 4.00 417.09 2713.39
   01:53:13.700.24-Feb-2020 3392.01 5711.84 55.84 4.00 417.29 2713.39
   01:53:13.900.24-Feb-2020 3392.01 5712.84 55.84 4.00 417.49 2713.39
   01:53:14.100.24-Feb-2020 3392.01 5717.67 55.84 4.00 417.69 2713.39
   01:53:14.300.24-Feb-2020 3392.01 5709.69 55.84 4.00 417.89 2713.39
   01:53:14.500.24-Feb-2020 3392.01 5714.70 55.84 4.00 418.09 2713.39
   01:53:14.700.24-Feb-2020 3392.01 5715.41 55.84 4.00 418.29 2713.39
   01:53:14.901.24-Feb-2020 3392.01 5718.65 55.84 4.00 418.49 2713.39
   01:53:15.101.24-Feb-2020 3392.01 5710.78 55.84 4.00 418.69 2713.39
   01:53:15.301.24-Feb-2020 3392.01 5714.77 55.84 4.00 418.89 2713.39
   01:53:15.501.24-Feb-2020 3392.01 5714.90 55.84 4.00 419.09 2713.39
   01:53:15.701.24-Feb-2020 3392.01 5712.90 55.84 4.00 419.29 2713.39
   01:53:15.901.24-Feb-2020 3392.01 5713.49 55.84 4.00 419.49 2713.39
   01:53:16.101.24-Feb-2020 3392.01 5713.36 55.84 4.00 419.69 2713.39
   01:53:16.301.24-Feb-2020 3392.01 5712.82 55.84 4.00 419.89 2713.39
   01:53:16.501.24-Feb-2020 3392.01 5712.72 55.84 4.00 420.09 2713.39
   01:53:16.701.24-Feb-2020 3392.01 5712.72 55.84 4.00 420.29 2713.39
   01:53:16.901.24-Feb-2020 3392.01 5712.60 55.84 4.00 420.49 2713.39
   01:53:17.101.24-Feb-2020 3392.01 5712.83 55.84 4.00 420.69 2713.39
   01:53:17.301.24-Feb-2020 3392.01 5712.83 55.84 4.00 420.89 2713.39
   01:53:17.501.24-Feb-2020 3392.01 5712.59 55.84 4.00 421.09 2713.39
   01:53:17.701.24-Feb-2020 3392.01 5712.59 55.84 4.00 421.29 2713.39
   01:53:17.901.24-Feb-2020 3392.01 5712.75 55.84 4.00 421.49 2713.39
   01:53:18.101.24-Feb-2020 3392.01 5717.13 55.84 4.00 421.69 2713.39
   01:53:18.301.24-Feb-2020 3392.01 5710.85 55.84 4.00 421.89 2713.39
   01:53:18.501.24-Feb-2020 3392.01 5716.15 55.84 4.00 422.09 2713.39
   01:53:18.701.24-Feb-2020 3392.01 5716.15 55.84 4.00 422.29 2713.39
   01:53:18.901.24-Feb-2020 3392.01 5713.40 55.84 4.00 422.49 2713.39
   01:53:19.101.24-Feb-2020 3392.01 5714.48 55.84 4.00 422.69 2713.39
   01:53:19.301.24-Feb-2020 3392.01 5712.62 55.84 4.00 422.89 2713.39
   01:53:19.501.24-Feb-2020 3392.01 5712.19 55.84 4.00 423.09 2713.39
   01:53:19.702.24-Feb-2020 3392.01 5712.50 55.84 4.00 423.29 2713.39
   01:53:19.902.24-Feb-2020 3392.01 5712.03 55.84 4.00 423.49 2713.39
   01:53:20.102.24-Feb-2020 3392.01 5712.86 55.84 4.00 423.69 2713.39
   01:53:20.302.24-Feb-2020 3392.01 5713.35 55.84 4.00 423.89 2713.39
   01:53:20.502.24-Feb-2020 3392.01 5713.05 55.84 4.00 424.09 2713.39
   01:53:20.702.24-Feb-2020 3392.01 5711.63 55.84 4.00 424.29 2713.39
   01:53:20.902.24-Feb-2020 3392.01 5712.62 55.84 4.00 424.49 2713.39
   01:53:21.102.24-Feb-2020 3392.01 5713.40 55.84 4.00 424.69 2713.39
   01:53:21.302.24-Feb-2020 3392.01 5713.13 55.84 4.00 424.89 2713.39
   01:53:21.502.24-Feb-2020 3392.01 5716.04 55.84 4.00 425.09 2713.39
   01:53:21.702.24-Feb-2020 3392.01 5716.04 55.84 4.00 425.29 2713.39
   01:53:21.902.24-Feb-2020 3392.01 5715.30 55.84 4.00 425.49 2713.39
   01:53:22.102.24-Feb-2020 3392.01 5712.86 55.84 4.00 425.69 2713.39
   01:53:22.302.24-Feb-2020 3392.01 5715.78 55.84 4.00 425.89 2713.39
   01:53:22.502.24-Feb-2020 3392.01 5714.25 55.84 4.00 426.09 2713.39
   01:53:22.702.24-Feb-2020 3392.01 5712.70 55.84 4.00 426.29 2713.39
   01:53:22.902.24-Feb-2020 3392.01 5713.76 55.84 4.00 426.49 2713.39
   01:53:23.102.24-Feb-2020 3392.01 5713.40 55.84 4.00 426.69 2713.39
   01:53:23.302.24-Feb-2020 3392.01 5712.73 55.84 4.00 426.89 2713.39
   01:53:23.502.24-Feb-2020 3392.01 5717.85 55.84 4.00 427.09 2713.39
   01:53:23.702.24-Feb-2020 3392.01 5717.85 55.84 4.00 427.29 2713.39
   01:53:23.902.24-Feb-2020 3392.01 5714.83 55.84 4.00 427.49 2713.39
   01:53:24.102.24-Feb-2020 3392.01 5715.57 55.84 4.00 427.69 2713.39
   01:53:24.302.24-Feb-2020 3392.01 5713.49 55.84 4.00 427.89 2713.39
   01:53:24.503.24-Feb-2020 3392.01 5716.61 55.84 4.00 428.09 2713.39
   01:53:24.703.24-Feb-2020 3392.01 5715.80 55.84 4.00 428.29 2713.39
   01:53:24.903.24-Feb-2020 3392.01 5712.40 55.84 4.00 428.49 2713.39
   01:53:25.103.24-Feb-2020 3392.01 5713.86 55.84 4.00 428.69 2713.39
   01:53:25.303.24-Feb-2020 3392.01 5713.19 55.84 4.00 428.89 2713.39
   01:53:25.503.24-Feb-2020 3392.01 5712.98 55.83 4.00 429.09 2713.39
   01:53:25.703.24-Feb-2020 3392.01 5712.75 55.83 4.00 429.29 2713.39
   01:53:25.903.24-Feb-2020 3392.01 5712.44 55.83 4.00 429.49 2713.39
   01:53:26.103.24-Feb-2020 3392.01 5712.52 55.83 4.00 429.69 2713.39
   01:53:26.303.24-Feb-2020 3392.01 5712.31 55.83 4.00 429.89 2713.39
   01:53:26.503.24-Feb-2020 3392.01 5712.56 55.83 4.00 430.09 2713.39
   01:53:26.703.24-Feb-2020 3392.01 5712.63 55.83 4.00 430.29 2713.39
   01:53:26.903.24-Feb-2020 3392.01 5712.37 55.83 4.00 430.49 2713.39
   01:53:27.103.24-Feb-2020 3392.01 5712.35 55.83 4.00 430.69 2713.39
   01:53:27.303.24-Feb-2020 3392.01 5712.79 55.83 4.00 430.89 2713.39
