~Version Information
 VERS.                  2.0:   CWLS log ASCII Standard -VERSION 2.0
 WRAP.                   NO:   One line per depth step
~Well Information Block
#MNEM.UNIT     VALUE/NAME     DESCRIPTION
#---------     -----------    ---------------------------
 STRT.S             23:48:42 23-Feb-20: START TIME 23:48:42 23-Feb-20
 STOP.S             23:55:42 23-Feb-20: STOP TIME  23:55:42 23-Feb-20
 STEP.S                   0.00: STEP TIME
 NULL.                 -999.25: NULL VALUE
 JOBN.        AZ-XX-0905059384:  JOB TICKET NUMB
 PDAT.          Mean Sea Level:  PERMANENT DATUM
 UNIT.                     N/A:  LOGGING EQUIPMENT ID
 DCON.         Sperry Drilling:  DIRECTNL CONTR
 DOE .                     N/A:  DOE NUMBER
 RIG .             West Chirag:  RIG NAME
 WELL.                     J22:  WELL NAME
 MWDS.                    Baku:  MWD SHOP
 SRVC.     TURAN Drilling & Engineering:  CONTRACTOR
 FLD .                     ACG:  FIELD NAME
 CTRY.              Azerbaijan:  COUNTRY NAME
 PROV.                    Baku:  PROVINCE
 STAT.                    Baku:  STATE NAME
 REGN.                   EESSA:  REGION
 BASE.              Azerbaijan:  LOGGING EQUIPMENT BASE LOCATION
 UWI .                     N/A:  UNIQUE WELL IDENTIFIER
 API .                     N/A:  API NUMBER
 COMP.     BP Exploration (Caspian Sea) Ltd.:  COMPANY
 WTYP.                Deviated:  WELL TYPE
 MDS .        Operator Entered:  MAG DATA SOURCE
 SON .        AZ-XX-0905059384:  JOB NUMBER
 FTOP.          Formation Tops:  FORM TOPS DESC
 ILTD.               Lithology:  INTERP LTH DESC
 SVYD.                  Survey:  SURVEY DESC
 DMOD.             Drill Model:  DRILL MOD DESC
 HPTY.       Minimum Curvature:  HOLE POS TYPE
 NREF.                    Grid:  NORTH REFERENCE
 SPUD.               09-Jan-20:  SPUD DATE
 DATE.      14.04.48 07-Feb-20:  END TIME
 STIM.      07.00.00 09-Jan-20:  START TIME
 DMF .             Drill Floor:  DRILL MEAS FROM
 DFST.                        :  DIST FSL TEXT
 DFWT.                        :  DIST FWL TEXT
 CNTY.                        :  COUNTY
 LOC .                        :  LOCATION
 LMF .             Drill Floor:  LOG MEASURED FROM
 DEP .m                   0.00:  DEPTH
 VSNS.m                  10.28:  VERT SEC N/S
 VSEW.m                  -6.24:  VERT SEC E/W
 AGAP.m                  43.00:  AIR GAP
 APD .m                  43.00:  DEPTH ABOVE PD
 WDMS.m                 169.80:  WD ELEV
 EGL .m                   0.00:  GROUND ELEVATION
 EPD .m                   0.00:  ELEVATION
 AZTC.deg                 6.27:  AZM TOTAL CORR
 GRDC.deg                 0.15:  GRID CORRECTION
 MDEC.deg                 6.42:  MAGNETIC DECL
 MDIP.deg                59.56:  MAGNETIC DIP
 MFLD.nT              50277.00:  MAGNETIC FIELD
 GVFD.g                   1.00:  GRAVITY FIELD
 VSDR.deg               148.53:  VERT SEC DIRECT
 TDD .m                3473.01:  TOTAL DEPTH (DRILLER)
 SDEP.m                 364.00:  START DEPTH
 DFSL.m                   0.00:  DISTANCE FSL
 DFWL.m                   0.00:  DISTANCE FWL
 UTMY.m             4443793.85:  UTM Y
 UTMX.m              519005.06:  UTM X
 WHEW.m                  -6.24:  WELL HEAD E/W
 WHNS.m                  10.28:  WELL HEAD N/S
 LONG.deg                51.22:  LONGITUDE
 LATI.deg                40.13:  LATITUDE
 TVDS.m                  43.00:  TVDSS CORRECTN
 EKB .m                   0.00:  KB ELEVATION
 EDF .m                  43.00:  DF ELEVATION
 TDL .m                 254.00:  TOTAL DEPTH (LOGGER)
 MAGU.                 1850021:  MAGUTM CHECKSUM
 VSC .                       0:  VS TO CLOSURE
~Parameter Information Block
#MNEM.UNIT       Value        Description
#---------     -----------    ---------------------------
 AV  .mps                 0.50:  Ann Velocity 
 AVMX.mps                 1.40:  Max Ann Veloc 
 AZIF.deg               144.94:  Azm, Final 
 BHAT.        Rotary Steerable:  BHA Type 
 BROT.°/30m               0.23:  Build Rotating 
 BS  .in                  8.50:  Bit Size 
 BTPL.psig              264.00:  Bit Press Loss 
 CABU.                     Yes:  Customer Abuse 
 COMM.                     ¼ýd:  Run Comments 1 
 TCS .hr                 87.30:  Time Ciculation Ended 
 CV  .mps                 2.45:  Crit Velocity 
 CVMX.mps                 2.74:  Max Crit Veloc 
 DD1 .             Aziz Aliyev:  Direct Drillr 1 
 DDSV.               Geo-Pilot:  DD Service 
 DEFF.%                 100.00:  % Det Eff 
 DLRX.°/30m               1.22:  Dogleg Rot Max 
 DLSO.°/30m               0.52:  Dogleg Oriented 
 DLSX.°/30m               1.22:  Dogleg Str Max 
 DRET.      12.59.00 23-Feb-20:  Drill End Time 
 DRST.      09.44.00 18-Feb-20:  Drill Start Tim 
 DTIM.hr                 23.03:  Time Drilling 
 EDEP.m                3473.01:  End Depth 
 ENG1.         Almaz Almadatov:  Engineer 1 
 ENG2.         Dair Mahammadov:  Engineer 2 
 ENG3.          Nazrin Asgarli:  Engineer 3 
 ETIM.      10.33.36 26-Feb-20:  End Time 
 FLOI.gpm               480.00:  Flow In 
 FLON.gpm               300.00:  Flow In Min 
 FLOS.cptm                1.00:  Fluid Loss 
 FLOX.gpm               550.00:  Flow In Max 
 HFLO.                      No:  High Flow 
 HPRE.                      No:  High Pressure 
 HTEM.                      No:  High Temp 
 HYDO.m                   1.80:  Hydro Offset 
 IFIN.deg                74.42:  Inc, Final 
 IMAX.deg                76.14:  Inc Max 
 IMIN.deg                74.42:  Inc Min 
 IMND.m                3462.72:  Inc Min Depth 
 IMXD.m                3235.69:  Inc Max Depth 
 JARR.                      No:  Jarring 
 LETM.      12.59.00 23-Feb-20:  Log End Time 
 LOST.hr                     0:  Lost Rig Time 
 LSTM.      09.44.00 18-Feb-20:  Log Start Time 
 MDCL.ppm             45000.00:  Mud Chlorides 
 MDES.     Inversion Oil/Synthetic:  Mud Desc 
 DFD .sg                  1.38:  Mud Density 
 MDMN.sg                  1.34:  Dens Mud Min 
 MDMX.sg                  1.49:  Dens Mud Max 
 MOIL.                      67:  Run Mud Oil % 
 MOWR.                   67:33:  Run Mud OWR 
 MSND.                    0.12:  Run Mud Sand % 
 MSOL.                      22:  Run Mud Solids% 
 DFV .spqt               81.00:  Mud Viscosity 
 MWOD.in                  6.75:  MWD Tool OD 
 MWSI.                      No:  Serv Intrp, MWD 
 OTIM.hr                231.44:  Time Operating 
 PCON.          Wear / Scratch:  Pad Condition 
 PMAX.psia             3400.00:  Press Op, Max 
 PV  .cP                 55.00:  Mud PV 
 RUN .                     800:  Run Number 
 ROPA.m/hr               12.00:  ROP Avg 
 ROPN.m/hr                5.00:  ROP Min 
 ROPX.m/hr               28.00:  ROP Max 
 RPMA.rpm               120.00:  RPM Surface Avg 
 RPMN.rpm                40.00:  RPM Surface Min 
 RPMX.rpm               130.00:  RPM Surface Max 
 RRUN.                    0800:  Rig Run Number 
 RTIM.hr                 45.00:  Time Reaming 
 SAZI.deg               145.38:  Azm, Start 
 SDEP.m                3219.01:  Start Depth 
 SIDD.                      No:  Serv Intrp, DD 
 SINC.deg                75.11:  Inc, Start 
 SPPA.psig             2400.00:  SPP Avg 
 SPPN.psig             2320.00:  SPP Min 
 SPPX.psig             3200.00:  SPP Max 
 STIM.      15.15.00 17-Feb-20:  Start Time 
 SVCS.                 DD, MWD:  Services 
 SVER.                    9.20:  Sperry Version 
 TDAT.m                 254.00:  Tot Depth Attmp 
 TDDF.                      No:  Trip for DD 
 TDLG.m                 254.00:  Tot Depth Loggd 
 TFF .                      No:  Trip for Fail 
 TQAA.f-kp               13.00:  Torque Abs Avg 
 TQAN.f-kp                7.00:  Torque Abs Min 
 TQAX.f-kp               15.00:  Torque Abs Max 
 TRRT.°/30m               0.21:  Turn Rotating 
 MRT .                  EWR-M5:  Maximum Recorded Temperature 
 TTMX.degC               64.00:  Max Tool Temp 
 VS01.                90586516:  Virtual Str1 SN 
 VS02.                90513691:  Virtual Str2 SN 
 VS03.                90586523:  Virtual Str3 SN 
 VS04.                90586520:  Virtual Str4 SN 
 VS05.                90590507:  Virtual Str5 SN 
 WBMN.klb                12.00:  WOB Min 
 WITN.           Rufat Babayev:  Customer Rep 2 
 WITN.         Alistair Sprott:  Customer Rep 
 WOBA.klb                18.00:  WOB Avg 
 WOBX.klb                30.00:  WOB Max 
 YP  .lhf2               41.00:  Yield Point 
~Curve Information Block
#MNEM.UNIT                 API CODE     Curve Description
#---------               -----------    ---------------------------
 TIME.HHMMSS            00 000 000 000:  GT Time & Date
 GTDEPTH.m              00 000 000 000:  GT Depth
 GTPQH.psia             00 000 000 000:  GT HR Quartz Pressure
 GTTQ.degC              00 000 000 000:  GT Quartz Temperature
 GTTN.NONE              00 000 000 000:  GT Test Number
 GTET.sec               00 000 000 000:  GT Elapsed Test Time
 GTTVD.m                00 000 000 000:  GT True Vertical Depth
#Other Information
#
#WARRANTY: Halliburton will use its best efforts to furnish customers with 
#accurate information and interpretations that are part of, and incident to, the services 
#provided.  However, Halliburton cannot and does not warrant the accuracy 
#or correctness of such information and interpretations.  Under no circumstances should any 
#such information or interpretation be relied upon as the sole basis for any drilling, 
#completion, production, or financial decision or any procedure involving any risk to the 
#safety of any drilling venture, drilling rig or its crew or any other third party.  The 
#Customer has full responsibility for all drilling, completion and production operation.  
#Halliburton makes no representations or warranties, either expressed or 
#implied, including, but not limited to, the implied warranties of merchantability or fitness 
#for a particular purpose, with respect to the services rendered.  In no event will 
#Halliburton be liable for failure to obtain any particular results or for 
#any damages, including, but not limited to, indirect, special or consequential damages, 
#resulting from the use of any information or interpretation provided by Halliburton.
#
~A           TIME           GTDEPTH  GTPQH  GTTQ  GTTN  GTET   GTTVD  
# ...
   23:54:27.456.23-Feb-2020 3441.51 4209.08 56.58 1.00 345.04 2726.26
   23:54:27.656.23-Feb-2020 3441.51 4209.13 56.58 1.00 345.24 2726.26
   23:54:27.856.23-Feb-2020 3441.51 4209.08 56.58 1.00 345.44 2726.26
   23:54:28.056.23-Feb-2020 3441.51 4209.13 56.58 1.00 345.64 2726.26
   23:54:28.256.23-Feb-2020 3441.51 4209.13 56.58 1.00 345.84 2726.26
   23:54:28.456.23-Feb-2020 3441.51 4209.10 56.58 1.00 346.04 2726.26
   23:54:28.656.23-Feb-2020 3441.51 4209.10 56.58 1.00 346.24 2726.26
   23:54:28.856.23-Feb-2020 3441.51 4209.12 56.58 1.00 346.44 2726.26
   23:54:29.056.23-Feb-2020 3441.51 4209.12 56.58 1.00 346.64 2726.26
   23:54:29.256.23-Feb-2020 3441.51 4209.13 56.58 1.00 346.84 2726.26
   23:54:29.456.23-Feb-2020 3441.51 4209.39 56.58 1.00 347.04 2726.26
   23:54:29.656.23-Feb-2020 3441.51 4209.39 56.58 1.00 347.24 2726.26
   23:54:29.856.23-Feb-2020 3441.51 4209.37 56.58 1.00 347.44 2726.26
   23:54:30.056.23-Feb-2020 3441.51 4208.96 56.58 1.00 347.64 2726.26
   23:54:30.256.23-Feb-2020 3441.51 4209.19 56.58 1.00 347.84 2726.26
   23:54:30.456.23-Feb-2020 3441.51 4209.07 56.58 1.00 348.04 2726.26
   23:54:30.656.23-Feb-2020 3441.51 4209.07 56.58 1.00 348.24 2726.26
   23:54:30.856.23-Feb-2020 3441.51 4209.11 56.58 1.00 348.44 2726.26
   23:54:31.056.23-Feb-2020 3441.51 4209.12 56.58 1.00 348.64 2726.26
   23:54:31.256.23-Feb-2020 3441.51 4209.12 56.58 1.00 348.84 2726.26
   23:54:31.456.23-Feb-2020 3441.51 4209.14 56.58 1.00 349.04 2726.26
   23:54:31.656.23-Feb-2020 3441.51 4209.14 56.58 1.00 349.24 2726.26
   23:54:31.856.23-Feb-2020 3441.51 4209.11 56.58 1.00 349.44 2726.26
   23:54:32.056.23-Feb-2020 3441.51 4209.08 56.58 1.00 349.64 2726.26
   23:54:32.256.23-Feb-2020 3441.51 4209.15 56.58 1.00 349.84 2726.26
   23:54:32.456.23-Feb-2020 3441.51 4209.11 56.58 1.00 350.04 2726.26
   23:54:32.656.23-Feb-2020 3441.51 4209.11 56.58 1.00 350.24 2726.26
   23:54:32.856.23-Feb-2020 3441.51 4208.91 56.58 1.00 350.44 2726.26
   23:54:33.057.23-Feb-2020 3441.51 4209.48 56.58 1.00 350.64 2726.26
   23:54:33.257.23-Feb-2020 3441.51 4209.10 56.58 1.00 350.84 2726.26
   23:54:33.457.23-Feb-2020 3441.51 4209.08 56.58 1.00 351.04 2726.26
   23:54:33.657.23-Feb-2020 3441.51 4209.08 56.58 1.00 351.24 2726.26
   23:54:33.857.23-Feb-2020 3441.51 4208.76 56.58 1.00 351.44 2726.26
   23:54:34.057.23-Feb-2020 3441.51 4209.43 56.58 1.00 351.64 2726.26
   23:54:34.257.23-Feb-2020 3441.51 4208.86 56.58 1.00 351.84 2726.26
   23:54:34.457.23-Feb-2020 3441.51 4209.22 56.58 1.00 352.04 2726.26
   23:54:34.657.23-Feb-2020 3441.51 4209.22 56.58 1.00 352.24 2726.26
   23:54:34.857.23-Feb-2020 3441.51 4209.06 56.58 1.00 352.44 2726.26
   23:54:35.057.23-Feb-2020 3441.51 4209.40 56.58 1.00 352.64 2726.26
   23:54:35.257.23-Feb-2020 3441.51 4208.92 56.58 1.00 352.84 2726.26
   23:54:35.457.23-Feb-2020 3441.51 4209.23 56.58 1.00 353.04 2726.26
   23:54:35.657.23-Feb-2020 3441.51 4209.23 56.58 1.00 353.24 2726.26
   23:54:35.857.23-Feb-2020 3441.51 4209.01 56.58 1.00 353.44 2726.26
   23:54:36.057.23-Feb-2020 3441.51 4209.34 56.58 1.00 353.64 2726.26
   23:54:36.257.23-Feb-2020 3441.51 4209.16 56.58 1.00 353.84 2726.26
   23:54:36.457.23-Feb-2020 3441.51 4209.06 56.58 1.00 354.04 2726.26
   23:54:36.657.23-Feb-2020 3441.51 4209.17 56.58 1.00 354.24 2726.26
   23:54:36.857.23-Feb-2020 3441.51 4209.07 56.58 1.00 354.44 2726.26
   23:54:37.057.23-Feb-2020 3441.51 4209.13 56.58 1.00 354.64 2726.26
   23:54:37.257.23-Feb-2020 3441.51 4209.09 56.58 1.00 354.84 2726.26
   23:54:37.457.23-Feb-2020 3441.51 4209.11 56.58 1.00 355.04 2726.26
   23:54:37.657.23-Feb-2020 3441.51 4209.11 56.58 1.00 355.24 2726.26
   23:54:37.857.23-Feb-2020 3441.51 4209.10 56.58 1.00 355.44 2726.26
   23:54:38.057.23-Feb-2020 3441.51 4209.11 56.58 1.00 355.64 2726.26
   23:54:38.257.23-Feb-2020 3441.51 4209.13 56.58 1.00 355.84 2726.26
   23:54:38.457.23-Feb-2020 3441.51 4209.11 56.58 1.00 356.04 2726.26
   23:54:38.657.23-Feb-2020 3441.51 4209.11 56.58 1.00 356.24 2726.26
   23:54:38.857.23-Feb-2020 3441.51 4209.38 56.58 1.00 356.44 2726.26
   23:54:39.057.23-Feb-2020 3441.51 4208.77 56.58 1.00 356.64 2726.26
   23:54:39.257.23-Feb-2020 3441.51 4209.37 56.58 1.00 356.84 2726.26
   23:54:39.457.23-Feb-2020 3441.51 4208.96 56.58 1.00 357.04 2726.26
   23:54:39.657.23-Feb-2020 3441.51 4208.96 56.58 1.00 357.24 2726.26
   23:54:39.857.23-Feb-2020 3441.51 4209.06 56.58 1.00 357.44 2726.26
   23:54:40.057.23-Feb-2020 3441.51 4209.09 56.58 1.00 357.64 2726.26
   23:54:40.257.23-Feb-2020 3441.51 4209.11 56.58 1.00 357.84 2726.26
   23:54:40.457.23-Feb-2020 3441.51 4209.11 56.58 1.00 358.04 2726.26
   23:54:40.657.23-Feb-2020 3441.51 4209.11 56.58 1.00 358.24 2726.26
   23:54:40.857.23-Feb-2020 3441.51 4209.14 56.58 1.00 358.44 2726.26
   23:54:41.057.23-Feb-2020 3441.51 4209.10 56.58 1.00 358.64 2726.26
   23:54:41.257.23-Feb-2020 3441.51 4209.11 56.58 1.00 358.84 2726.26
   23:54:41.457.23-Feb-2020 3441.51 4209.08 56.58 1.00 359.04 2726.26
   23:54:41.658.23-Feb-2020 3441.51 4209.08 56.58 1.00 359.24 2726.26
   23:54:41.858.23-Feb-2020 3441.51 4209.12 56.58 1.00 359.44 2726.26
   23:54:42.058.23-Feb-2020 3441.51 4209.02 56.58 1.00 359.64 2726.26
   23:54:42.258.23-Feb-2020 3441.51 4208.89 56.58 1.00 359.84 2726.26
   23:54:42.458.23-Feb-2020 3441.51 4209.48 56.58 1.00 360.04 2726.26
   23:54:42.658.23-Feb-2020 3441.51 4209.10 56.58 1.00 360.24 2726.26
   23:54:42.858.23-Feb-2020 3441.51 4209.07 56.58 1.00 360.44 2726.26
   23:54:43.058.23-Feb-2020 3441.51 4209.42 56.58 1.00 360.64 2726.26
   23:54:43.258.23-Feb-2020 3441.51 4208.76 56.58 1.00 360.84 2726.26
   23:54:43.458.23-Feb-2020 3441.51 4209.41 56.58 1.00 361.04 2726.26
   23:54:43.658.23-Feb-2020 3441.51 4209.41 56.58 1.00 361.24 2726.26
   23:54:43.858.23-Feb-2020 3441.51 4209.23 56.58 1.00 361.44 2726.26
   23:54:44.058.23-Feb-2020 3441.51 4209.06 56.58 1.00 361.64 2726.26
   23:54:44.258.23-Feb-2020 3441.51 4209.05 56.58 1.00 361.84 2726.26
   23:54:44.458.23-Feb-2020 3441.51 4209.40 56.58 1.00 362.04 2726.26
   23:54:44.658.23-Feb-2020 3441.51 4209.40 56.58 1.00 362.24 2726.26
   23:54:44.858.23-Feb-2020 3441.51 4209.22 56.58 1.00 362.44 2726.26
   23:54:45.058.23-Feb-2020 3441.51 4209.02 56.58 1.00 362.64 2726.26
   23:54:45.258.23-Feb-2020 3441.51 4212.86 56.58 1.00 362.84 2726.26
   23:54:45.458.23-Feb-2020 3441.51 4245.47 56.58 1.00 363.04 2726.26
   23:54:45.658.23-Feb-2020 3441.51 4245.47 56.58 1.00 363.24 2726.26
   23:54:45.858.23-Feb-2020 3441.51 4875.65 56.58 1.00 363.44 2726.26
   23:54:46.058.23-Feb-2020 3441.51 5707.27 56.58 1.00 363.64 2726.26
   23:54:46.258.23-Feb-2020 3441.51 5703.59 56.58 1.00 363.84 2726.26
   23:54:46.458.23-Feb-2020 3441.51 5704.29 56.58 1.00 364.04 2726.26
   23:54:46.658.23-Feb-2020 3441.51 5704.29 56.58 1.00 364.24 2726.26
   23:54:46.858.23-Feb-2020 3441.51 5704.20 56.59 1.00 364.44 2726.26
   23:54:47.058.23-Feb-2020 3441.51 5705.52 56.59 1.00 364.64 2726.26
   23:54:47.258.23-Feb-2020 3441.51 5705.40 56.59 1.00 364.84 2726.26
   23:54:47.458.23-Feb-2020 3441.51 5705.29 56.59 1.00 365.04 2726.26
   23:54:47.658.23-Feb-2020 3441.51 5705.29 56.59 1.00 365.24 2726.26
   23:54:47.858.23-Feb-2020 3441.51 5706.57 56.59 1.00 365.44 2726.26
   23:54:48.058.23-Feb-2020 3441.51 5706.81 56.59 1.00 365.64 2726.26
   23:54:48.258.23-Feb-2020 3441.51 5717.84 56.59 1.00 365.84 2726.26
   23:54:48.458.23-Feb-2020 3441.51 5694.66 56.59 1.00 366.04 2726.26
   23:54:48.658.23-Feb-2020 3441.51 5694.66 56.59 1.00 366.24 2726.26
   23:54:48.858.23-Feb-2020 3441.51 5705.84 56.59 1.00 366.44 2726.26
   23:54:49.058.23-Feb-2020 3441.51 5708.75 56.60 1.00 366.64 2726.26
   23:54:49.258.23-Feb-2020 3441.51 5707.03 56.60 1.00 366.84 2726.26
   23:54:49.458.23-Feb-2020 3441.51 5706.18 56.60 1.00 367.04 2726.26
   23:54:49.658.23-Feb-2020 3441.51 5706.18 56.60 1.00 367.24 2726.26
   23:54:49.858.23-Feb-2020 3441.51 5705.96 56.60 1.00 367.44 2726.26
   23:54:50.058.23-Feb-2020 3441.51 5705.83 56.60 1.00 367.64 2726.26
   23:54:50.258.23-Feb-2020 3441.51 5707.50 56.60 1.00 367.84 2726.26
