~Version Information
 VERS.                  2.0:   CWLS log ASCII Standard -VERSION 2.0
 WRAP.                   NO:   One line per depth step
~Well Information Block
#MNEM.UNIT     VALUE/NAME     DESCRIPTION
#---------     -----------    ---------------------------
 STRT.S             05:02:14 24-Feb-20: START TIME 05:02:14 24-Feb-20
 STOP.S             05:09:32 24-Feb-20: STOP TIME  05:09:32 24-Feb-20
 STEP.S                   0.00: STEP TIME
 NULL.                 -999.25: NULL VALUE
 JOBN.        AZ-XX-0905059384:  JOB TICKET NUMB
 PDAT.          Mean Sea Level:  PERMANENT DATUM
 UNIT.                     N/A:  LOGGING EQUIPMENT ID
 DCON.         Sperry Drilling:  DIRECTNL CONTR
 DOE .                     N/A:  DOE NUMBER
 RIG .             West Chirag:  RIG NAME
 WELL.                     J22:  WELL NAME
 MWDS.                    Baku:  MWD SHOP
 SRVC.     TURAN Drilling & Engineering:  CONTRACTOR
 FLD .                     ACG:  FIELD NAME
 CTRY.              Azerbaijan:  COUNTRY NAME
 PROV.                    Baku:  PROVINCE
 STAT.                    Baku:  STATE NAME
 REGN.                   EESSA:  REGION
 BASE.              Azerbaijan:  LOGGING EQUIPMENT BASE LOCATION
 UWI .                     N/A:  UNIQUE WELL IDENTIFIER
 API .                     N/A:  API NUMBER
 COMP.     BP Exploration (Caspian Sea) Ltd.:  COMPANY
 WTYP.                Deviated:  WELL TYPE
 MDS .        Operator Entered:  MAG DATA SOURCE
 SON .        AZ-XX-0905059384:  JOB NUMBER
 FTOP.          Formation Tops:  FORM TOPS DESC
 ILTD.               Lithology:  INTERP LTH DESC
 SVYD.                  Survey:  SURVEY DESC
 DMOD.             Drill Model:  DRILL MOD DESC
 HPTY.       Minimum Curvature:  HOLE POS TYPE
 NREF.                    Grid:  NORTH REFERENCE
 SPUD.               09-Jan-20:  SPUD DATE
 DATE.      14.04.48 07-Feb-20:  END TIME
 STIM.      07.00.00 09-Jan-20:  START TIME
 DMF .             Drill Floor:  DRILL MEAS FROM
 DFST.                        :  DIST FSL TEXT
 DFWT.                        :  DIST FWL TEXT
 CNTY.                        :  COUNTY
 LOC .                        :  LOCATION
 LMF .             Drill Floor:  LOG MEASURED FROM
 DEP .m                   0.00:  DEPTH
 VSNS.m                  10.28:  VERT SEC N/S
 VSEW.m                  -6.24:  VERT SEC E/W
 AGAP.m                  43.00:  AIR GAP
 APD .m                  43.00:  DEPTH ABOVE PD
 WDMS.m                 169.80:  WD ELEV
 EGL .m                   0.00:  GROUND ELEVATION
 EPD .m                   0.00:  ELEVATION
 AZTC.deg                 6.27:  AZM TOTAL CORR
 GRDC.deg                 0.15:  GRID CORRECTION
 MDEC.deg                 6.42:  MAGNETIC DECL
 MDIP.deg                59.56:  MAGNETIC DIP
 MFLD.nT              50277.00:  MAGNETIC FIELD
 GVFD.g                   1.00:  GRAVITY FIELD
 VSDR.deg               148.53:  VERT SEC DIRECT
 TDD .m                3473.01:  TOTAL DEPTH (DRILLER)
 SDEP.m                 364.00:  START DEPTH
 DFSL.m                   0.00:  DISTANCE FSL
 DFWL.m                   0.00:  DISTANCE FWL
 UTMY.m             4443793.85:  UTM Y
 UTMX.m              519005.06:  UTM X
 WHEW.m                  -6.24:  WELL HEAD E/W
 WHNS.m                  10.28:  WELL HEAD N/S
 LONG.deg                51.22:  LONGITUDE
 LATI.deg                40.13:  LATITUDE
 TVDS.m                  43.00:  TVDSS CORRECTN
 EKB .m                   0.00:  KB ELEVATION
 EDF .m                  43.00:  DF ELEVATION
 TDL .m                 254.00:  TOTAL DEPTH (LOGGER)
 MAGU.                 1850021:  MAGUTM CHECKSUM
 VSC .                       0:  VS TO CLOSURE
~Parameter Information Block
#MNEM.UNIT       Value        Description
#---------     -----------    ---------------------------
 AV  .mps                 0.50:  Ann Velocity 
 AVMX.mps                 1.40:  Max Ann Veloc 
 AZIF.deg               144.94:  Azm, Final 
 BHAT.        Rotary Steerable:  BHA Type 
 BROT.°/30m               0.23:  Build Rotating 
 BS  .in                  8.50:  Bit Size 
 BTPL.psig              264.00:  Bit Press Loss 
 CABU.                     Yes:  Customer Abuse 
 TCS .hr                 87.30:  Time Ciculation Ended 
 CV  .mps                 2.45:  Crit Velocity 
 CVMX.mps                 2.74:  Max Crit Veloc 
 DD1 .             Aziz Aliyev:  Direct Drillr 1 
 DDSV.               Geo-Pilot:  DD Service 
 DEFF.%                 100.00:  % Det Eff 
 DLRX.°/30m               1.22:  Dogleg Rot Max 
 DLSO.°/30m               0.52:  Dogleg Oriented 
 DLSX.°/30m               1.22:  Dogleg Str Max 
 DRET.      12.59.00 23-Feb-20:  Drill End Time 
 DRST.      09.44.00 18-Feb-20:  Drill Start Tim 
 DTIM.hr                 23.03:  Time Drilling 
 EDEP.m                3473.01:  End Depth 
 ENG1.         Almaz Almadatov:  Engineer 1 
 ENG2.         Dair Mahammadov:  Engineer 2 
 ENG3.          Nazrin Asgarli:  Engineer 3 
 ETIM.      10.33.36 26-Feb-20:  End Time 
 FLOI.gpm               480.00:  Flow In 
 FLON.gpm               300.00:  Flow In Min 
 FLOS.cptm                1.00:  Fluid Loss 
 FLOX.gpm               550.00:  Flow In Max 
 HFLO.                      No:  High Flow 
 HPRE.                      No:  High Pressure 
 HTEM.                      No:  High Temp 
 HYDO.m                   1.80:  Hydro Offset 
 IFIN.deg                74.42:  Inc, Final 
 IMAX.deg                76.14:  Inc Max 
 IMIN.deg                74.42:  Inc Min 
 IMND.m                3462.72:  Inc Min Depth 
 IMXD.m                3235.69:  Inc Max Depth 
 JARR.                      No:  Jarring 
 LETM.      12.59.00 23-Feb-20:  Log End Time 
 LOST.hr                     0:  Lost Rig Time 
 LSTM.      09.44.00 18-Feb-20:  Log Start Time 
 MDCL.ppm             45000.00:  Mud Chlorides 
 MDES.     Inversion Oil/Synthetic:  Mud Desc 
 DFD .sg                  1.38:  Mud Density 
 MDMN.sg                  1.34:  Dens Mud Min 
 MDMX.sg                  1.49:  Dens Mud Max 
 MOIL.                      67:  Run Mud Oil % 
 MOWR.                   67:33:  Run Mud OWR 
 MSND.                    0.12:  Run Mud Sand % 
 MSOL.                      22:  Run Mud Solids% 
 DFV .spqt               81.00:  Mud Viscosity 
 MWOD.in                  6.75:  MWD Tool OD 
 MWSI.                      No:  Serv Intrp, MWD 
 OTIM.hr                231.44:  Time Operating 
 PCON.          Wear / Scratch:  Pad Condition 
 PMAX.psia             3400.00:  Press Op, Max 
 PV  .cP                 55.00:  Mud PV 
 RUN .                     800:  Run Number 
 ROPA.m/hr               12.00:  ROP Avg 
 ROPN.m/hr                5.00:  ROP Min 
 ROPX.m/hr               28.00:  ROP Max 
 RPMA.rpm               120.00:  RPM Surface Avg 
 RPMN.rpm                40.00:  RPM Surface Min 
 RPMX.rpm               130.00:  RPM Surface Max 
 RRUN.                    0800:  Rig Run Number 
 RTIM.hr                 45.00:  Time Reaming 
 SAZI.deg               145.38:  Azm, Start 
 SDEP.m                3219.01:  Start Depth 
 SIDD.                      No:  Serv Intrp, DD 
 SINC.deg                75.11:  Inc, Start 
 SPPA.psig             2400.00:  SPP Avg 
 SPPN.psig             2320.00:  SPP Min 
 SPPX.psig             3200.00:  SPP Max 
 STIM.      15.15.00 17-Feb-20:  Start Time 
 SVCS.                 DD, MWD:  Services 
 SVER.                    9.20:  Sperry Version 
 TDAT.m                 254.00:  Tot Depth Attmp 
 TDDF.                      No:  Trip for DD 
 TDLG.m                 254.00:  Tot Depth Loggd 
 TFF .                      No:  Trip for Fail 
 TQAA.f-kp               13.00:  Torque Abs Avg 
 TQAN.f-kp                7.00:  Torque Abs Min 
 TQAX.f-kp               15.00:  Torque Abs Max 
 TRRT.°/30m               0.21:  Turn Rotating 
 MRT .                  EWR-M5:  Maximum Recorded Temperature 
 TTMX.degC               64.00:  Max Tool Temp 
 VS01.                90586516:  Virtual Str1 SN 
 VS02.                90513691:  Virtual Str2 SN 
 VS03.                90586523:  Virtual Str3 SN 
 VS04.                90586520:  Virtual Str4 SN 
 VS05.                90590507:  Virtual Str5 SN 
 WBMN.klb                12.00:  WOB Min 
 WITN.           Rufat Babayev:  Customer Rep 2 
 WITN.         Alistair Sprott:  Customer Rep 
 WOBA.klb                18.00:  WOB Avg 
 WOBX.klb                30.00:  WOB Max 
 YP  .lhf2               41.00:  Yield Point 
~Curve Information Block
#MNEM.UNIT                 API CODE     Curve Description
#---------               -----------    ---------------------------
 TIME.HHMMSS            00 000 000 000:  GT Time & Date
 GTDEPTH.m              00 000 000 000:  GT Depth
 GTPQH.psia             00 000 000 000:  GT HR Quartz Pressure
 GTTQ.degC              00 000 000 000:  GT Quartz Temperature
 GTTN.NONE              00 000 000 000:  GT Test Number
 GTET.sec               00 000 000 000:  GT Elapsed Test Time
 GTTVD.m                00 000 000 000:  GT True Vertical Depth
#Other Information
#
#WARRANTY: Halliburton will use its best efforts to furnish customers with 
#accurate information and interpretations that are part of, and incident to, the services 
#provided.  However, Halliburton cannot and does not warrant the accuracy 
#or correctness of such information and interpretations.  Under no circumstances should any 
#such information or interpretation be relied upon as the sole basis for any drilling, 
#completion, production, or financial decision or any procedure involving any risk to the 
#safety of any drilling venture, drilling rig or its crew or any other third party.  The 
#Customer has full responsibility for all drilling, completion and production operation.  
#Halliburton makes no representations or warranties, either expressed or 
#implied, including, but not limited to, the implied warranties of merchantability or fitness 
#for a particular purpose, with respect to the services rendered.  In no event will 
#Halliburton be liable for failure to obtain any particular results or for 
#any damages, including, but not limited to, indirect, special or consequential damages, 
#resulting from the use of any information or interpretation provided by Halliburton.
#
~A           TIME           GTDEPTH  GTPQH  GTTQ  GTTN  GTET   GTTVD  
# ...
   05:07:36.748.24-Feb-2020 3303.51 4421.03 55.36 8.00 321.91 2690.98
   05:07:36.948.24-Feb-2020 3303.51 4421.02 55.36 8.00 322.11 2690.98
   05:07:37.148.24-Feb-2020 3303.51 4421.04 55.36 8.00 322.31 2690.98
   05:07:37.348.24-Feb-2020 3303.51 4421.02 55.36 8.00 322.51 2690.98
   05:07:37.548.24-Feb-2020 3303.51 4421.02 55.36 8.00 322.71 2690.98
   05:07:37.748.24-Feb-2020 3303.51 4421.04 55.36 8.00 322.91 2690.98
   05:07:37.948.24-Feb-2020 3303.51 4421.04 55.36 8.00 323.10 2690.98
   05:07:38.148.24-Feb-2020 3303.51 4420.96 55.36 8.00 323.30 2690.98
   05:07:38.348.24-Feb-2020 3303.51 4421.16 55.36 8.00 323.50 2690.98
   05:07:38.548.24-Feb-2020 3303.51 4421.02 55.36 8.00 323.70 2690.98
   05:07:38.748.24-Feb-2020 3303.51 4420.94 55.36 8.00 323.90 2690.98
   05:07:38.947.24-Feb-2020 3303.51 4420.94 55.36 8.00 324.10 2690.98
   05:07:39.147.24-Feb-2020 3303.51 4420.99 55.36 8.00 324.30 2690.98
   05:07:39.347.24-Feb-2020 3303.51 4420.99 55.36 8.00 324.50 2690.98
   05:07:39.547.24-Feb-2020 3303.51 4420.99 55.36 8.00 324.70 2690.98
   05:07:39.747.24-Feb-2020 3303.51 4421.03 55.36 8.00 324.90 2690.98
   05:07:39.947.24-Feb-2020 3303.51 4421.03 55.36 8.00 325.10 2690.98
   05:07:40.147.24-Feb-2020 3303.51 4421.04 55.36 8.00 325.30 2690.98
   05:07:40.347.24-Feb-2020 3303.51 4420.99 55.36 8.00 325.50 2690.98
   05:07:40.547.24-Feb-2020 3303.51 4421.01 55.36 8.00 325.70 2690.98
   05:07:40.747.24-Feb-2020 3303.51 4421.02 55.36 8.00 325.90 2690.98
   05:07:40.947.24-Feb-2020 3303.51 4421.04 55.36 8.00 326.10 2690.98
   05:07:41.147.24-Feb-2020 3303.51 4421.01 55.36 8.00 326.30 2690.98
   05:07:41.347.24-Feb-2020 3303.51 4421.26 55.36 8.00 326.50 2690.98
   05:07:41.547.24-Feb-2020 3303.51 4420.65 55.36 8.00 326.70 2690.98
   05:07:41.747.24-Feb-2020 3303.51 4421.19 55.36 8.00 326.90 2690.98
   05:07:41.947.24-Feb-2020 3303.51 4421.19 55.36 8.00 327.10 2690.98
   05:07:42.147.24-Feb-2020 3303.51 4421.11 55.36 8.00 327.30 2690.98
   05:07:42.346.24-Feb-2020 3303.51 4421.07 55.36 8.00 327.50 2690.98
   05:07:42.546.24-Feb-2020 3303.51 4420.90 55.36 8.00 327.70 2690.98
   05:07:42.746.24-Feb-2020 3303.51 4421.07 55.36 8.00 327.90 2690.98
   05:07:42.946.24-Feb-2020 3303.51 4421.07 55.36 8.00 328.10 2690.98
   05:07:43.146.24-Feb-2020 3303.51 4421.03 55.36 8.00 328.30 2690.98
   05:07:43.346.24-Feb-2020 3303.51 4421.12 55.36 8.00 328.50 2690.98
   05:07:43.546.24-Feb-2020 3303.51 4421.06 55.36 8.00 328.70 2690.98
   05:07:43.746.24-Feb-2020 3303.51 4420.93 55.36 8.00 328.90 2690.98
   05:07:43.946.24-Feb-2020 3303.51 4420.93 55.36 8.00 329.10 2690.98
   05:07:44.146.24-Feb-2020 3303.51 4421.00 55.36 8.00 329.30 2690.98
   05:07:44.346.24-Feb-2020 3303.51 4421.11 55.36 8.00 329.50 2690.98
   05:07:44.546.24-Feb-2020 3303.51 4421.05 55.36 8.00 329.70 2690.98
   05:07:44.746.24-Feb-2020 3303.51 4420.88 55.36 8.00 329.90 2690.98
   05:07:44.946.24-Feb-2020 3303.51 4420.88 55.36 8.00 330.10 2690.98
   05:07:45.146.24-Feb-2020 3303.51 4420.97 55.36 8.00 330.30 2690.98
   05:07:45.346.24-Feb-2020 3303.51 4421.04 55.36 8.00 330.50 2690.98
   05:07:45.546.24-Feb-2020 3303.51 4421.00 55.36 8.00 330.70 2690.98
   05:07:45.745.24-Feb-2020 3303.51 4421.00 55.36 8.00 330.90 2690.98
   05:07:45.945.24-Feb-2020 3303.51 4421.00 55.36 8.00 331.10 2690.98
   05:07:46.145.24-Feb-2020 3303.51 4421.03 55.36 8.00 331.30 2690.98
   05:07:46.345.24-Feb-2020 3303.51 4421.03 55.35 8.00 331.50 2690.98
   05:07:46.545.24-Feb-2020 3303.51 4421.03 55.35 8.00 331.70 2690.98
   05:07:46.745.24-Feb-2020 3303.51 4421.03 55.35 8.00 331.90 2690.98
   05:07:46.945.24-Feb-2020 3303.51 4421.03 55.35 8.00 332.10 2690.98
   05:07:47.145.24-Feb-2020 3303.51 4421.05 55.35 8.00 332.30 2690.98
   05:07:47.345.24-Feb-2020 3303.51 4421.30 55.35 8.00 332.50 2690.98
   05:07:47.545.24-Feb-2020 3303.51 4420.67 55.35 8.00 332.70 2690.98
   05:07:47.745.24-Feb-2020 3303.51 4421.19 55.35 8.00 332.90 2690.98
   05:07:47.945.24-Feb-2020 3303.51 4421.19 55.35 8.00 333.10 2690.98
   05:07:48.145.24-Feb-2020 3303.51 4421.04 55.35 8.00 333.30 2690.98
   05:07:48.345.24-Feb-2020 3303.51 4420.96 55.35 8.00 333.50 2690.98
   05:07:48.545.24-Feb-2020 3303.51 4420.99 55.35 8.00 333.70 2690.98
   05:07:48.745.24-Feb-2020 3303.51 4421.01 55.35 8.00 333.90 2690.98
   05:07:48.945.24-Feb-2020 3303.51 4421.02 55.35 8.00 334.10 2690.98
   05:07:49.144.24-Feb-2020 3303.51 4421.04 55.35 8.00 334.30 2690.98
   05:07:49.344.24-Feb-2020 3303.51 4421.04 55.35 8.00 334.50 2690.98
   05:07:49.544.24-Feb-2020 3303.51 4420.99 55.35 8.00 334.70 2690.98
   05:07:49.744.24-Feb-2020 3303.51 4421.01 55.35 8.00 334.90 2690.98
   05:07:49.944.24-Feb-2020 3303.51 4421.01 55.35 8.00 335.10 2690.98
   05:07:50.144.24-Feb-2020 3303.51 4421.04 55.35 8.00 335.30 2690.98
   05:07:50.344.24-Feb-2020 3303.51 4421.06 55.35 8.00 335.50 2690.98
   05:07:50.544.24-Feb-2020 3303.51 4420.99 55.35 8.00 335.70 2690.98
   05:07:50.744.24-Feb-2020 3303.51 4421.44 55.35 8.00 335.90 2690.98
   05:07:50.944.24-Feb-2020 3303.51 4421.44 55.35 8.00 336.10 2690.98
   05:07:51.144.24-Feb-2020 3303.51 4420.92 55.35 8.00 336.30 2690.98
   05:07:51.344.24-Feb-2020 3303.51 4421.07 55.35 8.00 336.50 2690.98
   05:07:51.544.24-Feb-2020 3303.51 4420.91 55.35 8.00 336.70 2690.98
   05:07:51.744.24-Feb-2020 3303.51 4421.19 55.35 8.00 336.90 2690.98
   05:07:51.944.24-Feb-2020 3303.51 4421.19 55.35 8.00 337.10 2690.98
   05:07:52.144.24-Feb-2020 3303.51 4420.95 55.35 8.00 337.30 2690.98
   05:07:52.344.24-Feb-2020 3303.51 4421.03 55.35 8.00 337.50 2690.98
   05:07:52.543.24-Feb-2020 3303.51 4421.02 55.35 8.00 337.70 2690.98
   05:07:52.743.24-Feb-2020 3303.51 4420.95 55.35 8.00 337.90 2690.98
   05:07:52.943.24-Feb-2020 3303.51 4421.20 55.35 8.00 338.10 2690.98
   05:07:53.143.24-Feb-2020 3303.51 4421.06 55.35 8.00 338.30 2690.98
   05:07:53.343.24-Feb-2020 3303.51 4420.97 55.35 8.00 338.50 2690.98
   05:07:53.543.24-Feb-2020 3303.51 4421.03 55.35 8.00 338.70 2690.98
   05:07:53.743.24-Feb-2020 3303.51 4420.92 55.35 8.00 338.90 2690.98
   05:07:53.943.24-Feb-2020 3303.51 4420.92 55.35 8.00 339.10 2690.98
   05:07:54.143.24-Feb-2020 3303.51 4421.00 55.35 8.00 339.30 2690.98
   05:07:54.343.24-Feb-2020 3303.51 4420.93 55.35 8.00 339.50 2690.98
   05:07:54.543.24-Feb-2020 3303.51 4421.01 55.35 8.00 339.70 2690.98
   05:07:54.743.24-Feb-2020 3303.51 4421.00 55.35 8.00 339.90 2690.98
   05:07:54.943.24-Feb-2020 3303.51 4421.00 55.35 8.00 340.10 2690.98
   05:07:55.143.24-Feb-2020 3303.51 4421.00 55.35 8.00 340.30 2690.98
   05:07:55.343.24-Feb-2020 3303.51 4421.02 55.35 8.00 340.50 2690.98
   05:07:55.543.24-Feb-2020 3303.51 4421.03 55.35 8.00 340.70 2690.98
   05:07:55.743.24-Feb-2020 3303.51 4421.02 55.35 8.00 340.90 2690.98
   05:07:55.942.24-Feb-2020 3303.51 4421.02 55.35 8.00 341.10 2690.98
   05:07:56.142.24-Feb-2020 3303.51 4421.02 55.35 8.00 341.30 2690.98
   05:07:56.342.24-Feb-2020 3303.51 4421.03 55.35 8.00 341.50 2690.98
   05:07:56.542.24-Feb-2020 3303.51 4421.04 55.35 8.00 341.70 2690.98
   05:07:56.742.24-Feb-2020 3303.51 4421.47 55.35 8.00 341.90 2690.98
   05:07:56.942.24-Feb-2020 3303.51 4420.68 55.35 8.00 342.10 2690.98
   05:07:57.142.24-Feb-2020 3303.51 4420.93 55.35 8.00 342.30 2690.98
   05:07:57.342.24-Feb-2020 3303.51 4421.05 55.35 8.00 342.50 2690.98
   05:07:57.542.24-Feb-2020 3303.51 4421.00 55.35 8.00 342.70 2690.98
   05:07:57.742.24-Feb-2020 3303.51 4420.98 55.35 8.00 342.90 2690.98
   05:07:57.942.24-Feb-2020 3303.51 4420.98 55.35 8.00 343.10 2690.98
   05:07:58.142.24-Feb-2020 3303.51 4420.99 55.35 8.00 343.30 2690.98
   05:07:58.342.24-Feb-2020 3303.51 4421.03 55.35 8.00 343.50 2690.98
   05:07:58.542.24-Feb-2020 3303.51 4421.02 55.35 8.00 343.70 2690.98
   05:07:58.742.24-Feb-2020 3303.51 4421.04 55.35 8.00 343.90 2690.98
   05:07:58.942.24-Feb-2020 3303.51 4421.04 55.35 8.00 344.10 2690.98
   05:07:59.142.24-Feb-2020 3303.51 4421.00 55.35 8.00 344.30 2690.98
   05:07:59.341.24-Feb-2020 3303.51 4421.02 55.35 8.00 344.50 2690.98
   05:07:59.541.24-Feb-2020 3303.51 4421.03 55.35 8.00 344.70 2690.98
