~Version Information
 VERS.                  2.0:   CWLS log ASCII Standard -VERSION 2.0
 WRAP.                   NO:   One line per depth step
~Well Information Block
#MNEM.UNIT     VALUE/NAME     DESCRIPTION
#---------     -----------    ---------------------------
 STRT.S             01:26:08 24-Feb-20: START TIME 01:26:08 24-Feb-20
 STOP.S             01:33:25 24-Feb-20: STOP TIME  01:33:25 24-Feb-20
 STEP.S                   0.00: STEP TIME
 NULL.                 -999.25: NULL VALUE
 JOBN.        AZ-XX-0905059384:  JOB TICKET NUMB
 PDAT.          Mean Sea Level:  PERMANENT DATUM
 UNIT.                     N/A:  LOGGING EQUIPMENT ID
 DCON.         Sperry Drilling:  DIRECTNL CONTR
 DOE .                     N/A:  DOE NUMBER
 RIG .             West Chirag:  RIG NAME
 WELL.                     J22:  WELL NAME
 MWDS.                    Baku:  MWD SHOP
 SRVC.     TURAN Drilling & Engineering:  CONTRACTOR
 FLD .                     ACG:  FIELD NAME
 CTRY.              Azerbaijan:  COUNTRY NAME
 PROV.                    Baku:  PROVINCE
 STAT.                    Baku:  STATE NAME
 REGN.                   EESSA:  REGION
 BASE.              Azerbaijan:  LOGGING EQUIPMENT BASE LOCATION
 UWI .                     N/A:  UNIQUE WELL IDENTIFIER
 API .                     N/A:  API NUMBER
 COMP.     BP Exploration (Caspian Sea) Ltd.:  COMPANY
 WTYP.                Deviated:  WELL TYPE
 MDS .        Operator Entered:  MAG DATA SOURCE
 SON .        AZ-XX-0905059384:  JOB NUMBER
 FTOP.          Formation Tops:  FORM TOPS DESC
 ILTD.               Lithology:  INTERP LTH DESC
 SVYD.                  Survey:  SURVEY DESC
 DMOD.             Drill Model:  DRILL MOD DESC
 HPTY.       Minimum Curvature:  HOLE POS TYPE
 NREF.                    Grid:  NORTH REFERENCE
 SPUD.               09-Jan-20:  SPUD DATE
 DATE.      14.04.48 07-Feb-20:  END TIME
 STIM.      07.00.00 09-Jan-20:  START TIME
 DMF .             Drill Floor:  DRILL MEAS FROM
 DFST.                        :  DIST FSL TEXT
 DFWT.                        :  DIST FWL TEXT
 CNTY.                        :  COUNTY
 LOC .                        :  LOCATION
 LMF .             Drill Floor:  LOG MEASURED FROM
 DEP .m                   0.00:  DEPTH
 VSNS.m                  10.28:  VERT SEC N/S
 VSEW.m                  -6.24:  VERT SEC E/W
 AGAP.m                  43.00:  AIR GAP
 APD .m                  43.00:  DEPTH ABOVE PD
 WDMS.m                 169.80:  WD ELEV
 EGL .m                   0.00:  GROUND ELEVATION
 EPD .m                   0.00:  ELEVATION
 AZTC.deg                 6.27:  AZM TOTAL CORR
 GRDC.deg                 0.15:  GRID CORRECTION
 MDEC.deg                 6.42:  MAGNETIC DECL
 MDIP.deg                59.56:  MAGNETIC DIP
 MFLD.nT              50277.00:  MAGNETIC FIELD
 GVFD.g                   1.00:  GRAVITY FIELD
 VSDR.deg               148.53:  VERT SEC DIRECT
 TDD .m                3473.01:  TOTAL DEPTH (DRILLER)
 SDEP.m                 364.00:  START DEPTH
 DFSL.m                   0.00:  DISTANCE FSL
 DFWL.m                   0.00:  DISTANCE FWL
 UTMY.m             4443793.85:  UTM Y
 UTMX.m              519005.06:  UTM X
 WHEW.m                  -6.24:  WELL HEAD E/W
 WHNS.m                  10.28:  WELL HEAD N/S
 LONG.deg                51.22:  LONGITUDE
 LATI.deg                40.13:  LATITUDE
 TVDS.m                  43.00:  TVDSS CORRECTN
 EKB .m                   0.00:  KB ELEVATION
 EDF .m                  43.00:  DF ELEVATION
 TDL .m                 254.00:  TOTAL DEPTH (LOGGER)
 MAGU.                 1850021:  MAGUTM CHECKSUM
 VSC .                       0:  VS TO CLOSURE
~Parameter Information Block
#MNEM.UNIT       Value        Description
#---------     -----------    ---------------------------
 AV  .mps                 0.50:  Ann Velocity 
 AVMX.mps                 1.40:  Max Ann Veloc 
 AZIF.deg               144.94:  Azm, Final 
 BHAT.        Rotary Steerable:  BHA Type 
 BROT.°/30m               0.23:  Build Rotating 
 BS  .in                  8.50:  Bit Size 
 BTPL.psig              264.00:  Bit Press Loss 
 CABU.                     Yes:  Customer Abuse 
 TCS .hr                 87.30:  Time Ciculation Ended 
 CV  .mps                 2.45:  Crit Velocity 
 CVMX.mps                 2.74:  Max Crit Veloc 
 DD1 .             Aziz Aliyev:  Direct Drillr 1 
 DDSV.               Geo-Pilot:  DD Service 
 DEFF.%                 100.00:  % Det Eff 
 DLRX.°/30m               1.22:  Dogleg Rot Max 
 DLSO.°/30m               0.52:  Dogleg Oriented 
 DLSX.°/30m               1.22:  Dogleg Str Max 
 DRET.      12.59.00 23-Feb-20:  Drill End Time 
 DRST.      09.44.00 18-Feb-20:  Drill Start Tim 
 DTIM.hr                 23.03:  Time Drilling 
 EDEP.m                3473.01:  End Depth 
 ENG1.         Almaz Almadatov:  Engineer 1 
 ENG2.         Dair Mahammadov:  Engineer 2 
 ENG3.          Nazrin Asgarli:  Engineer 3 
 ETIM.      10.33.36 26-Feb-20:  End Time 
 FLOI.gpm               480.00:  Flow In 
 FLON.gpm               300.00:  Flow In Min 
 FLOS.cptm                1.00:  Fluid Loss 
 FLOX.gpm               550.00:  Flow In Max 
 HFLO.                      No:  High Flow 
 HPRE.                      No:  High Pressure 
 HTEM.                      No:  High Temp 
 HYDO.m                   1.80:  Hydro Offset 
 IFIN.deg                74.42:  Inc, Final 
 IMAX.deg                76.14:  Inc Max 
 IMIN.deg                74.42:  Inc Min 
 IMND.m                3462.72:  Inc Min Depth 
 IMXD.m                3235.69:  Inc Max Depth 
 JARR.                      No:  Jarring 
 LETM.      12.59.00 23-Feb-20:  Log End Time 
 LOST.hr                     0:  Lost Rig Time 
 LSTM.      09.44.00 18-Feb-20:  Log Start Time 
 MDCL.ppm             45000.00:  Mud Chlorides 
 MDES.     Inversion Oil/Synthetic:  Mud Desc 
 DFD .sg                  1.38:  Mud Density 
 MDMN.sg                  1.34:  Dens Mud Min 
 MDMX.sg                  1.49:  Dens Mud Max 
 MOIL.                      67:  Run Mud Oil % 
 MOWR.                   67:33:  Run Mud OWR 
 MSND.                    0.12:  Run Mud Sand % 
 MSOL.                      22:  Run Mud Solids% 
 DFV .spqt               81.00:  Mud Viscosity 
 MWOD.in                  6.75:  MWD Tool OD 
 MWSI.                      No:  Serv Intrp, MWD 
 OTIM.hr                231.44:  Time Operating 
 PCON.          Wear / Scratch:  Pad Condition 
 PMAX.psia             3400.00:  Press Op, Max 
 PV  .cP                 55.00:  Mud PV 
 RUN .                     800:  Run Number 
 ROPA.m/hr               12.00:  ROP Avg 
 ROPN.m/hr                5.00:  ROP Min 
 ROPX.m/hr               28.00:  ROP Max 
 RPMA.rpm               120.00:  RPM Surface Avg 
 RPMN.rpm                40.00:  RPM Surface Min 
 RPMX.rpm               130.00:  RPM Surface Max 
 RRUN.                    0800:  Rig Run Number 
 RTIM.hr                 45.00:  Time Reaming 
 SAZI.deg               145.38:  Azm, Start 
 SDEP.m                3219.01:  Start Depth 
 SIDD.                      No:  Serv Intrp, DD 
 SINC.deg                75.11:  Inc, Start 
 SPPA.psig             2400.00:  SPP Avg 
 SPPN.psig             2320.00:  SPP Min 
 SPPX.psig             3200.00:  SPP Max 
 STIM.      15.15.00 17-Feb-20:  Start Time 
 SVCS.                 DD, MWD:  Services 
 SVER.                    9.20:  Sperry Version 
 TDAT.m                 254.00:  Tot Depth Attmp 
 TDDF.                      No:  Trip for DD 
 TDLG.m                 254.00:  Tot Depth Loggd 
 TFF .                      No:  Trip for Fail 
 TQAA.f-kp               13.00:  Torque Abs Avg 
 TQAN.f-kp                7.00:  Torque Abs Min 
 TQAX.f-kp               15.00:  Torque Abs Max 
 TRRT.°/30m               0.21:  Turn Rotating 
 MRT .                  EWR-M5:  Maximum Recorded Temperature 
 TTMX.degC               64.00:  Max Tool Temp 
 VS01.                90586516:  Virtual Str1 SN 
 VS02.                90513691:  Virtual Str2 SN 
 VS03.                90586523:  Virtual Str3 SN 
 VS04.                90586520:  Virtual Str4 SN 
 VS05.                90590507:  Virtual Str5 SN 
 WBMN.klb                12.00:  WOB Min 
 WITN.           Rufat Babayev:  Customer Rep 2 
 WITN.         Alistair Sprott:  Customer Rep 
 WOBA.klb                18.00:  WOB Avg 
 WOBX.klb                30.00:  WOB Max 
 YP  .lhf2               41.00:  Yield Point 
~Curve Information Block
#MNEM.UNIT                 API CODE     Curve Description
#---------               -----------    ---------------------------
 TIME.HHMMSS            00 000 000 000:  GT Time & Date
 GTDEPTH.m              00 000 000 000:  GT Depth
 GTPQH.psia             00 000 000 000:  GT HR Quartz Pressure
 GTTQ.degC              00 000 000 000:  GT Quartz Temperature
 GTTN.NONE              00 000 000 000:  GT Test Number
 GTET.sec               00 000 000 000:  GT Elapsed Test Time
 GTTVD.m                00 000 000 000:  GT True Vertical Depth
#Other Information
#
#WARRANTY: Halliburton will use its best efforts to furnish customers with 
#accurate information and interpretations that are part of, and incident to, the services 
#provided.  However, Halliburton cannot and does not warrant the accuracy 
#or correctness of such information and interpretations.  Under no circumstances should any 
#such information or interpretation be relied upon as the sole basis for any drilling, 
#completion, production, or financial decision or any procedure involving any risk to the 
#safety of any drilling venture, drilling rig or its crew or any other third party.  The 
#Customer has full responsibility for all drilling, completion and production operation.  
#Halliburton makes no representations or warranties, either expressed or 
#implied, including, but not limited to, the implied warranties of merchantability or fitness 
#for a particular purpose, with respect to the services rendered.  In no event will 
#Halliburton be liable for failure to obtain any particular results or for 
#any damages, including, but not limited to, indirect, special or consequential damages, 
#resulting from the use of any information or interpretation provided by Halliburton.
#
~A           TIME           GTDEPTH  GTPQH  GTTQ  GTTN  GTET   GTTVD  
# ...
   01:29:12.200.24-Feb-2020 3405.01 4215.18 56.88 3.00 184.04 2716.73
   01:29:12.400.24-Feb-2020 3405.01 4215.18 56.88 3.00 184.24 2716.73
   01:29:12.600.24-Feb-2020 3405.01 4215.20 56.88 3.00 184.44 2716.73
   01:29:12.800.24-Feb-2020 3405.01 4215.22 56.88 3.00 184.64 2716.73
   01:29:13.000.24-Feb-2020 3405.01 4215.22 56.88 3.00 184.84 2716.73
   01:29:13.200.24-Feb-2020 3405.01 4215.22 56.88 3.00 185.04 2716.73
   01:29:13.400.24-Feb-2020 3405.01 4215.22 56.88 3.00 185.24 2716.73
   01:29:13.600.24-Feb-2020 3405.01 4215.22 56.88 3.00 185.44 2716.73
   01:29:13.800.24-Feb-2020 3405.01 4215.24 56.88 3.00 185.64 2716.73
   01:29:14.000.24-Feb-2020 3405.01 4215.22 56.88 3.00 185.84 2716.73
   01:29:14.200.24-Feb-2020 3405.01 4215.35 56.88 3.00 186.04 2716.73
   01:29:14.400.24-Feb-2020 3405.01 4215.35 56.88 3.00 186.24 2716.73
   01:29:14.600.24-Feb-2020 3405.01 4215.50 56.88 3.00 186.44 2716.73
   01:29:14.800.24-Feb-2020 3405.01 4215.22 56.88 3.00 186.64 2716.73
   01:29:15.000.24-Feb-2020 3405.01 4215.15 56.88 3.00 186.84 2716.73
   01:29:15.200.24-Feb-2020 3405.01 4215.12 56.88 3.00 187.04 2716.73
   01:29:15.400.24-Feb-2020 3405.01 4215.64 56.88 3.00 187.24 2716.73
   01:29:15.600.24-Feb-2020 3405.01 4215.25 56.88 3.00 187.44 2716.73
   01:29:15.800.24-Feb-2020 3405.01 4215.08 56.88 3.00 187.64 2716.73
   01:29:16.001.24-Feb-2020 3405.01 4215.20 56.88 3.00 187.84 2716.73
   01:29:16.201.24-Feb-2020 3405.01 4215.46 56.88 3.00 188.04 2716.73
   01:29:16.401.24-Feb-2020 3405.01 4215.46 56.88 3.00 188.24 2716.73
   01:29:16.601.24-Feb-2020 3405.01 4215.15 56.88 3.00 188.44 2716.73
   01:29:16.801.24-Feb-2020 3405.01 4215.26 56.88 3.00 188.64 2716.73
   01:29:17.001.24-Feb-2020 3405.01 4215.24 56.88 3.00 188.84 2716.73
   01:29:17.201.24-Feb-2020 3405.01 4215.19 56.88 3.00 189.04 2716.73
   01:29:17.401.24-Feb-2020 3405.01 4215.19 56.88 3.00 189.24 2716.73
   01:29:17.601.24-Feb-2020 3405.01 4215.24 56.88 3.00 189.44 2716.73
   01:29:17.801.24-Feb-2020 3405.01 4215.49 56.88 3.00 189.64 2716.73
   01:29:18.001.24-Feb-2020 3405.01 4215.18 56.88 3.00 189.84 2716.73
   01:29:18.201.24-Feb-2020 3405.01 4215.14 56.88 3.00 190.04 2716.73
   01:29:18.401.24-Feb-2020 3405.01 4215.14 56.88 3.00 190.24 2716.73
   01:29:18.601.24-Feb-2020 3405.01 4215.24 56.88 3.00 190.44 2716.73
   01:29:18.801.24-Feb-2020 3405.01 4215.18 56.88 3.00 190.64 2716.73
   01:29:19.001.24-Feb-2020 3405.01 4215.17 56.88 3.00 190.84 2716.73
   01:29:19.201.24-Feb-2020 3405.01 4215.18 56.88 3.00 191.04 2716.73
   01:29:19.401.24-Feb-2020 3405.01 4215.20 56.88 3.00 191.24 2716.73
   01:29:19.601.24-Feb-2020 3405.01 4215.18 56.88 3.00 191.44 2716.73
   01:29:19.801.24-Feb-2020 3405.01 4215.18 56.88 3.00 191.64 2716.73
   01:29:20.001.24-Feb-2020 3405.01 4215.20 56.88 3.00 191.84 2716.73
   01:29:20.201.24-Feb-2020 3405.01 4215.18 56.88 3.00 192.04 2716.73
   01:29:20.401.24-Feb-2020 3405.01 4215.18 56.88 3.00 192.24 2716.73
   01:29:20.601.24-Feb-2020 3405.01 4215.16 56.88 3.00 192.44 2716.73
   01:29:20.802.24-Feb-2020 3405.01 4215.23 56.88 3.00 192.64 2716.73
   01:29:21.002.24-Feb-2020 3405.01 4215.21 56.88 3.00 192.84 2716.73
   01:29:21.202.24-Feb-2020 3405.01 4215.44 56.88 3.00 193.04 2716.73
   01:29:21.402.24-Feb-2020 3405.01 4215.44 56.88 3.00 193.24 2716.73
   01:29:21.602.24-Feb-2020 3405.01 4215.12 56.88 3.00 193.44 2716.73
   01:29:21.802.24-Feb-2020 3405.01 4215.16 56.88 3.00 193.64 2716.73
   01:29:22.002.24-Feb-2020 3405.01 4215.19 56.88 3.00 193.84 2716.73
   01:29:22.202.24-Feb-2020 3405.01 4215.19 56.88 3.00 194.04 2716.73
   01:29:22.402.24-Feb-2020 3405.01 4215.19 56.88 3.00 194.24 2716.73
   01:29:22.602.24-Feb-2020 3405.01 4215.17 56.88 3.00 194.44 2716.73
   01:29:22.802.24-Feb-2020 3405.01 4215.16 56.88 3.00 194.64 2716.73
   01:29:23.002.24-Feb-2020 3405.01 4215.19 56.88 3.00 194.84 2716.73
   01:29:23.202.24-Feb-2020 3405.01 4215.18 56.88 3.00 195.04 2716.73
   01:29:23.402.24-Feb-2020 3405.01 4215.18 56.88 3.00 195.24 2716.73
   01:29:23.602.24-Feb-2020 3405.01 4215.19 56.88 3.00 195.44 2716.73
   01:29:23.802.24-Feb-2020 3405.01 4215.17 56.88 3.00 195.64 2716.73
   01:29:24.002.24-Feb-2020 3405.01 4215.22 56.88 3.00 195.84 2716.73
   01:29:24.202.24-Feb-2020 3405.01 4215.36 56.88 3.00 196.04 2716.73
   01:29:24.402.24-Feb-2020 3405.01 4215.36 56.88 3.00 196.24 2716.73
   01:29:24.602.24-Feb-2020 3405.01 4215.12 56.88 3.00 196.44 2716.73
   01:29:24.802.24-Feb-2020 3405.01 4215.17 56.88 3.00 196.64 2716.73
   01:29:25.002.24-Feb-2020 3405.01 4215.45 56.88 3.00 196.84 2716.73
   01:29:25.202.24-Feb-2020 3405.01 4215.10 56.88 3.00 197.04 2716.73
   01:29:25.402.24-Feb-2020 3405.01 4215.10 56.88 3.00 197.24 2716.73
   01:29:25.603.24-Feb-2020 3405.01 4215.23 56.88 3.00 197.44 2716.73
   01:29:25.803.24-Feb-2020 3405.01 4215.23 56.88 3.00 197.64 2716.73
   01:29:26.003.24-Feb-2020 3405.01 4215.18 56.88 3.00 197.84 2716.73
   01:29:26.203.24-Feb-2020 3405.01 4215.15 56.88 3.00 198.04 2716.73
   01:29:26.403.24-Feb-2020 3405.01 4215.15 56.88 3.00 198.24 2716.73
   01:29:26.603.24-Feb-2020 3405.01 4215.34 56.87 3.00 198.44 2716.73
   01:29:26.803.24-Feb-2020 3405.01 4215.13 56.87 3.00 198.64 2716.73
   01:29:27.003.24-Feb-2020 3405.01 4215.12 56.87 3.00 198.84 2716.73
   01:29:27.203.24-Feb-2020 3405.01 4215.35 56.87 3.00 199.04 2716.73
   01:29:27.403.24-Feb-2020 3405.01 4215.15 56.87 3.00 199.24 2716.73
   01:29:27.603.24-Feb-2020 3405.01 4215.10 56.87 3.00 199.44 2716.73
   01:29:27.803.24-Feb-2020 3405.01 4215.19 56.87 3.00 199.64 2716.73
   01:29:28.003.24-Feb-2020 3405.01 4215.25 56.87 3.00 199.84 2716.73
   01:29:28.203.24-Feb-2020 3405.01 4215.17 56.87 3.00 200.04 2716.73
   01:29:28.403.24-Feb-2020 3405.01 4215.17 56.87 3.00 200.24 2716.73
   01:29:28.603.24-Feb-2020 3405.01 4215.19 56.87 3.00 200.44 2716.73
   01:29:28.803.24-Feb-2020 3405.01 4215.18 56.87 3.00 200.64 2716.73
   01:29:29.003.24-Feb-2020 3405.01 4215.18 56.87 3.00 200.84 2716.73
   01:29:29.203.24-Feb-2020 3405.01 4215.17 56.87 3.00 201.04 2716.73
   01:29:29.403.24-Feb-2020 3405.01 4215.17 56.87 3.00 201.24 2716.73
   01:29:29.603.24-Feb-2020 3405.01 4215.17 56.87 3.00 201.44 2716.73
   01:29:29.803.24-Feb-2020 3405.01 4215.18 56.87 3.00 201.64 2716.73
   01:29:30.003.24-Feb-2020 3405.01 4215.19 56.87 3.00 201.84 2716.73
   01:29:30.203.24-Feb-2020 3405.01 4215.17 56.87 3.00 202.04 2716.73
   01:29:30.404.24-Feb-2020 3405.01 4215.17 56.87 3.00 202.24 2716.73
   01:29:30.604.24-Feb-2020 3405.01 4215.54 56.87 3.00 202.44 2716.73
   01:29:30.804.24-Feb-2020 3405.01 4215.21 56.87 3.00 202.64 2716.73
   01:29:31.004.24-Feb-2020 3405.01 4215.07 56.87 3.00 202.84 2716.73
   01:29:31.204.24-Feb-2020 3405.01 4215.18 56.87 3.00 203.04 2716.73
   01:29:31.404.24-Feb-2020 3405.01 4215.20 56.87 3.00 203.24 2716.73
   01:29:31.604.24-Feb-2020 3405.01 4215.16 56.87 3.00 203.44 2716.73
   01:29:31.804.24-Feb-2020 3405.01 4215.17 56.87 3.00 203.64 2716.73
   01:29:32.004.24-Feb-2020 3405.01 4215.17 56.87 3.00 203.84 2716.73
   01:29:32.204.24-Feb-2020 3405.01 4215.18 56.87 3.00 204.04 2716.73
   01:29:32.404.24-Feb-2020 3405.01 4215.18 56.87 3.00 204.24 2716.73
   01:29:32.604.24-Feb-2020 3405.01 4215.17 56.87 3.00 204.44 2716.73
   01:29:32.804.24-Feb-2020 3405.01 4215.18 56.87 3.00 204.64 2716.73
   01:29:33.004.24-Feb-2020 3405.01 4215.16 56.87 3.00 204.84 2716.73
   01:29:33.204.24-Feb-2020 3405.01 4215.20 56.87 3.00 205.04 2716.73
   01:29:33.404.24-Feb-2020 3405.01 4215.20 56.87 3.00 205.24 2716.73
   01:29:33.604.24-Feb-2020 3405.01 4215.36 56.87 3.00 205.44 2716.73
   01:29:33.804.24-Feb-2020 3405.01 4215.12 56.87 3.00 205.64 2716.73
   01:29:34.004.24-Feb-2020 3405.01 4215.12 56.87 3.00 205.84 2716.73
   01:29:34.204.24-Feb-2020 3405.01 4215.22 56.87 3.00 206.04 2716.73
   01:29:34.404.24-Feb-2020 3405.01 4215.22 56.87 3.00 206.24 2716.73
   01:29:34.604.24-Feb-2020 3405.01 4215.17 56.87 3.00 206.44 2716.73
   01:29:34.804.24-Feb-2020 3405.01 4215.08 56.87 3.00 206.64 2716.73
   01:29:35.004.24-Feb-2020 3405.01 4215.43 56.87 3.00 206.84 2716.73
