~Version Information
 VERS.                  2.0:   CWLS log ASCII Standard -VERSION 2.0
 WRAP.                   NO:   One line per depth step
~Well Information Block
#MNEM.UNIT     VALUE/NAME     DESCRIPTION
#---------     -----------    ---------------------------
 STRT.S             01:46:16 24-Feb-20: START TIME 01:46:16 24-Feb-20
 STOP.S             01:53:27 24-Feb-20: STOP TIME  01:53:27 24-Feb-20
 STEP.S                   0.00: STEP TIME
 NULL.                 -999.25: NULL VALUE
 JOBN.        AZ-XX-0905059384:  JOB TICKET NUMB
 PDAT.          Mean Sea Level:  PERMANENT DATUM
 UNIT.                     N/A:  LOGGING EQUIPMENT ID
 DCON.         Sperry Drilling:  DIRECTNL CONTR
 DOE .                     N/A:  DOE NUMBER
 RIG .             West Chirag:  RIG NAME
 WELL.                     J22:  WELL NAME
 MWDS.                    Baku:  MWD SHOP
 SRVC.     TURAN Drilling & Engineering:  CONTRACTOR
 FLD .                     ACG:  FIELD NAME
 CTRY.              Azerbaijan:  COUNTRY NAME
 PROV.                    Baku:  PROVINCE
 STAT.                    Baku:  STATE NAME
 REGN.                   EESSA:  REGION
 BASE.              Azerbaijan:  LOGGING EQUIPMENT BASE LOCATION
 UWI .                     N/A:  UNIQUE WELL IDENTIFIER
 API .                     N/A:  API NUMBER
 COMP.     BP Exploration (Caspian Sea) Ltd.:  COMPANY
 WTYP.                Deviated:  WELL TYPE
 MDS .        Operator Entered:  MAG DATA SOURCE
 SON .        AZ-XX-0905059384:  JOB NUMBER
 FTOP.          Formation Tops:  FORM TOPS DESC
 ILTD.               Lithology:  INTERP LTH DESC
 SVYD.                  Survey:  SURVEY DESC
 DMOD.             Drill Model:  DRILL MOD DESC
 HPTY.       Minimum Curvature:  HOLE POS TYPE
 NREF.                    Grid:  NORTH REFERENCE
 SPUD.               09-Jan-20:  SPUD DATE
 DATE.      14.04.48 07-Feb-20:  END TIME
 STIM.      07.00.00 09-Jan-20:  START TIME
 DMF .             Drill Floor:  DRILL MEAS FROM
 DFST.                        :  DIST FSL TEXT
 DFWT.                        :  DIST FWL TEXT
 CNTY.                        :  COUNTY
 LOC .                        :  LOCATION
 LMF .             Drill Floor:  LOG MEASURED FROM
 DEP .m                   0.00:  DEPTH
 VSNS.m                  10.28:  VERT SEC N/S
 VSEW.m                  -6.24:  VERT SEC E/W
 AGAP.m                  43.00:  AIR GAP
 APD .m                  43.00:  DEPTH ABOVE PD
 WDMS.m                 169.80:  WD ELEV
 EGL .m                   0.00:  GROUND ELEVATION
 EPD .m                   0.00:  ELEVATION
 AZTC.deg                 6.27:  AZM TOTAL CORR
 GRDC.deg                 0.15:  GRID CORRECTION
 MDEC.deg                 6.42:  MAGNETIC DECL
 MDIP.deg                59.56:  MAGNETIC DIP
 MFLD.nT              50277.00:  MAGNETIC FIELD
 GVFD.g                   1.00:  GRAVITY FIELD
 VSDR.deg               148.53:  VERT SEC DIRECT
 TDD .m                3473.01:  TOTAL DEPTH (DRILLER)
 SDEP.m                 364.00:  START DEPTH
 DFSL.m                   0.00:  DISTANCE FSL
 DFWL.m                   0.00:  DISTANCE FWL
 UTMY.m             4443793.85:  UTM Y
 UTMX.m              519005.06:  UTM X
 WHEW.m                  -6.24:  WELL HEAD E/W
 WHNS.m                  10.28:  WELL HEAD N/S
 LONG.deg                51.22:  LONGITUDE
 LATI.deg                40.13:  LATITUDE
 TVDS.m                  43.00:  TVDSS CORRECTN
 EKB .m                   0.00:  KB ELEVATION
 EDF .m                  43.00:  DF ELEVATION
 TDL .m                 254.00:  TOTAL DEPTH (LOGGER)
 MAGU.                 1850021:  MAGUTM CHECKSUM
 VSC .                       0:  VS TO CLOSURE
~Parameter Information Block
#MNEM.UNIT       Value        Description
#---------     -----------    ---------------------------
 AV  .mps                 0.50:  Ann Velocity 
 AVMX.mps                 1.40:  Max Ann Veloc 
 AZIF.deg               144.94:  Azm, Final 
 BHAT.        Rotary Steerable:  BHA Type 
 BROT.°/30m               0.23:  Build Rotating 
 BS  .in                  8.50:  Bit Size 
 BTPL.psig              264.00:  Bit Press Loss 
 CABU.                     Yes:  Customer Abuse 
 COMM.                     $æx:  Run Comments 1 
 TCS .hr                 87.30:  Time Ciculation Ended 
 CV  .mps                 2.45:  Crit Velocity 
 CVMX.mps                 2.74:  Max Crit Veloc 
 DD1 .             Aziz Aliyev:  Direct Drillr 1 
 DDSV.               Geo-Pilot:  DD Service 
 DEFF.%                 100.00:  % Det Eff 
 DLRX.°/30m               1.22:  Dogleg Rot Max 
 DLSO.°/30m               0.52:  Dogleg Oriented 
 DLSX.°/30m               1.22:  Dogleg Str Max 
 DRET.      12.59.00 23-Feb-20:  Drill End Time 
 DRST.      09.44.00 18-Feb-20:  Drill Start Tim 
 DTIM.hr                 23.03:  Time Drilling 
 EDEP.m                3473.01:  End Depth 
 ENG1.         Almaz Almadatov:  Engineer 1 
 ENG2.         Dair Mahammadov:  Engineer 2 
 ENG3.          Nazrin Asgarli:  Engineer 3 
 ETIM.      10.33.36 26-Feb-20:  End Time 
 FLOI.gpm               480.00:  Flow In 
 FLON.gpm               300.00:  Flow In Min 
 FLOS.cptm                1.00:  Fluid Loss 
 FLOX.gpm               550.00:  Flow In Max 
 HFLO.                      No:  High Flow 
 HPRE.                      No:  High Pressure 
 HTEM.                      No:  High Temp 
 HYDO.m                   1.80:  Hydro Offset 
 IFIN.deg                74.42:  Inc, Final 
 IMAX.deg                76.14:  Inc Max 
 IMIN.deg                74.42:  Inc Min 
 IMND.m                3462.72:  Inc Min Depth 
 IMXD.m                3235.69:  Inc Max Depth 
 JARR.                      No:  Jarring 
 LETM.      12.59.00 23-Feb-20:  Log End Time 
 LOST.hr                     0:  Lost Rig Time 
 LSTM.      09.44.00 18-Feb-20:  Log Start Time 
 MDCL.ppm             45000.00:  Mud Chlorides 
 MDES.     Inversion Oil/Synthetic:  Mud Desc 
 DFD .sg                  1.38:  Mud Density 
 MDMN.sg                  1.34:  Dens Mud Min 
 MDMX.sg                  1.49:  Dens Mud Max 
 MOIL.                      67:  Run Mud Oil % 
 MOWR.                   67:33:  Run Mud OWR 
 MSND.                    0.12:  Run Mud Sand % 
 MSOL.                      22:  Run Mud Solids% 
 DFV .spqt               81.00:  Mud Viscosity 
 MWOD.in                  6.75:  MWD Tool OD 
 MWSI.                      No:  Serv Intrp, MWD 
 OTIM.hr                231.44:  Time Operating 
 PCON.          Wear / Scratch:  Pad Condition 
 PMAX.psia             3400.00:  Press Op, Max 
 PV  .cP                 55.00:  Mud PV 
 RUN .                     800:  Run Number 
 ROPA.m/hr               12.00:  ROP Avg 
 ROPN.m/hr                5.00:  ROP Min 
 ROPX.m/hr               28.00:  ROP Max 
 RPMA.rpm               120.00:  RPM Surface Avg 
 RPMN.rpm                40.00:  RPM Surface Min 
 RPMX.rpm               130.00:  RPM Surface Max 
 RRUN.                    0800:  Rig Run Number 
 RTIM.hr                 45.00:  Time Reaming 
 SAZI.deg               145.38:  Azm, Start 
 SDEP.m                3219.01:  Start Depth 
 SIDD.                      No:  Serv Intrp, DD 
 SINC.deg                75.11:  Inc, Start 
 SPPA.psig             2400.00:  SPP Avg 
 SPPN.psig             2320.00:  SPP Min 
 SPPX.psig             3200.00:  SPP Max 
 STIM.      15.15.00 17-Feb-20:  Start Time 
 SVCS.                 DD, MWD:  Services 
 SVER.                    9.20:  Sperry Version 
 TDAT.m                 254.00:  Tot Depth Attmp 
 TDDF.                      No:  Trip for DD 
 TDLG.m                 254.00:  Tot Depth Loggd 
 TFF .                      No:  Trip for Fail 
 TQAA.f-kp               13.00:  Torque Abs Avg 
 TQAN.f-kp                7.00:  Torque Abs Min 
 TQAX.f-kp               15.00:  Torque Abs Max 
 TRRT.°/30m               0.21:  Turn Rotating 
 MRT .                  EWR-M5:  Maximum Recorded Temperature 
 TTMX.degC               64.00:  Max Tool Temp 
 VS01.                90586516:  Virtual Str1 SN 
 VS02.                90513691:  Virtual Str2 SN 
 VS03.                90586523:  Virtual Str3 SN 
 VS04.                90586520:  Virtual Str4 SN 
 VS05.                90590507:  Virtual Str5 SN 
 WBMN.klb                12.00:  WOB Min 
 WITN.           Rufat Babayev:  Customer Rep 2 
 WITN.         Alistair Sprott:  Customer Rep 
 WOBA.klb                18.00:  WOB Avg 
 WOBX.klb                30.00:  WOB Max 
 YP  .lhf2               41.00:  Yield Point 
~Curve Information Block
#MNEM.UNIT                 API CODE     Curve Description
#---------               -----------    ---------------------------
 TIME.HHMMSS            00 000 000 000:  GT Time & Date
 GTDEPTH.m              00 000 000 000:  GT Depth
 GTPQH.psia             00 000 000 000:  GT HR Quartz Pressure
 GTTQ.degC              00 000 000 000:  GT Quartz Temperature
 GTTN.NONE              00 000 000 000:  GT Test Number
 GTET.sec               00 000 000 000:  GT Elapsed Test Time
 GTTVD.m                00 000 000 000:  GT True Vertical Depth
#Other Information
#
#WARRANTY: Halliburton will use its best efforts to furnish customers with 
#accurate information and interpretations that are part of, and incident to, the services 
#provided.  However, Halliburton cannot and does not warrant the accuracy 
#or correctness of such information and interpretations.  Under no circumstances should any 
#such information or interpretation be relied upon as the sole basis for any drilling, 
#completion, production, or financial decision or any procedure involving any risk to the 
#safety of any drilling venture, drilling rig or its crew or any other third party.  The 
#Customer has full responsibility for all drilling, completion and production operation.  
#Halliburton makes no representations or warranties, either expressed or 
#implied, including, but not limited to, the implied warranties of merchantability or fitness 
#for a particular purpose, with respect to the services rendered.  In no event will 
#Halliburton be liable for failure to obtain any particular results or for 
#any damages, including, but not limited to, indirect, special or consequential damages, 
#resulting from the use of any information or interpretation provided by Halliburton.
#
~A           TIME           GTDEPTH  GTPQH  GTTQ  GTTN  GTET   GTTVD  
# ...
   01:52:24.490.24-Feb-2020 3392.01 4211.44 55.83 4.00 368.08 2713.39
   01:52:24.690.24-Feb-2020 3392.01 4211.44 55.83 4.00 368.28 2713.39
   01:52:24.890.24-Feb-2020 3392.01 4211.53 55.83 4.00 368.48 2713.39
   01:52:25.090.24-Feb-2020 3392.01 4211.52 55.83 4.00 368.68 2713.39
   01:52:25.290.24-Feb-2020 3392.01 4211.54 55.83 4.00 368.88 2713.39
   01:52:25.490.24-Feb-2020 3392.01 4211.52 55.83 4.00 369.08 2713.39
   01:52:25.690.24-Feb-2020 3392.01 4211.52 55.83 4.00 369.28 2713.39
   01:52:25.890.24-Feb-2020 3392.01 4211.51 55.83 4.00 369.48 2713.39
   01:52:26.090.24-Feb-2020 3392.01 4211.54 55.83 4.00 369.68 2713.39
   01:52:26.290.24-Feb-2020 3392.01 4211.55 55.83 4.00 369.88 2713.39
   01:52:26.490.24-Feb-2020 3392.01 4211.52 55.83 4.00 370.08 2713.39
   01:52:26.690.24-Feb-2020 3392.01 4211.52 55.83 4.00 370.28 2713.39
   01:52:26.891.24-Feb-2020 3392.01 4211.65 55.83 4.00 370.48 2713.39
   01:52:27.091.24-Feb-2020 3392.01 4211.51 55.83 4.00 370.68 2713.39
   01:52:27.291.24-Feb-2020 3392.01 4211.51 55.83 4.00 370.88 2713.39
   01:52:27.491.24-Feb-2020 3392.01 4211.51 55.83 4.00 371.08 2713.39
   01:52:27.691.24-Feb-2020 3392.01 4211.51 55.83 4.00 371.28 2713.39
   01:52:27.891.24-Feb-2020 3392.01 4211.46 55.83 4.00 371.48 2713.39
   01:52:28.091.24-Feb-2020 3392.01 4211.52 55.83 4.00 371.68 2713.39
   01:52:28.291.24-Feb-2020 3392.01 4211.57 55.83 4.00 371.88 2713.39
   01:52:28.491.24-Feb-2020 3392.01 4211.53 55.83 4.00 372.08 2713.39
   01:52:28.691.24-Feb-2020 3392.01 4211.53 55.83 4.00 372.28 2713.39
   01:52:28.891.24-Feb-2020 3392.01 4211.54 55.83 4.00 372.48 2713.39
   01:52:29.091.24-Feb-2020 3392.01 4211.53 55.83 4.00 372.68 2713.39
   01:52:29.291.24-Feb-2020 3392.01 4211.53 55.83 4.00 372.88 2713.39
   01:52:29.491.24-Feb-2020 3392.01 4211.54 55.83 4.00 373.08 2713.39
   01:52:29.691.24-Feb-2020 3392.01 4211.54 55.83 4.00 373.28 2713.39
   01:52:29.891.24-Feb-2020 3392.01 4211.53 55.83 4.00 373.48 2713.39
   01:52:30.091.24-Feb-2020 3392.01 4211.54 55.83 4.00 373.68 2713.39
   01:52:30.291.24-Feb-2020 3392.01 4211.55 55.83 4.00 373.88 2713.39
   01:52:30.491.24-Feb-2020 3392.01 4213.50 55.83 4.00 374.08 2713.39
   01:52:30.691.24-Feb-2020 3392.01 4214.82 55.83 4.00 374.28 2713.39
   01:52:30.891.24-Feb-2020 3392.01 4570.51 55.83 4.00 374.48 2713.39
   01:52:31.091.24-Feb-2020 3392.01 5713.24 55.83 4.00 374.68 2713.39
   01:52:31.291.24-Feb-2020 3392.01 5710.96 55.83 4.00 374.88 2713.39
   01:52:31.491.24-Feb-2020 3392.01 5710.51 55.83 4.00 375.08 2713.39
   01:52:31.692.24-Feb-2020 3392.01 5710.51 55.83 4.00 375.28 2713.39
   01:52:31.892.24-Feb-2020 3392.01 5709.39 55.83 4.00 375.48 2713.39
   01:52:32.092.24-Feb-2020 3392.01 5710.59 55.83 4.00 375.68 2713.39
   01:52:32.292.24-Feb-2020 3392.01 5710.62 55.83 4.00 375.88 2713.39
   01:52:32.492.24-Feb-2020 3392.01 5710.80 55.83 4.00 376.08 2713.39
   01:52:32.692.24-Feb-2020 3392.01 5710.80 55.83 4.00 376.28 2713.39
   01:52:32.892.24-Feb-2020 3392.01 5711.90 55.84 4.00 376.48 2713.39
   01:52:33.092.24-Feb-2020 3392.01 5711.02 55.84 4.00 376.68 2713.39
   01:52:33.292.24-Feb-2020 3392.01 5710.49 55.84 4.00 376.88 2713.39
   01:52:33.492.24-Feb-2020 3392.01 5712.22 55.84 4.00 377.08 2713.39
   01:52:33.692.24-Feb-2020 3392.01 5712.22 55.84 4.00 377.28 2713.39
   01:52:33.892.24-Feb-2020 3392.01 5713.51 55.84 4.00 377.48 2713.39
   01:52:34.092.24-Feb-2020 3392.01 5715.30 55.84 4.00 377.68 2713.39
   01:52:34.292.24-Feb-2020 3392.01 5712.83 55.84 4.00 377.88 2713.39
   01:52:34.492.24-Feb-2020 3392.01 5712.78 55.84 4.00 378.08 2713.39
   01:52:34.692.24-Feb-2020 3392.01 5712.93 55.84 4.00 378.28 2713.39
   01:52:34.892.24-Feb-2020 3392.01 5717.72 55.85 4.00 378.48 2713.39
   01:52:35.092.24-Feb-2020 3392.01 5709.17 55.85 4.00 378.68 2713.39
   01:52:35.292.24-Feb-2020 3392.01 5714.19 55.85 4.00 378.88 2713.39
   01:52:35.492.24-Feb-2020 3392.01 5714.28 55.85 4.00 379.08 2713.39
   01:52:35.692.24-Feb-2020 3392.01 5712.11 55.85 4.00 379.28 2713.39
   01:52:35.892.24-Feb-2020 3392.01 5713.22 55.85 4.00 379.48 2713.39
   01:52:36.092.24-Feb-2020 3392.01 5712.94 55.85 4.00 379.68 2713.39
   01:52:36.292.24-Feb-2020 3392.01 5716.49 55.85 4.00 379.88 2713.39
   01:52:36.493.24-Feb-2020 3392.01 5711.08 55.85 4.00 380.08 2713.39
   01:52:36.693.24-Feb-2020 3392.01 5716.94 55.85 4.00 380.28 2713.39
   01:52:36.893.24-Feb-2020 3392.01 5714.62 55.85 4.00 380.48 2713.39
   01:52:37.093.24-Feb-2020 3392.01 5714.37 55.85 4.00 380.68 2713.39
   01:52:37.293.24-Feb-2020 3392.01 5714.16 55.85 4.00 380.88 2713.39
   01:52:37.493.24-Feb-2020 3392.01 5715.97 55.86 4.00 381.08 2713.39
   01:52:37.693.24-Feb-2020 3392.01 5716.62 55.86 4.00 381.28 2713.39
   01:52:37.893.24-Feb-2020 3392.01 5712.67 55.86 4.00 381.48 2713.39
   01:52:38.093.24-Feb-2020 3392.01 5714.61 55.86 4.00 381.68 2713.39
   01:52:38.293.24-Feb-2020 3392.01 5713.93 55.86 4.00 381.88 2713.39
   01:52:38.493.24-Feb-2020 3392.01 5713.20 55.86 4.00 382.08 2713.39
   01:52:38.693.24-Feb-2020 3392.01 5713.20 55.86 4.00 382.28 2713.39
   01:52:38.893.24-Feb-2020 3392.01 5713.20 55.86 4.00 382.48 2713.39
   01:52:39.093.24-Feb-2020 3392.01 5713.37 55.86 4.00 382.68 2713.39
   01:52:39.293.24-Feb-2020 3392.01 5713.34 55.86 4.00 382.88 2713.39
   01:52:39.493.24-Feb-2020 3392.01 5713.21 55.86 4.00 383.08 2713.39
   01:52:39.693.24-Feb-2020 3392.01 5713.41 55.86 4.00 383.28 2713.39
   01:52:39.893.24-Feb-2020 3392.01 5713.67 55.86 4.00 383.48 2713.39
   01:52:40.093.24-Feb-2020 3392.01 5714.35 55.86 4.00 383.68 2713.39
   01:52:40.293.24-Feb-2020 3392.01 5714.58 55.86 4.00 383.88 2713.39
   01:52:40.493.24-Feb-2020 3392.01 5716.03 55.86 4.00 384.08 2713.39
   01:52:40.693.24-Feb-2020 3392.01 5713.87 55.86 4.00 384.28 2713.39
   01:52:40.893.24-Feb-2020 3392.01 5714.29 55.86 4.00 384.48 2713.39
   01:52:41.093.24-Feb-2020 3392.01 5714.40 55.86 4.00 384.68 2713.39
   01:52:41.294.24-Feb-2020 3392.01 5714.50 55.86 4.00 384.88 2713.39
   01:52:41.494.24-Feb-2020 3392.01 5712.93 55.86 4.00 385.08 2713.39
   01:52:41.694.24-Feb-2020 3392.01 5712.93 55.86 4.00 385.28 2713.39
   01:52:41.894.24-Feb-2020 3392.01 5712.92 55.86 4.00 385.48 2713.39
   01:52:42.094.24-Feb-2020 3392.01 5712.78 55.86 4.00 385.68 2713.39
   01:52:42.294.24-Feb-2020 3392.01 5713.76 55.86 4.00 385.88 2713.39
   01:52:42.494.24-Feb-2020 3392.01 5713.90 55.86 4.00 386.08 2713.39
   01:52:42.694.24-Feb-2020 3392.01 5713.39 55.86 4.00 386.28 2713.39
   01:52:42.894.24-Feb-2020 3392.01 5712.09 55.86 4.00 386.48 2713.39
   01:52:43.094.24-Feb-2020 3392.01 5712.81 55.86 4.00 386.68 2713.39
   01:52:43.294.24-Feb-2020 3392.01 5713.84 55.86 4.00 386.88 2713.39
   01:52:43.494.24-Feb-2020 3392.01 5713.94 55.86 4.00 387.08 2713.39
   01:52:43.694.24-Feb-2020 3392.01 5713.94 55.86 4.00 387.28 2713.39
   01:52:43.894.24-Feb-2020 3392.01 5715.25 55.86 4.00 387.48 2713.39
   01:52:44.094.24-Feb-2020 3392.01 5713.85 55.86 4.00 387.68 2713.39
   01:52:44.294.24-Feb-2020 3392.01 5713.02 55.86 4.00 387.88 2713.39
   01:52:44.494.24-Feb-2020 3392.01 5713.43 55.86 4.00 388.08 2713.39
   01:52:44.694.24-Feb-2020 3392.01 5713.43 55.86 4.00 388.28 2713.39
   01:52:44.894.24-Feb-2020 3392.01 5715.17 55.86 4.00 388.48 2713.39
   01:52:45.094.24-Feb-2020 3392.01 5715.91 55.86 4.00 388.68 2713.39
   01:52:45.294.24-Feb-2020 3392.01 5712.41 55.86 4.00 388.88 2713.39
   01:52:45.494.24-Feb-2020 3392.01 5713.92 55.86 4.00 389.08 2713.39
   01:52:45.694.24-Feb-2020 3392.01 5713.92 55.86 4.00 389.28 2713.39
   01:52:45.894.24-Feb-2020 3392.01 5713.37 55.86 4.00 389.48 2713.39
   01:52:46.095.24-Feb-2020 3392.01 5716.09 55.86 4.00 389.68 2713.39
   01:52:46.295.24-Feb-2020 3392.01 5716.67 55.86 4.00 389.88 2713.39
   01:52:46.495.24-Feb-2020 3392.01 5713.56 55.86 4.00 390.08 2713.39
   01:52:46.695.24-Feb-2020 3392.01 5715.41 55.86 4.00 390.28 2713.39
   01:52:46.895.24-Feb-2020 3392.01 5716.01 55.86 4.00 390.48 2713.39
   01:52:47.095.24-Feb-2020 3392.01 5716.09 55.86 4.00 390.68 2713.39
   01:52:47.295.24-Feb-2020 3392.01 5713.22 55.86 4.00 390.88 2713.39
