~Version Information
 VERS.                  2.0:   CWLS log ASCII Standard -VERSION 2.0
 WRAP.                   NO:   One line per depth step
~Well Information Block
#MNEM.UNIT     VALUE/NAME     DESCRIPTION
#---------     -----------    ---------------------------
 STRT.S             00:23:32 24-Feb-20: START TIME 00:23:32 24-Feb-20
 STOP.S             00:30:40 24-Feb-20: STOP TIME  00:30:40 24-Feb-20
 STEP.S                   0.00: STEP TIME
 NULL.                 -999.25: NULL VALUE
 JOBN.        AZ-XX-0905059384:  JOB TICKET NUMB
 PDAT.          Mean Sea Level:  PERMANENT DATUM
 UNIT.                     N/A:  LOGGING EQUIPMENT ID
 DCON.         Sperry Drilling:  DIRECTNL CONTR
 DOE .                     N/A:  DOE NUMBER
 RIG .             West Chirag:  RIG NAME
 WELL.                     J22:  WELL NAME
 MWDS.                    Baku:  MWD SHOP
 SRVC.     TURAN Drilling & Engineering:  CONTRACTOR
 FLD .                     ACG:  FIELD NAME
 CTRY.              Azerbaijan:  COUNTRY NAME
 PROV.                    Baku:  PROVINCE
 STAT.                    Baku:  STATE NAME
 REGN.                   EESSA:  REGION
 BASE.              Azerbaijan:  LOGGING EQUIPMENT BASE LOCATION
 UWI .                     N/A:  UNIQUE WELL IDENTIFIER
 API .                     N/A:  API NUMBER
 COMP.     BP Exploration (Caspian Sea) Ltd.:  COMPANY
 WTYP.                Deviated:  WELL TYPE
 MDS .        Operator Entered:  MAG DATA SOURCE
 SON .        AZ-XX-0905059384:  JOB NUMBER
 FTOP.          Formation Tops:  FORM TOPS DESC
 ILTD.               Lithology:  INTERP LTH DESC
 SVYD.                  Survey:  SURVEY DESC
 DMOD.             Drill Model:  DRILL MOD DESC
 HPTY.       Minimum Curvature:  HOLE POS TYPE
 NREF.                    Grid:  NORTH REFERENCE
 SPUD.               09-Jan-20:  SPUD DATE
 DATE.      14.04.48 07-Feb-20:  END TIME
 STIM.      07.00.00 09-Jan-20:  START TIME
 DMF .             Drill Floor:  DRILL MEAS FROM
 DFST.                        :  DIST FSL TEXT
 DFWT.                        :  DIST FWL TEXT
 CNTY.                        :  COUNTY
 LOC .                        :  LOCATION
 LMF .             Drill Floor:  LOG MEASURED FROM
 DEP .m                   0.00:  DEPTH
 VSNS.m                  10.28:  VERT SEC N/S
 VSEW.m                  -6.24:  VERT SEC E/W
 AGAP.m                  43.00:  AIR GAP
 APD .m                  43.00:  DEPTH ABOVE PD
 WDMS.m                 169.80:  WD ELEV
 EGL .m                   0.00:  GROUND ELEVATION
 EPD .m                   0.00:  ELEVATION
 AZTC.deg                 6.27:  AZM TOTAL CORR
 GRDC.deg                 0.15:  GRID CORRECTION
 MDEC.deg                 6.42:  MAGNETIC DECL
 MDIP.deg                59.56:  MAGNETIC DIP
 MFLD.nT              50277.00:  MAGNETIC FIELD
 GVFD.g                   1.00:  GRAVITY FIELD
 VSDR.deg               148.53:  VERT SEC DIRECT
 TDD .m                3473.01:  TOTAL DEPTH (DRILLER)
 SDEP.m                 364.00:  START DEPTH
 DFSL.m                   0.00:  DISTANCE FSL
 DFWL.m                   0.00:  DISTANCE FWL
 UTMY.m             4443793.85:  UTM Y
 UTMX.m              519005.06:  UTM X
 WHEW.m                  -6.24:  WELL HEAD E/W
 WHNS.m                  10.28:  WELL HEAD N/S
 LONG.deg                51.22:  LONGITUDE
 LATI.deg                40.13:  LATITUDE
 TVDS.m                  43.00:  TVDSS CORRECTN
 EKB .m                   0.00:  KB ELEVATION
 EDF .m                  43.00:  DF ELEVATION
 TDL .m                 254.00:  TOTAL DEPTH (LOGGER)
 MAGU.                 1850021:  MAGUTM CHECKSUM
 VSC .                       0:  VS TO CLOSURE
~Parameter Information Block
#MNEM.UNIT       Value        Description
#---------     -----------    ---------------------------
 AV  .mps                 0.50:  Ann Velocity 
 AVMX.mps                 1.40:  Max Ann Veloc 
 AZIF.deg               144.94:  Azm, Final 
 BHAT.        Rotary Steerable:  BHA Type 
 BROT.∞/30m               0.23:  Build Rotating 
 BS  .in                  8.50:  Bit Size 
 BTPL.psig              264.00:  Bit Press Loss 
 CABU.                     Yes:  Customer Abuse 
 COMM.                     ÙP`:  Run Comments 1 
 TCS .hr                 87.30:  Time Ciculation Ended 
 CV  .mps                 2.45:  Crit Velocity 
 CVMX.mps                 2.74:  Max Crit Veloc 
 DD1 .             Aziz Aliyev:  Direct Drillr 1 
 DDSV.               Geo-Pilot:  DD Service 
 DEFF.%                 100.00:  % Det Eff 
 DLRX.∞/30m               1.22:  Dogleg Rot Max 
 DLSO.∞/30m               0.52:  Dogleg Oriented 
 DLSX.∞/30m               1.22:  Dogleg Str Max 
 DRET.      12.59.00 23-Feb-20:  Drill End Time 
 DRST.      09.44.00 18-Feb-20:  Drill Start Tim 
 DTIM.hr                 23.03:  Time Drilling 
 EDEP.m                3473.01:  End Depth 
 ENG1.         Almaz Almadatov:  Engineer 1 
 ENG2.         Dair Mahammadov:  Engineer 2 
 ENG3.          Nazrin Asgarli:  Engineer 3 
 ETIM.      10.33.36 26-Feb-20:  End Time 
 FLOI.gpm               480.00:  Flow In 
 FLON.gpm               300.00:  Flow In Min 
 FLOS.cptm                1.00:  Fluid Loss 
 FLOX.gpm               550.00:  Flow In Max 
 HFLO.                      No:  High Flow 
 HPRE.                      No:  High Pressure 
 HTEM.                      No:  High Temp 
 HYDO.m                   1.80:  Hydro Offset 
 IFIN.deg                74.42:  Inc, Final 
 IMAX.deg                76.14:  Inc Max 
 IMIN.deg                74.42:  Inc Min 
 IMND.m                3462.72:  Inc Min Depth 
 IMXD.m                3235.69:  Inc Max Depth 
 JARR.                      No:  Jarring 
 LETM.      12.59.00 23-Feb-20:  Log End Time 
 LOST.hr                     0:  Lost Rig Time 
 LSTM.      09.44.00 18-Feb-20:  Log Start Time 
 MDCL.ppm             45000.00:  Mud Chlorides 
 MDES.     Inversion Oil/Synthetic:  Mud Desc 
 DFD .sg                  1.38:  Mud Density 
 MDMN.sg                  1.34:  Dens Mud Min 
 MDMX.sg                  1.49:  Dens Mud Max 
 MOIL.                      67:  Run Mud Oil % 
 MOWR.                   67:33:  Run Mud OWR 
 MSND.                    0.12:  Run Mud Sand % 
 MSOL.                      22:  Run Mud Solids% 
 DFV .spqt               81.00:  Mud Viscosity 
 MWOD.in                  6.75:  MWD Tool OD 
 MWSI.                      No:  Serv Intrp, MWD 
 OTIM.hr                231.44:  Time Operating 
 PCON.          Wear / Scratch:  Pad Condition 
 PMAX.psia             3400.00:  Press Op, Max 
 PV  .cP                 55.00:  Mud PV 
 RUN .                     800:  Run Number 
 ROPA.m/hr               12.00:  ROP Avg 
 ROPN.m/hr                5.00:  ROP Min 
 ROPX.m/hr               28.00:  ROP Max 
 RPMA.rpm               120.00:  RPM Surface Avg 
 RPMN.rpm                40.00:  RPM Surface Min 
 RPMX.rpm               130.00:  RPM Surface Max 
 RRUN.                    0800:  Rig Run Number 
 RTIM.hr                 45.00:  Time Reaming 
 SAZI.deg               145.38:  Azm, Start 
 SDEP.m                3219.01:  Start Depth 
 SIDD.                      No:  Serv Intrp, DD 
 SINC.deg                75.11:  Inc, Start 
 SPPA.psig             2400.00:  SPP Avg 
 SPPN.psig             2320.00:  SPP Min 
 SPPX.psig             3200.00:  SPP Max 
 STIM.      15.15.00 17-Feb-20:  Start Time 
 SVCS.                 DD, MWD:  Services 
 SVER.                    9.20:  Sperry Version 
 TDAT.m                 254.00:  Tot Depth Attmp 
 TDDF.                      No:  Trip for DD 
 TDLG.m                 254.00:  Tot Depth Loggd 
 TFF .                      No:  Trip for Fail 
 TQAA.f-kp               13.00:  Torque Abs Avg 
 TQAN.f-kp                7.00:  Torque Abs Min 
 TQAX.f-kp               15.00:  Torque Abs Max 
 TRRT.∞/30m               0.21:  Turn Rotating 
 MRT .                  EWR-M5:  Maximum Recorded Temperature 
 TTMX.degC               64.00:  Max Tool Temp 
 VS01.                90586516:  Virtual Str1 SN 
 VS02.                90513691:  Virtual Str2 SN 
 VS03.                90586523:  Virtual Str3 SN 
 VS04.                90586520:  Virtual Str4 SN 
 VS05.                90590507:  Virtual Str5 SN 
 WBMN.klb                12.00:  WOB Min 
 WITN.           Rufat Babayev:  Customer Rep 2 
 WITN.         Alistair Sprott:  Customer Rep 
 WOBA.klb                18.00:  WOB Avg 
 WOBX.klb                30.00:  WOB Max 
 YP  .lhf2               41.00:  Yield Point 
~Curve Information Block
#MNEM.UNIT                 API CODE     Curve Description
#---------               -----------    ---------------------------
 TIME.HHMMSS            00 000 000 000:  GT Time & Date
 GTDEPTH.m              00 000 000 000:  GT Depth
 GTPQH.psia             00 000 000 000:  GT HR Quartz Pressure
 GTTQ.degC              00 000 000 000:  GT Quartz Temperature
 GTTN.NONE              00 000 000 000:  GT Test Number
 GTET.sec               00 000 000 000:  GT Elapsed Test Time
 GTTVD.m                00 000 000 000:  GT True Vertical Depth
#Other Information
#
#WARRANTY: Halliburton will use its best efforts to furnish customers with 
#accurate information and interpretations that are part of, and incident to, the services 
#provided.  However, Halliburton cannot and does not warrant the accuracy 
#or correctness of such information and interpretations.  Under no circumstances should any 
#such information or interpretation be relied upon as the sole basis for any drilling, 
#completion, production, or financial decision or any procedure involving any risk to the 
#safety of any drilling venture, drilling rig or its crew or any other third party.  The 
#Customer has full responsibility for all drilling, completion and production operation.  
#Halliburton makes no representations or warranties, either expressed or 
#implied, including, but not limited to, the implied warranties of merchantability or fitness 
#for a particular purpose, with respect to the services rendered.  In no event will 
#Halliburton be liable for failure to obtain any particular results or for 
#any damages, including, but not limited to, indirect, special or consequential damages, 
#resulting from the use of any information or interpretation provided by Halliburton.
#
~A           TIME           GTDEPTH  GTPQH  GTTQ  GTTN  GTET   GTTVD  
# ...
   00:26:13.675.24-Feb-2020 3430.51 2855.43 56.38 2.00 161.02 2723.35
   00:26:13.875.24-Feb-2020 3430.51 2855.43 56.37 2.00 161.22 2723.35
   00:26:14.075.24-Feb-2020 3430.51 2861.79 56.37 2.00 161.42 2723.35
   00:26:14.275.24-Feb-2020 3430.51 2875.55 56.37 2.00 161.62 2723.35
   00:26:14.475.24-Feb-2020 3430.51 2878.03 56.37 2.00 161.82 2723.35
   00:26:14.675.24-Feb-2020 3430.51 2886.20 56.37 2.00 162.02 2723.35
   00:26:14.875.24-Feb-2020 3430.51 2886.20 56.37 2.00 162.22 2723.35
   00:26:15.075.24-Feb-2020 3430.51 2911.21 56.37 2.00 162.42 2723.35
   00:26:15.275.24-Feb-2020 3430.51 2910.50 56.37 2.00 162.62 2723.35
   00:26:15.475.24-Feb-2020 3430.51 2920.26 56.37 2.00 162.82 2723.35
   00:26:15.675.24-Feb-2020 3430.51 2918.97 56.37 2.00 163.02 2723.35
   00:26:15.875.24-Feb-2020 3430.51 2911.44 56.37 2.00 163.22 2723.35
   00:26:16.075.24-Feb-2020 3430.51 2905.18 56.37 2.00 163.42 2723.35
   00:26:16.276.24-Feb-2020 3430.51 2905.21 56.37 2.00 163.62 2723.35
   00:26:16.476.24-Feb-2020 3430.51 2905.23 56.37 2.00 163.82 2723.35
   00:26:16.676.24-Feb-2020 3430.51 2904.14 56.36 2.00 164.02 2723.35
   00:26:16.876.24-Feb-2020 3430.51 2904.14 56.36 2.00 164.22 2723.35
   00:26:17.076.24-Feb-2020 3430.51 2903.02 56.36 2.00 164.42 2723.35
   00:26:17.276.24-Feb-2020 3430.51 2899.25 56.36 2.00 164.62 2723.35
   00:26:17.476.24-Feb-2020 3430.51 2900.11 56.36 2.00 164.82 2723.35
   00:26:17.676.24-Feb-2020 3430.51 2900.63 56.36 2.00 165.02 2723.35
   00:26:17.876.24-Feb-2020 3430.51 2900.63 56.36 2.00 165.22 2723.35
   00:26:18.076.24-Feb-2020 3430.51 2906.67 56.36 2.00 165.42 2723.35
   00:26:18.276.24-Feb-2020 3430.51 2910.87 56.36 2.00 165.62 2723.35
   00:26:18.476.24-Feb-2020 3430.51 2919.92 56.36 2.00 165.82 2723.35
   00:26:18.676.24-Feb-2020 3430.51 2925.85 56.36 2.00 166.02 2723.35
   00:26:18.876.24-Feb-2020 3430.51 2925.85 56.36 2.00 166.22 2723.35
   00:26:19.076.24-Feb-2020 3430.51 2920.46 56.36 2.00 166.42 2723.35
   00:26:19.276.24-Feb-2020 3430.51 2918.35 56.36 2.00 166.62 2723.35
   00:26:19.476.24-Feb-2020 3430.51 2917.27 56.36 2.00 166.82 2723.35
   00:26:19.676.24-Feb-2020 3430.51 2919.48 56.36 2.00 167.02 2723.35
   00:26:19.876.24-Feb-2020 3430.51 3242.09 56.36 2.00 167.22 2723.35
   00:26:20.076.24-Feb-2020 3430.51 3574.93 56.36 2.00 167.42 2723.35
   00:26:20.276.24-Feb-2020 3430.51 3805.54 56.36 2.00 167.62 2723.35
   00:26:20.476.24-Feb-2020 3430.51 3955.16 56.36 2.00 167.82 2723.35
   00:26:20.676.24-Feb-2020 3430.51 4046.12 56.36 2.00 168.02 2723.35
   00:26:20.876.24-Feb-2020 3430.51 4046.12 56.36 2.00 168.22 2723.35
   00:26:21.076.24-Feb-2020 3430.51 4140.13 56.36 2.00 168.42 2723.35
   00:26:21.276.24-Feb-2020 3430.51 4164.61 56.36 2.00 168.62 2723.35
   00:26:21.476.24-Feb-2020 3430.51 4179.34 56.36 2.00 168.82 2723.35
   00:26:21.676.24-Feb-2020 3430.51 4190.19 56.36 2.00 169.02 2723.35
   00:26:21.876.24-Feb-2020 3430.51 4190.19 56.36 2.00 169.22 2723.35
   00:26:22.076.24-Feb-2020 3430.51 4201.74 56.36 2.00 169.42 2723.35
   00:26:22.276.24-Feb-2020 3430.51 4204.58 56.36 2.00 169.62 2723.35
   00:26:22.476.24-Feb-2020 3430.51 4208.55 56.36 2.00 169.82 2723.35
   00:26:22.676.24-Feb-2020 3430.51 4210.71 56.36 2.00 170.02 2723.35
   00:26:22.876.24-Feb-2020 3430.51 4210.71 56.36 2.00 170.22 2723.35
   00:26:23.076.24-Feb-2020 3430.51 4211.93 56.37 2.00 170.42 2723.35
   00:26:23.276.24-Feb-2020 3430.51 4212.59 56.37 2.00 170.62 2723.35
   00:26:23.476.24-Feb-2020 3430.51 4213.17 56.37 2.00 170.82 2723.35
   00:26:23.676.24-Feb-2020 3430.51 4213.64 56.37 2.00 171.02 2723.35
   00:26:23.876.24-Feb-2020 3430.51 4213.99 56.37 2.00 171.22 2723.35
   00:26:24.076.24-Feb-2020 3430.51 4214.46 56.37 2.00 171.42 2723.35
   00:26:24.276.24-Feb-2020 3430.51 4214.77 56.37 2.00 171.62 2723.35
   00:26:24.476.24-Feb-2020 3430.51 4215.04 56.37 2.00 171.82 2723.35
   00:26:24.676.24-Feb-2020 3430.51 4215.32 56.37 2.00 172.02 2723.35
   00:26:24.876.24-Feb-2020 3430.51 4215.32 56.37 2.00 172.22 2723.35
   00:26:25.077.24-Feb-2020 3430.51 4215.42 56.37 2.00 172.42 2723.35
   00:26:25.277.24-Feb-2020 3430.51 4215.34 56.37 2.00 172.62 2723.35
   00:26:25.477.24-Feb-2020 3430.51 4217.14 56.37 2.00 172.82 2723.35
   00:26:25.677.24-Feb-2020 3430.51 4217.78 56.38 2.00 173.02 2723.35
   00:26:25.877.24-Feb-2020 3430.51 4217.78 56.38 2.00 173.22 2723.35
   00:26:26.077.24-Feb-2020 3430.51 4217.31 56.38 2.00 173.42 2723.35
   00:26:26.277.24-Feb-2020 3430.51 4217.60 56.38 2.00 173.62 2723.35
   00:26:26.477.24-Feb-2020 3430.51 4217.48 56.38 2.00 173.82 2723.35
   00:26:26.677.24-Feb-2020 3430.51 4217.34 56.38 2.00 174.02 2723.35
   00:26:26.877.24-Feb-2020 3430.51 4217.34 56.38 2.00 174.22 2723.35
   00:26:27.077.24-Feb-2020 3430.51 4216.99 56.38 2.00 174.42 2723.35
   00:26:27.277.24-Feb-2020 3430.51 4216.85 56.38 2.00 174.62 2723.35
   00:26:27.477.24-Feb-2020 3430.51 4216.89 56.38 2.00 174.82 2723.35
   00:26:27.677.24-Feb-2020 3430.51 4217.12 56.38 2.00 175.02 2723.35
   00:26:27.877.24-Feb-2020 3430.51 4217.12 56.38 2.00 175.22 2723.35
   00:26:28.077.24-Feb-2020 3430.51 4217.32 56.38 2.00 175.42 2723.35
   00:26:28.277.24-Feb-2020 3430.51 4217.44 56.38 2.00 175.62 2723.35
   00:26:28.477.24-Feb-2020 3430.51 4217.12 56.38 2.00 175.82 2723.35
   00:26:28.677.24-Feb-2020 3430.51 4217.54 56.38 2.00 176.02 2723.35
   00:26:28.877.24-Feb-2020 3430.51 4217.54 56.38 2.00 176.22 2723.35
   00:26:29.077.24-Feb-2020 3430.51 4220.99 56.38 2.00 176.42 2723.35
   00:26:29.277.24-Feb-2020 3430.51 4220.31 56.38 2.00 176.62 2723.35
   00:26:29.477.24-Feb-2020 3430.51 4218.54 56.38 2.00 176.82 2723.35
   00:26:29.677.24-Feb-2020 3430.51 4221.37 56.39 2.00 177.02 2723.35
   00:26:29.877.24-Feb-2020 3430.51 4221.37 56.39 2.00 177.22 2723.35
   00:26:30.077.24-Feb-2020 3430.51 4220.00 56.39 2.00 177.42 2723.35
   00:26:30.277.24-Feb-2020 3430.51 4219.21 56.39 2.00 177.62 2723.35
   00:26:30.477.24-Feb-2020 3430.51 4218.57 56.39 2.00 177.82 2723.35
   00:26:30.677.24-Feb-2020 3430.51 4218.23 56.39 2.00 178.02 2723.35
   00:26:30.877.24-Feb-2020 3430.51 4218.23 56.39 2.00 178.22 2723.35
   00:26:31.077.24-Feb-2020 3430.51 4220.32 56.39 2.00 178.42 2723.35
   00:26:31.277.24-Feb-2020 3430.51 4220.56 56.39 2.00 178.62 2723.35
   00:26:31.477.24-Feb-2020 3430.51 4219.24 56.39 2.00 178.82 2723.35
   00:26:31.677.24-Feb-2020 3430.51 4218.94 56.39 2.00 179.02 2723.35
   00:26:31.877.24-Feb-2020 3430.51 4219.08 56.39 2.00 179.22 2723.35
   00:26:32.077.24-Feb-2020 3430.51 4217.56 56.39 2.00 179.42 2723.35
   00:26:32.277.24-Feb-2020 3430.51 4220.29 56.39 2.00 179.62 2723.35
   00:26:32.477.24-Feb-2020 3430.51 4219.95 56.39 2.00 179.82 2723.35
   00:26:32.677.24-Feb-2020 3430.51 4219.29 56.39 2.00 180.02 2723.35
   00:26:32.877.24-Feb-2020 3430.51 4219.29 56.39 2.00 180.22 2723.35
   00:26:33.077.24-Feb-2020 3430.51 4218.37 56.39 2.00 180.42 2723.35
   00:26:33.277.24-Feb-2020 3430.51 4218.47 56.39 2.00 180.62 2723.35
   00:26:33.477.24-Feb-2020 3430.51 4218.55 56.39 2.00 180.82 2723.35
   00:26:33.678.24-Feb-2020 3430.51 4218.46 56.39 2.00 181.02 2723.35
   00:26:33.878.24-Feb-2020 3430.51 4218.46 56.39 2.00 181.22 2723.35
   00:26:34.078.24-Feb-2020 3430.51 4218.56 56.39 2.00 181.42 2723.35
   00:26:34.278.24-Feb-2020 3430.51 4218.52 56.39 2.00 181.62 2723.35
   00:26:34.478.24-Feb-2020 3430.51 4218.57 56.39 2.00 181.82 2723.35
   00:26:34.678.24-Feb-2020 3430.51 4218.51 56.39 2.00 182.02 2723.35
   00:26:34.878.24-Feb-2020 3430.51 4218.51 56.39 2.00 182.22 2723.35
   00:26:35.078.24-Feb-2020 3430.51 4219.00 56.39 2.00 182.42 2723.35
   00:26:35.278.24-Feb-2020 3430.51 4219.43 56.39 2.00 182.62 2723.35
   00:26:35.478.24-Feb-2020 3430.51 4220.09 56.39 2.00 182.82 2723.35
   00:26:35.678.24-Feb-2020 3430.51 4218.58 56.39 2.00 183.02 2723.35
   00:26:35.878.24-Feb-2020 3430.51 4219.00 56.39 2.00 183.22 2723.35
   00:26:36.078.24-Feb-2020 3430.51 4219.24 56.39 2.00 183.42 2723.35
   00:26:36.278.24-Feb-2020 3430.51 4219.04 56.39 2.00 183.62 2723.35
   00:26:36.478.24-Feb-2020 3430.51 4219.03 56.39 2.00 183.82 2723.35
