~Version Information
 VERS.                  2.0:   CWLS log ASCII Standard -VERSION 2.0
 WRAP.                   NO:   One line per depth step
~Well Information Block
#MNEM.UNIT     VALUE/NAME     DESCRIPTION
#---------     -----------    ---------------------------
 STRT.S             05:02:14 24-Feb-20: START TIME 05:02:14 24-Feb-20
 STOP.S             05:09:32 24-Feb-20: STOP TIME  05:09:32 24-Feb-20
 STEP.S                   0.00: STEP TIME
 NULL.                 -999.25: NULL VALUE
 JOBN.        AZ-XX-0905059384:  JOB TICKET NUMB
 PDAT.          Mean Sea Level:  PERMANENT DATUM
 UNIT.                     N/A:  LOGGING EQUIPMENT ID
 DCON.         Sperry Drilling:  DIRECTNL CONTR
 DOE .                     N/A:  DOE NUMBER
 RIG .             West Chirag:  RIG NAME
 WELL.                     J22:  WELL NAME
 MWDS.                    Baku:  MWD SHOP
 SRVC.     TURAN Drilling & Engineering:  CONTRACTOR
 FLD .                     ACG:  FIELD NAME
 CTRY.              Azerbaijan:  COUNTRY NAME
 PROV.                    Baku:  PROVINCE
 STAT.                    Baku:  STATE NAME
 REGN.                   EESSA:  REGION
 BASE.              Azerbaijan:  LOGGING EQUIPMENT BASE LOCATION
 UWI .                     N/A:  UNIQUE WELL IDENTIFIER
 API .                     N/A:  API NUMBER
 COMP.     BP Exploration (Caspian Sea) Ltd.:  COMPANY
 WTYP.                Deviated:  WELL TYPE
 MDS .        Operator Entered:  MAG DATA SOURCE
 SON .        AZ-XX-0905059384:  JOB NUMBER
 FTOP.          Formation Tops:  FORM TOPS DESC
 ILTD.               Lithology:  INTERP LTH DESC
 SVYD.                  Survey:  SURVEY DESC
 DMOD.             Drill Model:  DRILL MOD DESC
 HPTY.       Minimum Curvature:  HOLE POS TYPE
 NREF.                    Grid:  NORTH REFERENCE
 SPUD.               09-Jan-20:  SPUD DATE
 DATE.      14.04.48 07-Feb-20:  END TIME
 STIM.      07.00.00 09-Jan-20:  START TIME
 DMF .             Drill Floor:  DRILL MEAS FROM
 DFST.                        :  DIST FSL TEXT
 DFWT.                        :  DIST FWL TEXT
 CNTY.                        :  COUNTY
 LOC .                        :  LOCATION
 LMF .             Drill Floor:  LOG MEASURED FROM
 DEP .m                   0.00:  DEPTH
 VSNS.m                  10.28:  VERT SEC N/S
 VSEW.m                  -6.24:  VERT SEC E/W
 AGAP.m                  43.00:  AIR GAP
 APD .m                  43.00:  DEPTH ABOVE PD
 WDMS.m                 169.80:  WD ELEV
 EGL .m                   0.00:  GROUND ELEVATION
 EPD .m                   0.00:  ELEVATION
 AZTC.deg                 6.27:  AZM TOTAL CORR
 GRDC.deg                 0.15:  GRID CORRECTION
 MDEC.deg                 6.42:  MAGNETIC DECL
 MDIP.deg                59.56:  MAGNETIC DIP
 MFLD.nT              50277.00:  MAGNETIC FIELD
 GVFD.g                   1.00:  GRAVITY FIELD
 VSDR.deg               148.53:  VERT SEC DIRECT
 TDD .m                3473.01:  TOTAL DEPTH (DRILLER)
 SDEP.m                 364.00:  START DEPTH
 DFSL.m                   0.00:  DISTANCE FSL
 DFWL.m                   0.00:  DISTANCE FWL
 UTMY.m             4443793.85:  UTM Y
 UTMX.m              519005.06:  UTM X
 WHEW.m                  -6.24:  WELL HEAD E/W
 WHNS.m                  10.28:  WELL HEAD N/S
 LONG.deg                51.22:  LONGITUDE
 LATI.deg                40.13:  LATITUDE
 TVDS.m                  43.00:  TVDSS CORRECTN
 EKB .m                   0.00:  KB ELEVATION
 EDF .m                  43.00:  DF ELEVATION
 TDL .m                 254.00:  TOTAL DEPTH (LOGGER)
 MAGU.                 1850021:  MAGUTM CHECKSUM
 VSC .                       0:  VS TO CLOSURE
~Parameter Information Block
#MNEM.UNIT       Value        Description
#---------     -----------    ---------------------------
 AV  .mps                 0.50:  Ann Velocity 
 AVMX.mps                 1.40:  Max Ann Veloc 
 AZIF.deg               144.94:  Azm, Final 
 BHAT.        Rotary Steerable:  BHA Type 
 BROT.°/30m               0.23:  Build Rotating 
 BS  .in                  8.50:  Bit Size 
 BTPL.psig              264.00:  Bit Press Loss 
 CABU.                     Yes:  Customer Abuse 
 TCS .hr                 87.30:  Time Ciculation Ended 
 CV  .mps                 2.45:  Crit Velocity 
 CVMX.mps                 2.74:  Max Crit Veloc 
 DD1 .             Aziz Aliyev:  Direct Drillr 1 
 DDSV.               Geo-Pilot:  DD Service 
 DEFF.%                 100.00:  % Det Eff 
 DLRX.°/30m               1.22:  Dogleg Rot Max 
 DLSO.°/30m               0.52:  Dogleg Oriented 
 DLSX.°/30m               1.22:  Dogleg Str Max 
 DRET.      12.59.00 23-Feb-20:  Drill End Time 
 DRST.      09.44.00 18-Feb-20:  Drill Start Tim 
 DTIM.hr                 23.03:  Time Drilling 
 EDEP.m                3473.01:  End Depth 
 ENG1.         Almaz Almadatov:  Engineer 1 
 ENG2.         Dair Mahammadov:  Engineer 2 
 ENG3.          Nazrin Asgarli:  Engineer 3 
 ETIM.      10.33.36 26-Feb-20:  End Time 
 FLOI.gpm               480.00:  Flow In 
 FLON.gpm               300.00:  Flow In Min 
 FLOS.cptm                1.00:  Fluid Loss 
 FLOX.gpm               550.00:  Flow In Max 
 HFLO.                      No:  High Flow 
 HPRE.                      No:  High Pressure 
 HTEM.                      No:  High Temp 
 HYDO.m                   1.80:  Hydro Offset 
 IFIN.deg                74.42:  Inc, Final 
 IMAX.deg                76.14:  Inc Max 
 IMIN.deg                74.42:  Inc Min 
 IMND.m                3462.72:  Inc Min Depth 
 IMXD.m                3235.69:  Inc Max Depth 
 JARR.                      No:  Jarring 
 LETM.      12.59.00 23-Feb-20:  Log End Time 
 LOST.hr                     0:  Lost Rig Time 
 LSTM.      09.44.00 18-Feb-20:  Log Start Time 
 MDCL.ppm             45000.00:  Mud Chlorides 
 MDES.     Inversion Oil/Synthetic:  Mud Desc 
 DFD .sg                  1.38:  Mud Density 
 MDMN.sg                  1.34:  Dens Mud Min 
 MDMX.sg                  1.49:  Dens Mud Max 
 MOIL.                      67:  Run Mud Oil % 
 MOWR.                   67:33:  Run Mud OWR 
 MSND.                    0.12:  Run Mud Sand % 
 MSOL.                      22:  Run Mud Solids% 
 DFV .spqt               81.00:  Mud Viscosity 
 MWOD.in                  6.75:  MWD Tool OD 
 MWSI.                      No:  Serv Intrp, MWD 
 OTIM.hr                231.44:  Time Operating 
 PCON.          Wear / Scratch:  Pad Condition 
 PMAX.psia             3400.00:  Press Op, Max 
 PV  .cP                 55.00:  Mud PV 
 RUN .                     800:  Run Number 
 ROPA.m/hr               12.00:  ROP Avg 
 ROPN.m/hr                5.00:  ROP Min 
 ROPX.m/hr               28.00:  ROP Max 
 RPMA.rpm               120.00:  RPM Surface Avg 
 RPMN.rpm                40.00:  RPM Surface Min 
 RPMX.rpm               130.00:  RPM Surface Max 
 RRUN.                    0800:  Rig Run Number 
 RTIM.hr                 45.00:  Time Reaming 
 SAZI.deg               145.38:  Azm, Start 
 SDEP.m                3219.01:  Start Depth 
 SIDD.                      No:  Serv Intrp, DD 
 SINC.deg                75.11:  Inc, Start 
 SPPA.psig             2400.00:  SPP Avg 
 SPPN.psig             2320.00:  SPP Min 
 SPPX.psig             3200.00:  SPP Max 
 STIM.      15.15.00 17-Feb-20:  Start Time 
 SVCS.                 DD, MWD:  Services 
 SVER.                    9.20:  Sperry Version 
 TDAT.m                 254.00:  Tot Depth Attmp 
 TDDF.                      No:  Trip for DD 
 TDLG.m                 254.00:  Tot Depth Loggd 
 TFF .                      No:  Trip for Fail 
 TQAA.f-kp               13.00:  Torque Abs Avg 
 TQAN.f-kp                7.00:  Torque Abs Min 
 TQAX.f-kp               15.00:  Torque Abs Max 
 TRRT.°/30m               0.21:  Turn Rotating 
 MRT .                  EWR-M5:  Maximum Recorded Temperature 
 TTMX.degC               64.00:  Max Tool Temp 
 VS01.                90586516:  Virtual Str1 SN 
 VS02.                90513691:  Virtual Str2 SN 
 VS03.                90586523:  Virtual Str3 SN 
 VS04.                90586520:  Virtual Str4 SN 
 VS05.                90590507:  Virtual Str5 SN 
 WBMN.klb                12.00:  WOB Min 
 WITN.           Rufat Babayev:  Customer Rep 2 
 WITN.         Alistair Sprott:  Customer Rep 
 WOBA.klb                18.00:  WOB Avg 
 WOBX.klb                30.00:  WOB Max 
 YP  .lhf2               41.00:  Yield Point 
~Curve Information Block
#MNEM.UNIT                 API CODE     Curve Description
#---------               -----------    ---------------------------
 TIME.HHMMSS            00 000 000 000:  GT Time & Date
 GTDEPTH.m              00 000 000 000:  GT Depth
 GTPQH.psia             00 000 000 000:  GT HR Quartz Pressure
 GTTQ.degC              00 000 000 000:  GT Quartz Temperature
 GTTN.NONE              00 000 000 000:  GT Test Number
 GTET.sec               00 000 000 000:  GT Elapsed Test Time
 GTTVD.m                00 000 000 000:  GT True Vertical Depth
#Other Information
#
#WARRANTY: Halliburton will use its best efforts to furnish customers with 
#accurate information and interpretations that are part of, and incident to, the services 
#provided.  However, Halliburton cannot and does not warrant the accuracy 
#or correctness of such information and interpretations.  Under no circumstances should any 
#such information or interpretation be relied upon as the sole basis for any drilling, 
#completion, production, or financial decision or any procedure involving any risk to the 
#safety of any drilling venture, drilling rig or its crew or any other third party.  The 
#Customer has full responsibility for all drilling, completion and production operation.  
#Halliburton makes no representations or warranties, either expressed or 
#implied, including, but not limited to, the implied warranties of merchantability or fitness 
#for a particular purpose, with respect to the services rendered.  In no event will 
#Halliburton be liable for failure to obtain any particular results or for 
#any damages, including, but not limited to, indirect, special or consequential damages, 
#resulting from the use of any information or interpretation provided by Halliburton.
#
~A           TIME           GTDEPTH  GTPQH  GTTQ  GTTN  GTET   GTTVD  
# ...
   05:06:50.762.24-Feb-2020 3303.51 4409.40 55.39 8.00 275.92 2690.98
   05:06:50.962.24-Feb-2020 3303.51 4409.40 55.39 8.00 276.12 2690.98
   05:06:51.162.24-Feb-2020 3303.51 4408.81 55.39 8.00 276.32 2690.98
   05:06:51.361.24-Feb-2020 3303.51 4410.07 55.39 8.00 276.52 2690.98
   05:06:51.561.24-Feb-2020 3303.51 4409.17 55.39 8.00 276.72 2690.98
   05:06:51.761.24-Feb-2020 3303.51 4409.90 55.39 8.00 276.92 2690.98
   05:06:51.961.24-Feb-2020 3303.51 4409.90 55.39 8.00 277.12 2690.98
   05:06:52.161.24-Feb-2020 3303.51 4409.48 55.39 8.00 277.32 2690.98
   05:06:52.361.24-Feb-2020 3303.51 4408.96 55.39 8.00 277.52 2690.98
   05:06:52.561.24-Feb-2020 3303.51 4409.60 55.39 8.00 277.72 2690.98
   05:06:52.761.24-Feb-2020 3303.51 4409.90 55.39 8.00 277.92 2690.98
   05:06:52.961.24-Feb-2020 3303.51 4410.04 55.39 8.00 278.12 2690.98
   05:06:53.161.24-Feb-2020 3303.51 4410.00 55.39 8.00 278.32 2690.98
   05:06:53.361.24-Feb-2020 3303.51 4410.09 55.39 8.00 278.52 2690.98
   05:06:53.561.24-Feb-2020 3303.51 4410.06 55.39 8.00 278.72 2690.98
   05:06:53.761.24-Feb-2020 3303.51 4410.11 55.39 8.00 278.92 2690.98
   05:06:53.961.24-Feb-2020 3303.51 4410.11 55.39 8.00 279.12 2690.98
   05:06:54.161.24-Feb-2020 3303.51 4410.45 55.39 8.00 279.32 2690.98
   05:06:54.361.24-Feb-2020 3303.51 4410.56 55.39 8.00 279.52 2690.98
   05:06:54.561.24-Feb-2020 3303.51 4410.44 55.39 8.00 279.72 2690.98
   05:06:54.760.24-Feb-2020 3303.51 4411.19 55.39 8.00 279.92 2690.98
   05:06:54.960.24-Feb-2020 3303.51 4411.19 55.39 8.00 280.12 2690.98
   05:06:55.160.24-Feb-2020 3303.51 4409.66 55.39 8.00 280.32 2690.98
   05:06:55.360.24-Feb-2020 3303.51 4410.67 55.39 8.00 280.52 2690.98
   05:06:55.560.24-Feb-2020 3303.51 4410.49 55.39 8.00 280.72 2690.98
   05:06:55.760.24-Feb-2020 3303.51 4411.34 55.39 8.00 280.92 2690.98
   05:06:55.960.24-Feb-2020 3303.51 4411.34 55.39 8.00 281.12 2690.98
   05:06:56.160.24-Feb-2020 3303.51 4411.06 55.38 8.00 281.32 2690.98
   05:06:56.360.24-Feb-2020 3303.51 4411.11 55.39 8.00 281.52 2690.98
   05:06:56.560.24-Feb-2020 3303.51 4411.29 55.38 8.00 281.72 2690.98
   05:06:56.760.24-Feb-2020 3303.51 4411.36 55.38 8.00 281.92 2690.98
   05:06:56.960.24-Feb-2020 3303.51 4411.50 55.38 8.00 282.12 2690.98
   05:06:57.160.24-Feb-2020 3303.51 4411.31 55.38 8.00 282.32 2690.98
   05:06:57.360.24-Feb-2020 3303.51 4411.45 55.38 8.00 282.52 2690.98
   05:06:57.560.24-Feb-2020 3303.51 4411.41 55.38 8.00 282.72 2690.98
   05:06:57.760.24-Feb-2020 3303.51 4411.02 55.38 8.00 282.92 2690.98
   05:06:57.960.24-Feb-2020 3303.51 4411.02 55.38 8.00 283.12 2690.98
   05:06:58.159.24-Feb-2020 3303.51 4411.32 55.38 8.00 283.32 2690.98
   05:06:58.359.24-Feb-2020 3303.51 4411.45 55.38 8.00 283.52 2690.98
   05:06:58.559.24-Feb-2020 3303.51 4411.56 55.38 8.00 283.72 2690.98
   05:06:58.759.24-Feb-2020 3303.51 4411.47 55.38 8.00 283.92 2690.98
   05:06:58.959.24-Feb-2020 3303.51 4411.47 55.38 8.00 284.12 2690.98
   05:06:59.159.24-Feb-2020 3303.51 4411.56 55.38 8.00 284.32 2690.98
   05:06:59.359.24-Feb-2020 3303.51 4411.62 55.38 8.00 284.52 2690.98
   05:06:59.559.24-Feb-2020 3303.51 4412.08 55.38 8.00 284.72 2690.98
   05:06:59.759.24-Feb-2020 3303.51 4420.38 55.38 8.00 284.92 2690.98
   05:06:59.959.24-Feb-2020 3303.51 4420.38 55.38 8.00 285.12 2690.98
   05:07:00.159.24-Feb-2020 3303.51 4420.91 55.38 8.00 285.32 2690.98
   05:07:00.359.24-Feb-2020 3303.51 4420.93 55.38 8.00 285.52 2690.98
   05:07:00.559.24-Feb-2020 3303.51 4420.95 55.38 8.00 285.72 2690.98
   05:07:00.759.24-Feb-2020 3303.51 4421.09 55.38 8.00 285.92 2690.98
   05:07:00.959.24-Feb-2020 3303.51 4421.01 55.38 8.00 286.12 2690.98
   05:07:01.159.24-Feb-2020 3303.51 4420.85 55.38 8.00 286.32 2690.98
   05:07:01.359.24-Feb-2020 3303.51 4420.99 55.38 8.00 286.52 2690.98
   05:07:01.558.24-Feb-2020 3303.51 4420.92 55.38 8.00 286.72 2690.98
   05:07:01.758.24-Feb-2020 3303.51 4420.95 55.38 8.00 286.92 2690.98
   05:07:01.958.24-Feb-2020 3303.51 4420.95 55.38 8.00 287.12 2690.98
   05:07:02.158.24-Feb-2020 3303.51 4420.94 55.38 8.00 287.32 2690.98
   05:07:02.358.24-Feb-2020 3303.51 4420.98 55.38 8.00 287.52 2690.98
   05:07:02.558.24-Feb-2020 3303.51 4420.98 55.38 8.00 287.72 2690.98
   05:07:02.758.24-Feb-2020 3303.51 4421.00 55.38 8.00 287.92 2690.98
   05:07:02.958.24-Feb-2020 3303.51 4421.00 55.38 8.00 288.12 2690.98
   05:07:03.158.24-Feb-2020 3303.51 4420.97 55.38 8.00 288.32 2690.98
   05:07:03.358.24-Feb-2020 3303.51 4420.99 55.38 8.00 288.52 2690.98
   05:07:03.558.24-Feb-2020 3303.51 4421.00 55.38 8.00 288.72 2690.98
   05:07:03.758.24-Feb-2020 3303.51 4421.00 55.38 8.00 288.92 2690.98
   05:07:03.958.24-Feb-2020 3303.51 4421.00 55.38 8.00 289.11 2690.98
   05:07:04.158.24-Feb-2020 3303.51 4420.89 55.38 8.00 289.31 2690.98
   05:07:04.358.24-Feb-2020 3303.51 4421.17 55.38 8.00 289.51 2690.98
   05:07:04.558.24-Feb-2020 3303.51 4421.00 55.38 8.00 289.71 2690.98
   05:07:04.758.24-Feb-2020 3303.51 4420.92 55.38 8.00 289.91 2690.98
   05:07:04.957.24-Feb-2020 3303.51 4420.99 55.38 8.00 290.11 2690.98
   05:07:05.157.24-Feb-2020 3303.51 4421.08 55.38 8.00 290.31 2690.98
   05:07:05.357.24-Feb-2020 3303.51 4421.08 55.38 8.00 290.51 2690.98
   05:07:05.557.24-Feb-2020 3303.51 4420.86 55.38 8.00 290.71 2690.98
   05:07:05.757.24-Feb-2020 3303.51 4421.02 55.38 8.00 290.91 2690.98
   05:07:05.957.24-Feb-2020 3303.51 4421.02 55.38 8.00 291.11 2690.98
   05:07:06.157.24-Feb-2020 3303.51 4420.66 55.38 8.00 291.31 2690.98
   05:07:06.357.24-Feb-2020 3303.51 4421.20 55.38 8.00 291.51 2690.98
   05:07:06.557.24-Feb-2020 3303.51 4420.97 55.38 8.00 291.71 2690.98
   05:07:06.757.24-Feb-2020 3303.51 4421.04 55.38 8.00 291.91 2690.98
   05:07:06.957.24-Feb-2020 3303.51 4421.04 55.38 8.00 292.11 2690.98
   05:07:07.157.24-Feb-2020 3303.51 4420.65 55.38 8.00 292.31 2690.98
   05:07:07.357.24-Feb-2020 3303.51 4421.15 55.38 8.00 292.51 2690.98
   05:07:07.557.24-Feb-2020 3303.51 4420.96 55.38 8.00 292.71 2690.98
   05:07:07.757.24-Feb-2020 3303.51 4421.00 55.38 8.00 292.91 2690.98
   05:07:07.957.24-Feb-2020 3303.51 4421.00 55.38 8.00 293.11 2690.98
   05:07:08.157.24-Feb-2020 3303.51 4420.98 55.38 8.00 293.31 2690.98
   05:07:08.356.24-Feb-2020 3303.51 4421.01 55.38 8.00 293.51 2690.98
   05:07:08.556.24-Feb-2020 3303.51 4421.00 55.38 8.00 293.71 2690.98
   05:07:08.756.24-Feb-2020 3303.51 4421.00 55.38 8.00 293.91 2690.98
   05:07:08.956.24-Feb-2020 3303.51 4421.01 55.38 8.00 294.11 2690.98
   05:07:09.156.24-Feb-2020 3303.51 4421.02 55.38 8.00 294.31 2690.98
   05:07:09.356.24-Feb-2020 3303.51 4421.01 55.38 8.00 294.51 2690.98
   05:07:09.556.24-Feb-2020 3303.51 4421.02 55.38 8.00 294.71 2690.98
   05:07:09.756.24-Feb-2020 3303.51 4421.02 55.38 8.00 294.91 2690.98
   05:07:09.956.24-Feb-2020 3303.51 4421.02 55.38 8.00 295.11 2690.98
   05:07:10.156.24-Feb-2020 3303.51 4421.14 55.38 8.00 295.31 2690.98
   05:07:10.356.24-Feb-2020 3303.51 4421.05 55.38 8.00 295.51 2690.98
   05:07:10.556.24-Feb-2020 3303.51 4420.87 55.38 8.00 295.71 2690.98
   05:07:10.756.24-Feb-2020 3303.51 4421.04 55.38 8.00 295.91 2690.98
   05:07:10.956.24-Feb-2020 3303.51 4421.04 55.38 8.00 296.11 2690.98
   05:07:11.156.24-Feb-2020 3303.51 4421.05 55.38 8.00 296.31 2690.98
   05:07:11.356.24-Feb-2020 3303.51 4420.95 55.38 8.00 296.51 2690.98
   05:07:11.556.24-Feb-2020 3303.51 4420.99 55.38 8.00 296.71 2690.98
   05:07:11.755.24-Feb-2020 3303.51 4421.00 55.38 8.00 296.91 2690.98
   05:07:11.955.24-Feb-2020 3303.51 4421.00 55.38 8.00 297.11 2690.98
   05:07:12.155.24-Feb-2020 3303.51 4421.02 55.38 8.00 297.31 2690.98
   05:07:12.355.24-Feb-2020 3303.51 4420.99 55.38 8.00 297.51 2690.98
   05:07:12.555.24-Feb-2020 3303.51 4420.98 55.38 8.00 297.71 2690.98
   05:07:12.755.24-Feb-2020 3303.51 4421.03 55.38 8.00 297.91 2690.98
   05:07:12.955.24-Feb-2020 3303.51 4421.02 55.38 8.00 298.11 2690.98
   05:07:13.155.24-Feb-2020 3303.51 4421.03 55.38 8.00 298.31 2690.98
   05:07:13.355.24-Feb-2020 3303.51 4421.00 55.38 8.00 298.51 2690.98
   05:07:13.555.24-Feb-2020 3303.51 4420.90 55.38 8.00 298.71 2690.98
