~Version Information
 VERS.                  2.0:   CWLS log ASCII Standard -VERSION 2.0
 WRAP.                   NO:   One line per depth step
~Well Information Block
#MNEM.UNIT     VALUE/NAME     DESCRIPTION
#---------     -----------    ---------------------------
 STRT.S             04:05:13 24-Feb-20: START TIME 04:05:13 24-Feb-20
 STOP.S             04:12:30 24-Feb-20: STOP TIME  04:12:30 24-Feb-20
 STEP.S                   0.00: STEP TIME
 NULL.                 -999.25: NULL VALUE
 JOBN.        AZ-XX-0905059384:  JOB TICKET NUMB
 PDAT.          Mean Sea Level:  PERMANENT DATUM
 UNIT.                     N/A:  LOGGING EQUIPMENT ID
 DCON.         Sperry Drilling:  DIRECTNL CONTR
 DOE .                     N/A:  DOE NUMBER
 RIG .             West Chirag:  RIG NAME
 WELL.                     J22:  WELL NAME
 MWDS.                    Baku:  MWD SHOP
 SRVC.     TURAN Drilling & Engineering:  CONTRACTOR
 FLD .                     ACG:  FIELD NAME
 CTRY.              Azerbaijan:  COUNTRY NAME
 PROV.                    Baku:  PROVINCE
 STAT.                    Baku:  STATE NAME
 REGN.                   EESSA:  REGION
 BASE.              Azerbaijan:  LOGGING EQUIPMENT BASE LOCATION
 UWI .                     N/A:  UNIQUE WELL IDENTIFIER
 API .                     N/A:  API NUMBER
 COMP.     BP Exploration (Caspian Sea) Ltd.:  COMPANY
 WTYP.                Deviated:  WELL TYPE
 MDS .        Operator Entered:  MAG DATA SOURCE
 SON .        AZ-XX-0905059384:  JOB NUMBER
 FTOP.          Formation Tops:  FORM TOPS DESC
 ILTD.               Lithology:  INTERP LTH DESC
 SVYD.                  Survey:  SURVEY DESC
 DMOD.             Drill Model:  DRILL MOD DESC
 HPTY.       Minimum Curvature:  HOLE POS TYPE
 NREF.                    Grid:  NORTH REFERENCE
 SPUD.               09-Jan-20:  SPUD DATE
 DATE.      14.04.48 07-Feb-20:  END TIME
 STIM.      07.00.00 09-Jan-20:  START TIME
 DMF .             Drill Floor:  DRILL MEAS FROM
 DFST.                        :  DIST FSL TEXT
 DFWT.                        :  DIST FWL TEXT
 CNTY.                        :  COUNTY
 LOC .                        :  LOCATION
 LMF .             Drill Floor:  LOG MEASURED FROM
 DEP .m                   0.00:  DEPTH
 VSNS.m                  10.28:  VERT SEC N/S
 VSEW.m                  -6.24:  VERT SEC E/W
 AGAP.m                  43.00:  AIR GAP
 APD .m                  43.00:  DEPTH ABOVE PD
 WDMS.m                 169.80:  WD ELEV
 EGL .m                   0.00:  GROUND ELEVATION
 EPD .m                   0.00:  ELEVATION
 AZTC.deg                 6.27:  AZM TOTAL CORR
 GRDC.deg                 0.15:  GRID CORRECTION
 MDEC.deg                 6.42:  MAGNETIC DECL
 MDIP.deg                59.56:  MAGNETIC DIP
 MFLD.nT              50277.00:  MAGNETIC FIELD
 GVFD.g                   1.00:  GRAVITY FIELD
 VSDR.deg               148.53:  VERT SEC DIRECT
 TDD .m                3473.01:  TOTAL DEPTH (DRILLER)
 SDEP.m                 364.00:  START DEPTH
 DFSL.m                   0.00:  DISTANCE FSL
 DFWL.m                   0.00:  DISTANCE FWL
 UTMY.m             4443793.85:  UTM Y
 UTMX.m              519005.06:  UTM X
 WHEW.m                  -6.24:  WELL HEAD E/W
 WHNS.m                  10.28:  WELL HEAD N/S
 LONG.deg                51.22:  LONGITUDE
 LATI.deg                40.13:  LATITUDE
 TVDS.m                  43.00:  TVDSS CORRECTN
 EKB .m                   0.00:  KB ELEVATION
 EDF .m                  43.00:  DF ELEVATION
 TDL .m                 254.00:  TOTAL DEPTH (LOGGER)
 MAGU.                 1850021:  MAGUTM CHECKSUM
 VSC .                       0:  VS TO CLOSURE
~Parameter Information Block
#MNEM.UNIT       Value        Description
#---------     -----------    ---------------------------
 AV  .mps                 0.50:  Ann Velocity 
 AVMX.mps                 1.40:  Max Ann Veloc 
 AZIF.deg               144.94:  Azm, Final 
 BHAT.        Rotary Steerable:  BHA Type 
 BROT.°/30m               0.23:  Build Rotating 
 BS  .in                  8.50:  Bit Size 
 BTPL.psig              264.00:  Bit Press Loss 
 CABU.                     Yes:  Customer Abuse 
 COMM.                     \ys:  Run Comments 1 
 TCS .hr                 87.30:  Time Ciculation Ended 
 CV  .mps                 2.45:  Crit Velocity 
 CVMX.mps                 2.74:  Max Crit Veloc 
 DD1 .             Aziz Aliyev:  Direct Drillr 1 
 DDSV.               Geo-Pilot:  DD Service 
 DEFF.%                 100.00:  % Det Eff 
 DLRX.°/30m               1.22:  Dogleg Rot Max 
 DLSO.°/30m               0.52:  Dogleg Oriented 
 DLSX.°/30m               1.22:  Dogleg Str Max 
 DRET.      12.59.00 23-Feb-20:  Drill End Time 
 DRST.      09.44.00 18-Feb-20:  Drill Start Tim 
 DTIM.hr                 23.03:  Time Drilling 
 EDEP.m                3473.01:  End Depth 
 ENG1.         Almaz Almadatov:  Engineer 1 
 ENG2.         Dair Mahammadov:  Engineer 2 
 ENG3.          Nazrin Asgarli:  Engineer 3 
 ETIM.      10.33.36 26-Feb-20:  End Time 
 FLOI.gpm               480.00:  Flow In 
 FLON.gpm               300.00:  Flow In Min 
 FLOS.cptm                1.00:  Fluid Loss 
 FLOX.gpm               550.00:  Flow In Max 
 HFLO.                      No:  High Flow 
 HPRE.                      No:  High Pressure 
 HTEM.                      No:  High Temp 
 HYDO.m                   1.80:  Hydro Offset 
 IFIN.deg                74.42:  Inc, Final 
 IMAX.deg                76.14:  Inc Max 
 IMIN.deg                74.42:  Inc Min 
 IMND.m                3462.72:  Inc Min Depth 
 IMXD.m                3235.69:  Inc Max Depth 
 JARR.                      No:  Jarring 
 LETM.      12.59.00 23-Feb-20:  Log End Time 
 LOST.hr                     0:  Lost Rig Time 
 LSTM.      09.44.00 18-Feb-20:  Log Start Time 
 MDCL.ppm             45000.00:  Mud Chlorides 
 MDES.     Inversion Oil/Synthetic:  Mud Desc 
 DFD .sg                  1.38:  Mud Density 
 MDMN.sg                  1.34:  Dens Mud Min 
 MDMX.sg                  1.49:  Dens Mud Max 
 MOIL.                      67:  Run Mud Oil % 
 MOWR.                   67:33:  Run Mud OWR 
 MSND.                    0.12:  Run Mud Sand % 
 MSOL.                      22:  Run Mud Solids% 
 DFV .spqt               81.00:  Mud Viscosity 
 MWOD.in                  6.75:  MWD Tool OD 
 MWSI.                      No:  Serv Intrp, MWD 
 OTIM.hr                231.44:  Time Operating 
 PCON.          Wear / Scratch:  Pad Condition 
 PMAX.psia             3400.00:  Press Op, Max 
 PV  .cP                 55.00:  Mud PV 
 RUN .                     800:  Run Number 
 ROPA.m/hr               12.00:  ROP Avg 
 ROPN.m/hr                5.00:  ROP Min 
 ROPX.m/hr               28.00:  ROP Max 
 RPMA.rpm               120.00:  RPM Surface Avg 
 RPMN.rpm                40.00:  RPM Surface Min 
 RPMX.rpm               130.00:  RPM Surface Max 
 RRUN.                    0800:  Rig Run Number 
 RTIM.hr                 45.00:  Time Reaming 
 SAZI.deg               145.38:  Azm, Start 
 SDEP.m                3219.01:  Start Depth 
 SIDD.                      No:  Serv Intrp, DD 
 SINC.deg                75.11:  Inc, Start 
 SPPA.psig             2400.00:  SPP Avg 
 SPPN.psig             2320.00:  SPP Min 
 SPPX.psig             3200.00:  SPP Max 
 STIM.      15.15.00 17-Feb-20:  Start Time 
 SVCS.                 DD, MWD:  Services 
 SVER.                    9.20:  Sperry Version 
 TDAT.m                 254.00:  Tot Depth Attmp 
 TDDF.                      No:  Trip for DD 
 TDLG.m                 254.00:  Tot Depth Loggd 
 TFF .                      No:  Trip for Fail 
 TQAA.f-kp               13.00:  Torque Abs Avg 
 TQAN.f-kp                7.00:  Torque Abs Min 
 TQAX.f-kp               15.00:  Torque Abs Max 
 TRRT.°/30m               0.21:  Turn Rotating 
 MRT .                  EWR-M5:  Maximum Recorded Temperature 
 TTMX.degC               64.00:  Max Tool Temp 
 VS01.                90586516:  Virtual Str1 SN 
 VS02.                90513691:  Virtual Str2 SN 
 VS03.                90586523:  Virtual Str3 SN 
 VS04.                90586520:  Virtual Str4 SN 
 VS05.                90590507:  Virtual Str5 SN 
 WBMN.klb                12.00:  WOB Min 
 WITN.           Rufat Babayev:  Customer Rep 2 
 WITN.         Alistair Sprott:  Customer Rep 
 WOBA.klb                18.00:  WOB Avg 
 WOBX.klb                30.00:  WOB Max 
 YP  .lhf2               41.00:  Yield Point 
~Curve Information Block
#MNEM.UNIT                 API CODE     Curve Description
#---------               -----------    ---------------------------
 TIME.HHMMSS            00 000 000 000:  GT Time & Date
 GTDEPTH.m              00 000 000 000:  GT Depth
 GTPQH.psia             00 000 000 000:  GT HR Quartz Pressure
 GTTQ.degC              00 000 000 000:  GT Quartz Temperature
 GTTN.NONE              00 000 000 000:  GT Test Number
 GTET.sec               00 000 000 000:  GT Elapsed Test Time
 GTTVD.m                00 000 000 000:  GT True Vertical Depth
#Other Information
#
#WARRANTY: Halliburton will use its best efforts to furnish customers with 
#accurate information and interpretations that are part of, and incident to, the services 
#provided.  However, Halliburton cannot and does not warrant the accuracy 
#or correctness of such information and interpretations.  Under no circumstances should any 
#such information or interpretation be relied upon as the sole basis for any drilling, 
#completion, production, or financial decision or any procedure involving any risk to the 
#safety of any drilling venture, drilling rig or its crew or any other third party.  The 
#Customer has full responsibility for all drilling, completion and production operation.  
#Halliburton makes no representations or warranties, either expressed or 
#implied, including, but not limited to, the implied warranties of merchantability or fitness 
#for a particular purpose, with respect to the services rendered.  In no event will 
#Halliburton be liable for failure to obtain any particular results or for 
#any damages, including, but not limited to, indirect, special or consequential damages, 
#resulting from the use of any information or interpretation provided by Halliburton.
#
~A           TIME           GTDEPTH  GTPQH  GTTQ  GTTN  GTET   GTTVD  
# ...
   04:05:36.000.24-Feb-2020 3356.51 5701.97 55.59 7.00  23.00 2704.30
   04:05:36.200.24-Feb-2020 3356.51 5701.97 55.59 7.00  23.20 2704.30
   04:05:36.400.24-Feb-2020 3356.51 5703.12 55.59 7.00  23.40 2704.30
   04:05:36.600.24-Feb-2020 3356.51 5703.35 55.59 7.00  23.60 2704.30
   04:05:36.800.24-Feb-2020 3356.51 5703.04 55.59 7.00  23.80 2704.30
   04:05:37.000.24-Feb-2020 3356.51 5702.93 55.59 7.00  24.00 2704.30
   04:05:37.200.24-Feb-2020 3356.51 5702.93 55.59 7.00  24.20 2704.30
   04:05:37.400.24-Feb-2020 3356.51 5703.41 55.59 7.00  24.40 2704.30
   04:05:37.600.24-Feb-2020 3356.51 5702.63 55.59 7.00  24.60 2704.30
   04:05:37.800.24-Feb-2020 3356.51 5702.54 55.59 7.00  24.80 2704.30
   04:05:38.000.24-Feb-2020 3356.51 5702.73 55.59 7.00  25.00 2704.30
   04:05:38.200.24-Feb-2020 3356.51 5702.73 55.59 7.00  25.20 2704.30
   04:05:38.400.24-Feb-2020 3356.51 5703.35 55.59 7.00  25.40 2704.30
   04:05:38.600.24-Feb-2020 3356.51 5703.17 55.59 7.00  25.60 2704.30
   04:05:38.800.24-Feb-2020 3356.51 5705.78 55.59 7.00  25.80 2704.30
   04:05:39.000.24-Feb-2020 3356.51 5701.15 55.59 7.00  26.00 2704.30
   04:05:39.200.24-Feb-2020 3356.51 5703.73 55.59 7.00  26.20 2704.30
   04:05:39.400.24-Feb-2020 3356.51 5701.51 55.59 7.00  26.40 2704.30
   04:05:39.600.24-Feb-2020 3356.51 5709.04 55.59 7.00  26.60 2704.30
   04:05:39.800.24-Feb-2020 3356.51 5697.98 55.59 7.00  26.80 2704.30
   04:05:40.000.24-Feb-2020 3356.51 5703.72 55.59 7.00  27.00 2704.30
   04:05:40.200.24-Feb-2020 3356.51 5703.72 55.59 7.00  27.20 2704.30
   04:05:40.400.24-Feb-2020 3356.51 5702.85 55.59 7.00  27.40 2704.30
   04:05:40.600.24-Feb-2020 3356.51 5703.13 55.59 7.00  27.60 2704.30
   04:05:40.800.24-Feb-2020 3356.51 5709.22 55.59 7.00  27.80 2704.30
   04:05:41.000.24-Feb-2020 3356.51 5698.13 55.59 7.00  28.00 2704.30
   04:05:41.200.24-Feb-2020 3356.51 5698.13 55.59 7.00  28.20 2704.30
   04:05:41.400.24-Feb-2020 3356.51 5702.53 55.59 7.00  28.40 2704.30
   04:05:41.600.24-Feb-2020 3356.51 5703.32 55.59 7.00  28.60 2704.30
   04:05:41.800.24-Feb-2020 3356.51 5703.15 55.59 7.00  28.80 2704.30
   04:05:42.000.24-Feb-2020 3356.51 5708.89 55.59 7.00  29.00 2704.30
   04:05:42.200.24-Feb-2020 3356.51 5708.89 55.59 7.00  29.20 2704.30
   04:05:42.400.24-Feb-2020 3356.51 5703.89 55.59 7.00  29.40 2704.30
   04:05:42.600.24-Feb-2020 3356.51 5702.23 55.59 7.00  29.60 2704.30
   04:05:42.800.24-Feb-2020 3356.51 5702.91 55.59 7.00  29.80 2704.30
   04:05:43.000.24-Feb-2020 3356.51 5703.25 55.59 7.00  30.00 2704.30
   04:05:43.200.24-Feb-2020 3356.51 5703.03 55.59 7.00  30.20 2704.30
   04:05:43.400.24-Feb-2020 3356.51 5703.11 55.59 7.00  30.40 2704.30
   04:05:43.600.24-Feb-2020 3356.51 5703.25 55.59 7.00  30.60 2704.30
   04:05:43.800.24-Feb-2020 3356.51 5703.15 55.59 7.00  30.80 2704.30
   04:05:44.000.24-Feb-2020 3356.51 5703.17 55.59 7.00  31.00 2704.30
   04:05:44.200.24-Feb-2020 3356.51 5703.17 55.59 7.00  31.20 2704.30
   04:05:44.400.24-Feb-2020 3356.51 5703.17 55.59 7.00  31.40 2704.30
   04:05:44.600.24-Feb-2020 3356.51 5703.35 55.59 7.00  31.60 2704.30
   04:05:44.800.24-Feb-2020 3356.51 5703.67 55.59 7.00  31.80 2704.30
   04:05:45.000.24-Feb-2020 3356.51 5703.68 55.59 7.00  32.00 2704.30
   04:05:45.200.24-Feb-2020 3356.51 5703.68 55.59 7.00  32.20 2704.30
   04:05:45.400.24-Feb-2020 3356.51 5699.97 55.59 7.00  32.40 2704.30
   04:05:45.600.24-Feb-2020 3356.51 5703.66 55.59 7.00  32.60 2704.30
   04:05:45.800.24-Feb-2020 3356.51 5703.24 55.59 7.00  32.80 2704.30
   04:05:46.000.24-Feb-2020 3356.51 5702.81 55.59 7.00  33.00 2704.30
   04:05:46.200.24-Feb-2020 3356.51 5702.81 55.59 7.00  33.20 2704.30
   04:05:46.400.24-Feb-2020 3356.51 5702.78 55.59 7.00  33.40 2704.30
   04:05:46.600.24-Feb-2020 3356.51 5703.17 55.59 7.00  33.60 2704.30
   04:05:46.800.24-Feb-2020 3356.51 5703.47 55.59 7.00  33.80 2704.30
   04:05:47.000.24-Feb-2020 3356.51 5703.58 55.59 7.00  34.00 2704.30
   04:05:47.200.24-Feb-2020 3356.51 5702.91 55.59 7.00  34.20 2704.30
   04:05:47.400.24-Feb-2020 3356.51 5702.88 55.59 7.00  34.40 2704.30
   04:05:47.600.24-Feb-2020 3356.51 5703.07 55.59 7.00  34.60 2704.30
   04:05:47.800.24-Feb-2020 3356.51 5703.47 55.59 7.00  34.80 2704.30
   04:05:48.000.24-Feb-2020 3356.51 5703.79 55.59 7.00  35.00 2704.30
   04:05:48.200.24-Feb-2020 3356.51 5703.79 55.59 7.00  35.20 2704.30
   04:05:48.400.24-Feb-2020 3356.51 5702.98 55.59 7.00  35.40 2704.30
   04:05:48.600.24-Feb-2020 3356.51 5706.80 55.59 7.00  35.60 2704.30
   04:05:48.800.24-Feb-2020 3356.51 5699.90 55.59 7.00  35.80 2704.30
   04:05:49.000.24-Feb-2020 3356.51 5703.77 55.59 7.00  36.00 2704.30
   04:05:49.200.24-Feb-2020 3356.51 5703.77 55.59 7.00  36.20 2704.30
   04:05:49.400.24-Feb-2020 3356.51 5705.42 55.59 7.00  36.40 2704.30
   04:05:49.600.24-Feb-2020 3356.51 5702.25 55.59 7.00  36.60 2704.30
   04:05:49.800.24-Feb-2020 3356.51 5703.34 55.59 7.00  36.80 2704.30
   04:05:50.000.24-Feb-2020 3356.51 5703.04 55.59 7.00  37.00 2704.30
   04:05:50.200.24-Feb-2020 3356.51 5703.04 55.59 7.00  37.20 2704.30
   04:05:50.400.24-Feb-2020 3356.51 5703.20 55.59 7.00  37.40 2704.30
   04:05:50.600.24-Feb-2020 3356.51 5705.62 55.59 7.00  37.60 2704.30
   04:05:50.800.24-Feb-2020 3356.51 5702.47 55.59 7.00  37.80 2704.30
   04:05:51.000.24-Feb-2020 3356.51 5703.71 55.59 7.00  38.00 2704.30
   04:05:51.200.24-Feb-2020 3356.51 5703.70 55.59 7.00  38.20 2704.30
   04:05:51.400.24-Feb-2020 3356.51 5703.70 55.59 7.00  38.40 2704.30
   04:05:51.600.24-Feb-2020 3356.51 5703.04 55.59 7.00  38.60 2704.30
   04:05:51.800.24-Feb-2020 3356.51 5705.62 55.59 7.00  38.80 2704.30
   04:05:52.000.24-Feb-2020 3356.51 5702.44 55.59 7.00  39.00 2704.30
   04:05:52.200.24-Feb-2020 3356.51 5702.44 55.59 7.00  39.20 2704.30
   04:05:52.400.24-Feb-2020 3356.51 5703.36 55.59 7.00  39.40 2704.30
   04:05:52.600.24-Feb-2020 3356.51 5703.27 55.59 7.00  39.60 2704.30
   04:05:52.800.24-Feb-2020 3356.51 5703.17 55.59 7.00  39.80 2704.30
   04:05:53.000.24-Feb-2020 3356.51 5703.48 55.59 7.00  40.00 2704.30
   04:05:53.200.24-Feb-2020 3356.51 5703.48 55.59 7.00  40.20 2704.30
   04:05:53.400.24-Feb-2020 3356.51 5703.42 55.59 7.00  40.40 2704.30
   04:05:53.600.24-Feb-2020 3356.51 5703.47 55.59 7.00  40.60 2704.30
   04:05:53.800.24-Feb-2020 3356.51 5703.40 55.59 7.00  40.80 2704.30
   04:05:54.000.24-Feb-2020 3356.51 5703.47 55.59 7.00  41.00 2704.30
   04:05:54.200.24-Feb-2020 3356.51 5703.47 55.59 7.00  41.20 2704.30
   04:05:54.400.24-Feb-2020 3356.51 5703.89 55.59 7.00  41.40 2704.30
   04:05:54.600.24-Feb-2020 3356.51 5703.79 55.59 7.00  41.60 2704.30
   04:05:54.800.24-Feb-2020 3356.51 5703.77 55.59 7.00  41.80 2704.30
   04:05:55.000.24-Feb-2020 3356.51 5665.67 55.59 7.00  42.00 2704.30
   04:05:55.200.24-Feb-2020 3356.51 5628.68 55.59 7.00  42.20 2704.30
   04:05:55.400.24-Feb-2020 3356.51 5631.38 55.59 7.00  42.40 2704.30
   04:05:55.600.24-Feb-2020 3356.51 5647.82 55.59 7.00  42.60 2704.30
   04:05:55.800.24-Feb-2020 3356.51 5648.69 55.59 7.00  42.80 2704.30
   04:05:56.000.24-Feb-2020 3356.51 5649.96 55.59 7.00  43.00 2704.30
   04:05:56.200.24-Feb-2020 3356.51 5649.96 55.59 7.00  43.20 2704.30
   04:05:56.400.24-Feb-2020 3356.51 5639.65 55.59 7.00  43.40 2704.30
   04:05:56.600.24-Feb-2020 3356.51 5632.44 55.59 7.00  43.60 2704.30
   04:05:56.800.24-Feb-2020 3356.51 5624.20 55.59 7.00  43.80 2704.30
   04:05:57.000.24-Feb-2020 3356.51 5614.93 55.59 7.00  44.00 2704.30
   04:05:57.200.24-Feb-2020 3356.51 5614.93 55.59 7.00  44.20 2704.30
   04:05:57.400.24-Feb-2020 3356.51 5595.34 55.59 7.00  44.40 2704.30
   04:05:57.600.24-Feb-2020 3356.51 5584.23 55.59 7.00  44.60 2704.30
   04:05:57.800.24-Feb-2020 3356.51 5571.18 55.59 7.00  44.80 2704.30
   04:05:58.000.24-Feb-2020 3356.51 5556.88 55.59 7.00  45.00 2704.30
   04:05:58.200.24-Feb-2020 3356.51 5556.88 55.59 7.00  45.20 2704.30
   04:05:58.400.24-Feb-2020 3356.51 5527.31 55.59 7.00  45.40 2704.30
   04:05:58.600.24-Feb-2020 3356.51 5512.95 55.59 7.00  45.60 2704.30
   04:05:58.800.24-Feb-2020 3356.51 5498.92 55.59 7.00  45.80 2704.30
