~Version Information
 VERS.                  2.0:   CWLS log ASCII Standard -VERSION 2.0
 WRAP.                   NO:   One line per depth step
~Well Information Block
#MNEM.UNIT     VALUE/NAME     DESCRIPTION
#---------     -----------    ---------------------------
 STRT.S             01:26:08 24-Feb-20: START TIME 01:26:08 24-Feb-20
 STOP.S             01:33:25 24-Feb-20: STOP TIME  01:33:25 24-Feb-20
 STEP.S                   0.00: STEP TIME
 NULL.                 -999.25: NULL VALUE
 JOBN.        AZ-XX-0905059384:  JOB TICKET NUMB
 PDAT.          Mean Sea Level:  PERMANENT DATUM
 UNIT.                     N/A:  LOGGING EQUIPMENT ID
 DCON.         Sperry Drilling:  DIRECTNL CONTR
 DOE .                     N/A:  DOE NUMBER
 RIG .             West Chirag:  RIG NAME
 WELL.                     J22:  WELL NAME
 MWDS.                    Baku:  MWD SHOP
 SRVC.     TURAN Drilling & Engineering:  CONTRACTOR
 FLD .                     ACG:  FIELD NAME
 CTRY.              Azerbaijan:  COUNTRY NAME
 PROV.                    Baku:  PROVINCE
 STAT.                    Baku:  STATE NAME
 REGN.                   EESSA:  REGION
 BASE.              Azerbaijan:  LOGGING EQUIPMENT BASE LOCATION
 UWI .                     N/A:  UNIQUE WELL IDENTIFIER
 API .                     N/A:  API NUMBER
 COMP.     BP Exploration (Caspian Sea) Ltd.:  COMPANY
 WTYP.                Deviated:  WELL TYPE
 MDS .        Operator Entered:  MAG DATA SOURCE
 SON .        AZ-XX-0905059384:  JOB NUMBER
 FTOP.          Formation Tops:  FORM TOPS DESC
 ILTD.               Lithology:  INTERP LTH DESC
 SVYD.                  Survey:  SURVEY DESC
 DMOD.             Drill Model:  DRILL MOD DESC
 HPTY.       Minimum Curvature:  HOLE POS TYPE
 NREF.                    Grid:  NORTH REFERENCE
 SPUD.               09-Jan-20:  SPUD DATE
 DATE.      14.04.48 07-Feb-20:  END TIME
 STIM.      07.00.00 09-Jan-20:  START TIME
 DMF .             Drill Floor:  DRILL MEAS FROM
 DFST.                        :  DIST FSL TEXT
 DFWT.                        :  DIST FWL TEXT
 CNTY.                        :  COUNTY
 LOC .                        :  LOCATION
 LMF .             Drill Floor:  LOG MEASURED FROM
 DEP .m                   0.00:  DEPTH
 VSNS.m                  10.28:  VERT SEC N/S
 VSEW.m                  -6.24:  VERT SEC E/W
 AGAP.m                  43.00:  AIR GAP
 APD .m                  43.00:  DEPTH ABOVE PD
 WDMS.m                 169.80:  WD ELEV
 EGL .m                   0.00:  GROUND ELEVATION
 EPD .m                   0.00:  ELEVATION
 AZTC.deg                 6.27:  AZM TOTAL CORR
 GRDC.deg                 0.15:  GRID CORRECTION
 MDEC.deg                 6.42:  MAGNETIC DECL
 MDIP.deg                59.56:  MAGNETIC DIP
 MFLD.nT              50277.00:  MAGNETIC FIELD
 GVFD.g                   1.00:  GRAVITY FIELD
 VSDR.deg               148.53:  VERT SEC DIRECT
 TDD .m                3473.01:  TOTAL DEPTH (DRILLER)
 SDEP.m                 364.00:  START DEPTH
 DFSL.m                   0.00:  DISTANCE FSL
 DFWL.m                   0.00:  DISTANCE FWL
 UTMY.m             4443793.85:  UTM Y
 UTMX.m              519005.06:  UTM X
 WHEW.m                  -6.24:  WELL HEAD E/W
 WHNS.m                  10.28:  WELL HEAD N/S
 LONG.deg                51.22:  LONGITUDE
 LATI.deg                40.13:  LATITUDE
 TVDS.m                  43.00:  TVDSS CORRECTN
 EKB .m                   0.00:  KB ELEVATION
 EDF .m                  43.00:  DF ELEVATION
 TDL .m                 254.00:  TOTAL DEPTH (LOGGER)
 MAGU.                 1850021:  MAGUTM CHECKSUM
 VSC .                       0:  VS TO CLOSURE
~Parameter Information Block
#MNEM.UNIT       Value        Description
#---------     -----------    ---------------------------
 AV  .mps                 0.50:  Ann Velocity 
 AVMX.mps                 1.40:  Max Ann Veloc 
 AZIF.deg               144.94:  Azm, Final 
 BHAT.        Rotary Steerable:  BHA Type 
 BROT.°/30m               0.23:  Build Rotating 
 BS  .in                  8.50:  Bit Size 
 BTPL.psig              264.00:  Bit Press Loss 
 CABU.                     Yes:  Customer Abuse 
 TCS .hr                 87.30:  Time Ciculation Ended 
 CV  .mps                 2.45:  Crit Velocity 
 CVMX.mps                 2.74:  Max Crit Veloc 
 DD1 .             Aziz Aliyev:  Direct Drillr 1 
 DDSV.               Geo-Pilot:  DD Service 
 DEFF.%                 100.00:  % Det Eff 
 DLRX.°/30m               1.22:  Dogleg Rot Max 
 DLSO.°/30m               0.52:  Dogleg Oriented 
 DLSX.°/30m               1.22:  Dogleg Str Max 
 DRET.      12.59.00 23-Feb-20:  Drill End Time 
 DRST.      09.44.00 18-Feb-20:  Drill Start Tim 
 DTIM.hr                 23.03:  Time Drilling 
 EDEP.m                3473.01:  End Depth 
 ENG1.         Almaz Almadatov:  Engineer 1 
 ENG2.         Dair Mahammadov:  Engineer 2 
 ENG3.          Nazrin Asgarli:  Engineer 3 
 ETIM.      10.33.36 26-Feb-20:  End Time 
 FLOI.gpm               480.00:  Flow In 
 FLON.gpm               300.00:  Flow In Min 
 FLOS.cptm                1.00:  Fluid Loss 
 FLOX.gpm               550.00:  Flow In Max 
 HFLO.                      No:  High Flow 
 HPRE.                      No:  High Pressure 
 HTEM.                      No:  High Temp 
 HYDO.m                   1.80:  Hydro Offset 
 IFIN.deg                74.42:  Inc, Final 
 IMAX.deg                76.14:  Inc Max 
 IMIN.deg                74.42:  Inc Min 
 IMND.m                3462.72:  Inc Min Depth 
 IMXD.m                3235.69:  Inc Max Depth 
 JARR.                      No:  Jarring 
 LETM.      12.59.00 23-Feb-20:  Log End Time 
 LOST.hr                     0:  Lost Rig Time 
 LSTM.      09.44.00 18-Feb-20:  Log Start Time 
 MDCL.ppm             45000.00:  Mud Chlorides 
 MDES.     Inversion Oil/Synthetic:  Mud Desc 
 DFD .sg                  1.38:  Mud Density 
 MDMN.sg                  1.34:  Dens Mud Min 
 MDMX.sg                  1.49:  Dens Mud Max 
 MOIL.                      67:  Run Mud Oil % 
 MOWR.                   67:33:  Run Mud OWR 
 MSND.                    0.12:  Run Mud Sand % 
 MSOL.                      22:  Run Mud Solids% 
 DFV .spqt               81.00:  Mud Viscosity 
 MWOD.in                  6.75:  MWD Tool OD 
 MWSI.                      No:  Serv Intrp, MWD 
 OTIM.hr                231.44:  Time Operating 
 PCON.          Wear / Scratch:  Pad Condition 
 PMAX.psia             3400.00:  Press Op, Max 
 PV  .cP                 55.00:  Mud PV 
 RUN .                     800:  Run Number 
 ROPA.m/hr               12.00:  ROP Avg 
 ROPN.m/hr                5.00:  ROP Min 
 ROPX.m/hr               28.00:  ROP Max 
 RPMA.rpm               120.00:  RPM Surface Avg 
 RPMN.rpm                40.00:  RPM Surface Min 
 RPMX.rpm               130.00:  RPM Surface Max 
 RRUN.                    0800:  Rig Run Number 
 RTIM.hr                 45.00:  Time Reaming 
 SAZI.deg               145.38:  Azm, Start 
 SDEP.m                3219.01:  Start Depth 
 SIDD.                      No:  Serv Intrp, DD 
 SINC.deg                75.11:  Inc, Start 
 SPPA.psig             2400.00:  SPP Avg 
 SPPN.psig             2320.00:  SPP Min 
 SPPX.psig             3200.00:  SPP Max 
 STIM.      15.15.00 17-Feb-20:  Start Time 
 SVCS.                 DD, MWD:  Services 
 SVER.                    9.20:  Sperry Version 
 TDAT.m                 254.00:  Tot Depth Attmp 
 TDDF.                      No:  Trip for DD 
 TDLG.m                 254.00:  Tot Depth Loggd 
 TFF .                      No:  Trip for Fail 
 TQAA.f-kp               13.00:  Torque Abs Avg 
 TQAN.f-kp                7.00:  Torque Abs Min 
 TQAX.f-kp               15.00:  Torque Abs Max 
 TRRT.°/30m               0.21:  Turn Rotating 
 MRT .                  EWR-M5:  Maximum Recorded Temperature 
 TTMX.degC               64.00:  Max Tool Temp 
 VS01.                90586516:  Virtual Str1 SN 
 VS02.                90513691:  Virtual Str2 SN 
 VS03.                90586523:  Virtual Str3 SN 
 VS04.                90586520:  Virtual Str4 SN 
 VS05.                90590507:  Virtual Str5 SN 
 WBMN.klb                12.00:  WOB Min 
 WITN.           Rufat Babayev:  Customer Rep 2 
 WITN.         Alistair Sprott:  Customer Rep 
 WOBA.klb                18.00:  WOB Avg 
 WOBX.klb                30.00:  WOB Max 
 YP  .lhf2               41.00:  Yield Point 
~Curve Information Block
#MNEM.UNIT                 API CODE     Curve Description
#---------               -----------    ---------------------------
 TIME.HHMMSS            00 000 000 000:  GT Time & Date
 GTDEPTH.m              00 000 000 000:  GT Depth
 GTPQH.psia             00 000 000 000:  GT HR Quartz Pressure
 GTTQ.degC              00 000 000 000:  GT Quartz Temperature
 GTTN.NONE              00 000 000 000:  GT Test Number
 GTET.sec               00 000 000 000:  GT Elapsed Test Time
 GTTVD.m                00 000 000 000:  GT True Vertical Depth
#Other Information
#
#WARRANTY: Halliburton will use its best efforts to furnish customers with 
#accurate information and interpretations that are part of, and incident to, the services 
#provided.  However, Halliburton cannot and does not warrant the accuracy 
#or correctness of such information and interpretations.  Under no circumstances should any 
#such information or interpretation be relied upon as the sole basis for any drilling, 
#completion, production, or financial decision or any procedure involving any risk to the 
#safety of any drilling venture, drilling rig or its crew or any other third party.  The 
#Customer has full responsibility for all drilling, completion and production operation.  
#Halliburton makes no representations or warranties, either expressed or 
#implied, including, but not limited to, the implied warranties of merchantability or fitness 
#for a particular purpose, with respect to the services rendered.  In no event will 
#Halliburton be liable for failure to obtain any particular results or for 
#any damages, including, but not limited to, indirect, special or consequential damages, 
#resulting from the use of any information or interpretation provided by Halliburton.
#
~A           TIME           GTDEPTH  GTPQH  GTTQ  GTTN  GTET   GTTVD  
# ...
   01:27:40.181.24-Feb-2020 3405.01 4215.27 56.91 3.00  92.02 2716.73
   01:27:40.381.24-Feb-2020 3405.01 4215.27 56.91 3.00  92.22 2716.73
   01:27:40.581.24-Feb-2020 3405.01 4215.21 56.91 3.00  92.42 2716.73
   01:27:40.781.24-Feb-2020 3405.01 4215.18 56.91 3.00  92.62 2716.73
   01:27:40.981.24-Feb-2020 3405.01 4215.25 56.91 3.00  92.82 2716.73
   01:27:41.181.24-Feb-2020 3405.01 4215.36 56.91 3.00  93.02 2716.73
   01:27:41.381.24-Feb-2020 3405.01 4215.36 56.91 3.00  93.22 2716.73
   01:27:41.581.24-Feb-2020 3405.01 4215.16 56.91 3.00  93.42 2716.73
   01:27:41.781.24-Feb-2020 3405.01 4215.38 56.91 3.00  93.62 2716.73
   01:27:41.981.24-Feb-2020 3405.01 4215.15 56.91 3.00  93.82 2716.73
   01:27:42.181.24-Feb-2020 3405.01 4215.13 56.91 3.00  94.02 2716.73
   01:27:42.381.24-Feb-2020 3405.01 4215.13 56.91 3.00  94.22 2716.73
   01:27:42.581.24-Feb-2020 3405.01 4215.26 56.91 3.00  94.42 2716.73
   01:27:42.781.24-Feb-2020 3405.01 4215.21 56.91 3.00  94.62 2716.73
   01:27:42.981.24-Feb-2020 3405.01 4215.18 56.91 3.00  94.82 2716.73
   01:27:43.181.24-Feb-2020 3405.01 4215.21 56.91 3.00  95.02 2716.73
   01:27:43.381.24-Feb-2020 3405.01 4215.21 56.91 3.00  95.22 2716.73
   01:27:43.581.24-Feb-2020 3405.01 4215.21 56.91 3.00  95.42 2716.73
   01:27:43.781.24-Feb-2020 3405.01 4215.20 56.91 3.00  95.62 2716.73
   01:27:43.981.24-Feb-2020 3405.01 4215.21 56.91 3.00  95.82 2716.73
   01:27:44.181.24-Feb-2020 3405.01 4215.21 56.91 3.00  96.02 2716.73
   01:27:44.381.24-Feb-2020 3405.01 4215.21 56.91 3.00  96.22 2716.73
   01:27:44.581.24-Feb-2020 3405.01 4215.21 56.91 3.00  96.42 2716.73
   01:27:44.781.24-Feb-2020 3405.01 4215.21 56.91 3.00  96.62 2716.73
   01:27:44.982.24-Feb-2020 3405.01 4214.99 56.91 3.00  96.82 2716.73
   01:27:45.182.24-Feb-2020 3405.01 4215.53 56.91 3.00  97.02 2716.73
   01:27:45.382.24-Feb-2020 3405.01 4215.53 56.91 3.00  97.22 2716.73
   01:27:45.582.24-Feb-2020 3405.01 4215.09 56.91 3.00  97.42 2716.73
   01:27:45.782.24-Feb-2020 3405.01 4215.21 56.91 3.00  97.62 2716.73
   01:27:45.982.24-Feb-2020 3405.01 4215.23 56.91 3.00  97.82 2716.73
   01:27:46.182.24-Feb-2020 3405.01 4215.19 56.91 3.00  98.02 2716.73
   01:27:46.382.24-Feb-2020 3405.01 4215.19 56.91 3.00  98.22 2716.73
   01:27:46.582.24-Feb-2020 3405.01 4215.20 56.91 3.00  98.42 2716.73
   01:27:46.782.24-Feb-2020 3405.01 4215.21 56.91 3.00  98.62 2716.73
   01:27:46.982.24-Feb-2020 3405.01 4215.22 56.91 3.00  98.82 2716.73
   01:27:47.182.24-Feb-2020 3405.01 4215.20 56.91 3.00  99.02 2716.73
   01:27:47.382.24-Feb-2020 3405.01 4215.20 56.91 3.00  99.22 2716.73
   01:27:47.582.24-Feb-2020 3405.01 4215.20 56.91 3.00  99.42 2716.73
   01:27:47.782.24-Feb-2020 3405.01 4215.23 56.91 3.00  99.62 2716.73
   01:27:47.982.24-Feb-2020 3405.01 4215.21 56.91 3.00  99.82 2716.73
   01:27:48.182.24-Feb-2020 3405.01 4215.38 56.91 3.00 100.02 2716.73
   01:27:48.382.24-Feb-2020 3405.01 4215.38 56.91 3.00 100.22 2716.73
   01:27:48.582.24-Feb-2020 3405.01 4215.13 56.91 3.00 100.42 2716.73
   01:27:48.782.24-Feb-2020 3405.01 4215.25 56.91 3.00 100.62 2716.73
   01:27:48.982.24-Feb-2020 3405.01 4215.27 56.91 3.00 100.82 2716.73
   01:27:49.182.24-Feb-2020 3405.01 4215.19 56.91 3.00 101.02 2716.73
   01:27:49.382.24-Feb-2020 3405.01 4215.19 56.91 3.00 101.22 2716.73
   01:27:49.582.24-Feb-2020 3405.01 4215.46 56.91 3.00 101.42 2716.73
   01:27:49.783.24-Feb-2020 3405.01 4215.24 56.91 3.00 101.62 2716.73
   01:27:49.983.24-Feb-2020 3405.01 4215.15 56.91 3.00 101.82 2716.73
   01:27:50.183.24-Feb-2020 3405.01 4215.20 56.91 3.00 102.02 2716.73
   01:27:50.383.24-Feb-2020 3405.01 4215.20 56.91 3.00 102.22 2716.73
   01:27:50.583.24-Feb-2020 3405.01 4215.41 56.91 3.00 102.42 2716.73
   01:27:50.783.24-Feb-2020 3405.01 4215.10 56.91 3.00 102.62 2716.73
   01:27:50.983.24-Feb-2020 3405.01 4215.12 56.91 3.00 102.82 2716.73
   01:27:51.183.24-Feb-2020 3405.01 4215.27 56.91 3.00 103.02 2716.73
   01:27:51.383.24-Feb-2020 3405.01 4215.21 56.91 3.00 103.22 2716.73
   01:27:51.583.24-Feb-2020 3405.01 4215.10 56.91 3.00 103.42 2716.73
   01:27:51.783.24-Feb-2020 3405.01 4215.41 56.91 3.00 103.62 2716.73
   01:27:51.983.24-Feb-2020 3405.01 4215.23 56.91 3.00 103.82 2716.73
   01:27:52.183.24-Feb-2020 3405.01 4215.18 56.91 3.00 104.02 2716.73
   01:27:52.383.24-Feb-2020 3405.01 4215.18 56.91 3.00 104.22 2716.73
   01:27:52.583.24-Feb-2020 3405.01 4215.21 56.91 3.00 104.42 2716.73
   01:27:52.783.24-Feb-2020 3405.01 4215.22 56.91 3.00 104.62 2716.73
   01:27:52.983.24-Feb-2020 3405.01 4215.21 56.91 3.00 104.82 2716.73
   01:27:53.183.24-Feb-2020 3405.01 4215.22 56.91 3.00 105.02 2716.73
   01:27:53.383.24-Feb-2020 3405.01 4215.22 56.91 3.00 105.22 2716.73
   01:27:53.583.24-Feb-2020 3405.01 4215.21 56.91 3.00 105.42 2716.73
   01:27:53.783.24-Feb-2020 3405.01 4215.22 56.91 3.00 105.62 2716.73
   01:27:53.983.24-Feb-2020 3405.01 4215.21 56.91 3.00 105.82 2716.73
   01:27:54.183.24-Feb-2020 3405.01 4215.22 56.91 3.00 106.02 2716.73
   01:27:54.383.24-Feb-2020 3405.01 4215.25 56.91 3.00 106.22 2716.73
   01:27:54.584.24-Feb-2020 3405.01 4215.29 56.91 3.00 106.42 2716.73
   01:27:54.784.24-Feb-2020 3405.01 4215.13 56.91 3.00 106.62 2716.73
   01:27:54.984.24-Feb-2020 3405.01 4215.17 56.91 3.00 106.82 2716.73
   01:27:55.184.24-Feb-2020 3405.01 4215.20 56.91 3.00 107.02 2716.73
   01:27:55.384.24-Feb-2020 3405.01 4215.26 56.91 3.00 107.22 2716.73
   01:27:55.584.24-Feb-2020 3405.01 4215.20 56.91 3.00 107.42 2716.73
   01:27:55.784.24-Feb-2020 3405.01 4215.20 56.91 3.00 107.62 2716.73
   01:27:55.984.24-Feb-2020 3405.01 4215.22 56.91 3.00 107.82 2716.73
   01:27:56.184.24-Feb-2020 3405.01 4215.21 56.91 3.00 108.02 2716.73
   01:27:56.384.24-Feb-2020 3405.01 4215.21 56.91 3.00 108.22 2716.73
   01:27:56.584.24-Feb-2020 3405.01 4215.22 56.91 3.00 108.42 2716.73
   01:27:56.784.24-Feb-2020 3405.01 4215.21 56.91 3.00 108.62 2716.73
   01:27:56.984.24-Feb-2020 3405.01 4215.21 56.91 3.00 108.82 2716.73
   01:27:57.184.24-Feb-2020 3405.01 4215.21 56.91 3.00 109.02 2716.73
   01:27:57.384.24-Feb-2020 3405.01 4215.23 56.91 3.00 109.22 2716.73
   01:27:57.584.24-Feb-2020 3405.01 4215.19 56.91 3.00 109.42 2716.73
   01:27:57.784.24-Feb-2020 3405.01 4215.16 56.91 3.00 109.62 2716.73
   01:27:57.984.24-Feb-2020 3405.01 4215.08 56.91 3.00 109.82 2716.73
   01:27:58.184.24-Feb-2020 3405.01 4215.45 56.91 3.00 110.02 2716.73
   01:27:58.384.24-Feb-2020 3405.01 4215.45 56.91 3.00 110.22 2716.73
   01:27:58.584.24-Feb-2020 3405.01 4215.15 56.91 3.00 110.42 2716.73
   01:27:58.784.24-Feb-2020 3405.01 4214.98 56.91 3.00 110.62 2716.73
   01:27:58.984.24-Feb-2020 3405.01 4215.54 56.91 3.00 110.82 2716.73
   01:27:59.184.24-Feb-2020 3405.01 4215.23 56.91 3.00 111.02 2716.73
   01:27:59.385.24-Feb-2020 3405.01 4215.09 56.91 3.00 111.22 2716.73
   01:27:59.585.24-Feb-2020 3405.01 4215.22 56.91 3.00 111.42 2716.73
   01:27:59.785.24-Feb-2020 3405.01 4215.24 56.91 3.00 111.62 2716.73
   01:27:59.985.24-Feb-2020 3405.01 4215.20 56.91 3.00 111.82 2716.73
   01:28:00.185.24-Feb-2020 3405.01 4215.18 56.91 3.00 112.02 2716.73
   01:28:00.385.24-Feb-2020 3405.01 4215.18 56.91 3.00 112.22 2716.73
   01:28:00.585.24-Feb-2020 3405.01 4215.44 56.91 3.00 112.42 2716.73
   01:28:00.785.24-Feb-2020 3405.01 4215.23 56.91 3.00 112.62 2716.73
   01:28:00.985.24-Feb-2020 3405.01 4214.92 56.91 3.00 112.82 2716.73
   01:28:01.185.24-Feb-2020 3405.01 4215.54 56.91 3.00 113.02 2716.73
   01:28:01.385.24-Feb-2020 3405.01 4215.54 56.91 3.00 113.22 2716.73
   01:28:01.585.24-Feb-2020 3405.01 4215.11 56.91 3.00 113.42 2716.73
   01:28:01.785.24-Feb-2020 3405.01 4215.23 56.91 3.00 113.62 2716.73
   01:28:01.985.24-Feb-2020 3405.01 4215.22 56.91 3.00 113.82 2716.73
   01:28:02.185.24-Feb-2020 3405.01 4215.21 56.91 3.00 114.02 2716.73
   01:28:02.385.24-Feb-2020 3405.01 4215.21 56.91 3.00 114.22 2716.73
   01:28:02.585.24-Feb-2020 3405.01 4215.21 56.91 3.00 114.42 2716.73
   01:28:02.785.24-Feb-2020 3405.01 4215.21 56.91 3.00 114.62 2716.73
   01:28:02.985.24-Feb-2020 3405.01 4215.21 56.91 3.00 114.82 2716.73
