~Version Information
 VERS.                  2.0:   CWLS log ASCII Standard -VERSION 2.0
 WRAP.                   NO:   One line per depth step
~Well Information Block
#MNEM.UNIT     VALUE/NAME     DESCRIPTION
#---------     -----------    ---------------------------
 STRT.S             03:19:12 24-Feb-20: START TIME 03:19:12 24-Feb-20
 STOP.S             03:27:48 24-Feb-20: STOP TIME  03:27:48 24-Feb-20
 STEP.S                   0.00: STEP TIME
 NULL.                 -999.25: NULL VALUE
 JOBN.        AZ-XX-0905059384:  JOB TICKET NUMB
 PDAT.          Mean Sea Level:  PERMANENT DATUM
 UNIT.                     N/A:  LOGGING EQUIPMENT ID
 DCON.         Sperry Drilling:  DIRECTNL CONTR
 DOE .                     N/A:  DOE NUMBER
 RIG .             West Chirag:  RIG NAME
 WELL.                     J22:  WELL NAME
 MWDS.                    Baku:  MWD SHOP
 SRVC.     TURAN Drilling & Engineering:  CONTRACTOR
 FLD .                     ACG:  FIELD NAME
 CTRY.              Azerbaijan:  COUNTRY NAME
 PROV.                    Baku:  PROVINCE
 STAT.                    Baku:  STATE NAME
 REGN.                   EESSA:  REGION
 BASE.              Azerbaijan:  LOGGING EQUIPMENT BASE LOCATION
 UWI .                     N/A:  UNIQUE WELL IDENTIFIER
 API .                     N/A:  API NUMBER
 COMP.     BP Exploration (Caspian Sea) Ltd.:  COMPANY
 WTYP.                Deviated:  WELL TYPE
 MDS .        Operator Entered:  MAG DATA SOURCE
 SON .        AZ-XX-0905059384:  JOB NUMBER
 FTOP.          Formation Tops:  FORM TOPS DESC
 ILTD.               Lithology:  INTERP LTH DESC
 SVYD.                  Survey:  SURVEY DESC
 DMOD.             Drill Model:  DRILL MOD DESC
 HPTY.       Minimum Curvature:  HOLE POS TYPE
 NREF.                    Grid:  NORTH REFERENCE
 SPUD.               09-Jan-20:  SPUD DATE
 DATE.      14.04.48 07-Feb-20:  END TIME
 STIM.      07.00.00 09-Jan-20:  START TIME
 DMF .             Drill Floor:  DRILL MEAS FROM
 DFST.                        :  DIST FSL TEXT
 DFWT.                        :  DIST FWL TEXT
 CNTY.                        :  COUNTY
 LOC .                        :  LOCATION
 LMF .             Drill Floor:  LOG MEASURED FROM
 DEP .m                   0.00:  DEPTH
 VSNS.m                  10.28:  VERT SEC N/S
 VSEW.m                  -6.24:  VERT SEC E/W
 AGAP.m                  43.00:  AIR GAP
 APD .m                  43.00:  DEPTH ABOVE PD
 WDMS.m                 169.80:  WD ELEV
 EGL .m                   0.00:  GROUND ELEVATION
 EPD .m                   0.00:  ELEVATION
 AZTC.deg                 6.27:  AZM TOTAL CORR
 GRDC.deg                 0.15:  GRID CORRECTION
 MDEC.deg                 6.42:  MAGNETIC DECL
 MDIP.deg                59.56:  MAGNETIC DIP
 MFLD.nT              50277.00:  MAGNETIC FIELD
 GVFD.g                   1.00:  GRAVITY FIELD
 VSDR.deg               148.53:  VERT SEC DIRECT
 TDD .m                3473.01:  TOTAL DEPTH (DRILLER)
 SDEP.m                 364.00:  START DEPTH
 DFSL.m                   0.00:  DISTANCE FSL
 DFWL.m                   0.00:  DISTANCE FWL
 UTMY.m             4443793.85:  UTM Y
 UTMX.m              519005.06:  UTM X
 WHEW.m                  -6.24:  WELL HEAD E/W
 WHNS.m                  10.28:  WELL HEAD N/S
 LONG.deg                51.22:  LONGITUDE
 LATI.deg                40.13:  LATITUDE
 TVDS.m                  43.00:  TVDSS CORRECTN
 EKB .m                   0.00:  KB ELEVATION
 EDF .m                  43.00:  DF ELEVATION
 TDL .m                 254.00:  TOTAL DEPTH (LOGGER)
 MAGU.                 1850021:  MAGUTM CHECKSUM
 VSC .                       0:  VS TO CLOSURE
~Parameter Information Block
#MNEM.UNIT       Value        Description
#---------     -----------    ---------------------------
 AV  .mps                 0.50:  Ann Velocity 
 AVMX.mps                 1.40:  Max Ann Veloc 
 AZIF.deg               144.94:  Azm, Final 
 BHAT.        Rotary Steerable:  BHA Type 
 BROT.°/30m               0.23:  Build Rotating 
 BS  .in                  8.50:  Bit Size 
 BTPL.psig              264.00:  Bit Press Loss 
 CABU.                     Yes:  Customer Abuse 
 COMM.                     ´á{:  Run Comments 1 
 TCS .hr                 87.30:  Time Ciculation Ended 
 CV  .mps                 2.45:  Crit Velocity 
 CVMX.mps                 2.74:  Max Crit Veloc 
 DD1 .             Aziz Aliyev:  Direct Drillr 1 
 DDSV.               Geo-Pilot:  DD Service 
 DEFF.%                 100.00:  % Det Eff 
 DLRX.°/30m               1.22:  Dogleg Rot Max 
 DLSO.°/30m               0.52:  Dogleg Oriented 
 DLSX.°/30m               1.22:  Dogleg Str Max 
 DRET.      12.59.00 23-Feb-20:  Drill End Time 
 DRST.      09.44.00 18-Feb-20:  Drill Start Tim 
 DTIM.hr                 23.03:  Time Drilling 
 EDEP.m                3473.01:  End Depth 
 ENG1.         Almaz Almadatov:  Engineer 1 
 ENG2.         Dair Mahammadov:  Engineer 2 
 ENG3.          Nazrin Asgarli:  Engineer 3 
 ETIM.      10.33.36 26-Feb-20:  End Time 
 FLOI.gpm               480.00:  Flow In 
 FLON.gpm               300.00:  Flow In Min 
 FLOS.cptm                1.00:  Fluid Loss 
 FLOX.gpm               550.00:  Flow In Max 
 HFLO.                      No:  High Flow 
 HPRE.                      No:  High Pressure 
 HTEM.                      No:  High Temp 
 HYDO.m                   1.80:  Hydro Offset 
 IFIN.deg                74.42:  Inc, Final 
 IMAX.deg                76.14:  Inc Max 
 IMIN.deg                74.42:  Inc Min 
 IMND.m                3462.72:  Inc Min Depth 
 IMXD.m                3235.69:  Inc Max Depth 
 JARR.                      No:  Jarring 
 LETM.      12.59.00 23-Feb-20:  Log End Time 
 LOST.hr                     0:  Lost Rig Time 
 LSTM.      09.44.00 18-Feb-20:  Log Start Time 
 MDCL.ppm             45000.00:  Mud Chlorides 
 MDES.     Inversion Oil/Synthetic:  Mud Desc 
 DFD .sg                  1.38:  Mud Density 
 MDMN.sg                  1.34:  Dens Mud Min 
 MDMX.sg                  1.49:  Dens Mud Max 
 MOIL.                      67:  Run Mud Oil % 
 MOWR.                   67:33:  Run Mud OWR 
 MSND.                    0.12:  Run Mud Sand % 
 MSOL.                      22:  Run Mud Solids% 
 DFV .spqt               81.00:  Mud Viscosity 
 MWOD.in                  6.75:  MWD Tool OD 
 MWSI.                      No:  Serv Intrp, MWD 
 OTIM.hr                231.44:  Time Operating 
 PCON.          Wear / Scratch:  Pad Condition 
 PMAX.psia             3400.00:  Press Op, Max 
 PV  .cP                 55.00:  Mud PV 
 RUN .                     800:  Run Number 
 ROPA.m/hr               12.00:  ROP Avg 
 ROPN.m/hr                5.00:  ROP Min 
 ROPX.m/hr               28.00:  ROP Max 
 RPMA.rpm               120.00:  RPM Surface Avg 
 RPMN.rpm                40.00:  RPM Surface Min 
 RPMX.rpm               130.00:  RPM Surface Max 
 RRUN.                    0800:  Rig Run Number 
 RTIM.hr                 45.00:  Time Reaming 
 SAZI.deg               145.38:  Azm, Start 
 SDEP.m                3219.01:  Start Depth 
 SIDD.                      No:  Serv Intrp, DD 
 SINC.deg                75.11:  Inc, Start 
 SPPA.psig             2400.00:  SPP Avg 
 SPPN.psig             2320.00:  SPP Min 
 SPPX.psig             3200.00:  SPP Max 
 STIM.      15.15.00 17-Feb-20:  Start Time 
 SVCS.                 DD, MWD:  Services 
 SVER.                    9.20:  Sperry Version 
 TDAT.m                 254.00:  Tot Depth Attmp 
 TDDF.                      No:  Trip for DD 
 TDLG.m                 254.00:  Tot Depth Loggd 
 TFF .                      No:  Trip for Fail 
 TQAA.f-kp               13.00:  Torque Abs Avg 
 TQAN.f-kp                7.00:  Torque Abs Min 
 TQAX.f-kp               15.00:  Torque Abs Max 
 TRRT.°/30m               0.21:  Turn Rotating 
 MRT .                  EWR-M5:  Maximum Recorded Temperature 
 TTMX.degC               64.00:  Max Tool Temp 
 VS01.                90586516:  Virtual Str1 SN 
 VS02.                90513691:  Virtual Str2 SN 
 VS03.                90586523:  Virtual Str3 SN 
 VS04.                90586520:  Virtual Str4 SN 
 VS05.                90590507:  Virtual Str5 SN 
 WBMN.klb                12.00:  WOB Min 
 WITN.           Rufat Babayev:  Customer Rep 2 
 WITN.         Alistair Sprott:  Customer Rep 
 WOBA.klb                18.00:  WOB Avg 
 WOBX.klb                30.00:  WOB Max 
 YP  .lhf2               41.00:  Yield Point 
~Curve Information Block
#MNEM.UNIT                 API CODE     Curve Description
#---------               -----------    ---------------------------
 TIME.HHMMSS            00 000 000 000:  GT Time & Date
 GTDEPTH.m              00 000 000 000:  GT Depth
 GTPQH.psia             00 000 000 000:  GT HR Quartz Pressure
 GTTQ.degC              00 000 000 000:  GT Quartz Temperature
 GTTN.NONE              00 000 000 000:  GT Test Number
 GTET.sec               00 000 000 000:  GT Elapsed Test Time
 GTTVD.m                00 000 000 000:  GT True Vertical Depth
#Other Information
#
#WARRANTY: Halliburton will use its best efforts to furnish customers with 
#accurate information and interpretations that are part of, and incident to, the services 
#provided.  However, Halliburton cannot and does not warrant the accuracy 
#or correctness of such information and interpretations.  Under no circumstances should any 
#such information or interpretation be relied upon as the sole basis for any drilling, 
#completion, production, or financial decision or any procedure involving any risk to the 
#safety of any drilling venture, drilling rig or its crew or any other third party.  The 
#Customer has full responsibility for all drilling, completion and production operation.  
#Halliburton makes no representations or warranties, either expressed or 
#implied, including, but not limited to, the implied warranties of merchantability or fitness 
#for a particular purpose, with respect to the services rendered.  In no event will 
#Halliburton be liable for failure to obtain any particular results or for 
#any damages, including, but not limited to, indirect, special or consequential damages, 
#resulting from the use of any information or interpretation provided by Halliburton.
#
~A           TIME           GTDEPTH  GTPQH  GTTQ  GTTN  GTET   GTTVD  
# ...
   03:19:35.115.24-Feb-2020 3366.71 5707.68 55.11 6.00  23.01 2706.89
   03:19:35.315.24-Feb-2020 3366.71 5707.68 55.11 6.00  23.21 2706.89
   03:19:35.515.24-Feb-2020 3366.71 5708.45 55.11 6.00  23.41 2706.89
   03:19:35.715.24-Feb-2020 3366.71 5708.46 55.11 6.00  23.61 2706.89
   03:19:35.915.24-Feb-2020 3366.71 5707.42 55.11 6.00  23.81 2706.89
   03:19:36.115.24-Feb-2020 3366.71 5706.94 55.11 6.00  24.01 2706.89
   03:19:36.315.24-Feb-2020 3366.71 5706.94 55.11 6.00  24.21 2706.89
   03:19:36.515.24-Feb-2020 3366.71 5707.93 55.11 6.00  24.41 2706.89
   03:19:36.715.24-Feb-2020 3366.71 5708.54 55.11 6.00  24.61 2706.89
   03:19:36.916.24-Feb-2020 3366.71 5708.17 55.11 6.00  24.81 2706.89
   03:19:37.116.24-Feb-2020 3366.71 5709.78 55.11 6.00  25.01 2706.89
   03:19:37.316.24-Feb-2020 3366.71 5709.78 55.11 6.00  25.21 2706.89
   03:19:37.516.24-Feb-2020 3366.71 5708.80 55.10 6.00  25.41 2706.89
   03:19:37.716.24-Feb-2020 3366.71 5707.41 55.10 6.00  25.61 2706.89
   03:19:37.916.24-Feb-2020 3366.71 5707.28 55.10 6.00  25.81 2706.89
   03:19:38.116.24-Feb-2020 3366.71 5707.80 55.10 6.00  26.01 2706.89
   03:19:38.316.24-Feb-2020 3366.71 5707.80 55.10 6.00  26.21 2706.89
   03:19:38.516.24-Feb-2020 3366.71 5707.63 55.10 6.00  26.41 2706.89
   03:19:38.716.24-Feb-2020 3366.71 5707.29 55.10 6.00  26.61 2706.89
   03:19:38.916.24-Feb-2020 3366.71 5707.67 55.10 6.00  26.81 2706.89
   03:19:39.116.24-Feb-2020 3366.71 5708.10 55.10 6.00  27.01 2706.89
   03:19:39.316.24-Feb-2020 3366.71 5708.10 55.10 6.00  27.21 2706.89
   03:19:39.517.24-Feb-2020 3366.71 5706.78 55.10 6.00  27.41 2706.89
   03:19:39.717.24-Feb-2020 3366.71 5707.04 55.10 6.00  27.61 2706.89
   03:19:39.917.24-Feb-2020 3366.71 5707.95 55.10 6.00  27.81 2706.89
   03:19:40.117.24-Feb-2020 3366.71 5708.44 55.10 6.00  28.01 2706.89
   03:19:40.317.24-Feb-2020 3366.71 5708.44 55.10 6.00  28.21 2706.89
   03:19:40.517.24-Feb-2020 3366.71 5709.93 55.10 6.00  28.41 2706.89
   03:19:40.717.24-Feb-2020 3366.71 5705.69 55.10 6.00  28.61 2706.89
   03:19:40.917.24-Feb-2020 3366.71 5708.32 55.10 6.00  28.81 2706.89
   03:19:41.117.24-Feb-2020 3366.71 5707.06 55.10 6.00  29.01 2706.89
   03:19:41.317.24-Feb-2020 3366.71 5707.06 55.10 6.00  29.21 2706.89
   03:19:41.517.24-Feb-2020 3366.71 5706.11 55.10 6.00  29.41 2706.89
   03:19:41.717.24-Feb-2020 3366.71 5708.55 55.10 6.00  29.61 2706.89
   03:19:41.918.24-Feb-2020 3366.71 5707.56 55.10 6.00  29.81 2706.89
   03:19:42.118.24-Feb-2020 3366.71 5707.53 55.10 6.00  30.01 2706.89
   03:19:42.318.24-Feb-2020 3366.71 5707.53 55.10 6.00  30.21 2706.89
   03:19:42.518.24-Feb-2020 3366.71 5710.44 55.10 6.00  30.41 2706.89
   03:19:42.718.24-Feb-2020 3366.71 5706.45 55.10 6.00  30.61 2706.89
   03:19:42.918.24-Feb-2020 3366.71 5709.10 55.10 6.00  30.81 2706.89
   03:19:43.118.24-Feb-2020 3366.71 5708.32 55.10 6.00  31.01 2706.89
   03:19:43.318.24-Feb-2020 3366.71 5708.32 55.10 6.00  31.21 2706.89
   03:19:43.518.24-Feb-2020 3366.71 5711.01 55.10 6.00  31.41 2706.89
   03:19:43.718.24-Feb-2020 3366.71 5706.31 55.10 6.00  31.61 2706.89
   03:19:43.918.24-Feb-2020 3366.71 5708.80 55.10 6.00  31.81 2706.89
   03:19:44.118.24-Feb-2020 3366.71 5707.59 55.10 6.00  32.01 2706.89
   03:19:44.318.24-Feb-2020 3366.71 5707.59 55.10 6.00  32.21 2706.89
   03:19:44.519.24-Feb-2020 3366.71 5708.31 55.10 6.00  32.41 2706.89
   03:19:44.719.24-Feb-2020 3366.71 5707.83 55.10 6.00  32.61 2706.89
   03:19:44.919.24-Feb-2020 3366.71 5708.35 55.10 6.00  32.81 2706.89
   03:19:45.119.24-Feb-2020 3366.71 5708.31 55.10 6.00  33.01 2706.89
   03:19:45.319.24-Feb-2020 3366.71 5708.31 55.10 6.00  33.21 2706.89
   03:19:45.519.24-Feb-2020 3366.71 5708.66 55.10 6.00  33.41 2706.89
   03:19:45.719.24-Feb-2020 3366.71 5708.56 55.10 6.00  33.61 2706.89
   03:19:45.919.24-Feb-2020 3366.71 5708.50 55.10 6.00  33.81 2706.89
   03:19:46.119.24-Feb-2020 3366.71 5708.72 55.10 6.00  34.01 2706.89
   03:19:46.319.24-Feb-2020 3366.71 5708.72 55.10 6.00  34.21 2706.89
   03:19:46.519.24-Feb-2020 3366.71 5709.22 55.10 6.00  34.41 2706.89
   03:19:46.719.24-Feb-2020 3366.71 5710.89 55.10 6.00  34.61 2706.89
   03:19:46.920.24-Feb-2020 3366.71 5707.35 55.10 6.00  34.81 2706.89
   03:19:47.120.24-Feb-2020 3366.71 5708.89 55.10 6.00  35.01 2706.89
   03:19:47.320.24-Feb-2020 3366.71 5708.89 55.10 6.00  35.21 2706.89
   03:19:47.520.24-Feb-2020 3366.71 5708.63 55.10 6.00  35.41 2706.89
   03:19:47.720.24-Feb-2020 3366.71 5707.97 55.10 6.00  35.61 2706.89
   03:19:47.920.24-Feb-2020 3366.71 5707.34 55.10 6.00  35.81 2706.89
   03:19:48.120.24-Feb-2020 3366.71 5707.37 55.10 6.00  36.01 2706.89
   03:19:48.320.24-Feb-2020 3366.71 5707.37 55.10 6.00  36.21 2706.89
   03:19:48.520.24-Feb-2020 3366.71 5708.55 55.10 6.00  36.41 2706.89
   03:19:48.720.24-Feb-2020 3366.71 5709.13 55.10 6.00  36.61 2706.89
   03:19:48.920.24-Feb-2020 3366.71 5708.30 55.10 6.00  36.81 2706.89
   03:19:49.120.24-Feb-2020 3366.71 5707.53 55.10 6.00  37.01 2706.89
   03:19:49.320.24-Feb-2020 3366.71 5707.53 55.10 6.00  37.21 2706.89
   03:19:49.521.24-Feb-2020 3366.71 5708.96 55.10 6.00  37.41 2706.89
   03:19:49.721.24-Feb-2020 3366.71 5709.38 55.10 6.00  37.62 2706.89
   03:19:49.921.24-Feb-2020 3366.71 5709.00 55.10 6.00  37.82 2706.89
   03:19:50.121.24-Feb-2020 3366.71 5710.26 55.10 6.00  38.02 2706.89
   03:19:50.321.24-Feb-2020 3366.71 5710.26 55.10 6.00  38.22 2706.89
   03:19:50.521.24-Feb-2020 3366.71 5709.28 55.10 6.00  38.42 2706.89
   03:19:50.721.24-Feb-2020 3366.71 5707.75 55.10 6.00  38.62 2706.89
   03:19:50.921.24-Feb-2020 3366.71 5710.77 55.10 6.00  38.82 2706.89
   03:19:51.121.24-Feb-2020 3366.71 5706.89 55.10 6.00  39.02 2706.89
   03:19:51.321.24-Feb-2020 3366.71 5706.89 55.10 6.00  39.22 2706.89
   03:19:51.521.24-Feb-2020 3366.71 5708.13 55.10 6.00  39.42 2706.89
   03:19:51.721.24-Feb-2020 3366.71 5708.11 55.10 6.00  39.62 2706.89
   03:19:51.922.24-Feb-2020 3366.71 5708.79 55.10 6.00  39.82 2706.89
   03:19:52.122.24-Feb-2020 3366.71 5710.55 55.10 6.00  40.02 2706.89
   03:19:52.322.24-Feb-2020 3366.71 5710.55 55.10 6.00  40.22 2706.89
   03:19:52.522.24-Feb-2020 3366.71 5710.02 55.10 6.00  40.42 2706.89
   03:19:52.722.24-Feb-2020 3366.71 5708.81 55.10 6.00  40.62 2706.89
   03:19:52.922.24-Feb-2020 3366.71 5712.34 55.10 6.00  40.82 2706.89
   03:19:53.122.24-Feb-2020 3366.71 5707.65 55.10 6.00  41.02 2706.89
   03:19:53.322.24-Feb-2020 3366.71 5707.65 55.10 6.00  41.22 2706.89
   03:19:53.522.24-Feb-2020 3366.71 5708.68 55.10 6.00  41.42 2706.89
   03:19:53.722.24-Feb-2020 3366.71 5708.25 55.10 6.00  41.62 2706.89
   03:19:53.922.24-Feb-2020 3366.71 5709.14 55.10 6.00  41.82 2706.89
   03:19:54.122.24-Feb-2020 3366.71 5708.77 55.10 6.00  42.02 2706.89
   03:19:54.322.24-Feb-2020 3366.71 5708.77 55.10 6.00  42.22 2706.89
   03:19:54.523.24-Feb-2020 3366.71 5708.84 55.10 6.00  42.42 2706.89
   03:19:54.723.24-Feb-2020 3366.71 5709.00 55.10 6.00  42.62 2706.89
   03:19:54.923.24-Feb-2020 3366.71 5709.36 55.10 6.00  42.82 2706.89
   03:19:55.123.24-Feb-2020 3366.71 5709.36 55.10 6.00  43.02 2706.89
   03:19:55.323.24-Feb-2020 3366.71 5709.36 55.10 6.00  43.22 2706.89
   03:19:55.523.24-Feb-2020 3366.71 5709.37 55.10 6.00  43.42 2706.89
   03:19:55.723.24-Feb-2020 3366.71 5709.48 55.10 6.00  43.62 2706.89
   03:19:55.923.24-Feb-2020 3366.71 5709.73 55.10 6.00  43.82 2706.89
   03:19:56.123.24-Feb-2020 3366.71 5710.07 55.10 6.00  44.02 2706.89
   03:19:56.323.24-Feb-2020 3366.71 5710.07 55.10 6.00  44.22 2706.89
   03:19:56.523.24-Feb-2020 3366.71 5629.73 55.10 6.00  44.42 2706.89
   03:19:56.723.24-Feb-2020 3366.71 5519.93 55.10 6.00  44.62 2706.89
   03:19:56.924.24-Feb-2020 3366.71 5559.95 55.10 6.00  44.82 2706.89
   03:19:57.124.24-Feb-2020 3366.71 5618.41 55.10 6.00  45.02 2706.89
   03:19:57.324.24-Feb-2020 3366.71 5618.41 55.10 6.00  45.22 2706.89
   03:19:57.524.24-Feb-2020 3366.71 5617.35 55.10 6.00  45.42 2706.89
   03:19:57.724.24-Feb-2020 3366.71 5598.46 55.10 6.00  45.62 2706.89
   03:19:57.924.24-Feb-2020 3366.71 5577.04 55.10 6.00  45.82 2706.89
