~Version Information
 VERS.                  2.0:   CWLS log ASCII Standard -VERSION 2.0
 WRAP.                   NO:   One line per depth step
~Well Information Block
#MNEM.UNIT     VALUE/NAME     DESCRIPTION
#---------     -----------    ---------------------------
 STRT.S             00:23:32 24-Feb-20: START TIME 00:23:32 24-Feb-20
 STOP.S             00:30:40 24-Feb-20: STOP TIME  00:30:40 24-Feb-20
 STEP.S                   0.00: STEP TIME
 NULL.                 -999.25: NULL VALUE
 JOBN.        AZ-XX-0905059384:  JOB TICKET NUMB
 PDAT.          Mean Sea Level:  PERMANENT DATUM
 UNIT.                     N/A:  LOGGING EQUIPMENT ID
 DCON.         Sperry Drilling:  DIRECTNL CONTR
 DOE .                     N/A:  DOE NUMBER
 RIG .             West Chirag:  RIG NAME
 WELL.                     J22:  WELL NAME
 MWDS.                    Baku:  MWD SHOP
 SRVC.     TURAN Drilling & Engineering:  CONTRACTOR
 FLD .                     ACG:  FIELD NAME
 CTRY.              Azerbaijan:  COUNTRY NAME
 PROV.                    Baku:  PROVINCE
 STAT.                    Baku:  STATE NAME
 REGN.                   EESSA:  REGION
 BASE.              Azerbaijan:  LOGGING EQUIPMENT BASE LOCATION
 UWI .                     N/A:  UNIQUE WELL IDENTIFIER
 API .                     N/A:  API NUMBER
 COMP.     BP Exploration (Caspian Sea) Ltd.:  COMPANY
 WTYP.                Deviated:  WELL TYPE
 MDS .        Operator Entered:  MAG DATA SOURCE
 SON .        AZ-XX-0905059384:  JOB NUMBER
 FTOP.          Formation Tops:  FORM TOPS DESC
 ILTD.               Lithology:  INTERP LTH DESC
 SVYD.                  Survey:  SURVEY DESC
 DMOD.             Drill Model:  DRILL MOD DESC
 HPTY.       Minimum Curvature:  HOLE POS TYPE
 NREF.                    Grid:  NORTH REFERENCE
 SPUD.               09-Jan-20:  SPUD DATE
 DATE.      14.04.48 07-Feb-20:  END TIME
 STIM.      07.00.00 09-Jan-20:  START TIME
 DMF .             Drill Floor:  DRILL MEAS FROM
 DFST.                        :  DIST FSL TEXT
 DFWT.                        :  DIST FWL TEXT
 CNTY.                        :  COUNTY
 LOC .                        :  LOCATION
 LMF .             Drill Floor:  LOG MEASURED FROM
 DEP .m                   0.00:  DEPTH
 VSNS.m                  10.28:  VERT SEC N/S
 VSEW.m                  -6.24:  VERT SEC E/W
 AGAP.m                  43.00:  AIR GAP
 APD .m                  43.00:  DEPTH ABOVE PD
 WDMS.m                 169.80:  WD ELEV
 EGL .m                   0.00:  GROUND ELEVATION
 EPD .m                   0.00:  ELEVATION
 AZTC.deg                 6.27:  AZM TOTAL CORR
 GRDC.deg                 0.15:  GRID CORRECTION
 MDEC.deg                 6.42:  MAGNETIC DECL
 MDIP.deg                59.56:  MAGNETIC DIP
 MFLD.nT              50277.00:  MAGNETIC FIELD
 GVFD.g                   1.00:  GRAVITY FIELD
 VSDR.deg               148.53:  VERT SEC DIRECT
 TDD .m                3473.01:  TOTAL DEPTH (DRILLER)
 SDEP.m                 364.00:  START DEPTH
 DFSL.m                   0.00:  DISTANCE FSL
 DFWL.m                   0.00:  DISTANCE FWL
 UTMY.m             4443793.85:  UTM Y
 UTMX.m              519005.06:  UTM X
 WHEW.m                  -6.24:  WELL HEAD E/W
 WHNS.m                  10.28:  WELL HEAD N/S
 LONG.deg                51.22:  LONGITUDE
 LATI.deg                40.13:  LATITUDE
 TVDS.m                  43.00:  TVDSS CORRECTN
 EKB .m                   0.00:  KB ELEVATION
 EDF .m                  43.00:  DF ELEVATION
 TDL .m                 254.00:  TOTAL DEPTH (LOGGER)
 MAGU.                 1850021:  MAGUTM CHECKSUM
 VSC .                       0:  VS TO CLOSURE
~Parameter Information Block
#MNEM.UNIT       Value        Description
#---------     -----------    ---------------------------
 AV  .mps                 0.50:  Ann Velocity 
 AVMX.mps                 1.40:  Max Ann Veloc 
 AZIF.deg               144.94:  Azm, Final 
 BHAT.        Rotary Steerable:  BHA Type 
 BROT.∞/30m               0.23:  Build Rotating 
 BS  .in                  8.50:  Bit Size 
 BTPL.psig              264.00:  Bit Press Loss 
 CABU.                     Yes:  Customer Abuse 
 COMM.                     ÙP`:  Run Comments 1 
 TCS .hr                 87.30:  Time Ciculation Ended 
 CV  .mps                 2.45:  Crit Velocity 
 CVMX.mps                 2.74:  Max Crit Veloc 
 DD1 .             Aziz Aliyev:  Direct Drillr 1 
 DDSV.               Geo-Pilot:  DD Service 
 DEFF.%                 100.00:  % Det Eff 
 DLRX.∞/30m               1.22:  Dogleg Rot Max 
 DLSO.∞/30m               0.52:  Dogleg Oriented 
 DLSX.∞/30m               1.22:  Dogleg Str Max 
 DRET.      12.59.00 23-Feb-20:  Drill End Time 
 DRST.      09.44.00 18-Feb-20:  Drill Start Tim 
 DTIM.hr                 23.03:  Time Drilling 
 EDEP.m                3473.01:  End Depth 
 ENG1.         Almaz Almadatov:  Engineer 1 
 ENG2.         Dair Mahammadov:  Engineer 2 
 ENG3.          Nazrin Asgarli:  Engineer 3 
 ETIM.      10.33.36 26-Feb-20:  End Time 
 FLOI.gpm               480.00:  Flow In 
 FLON.gpm               300.00:  Flow In Min 
 FLOS.cptm                1.00:  Fluid Loss 
 FLOX.gpm               550.00:  Flow In Max 
 HFLO.                      No:  High Flow 
 HPRE.                      No:  High Pressure 
 HTEM.                      No:  High Temp 
 HYDO.m                   1.80:  Hydro Offset 
 IFIN.deg                74.42:  Inc, Final 
 IMAX.deg                76.14:  Inc Max 
 IMIN.deg                74.42:  Inc Min 
 IMND.m                3462.72:  Inc Min Depth 
 IMXD.m                3235.69:  Inc Max Depth 
 JARR.                      No:  Jarring 
 LETM.      12.59.00 23-Feb-20:  Log End Time 
 LOST.hr                     0:  Lost Rig Time 
 LSTM.      09.44.00 18-Feb-20:  Log Start Time 
 MDCL.ppm             45000.00:  Mud Chlorides 
 MDES.     Inversion Oil/Synthetic:  Mud Desc 
 DFD .sg                  1.38:  Mud Density 
 MDMN.sg                  1.34:  Dens Mud Min 
 MDMX.sg                  1.49:  Dens Mud Max 
 MOIL.                      67:  Run Mud Oil % 
 MOWR.                   67:33:  Run Mud OWR 
 MSND.                    0.12:  Run Mud Sand % 
 MSOL.                      22:  Run Mud Solids% 
 DFV .spqt               81.00:  Mud Viscosity 
 MWOD.in                  6.75:  MWD Tool OD 
 MWSI.                      No:  Serv Intrp, MWD 
 OTIM.hr                231.44:  Time Operating 
 PCON.          Wear / Scratch:  Pad Condition 
 PMAX.psia             3400.00:  Press Op, Max 
 PV  .cP                 55.00:  Mud PV 
 RUN .                     800:  Run Number 
 ROPA.m/hr               12.00:  ROP Avg 
 ROPN.m/hr                5.00:  ROP Min 
 ROPX.m/hr               28.00:  ROP Max 
 RPMA.rpm               120.00:  RPM Surface Avg 
 RPMN.rpm                40.00:  RPM Surface Min 
 RPMX.rpm               130.00:  RPM Surface Max 
 RRUN.                    0800:  Rig Run Number 
 RTIM.hr                 45.00:  Time Reaming 
 SAZI.deg               145.38:  Azm, Start 
 SDEP.m                3219.01:  Start Depth 
 SIDD.                      No:  Serv Intrp, DD 
 SINC.deg                75.11:  Inc, Start 
 SPPA.psig             2400.00:  SPP Avg 
 SPPN.psig             2320.00:  SPP Min 
 SPPX.psig             3200.00:  SPP Max 
 STIM.      15.15.00 17-Feb-20:  Start Time 
 SVCS.                 DD, MWD:  Services 
 SVER.                    9.20:  Sperry Version 
 TDAT.m                 254.00:  Tot Depth Attmp 
 TDDF.                      No:  Trip for DD 
 TDLG.m                 254.00:  Tot Depth Loggd 
 TFF .                      No:  Trip for Fail 
 TQAA.f-kp               13.00:  Torque Abs Avg 
 TQAN.f-kp                7.00:  Torque Abs Min 
 TQAX.f-kp               15.00:  Torque Abs Max 
 TRRT.∞/30m               0.21:  Turn Rotating 
 MRT .                  EWR-M5:  Maximum Recorded Temperature 
 TTMX.degC               64.00:  Max Tool Temp 
 VS01.                90586516:  Virtual Str1 SN 
 VS02.                90513691:  Virtual Str2 SN 
 VS03.                90586523:  Virtual Str3 SN 
 VS04.                90586520:  Virtual Str4 SN 
 VS05.                90590507:  Virtual Str5 SN 
 WBMN.klb                12.00:  WOB Min 
 WITN.           Rufat Babayev:  Customer Rep 2 
 WITN.         Alistair Sprott:  Customer Rep 
 WOBA.klb                18.00:  WOB Avg 
 WOBX.klb                30.00:  WOB Max 
 YP  .lhf2               41.00:  Yield Point 
~Curve Information Block
#MNEM.UNIT                 API CODE     Curve Description
#---------               -----------    ---------------------------
 TIME.HHMMSS            00 000 000 000:  GT Time & Date
 GTDEPTH.m              00 000 000 000:  GT Depth
 GTPQH.psia             00 000 000 000:  GT HR Quartz Pressure
 GTTQ.degC              00 000 000 000:  GT Quartz Temperature
 GTTN.NONE              00 000 000 000:  GT Test Number
 GTET.sec               00 000 000 000:  GT Elapsed Test Time
 GTTVD.m                00 000 000 000:  GT True Vertical Depth
#Other Information
#
#WARRANTY: Halliburton will use its best efforts to furnish customers with 
#accurate information and interpretations that are part of, and incident to, the services 
#provided.  However, Halliburton cannot and does not warrant the accuracy 
#or correctness of such information and interpretations.  Under no circumstances should any 
#such information or interpretation be relied upon as the sole basis for any drilling, 
#completion, production, or financial decision or any procedure involving any risk to the 
#safety of any drilling venture, drilling rig or its crew or any other third party.  The 
#Customer has full responsibility for all drilling, completion and production operation.  
#Halliburton makes no representations or warranties, either expressed or 
#implied, including, but not limited to, the implied warranties of merchantability or fitness 
#for a particular purpose, with respect to the services rendered.  In no event will 
#Halliburton be liable for failure to obtain any particular results or for 
#any damages, including, but not limited to, indirect, special or consequential damages, 
#resulting from the use of any information or interpretation provided by Halliburton.
#
~A           TIME           GTDEPTH  GTPQH  GTTQ  GTTN  GTET   GTTVD  
# ...
   00:25:04.667.24-Feb-2020 3430.51 4219.12 56.39 2.00  92.01 2723.35
   00:25:04.867.24-Feb-2020 3430.51 4219.12 56.39 2.00  92.21 2723.35
   00:25:05.067.24-Feb-2020 3430.51 4219.50 56.39 2.00  92.41 2723.35
   00:25:05.267.24-Feb-2020 3430.51 4219.35 56.39 2.00  92.61 2723.35
   00:25:05.467.24-Feb-2020 3430.51 4219.53 56.39 2.00  92.81 2723.35
   00:25:05.667.24-Feb-2020 3430.51 4219.49 56.39 2.00  93.01 2723.35
   00:25:05.867.24-Feb-2020 3430.51 4219.49 56.39 2.00  93.21 2723.35
   00:25:06.067.24-Feb-2020 3430.51 4219.31 56.39 2.00  93.41 2723.35
   00:25:06.267.24-Feb-2020 3430.51 4219.56 56.39 2.00  93.61 2723.35
   00:25:06.467.24-Feb-2020 3430.51 4219.66 56.39 2.00  93.81 2723.35
   00:25:06.668.24-Feb-2020 3430.51 4219.46 56.39 2.00  94.01 2723.35
   00:25:06.868.24-Feb-2020 3430.51 4219.46 56.39 2.00  94.21 2723.35
   00:25:07.068.24-Feb-2020 3430.51 4219.47 56.39 2.00  94.41 2723.35
   00:25:07.268.24-Feb-2020 3430.51 4218.75 56.39 2.00  94.61 2723.35
   00:25:07.468.24-Feb-2020 3430.51 4219.71 56.39 2.00  94.81 2723.35
   00:25:07.668.24-Feb-2020 3430.51 4220.04 56.39 2.00  95.01 2723.35
   00:25:07.868.24-Feb-2020 3430.51 4220.04 56.39 2.00  95.21 2723.35
   00:25:08.068.24-Feb-2020 3430.51 4219.45 56.39 2.00  95.41 2723.35
   00:25:08.268.24-Feb-2020 3430.51 4219.12 56.39 2.00  95.61 2723.35
   00:25:08.468.24-Feb-2020 3430.51 4220.54 56.39 2.00  95.81 2723.35
   00:25:08.668.24-Feb-2020 3430.51 4219.30 56.39 2.00  96.01 2723.35
   00:25:08.868.24-Feb-2020 3430.51 4219.30 56.39 2.00  96.21 2723.35
   00:25:09.068.24-Feb-2020 3430.51 4219.51 56.39 2.00  96.41 2723.35
   00:25:09.268.24-Feb-2020 3430.51 4219.82 56.39 2.00  96.61 2723.35
   00:25:09.468.24-Feb-2020 3430.51 4219.63 56.39 2.00  96.81 2723.35
   00:25:09.668.24-Feb-2020 3430.51 4218.75 56.39 2.00  97.01 2723.35
   00:25:09.868.24-Feb-2020 3430.51 4218.75 56.39 2.00  97.21 2723.35
   00:25:10.068.24-Feb-2020 3430.51 4220.04 56.39 2.00  97.41 2723.35
   00:25:10.268.24-Feb-2020 3430.51 4220.15 56.39 2.00  97.61 2723.35
   00:25:10.468.24-Feb-2020 3430.51 4219.35 56.39 2.00  97.81 2723.35
   00:25:10.668.24-Feb-2020 3430.51 4219.69 56.39 2.00  98.01 2723.35
   00:25:10.868.24-Feb-2020 3430.51 4219.69 56.39 2.00  98.21 2723.35
   00:25:11.068.24-Feb-2020 3430.51 4220.20 56.39 2.00  98.41 2723.35
   00:25:11.268.24-Feb-2020 3430.51 4218.62 56.39 2.00  98.61 2723.35
   00:25:11.468.24-Feb-2020 3430.51 4220.29 56.39 2.00  98.81 2723.35
   00:25:11.668.24-Feb-2020 3430.51 4220.11 56.39 2.00  99.01 2723.35
   00:25:11.868.24-Feb-2020 3430.51 4219.57 56.39 2.00  99.21 2723.35
   00:25:12.068.24-Feb-2020 3430.51 4219.74 56.39 2.00  99.41 2723.35
   00:25:12.268.24-Feb-2020 3430.51 4219.46 56.39 2.00  99.61 2723.35
   00:25:12.468.24-Feb-2020 3430.51 4219.36 56.39 2.00  99.81 2723.35
   00:25:12.668.24-Feb-2020 3430.51 4219.36 56.39 2.00 100.01 2723.35
   00:25:12.868.24-Feb-2020 3430.51 4219.36 56.39 2.00 100.21 2723.35
   00:25:13.068.24-Feb-2020 3430.51 4219.55 56.39 2.00 100.41 2723.35
   00:25:13.268.24-Feb-2020 3430.51 4219.69 56.39 2.00 100.61 2723.35
   00:25:13.468.24-Feb-2020 3430.51 4219.59 56.39 2.00 100.81 2723.35
   00:25:13.668.24-Feb-2020 3430.51 4219.40 56.39 2.00 101.01 2723.35
   00:25:13.868.24-Feb-2020 3430.51 4219.40 56.39 2.00 101.21 2723.35
   00:25:14.068.24-Feb-2020 3430.51 4218.83 56.39 2.00 101.41 2723.35
   00:25:14.268.24-Feb-2020 3430.51 4220.57 56.39 2.00 101.61 2723.35
   00:25:14.468.24-Feb-2020 3430.51 4219.38 56.39 2.00 101.81 2723.35
   00:25:14.668.24-Feb-2020 3430.51 4220.06 56.39 2.00 102.01 2723.35
   00:25:14.868.24-Feb-2020 3430.51 4220.06 56.39 2.00 102.21 2723.35
   00:25:15.068.24-Feb-2020 3430.51 4219.61 56.39 2.00 102.41 2723.35
   00:25:15.268.24-Feb-2020 3430.51 4219.57 56.39 2.00 102.61 2723.35
   00:25:15.469.24-Feb-2020 3430.51 4219.40 56.39 2.00 102.81 2723.35
   00:25:15.669.24-Feb-2020 3430.51 4219.75 56.39 2.00 103.01 2723.35
   00:25:15.869.24-Feb-2020 3430.51 4219.75 56.39 2.00 103.21 2723.35
   00:25:16.069.24-Feb-2020 3430.51 4219.50 56.39 2.00 103.41 2723.35
   00:25:16.269.24-Feb-2020 3430.51 4219.49 56.39 2.00 103.61 2723.35
   00:25:16.469.24-Feb-2020 3430.51 4219.68 56.39 2.00 103.81 2723.35
   00:25:16.669.24-Feb-2020 3430.51 4219.67 56.39 2.00 104.01 2723.35
   00:25:16.869.24-Feb-2020 3430.51 4219.67 56.39 2.00 104.21 2723.35
   00:25:17.069.24-Feb-2020 3430.51 4219.64 56.39 2.00 104.41 2723.35
   00:25:17.269.24-Feb-2020 3430.51 4219.52 56.39 2.00 104.61 2723.35
   00:25:17.469.24-Feb-2020 3430.51 4219.92 56.39 2.00 104.81 2723.35
   00:25:17.669.24-Feb-2020 3430.51 4218.32 56.39 2.00 105.01 2723.35
   00:25:17.869.24-Feb-2020 3430.51 4218.32 56.39 2.00 105.21 2723.35
   00:25:18.069.24-Feb-2020 3430.51 4219.86 56.39 2.00 105.41 2723.35
   00:25:18.269.24-Feb-2020 3430.51 4219.74 56.39 2.00 105.61 2723.35
   00:25:18.469.24-Feb-2020 3430.51 4219.37 56.39 2.00 105.81 2723.35
   00:25:18.669.24-Feb-2020 3430.51 4219.71 56.39 2.00 106.01 2723.35
   00:25:18.869.24-Feb-2020 3430.51 4219.71 56.39 2.00 106.21 2723.35
   00:25:19.069.24-Feb-2020 3430.51 4220.29 56.39 2.00 106.41 2723.35
   00:25:19.269.24-Feb-2020 3430.51 4219.43 56.39 2.00 106.61 2723.35
   00:25:19.469.24-Feb-2020 3430.51 4219.77 56.39 2.00 106.81 2723.35
   00:25:19.669.24-Feb-2020 3430.51 4219.50 56.39 2.00 107.01 2723.35
   00:25:19.869.24-Feb-2020 3430.51 4220.12 56.39 2.00 107.21 2723.35
   00:25:20.069.24-Feb-2020 3430.51 4218.78 56.39 2.00 107.41 2723.35
   00:25:20.269.24-Feb-2020 3430.51 4220.14 56.39 2.00 107.61 2723.35
   00:25:20.469.24-Feb-2020 3430.51 4220.04 56.39 2.00 107.81 2723.35
   00:25:20.669.24-Feb-2020 3430.51 4219.64 56.39 2.00 108.01 2723.35
   00:25:20.869.24-Feb-2020 3430.51 4219.64 56.39 2.00 108.21 2723.35
   00:25:21.069.24-Feb-2020 3430.51 4219.71 56.39 2.00 108.41 2723.35
   00:25:21.269.24-Feb-2020 3430.51 4220.03 56.39 2.00 108.61 2723.35
   00:25:21.469.24-Feb-2020 3430.51 4219.46 56.39 2.00 108.81 2723.35
   00:25:21.669.24-Feb-2020 3430.51 4220.01 56.39 2.00 109.01 2723.35
   00:25:21.869.24-Feb-2020 3430.51 4220.01 56.39 2.00 109.21 2723.35
   00:25:22.069.24-Feb-2020 3430.51 4219.67 56.39 2.00 109.41 2723.35
   00:25:22.269.24-Feb-2020 3430.51 4219.74 56.39 2.00 109.61 2723.35
   00:25:22.469.24-Feb-2020 3430.51 4219.54 56.39 2.00 109.81 2723.35
   00:25:22.669.24-Feb-2020 3430.51 4219.74 56.39 2.00 110.01 2723.35
   00:25:22.869.24-Feb-2020 3430.51 4219.74 56.39 2.00 110.21 2723.35
   00:25:23.069.24-Feb-2020 3430.51 4219.65 56.39 2.00 110.41 2723.35
   00:25:23.269.24-Feb-2020 3430.51 4219.75 56.39 2.00 110.61 2723.35
   00:25:23.469.24-Feb-2020 3430.51 4219.70 56.39 2.00 110.81 2723.35
   00:25:23.669.24-Feb-2020 3430.51 4219.62 56.39 2.00 111.01 2723.35
   00:25:23.869.24-Feb-2020 3430.51 4219.50 56.39 2.00 111.21 2723.35
   00:25:24.070.24-Feb-2020 3430.51 4219.37 56.39 2.00 111.41 2723.35
   00:25:24.270.24-Feb-2020 3430.51 4219.12 56.39 2.00 111.61 2723.35
   00:25:24.470.24-Feb-2020 3430.51 4219.97 56.39 2.00 111.81 2723.35
   00:25:24.670.24-Feb-2020 3430.51 4220.19 56.39 2.00 112.01 2723.35
   00:25:24.870.24-Feb-2020 3430.51 4220.19 56.39 2.00 112.21 2723.35
   00:25:25.070.24-Feb-2020 3430.51 4219.52 56.39 2.00 112.41 2723.35
   00:25:25.270.24-Feb-2020 3430.51 4219.88 56.39 2.00 112.61 2723.35
   00:25:25.470.24-Feb-2020 3430.51 4219.50 56.39 2.00 112.81 2723.35
   00:25:25.670.24-Feb-2020 3430.51 4219.53 56.39 2.00 113.01 2723.35
   00:25:25.870.24-Feb-2020 3430.51 4219.53 56.39 2.00 113.21 2723.35
   00:25:26.070.24-Feb-2020 3430.51 4219.69 56.39 2.00 113.41 2723.35
   00:25:26.270.24-Feb-2020 3430.51 4219.51 56.39 2.00 113.61 2723.35
   00:25:26.470.24-Feb-2020 3430.51 4219.55 56.39 2.00 113.81 2723.35
   00:25:26.670.24-Feb-2020 3430.51 4219.57 56.39 2.00 114.01 2723.35
   00:25:26.870.24-Feb-2020 3430.51 4219.57 56.39 2.00 114.21 2723.35
   00:25:27.070.24-Feb-2020 3430.51 4219.65 56.39 2.00 114.41 2723.35
   00:25:27.270.24-Feb-2020 3430.51 4219.67 56.39 2.00 114.61 2723.35
   00:25:27.470.24-Feb-2020 3430.51 4219.55 56.39 2.00 114.81 2723.35
