~Version Information
 VERS.                  2.0:   CWLS log ASCII Standard -VERSION 2.0
 WRAP.                   NO:   One line per depth step
~Well Information Block
#MNEM.UNIT     VALUE/NAME     DESCRIPTION
#---------     -----------    ---------------------------
 STRT.S             01:46:16 24-Feb-20: START TIME 01:46:16 24-Feb-20
 STOP.S             01:53:27 24-Feb-20: STOP TIME  01:53:27 24-Feb-20
 STEP.S                   0.00: STEP TIME
 NULL.                 -999.25: NULL VALUE
 JOBN.        AZ-XX-0905059384:  JOB TICKET NUMB
 PDAT.          Mean Sea Level:  PERMANENT DATUM
 UNIT.                     N/A:  LOGGING EQUIPMENT ID
 DCON.         Sperry Drilling:  DIRECTNL CONTR
 DOE .                     N/A:  DOE NUMBER
 RIG .             West Chirag:  RIG NAME
 WELL.                     J22:  WELL NAME
 MWDS.                    Baku:  MWD SHOP
 SRVC.     TURAN Drilling & Engineering:  CONTRACTOR
 FLD .                     ACG:  FIELD NAME
 CTRY.              Azerbaijan:  COUNTRY NAME
 PROV.                    Baku:  PROVINCE
 STAT.                    Baku:  STATE NAME
 REGN.                   EESSA:  REGION
 BASE.              Azerbaijan:  LOGGING EQUIPMENT BASE LOCATION
 UWI .                     N/A:  UNIQUE WELL IDENTIFIER
 API .                     N/A:  API NUMBER
 COMP.     BP Exploration (Caspian Sea) Ltd.:  COMPANY
 WTYP.                Deviated:  WELL TYPE
 MDS .        Operator Entered:  MAG DATA SOURCE
 SON .        AZ-XX-0905059384:  JOB NUMBER
 FTOP.          Formation Tops:  FORM TOPS DESC
 ILTD.               Lithology:  INTERP LTH DESC
 SVYD.                  Survey:  SURVEY DESC
 DMOD.             Drill Model:  DRILL MOD DESC
 HPTY.       Minimum Curvature:  HOLE POS TYPE
 NREF.                    Grid:  NORTH REFERENCE
 SPUD.               09-Jan-20:  SPUD DATE
 DATE.      14.04.48 07-Feb-20:  END TIME
 STIM.      07.00.00 09-Jan-20:  START TIME
 DMF .             Drill Floor:  DRILL MEAS FROM
 DFST.                        :  DIST FSL TEXT
 DFWT.                        :  DIST FWL TEXT
 CNTY.                        :  COUNTY
 LOC .                        :  LOCATION
 LMF .             Drill Floor:  LOG MEASURED FROM
 DEP .m                   0.00:  DEPTH
 VSNS.m                  10.28:  VERT SEC N/S
 VSEW.m                  -6.24:  VERT SEC E/W
 AGAP.m                  43.00:  AIR GAP
 APD .m                  43.00:  DEPTH ABOVE PD
 WDMS.m                 169.80:  WD ELEV
 EGL .m                   0.00:  GROUND ELEVATION
 EPD .m                   0.00:  ELEVATION
 AZTC.deg                 6.27:  AZM TOTAL CORR
 GRDC.deg                 0.15:  GRID CORRECTION
 MDEC.deg                 6.42:  MAGNETIC DECL
 MDIP.deg                59.56:  MAGNETIC DIP
 MFLD.nT              50277.00:  MAGNETIC FIELD
 GVFD.g                   1.00:  GRAVITY FIELD
 VSDR.deg               148.53:  VERT SEC DIRECT
 TDD .m                3473.01:  TOTAL DEPTH (DRILLER)
 SDEP.m                 364.00:  START DEPTH
 DFSL.m                   0.00:  DISTANCE FSL
 DFWL.m                   0.00:  DISTANCE FWL
 UTMY.m             4443793.85:  UTM Y
 UTMX.m              519005.06:  UTM X
 WHEW.m                  -6.24:  WELL HEAD E/W
 WHNS.m                  10.28:  WELL HEAD N/S
 LONG.deg                51.22:  LONGITUDE
 LATI.deg                40.13:  LATITUDE
 TVDS.m                  43.00:  TVDSS CORRECTN
 EKB .m                   0.00:  KB ELEVATION
 EDF .m                  43.00:  DF ELEVATION
 TDL .m                 254.00:  TOTAL DEPTH (LOGGER)
 MAGU.                 1850021:  MAGUTM CHECKSUM
 VSC .                       0:  VS TO CLOSURE
~Parameter Information Block
#MNEM.UNIT       Value        Description
#---------     -----------    ---------------------------
 AV  .mps                 0.50:  Ann Velocity 
 AVMX.mps                 1.40:  Max Ann Veloc 
 AZIF.deg               144.94:  Azm, Final 
 BHAT.        Rotary Steerable:  BHA Type 
 BROT.°/30m               0.23:  Build Rotating 
 BS  .in                  8.50:  Bit Size 
 BTPL.psig              264.00:  Bit Press Loss 
 CABU.                     Yes:  Customer Abuse 
 COMM.                     $æx:  Run Comments 1 
 TCS .hr                 87.30:  Time Ciculation Ended 
 CV  .mps                 2.45:  Crit Velocity 
 CVMX.mps                 2.74:  Max Crit Veloc 
 DD1 .             Aziz Aliyev:  Direct Drillr 1 
 DDSV.               Geo-Pilot:  DD Service 
 DEFF.%                 100.00:  % Det Eff 
 DLRX.°/30m               1.22:  Dogleg Rot Max 
 DLSO.°/30m               0.52:  Dogleg Oriented 
 DLSX.°/30m               1.22:  Dogleg Str Max 
 DRET.      12.59.00 23-Feb-20:  Drill End Time 
 DRST.      09.44.00 18-Feb-20:  Drill Start Tim 
 DTIM.hr                 23.03:  Time Drilling 
 EDEP.m                3473.01:  End Depth 
 ENG1.         Almaz Almadatov:  Engineer 1 
 ENG2.         Dair Mahammadov:  Engineer 2 
 ENG3.          Nazrin Asgarli:  Engineer 3 
 ETIM.      10.33.36 26-Feb-20:  End Time 
 FLOI.gpm               480.00:  Flow In 
 FLON.gpm               300.00:  Flow In Min 
 FLOS.cptm                1.00:  Fluid Loss 
 FLOX.gpm               550.00:  Flow In Max 
 HFLO.                      No:  High Flow 
 HPRE.                      No:  High Pressure 
 HTEM.                      No:  High Temp 
 HYDO.m                   1.80:  Hydro Offset 
 IFIN.deg                74.42:  Inc, Final 
 IMAX.deg                76.14:  Inc Max 
 IMIN.deg                74.42:  Inc Min 
 IMND.m                3462.72:  Inc Min Depth 
 IMXD.m                3235.69:  Inc Max Depth 
 JARR.                      No:  Jarring 
 LETM.      12.59.00 23-Feb-20:  Log End Time 
 LOST.hr                     0:  Lost Rig Time 
 LSTM.      09.44.00 18-Feb-20:  Log Start Time 
 MDCL.ppm             45000.00:  Mud Chlorides 
 MDES.     Inversion Oil/Synthetic:  Mud Desc 
 DFD .sg                  1.38:  Mud Density 
 MDMN.sg                  1.34:  Dens Mud Min 
 MDMX.sg                  1.49:  Dens Mud Max 
 MOIL.                      67:  Run Mud Oil % 
 MOWR.                   67:33:  Run Mud OWR 
 MSND.                    0.12:  Run Mud Sand % 
 MSOL.                      22:  Run Mud Solids% 
 DFV .spqt               81.00:  Mud Viscosity 
 MWOD.in                  6.75:  MWD Tool OD 
 MWSI.                      No:  Serv Intrp, MWD 
 OTIM.hr                231.44:  Time Operating 
 PCON.          Wear / Scratch:  Pad Condition 
 PMAX.psia             3400.00:  Press Op, Max 
 PV  .cP                 55.00:  Mud PV 
 RUN .                     800:  Run Number 
 ROPA.m/hr               12.00:  ROP Avg 
 ROPN.m/hr                5.00:  ROP Min 
 ROPX.m/hr               28.00:  ROP Max 
 RPMA.rpm               120.00:  RPM Surface Avg 
 RPMN.rpm                40.00:  RPM Surface Min 
 RPMX.rpm               130.00:  RPM Surface Max 
 RRUN.                    0800:  Rig Run Number 
 RTIM.hr                 45.00:  Time Reaming 
 SAZI.deg               145.38:  Azm, Start 
 SDEP.m                3219.01:  Start Depth 
 SIDD.                      No:  Serv Intrp, DD 
 SINC.deg                75.11:  Inc, Start 
 SPPA.psig             2400.00:  SPP Avg 
 SPPN.psig             2320.00:  SPP Min 
 SPPX.psig             3200.00:  SPP Max 
 STIM.      15.15.00 17-Feb-20:  Start Time 
 SVCS.                 DD, MWD:  Services 
 SVER.                    9.20:  Sperry Version 
 TDAT.m                 254.00:  Tot Depth Attmp 
 TDDF.                      No:  Trip for DD 
 TDLG.m                 254.00:  Tot Depth Loggd 
 TFF .                      No:  Trip for Fail 
 TQAA.f-kp               13.00:  Torque Abs Avg 
 TQAN.f-kp                7.00:  Torque Abs Min 
 TQAX.f-kp               15.00:  Torque Abs Max 
 TRRT.°/30m               0.21:  Turn Rotating 
 MRT .                  EWR-M5:  Maximum Recorded Temperature 
 TTMX.degC               64.00:  Max Tool Temp 
 VS01.                90586516:  Virtual Str1 SN 
 VS02.                90513691:  Virtual Str2 SN 
 VS03.                90586523:  Virtual Str3 SN 
 VS04.                90586520:  Virtual Str4 SN 
 VS05.                90590507:  Virtual Str5 SN 
 WBMN.klb                12.00:  WOB Min 
 WITN.           Rufat Babayev:  Customer Rep 2 
 WITN.         Alistair Sprott:  Customer Rep 
 WOBA.klb                18.00:  WOB Avg 
 WOBX.klb                30.00:  WOB Max 
 YP  .lhf2               41.00:  Yield Point 
~Curve Information Block
#MNEM.UNIT                 API CODE     Curve Description
#---------               -----------    ---------------------------
 TIME.HHMMSS            00 000 000 000:  GT Time & Date
 GTDEPTH.m              00 000 000 000:  GT Depth
 GTPQH.psia             00 000 000 000:  GT HR Quartz Pressure
 GTTQ.degC              00 000 000 000:  GT Quartz Temperature
 GTTN.NONE              00 000 000 000:  GT Test Number
 GTET.sec               00 000 000 000:  GT Elapsed Test Time
 GTTVD.m                00 000 000 000:  GT True Vertical Depth
#Other Information
#
#WARRANTY: Halliburton will use its best efforts to furnish customers with 
#accurate information and interpretations that are part of, and incident to, the services 
#provided.  However, Halliburton cannot and does not warrant the accuracy 
#or correctness of such information and interpretations.  Under no circumstances should any 
#such information or interpretation be relied upon as the sole basis for any drilling, 
#completion, production, or financial decision or any procedure involving any risk to the 
#safety of any drilling venture, drilling rig or its crew or any other third party.  The 
#Customer has full responsibility for all drilling, completion and production operation.  
#Halliburton makes no representations or warranties, either expressed or 
#implied, including, but not limited to, the implied warranties of merchantability or fitness 
#for a particular purpose, with respect to the services rendered.  In no event will 
#Halliburton be liable for failure to obtain any particular results or for 
#any damages, including, but not limited to, indirect, special or consequential damages, 
#resulting from the use of any information or interpretation provided by Halliburton.
#
~A           TIME           GTDEPTH  GTPQH  GTTQ  GTTN  GTET   GTTVD  
# ...
   01:48:34.442.24-Feb-2020 3392.01 4211.71 55.93 4.00 138.03 2713.39
   01:48:34.642.24-Feb-2020 3392.01 4211.67 55.93 4.00 138.23 2713.39
   01:48:34.842.24-Feb-2020 3392.01 4211.68 55.93 4.00 138.43 2713.39
   01:48:35.042.24-Feb-2020 3392.01 4211.73 55.93 4.00 138.63 2713.39
   01:48:35.242.24-Feb-2020 3392.01 4211.59 55.93 4.00 138.83 2713.39
   01:48:35.442.24-Feb-2020 3392.01 4211.73 55.93 4.00 139.03 2713.39
   01:48:35.642.24-Feb-2020 3392.01 4211.67 55.93 4.00 139.23 2713.39
   01:48:35.842.24-Feb-2020 3392.01 4211.66 55.93 4.00 139.43 2713.39
   01:48:36.042.24-Feb-2020 3392.01 4211.66 55.93 4.00 139.63 2713.39
   01:48:36.242.24-Feb-2020 3392.01 4211.68 55.93 4.00 139.83 2713.39
   01:48:36.442.24-Feb-2020 3392.01 4211.71 55.93 4.00 140.03 2713.39
   01:48:36.643.24-Feb-2020 3392.01 4211.71 55.93 4.00 140.23 2713.39
   01:48:36.843.24-Feb-2020 3392.01 4211.69 55.93 4.00 140.43 2713.39
   01:48:37.043.24-Feb-2020 3392.01 4211.68 55.93 4.00 140.63 2713.39
   01:48:37.243.24-Feb-2020 3392.01 4211.66 55.93 4.00 140.83 2713.39
   01:48:37.443.24-Feb-2020 3392.01 4211.67 55.93 4.00 141.03 2713.39
   01:48:37.643.24-Feb-2020 3392.01 4211.68 55.93 4.00 141.23 2713.39
   01:48:37.843.24-Feb-2020 3392.01 4211.68 55.93 4.00 141.43 2713.39
   01:48:38.043.24-Feb-2020 3392.01 4211.68 55.93 4.00 141.63 2713.39
   01:48:38.243.24-Feb-2020 3392.01 4211.67 55.93 4.00 141.83 2713.39
   01:48:38.443.24-Feb-2020 3392.01 4211.68 55.93 4.00 142.03 2713.39
   01:48:38.643.24-Feb-2020 3392.01 4211.68 55.93 4.00 142.23 2713.39
   01:48:38.843.24-Feb-2020 3392.01 4211.68 55.93 4.00 142.43 2713.39
   01:48:39.043.24-Feb-2020 3392.01 4211.64 55.93 4.00 142.63 2713.39
   01:48:39.243.24-Feb-2020 3392.01 4211.78 55.93 4.00 142.83 2713.39
   01:48:39.443.24-Feb-2020 3392.01 4211.59 55.93 4.00 143.03 2713.39
   01:48:39.643.24-Feb-2020 3392.01 4211.68 55.93 4.00 143.23 2713.39
   01:48:39.843.24-Feb-2020 3392.01 4211.70 55.93 4.00 143.43 2713.39
   01:48:40.043.24-Feb-2020 3392.01 4211.67 55.93 4.00 143.63 2713.39
   01:48:40.243.24-Feb-2020 3392.01 4211.66 55.93 4.00 143.83 2713.39
   01:48:40.443.24-Feb-2020 3392.01 4211.67 55.93 4.00 144.03 2713.39
   01:48:40.643.24-Feb-2020 3392.01 4211.67 55.93 4.00 144.23 2713.39
   01:48:40.843.24-Feb-2020 3392.01 4211.67 55.93 4.00 144.43 2713.39
   01:48:41.043.24-Feb-2020 3392.01 4211.69 55.93 4.00 144.63 2713.39
   01:48:41.243.24-Feb-2020 3392.01 4211.68 55.93 4.00 144.83 2713.39
   01:48:41.444.24-Feb-2020 3392.01 4211.67 55.93 4.00 145.03 2713.39
   01:48:41.644.24-Feb-2020 3392.01 4211.67 55.93 4.00 145.23 2713.39
   01:48:41.844.24-Feb-2020 3392.01 4211.68 55.93 4.00 145.43 2713.39
   01:48:42.044.24-Feb-2020 3392.01 4211.69 55.93 4.00 145.63 2713.39
   01:48:42.244.24-Feb-2020 3392.01 4211.67 55.93 4.00 145.83 2713.39
   01:48:42.444.24-Feb-2020 3392.01 4211.64 55.93 4.00 146.03 2713.39
   01:48:42.644.24-Feb-2020 3392.01 4211.64 55.93 4.00 146.23 2713.39
   01:48:42.844.24-Feb-2020 3392.01 4211.72 55.93 4.00 146.43 2713.39
   01:48:43.044.24-Feb-2020 3392.01 4211.63 55.93 4.00 146.63 2713.39
   01:48:43.244.24-Feb-2020 3392.01 4211.67 55.93 4.00 146.83 2713.39
   01:48:43.444.24-Feb-2020 3392.01 4211.62 55.93 4.00 147.03 2713.39
   01:48:43.644.24-Feb-2020 3392.01 4211.62 55.93 4.00 147.23 2713.39
   01:48:43.844.24-Feb-2020 3392.01 4211.64 55.93 4.00 147.43 2713.39
   01:48:44.044.24-Feb-2020 3392.01 4211.64 55.93 4.00 147.63 2713.39
   01:48:44.244.24-Feb-2020 3392.01 4211.69 55.93 4.00 147.83 2713.39
   01:48:44.444.24-Feb-2020 3392.01 4211.67 55.93 4.00 148.03 2713.39
   01:48:44.644.24-Feb-2020 3392.01 4211.67 55.93 4.00 148.23 2713.39
   01:48:44.844.24-Feb-2020 3392.01 4211.78 55.93 4.00 148.43 2713.39
   01:48:45.044.24-Feb-2020 3392.01 4211.60 55.93 4.00 148.63 2713.39
   01:48:45.244.24-Feb-2020 3392.01 4211.67 55.93 4.00 148.83 2713.39
   01:48:45.444.24-Feb-2020 3392.01 4211.69 55.93 4.00 149.03 2713.39
   01:48:45.644.24-Feb-2020 3392.01 4211.69 55.93 4.00 149.23 2713.39
   01:48:45.844.24-Feb-2020 3392.01 4211.58 55.93 4.00 149.43 2713.39
   01:48:46.044.24-Feb-2020 3392.01 4211.72 55.93 4.00 149.63 2713.39
   01:48:46.245.24-Feb-2020 3392.01 4211.66 55.93 4.00 149.83 2713.39
   01:48:46.445.24-Feb-2020 3392.01 4211.66 55.93 4.00 150.03 2713.39
   01:48:46.645.24-Feb-2020 3392.01 4211.66 55.93 4.00 150.23 2713.39
   01:48:46.845.24-Feb-2020 3392.01 4211.67 55.93 4.00 150.43 2713.39
   01:48:47.045.24-Feb-2020 3392.01 4211.67 55.92 4.00 150.63 2713.39
   01:48:47.245.24-Feb-2020 3392.01 4211.66 55.92 4.00 150.83 2713.39
   01:48:47.445.24-Feb-2020 3392.01 4211.67 55.92 4.00 151.03 2713.39
   01:48:47.645.24-Feb-2020 3392.01 4211.67 55.92 4.00 151.23 2713.39
   01:48:47.845.24-Feb-2020 3392.01 4211.67 55.92 4.00 151.43 2713.39
   01:48:48.045.24-Feb-2020 3392.01 4211.66 55.92 4.00 151.63 2713.39
   01:48:48.245.24-Feb-2020 3392.01 4211.67 55.92 4.00 151.83 2713.39
   01:48:48.445.24-Feb-2020 3392.01 4211.67 55.92 4.00 152.03 2713.39
   01:48:48.645.24-Feb-2020 3392.01 4211.67 55.92 4.00 152.23 2713.39
   01:48:48.845.24-Feb-2020 3392.01 4211.59 55.92 4.00 152.43 2713.39
   01:48:49.045.24-Feb-2020 3392.01 4211.78 55.92 4.00 152.63 2713.39
   01:48:49.245.24-Feb-2020 3392.01 4211.64 55.92 4.00 152.83 2713.39
   01:48:49.445.24-Feb-2020 3392.01 4211.64 55.92 4.00 153.03 2713.39
   01:48:49.645.24-Feb-2020 3392.01 4211.64 55.92 4.00 153.23 2713.39
   01:48:49.845.24-Feb-2020 3392.01 4211.65 55.92 4.00 153.43 2713.39
   01:48:50.045.24-Feb-2020 3392.01 4211.67 55.92 4.00 153.63 2713.39
   01:48:50.245.24-Feb-2020 3392.01 4211.66 55.92 4.00 153.83 2713.39
   01:48:50.445.24-Feb-2020 3392.01 4211.67 55.92 4.00 154.03 2713.39
   01:48:50.645.24-Feb-2020 3392.01 4211.67 55.92 4.00 154.23 2713.39
   01:48:50.845.24-Feb-2020 3392.01 4211.67 55.92 4.00 154.43 2713.39
   01:48:51.046.24-Feb-2020 3392.01 4211.66 55.92 4.00 154.63 2713.39
   01:48:51.246.24-Feb-2020 3392.01 4211.65 55.92 4.00 154.83 2713.39
   01:48:51.446.24-Feb-2020 3392.01 4211.67 55.92 4.00 155.03 2713.39
   01:48:51.646.24-Feb-2020 3392.01 4211.67 55.92 4.00 155.23 2713.39
   01:48:51.846.24-Feb-2020 3392.01 4211.66 55.92 4.00 155.43 2713.39
   01:48:52.046.24-Feb-2020 3392.01 4211.73 55.92 4.00 155.63 2713.39
   01:48:52.246.24-Feb-2020 3392.01 4211.56 55.92 4.00 155.83 2713.39
   01:48:52.446.24-Feb-2020 3392.01 4211.72 55.92 4.00 156.03 2713.39
   01:48:52.646.24-Feb-2020 3392.01 4211.72 55.92 4.00 156.23 2713.39
   01:48:52.846.24-Feb-2020 3392.01 4211.65 55.92 4.00 156.43 2713.39
   01:48:53.046.24-Feb-2020 3392.01 4211.65 55.92 4.00 156.63 2713.39
   01:48:53.246.24-Feb-2020 3392.01 4211.67 55.92 4.00 156.83 2713.39
   01:48:53.446.24-Feb-2020 3392.01 4211.71 55.92 4.00 157.03 2713.39
   01:48:53.646.24-Feb-2020 3392.01 4211.71 55.92 4.00 157.23 2713.39
   01:48:53.846.24-Feb-2020 3392.01 4211.67 55.92 4.00 157.43 2713.39
   01:48:54.046.24-Feb-2020 3392.01 4211.67 55.92 4.00 157.63 2713.39
   01:48:54.246.24-Feb-2020 3392.01 4211.66 55.92 4.00 157.83 2713.39
   01:48:54.446.24-Feb-2020 3392.01 4211.60 55.92 4.00 158.03 2713.39
   01:48:54.646.24-Feb-2020 3392.01 4211.80 55.92 4.00 158.23 2713.39
   01:48:54.846.24-Feb-2020 3392.01 4211.63 55.92 4.00 158.43 2713.39
   01:48:55.046.24-Feb-2020 3392.01 4211.64 55.92 4.00 158.63 2713.39
   01:48:55.246.24-Feb-2020 3392.01 4211.64 55.92 4.00 158.83 2713.39
   01:48:55.446.24-Feb-2020 3392.01 4211.76 55.92 4.00 159.03 2713.39
   01:48:55.646.24-Feb-2020 3392.01 4211.59 55.92 4.00 159.23 2713.39
   01:48:55.847.24-Feb-2020 3392.01 4211.65 55.92 4.00 159.43 2713.39
   01:48:56.047.24-Feb-2020 3392.01 4210.13 55.92 4.00 159.63 2713.39
   01:48:56.247.24-Feb-2020 3392.01 4202.39 55.92 4.00 159.83 2713.39
   01:48:56.447.24-Feb-2020 3392.01 4201.70 55.92 4.00 160.03 2713.39
   01:48:56.647.24-Feb-2020 3392.01 4201.70 55.92 4.00 160.23 2713.39
   01:48:56.847.24-Feb-2020 3392.01 4202.10 55.92 4.00 160.43 2713.39
   01:48:57.047.24-Feb-2020 3392.01 4202.18 55.92 4.00 160.63 2713.39
   01:48:57.247.24-Feb-2020 3392.01 4202.26 55.92 4.00 160.83 2713.39
