~Version Information
 VERS.                  2.0:   CWLS log ASCII Standard -VERSION 2.0
 WRAP.                   NO:   One line per depth step
~Well Information Block
#MNEM.UNIT     VALUE/NAME     DESCRIPTION
#---------     -----------    ---------------------------
 STRT.S             00:23:32 24-Feb-20: START TIME 00:23:32 24-Feb-20
 STOP.S             00:30:40 24-Feb-20: STOP TIME  00:30:40 24-Feb-20
 STEP.S                   0.00: STEP TIME
 NULL.                 -999.25: NULL VALUE
 JOBN.        AZ-XX-0905059384:  JOB TICKET NUMB
 PDAT.          Mean Sea Level:  PERMANENT DATUM
 UNIT.                     N/A:  LOGGING EQUIPMENT ID
 DCON.         Sperry Drilling:  DIRECTNL CONTR
 DOE .                     N/A:  DOE NUMBER
 RIG .             West Chirag:  RIG NAME
 WELL.                     J22:  WELL NAME
 MWDS.                    Baku:  MWD SHOP
 SRVC.     TURAN Drilling & Engineering:  CONTRACTOR
 FLD .                     ACG:  FIELD NAME
 CTRY.              Azerbaijan:  COUNTRY NAME
 PROV.                    Baku:  PROVINCE
 STAT.                    Baku:  STATE NAME
 REGN.                   EESSA:  REGION
 BASE.              Azerbaijan:  LOGGING EQUIPMENT BASE LOCATION
 UWI .                     N/A:  UNIQUE WELL IDENTIFIER
 API .                     N/A:  API NUMBER
 COMP.     BP Exploration (Caspian Sea) Ltd.:  COMPANY
 WTYP.                Deviated:  WELL TYPE
 MDS .        Operator Entered:  MAG DATA SOURCE
 SON .        AZ-XX-0905059384:  JOB NUMBER
 FTOP.          Formation Tops:  FORM TOPS DESC
 ILTD.               Lithology:  INTERP LTH DESC
 SVYD.                  Survey:  SURVEY DESC
 DMOD.             Drill Model:  DRILL MOD DESC
 HPTY.       Minimum Curvature:  HOLE POS TYPE
 NREF.                    Grid:  NORTH REFERENCE
 SPUD.               09-Jan-20:  SPUD DATE
 DATE.      14.04.48 07-Feb-20:  END TIME
 STIM.      07.00.00 09-Jan-20:  START TIME
 DMF .             Drill Floor:  DRILL MEAS FROM
 DFST.                        :  DIST FSL TEXT
 DFWT.                        :  DIST FWL TEXT
 CNTY.                        :  COUNTY
 LOC .                        :  LOCATION
 LMF .             Drill Floor:  LOG MEASURED FROM
 DEP .m                   0.00:  DEPTH
 VSNS.m                  10.28:  VERT SEC N/S
 VSEW.m                  -6.24:  VERT SEC E/W
 AGAP.m                  43.00:  AIR GAP
 APD .m                  43.00:  DEPTH ABOVE PD
 WDMS.m                 169.80:  WD ELEV
 EGL .m                   0.00:  GROUND ELEVATION
 EPD .m                   0.00:  ELEVATION
 AZTC.deg                 6.27:  AZM TOTAL CORR
 GRDC.deg                 0.15:  GRID CORRECTION
 MDEC.deg                 6.42:  MAGNETIC DECL
 MDIP.deg                59.56:  MAGNETIC DIP
 MFLD.nT              50277.00:  MAGNETIC FIELD
 GVFD.g                   1.00:  GRAVITY FIELD
 VSDR.deg               148.53:  VERT SEC DIRECT
 TDD .m                3473.01:  TOTAL DEPTH (DRILLER)
 SDEP.m                 364.00:  START DEPTH
 DFSL.m                   0.00:  DISTANCE FSL
 DFWL.m                   0.00:  DISTANCE FWL
 UTMY.m             4443793.85:  UTM Y
 UTMX.m              519005.06:  UTM X
 WHEW.m                  -6.24:  WELL HEAD E/W
 WHNS.m                  10.28:  WELL HEAD N/S
 LONG.deg                51.22:  LONGITUDE
 LATI.deg                40.13:  LATITUDE
 TVDS.m                  43.00:  TVDSS CORRECTN
 EKB .m                   0.00:  KB ELEVATION
 EDF .m                  43.00:  DF ELEVATION
 TDL .m                 254.00:  TOTAL DEPTH (LOGGER)
 MAGU.                 1850021:  MAGUTM CHECKSUM
 VSC .                       0:  VS TO CLOSURE
~Parameter Information Block
#MNEM.UNIT       Value        Description
#---------     -----------    ---------------------------
 AV  .mps                 0.50:  Ann Velocity 
 AVMX.mps                 1.40:  Max Ann Veloc 
 AZIF.deg               144.94:  Azm, Final 
 BHAT.        Rotary Steerable:  BHA Type 
 BROT.∞/30m               0.23:  Build Rotating 
 BS  .in                  8.50:  Bit Size 
 BTPL.psig              264.00:  Bit Press Loss 
 CABU.                     Yes:  Customer Abuse 
 COMM.                     ÙP`:  Run Comments 1 
 TCS .hr                 87.30:  Time Ciculation Ended 
 CV  .mps                 2.45:  Crit Velocity 
 CVMX.mps                 2.74:  Max Crit Veloc 
 DD1 .             Aziz Aliyev:  Direct Drillr 1 
 DDSV.               Geo-Pilot:  DD Service 
 DEFF.%                 100.00:  % Det Eff 
 DLRX.∞/30m               1.22:  Dogleg Rot Max 
 DLSO.∞/30m               0.52:  Dogleg Oriented 
 DLSX.∞/30m               1.22:  Dogleg Str Max 
 DRET.      12.59.00 23-Feb-20:  Drill End Time 
 DRST.      09.44.00 18-Feb-20:  Drill Start Tim 
 DTIM.hr                 23.03:  Time Drilling 
 EDEP.m                3473.01:  End Depth 
 ENG1.         Almaz Almadatov:  Engineer 1 
 ENG2.         Dair Mahammadov:  Engineer 2 
 ENG3.          Nazrin Asgarli:  Engineer 3 
 ETIM.      10.33.36 26-Feb-20:  End Time 
 FLOI.gpm               480.00:  Flow In 
 FLON.gpm               300.00:  Flow In Min 
 FLOS.cptm                1.00:  Fluid Loss 
 FLOX.gpm               550.00:  Flow In Max 
 HFLO.                      No:  High Flow 
 HPRE.                      No:  High Pressure 
 HTEM.                      No:  High Temp 
 HYDO.m                   1.80:  Hydro Offset 
 IFIN.deg                74.42:  Inc, Final 
 IMAX.deg                76.14:  Inc Max 
 IMIN.deg                74.42:  Inc Min 
 IMND.m                3462.72:  Inc Min Depth 
 IMXD.m                3235.69:  Inc Max Depth 
 JARR.                      No:  Jarring 
 LETM.      12.59.00 23-Feb-20:  Log End Time 
 LOST.hr                     0:  Lost Rig Time 
 LSTM.      09.44.00 18-Feb-20:  Log Start Time 
 MDCL.ppm             45000.00:  Mud Chlorides 
 MDES.     Inversion Oil/Synthetic:  Mud Desc 
 DFD .sg                  1.38:  Mud Density 
 MDMN.sg                  1.34:  Dens Mud Min 
 MDMX.sg                  1.49:  Dens Mud Max 
 MOIL.                      67:  Run Mud Oil % 
 MOWR.                   67:33:  Run Mud OWR 
 MSND.                    0.12:  Run Mud Sand % 
 MSOL.                      22:  Run Mud Solids% 
 DFV .spqt               81.00:  Mud Viscosity 
 MWOD.in                  6.75:  MWD Tool OD 
 MWSI.                      No:  Serv Intrp, MWD 
 OTIM.hr                231.44:  Time Operating 
 PCON.          Wear / Scratch:  Pad Condition 
 PMAX.psia             3400.00:  Press Op, Max 
 PV  .cP                 55.00:  Mud PV 
 RUN .                     800:  Run Number 
 ROPA.m/hr               12.00:  ROP Avg 
 ROPN.m/hr                5.00:  ROP Min 
 ROPX.m/hr               28.00:  ROP Max 
 RPMA.rpm               120.00:  RPM Surface Avg 
 RPMN.rpm                40.00:  RPM Surface Min 
 RPMX.rpm               130.00:  RPM Surface Max 
 RRUN.                    0800:  Rig Run Number 
 RTIM.hr                 45.00:  Time Reaming 
 SAZI.deg               145.38:  Azm, Start 
 SDEP.m                3219.01:  Start Depth 
 SIDD.                      No:  Serv Intrp, DD 
 SINC.deg                75.11:  Inc, Start 
 SPPA.psig             2400.00:  SPP Avg 
 SPPN.psig             2320.00:  SPP Min 
 SPPX.psig             3200.00:  SPP Max 
 STIM.      15.15.00 17-Feb-20:  Start Time 
 SVCS.                 DD, MWD:  Services 
 SVER.                    9.20:  Sperry Version 
 TDAT.m                 254.00:  Tot Depth Attmp 
 TDDF.                      No:  Trip for DD 
 TDLG.m                 254.00:  Tot Depth Loggd 
 TFF .                      No:  Trip for Fail 
 TQAA.f-kp               13.00:  Torque Abs Avg 
 TQAN.f-kp                7.00:  Torque Abs Min 
 TQAX.f-kp               15.00:  Torque Abs Max 
 TRRT.∞/30m               0.21:  Turn Rotating 
 MRT .                  EWR-M5:  Maximum Recorded Temperature 
 TTMX.degC               64.00:  Max Tool Temp 
 VS01.                90586516:  Virtual Str1 SN 
 VS02.                90513691:  Virtual Str2 SN 
 VS03.                90586523:  Virtual Str3 SN 
 VS04.                90586520:  Virtual Str4 SN 
 VS05.                90590507:  Virtual Str5 SN 
 WBMN.klb                12.00:  WOB Min 
 WITN.           Rufat Babayev:  Customer Rep 2 
 WITN.         Alistair Sprott:  Customer Rep 
 WOBA.klb                18.00:  WOB Avg 
 WOBX.klb                30.00:  WOB Max 
 YP  .lhf2               41.00:  Yield Point 
~Curve Information Block
#MNEM.UNIT                 API CODE     Curve Description
#---------               -----------    ---------------------------
 TIME.HHMMSS            00 000 000 000:  GT Time & Date
 GTDEPTH.m              00 000 000 000:  GT Depth
 GTPQH.psia             00 000 000 000:  GT HR Quartz Pressure
 GTTQ.degC              00 000 000 000:  GT Quartz Temperature
 GTTN.NONE              00 000 000 000:  GT Test Number
 GTET.sec               00 000 000 000:  GT Elapsed Test Time
 GTTVD.m                00 000 000 000:  GT True Vertical Depth
#Other Information
#
#WARRANTY: Halliburton will use its best efforts to furnish customers with 
#accurate information and interpretations that are part of, and incident to, the services 
#provided.  However, Halliburton cannot and does not warrant the accuracy 
#or correctness of such information and interpretations.  Under no circumstances should any 
#such information or interpretation be relied upon as the sole basis for any drilling, 
#completion, production, or financial decision or any procedure involving any risk to the 
#safety of any drilling venture, drilling rig or its crew or any other third party.  The 
#Customer has full responsibility for all drilling, completion and production operation.  
#Halliburton makes no representations or warranties, either expressed or 
#implied, including, but not limited to, the implied warranties of merchantability or fitness 
#for a particular purpose, with respect to the services rendered.  In no event will 
#Halliburton be liable for failure to obtain any particular results or for 
#any damages, including, but not limited to, indirect, special or consequential damages, 
#resulting from the use of any information or interpretation provided by Halliburton.
#
~A           TIME           GTDEPTH  GTPQH  GTTQ  GTTN  GTET   GTTVD  
# ...
   00:25:50.673.24-Feb-2020 3430.51 4219.89 56.39 2.00 138.02 2723.35
   00:25:50.873.24-Feb-2020 3430.51 4219.89 56.39 2.00 138.22 2723.35
   00:25:51.073.24-Feb-2020 3430.51 4219.54 56.39 2.00 138.42 2723.35
   00:25:51.273.24-Feb-2020 3430.51 4219.72 56.39 2.00 138.62 2723.35
   00:25:51.473.24-Feb-2020 3430.51 4219.78 56.39 2.00 138.82 2723.35
   00:25:51.673.24-Feb-2020 3430.51 4220.32 56.39 2.00 139.02 2723.35
   00:25:51.873.24-Feb-2020 3430.51 4218.78 56.39 2.00 139.22 2723.35
   00:25:52.073.24-Feb-2020 3430.51 4220.33 56.39 2.00 139.42 2723.35
   00:25:52.273.24-Feb-2020 3430.51 4220.05 56.39 2.00 139.62 2723.35
   00:25:52.473.24-Feb-2020 3430.51 4219.52 56.39 2.00 139.82 2723.35
   00:25:52.673.24-Feb-2020 3430.51 4219.84 56.39 2.00 140.02 2723.35
   00:25:52.873.24-Feb-2020 3430.51 4219.84 56.39 2.00 140.22 2723.35
   00:25:53.073.24-Feb-2020 3430.51 4219.66 56.39 2.00 140.42 2723.35
   00:25:53.273.24-Feb-2020 3430.51 4219.69 56.39 2.00 140.62 2723.35
   00:25:53.473.24-Feb-2020 3430.51 4219.80 56.39 2.00 140.82 2723.35
   00:25:53.673.24-Feb-2020 3430.51 4219.65 56.39 2.00 141.02 2723.35
   00:25:53.873.24-Feb-2020 3430.51 4219.65 56.39 2.00 141.22 2723.35
   00:25:54.073.24-Feb-2020 3430.51 4219.62 56.39 2.00 141.42 2723.35
   00:25:54.273.24-Feb-2020 3430.51 4219.38 56.39 2.00 141.62 2723.35
   00:25:54.473.24-Feb-2020 3430.51 4219.28 56.39 2.00 141.82 2723.35
   00:25:54.673.24-Feb-2020 3430.51 4219.04 56.39 2.00 142.02 2723.35
   00:25:54.873.24-Feb-2020 3430.51 4219.04 56.39 2.00 142.22 2723.35
   00:25:55.073.24-Feb-2020 3430.51 4219.49 56.39 2.00 142.42 2723.35
   00:25:55.273.24-Feb-2020 3430.51 4220.38 56.39 2.00 142.62 2723.35
   00:25:55.473.24-Feb-2020 3430.51 4219.37 56.39 2.00 142.82 2723.35
   00:25:55.673.24-Feb-2020 3430.51 4219.65 56.39 2.00 143.02 2723.35
   00:25:55.873.24-Feb-2020 3430.51 4219.75 56.39 2.00 143.22 2723.35
   00:25:56.073.24-Feb-2020 3430.51 4219.54 56.39 2.00 143.42 2723.35
   00:25:56.273.24-Feb-2020 3430.51 4219.86 56.39 2.00 143.62 2723.35
   00:25:56.473.24-Feb-2020 3430.51 4219.80 56.39 2.00 143.82 2723.35
   00:25:56.673.24-Feb-2020 3430.51 4219.55 56.39 2.00 144.02 2723.35
   00:25:56.873.24-Feb-2020 3430.51 4219.55 56.39 2.00 144.22 2723.35
   00:25:57.073.24-Feb-2020 3430.51 4219.68 56.39 2.00 144.42 2723.35
   00:25:57.273.24-Feb-2020 3430.51 4219.77 56.39 2.00 144.62 2723.35
   00:25:57.473.24-Feb-2020 3430.51 4219.66 56.39 2.00 144.82 2723.35
   00:25:57.673.24-Feb-2020 3430.51 4219.82 56.39 2.00 145.02 2723.35
   00:25:57.873.24-Feb-2020 3430.51 4219.82 56.39 2.00 145.22 2723.35
   00:25:58.073.24-Feb-2020 3430.51 4220.23 56.39 2.00 145.42 2723.35
   00:25:58.273.24-Feb-2020 3430.51 4218.67 56.39 2.00 145.62 2723.35
   00:25:58.473.24-Feb-2020 3430.51 4220.26 56.39 2.00 145.82 2723.35
   00:25:58.673.24-Feb-2020 3430.51 4219.91 56.39 2.00 146.02 2723.35
   00:25:58.874.24-Feb-2020 3430.51 4219.91 56.39 2.00 146.22 2723.35
   00:25:59.074.24-Feb-2020 3430.51 4219.31 56.39 2.00 146.42 2723.35
   00:25:59.274.24-Feb-2020 3430.51 4219.50 56.39 2.00 146.62 2723.35
   00:25:59.474.24-Feb-2020 3430.51 4219.86 56.39 2.00 146.82 2723.35
   00:25:59.674.24-Feb-2020 3430.51 4220.36 56.39 2.00 147.02 2723.35
   00:25:59.874.24-Feb-2020 3430.51 4219.56 56.39 2.00 147.22 2723.35
   00:26:00.074.24-Feb-2020 3430.51 4219.87 56.39 2.00 147.42 2723.35
   00:26:00.274.24-Feb-2020 3430.51 4219.66 56.39 2.00 147.62 2723.35
   00:26:00.474.24-Feb-2020 3430.51 4220.29 56.39 2.00 147.82 2723.35
   00:26:00.674.24-Feb-2020 3430.51 4218.86 56.39 2.00 148.02 2723.35
   00:26:00.874.24-Feb-2020 3430.51 4218.86 56.39 2.00 148.22 2723.35
   00:26:01.074.24-Feb-2020 3430.51 4220.08 56.39 2.00 148.42 2723.35
   00:26:01.274.24-Feb-2020 3430.51 4219.43 56.39 2.00 148.62 2723.35
   00:26:01.474.24-Feb-2020 3430.51 4219.89 56.39 2.00 148.82 2723.35
   00:26:01.674.24-Feb-2020 3430.51 4219.83 56.39 2.00 149.02 2723.35
   00:26:01.874.24-Feb-2020 3430.51 4219.83 56.39 2.00 149.22 2723.35
   00:26:02.074.24-Feb-2020 3430.51 4219.30 56.39 2.00 149.42 2723.35
   00:26:02.274.24-Feb-2020 3430.51 4220.12 56.39 2.00 149.62 2723.35
   00:26:02.474.24-Feb-2020 3430.51 4219.60 56.39 2.00 149.82 2723.35
   00:26:02.674.24-Feb-2020 3430.51 4219.67 56.39 2.00 150.02 2723.35
   00:26:02.874.24-Feb-2020 3430.51 4219.67 56.39 2.00 150.22 2723.35
   00:26:03.074.24-Feb-2020 3430.51 4219.63 56.39 2.00 150.42 2723.35
   00:26:03.274.24-Feb-2020 3430.51 4219.60 56.39 2.00 150.62 2723.35
   00:26:03.474.24-Feb-2020 3430.51 4219.67 56.39 2.00 150.82 2723.35
   00:26:03.674.24-Feb-2020 3430.51 4219.54 56.39 2.00 151.02 2723.35
   00:26:03.874.24-Feb-2020 3430.51 4219.64 56.39 2.00 151.22 2723.35
   00:26:04.074.24-Feb-2020 3430.51 4219.87 56.39 2.00 151.42 2723.35
   00:26:04.274.24-Feb-2020 3430.51 4219.80 56.39 2.00 151.62 2723.35
   00:26:04.474.24-Feb-2020 3430.51 4219.55 56.39 2.00 151.82 2723.35
   00:26:04.674.24-Feb-2020 3430.51 4219.48 56.39 2.00 152.02 2723.35
   00:26:04.874.24-Feb-2020 3430.51 4219.48 56.39 2.00 152.22 2723.35
   00:26:05.074.24-Feb-2020 3430.51 4219.84 56.39 2.00 152.42 2723.35
   00:26:05.274.24-Feb-2020 3430.51 4220.24 56.39 2.00 152.62 2723.35
   00:26:05.474.24-Feb-2020 3430.51 4220.30 56.39 2.00 152.82 2723.35
   00:26:05.674.24-Feb-2020 3430.51 4219.40 56.39 2.00 153.02 2723.35
   00:26:05.874.24-Feb-2020 3430.51 4219.40 56.39 2.00 153.22 2723.35
   00:26:06.074.24-Feb-2020 3430.51 4219.54 56.39 2.00 153.42 2723.35
   00:26:06.274.24-Feb-2020 3430.51 4219.51 56.39 2.00 153.62 2723.35
   00:26:06.474.24-Feb-2020 3430.51 4219.70 56.39 2.00 153.82 2723.35
   00:26:06.674.24-Feb-2020 3430.51 4219.67 56.39 2.00 154.02 2723.35
   00:26:06.874.24-Feb-2020 3430.51 4219.67 56.39 2.00 154.22 2723.35
   00:26:07.074.24-Feb-2020 3430.51 4219.40 56.39 2.00 154.42 2723.35
   00:26:07.274.24-Feb-2020 3430.51 4219.62 56.39 2.00 154.62 2723.35
   00:26:07.474.24-Feb-2020 3430.51 4219.64 56.39 2.00 154.82 2723.35
   00:26:07.675.24-Feb-2020 3430.51 4219.74 56.39 2.00 155.02 2723.35
   00:26:07.875.24-Feb-2020 3430.51 4219.74 56.39 2.00 155.22 2723.35
   00:26:08.075.24-Feb-2020 3430.51 4219.65 56.39 2.00 155.42 2723.35
   00:26:08.275.24-Feb-2020 3430.51 4220.11 56.39 2.00 155.62 2723.35
   00:26:08.475.24-Feb-2020 3430.51 4219.47 56.39 2.00 155.82 2723.35
   00:26:08.675.24-Feb-2020 3430.51 4220.12 56.39 2.00 156.02 2723.35
   00:26:08.875.24-Feb-2020 3430.51 4220.12 56.39 2.00 156.22 2723.35
   00:26:09.075.24-Feb-2020 3430.51 4219.87 56.39 2.00 156.42 2723.35
   00:26:09.275.24-Feb-2020 3430.51 4220.47 56.39 2.00 156.62 2723.35
   00:26:09.475.24-Feb-2020 3430.51 4218.61 56.39 2.00 156.82 2723.35
   00:26:09.675.24-Feb-2020 3430.51 3998.53 56.39 2.00 157.02 2723.35
   00:26:09.875.24-Feb-2020 3430.51 3998.53 56.39 2.00 157.22 2723.35
   00:26:10.075.24-Feb-2020 3430.51 3248.35 56.39 2.00 157.42 2723.35
   00:26:10.275.24-Feb-2020 3430.51 3120.09 56.39 2.00 157.62 2723.35
   00:26:10.475.24-Feb-2020 3430.51 3065.57 56.39 2.00 157.82 2723.35
   00:26:10.675.24-Feb-2020 3430.51 3026.93 56.39 2.00 158.02 2723.35
   00:26:10.875.24-Feb-2020 3430.51 3026.93 56.39 2.00 158.22 2723.35
   00:26:11.075.24-Feb-2020 3430.51 2934.52 56.39 2.00 158.42 2723.35
   00:26:11.275.24-Feb-2020 3430.51 2901.60 56.39 2.00 158.62 2723.35
   00:26:11.475.24-Feb-2020 3430.51 2880.75 56.39 2.00 158.82 2723.35
   00:26:11.675.24-Feb-2020 3430.51 2865.90 56.38 2.00 159.02 2723.35
   00:26:11.875.24-Feb-2020 3430.51 2855.82 56.38 2.00 159.22 2723.35
   00:26:12.075.24-Feb-2020 3430.51 2852.54 56.38 2.00 159.42 2723.35
   00:26:12.275.24-Feb-2020 3430.51 2856.46 56.38 2.00 159.62 2723.35
   00:26:12.475.24-Feb-2020 3430.51 2863.19 56.38 2.00 159.82 2723.35
   00:26:12.675.24-Feb-2020 3430.51 2858.19 56.38 2.00 160.02 2723.35
   00:26:12.875.24-Feb-2020 3430.51 2858.19 56.38 2.00 160.22 2723.35
   00:26:13.075.24-Feb-2020 3430.51 2857.97 56.38 2.00 160.42 2723.35
   00:26:13.275.24-Feb-2020 3430.51 2854.59 56.38 2.00 160.62 2723.35
   00:26:13.475.24-Feb-2020 3430.51 2852.86 56.38 2.00 160.82 2723.35
