~Version Information
 VERS.                  2.0:   CWLS log ASCII Standard -VERSION 2.0
 WRAP.                   NO:   One line per depth step
~Well Information Block
#MNEM.UNIT     VALUE/NAME     DESCRIPTION
#---------     -----------    ---------------------------
 STRT.S             00:23:32 24-Feb-20: START TIME 00:23:32 24-Feb-20
 STOP.S             00:30:40 24-Feb-20: STOP TIME  00:30:40 24-Feb-20
 STEP.S                   0.00: STEP TIME
 NULL.                 -999.25: NULL VALUE
 JOBN.        AZ-XX-0905059384:  JOB TICKET NUMB
 PDAT.          Mean Sea Level:  PERMANENT DATUM
 UNIT.                     N/A:  LOGGING EQUIPMENT ID
 DCON.         Sperry Drilling:  DIRECTNL CONTR
 DOE .                     N/A:  DOE NUMBER
 RIG .             West Chirag:  RIG NAME
 WELL.                     J22:  WELL NAME
 MWDS.                    Baku:  MWD SHOP
 SRVC.     TURAN Drilling & Engineering:  CONTRACTOR
 FLD .                     ACG:  FIELD NAME
 CTRY.              Azerbaijan:  COUNTRY NAME
 PROV.                    Baku:  PROVINCE
 STAT.                    Baku:  STATE NAME
 REGN.                   EESSA:  REGION
 BASE.              Azerbaijan:  LOGGING EQUIPMENT BASE LOCATION
 UWI .                     N/A:  UNIQUE WELL IDENTIFIER
 API .                     N/A:  API NUMBER
 COMP.     BP Exploration (Caspian Sea) Ltd.:  COMPANY
 WTYP.                Deviated:  WELL TYPE
 MDS .        Operator Entered:  MAG DATA SOURCE
 SON .        AZ-XX-0905059384:  JOB NUMBER
 FTOP.          Formation Tops:  FORM TOPS DESC
 ILTD.               Lithology:  INTERP LTH DESC
 SVYD.                  Survey:  SURVEY DESC
 DMOD.             Drill Model:  DRILL MOD DESC
 HPTY.       Minimum Curvature:  HOLE POS TYPE
 NREF.                    Grid:  NORTH REFERENCE
 SPUD.               09-Jan-20:  SPUD DATE
 DATE.      14.04.48 07-Feb-20:  END TIME
 STIM.      07.00.00 09-Jan-20:  START TIME
 DMF .             Drill Floor:  DRILL MEAS FROM
 DFST.                        :  DIST FSL TEXT
 DFWT.                        :  DIST FWL TEXT
 CNTY.                        :  COUNTY
 LOC .                        :  LOCATION
 LMF .             Drill Floor:  LOG MEASURED FROM
 DEP .m                   0.00:  DEPTH
 VSNS.m                  10.28:  VERT SEC N/S
 VSEW.m                  -6.24:  VERT SEC E/W
 AGAP.m                  43.00:  AIR GAP
 APD .m                  43.00:  DEPTH ABOVE PD
 WDMS.m                 169.80:  WD ELEV
 EGL .m                   0.00:  GROUND ELEVATION
 EPD .m                   0.00:  ELEVATION
 AZTC.deg                 6.27:  AZM TOTAL CORR
 GRDC.deg                 0.15:  GRID CORRECTION
 MDEC.deg                 6.42:  MAGNETIC DECL
 MDIP.deg                59.56:  MAGNETIC DIP
 MFLD.nT              50277.00:  MAGNETIC FIELD
 GVFD.g                   1.00:  GRAVITY FIELD
 VSDR.deg               148.53:  VERT SEC DIRECT
 TDD .m                3473.01:  TOTAL DEPTH (DRILLER)
 SDEP.m                 364.00:  START DEPTH
 DFSL.m                   0.00:  DISTANCE FSL
 DFWL.m                   0.00:  DISTANCE FWL
 UTMY.m             4443793.85:  UTM Y
 UTMX.m              519005.06:  UTM X
 WHEW.m                  -6.24:  WELL HEAD E/W
 WHNS.m                  10.28:  WELL HEAD N/S
 LONG.deg                51.22:  LONGITUDE
 LATI.deg                40.13:  LATITUDE
 TVDS.m                  43.00:  TVDSS CORRECTN
 EKB .m                   0.00:  KB ELEVATION
 EDF .m                  43.00:  DF ELEVATION
 TDL .m                 254.00:  TOTAL DEPTH (LOGGER)
 MAGU.                 1850021:  MAGUTM CHECKSUM
 VSC .                       0:  VS TO CLOSURE
~Parameter Information Block
#MNEM.UNIT       Value        Description
#---------     -----------    ---------------------------
 AV  .mps                 0.50:  Ann Velocity 
 AVMX.mps                 1.40:  Max Ann Veloc 
 AZIF.deg               144.94:  Azm, Final 
 BHAT.        Rotary Steerable:  BHA Type 
 BROT.∞/30m               0.23:  Build Rotating 
 BS  .in                  8.50:  Bit Size 
 BTPL.psig              264.00:  Bit Press Loss 
 CABU.                     Yes:  Customer Abuse 
 COMM.                     ÙP`:  Run Comments 1 
 TCS .hr                 87.30:  Time Ciculation Ended 
 CV  .mps                 2.45:  Crit Velocity 
 CVMX.mps                 2.74:  Max Crit Veloc 
 DD1 .             Aziz Aliyev:  Direct Drillr 1 
 DDSV.               Geo-Pilot:  DD Service 
 DEFF.%                 100.00:  % Det Eff 
 DLRX.∞/30m               1.22:  Dogleg Rot Max 
 DLSO.∞/30m               0.52:  Dogleg Oriented 
 DLSX.∞/30m               1.22:  Dogleg Str Max 
 DRET.      12.59.00 23-Feb-20:  Drill End Time 
 DRST.      09.44.00 18-Feb-20:  Drill Start Tim 
 DTIM.hr                 23.03:  Time Drilling 
 EDEP.m                3473.01:  End Depth 
 ENG1.         Almaz Almadatov:  Engineer 1 
 ENG2.         Dair Mahammadov:  Engineer 2 
 ENG3.          Nazrin Asgarli:  Engineer 3 
 ETIM.      10.33.36 26-Feb-20:  End Time 
 FLOI.gpm               480.00:  Flow In 
 FLON.gpm               300.00:  Flow In Min 
 FLOS.cptm                1.00:  Fluid Loss 
 FLOX.gpm               550.00:  Flow In Max 
 HFLO.                      No:  High Flow 
 HPRE.                      No:  High Pressure 
 HTEM.                      No:  High Temp 
 HYDO.m                   1.80:  Hydro Offset 
 IFIN.deg                74.42:  Inc, Final 
 IMAX.deg                76.14:  Inc Max 
 IMIN.deg                74.42:  Inc Min 
 IMND.m                3462.72:  Inc Min Depth 
 IMXD.m                3235.69:  Inc Max Depth 
 JARR.                      No:  Jarring 
 LETM.      12.59.00 23-Feb-20:  Log End Time 
 LOST.hr                     0:  Lost Rig Time 
 LSTM.      09.44.00 18-Feb-20:  Log Start Time 
 MDCL.ppm             45000.00:  Mud Chlorides 
 MDES.     Inversion Oil/Synthetic:  Mud Desc 
 DFD .sg                  1.38:  Mud Density 
 MDMN.sg                  1.34:  Dens Mud Min 
 MDMX.sg                  1.49:  Dens Mud Max 
 MOIL.                      67:  Run Mud Oil % 
 MOWR.                   67:33:  Run Mud OWR 
 MSND.                    0.12:  Run Mud Sand % 
 MSOL.                      22:  Run Mud Solids% 
 DFV .spqt               81.00:  Mud Viscosity 
 MWOD.in                  6.75:  MWD Tool OD 
 MWSI.                      No:  Serv Intrp, MWD 
 OTIM.hr                231.44:  Time Operating 
 PCON.          Wear / Scratch:  Pad Condition 
 PMAX.psia             3400.00:  Press Op, Max 
 PV  .cP                 55.00:  Mud PV 
 RUN .                     800:  Run Number 
 ROPA.m/hr               12.00:  ROP Avg 
 ROPN.m/hr                5.00:  ROP Min 
 ROPX.m/hr               28.00:  ROP Max 
 RPMA.rpm               120.00:  RPM Surface Avg 
 RPMN.rpm                40.00:  RPM Surface Min 
 RPMX.rpm               130.00:  RPM Surface Max 
 RRUN.                    0800:  Rig Run Number 
 RTIM.hr                 45.00:  Time Reaming 
 SAZI.deg               145.38:  Azm, Start 
 SDEP.m                3219.01:  Start Depth 
 SIDD.                      No:  Serv Intrp, DD 
 SINC.deg                75.11:  Inc, Start 
 SPPA.psig             2400.00:  SPP Avg 
 SPPN.psig             2320.00:  SPP Min 
 SPPX.psig             3200.00:  SPP Max 
 STIM.      15.15.00 17-Feb-20:  Start Time 
 SVCS.                 DD, MWD:  Services 
 SVER.                    9.20:  Sperry Version 
 TDAT.m                 254.00:  Tot Depth Attmp 
 TDDF.                      No:  Trip for DD 
 TDLG.m                 254.00:  Tot Depth Loggd 
 TFF .                      No:  Trip for Fail 
 TQAA.f-kp               13.00:  Torque Abs Avg 
 TQAN.f-kp                7.00:  Torque Abs Min 
 TQAX.f-kp               15.00:  Torque Abs Max 
 TRRT.∞/30m               0.21:  Turn Rotating 
 MRT .                  EWR-M5:  Maximum Recorded Temperature 
 TTMX.degC               64.00:  Max Tool Temp 
 VS01.                90586516:  Virtual Str1 SN 
 VS02.                90513691:  Virtual Str2 SN 
 VS03.                90586523:  Virtual Str3 SN 
 VS04.                90586520:  Virtual Str4 SN 
 VS05.                90590507:  Virtual Str5 SN 
 WBMN.klb                12.00:  WOB Min 
 WITN.           Rufat Babayev:  Customer Rep 2 
 WITN.         Alistair Sprott:  Customer Rep 
 WOBA.klb                18.00:  WOB Avg 
 WOBX.klb                30.00:  WOB Max 
 YP  .lhf2               41.00:  Yield Point 
~Curve Information Block
#MNEM.UNIT                 API CODE     Curve Description
#---------               -----------    ---------------------------
 TIME.HHMMSS            00 000 000 000:  GT Time & Date
 GTDEPTH.m              00 000 000 000:  GT Depth
 GTPQH.psia             00 000 000 000:  GT HR Quartz Pressure
 GTTQ.degC              00 000 000 000:  GT Quartz Temperature
 GTTN.NONE              00 000 000 000:  GT Test Number
 GTET.sec               00 000 000 000:  GT Elapsed Test Time
 GTTVD.m                00 000 000 000:  GT True Vertical Depth
#Other Information
#
#WARRANTY: Halliburton will use its best efforts to furnish customers with 
#accurate information and interpretations that are part of, and incident to, the services 
#provided.  However, Halliburton cannot and does not warrant the accuracy 
#or correctness of such information and interpretations.  Under no circumstances should any 
#such information or interpretation be relied upon as the sole basis for any drilling, 
#completion, production, or financial decision or any procedure involving any risk to the 
#safety of any drilling venture, drilling rig or its crew or any other third party.  The 
#Customer has full responsibility for all drilling, completion and production operation.  
#Halliburton makes no representations or warranties, either expressed or 
#implied, including, but not limited to, the implied warranties of merchantability or fitness 
#for a particular purpose, with respect to the services rendered.  In no event will 
#Halliburton be liable for failure to obtain any particular results or for 
#any damages, including, but not limited to, indirect, special or consequential damages, 
#resulting from the use of any information or interpretation provided by Halliburton.
#
~A           TIME           GTDEPTH  GTPQH  GTTQ  GTTN  GTET   GTTVD  
# ...
   00:24:18.662.24-Feb-2020 3430.51 4339.70 56.40 2.00  46.01 2723.35
   00:24:18.862.24-Feb-2020 3430.51 4339.70 56.40 2.00  46.21 2723.35
   00:24:19.062.24-Feb-2020 3430.51 4270.48 56.40 2.00  46.41 2723.35
   00:24:19.262.24-Feb-2020 3430.51 4251.15 56.40 2.00  46.61 2723.35
   00:24:19.462.24-Feb-2020 3430.51 4239.44 56.40 2.00  46.81 2723.35
   00:24:19.662.24-Feb-2020 3430.51 4226.19 56.40 2.00  47.01 2723.35
   00:24:19.862.24-Feb-2020 3430.51 4221.61 56.40 2.00  47.21 2723.35
   00:24:20.062.24-Feb-2020 3430.51 4218.66 56.40 2.00  47.41 2723.35
   00:24:20.262.24-Feb-2020 3430.51 4216.73 56.40 2.00  47.61 2723.35
   00:24:20.462.24-Feb-2020 3430.51 4211.41 56.40 2.00  47.81 2723.35
   00:24:20.662.24-Feb-2020 3430.51 4209.10 56.40 2.00  48.01 2723.35
   00:24:20.862.24-Feb-2020 3430.51 4209.10 56.40 2.00  48.21 2723.35
   00:24:21.062.24-Feb-2020 3430.51 4209.60 56.40 2.00  48.41 2723.35
   00:24:21.262.24-Feb-2020 3430.51 4209.60 56.40 2.00  48.61 2723.35
   00:24:21.462.24-Feb-2020 3430.51 4209.99 56.39 2.00  48.81 2723.35
   00:24:21.662.24-Feb-2020 3430.51 4208.60 56.39 2.00  49.01 2723.35
   00:24:21.862.24-Feb-2020 3430.51 4208.60 56.39 2.00  49.21 2723.35
   00:24:22.062.24-Feb-2020 3430.51 4207.30 56.39 2.00  49.41 2723.35
   00:24:22.262.24-Feb-2020 3430.51 4208.49 56.39 2.00  49.61 2723.35
   00:24:22.462.24-Feb-2020 3430.51 4209.22 56.39 2.00  49.81 2723.35
   00:24:22.662.24-Feb-2020 3430.51 4210.11 56.39 2.00  50.01 2723.35
   00:24:22.862.24-Feb-2020 3430.51 4210.11 56.39 2.00  50.21 2723.35
   00:24:23.062.24-Feb-2020 3430.51 3743.57 56.39 2.00  50.41 2723.35
   00:24:23.263.24-Feb-2020 3430.51 2714.12 56.39 2.00  50.61 2723.35
   00:24:23.463.24-Feb-2020 3430.51 1933.35 56.39 2.00  50.81 2723.35
   00:24:23.663.24-Feb-2020 3430.51 1949.77 56.39 2.00  51.01 2723.35
   00:24:23.863.24-Feb-2020 3430.51 2522.91 56.39 2.00  51.21 2723.35
   00:24:24.063.24-Feb-2020 3430.51 2882.59 56.39 2.00  51.41 2723.35
   00:24:24.263.24-Feb-2020 3430.51 3112.44 56.38 2.00  51.61 2723.35
   00:24:24.463.24-Feb-2020 3430.51 3192.93 56.38 2.00  51.81 2723.35
   00:24:24.663.24-Feb-2020 3430.51 3238.11 56.38 2.00  52.01 2723.35
   00:24:24.863.24-Feb-2020 3430.51 3238.11 56.38 2.00  52.21 2723.35
   00:24:25.063.24-Feb-2020 3430.51 3458.47 56.38 2.00  52.41 2723.35
   00:24:25.263.24-Feb-2020 3430.51 3459.04 56.38 2.00  52.61 2723.35
   00:24:25.463.24-Feb-2020 3430.51 3402.98 56.38 2.00  52.81 2723.35
   00:24:25.663.24-Feb-2020 3430.51 3354.17 56.38 2.00  53.01 2723.35
   00:24:25.863.24-Feb-2020 3430.51 3354.17 56.38 2.00  53.21 2723.35
   00:24:26.063.24-Feb-2020 3430.51 3257.65 56.37 2.00  53.41 2723.35
   00:24:26.263.24-Feb-2020 3430.51 3245.91 56.37 2.00  53.61 2723.35
   00:24:26.463.24-Feb-2020 3430.51 3193.50 56.37 2.00  53.81 2723.35
   00:24:26.663.24-Feb-2020 3430.51 3172.36 56.37 2.00  54.01 2723.35
   00:24:26.863.24-Feb-2020 3430.51 3172.36 56.37 2.00  54.21 2723.35
   00:24:27.063.24-Feb-2020 3430.51 3164.66 56.37 2.00  54.41 2723.35
   00:24:27.263.24-Feb-2020 3430.51 3139.62 56.37 2.00  54.61 2723.35
   00:24:27.463.24-Feb-2020 3430.51 3116.42 56.37 2.00  54.81 2723.35
   00:24:27.663.24-Feb-2020 3430.51 3095.63 56.37 2.00  55.01 2723.35
   00:24:27.863.24-Feb-2020 3430.51 3095.63 56.37 2.00  55.21 2723.35
   00:24:28.063.24-Feb-2020 3430.51 3033.02 56.37 2.00  55.41 2723.35
   00:24:28.263.24-Feb-2020 3430.51 3048.67 56.37 2.00  55.61 2723.35
   00:24:28.463.24-Feb-2020 3430.51 3034.89 56.37 2.00  55.81 2723.35
   00:24:28.663.24-Feb-2020 3430.51 3012.58 56.36 2.00  56.01 2723.35
   00:24:28.863.24-Feb-2020 3430.51 3012.58 56.36 2.00  56.21 2723.35
   00:24:29.063.24-Feb-2020 3430.51 2979.55 56.36 2.00  56.41 2723.35
   00:24:29.263.24-Feb-2020 3430.51 2994.25 56.36 2.00  56.61 2723.35
   00:24:29.463.24-Feb-2020 3430.51 3061.66 56.36 2.00  56.81 2723.35
   00:24:29.663.24-Feb-2020 3430.51 3067.99 56.36 2.00  57.01 2723.35
   00:24:29.863.24-Feb-2020 3430.51 3067.99 56.36 2.00  57.21 2723.35
   00:24:30.063.24-Feb-2020 3430.51 3009.12 56.36 2.00  57.41 2723.35
   00:24:30.263.24-Feb-2020 3430.51 2989.46 56.36 2.00  57.61 2723.35
   00:24:30.463.24-Feb-2020 3430.51 2978.85 56.36 2.00  57.81 2723.35
   00:24:30.663.24-Feb-2020 3430.51 2971.44 56.36 2.00  58.01 2723.35
   00:24:30.863.24-Feb-2020 3430.51 2971.44 56.36 2.00  58.21 2723.35
   00:24:31.063.24-Feb-2020 3430.51 2948.50 56.36 2.00  58.41 2723.35
   00:24:31.263.24-Feb-2020 3430.51 2937.19 56.36 2.00  58.61 2723.35
   00:24:31.463.24-Feb-2020 3430.51 2940.66 56.36 2.00  58.81 2723.35
   00:24:31.663.24-Feb-2020 3430.51 2941.55 56.36 2.00  59.01 2723.35
   00:24:31.863.24-Feb-2020 3430.51 2946.47 56.36 2.00  59.21 2723.35
   00:24:32.064.24-Feb-2020 3430.51 2946.42 56.36 2.00  59.41 2723.35
   00:24:32.264.24-Feb-2020 3430.51 2942.73 56.36 2.00  59.61 2723.35
   00:24:32.464.24-Feb-2020 3430.51 2940.81 56.36 2.00  59.81 2723.35
   00:24:32.664.24-Feb-2020 3430.51 2959.69 56.36 2.00  60.01 2723.35
   00:24:32.864.24-Feb-2020 3430.51 2959.69 56.36 2.00  60.21 2723.35
   00:24:33.064.24-Feb-2020 3430.51 3615.74 56.35 2.00  60.41 2723.35
   00:24:33.264.24-Feb-2020 3430.51 3857.87 56.35 2.00  60.61 2723.35
   00:24:33.464.24-Feb-2020 3430.51 4000.14 56.35 2.00  60.81 2723.35
   00:24:33.664.24-Feb-2020 3430.51 4083.33 56.35 2.00  61.01 2723.35
   00:24:33.864.24-Feb-2020 3430.51 4083.33 56.35 2.00  61.21 2723.35
   00:24:34.064.24-Feb-2020 3430.51 4171.72 56.35 2.00  61.41 2723.35
   00:24:34.264.24-Feb-2020 3430.51 4191.34 56.35 2.00  61.61 2723.35
   00:24:34.464.24-Feb-2020 3430.51 4200.35 56.35 2.00  61.81 2723.35
   00:24:34.664.24-Feb-2020 3430.51 4206.21 56.35 2.00  62.01 2723.35
   00:24:34.864.24-Feb-2020 3430.51 4206.21 56.35 2.00  62.21 2723.35
   00:24:35.064.24-Feb-2020 3430.51 4212.96 56.36 2.00  62.41 2723.35
   00:24:35.264.24-Feb-2020 3430.51 4214.98 56.36 2.00  62.61 2723.35
   00:24:35.464.24-Feb-2020 3430.51 4216.48 56.36 2.00  62.81 2723.35
   00:24:35.664.24-Feb-2020 3430.51 4217.75 56.36 2.00  63.01 2723.35
   00:24:35.864.24-Feb-2020 3430.51 4218.54 56.36 2.00  63.21 2723.35
   00:24:36.064.24-Feb-2020 3430.51 4219.03 56.36 2.00  63.41 2723.35
   00:24:36.264.24-Feb-2020 3430.51 4219.80 56.36 2.00  63.61 2723.35
   00:24:36.464.24-Feb-2020 3430.51 4220.23 56.36 2.00  63.81 2723.35
   00:24:36.664.24-Feb-2020 3430.51 4220.56 56.36 2.00  64.01 2723.35
   00:24:36.864.24-Feb-2020 3430.51 4220.56 56.36 2.00  64.21 2723.35
   00:24:37.064.24-Feb-2020 3430.51 4226.05 56.36 2.00  64.41 2723.35
   00:24:37.264.24-Feb-2020 3430.51 4226.16 56.36 2.00  64.61 2723.35
   00:24:37.464.24-Feb-2020 3430.51 4226.57 56.37 2.00  64.81 2723.35
   00:24:37.664.24-Feb-2020 3430.51 4223.78 56.37 2.00  65.01 2723.35
   00:24:37.864.24-Feb-2020 3430.51 4223.78 56.37 2.00  65.21 2723.35
   00:24:38.064.24-Feb-2020 3430.51 4220.96 56.37 2.00  65.41 2723.35
   00:24:38.264.24-Feb-2020 3430.51 4219.60 56.37 2.00  65.61 2723.35
   00:24:38.464.24-Feb-2020 3430.51 4222.83 56.37 2.00  65.81 2723.35
   00:24:38.664.24-Feb-2020 3430.51 4223.95 56.37 2.00  66.01 2723.35
   00:24:38.864.24-Feb-2020 3430.51 4223.95 56.37 2.00  66.21 2723.35
   00:24:39.064.24-Feb-2020 3430.51 4222.83 56.37 2.00  66.41 2723.35
   00:24:39.264.24-Feb-2020 3430.51 4221.19 56.37 2.00  66.61 2723.35
   00:24:39.464.24-Feb-2020 3430.51 4223.04 56.37 2.00  66.81 2723.35
   00:24:39.664.24-Feb-2020 3430.51 4223.92 56.37 2.00  67.01 2723.35
   00:24:39.864.24-Feb-2020 3430.51 4224.21 56.37 2.00  67.21 2723.35
   00:24:40.064.24-Feb-2020 3430.51 4222.08 56.37 2.00  67.41 2723.35
   00:24:40.264.24-Feb-2020 3430.51 4220.96 56.37 2.00  67.61 2723.35
   00:24:40.464.24-Feb-2020 3430.51 4219.47 56.37 2.00  67.81 2723.35
   00:24:40.665.24-Feb-2020 3430.51 4221.46 56.38 2.00  68.01 2723.35
   00:24:40.865.24-Feb-2020 3430.51 4221.46 56.38 2.00  68.21 2723.35
   00:24:41.065.24-Feb-2020 3430.51 4222.47 56.38 2.00  68.41 2723.35
   00:24:41.265.24-Feb-2020 3430.51 4221.06 56.38 2.00  68.61 2723.35
   00:24:41.465.24-Feb-2020 3430.51 4220.41 56.38 2.00  68.81 2723.35
