~Version Information
 VERS.                  2.0:   CWLS log ASCII Standard -VERSION 2.0
 WRAP.                   NO:   One line per depth step
~Well Information Block
#MNEM.UNIT     VALUE/NAME     DESCRIPTION
#---------     -----------    ---------------------------
 STRT.S             00:23:32 24-Feb-20: START TIME 00:23:32 24-Feb-20
 STOP.S             00:30:40 24-Feb-20: STOP TIME  00:30:40 24-Feb-20
 STEP.S                   0.00: STEP TIME
 NULL.                 -999.25: NULL VALUE
 JOBN.        AZ-XX-0905059384:  JOB TICKET NUMB
 PDAT.          Mean Sea Level:  PERMANENT DATUM
 UNIT.                     N/A:  LOGGING EQUIPMENT ID
 DCON.         Sperry Drilling:  DIRECTNL CONTR
 DOE .                     N/A:  DOE NUMBER
 RIG .             West Chirag:  RIG NAME
 WELL.                     J22:  WELL NAME
 MWDS.                    Baku:  MWD SHOP
 SRVC.     TURAN Drilling & Engineering:  CONTRACTOR
 FLD .                     ACG:  FIELD NAME
 CTRY.              Azerbaijan:  COUNTRY NAME
 PROV.                    Baku:  PROVINCE
 STAT.                    Baku:  STATE NAME
 REGN.                   EESSA:  REGION
 BASE.              Azerbaijan:  LOGGING EQUIPMENT BASE LOCATION
 UWI .                     N/A:  UNIQUE WELL IDENTIFIER
 API .                     N/A:  API NUMBER
 COMP.     BP Exploration (Caspian Sea) Ltd.:  COMPANY
 WTYP.                Deviated:  WELL TYPE
 MDS .        Operator Entered:  MAG DATA SOURCE
 SON .        AZ-XX-0905059384:  JOB NUMBER
 FTOP.          Formation Tops:  FORM TOPS DESC
 ILTD.               Lithology:  INTERP LTH DESC
 SVYD.                  Survey:  SURVEY DESC
 DMOD.             Drill Model:  DRILL MOD DESC
 HPTY.       Minimum Curvature:  HOLE POS TYPE
 NREF.                    Grid:  NORTH REFERENCE
 SPUD.               09-Jan-20:  SPUD DATE
 DATE.      14.04.48 07-Feb-20:  END TIME
 STIM.      07.00.00 09-Jan-20:  START TIME
 DMF .             Drill Floor:  DRILL MEAS FROM
 DFST.                        :  DIST FSL TEXT
 DFWT.                        :  DIST FWL TEXT
 CNTY.                        :  COUNTY
 LOC .                        :  LOCATION
 LMF .             Drill Floor:  LOG MEASURED FROM
 DEP .m                   0.00:  DEPTH
 VSNS.m                  10.28:  VERT SEC N/S
 VSEW.m                  -6.24:  VERT SEC E/W
 AGAP.m                  43.00:  AIR GAP
 APD .m                  43.00:  DEPTH ABOVE PD
 WDMS.m                 169.80:  WD ELEV
 EGL .m                   0.00:  GROUND ELEVATION
 EPD .m                   0.00:  ELEVATION
 AZTC.deg                 6.27:  AZM TOTAL CORR
 GRDC.deg                 0.15:  GRID CORRECTION
 MDEC.deg                 6.42:  MAGNETIC DECL
 MDIP.deg                59.56:  MAGNETIC DIP
 MFLD.nT              50277.00:  MAGNETIC FIELD
 GVFD.g                   1.00:  GRAVITY FIELD
 VSDR.deg               148.53:  VERT SEC DIRECT
 TDD .m                3473.01:  TOTAL DEPTH (DRILLER)
 SDEP.m                 364.00:  START DEPTH
 DFSL.m                   0.00:  DISTANCE FSL
 DFWL.m                   0.00:  DISTANCE FWL
 UTMY.m             4443793.85:  UTM Y
 UTMX.m              519005.06:  UTM X
 WHEW.m                  -6.24:  WELL HEAD E/W
 WHNS.m                  10.28:  WELL HEAD N/S
 LONG.deg                51.22:  LONGITUDE
 LATI.deg                40.13:  LATITUDE
 TVDS.m                  43.00:  TVDSS CORRECTN
 EKB .m                   0.00:  KB ELEVATION
 EDF .m                  43.00:  DF ELEVATION
 TDL .m                 254.00:  TOTAL DEPTH (LOGGER)
 MAGU.                 1850021:  MAGUTM CHECKSUM
 VSC .                       0:  VS TO CLOSURE
~Parameter Information Block
#MNEM.UNIT       Value        Description
#---------     -----------    ---------------------------
 AV  .mps                 0.50:  Ann Velocity 
 AVMX.mps                 1.40:  Max Ann Veloc 
 AZIF.deg               144.94:  Azm, Final 
 BHAT.        Rotary Steerable:  BHA Type 
 BROT.∞/30m               0.23:  Build Rotating 
 BS  .in                  8.50:  Bit Size 
 BTPL.psig              264.00:  Bit Press Loss 
 CABU.                     Yes:  Customer Abuse 
 COMM.                     ÙP`:  Run Comments 1 
 TCS .hr                 87.30:  Time Ciculation Ended 
 CV  .mps                 2.45:  Crit Velocity 
 CVMX.mps                 2.74:  Max Crit Veloc 
 DD1 .             Aziz Aliyev:  Direct Drillr 1 
 DDSV.               Geo-Pilot:  DD Service 
 DEFF.%                 100.00:  % Det Eff 
 DLRX.∞/30m               1.22:  Dogleg Rot Max 
 DLSO.∞/30m               0.52:  Dogleg Oriented 
 DLSX.∞/30m               1.22:  Dogleg Str Max 
 DRET.      12.59.00 23-Feb-20:  Drill End Time 
 DRST.      09.44.00 18-Feb-20:  Drill Start Tim 
 DTIM.hr                 23.03:  Time Drilling 
 EDEP.m                3473.01:  End Depth 
 ENG1.         Almaz Almadatov:  Engineer 1 
 ENG2.         Dair Mahammadov:  Engineer 2 
 ENG3.          Nazrin Asgarli:  Engineer 3 
 ETIM.      10.33.36 26-Feb-20:  End Time 
 FLOI.gpm               480.00:  Flow In 
 FLON.gpm               300.00:  Flow In Min 
 FLOS.cptm                1.00:  Fluid Loss 
 FLOX.gpm               550.00:  Flow In Max 
 HFLO.                      No:  High Flow 
 HPRE.                      No:  High Pressure 
 HTEM.                      No:  High Temp 
 HYDO.m                   1.80:  Hydro Offset 
 IFIN.deg                74.42:  Inc, Final 
 IMAX.deg                76.14:  Inc Max 
 IMIN.deg                74.42:  Inc Min 
 IMND.m                3462.72:  Inc Min Depth 
 IMXD.m                3235.69:  Inc Max Depth 
 JARR.                      No:  Jarring 
 LETM.      12.59.00 23-Feb-20:  Log End Time 
 LOST.hr                     0:  Lost Rig Time 
 LSTM.      09.44.00 18-Feb-20:  Log Start Time 
 MDCL.ppm             45000.00:  Mud Chlorides 
 MDES.     Inversion Oil/Synthetic:  Mud Desc 
 DFD .sg                  1.38:  Mud Density 
 MDMN.sg                  1.34:  Dens Mud Min 
 MDMX.sg                  1.49:  Dens Mud Max 
 MOIL.                      67:  Run Mud Oil % 
 MOWR.                   67:33:  Run Mud OWR 
 MSND.                    0.12:  Run Mud Sand % 
 MSOL.                      22:  Run Mud Solids% 
 DFV .spqt               81.00:  Mud Viscosity 
 MWOD.in                  6.75:  MWD Tool OD 
 MWSI.                      No:  Serv Intrp, MWD 
 OTIM.hr                231.44:  Time Operating 
 PCON.          Wear / Scratch:  Pad Condition 
 PMAX.psia             3400.00:  Press Op, Max 
 PV  .cP                 55.00:  Mud PV 
 RUN .                     800:  Run Number 
 ROPA.m/hr               12.00:  ROP Avg 
 ROPN.m/hr                5.00:  ROP Min 
 ROPX.m/hr               28.00:  ROP Max 
 RPMA.rpm               120.00:  RPM Surface Avg 
 RPMN.rpm                40.00:  RPM Surface Min 
 RPMX.rpm               130.00:  RPM Surface Max 
 RRUN.                    0800:  Rig Run Number 
 RTIM.hr                 45.00:  Time Reaming 
 SAZI.deg               145.38:  Azm, Start 
 SDEP.m                3219.01:  Start Depth 
 SIDD.                      No:  Serv Intrp, DD 
 SINC.deg                75.11:  Inc, Start 
 SPPA.psig             2400.00:  SPP Avg 
 SPPN.psig             2320.00:  SPP Min 
 SPPX.psig             3200.00:  SPP Max 
 STIM.      15.15.00 17-Feb-20:  Start Time 
 SVCS.                 DD, MWD:  Services 
 SVER.                    9.20:  Sperry Version 
 TDAT.m                 254.00:  Tot Depth Attmp 
 TDDF.                      No:  Trip for DD 
 TDLG.m                 254.00:  Tot Depth Loggd 
 TFF .                      No:  Trip for Fail 
 TQAA.f-kp               13.00:  Torque Abs Avg 
 TQAN.f-kp                7.00:  Torque Abs Min 
 TQAX.f-kp               15.00:  Torque Abs Max 
 TRRT.∞/30m               0.21:  Turn Rotating 
 MRT .                  EWR-M5:  Maximum Recorded Temperature 
 TTMX.degC               64.00:  Max Tool Temp 
 VS01.                90586516:  Virtual Str1 SN 
 VS02.                90513691:  Virtual Str2 SN 
 VS03.                90586523:  Virtual Str3 SN 
 VS04.                90586520:  Virtual Str4 SN 
 VS05.                90590507:  Virtual Str5 SN 
 WBMN.klb                12.00:  WOB Min 
 WITN.           Rufat Babayev:  Customer Rep 2 
 WITN.         Alistair Sprott:  Customer Rep 
 WOBA.klb                18.00:  WOB Avg 
 WOBX.klb                30.00:  WOB Max 
 YP  .lhf2               41.00:  Yield Point 
~Curve Information Block
#MNEM.UNIT                 API CODE     Curve Description
#---------               -----------    ---------------------------
 TIME.HHMMSS            00 000 000 000:  GT Time & Date
 GTDEPTH.m              00 000 000 000:  GT Depth
 GTPQH.psia             00 000 000 000:  GT HR Quartz Pressure
 GTTQ.degC              00 000 000 000:  GT Quartz Temperature
 GTTN.NONE              00 000 000 000:  GT Test Number
 GTET.sec               00 000 000 000:  GT Elapsed Test Time
 GTTVD.m                00 000 000 000:  GT True Vertical Depth
#Other Information
#
#WARRANTY: Halliburton will use its best efforts to furnish customers with 
#accurate information and interpretations that are part of, and incident to, the services 
#provided.  However, Halliburton cannot and does not warrant the accuracy 
#or correctness of such information and interpretations.  Under no circumstances should any 
#such information or interpretation be relied upon as the sole basis for any drilling, 
#completion, production, or financial decision or any procedure involving any risk to the 
#safety of any drilling venture, drilling rig or its crew or any other third party.  The 
#Customer has full responsibility for all drilling, completion and production operation.  
#Halliburton makes no representations or warranties, either expressed or 
#implied, including, but not limited to, the implied warranties of merchantability or fitness 
#for a particular purpose, with respect to the services rendered.  In no event will 
#Halliburton be liable for failure to obtain any particular results or for 
#any damages, including, but not limited to, indirect, special or consequential damages, 
#resulting from the use of any information or interpretation provided by Halliburton.
#
~A           TIME           GTDEPTH  GTPQH  GTTQ  GTTN  GTET   GTTVD  
# ...
   00:27:22.683.24-Feb-2020 3430.51 4218.85 56.39 2.00 230.03 2723.35
   00:27:22.883.24-Feb-2020 3430.51 4218.85 56.39 2.00 230.23 2723.35
   00:27:23.083.24-Feb-2020 3430.51 4220.45 56.39 2.00 230.43 2723.35
   00:27:23.283.24-Feb-2020 3430.51 4219.38 56.39 2.00 230.63 2723.35
   00:27:23.483.24-Feb-2020 3430.51 4219.33 56.39 2.00 230.83 2723.35
   00:27:23.683.24-Feb-2020 3430.51 4219.32 56.39 2.00 231.03 2723.35
   00:27:23.883.24-Feb-2020 3430.51 4219.32 56.39 2.00 231.23 2723.35
   00:27:24.083.24-Feb-2020 3430.51 4219.45 56.39 2.00 231.43 2723.35
   00:27:24.283.24-Feb-2020 3430.51 4219.42 56.39 2.00 231.63 2723.35
   00:27:24.483.24-Feb-2020 3430.51 4219.34 56.39 2.00 231.83 2723.35
   00:27:24.683.24-Feb-2020 3430.51 4219.47 56.39 2.00 232.03 2723.35
   00:27:24.883.24-Feb-2020 3430.51 4219.47 56.39 2.00 232.23 2723.35
   00:27:25.083.24-Feb-2020 3430.51 4219.15 56.39 2.00 232.43 2723.35
   00:27:25.283.24-Feb-2020 3430.51 4218.94 56.39 2.00 232.63 2723.35
   00:27:25.483.24-Feb-2020 3430.51 4219.19 56.39 2.00 232.83 2723.35
   00:27:25.683.24-Feb-2020 3430.51 4219.79 56.39 2.00 233.03 2723.35
   00:27:25.884.24-Feb-2020 3430.51 4219.79 56.39 2.00 233.23 2723.35
   00:27:26.084.24-Feb-2020 3430.51 4219.62 56.39 2.00 233.43 2723.35
   00:27:26.284.24-Feb-2020 3430.51 4219.12 56.39 2.00 233.63 2723.35
   00:27:26.484.24-Feb-2020 3430.51 4219.55 56.39 2.00 233.83 2723.35
   00:27:26.684.24-Feb-2020 3430.51 4219.80 56.39 2.00 234.03 2723.35
   00:27:26.884.24-Feb-2020 3430.51 4219.80 56.39 2.00 234.23 2723.35
   00:27:27.084.24-Feb-2020 3430.51 4219.30 56.39 2.00 234.43 2723.35
   00:27:27.284.24-Feb-2020 3430.51 4219.34 56.39 2.00 234.63 2723.35
   00:27:27.484.24-Feb-2020 3430.51 4219.28 56.39 2.00 234.83 2723.35
   00:27:27.684.24-Feb-2020 3430.51 4219.24 56.39 2.00 235.03 2723.35
   00:27:27.884.24-Feb-2020 3430.51 4219.24 56.39 2.00 235.23 2723.35
   00:27:28.084.24-Feb-2020 3430.51 4219.53 56.39 2.00 235.43 2723.35
   00:27:28.284.24-Feb-2020 3430.51 4219.39 56.39 2.00 235.63 2723.35
   00:27:28.484.24-Feb-2020 3430.51 4219.58 56.39 2.00 235.83 2723.35
   00:27:28.684.24-Feb-2020 3430.51 4219.53 56.39 2.00 236.03 2723.35
   00:27:28.884.24-Feb-2020 3430.51 4219.53 56.39 2.00 236.23 2723.35
   00:27:29.084.24-Feb-2020 3430.51 4218.48 56.39 2.00 236.43 2723.35
   00:27:29.284.24-Feb-2020 3430.51 4219.77 56.39 2.00 236.63 2723.35
   00:27:29.484.24-Feb-2020 3430.51 4220.17 56.39 2.00 236.83 2723.35
   00:27:29.684.24-Feb-2020 3430.51 4219.31 56.39 2.00 237.03 2723.35
   00:27:29.884.24-Feb-2020 3430.51 4219.31 56.39 2.00 237.23 2723.35
   00:27:30.084.24-Feb-2020 3430.51 4219.69 56.39 2.00 237.43 2723.35
   00:27:30.284.24-Feb-2020 3430.51 4219.38 56.39 2.00 237.63 2723.35
   00:27:30.484.24-Feb-2020 3430.51 4220.06 56.39 2.00 237.83 2723.35
   00:27:30.684.24-Feb-2020 3430.51 4219.07 56.39 2.00 238.03 2723.35
   00:27:30.884.24-Feb-2020 3430.51 4219.07 56.39 2.00 238.23 2723.35
   00:27:31.084.24-Feb-2020 3430.51 4219.56 56.39 2.00 238.43 2723.35
   00:27:31.284.24-Feb-2020 3430.51 4219.09 56.39 2.00 238.63 2723.35
   00:27:31.484.24-Feb-2020 3430.51 4218.83 56.39 2.00 238.83 2723.35
   00:27:31.684.24-Feb-2020 3430.51 4219.89 56.39 2.00 239.03 2723.35
   00:27:31.884.24-Feb-2020 3430.51 4219.89 56.39 2.00 239.23 2723.35
   00:27:32.084.24-Feb-2020 3430.51 4219.22 56.39 2.00 239.43 2723.35
   00:27:32.284.24-Feb-2020 3430.51 4219.27 56.39 2.00 239.63 2723.35
   00:27:32.484.24-Feb-2020 3430.51 4219.45 56.39 2.00 239.83 2723.35
   00:27:32.684.24-Feb-2020 3430.51 4220.09 56.39 2.00 240.03 2723.35
   00:27:32.884.24-Feb-2020 3430.51 4220.09 56.39 2.00 240.23 2723.35
   00:27:33.084.24-Feb-2020 3430.51 4219.78 56.39 2.00 240.43 2723.35
   00:27:33.284.24-Feb-2020 3430.51 4219.90 56.39 2.00 240.63 2723.35
   00:27:33.484.24-Feb-2020 3430.51 4219.78 56.39 2.00 240.83 2723.35
   00:27:33.684.24-Feb-2020 3430.51 4219.64 56.39 2.00 241.03 2723.35
   00:27:33.884.24-Feb-2020 3430.51 4219.64 56.39 2.00 241.23 2723.35
   00:27:34.084.24-Feb-2020 3430.51 4219.42 56.39 2.00 241.43 2723.35
   00:27:34.284.24-Feb-2020 3430.51 4219.50 56.39 2.00 241.63 2723.35
   00:27:34.485.24-Feb-2020 3430.51 4219.40 56.39 2.00 241.83 2723.35
   00:27:34.685.24-Feb-2020 3430.51 4219.39 56.39 2.00 242.03 2723.35
   00:27:34.885.24-Feb-2020 3430.51 4219.39 56.39 2.00 242.23 2723.35
   00:27:35.085.24-Feb-2020 3430.51 4219.51 56.39 2.00 242.43 2723.35
   00:27:35.285.24-Feb-2020 3430.51 4219.29 56.39 2.00 242.63 2723.35
   00:27:35.485.24-Feb-2020 3430.51 4219.22 56.39 2.00 242.83 2723.35
   00:27:35.685.24-Feb-2020 3430.51 4218.94 56.39 2.00 243.03 2723.35
   00:27:35.885.24-Feb-2020 3430.51 4218.94 56.39 2.00 243.23 2723.35
   00:27:36.085.24-Feb-2020 3430.51 4219.57 56.39 2.00 243.43 2723.35
   00:27:36.285.24-Feb-2020 3430.51 4219.96 56.39 2.00 243.63 2723.35
   00:27:36.485.24-Feb-2020 3430.51 4218.76 56.39 2.00 243.83 2723.35
   00:27:36.685.24-Feb-2020 3430.51 4219.48 56.39 2.00 244.03 2723.35
   00:27:36.885.24-Feb-2020 3430.51 4219.48 56.39 2.00 244.23 2723.35
   00:27:37.085.24-Feb-2020 3430.51 4219.30 56.39 2.00 244.43 2723.35
   00:27:37.285.24-Feb-2020 3430.51 4219.51 56.39 2.00 244.63 2723.35
   00:27:37.485.24-Feb-2020 3430.51 4219.54 56.39 2.00 244.83 2723.35
   00:27:37.685.24-Feb-2020 3430.51 4219.38 56.39 2.00 245.03 2723.35
   00:27:37.885.24-Feb-2020 3430.51 4219.38 56.39 2.00 245.23 2723.35
   00:27:38.085.24-Feb-2020 3430.51 4219.55 56.39 2.00 245.43 2723.35
   00:27:38.285.24-Feb-2020 3430.51 4219.40 56.39 2.00 245.63 2723.35
   00:27:38.485.24-Feb-2020 3430.51 4219.35 56.39 2.00 245.83 2723.35
   00:27:38.685.24-Feb-2020 3430.51 4219.51 56.39 2.00 246.03 2723.35
   00:27:38.885.24-Feb-2020 3430.51 4219.51 56.39 2.00 246.23 2723.35
   00:27:39.085.24-Feb-2020 3430.51 4219.94 56.39 2.00 246.43 2723.35
   00:27:39.285.24-Feb-2020 3430.51 4217.83 56.39 2.00 246.63 2723.35
   00:27:39.485.24-Feb-2020 3430.51 4219.71 56.39 2.00 246.83 2723.35
   00:27:39.685.24-Feb-2020 3430.51 4221.64 56.39 2.00 247.03 2723.35
   00:27:39.885.24-Feb-2020 3430.51 4221.64 56.39 2.00 247.23 2723.35
   00:27:40.085.24-Feb-2020 3430.51 4220.75 56.39 2.00 247.43 2723.35
   00:27:40.285.24-Feb-2020 3430.51 4219.38 56.39 2.00 247.63 2723.35
   00:27:40.485.24-Feb-2020 3430.51 4220.49 56.39 2.00 247.83 2723.35
   00:27:40.685.24-Feb-2020 3430.51 4220.76 56.39 2.00 248.03 2723.35
   00:27:40.885.24-Feb-2020 3430.51 4220.76 56.39 2.00 248.23 2723.35
   00:27:41.085.24-Feb-2020 3430.51 4219.65 56.39 2.00 248.43 2723.35
   00:27:41.285.24-Feb-2020 3430.51 4219.43 56.39 2.00 248.63 2723.35
   00:27:41.485.24-Feb-2020 3430.51 4220.08 56.39 2.00 248.83 2723.35
   00:27:41.685.24-Feb-2020 3430.51 4218.19 56.39 2.00 249.03 2723.35
   00:27:41.885.24-Feb-2020 3430.51 4218.19 56.39 2.00 249.23 2723.35
   00:27:42.085.24-Feb-2020 3430.51 4220.11 56.39 2.00 249.43 2723.35
   00:27:42.285.24-Feb-2020 3430.51 4219.66 56.39 2.00 249.63 2723.35
   00:27:42.485.24-Feb-2020 3430.51 4219.64 56.39 2.00 249.83 2723.35
   00:27:42.685.24-Feb-2020 3430.51 4219.42 56.39 2.00 250.03 2723.35
   00:27:42.885.24-Feb-2020 3430.51 4219.42 56.39 2.00 250.23 2723.35
   00:27:43.085.24-Feb-2020 3430.51 4219.08 56.39 2.00 250.43 2723.35
   00:27:43.286.24-Feb-2020 3430.51 4219.48 56.39 2.00 250.63 2723.35
   00:27:43.486.24-Feb-2020 3430.51 4219.30 56.39 2.00 250.83 2723.35
   00:27:43.686.24-Feb-2020 3430.51 4219.73 56.39 2.00 251.03 2723.35
   00:27:43.886.24-Feb-2020 3430.51 4219.73 56.39 2.00 251.23 2723.35
   00:27:44.086.24-Feb-2020 3430.51 4219.48 56.39 2.00 251.43 2723.35
   00:27:44.286.24-Feb-2020 3430.51 4219.42 56.39 2.00 251.63 2723.35
   00:27:44.486.24-Feb-2020 3430.51 4219.40 56.39 2.00 251.83 2723.35
   00:27:44.686.24-Feb-2020 3430.51 4219.40 56.39 2.00 252.03 2723.35
   00:27:44.886.24-Feb-2020 3430.51 4219.40 56.39 2.00 252.23 2723.35
   00:27:45.086.24-Feb-2020 3430.51 4219.51 56.39 2.00 252.43 2723.35
   00:27:45.286.24-Feb-2020 3430.51 4219.40 56.39 2.00 252.63 2723.35
   00:27:45.486.24-Feb-2020 3430.51 4219.37 56.39 2.00 252.83 2723.35
