~Version Information
 VERS.                  2.0:   CWLS log ASCII Standard -VERSION 2.0
 WRAP.                   NO:   One line per depth step
~Well Information Block
#MNEM.UNIT     VALUE/NAME     DESCRIPTION
#---------     -----------    ---------------------------
 STRT.S             23:48:42 23-Feb-20: START TIME 23:48:42 23-Feb-20
 STOP.S             23:55:42 23-Feb-20: STOP TIME  23:55:42 23-Feb-20
 STEP.S                   0.00: STEP TIME
 NULL.                 -999.25: NULL VALUE
 JOBN.        AZ-XX-0905059384:  JOB TICKET NUMB
 PDAT.          Mean Sea Level:  PERMANENT DATUM
 UNIT.                     N/A:  LOGGING EQUIPMENT ID
 DCON.         Sperry Drilling:  DIRECTNL CONTR
 DOE .                     N/A:  DOE NUMBER
 RIG .             West Chirag:  RIG NAME
 WELL.                     J22:  WELL NAME
 MWDS.                    Baku:  MWD SHOP
 SRVC.     TURAN Drilling & Engineering:  CONTRACTOR
 FLD .                     ACG:  FIELD NAME
 CTRY.              Azerbaijan:  COUNTRY NAME
 PROV.                    Baku:  PROVINCE
 STAT.                    Baku:  STATE NAME
 REGN.                   EESSA:  REGION
 BASE.              Azerbaijan:  LOGGING EQUIPMENT BASE LOCATION
 UWI .                     N/A:  UNIQUE WELL IDENTIFIER
 API .                     N/A:  API NUMBER
 COMP.     BP Exploration (Caspian Sea) Ltd.:  COMPANY
 WTYP.                Deviated:  WELL TYPE
 MDS .        Operator Entered:  MAG DATA SOURCE
 SON .        AZ-XX-0905059384:  JOB NUMBER
 FTOP.          Formation Tops:  FORM TOPS DESC
 ILTD.               Lithology:  INTERP LTH DESC
 SVYD.                  Survey:  SURVEY DESC
 DMOD.             Drill Model:  DRILL MOD DESC
 HPTY.       Minimum Curvature:  HOLE POS TYPE
 NREF.                    Grid:  NORTH REFERENCE
 SPUD.               09-Jan-20:  SPUD DATE
 DATE.      14.04.48 07-Feb-20:  END TIME
 STIM.      07.00.00 09-Jan-20:  START TIME
 DMF .             Drill Floor:  DRILL MEAS FROM
 DFST.                        :  DIST FSL TEXT
 DFWT.                        :  DIST FWL TEXT
 CNTY.                        :  COUNTY
 LOC .                        :  LOCATION
 LMF .             Drill Floor:  LOG MEASURED FROM
 DEP .m                   0.00:  DEPTH
 VSNS.m                  10.28:  VERT SEC N/S
 VSEW.m                  -6.24:  VERT SEC E/W
 AGAP.m                  43.00:  AIR GAP
 APD .m                  43.00:  DEPTH ABOVE PD
 WDMS.m                 169.80:  WD ELEV
 EGL .m                   0.00:  GROUND ELEVATION
 EPD .m                   0.00:  ELEVATION
 AZTC.deg                 6.27:  AZM TOTAL CORR
 GRDC.deg                 0.15:  GRID CORRECTION
 MDEC.deg                 6.42:  MAGNETIC DECL
 MDIP.deg                59.56:  MAGNETIC DIP
 MFLD.nT              50277.00:  MAGNETIC FIELD
 GVFD.g                   1.00:  GRAVITY FIELD
 VSDR.deg               148.53:  VERT SEC DIRECT
 TDD .m                3473.01:  TOTAL DEPTH (DRILLER)
 SDEP.m                 364.00:  START DEPTH
 DFSL.m                   0.00:  DISTANCE FSL
 DFWL.m                   0.00:  DISTANCE FWL
 UTMY.m             4443793.85:  UTM Y
 UTMX.m              519005.06:  UTM X
 WHEW.m                  -6.24:  WELL HEAD E/W
 WHNS.m                  10.28:  WELL HEAD N/S
 LONG.deg                51.22:  LONGITUDE
 LATI.deg                40.13:  LATITUDE
 TVDS.m                  43.00:  TVDSS CORRECTN
 EKB .m                   0.00:  KB ELEVATION
 EDF .m                  43.00:  DF ELEVATION
 TDL .m                 254.00:  TOTAL DEPTH (LOGGER)
 MAGU.                 1850021:  MAGUTM CHECKSUM
 VSC .                       0:  VS TO CLOSURE
~Parameter Information Block
#MNEM.UNIT       Value        Description
#---------     -----------    ---------------------------
 AV  .mps                 0.50:  Ann Velocity 
 AVMX.mps                 1.40:  Max Ann Veloc 
 AZIF.deg               144.94:  Azm, Final 
 BHAT.        Rotary Steerable:  BHA Type 
 BROT.°/30m               0.23:  Build Rotating 
 BS  .in                  8.50:  Bit Size 
 BTPL.psig              264.00:  Bit Press Loss 
 CABU.                     Yes:  Customer Abuse 
 COMM.                     ¼ýd:  Run Comments 1 
 TCS .hr                 87.30:  Time Ciculation Ended 
 CV  .mps                 2.45:  Crit Velocity 
 CVMX.mps                 2.74:  Max Crit Veloc 
 DD1 .             Aziz Aliyev:  Direct Drillr 1 
 DDSV.               Geo-Pilot:  DD Service 
 DEFF.%                 100.00:  % Det Eff 
 DLRX.°/30m               1.22:  Dogleg Rot Max 
 DLSO.°/30m               0.52:  Dogleg Oriented 
 DLSX.°/30m               1.22:  Dogleg Str Max 
 DRET.      12.59.00 23-Feb-20:  Drill End Time 
 DRST.      09.44.00 18-Feb-20:  Drill Start Tim 
 DTIM.hr                 23.03:  Time Drilling 
 EDEP.m                3473.01:  End Depth 
 ENG1.         Almaz Almadatov:  Engineer 1 
 ENG2.         Dair Mahammadov:  Engineer 2 
 ENG3.          Nazrin Asgarli:  Engineer 3 
 ETIM.      10.33.36 26-Feb-20:  End Time 
 FLOI.gpm               480.00:  Flow In 
 FLON.gpm               300.00:  Flow In Min 
 FLOS.cptm                1.00:  Fluid Loss 
 FLOX.gpm               550.00:  Flow In Max 
 HFLO.                      No:  High Flow 
 HPRE.                      No:  High Pressure 
 HTEM.                      No:  High Temp 
 HYDO.m                   1.80:  Hydro Offset 
 IFIN.deg                74.42:  Inc, Final 
 IMAX.deg                76.14:  Inc Max 
 IMIN.deg                74.42:  Inc Min 
 IMND.m                3462.72:  Inc Min Depth 
 IMXD.m                3235.69:  Inc Max Depth 
 JARR.                      No:  Jarring 
 LETM.      12.59.00 23-Feb-20:  Log End Time 
 LOST.hr                     0:  Lost Rig Time 
 LSTM.      09.44.00 18-Feb-20:  Log Start Time 
 MDCL.ppm             45000.00:  Mud Chlorides 
 MDES.     Inversion Oil/Synthetic:  Mud Desc 
 DFD .sg                  1.38:  Mud Density 
 MDMN.sg                  1.34:  Dens Mud Min 
 MDMX.sg                  1.49:  Dens Mud Max 
 MOIL.                      67:  Run Mud Oil % 
 MOWR.                   67:33:  Run Mud OWR 
 MSND.                    0.12:  Run Mud Sand % 
 MSOL.                      22:  Run Mud Solids% 
 DFV .spqt               81.00:  Mud Viscosity 
 MWOD.in                  6.75:  MWD Tool OD 
 MWSI.                      No:  Serv Intrp, MWD 
 OTIM.hr                231.44:  Time Operating 
 PCON.          Wear / Scratch:  Pad Condition 
 PMAX.psia             3400.00:  Press Op, Max 
 PV  .cP                 55.00:  Mud PV 
 RUN .                     800:  Run Number 
 ROPA.m/hr               12.00:  ROP Avg 
 ROPN.m/hr                5.00:  ROP Min 
 ROPX.m/hr               28.00:  ROP Max 
 RPMA.rpm               120.00:  RPM Surface Avg 
 RPMN.rpm                40.00:  RPM Surface Min 
 RPMX.rpm               130.00:  RPM Surface Max 
 RRUN.                    0800:  Rig Run Number 
 RTIM.hr                 45.00:  Time Reaming 
 SAZI.deg               145.38:  Azm, Start 
 SDEP.m                3219.01:  Start Depth 
 SIDD.                      No:  Serv Intrp, DD 
 SINC.deg                75.11:  Inc, Start 
 SPPA.psig             2400.00:  SPP Avg 
 SPPN.psig             2320.00:  SPP Min 
 SPPX.psig             3200.00:  SPP Max 
 STIM.      15.15.00 17-Feb-20:  Start Time 
 SVCS.                 DD, MWD:  Services 
 SVER.                    9.20:  Sperry Version 
 TDAT.m                 254.00:  Tot Depth Attmp 
 TDDF.                      No:  Trip for DD 
 TDLG.m                 254.00:  Tot Depth Loggd 
 TFF .                      No:  Trip for Fail 
 TQAA.f-kp               13.00:  Torque Abs Avg 
 TQAN.f-kp                7.00:  Torque Abs Min 
 TQAX.f-kp               15.00:  Torque Abs Max 
 TRRT.°/30m               0.21:  Turn Rotating 
 MRT .                  EWR-M5:  Maximum Recorded Temperature 
 TTMX.degC               64.00:  Max Tool Temp 
 VS01.                90586516:  Virtual Str1 SN 
 VS02.                90513691:  Virtual Str2 SN 
 VS03.                90586523:  Virtual Str3 SN 
 VS04.                90586520:  Virtual Str4 SN 
 VS05.                90590507:  Virtual Str5 SN 
 WBMN.klb                12.00:  WOB Min 
 WITN.           Rufat Babayev:  Customer Rep 2 
 WITN.         Alistair Sprott:  Customer Rep 
 WOBA.klb                18.00:  WOB Avg 
 WOBX.klb                30.00:  WOB Max 
 YP  .lhf2               41.00:  Yield Point 
~Curve Information Block
#MNEM.UNIT                 API CODE     Curve Description
#---------               -----------    ---------------------------
 TIME.HHMMSS            00 000 000 000:  GT Time & Date
 GTDEPTH.m              00 000 000 000:  GT Depth
 GTPQH.psia             00 000 000 000:  GT HR Quartz Pressure
 GTTQ.degC              00 000 000 000:  GT Quartz Temperature
 GTTN.NONE              00 000 000 000:  GT Test Number
 GTET.sec               00 000 000 000:  GT Elapsed Test Time
 GTTVD.m                00 000 000 000:  GT True Vertical Depth
#Other Information
#
#WARRANTY: Halliburton will use its best efforts to furnish customers with 
#accurate information and interpretations that are part of, and incident to, the services 
#provided.  However, Halliburton cannot and does not warrant the accuracy 
#or correctness of such information and interpretations.  Under no circumstances should any 
#such information or interpretation be relied upon as the sole basis for any drilling, 
#completion, production, or financial decision or any procedure involving any risk to the 
#safety of any drilling venture, drilling rig or its crew or any other third party.  The 
#Customer has full responsibility for all drilling, completion and production operation.  
#Halliburton makes no representations or warranties, either expressed or 
#implied, including, but not limited to, the implied warranties of merchantability or fitness 
#for a particular purpose, with respect to the services rendered.  In no event will 
#Halliburton be liable for failure to obtain any particular results or for 
#any damages, including, but not limited to, indirect, special or consequential damages, 
#resulting from the use of any information or interpretation provided by Halliburton.
#
~A           TIME           GTDEPTH  GTPQH  GTTQ  GTTN  GTET   GTTVD  
# ...
   23:52:55.445.23-Feb-2020 3441.51 4209.24 56.59 1.00 253.03 2726.26
   23:52:55.645.23-Feb-2020 3441.51 4209.24 56.59 1.00 253.23 2726.26
   23:52:55.845.23-Feb-2020 3441.51 4209.48 56.59 1.00 253.43 2726.26
   23:52:56.045.23-Feb-2020 3441.51 4209.08 56.59 1.00 253.63 2726.26
   23:52:56.245.23-Feb-2020 3441.51 4209.20 56.59 1.00 253.83 2726.26
   23:52:56.445.23-Feb-2020 3441.51 4209.12 56.59 1.00 254.03 2726.26
   23:52:56.645.23-Feb-2020 3441.51 4209.12 56.59 1.00 254.23 2726.26
   23:52:56.845.23-Feb-2020 3441.51 4209.13 56.59 1.00 254.43 2726.26
   23:52:57.045.23-Feb-2020 3441.51 4209.15 56.59 1.00 254.63 2726.26
   23:52:57.245.23-Feb-2020 3441.51 4209.14 56.59 1.00 254.83 2726.26
   23:52:57.446.23-Feb-2020 3441.51 4209.16 56.59 1.00 255.03 2726.26
   23:52:57.646.23-Feb-2020 3441.51 4209.16 56.59 1.00 255.23 2726.26
   23:52:57.846.23-Feb-2020 3441.51 4209.18 56.59 1.00 255.43 2726.26
   23:52:58.046.23-Feb-2020 3441.51 4164.67 56.59 1.00 255.63 2726.26
   23:52:58.246.23-Feb-2020 3441.51 4126.43 56.59 1.00 255.83 2726.26
   23:52:58.446.23-Feb-2020 3441.51 4117.32 56.59 1.00 256.03 2726.26
   23:52:58.646.23-Feb-2020 3441.51 4117.32 56.59 1.00 256.23 2726.26
   23:52:58.846.23-Feb-2020 3441.51 4119.05 56.59 1.00 256.43 2726.26
   23:52:59.046.23-Feb-2020 3441.51 4118.38 56.59 1.00 256.63 2726.26
   23:52:59.246.23-Feb-2020 3441.51 4120.52 56.59 1.00 256.83 2726.26
   23:52:59.446.23-Feb-2020 3441.51 4117.98 56.59 1.00 257.03 2726.26
   23:52:59.646.23-Feb-2020 3441.51 4117.98 56.59 1.00 257.23 2726.26
   23:52:59.846.23-Feb-2020 3441.51 4115.92 56.59 1.00 257.43 2726.26
   23:53:00.046.23-Feb-2020 3441.51 4121.51 56.59 1.00 257.63 2726.26
   23:53:00.246.23-Feb-2020 3441.51 4116.97 56.59 1.00 257.83 2726.26
   23:53:00.446.23-Feb-2020 3441.51 4118.74 56.59 1.00 258.03 2726.26
   23:53:00.646.23-Feb-2020 3441.51 4118.74 56.59 1.00 258.23 2726.26
   23:53:00.846.23-Feb-2020 3441.51 4118.43 56.59 1.00 258.43 2726.26
   23:53:01.046.23-Feb-2020 3441.51 4120.19 56.59 1.00 258.63 2726.26
   23:53:01.246.23-Feb-2020 3441.51 4116.14 56.59 1.00 258.83 2726.26
   23:53:01.446.23-Feb-2020 3441.51 4122.14 56.59 1.00 259.03 2726.26
   23:53:01.646.23-Feb-2020 3441.51 4122.14 56.59 1.00 259.23 2726.26
   23:53:01.846.23-Feb-2020 3441.51 4119.69 56.59 1.00 259.43 2726.26
   23:53:02.046.23-Feb-2020 3441.51 4117.54 56.59 1.00 259.63 2726.26
   23:53:02.246.23-Feb-2020 3441.51 4121.22 56.59 1.00 259.83 2726.26
   23:53:02.446.23-Feb-2020 3441.51 4117.51 56.59 1.00 260.03 2726.26
   23:53:02.646.23-Feb-2020 3441.51 4117.51 56.59 1.00 260.23 2726.26
   23:53:02.846.23-Feb-2020 3441.51 4118.71 56.59 1.00 260.43 2726.26
   23:53:03.046.23-Feb-2020 3441.51 4119.46 56.59 1.00 260.63 2726.26
   23:53:03.246.23-Feb-2020 3441.51 4119.31 56.59 1.00 260.83 2726.26
   23:53:03.446.23-Feb-2020 3441.51 4118.82 56.59 1.00 261.03 2726.26
   23:53:03.646.23-Feb-2020 3441.51 4118.82 56.59 1.00 261.23 2726.26
   23:53:03.846.23-Feb-2020 3441.51 4119.41 56.59 1.00 261.43 2726.26
   23:53:04.046.23-Feb-2020 3441.51 4119.50 56.59 1.00 261.63 2726.26
   23:53:04.246.23-Feb-2020 3441.51 4119.46 56.59 1.00 261.83 2726.26
   23:53:04.446.23-Feb-2020 3441.51 4119.61 56.59 1.00 262.03 2726.26
   23:53:04.646.23-Feb-2020 3441.51 4119.61 56.59 1.00 262.23 2726.26
   23:53:04.846.23-Feb-2020 3441.51 4121.40 56.59 1.00 262.43 2726.26
   23:53:05.046.23-Feb-2020 3441.51 4116.97 56.59 1.00 262.63 2726.26
   23:53:05.246.23-Feb-2020 3441.51 4122.00 56.59 1.00 262.83 2726.26
   23:53:05.446.23-Feb-2020 3441.51 4120.47 56.59 1.00 263.03 2726.26
   23:53:05.646.23-Feb-2020 3441.51 4120.47 56.59 1.00 263.23 2726.26
   23:53:05.846.23-Feb-2020 3441.51 4120.25 56.59 1.00 263.43 2726.26
   23:53:06.047.23-Feb-2020 3441.51 4120.44 56.59 1.00 263.63 2726.26
   23:53:06.247.23-Feb-2020 3441.51 4120.39 56.59 1.00 263.83 2726.26
   23:53:06.447.23-Feb-2020 3441.51 4120.36 56.59 1.00 264.03 2726.26
   23:53:06.647.23-Feb-2020 3441.51 4120.36 56.59 1.00 264.23 2726.26
   23:53:06.847.23-Feb-2020 3441.51 4120.46 56.59 1.00 264.43 2726.26
   23:53:07.047.23-Feb-2020 3441.51 4120.08 56.59 1.00 264.63 2726.26
   23:53:07.247.23-Feb-2020 3441.51 4120.35 56.59 1.00 264.83 2726.26
   23:53:07.447.23-Feb-2020 3441.51 4120.10 56.59 1.00 265.03 2726.26
   23:53:07.647.23-Feb-2020 3441.51 4120.18 56.59 1.00 265.23 2726.26
   23:53:07.847.23-Feb-2020 3441.51 4120.67 56.59 1.00 265.43 2726.26
   23:53:08.047.23-Feb-2020 3441.51 4121.41 56.59 1.00 265.63 2726.26
   23:53:08.247.23-Feb-2020 3441.51 4192.25 56.59 1.00 265.83 2726.26
   23:53:08.447.23-Feb-2020 3441.51 4207.01 56.59 1.00 266.03 2726.26
   23:53:08.647.23-Feb-2020 3441.51 4207.01 56.59 1.00 266.23 2726.26
   23:53:08.847.23-Feb-2020 3441.51 4208.73 56.59 1.00 266.43 2726.26
   23:53:09.047.23-Feb-2020 3441.51 4209.98 56.59 1.00 266.63 2726.26
   23:53:09.247.23-Feb-2020 3441.51 4208.82 56.59 1.00 266.83 2726.26
   23:53:09.447.23-Feb-2020 3441.51 4209.48 56.59 1.00 267.03 2726.26
   23:53:09.647.23-Feb-2020 3441.51 4209.48 56.59 1.00 267.23 2726.26
   23:53:09.847.23-Feb-2020 3441.51 4209.06 56.59 1.00 267.43 2726.26
   23:53:10.047.23-Feb-2020 3441.51 4209.03 56.59 1.00 267.63 2726.26
   23:53:10.247.23-Feb-2020 3441.51 4209.00 56.59 1.00 267.83 2726.26
   23:53:10.447.23-Feb-2020 3441.51 4209.55 56.59 1.00 268.03 2726.26
   23:53:10.647.23-Feb-2020 3441.51 4209.55 56.59 1.00 268.23 2726.26
   23:53:10.847.23-Feb-2020 3441.51 4209.41 56.59 1.00 268.43 2726.26
   23:53:11.047.23-Feb-2020 3441.51 4208.80 56.59 1.00 268.63 2726.26
   23:53:11.247.23-Feb-2020 3441.51 4209.61 56.59 1.00 268.83 2726.26
   23:53:11.447.23-Feb-2020 3441.51 4208.86 56.59 1.00 269.03 2726.26
   23:53:11.647.23-Feb-2020 3441.51 4208.86 56.59 1.00 269.23 2726.26
   23:53:11.847.23-Feb-2020 3441.51 4208.96 56.59 1.00 269.43 2726.26
   23:53:12.047.23-Feb-2020 3441.51 4209.17 56.59 1.00 269.63 2726.26
   23:53:12.247.23-Feb-2020 3441.51 4209.06 56.59 1.00 269.83 2726.26
   23:53:12.447.23-Feb-2020 3441.51 4209.12 56.59 1.00 270.03 2726.26
   23:53:12.647.23-Feb-2020 3441.51 4209.07 56.59 1.00 270.23 2726.26
   23:53:12.847.23-Feb-2020 3441.51 4209.09 56.59 1.00 270.43 2726.26
   23:53:13.047.23-Feb-2020 3441.51 4209.12 56.59 1.00 270.63 2726.26
   23:53:13.247.23-Feb-2020 3441.51 4209.09 56.59 1.00 270.83 2726.26
   23:53:13.447.23-Feb-2020 3441.51 4209.10 56.59 1.00 271.03 2726.26
   23:53:13.647.23-Feb-2020 3441.51 4209.10 56.59 1.00 271.23 2726.26
   23:53:13.847.23-Feb-2020 3441.51 4209.11 56.59 1.00 271.43 2726.26
   23:53:14.047.23-Feb-2020 3441.51 4209.14 56.59 1.00 271.63 2726.26
   23:53:14.247.23-Feb-2020 3441.51 4209.28 56.59 1.00 271.83 2726.26
   23:53:14.447.23-Feb-2020 3441.51 4208.88 56.59 1.00 272.03 2726.26
   23:53:14.647.23-Feb-2020 3441.51 4208.88 56.59 1.00 272.23 2726.26
   23:53:14.848.23-Feb-2020 3441.51 4209.07 56.59 1.00 272.43 2726.26
   23:53:15.048.23-Feb-2020 3441.51 4209.18 56.59 1.00 272.63 2726.26
   23:53:15.248.23-Feb-2020 3441.51 4209.10 56.59 1.00 272.83 2726.26
   23:53:15.448.23-Feb-2020 3441.51 4209.10 56.59 1.00 273.03 2726.26
   23:53:15.648.23-Feb-2020 3441.51 4209.10 56.59 1.00 273.23 2726.26
   23:53:15.848.23-Feb-2020 3441.51 4209.13 56.59 1.00 273.43 2726.26
   23:53:16.048.23-Feb-2020 3441.51 4209.12 56.59 1.00 273.63 2726.26
   23:53:16.248.23-Feb-2020 3441.51 4209.15 56.59 1.00 273.83 2726.26
   23:53:16.448.23-Feb-2020 3441.51 4209.12 56.59 1.00 274.03 2726.26
   23:53:16.648.23-Feb-2020 3441.51 4209.12 56.59 1.00 274.23 2726.26
   23:53:16.848.23-Feb-2020 3441.51 4209.09 56.59 1.00 274.43 2726.26
   23:53:17.048.23-Feb-2020 3441.51 4209.14 56.59 1.00 274.63 2726.26
   23:53:17.248.23-Feb-2020 3441.51 4209.15 56.59 1.00 274.83 2726.26
   23:53:17.448.23-Feb-2020 3441.51 4209.07 56.59 1.00 275.03 2726.26
   23:53:17.648.23-Feb-2020 3441.51 4209.07 56.59 1.00 275.23 2726.26
   23:53:17.848.23-Feb-2020 3441.51 4209.00 56.59 1.00 275.43 2726.26
   23:53:18.048.23-Feb-2020 3441.51 4209.31 56.59 1.00 275.63 2726.26
   23:53:18.248.23-Feb-2020 3441.51 4208.92 56.59 1.00 275.83 2726.26
