~Version Information
 VERS.                  2.0:   CWLS log ASCII Standard -VERSION 2.0
 WRAP.                   NO:   One line per depth step
~Well Information Block
#MNEM.UNIT     VALUE/NAME     DESCRIPTION
#---------     -----------    ---------------------------
 STRT.S             03:19:12 24-Feb-20: START TIME 03:19:12 24-Feb-20
 STOP.S             03:27:48 24-Feb-20: STOP TIME  03:27:48 24-Feb-20
 STEP.S                   0.00: STEP TIME
 NULL.                 -999.25: NULL VALUE
 JOBN.        AZ-XX-0905059384:  JOB TICKET NUMB
 PDAT.          Mean Sea Level:  PERMANENT DATUM
 UNIT.                     N/A:  LOGGING EQUIPMENT ID
 DCON.         Sperry Drilling:  DIRECTNL CONTR
 DOE .                     N/A:  DOE NUMBER
 RIG .             West Chirag:  RIG NAME
 WELL.                     J22:  WELL NAME
 MWDS.                    Baku:  MWD SHOP
 SRVC.     TURAN Drilling & Engineering:  CONTRACTOR
 FLD .                     ACG:  FIELD NAME
 CTRY.              Azerbaijan:  COUNTRY NAME
 PROV.                    Baku:  PROVINCE
 STAT.                    Baku:  STATE NAME
 REGN.                   EESSA:  REGION
 BASE.              Azerbaijan:  LOGGING EQUIPMENT BASE LOCATION
 UWI .                     N/A:  UNIQUE WELL IDENTIFIER
 API .                     N/A:  API NUMBER
 COMP.     BP Exploration (Caspian Sea) Ltd.:  COMPANY
 WTYP.                Deviated:  WELL TYPE
 MDS .        Operator Entered:  MAG DATA SOURCE
 SON .        AZ-XX-0905059384:  JOB NUMBER
 FTOP.          Formation Tops:  FORM TOPS DESC
 ILTD.               Lithology:  INTERP LTH DESC
 SVYD.                  Survey:  SURVEY DESC
 DMOD.             Drill Model:  DRILL MOD DESC
 HPTY.       Minimum Curvature:  HOLE POS TYPE
 NREF.                    Grid:  NORTH REFERENCE
 SPUD.               09-Jan-20:  SPUD DATE
 DATE.      14.04.48 07-Feb-20:  END TIME
 STIM.      07.00.00 09-Jan-20:  START TIME
 DMF .             Drill Floor:  DRILL MEAS FROM
 DFST.                        :  DIST FSL TEXT
 DFWT.                        :  DIST FWL TEXT
 CNTY.                        :  COUNTY
 LOC .                        :  LOCATION
 LMF .             Drill Floor:  LOG MEASURED FROM
 DEP .m                   0.00:  DEPTH
 VSNS.m                  10.28:  VERT SEC N/S
 VSEW.m                  -6.24:  VERT SEC E/W
 AGAP.m                  43.00:  AIR GAP
 APD .m                  43.00:  DEPTH ABOVE PD
 WDMS.m                 169.80:  WD ELEV
 EGL .m                   0.00:  GROUND ELEVATION
 EPD .m                   0.00:  ELEVATION
 AZTC.deg                 6.27:  AZM TOTAL CORR
 GRDC.deg                 0.15:  GRID CORRECTION
 MDEC.deg                 6.42:  MAGNETIC DECL
 MDIP.deg                59.56:  MAGNETIC DIP
 MFLD.nT              50277.00:  MAGNETIC FIELD
 GVFD.g                   1.00:  GRAVITY FIELD
 VSDR.deg               148.53:  VERT SEC DIRECT
 TDD .m                3473.01:  TOTAL DEPTH (DRILLER)
 SDEP.m                 364.00:  START DEPTH
 DFSL.m                   0.00:  DISTANCE FSL
 DFWL.m                   0.00:  DISTANCE FWL
 UTMY.m             4443793.85:  UTM Y
 UTMX.m              519005.06:  UTM X
 WHEW.m                  -6.24:  WELL HEAD E/W
 WHNS.m                  10.28:  WELL HEAD N/S
 LONG.deg                51.22:  LONGITUDE
 LATI.deg                40.13:  LATITUDE
 TVDS.m                  43.00:  TVDSS CORRECTN
 EKB .m                   0.00:  KB ELEVATION
 EDF .m                  43.00:  DF ELEVATION
 TDL .m                 254.00:  TOTAL DEPTH (LOGGER)
 MAGU.                 1850021:  MAGUTM CHECKSUM
 VSC .                       0:  VS TO CLOSURE
~Parameter Information Block
#MNEM.UNIT       Value        Description
#---------     -----------    ---------------------------
 AV  .mps                 0.50:  Ann Velocity 
 AVMX.mps                 1.40:  Max Ann Veloc 
 AZIF.deg               144.94:  Azm, Final 
 BHAT.        Rotary Steerable:  BHA Type 
 BROT.°/30m               0.23:  Build Rotating 
 BS  .in                  8.50:  Bit Size 
 BTPL.psig              264.00:  Bit Press Loss 
 CABU.                     Yes:  Customer Abuse 
 COMM.                     ´á{:  Run Comments 1 
 TCS .hr                 87.30:  Time Ciculation Ended 
 CV  .mps                 2.45:  Crit Velocity 
 CVMX.mps                 2.74:  Max Crit Veloc 
 DD1 .             Aziz Aliyev:  Direct Drillr 1 
 DDSV.               Geo-Pilot:  DD Service 
 DEFF.%                 100.00:  % Det Eff 
 DLRX.°/30m               1.22:  Dogleg Rot Max 
 DLSO.°/30m               0.52:  Dogleg Oriented 
 DLSX.°/30m               1.22:  Dogleg Str Max 
 DRET.      12.59.00 23-Feb-20:  Drill End Time 
 DRST.      09.44.00 18-Feb-20:  Drill Start Tim 
 DTIM.hr                 23.03:  Time Drilling 
 EDEP.m                3473.01:  End Depth 
 ENG1.         Almaz Almadatov:  Engineer 1 
 ENG2.         Dair Mahammadov:  Engineer 2 
 ENG3.          Nazrin Asgarli:  Engineer 3 
 ETIM.      10.33.36 26-Feb-20:  End Time 
 FLOI.gpm               480.00:  Flow In 
 FLON.gpm               300.00:  Flow In Min 
 FLOS.cptm                1.00:  Fluid Loss 
 FLOX.gpm               550.00:  Flow In Max 
 HFLO.                      No:  High Flow 
 HPRE.                      No:  High Pressure 
 HTEM.                      No:  High Temp 
 HYDO.m                   1.80:  Hydro Offset 
 IFIN.deg                74.42:  Inc, Final 
 IMAX.deg                76.14:  Inc Max 
 IMIN.deg                74.42:  Inc Min 
 IMND.m                3462.72:  Inc Min Depth 
 IMXD.m                3235.69:  Inc Max Depth 
 JARR.                      No:  Jarring 
 LETM.      12.59.00 23-Feb-20:  Log End Time 
 LOST.hr                     0:  Lost Rig Time 
 LSTM.      09.44.00 18-Feb-20:  Log Start Time 
 MDCL.ppm             45000.00:  Mud Chlorides 
 MDES.     Inversion Oil/Synthetic:  Mud Desc 
 DFD .sg                  1.38:  Mud Density 
 MDMN.sg                  1.34:  Dens Mud Min 
 MDMX.sg                  1.49:  Dens Mud Max 
 MOIL.                      67:  Run Mud Oil % 
 MOWR.                   67:33:  Run Mud OWR 
 MSND.                    0.12:  Run Mud Sand % 
 MSOL.                      22:  Run Mud Solids% 
 DFV .spqt               81.00:  Mud Viscosity 
 MWOD.in                  6.75:  MWD Tool OD 
 MWSI.                      No:  Serv Intrp, MWD 
 OTIM.hr                231.44:  Time Operating 
 PCON.          Wear / Scratch:  Pad Condition 
 PMAX.psia             3400.00:  Press Op, Max 
 PV  .cP                 55.00:  Mud PV 
 RUN .                     800:  Run Number 
 ROPA.m/hr               12.00:  ROP Avg 
 ROPN.m/hr                5.00:  ROP Min 
 ROPX.m/hr               28.00:  ROP Max 
 RPMA.rpm               120.00:  RPM Surface Avg 
 RPMN.rpm                40.00:  RPM Surface Min 
 RPMX.rpm               130.00:  RPM Surface Max 
 RRUN.                    0800:  Rig Run Number 
 RTIM.hr                 45.00:  Time Reaming 
 SAZI.deg               145.38:  Azm, Start 
 SDEP.m                3219.01:  Start Depth 
 SIDD.                      No:  Serv Intrp, DD 
 SINC.deg                75.11:  Inc, Start 
 SPPA.psig             2400.00:  SPP Avg 
 SPPN.psig             2320.00:  SPP Min 
 SPPX.psig             3200.00:  SPP Max 
 STIM.      15.15.00 17-Feb-20:  Start Time 
 SVCS.                 DD, MWD:  Services 
 SVER.                    9.20:  Sperry Version 
 TDAT.m                 254.00:  Tot Depth Attmp 
 TDDF.                      No:  Trip for DD 
 TDLG.m                 254.00:  Tot Depth Loggd 
 TFF .                      No:  Trip for Fail 
 TQAA.f-kp               13.00:  Torque Abs Avg 
 TQAN.f-kp                7.00:  Torque Abs Min 
 TQAX.f-kp               15.00:  Torque Abs Max 
 TRRT.°/30m               0.21:  Turn Rotating 
 MRT .                  EWR-M5:  Maximum Recorded Temperature 
 TTMX.degC               64.00:  Max Tool Temp 
 VS01.                90586516:  Virtual Str1 SN 
 VS02.                90513691:  Virtual Str2 SN 
 VS03.                90586523:  Virtual Str3 SN 
 VS04.                90586520:  Virtual Str4 SN 
 VS05.                90590507:  Virtual Str5 SN 
 WBMN.klb                12.00:  WOB Min 
 WITN.           Rufat Babayev:  Customer Rep 2 
 WITN.         Alistair Sprott:  Customer Rep 
 WOBA.klb                18.00:  WOB Avg 
 WOBX.klb                30.00:  WOB Max 
 YP  .lhf2               41.00:  Yield Point 
~Curve Information Block
#MNEM.UNIT                 API CODE     Curve Description
#---------               -----------    ---------------------------
 TIME.HHMMSS            00 000 000 000:  GT Time & Date
 GTDEPTH.m              00 000 000 000:  GT Depth
 GTPQH.psia             00 000 000 000:  GT HR Quartz Pressure
 GTTQ.degC              00 000 000 000:  GT Quartz Temperature
 GTTN.NONE              00 000 000 000:  GT Test Number
 GTET.sec               00 000 000 000:  GT Elapsed Test Time
 GTTVD.m                00 000 000 000:  GT True Vertical Depth
#Other Information
#
#WARRANTY: Halliburton will use its best efforts to furnish customers with 
#accurate information and interpretations that are part of, and incident to, the services 
#provided.  However, Halliburton cannot and does not warrant the accuracy 
#or correctness of such information and interpretations.  Under no circumstances should any 
#such information or interpretation be relied upon as the sole basis for any drilling, 
#completion, production, or financial decision or any procedure involving any risk to the 
#safety of any drilling venture, drilling rig or its crew or any other third party.  The 
#Customer has full responsibility for all drilling, completion and production operation.  
#Halliburton makes no representations or warranties, either expressed or 
#implied, including, but not limited to, the implied warranties of merchantability or fitness 
#for a particular purpose, with respect to the services rendered.  In no event will 
#Halliburton be liable for failure to obtain any particular results or for 
#any damages, including, but not limited to, indirect, special or consequential damages, 
#resulting from the use of any information or interpretation provided by Halliburton.
#
~A           TIME           GTDEPTH  GTPQH  GTTQ  GTTN  GTET   GTTVD  
# ...
   03:27:15.299.24-Feb-2020 3366.71 5707.91 55.05 6.00 483.19 2706.89
   03:27:15.499.24-Feb-2020 3366.71 5707.91 55.05 6.00 483.39 2706.89
   03:27:15.699.24-Feb-2020 3366.71 5707.02 55.05 6.00 483.59 2706.89
   03:27:15.899.24-Feb-2020 3366.71 5706.52 55.05 6.00 483.79 2706.89
   03:27:16.099.24-Feb-2020 3366.71 5706.81 55.05 6.00 483.99 2706.89
   03:27:16.299.24-Feb-2020 3366.71 5707.00 55.05 6.00 484.19 2706.89
   03:27:16.499.24-Feb-2020 3366.71 5707.00 55.05 6.00 484.39 2706.89
   03:27:16.700.24-Feb-2020 3366.71 5708.45 55.05 6.00 484.59 2706.89
   03:27:16.900.24-Feb-2020 3366.71 5707.81 55.05 6.00 484.79 2706.89
   03:27:17.100.24-Feb-2020 3366.71 5709.75 55.05 6.00 484.99 2706.89
   03:27:17.300.24-Feb-2020 3366.71 5706.38 55.05 6.00 485.19 2706.89
   03:27:17.500.24-Feb-2020 3366.71 5706.38 55.05 6.00 485.39 2706.89
   03:27:17.700.24-Feb-2020 3366.71 5707.66 55.05 6.00 485.59 2706.89
   03:27:17.900.24-Feb-2020 3366.71 5710.26 55.05 6.00 485.79 2706.89
   03:27:18.100.24-Feb-2020 3366.71 5707.45 55.05 6.00 485.99 2706.89
   03:27:18.300.24-Feb-2020 3366.71 5708.58 55.05 6.00 486.19 2706.89
   03:27:18.500.24-Feb-2020 3366.71 5708.58 55.05 6.00 486.39 2706.89
   03:27:18.700.24-Feb-2020 3366.71 5707.60 55.05 6.00 486.59 2706.89
   03:27:18.900.24-Feb-2020 3366.71 5708.30 55.05 6.00 486.79 2706.89
   03:27:19.100.24-Feb-2020 3366.71 5710.61 55.05 6.00 486.99 2706.89
   03:27:19.301.24-Feb-2020 3366.71 5707.30 55.05 6.00 487.19 2706.89
   03:27:19.501.24-Feb-2020 3366.71 5707.30 55.05 6.00 487.40 2706.89
   03:27:19.701.24-Feb-2020 3366.71 5709.15 55.05 6.00 487.60 2706.89
   03:27:19.901.24-Feb-2020 3366.71 5710.46 55.05 6.00 487.80 2706.89
   03:27:20.101.24-Feb-2020 3366.71 5710.25 55.05 6.00 488.00 2706.89
   03:27:20.301.24-Feb-2020 3366.71 5708.57 55.05 6.00 488.20 2706.89
   03:27:20.501.24-Feb-2020 3366.71 5708.57 55.05 6.00 488.40 2706.89
   03:27:20.701.24-Feb-2020 3366.71 5708.13 55.05 6.00 488.60 2706.89
   03:27:20.901.24-Feb-2020 3366.71 5708.43 55.05 6.00 488.80 2706.89
   03:27:21.101.24-Feb-2020 3366.71 5707.98 55.05 6.00 489.00 2706.89
   03:27:21.301.24-Feb-2020 3366.71 5707.54 55.05 6.00 489.20 2706.89
   03:27:21.501.24-Feb-2020 3366.71 5707.54 55.05 6.00 489.40 2706.89
   03:27:21.702.24-Feb-2020 3366.71 5707.56 55.05 6.00 489.60 2706.89
   03:27:21.902.24-Feb-2020 3366.71 5707.37 55.05 6.00 489.80 2706.89
   03:27:22.102.24-Feb-2020 3366.71 5707.35 55.05 6.00 490.00 2706.89
   03:27:22.302.24-Feb-2020 3366.71 5707.34 55.05 6.00 490.20 2706.89
   03:27:22.502.24-Feb-2020 3366.71 5707.34 55.05 6.00 490.40 2706.89
   03:27:22.702.24-Feb-2020 3366.71 5707.17 55.05 6.00 490.60 2706.89
   03:27:22.902.24-Feb-2020 3366.71 5707.88 55.05 6.00 490.80 2706.89
   03:27:23.102.24-Feb-2020 3366.71 5711.26 55.05 6.00 491.00 2706.89
   03:27:23.302.24-Feb-2020 3366.71 5708.10 55.05 6.00 491.20 2706.89
   03:27:23.502.24-Feb-2020 3366.71 5708.10 55.05 6.00 491.40 2706.89
   03:27:23.702.24-Feb-2020 3366.71 5708.62 55.05 6.00 491.60 2706.89
   03:27:23.902.24-Feb-2020 3366.71 5707.97 55.05 6.00 491.80 2706.89
   03:27:24.102.24-Feb-2020 3366.71 5709.11 55.05 6.00 492.00 2706.89
   03:27:24.303.24-Feb-2020 3366.71 5708.07 55.05 6.00 492.20 2706.89
   03:27:24.503.24-Feb-2020 3366.71 5708.07 55.05 6.00 492.40 2706.89
   03:27:24.703.24-Feb-2020 3366.71 5706.90 55.05 6.00 492.60 2706.89
   03:27:24.903.24-Feb-2020 3366.71 5707.42 55.05 6.00 492.80 2706.89
   03:27:25.103.24-Feb-2020 3366.71 5707.73 55.05 6.00 493.00 2706.89
   03:27:25.303.24-Feb-2020 3366.71 5708.32 55.05 6.00 493.20 2706.89
   03:27:25.503.24-Feb-2020 3366.71 5708.32 55.05 6.00 493.40 2706.89
   03:27:25.703.24-Feb-2020 3366.71 5706.62 55.05 6.00 493.60 2706.89
   03:27:25.903.24-Feb-2020 3366.71 5707.13 55.05 6.00 493.80 2706.89
   03:27:26.103.24-Feb-2020 3366.71 5708.05 55.05 6.00 494.00 2706.89
   03:27:26.303.24-Feb-2020 3366.71 5707.96 55.05 6.00 494.20 2706.89
   03:27:26.503.24-Feb-2020 3366.71 5707.96 55.05 6.00 494.40 2706.89
   03:27:26.704.24-Feb-2020 3366.71 5706.85 55.05 6.00 494.60 2706.89
   03:27:26.904.24-Feb-2020 3366.71 5708.39 55.05 6.00 494.80 2706.89
   03:27:27.104.24-Feb-2020 3366.71 5708.04 55.05 6.00 495.00 2706.89
   03:27:27.304.24-Feb-2020 3366.71 5708.34 55.05 6.00 495.20 2706.89
   03:27:27.504.24-Feb-2020 3366.71 5708.34 55.05 6.00 495.40 2706.89
   03:27:27.704.24-Feb-2020 3366.71 5707.75 55.05 6.00 495.60 2706.89
   03:27:27.904.24-Feb-2020 3366.71 5709.04 55.05 6.00 495.80 2706.89
   03:27:28.104.24-Feb-2020 3366.71 5707.68 55.05 6.00 496.00 2706.89
   03:27:28.304.24-Feb-2020 3366.71 5708.06 55.05 6.00 496.20 2706.89
   03:27:28.504.24-Feb-2020 3366.71 5708.06 55.05 6.00 496.40 2706.89
   03:27:28.704.24-Feb-2020 3366.71 5707.54 55.05 6.00 496.60 2706.89
   03:27:28.904.24-Feb-2020 3366.71 5709.13 55.05 6.00 496.80 2706.89
   03:27:29.104.24-Feb-2020 3366.71 5709.15 55.05 6.00 497.00 2706.89
   03:27:29.305.24-Feb-2020 3366.71 5708.76 55.05 6.00 497.20 2706.89
   03:27:29.505.24-Feb-2020 3366.71 5708.76 55.05 6.00 497.40 2706.89
   03:27:29.705.24-Feb-2020 3366.71 5707.81 55.05 6.00 497.60 2706.89
   03:27:29.905.24-Feb-2020 3366.71 5709.83 55.05 6.00 497.80 2706.89
   03:27:30.105.24-Feb-2020 3366.71 5708.06 55.05 6.00 498.00 2706.89
   03:27:30.305.24-Feb-2020 3366.71 5708.31 55.05 6.00 498.20 2706.89
   03:27:30.505.24-Feb-2020 3366.71 5708.31 55.05 6.00 498.40 2706.89
   03:27:30.705.24-Feb-2020 3366.71 5707.68 55.05 6.00 498.60 2706.89
   03:27:30.905.24-Feb-2020 3366.71 5707.49 55.05 6.00 498.80 2706.89
   03:27:31.105.24-Feb-2020 3366.71 5707.46 55.05 6.00 499.00 2706.89
   03:27:31.305.24-Feb-2020 3366.71 5707.34 55.05 6.00 499.20 2706.89
   03:27:31.505.24-Feb-2020 3366.71 5707.34 55.05 6.00 499.40 2706.89
   03:27:31.706.24-Feb-2020 3366.71 5707.50 55.05 6.00 499.60 2706.89
   03:27:31.906.24-Feb-2020 3366.71 5707.38 55.05 6.00 499.80 2706.89
   03:27:32.106.24-Feb-2020 3366.71 5707.27 55.05 6.00 500.00 2706.89
   03:27:32.306.24-Feb-2020 3366.71 5707.85 55.05 6.00 500.20 2706.89
   03:27:32.506.24-Feb-2020 3366.71 5707.85 55.05 6.00 500.40 2706.89
   03:27:32.706.24-Feb-2020 3366.71 5709.78 55.05 6.00 500.60 2706.89
   03:27:32.906.24-Feb-2020 3366.71 5708.55 55.05 6.00 500.80 2706.89
   03:27:33.106.24-Feb-2020 3366.71 5709.12 55.05 6.00 501.00 2706.89
   03:27:33.306.24-Feb-2020 3366.71 5707.82 55.05 6.00 501.20 2706.89
   03:27:33.506.24-Feb-2020 3366.71 5707.82 55.05 6.00 501.40 2706.89
   03:27:33.706.24-Feb-2020 3366.71 5708.38 55.05 6.00 501.60 2706.89
   03:27:33.906.24-Feb-2020 3366.71 5707.39 55.05 6.00 501.80 2706.89
   03:27:34.106.24-Feb-2020 3366.71 5707.32 55.05 6.00 502.00 2706.89
   03:27:34.307.24-Feb-2020 3366.71 5707.34 55.05 6.00 502.20 2706.89
   03:27:34.507.24-Feb-2020 3366.71 5707.93 55.05 6.00 502.40 2706.89
   03:27:34.707.24-Feb-2020 3366.71 5708.23 55.05 6.00 502.60 2706.89
   03:27:34.907.24-Feb-2020 3366.71 5707.94 55.05 6.00 502.80 2706.89
   03:27:35.107.24-Feb-2020 3366.71 5706.56 55.05 6.00 503.00 2706.89
   03:27:35.307.24-Feb-2020 3366.71 5706.87 55.05 6.00 503.20 2706.89
   03:27:35.507.24-Feb-2020 3366.71 5706.87 55.05 6.00 503.40 2706.89
   03:27:35.707.24-Feb-2020 3366.71 5708.01 55.05 6.00 503.60 2706.89
   03:27:35.907.24-Feb-2020 3366.71 5708.12 55.05 6.00 503.80 2706.89
   03:27:36.107.24-Feb-2020 3366.71 5708.54 55.05 6.00 504.00 2706.89
   03:27:36.307.24-Feb-2020 3366.71 5707.53 55.05 6.00 504.20 2706.89
   03:27:36.507.24-Feb-2020 3366.71 5707.53 55.05 6.00 504.40 2706.89
   03:27:36.708.24-Feb-2020 3366.71 5707.32 55.05 6.00 504.60 2706.89
   03:27:36.908.24-Feb-2020 3366.71 5710.21 55.05 6.00 504.80 2706.89
   03:27:37.108.24-Feb-2020 3366.71 5707.29 55.05 6.00 505.00 2706.89
   03:27:37.308.24-Feb-2020 3366.71 5709.53 55.05 6.00 505.20 2706.89
   03:27:37.508.24-Feb-2020 3366.71 5709.53 55.05 6.00 505.40 2706.89
   03:27:37.708.24-Feb-2020 3366.71 5707.97 55.05 6.00 505.60 2706.89
   03:27:37.908.24-Feb-2020 3366.71 5710.92 55.05 6.00 505.80 2706.89
   03:27:38.108.24-Feb-2020 3366.71 5707.61 55.05 6.00 506.00 2706.89
