~Version Information
 VERS.                  2.0:   CWLS log ASCII Standard -VERSION 2.0
 WRAP.                   NO:   One line per depth step
~Well Information Block
#MNEM.UNIT     VALUE/NAME     DESCRIPTION
#---------     -----------    ---------------------------
 STRT.S             03:19:12 24-Feb-20: START TIME 03:19:12 24-Feb-20
 STOP.S             03:27:48 24-Feb-20: STOP TIME  03:27:48 24-Feb-20
 STEP.S                   0.00: STEP TIME
 NULL.                 -999.25: NULL VALUE
 JOBN.        AZ-XX-0905059384:  JOB TICKET NUMB
 PDAT.          Mean Sea Level:  PERMANENT DATUM
 UNIT.                     N/A:  LOGGING EQUIPMENT ID
 DCON.         Sperry Drilling:  DIRECTNL CONTR
 DOE .                     N/A:  DOE NUMBER
 RIG .             West Chirag:  RIG NAME
 WELL.                     J22:  WELL NAME
 MWDS.                    Baku:  MWD SHOP
 SRVC.     TURAN Drilling & Engineering:  CONTRACTOR
 FLD .                     ACG:  FIELD NAME
 CTRY.              Azerbaijan:  COUNTRY NAME
 PROV.                    Baku:  PROVINCE
 STAT.                    Baku:  STATE NAME
 REGN.                   EESSA:  REGION
 BASE.              Azerbaijan:  LOGGING EQUIPMENT BASE LOCATION
 UWI .                     N/A:  UNIQUE WELL IDENTIFIER
 API .                     N/A:  API NUMBER
 COMP.     BP Exploration (Caspian Sea) Ltd.:  COMPANY
 WTYP.                Deviated:  WELL TYPE
 MDS .        Operator Entered:  MAG DATA SOURCE
 SON .        AZ-XX-0905059384:  JOB NUMBER
 FTOP.          Formation Tops:  FORM TOPS DESC
 ILTD.               Lithology:  INTERP LTH DESC
 SVYD.                  Survey:  SURVEY DESC
 DMOD.             Drill Model:  DRILL MOD DESC
 HPTY.       Minimum Curvature:  HOLE POS TYPE
 NREF.                    Grid:  NORTH REFERENCE
 SPUD.               09-Jan-20:  SPUD DATE
 DATE.      14.04.48 07-Feb-20:  END TIME
 STIM.      07.00.00 09-Jan-20:  START TIME
 DMF .             Drill Floor:  DRILL MEAS FROM
 DFST.                        :  DIST FSL TEXT
 DFWT.                        :  DIST FWL TEXT
 CNTY.                        :  COUNTY
 LOC .                        :  LOCATION
 LMF .             Drill Floor:  LOG MEASURED FROM
 DEP .m                   0.00:  DEPTH
 VSNS.m                  10.28:  VERT SEC N/S
 VSEW.m                  -6.24:  VERT SEC E/W
 AGAP.m                  43.00:  AIR GAP
 APD .m                  43.00:  DEPTH ABOVE PD
 WDMS.m                 169.80:  WD ELEV
 EGL .m                   0.00:  GROUND ELEVATION
 EPD .m                   0.00:  ELEVATION
 AZTC.deg                 6.27:  AZM TOTAL CORR
 GRDC.deg                 0.15:  GRID CORRECTION
 MDEC.deg                 6.42:  MAGNETIC DECL
 MDIP.deg                59.56:  MAGNETIC DIP
 MFLD.nT              50277.00:  MAGNETIC FIELD
 GVFD.g                   1.00:  GRAVITY FIELD
 VSDR.deg               148.53:  VERT SEC DIRECT
 TDD .m                3473.01:  TOTAL DEPTH (DRILLER)
 SDEP.m                 364.00:  START DEPTH
 DFSL.m                   0.00:  DISTANCE FSL
 DFWL.m                   0.00:  DISTANCE FWL
 UTMY.m             4443793.85:  UTM Y
 UTMX.m              519005.06:  UTM X
 WHEW.m                  -6.24:  WELL HEAD E/W
 WHNS.m                  10.28:  WELL HEAD N/S
 LONG.deg                51.22:  LONGITUDE
 LATI.deg                40.13:  LATITUDE
 TVDS.m                  43.00:  TVDSS CORRECTN
 EKB .m                   0.00:  KB ELEVATION
 EDF .m                  43.00:  DF ELEVATION
 TDL .m                 254.00:  TOTAL DEPTH (LOGGER)
 MAGU.                 1850021:  MAGUTM CHECKSUM
 VSC .                       0:  VS TO CLOSURE
~Parameter Information Block
#MNEM.UNIT       Value        Description
#---------     -----------    ---------------------------
 AV  .mps                 0.50:  Ann Velocity 
 AVMX.mps                 1.40:  Max Ann Veloc 
 AZIF.deg               144.94:  Azm, Final 
 BHAT.        Rotary Steerable:  BHA Type 
 BROT.°/30m               0.23:  Build Rotating 
 BS  .in                  8.50:  Bit Size 
 BTPL.psig              264.00:  Bit Press Loss 
 CABU.                     Yes:  Customer Abuse 
 COMM.                     ´á{:  Run Comments 1 
 TCS .hr                 87.30:  Time Ciculation Ended 
 CV  .mps                 2.45:  Crit Velocity 
 CVMX.mps                 2.74:  Max Crit Veloc 
 DD1 .             Aziz Aliyev:  Direct Drillr 1 
 DDSV.               Geo-Pilot:  DD Service 
 DEFF.%                 100.00:  % Det Eff 
 DLRX.°/30m               1.22:  Dogleg Rot Max 
 DLSO.°/30m               0.52:  Dogleg Oriented 
 DLSX.°/30m               1.22:  Dogleg Str Max 
 DRET.      12.59.00 23-Feb-20:  Drill End Time 
 DRST.      09.44.00 18-Feb-20:  Drill Start Tim 
 DTIM.hr                 23.03:  Time Drilling 
 EDEP.m                3473.01:  End Depth 
 ENG1.         Almaz Almadatov:  Engineer 1 
 ENG2.         Dair Mahammadov:  Engineer 2 
 ENG3.          Nazrin Asgarli:  Engineer 3 
 ETIM.      10.33.36 26-Feb-20:  End Time 
 FLOI.gpm               480.00:  Flow In 
 FLON.gpm               300.00:  Flow In Min 
 FLOS.cptm                1.00:  Fluid Loss 
 FLOX.gpm               550.00:  Flow In Max 
 HFLO.                      No:  High Flow 
 HPRE.                      No:  High Pressure 
 HTEM.                      No:  High Temp 
 HYDO.m                   1.80:  Hydro Offset 
 IFIN.deg                74.42:  Inc, Final 
 IMAX.deg                76.14:  Inc Max 
 IMIN.deg                74.42:  Inc Min 
 IMND.m                3462.72:  Inc Min Depth 
 IMXD.m                3235.69:  Inc Max Depth 
 JARR.                      No:  Jarring 
 LETM.      12.59.00 23-Feb-20:  Log End Time 
 LOST.hr                     0:  Lost Rig Time 
 LSTM.      09.44.00 18-Feb-20:  Log Start Time 
 MDCL.ppm             45000.00:  Mud Chlorides 
 MDES.     Inversion Oil/Synthetic:  Mud Desc 
 DFD .sg                  1.38:  Mud Density 
 MDMN.sg                  1.34:  Dens Mud Min 
 MDMX.sg                  1.49:  Dens Mud Max 
 MOIL.                      67:  Run Mud Oil % 
 MOWR.                   67:33:  Run Mud OWR 
 MSND.                    0.12:  Run Mud Sand % 
 MSOL.                      22:  Run Mud Solids% 
 DFV .spqt               81.00:  Mud Viscosity 
 MWOD.in                  6.75:  MWD Tool OD 
 MWSI.                      No:  Serv Intrp, MWD 
 OTIM.hr                231.44:  Time Operating 
 PCON.          Wear / Scratch:  Pad Condition 
 PMAX.psia             3400.00:  Press Op, Max 
 PV  .cP                 55.00:  Mud PV 
 RUN .                     800:  Run Number 
 ROPA.m/hr               12.00:  ROP Avg 
 ROPN.m/hr                5.00:  ROP Min 
 ROPX.m/hr               28.00:  ROP Max 
 RPMA.rpm               120.00:  RPM Surface Avg 
 RPMN.rpm                40.00:  RPM Surface Min 
 RPMX.rpm               130.00:  RPM Surface Max 
 RRUN.                    0800:  Rig Run Number 
 RTIM.hr                 45.00:  Time Reaming 
 SAZI.deg               145.38:  Azm, Start 
 SDEP.m                3219.01:  Start Depth 
 SIDD.                      No:  Serv Intrp, DD 
 SINC.deg                75.11:  Inc, Start 
 SPPA.psig             2400.00:  SPP Avg 
 SPPN.psig             2320.00:  SPP Min 
 SPPX.psig             3200.00:  SPP Max 
 STIM.      15.15.00 17-Feb-20:  Start Time 
 SVCS.                 DD, MWD:  Services 
 SVER.                    9.20:  Sperry Version 
 TDAT.m                 254.00:  Tot Depth Attmp 
 TDDF.                      No:  Trip for DD 
 TDLG.m                 254.00:  Tot Depth Loggd 
 TFF .                      No:  Trip for Fail 
 TQAA.f-kp               13.00:  Torque Abs Avg 
 TQAN.f-kp                7.00:  Torque Abs Min 
 TQAX.f-kp               15.00:  Torque Abs Max 
 TRRT.°/30m               0.21:  Turn Rotating 
 MRT .                  EWR-M5:  Maximum Recorded Temperature 
 TTMX.degC               64.00:  Max Tool Temp 
 VS01.                90586516:  Virtual Str1 SN 
 VS02.                90513691:  Virtual Str2 SN 
 VS03.                90586523:  Virtual Str3 SN 
 VS04.                90586520:  Virtual Str4 SN 
 VS05.                90590507:  Virtual Str5 SN 
 WBMN.klb                12.00:  WOB Min 
 WITN.           Rufat Babayev:  Customer Rep 2 
 WITN.         Alistair Sprott:  Customer Rep 
 WOBA.klb                18.00:  WOB Avg 
 WOBX.klb                30.00:  WOB Max 
 YP  .lhf2               41.00:  Yield Point 
~Curve Information Block
#MNEM.UNIT                 API CODE     Curve Description
#---------               -----------    ---------------------------
 TIME.HHMMSS            00 000 000 000:  GT Time & Date
 GTDEPTH.m              00 000 000 000:  GT Depth
 GTPQH.psia             00 000 000 000:  GT HR Quartz Pressure
 GTTQ.degC              00 000 000 000:  GT Quartz Temperature
 GTTN.NONE              00 000 000 000:  GT Test Number
 GTET.sec               00 000 000 000:  GT Elapsed Test Time
 GTTVD.m                00 000 000 000:  GT True Vertical Depth
#Other Information
#
#WARRANTY: Halliburton will use its best efforts to furnish customers with 
#accurate information and interpretations that are part of, and incident to, the services 
#provided.  However, Halliburton cannot and does not warrant the accuracy 
#or correctness of such information and interpretations.  Under no circumstances should any 
#such information or interpretation be relied upon as the sole basis for any drilling, 
#completion, production, or financial decision or any procedure involving any risk to the 
#safety of any drilling venture, drilling rig or its crew or any other third party.  The 
#Customer has full responsibility for all drilling, completion and production operation.  
#Halliburton makes no representations or warranties, either expressed or 
#implied, including, but not limited to, the implied warranties of merchantability or fitness 
#for a particular purpose, with respect to the services rendered.  In no event will 
#Halliburton be liable for failure to obtain any particular results or for 
#any damages, including, but not limited to, indirect, special or consequential damages, 
#resulting from the use of any information or interpretation provided by Halliburton.
#
~A           TIME           GTDEPTH  GTPQH  GTTQ  GTTN  GTET   GTTVD  
# ...
   03:23:02.198.24-Feb-2020 3366.71 4425.14 55.06 6.00 230.09 2706.89
   03:23:02.398.24-Feb-2020 3366.71 4425.14 55.06 6.00 230.29 2706.89
   03:23:02.598.24-Feb-2020 3366.71 4425.19 55.06 6.00 230.49 2706.89
   03:23:02.798.24-Feb-2020 3366.71 4425.08 55.06 6.00 230.69 2706.89
   03:23:02.998.24-Feb-2020 3366.71 4425.12 55.06 6.00 230.89 2706.89
   03:23:03.198.24-Feb-2020 3366.71 4425.20 55.06 6.00 231.09 2706.89
   03:23:03.398.24-Feb-2020 3366.71 4425.20 55.06 6.00 231.29 2706.89
   03:23:03.598.24-Feb-2020 3366.71 4425.39 55.06 6.00 231.49 2706.89
   03:23:03.798.24-Feb-2020 3366.71 4425.34 55.06 6.00 231.69 2706.89
   03:23:03.998.24-Feb-2020 3366.71 4424.46 55.06 6.00 231.89 2706.89
   03:23:04.198.24-Feb-2020 3366.71 4425.72 55.06 6.00 232.09 2706.89
   03:23:04.399.24-Feb-2020 3366.71 4425.72 55.06 6.00 232.29 2706.89
   03:23:04.599.24-Feb-2020 3366.71 4425.84 55.06 6.00 232.49 2706.89
   03:23:04.799.24-Feb-2020 3366.71 4425.38 55.06 6.00 232.69 2706.89
   03:23:04.999.24-Feb-2020 3366.71 4426.12 55.06 6.00 232.89 2706.89
   03:23:05.199.24-Feb-2020 3366.71 4425.95 55.06 6.00 233.09 2706.89
   03:23:05.399.24-Feb-2020 3366.71 4425.95 55.06 6.00 233.29 2706.89
   03:23:05.599.24-Feb-2020 3366.71 4426.05 55.06 6.00 233.49 2706.89
   03:23:05.799.24-Feb-2020 3366.71 4425.91 55.06 6.00 233.69 2706.89
   03:23:05.999.24-Feb-2020 3366.71 4425.16 55.06 6.00 233.89 2706.89
   03:23:06.199.24-Feb-2020 3366.71 4426.30 55.06 6.00 234.09 2706.89
   03:23:06.399.24-Feb-2020 3366.71 4426.30 55.06 6.00 234.29 2706.89
   03:23:06.599.24-Feb-2020 3366.71 4426.10 55.06 6.00 234.49 2706.89
   03:23:06.800.24-Feb-2020 3366.71 4426.60 55.06 6.00 234.69 2706.89
   03:23:07.000.24-Feb-2020 3366.71 4426.69 55.06 6.00 234.89 2706.89
   03:23:07.200.24-Feb-2020 3366.71 4426.55 55.06 6.00 235.09 2706.89
   03:23:07.400.24-Feb-2020 3366.71 4426.55 55.06 6.00 235.29 2706.89
   03:23:07.600.24-Feb-2020 3366.71 4426.40 55.06 6.00 235.49 2706.89
   03:23:07.800.24-Feb-2020 3366.71 4426.44 55.06 6.00 235.69 2706.89
   03:23:08.000.24-Feb-2020 3366.71 4426.40 55.06 6.00 235.89 2706.89
   03:23:08.200.24-Feb-2020 3366.71 4426.38 55.06 6.00 236.09 2706.89
   03:23:08.400.24-Feb-2020 3366.71 4426.38 55.06 6.00 236.29 2706.89
   03:23:08.600.24-Feb-2020 3366.71 4426.35 55.06 6.00 236.49 2706.89
   03:23:08.800.24-Feb-2020 3366.71 4426.32 55.06 6.00 236.69 2706.89
   03:23:09.000.24-Feb-2020 3366.71 4426.36 55.06 6.00 236.89 2706.89
   03:23:09.200.24-Feb-2020 3366.71 4426.36 55.06 6.00 237.09 2706.89
   03:23:09.401.24-Feb-2020 3366.71 4426.36 55.06 6.00 237.29 2706.89
   03:23:09.601.24-Feb-2020 3366.71 4426.43 55.06 6.00 237.50 2706.89
   03:23:09.801.24-Feb-2020 3366.71 4425.71 55.06 6.00 237.70 2706.89
   03:23:10.001.24-Feb-2020 3366.71 4426.81 55.06 6.00 237.90 2706.89
   03:23:10.201.24-Feb-2020 3366.71 4427.16 55.06 6.00 238.10 2706.89
   03:23:10.401.24-Feb-2020 3366.71 4427.16 55.06 6.00 238.30 2706.89
   03:23:10.601.24-Feb-2020 3366.71 4427.03 55.06 6.00 238.50 2706.89
   03:23:10.801.24-Feb-2020 3366.71 4426.97 55.06 6.00 238.70 2706.89
   03:23:11.001.24-Feb-2020 3366.71 4426.80 55.06 6.00 238.90 2706.89
   03:23:11.201.24-Feb-2020 3366.71 4426.65 55.06 6.00 239.10 2706.89
   03:23:11.401.24-Feb-2020 3366.71 4426.65 55.06 6.00 239.30 2706.89
   03:23:11.601.24-Feb-2020 3366.71 4426.65 55.06 6.00 239.50 2706.89
   03:23:11.802.24-Feb-2020 3366.71 4426.71 55.06 6.00 239.70 2706.89
   03:23:12.002.24-Feb-2020 3366.71 4426.70 55.06 6.00 239.90 2706.89
   03:23:12.202.24-Feb-2020 3366.71 4426.73 55.06 6.00 240.10 2706.89
   03:23:12.402.24-Feb-2020 3366.71 4426.73 55.06 6.00 240.30 2706.89
   03:23:12.602.24-Feb-2020 3366.71 4426.76 55.06 6.00 240.50 2706.89
   03:23:12.802.24-Feb-2020 3366.71 4426.81 55.06 6.00 240.70 2706.89
   03:23:13.002.24-Feb-2020 3366.71 4426.64 55.06 6.00 240.90 2706.89
   03:23:13.202.24-Feb-2020 3366.71 4426.24 55.06 6.00 241.10 2706.89
   03:23:13.402.24-Feb-2020 3366.71 4426.24 55.06 6.00 241.30 2706.89
   03:23:13.602.24-Feb-2020 3366.71 4426.86 55.06 6.00 241.50 2706.89
   03:23:13.802.24-Feb-2020 3366.71 4427.07 55.06 6.00 241.70 2706.89
   03:23:14.002.24-Feb-2020 3366.71 4426.58 55.06 6.00 241.90 2706.89
   03:23:14.202.24-Feb-2020 3366.71 4427.37 55.06 6.00 242.10 2706.89
   03:23:14.403.24-Feb-2020 3366.71 4427.37 55.06 6.00 242.30 2706.89
   03:23:14.603.24-Feb-2020 3366.71 4427.35 55.06 6.00 242.50 2706.89
   03:23:14.803.24-Feb-2020 3366.71 4427.24 55.06 6.00 242.70 2706.89
   03:23:15.003.24-Feb-2020 3366.71 4426.67 55.06 6.00 242.90 2706.89
   03:23:15.203.24-Feb-2020 3366.71 4427.17 55.06 6.00 243.10 2706.89
   03:23:15.403.24-Feb-2020 3366.71 4427.17 55.06 6.00 243.30 2706.89
   03:23:15.603.24-Feb-2020 3366.71 4427.46 55.06 6.00 243.50 2706.89
   03:23:15.803.24-Feb-2020 3366.71 4427.41 55.06 6.00 243.70 2706.89
   03:23:16.003.24-Feb-2020 3366.71 4427.44 55.06 6.00 243.90 2706.89
   03:23:16.203.24-Feb-2020 3366.71 4426.42 55.06 6.00 244.10 2706.89
   03:23:16.403.24-Feb-2020 3366.71 4426.42 55.06 6.00 244.30 2706.89
   03:23:16.603.24-Feb-2020 3366.71 4427.88 55.06 6.00 244.50 2706.89
   03:23:16.804.24-Feb-2020 3366.71 4427.57 55.06 6.00 244.70 2706.89
   03:23:17.004.24-Feb-2020 3366.71 4427.52 55.06 6.00 244.90 2706.89
   03:23:17.204.24-Feb-2020 3366.71 4427.44 55.06 6.00 245.10 2706.89
   03:23:17.404.24-Feb-2020 3366.71 4427.44 55.06 6.00 245.30 2706.89
   03:23:17.604.24-Feb-2020 3366.71 4427.31 55.06 6.00 245.50 2706.89
   03:23:17.804.24-Feb-2020 3366.71 4427.26 55.06 6.00 245.70 2706.89
   03:23:18.004.24-Feb-2020 3366.71 4427.23 55.06 6.00 245.90 2706.89
   03:23:18.204.24-Feb-2020 3366.71 4427.22 55.06 6.00 246.10 2706.89
   03:23:18.404.24-Feb-2020 3366.71 4427.22 55.06 6.00 246.30 2706.89
   03:23:18.604.24-Feb-2020 3366.71 4427.24 55.06 6.00 246.50 2706.89
   03:23:18.804.24-Feb-2020 3366.71 4427.26 55.06 6.00 246.70 2706.89
   03:23:19.004.24-Feb-2020 3366.71 4427.42 55.06 6.00 246.90 2706.89
   03:23:19.204.24-Feb-2020 3366.71 4427.01 55.06 6.00 247.10 2706.89
   03:23:19.405.24-Feb-2020 3366.71 4427.01 55.06 6.00 247.30 2706.89
   03:23:19.605.24-Feb-2020 3366.71 4427.72 55.06 6.00 247.50 2706.89
   03:23:19.805.24-Feb-2020 3366.71 4427.75 55.06 6.00 247.70 2706.89
   03:23:20.005.24-Feb-2020 3366.71 4427.66 55.06 6.00 247.90 2706.89
   03:23:20.205.24-Feb-2020 3366.71 4427.61 55.06 6.00 248.10 2706.89
   03:23:20.405.24-Feb-2020 3366.71 4427.61 55.06 6.00 248.30 2706.89
   03:23:20.605.24-Feb-2020 3366.71 4427.44 55.05 6.00 248.50 2706.89
   03:23:20.805.24-Feb-2020 3366.71 4427.47 55.05 6.00 248.70 2706.89
   03:23:21.005.24-Feb-2020 3366.71 4427.52 55.06 6.00 248.90 2706.89
   03:23:21.205.24-Feb-2020 3366.71 4427.50 55.05 6.00 249.10 2706.89
   03:23:21.405.24-Feb-2020 3366.71 4427.50 55.05 6.00 249.30 2706.89
   03:23:21.605.24-Feb-2020 3366.71 4427.35 55.05 6.00 249.50 2706.89
   03:23:21.806.24-Feb-2020 3366.71 4427.43 55.05 6.00 249.70 2706.89
   03:23:22.006.24-Feb-2020 3366.71 4427.50 55.05 6.00 249.90 2706.89
   03:23:22.206.24-Feb-2020 3366.71 4427.57 55.05 6.00 250.10 2706.89
   03:23:22.406.24-Feb-2020 3366.71 4427.57 55.05 6.00 250.30 2706.89
   03:23:22.606.24-Feb-2020 3366.71 4426.39 55.05 6.00 250.50 2706.89
   03:23:22.806.24-Feb-2020 3366.71 4427.82 55.05 6.00 250.70 2706.89
   03:23:23.006.24-Feb-2020 3366.71 4428.27 55.05 6.00 250.90 2706.89
   03:23:23.206.24-Feb-2020 3366.71 4427.70 55.05 6.00 251.10 2706.89
   03:23:23.406.24-Feb-2020 3366.71 4427.70 55.05 6.00 251.30 2706.89
   03:23:23.606.24-Feb-2020 3366.71 4427.81 55.05 6.00 251.50 2706.89
   03:23:23.806.24-Feb-2020 3366.71 4428.05 55.05 6.00 251.70 2706.89
   03:23:24.006.24-Feb-2020 3366.71 4427.86 55.05 6.00 251.90 2706.89
   03:23:24.206.24-Feb-2020 3366.71 4427.82 55.05 6.00 252.10 2706.89
   03:23:24.407.24-Feb-2020 3366.71 4427.82 55.05 6.00 252.30 2706.89
   03:23:24.607.24-Feb-2020 3366.71 4426.95 55.05 6.00 252.50 2706.89
   03:23:24.807.24-Feb-2020 3366.71 4430.24 55.05 6.00 252.70 2706.89
   03:23:25.007.24-Feb-2020 3366.71 4430.72 55.05 6.00 252.90 2706.89
