~Version Information
 VERS.                  2.0:   CWLS log ASCII Standard -VERSION 2.0
 WRAP.                   NO:   One line per depth step
~Well Information Block
#MNEM.UNIT     VALUE/NAME     DESCRIPTION
#---------     -----------    ---------------------------
 STRT.S             02:47:37 24-Feb-20: START TIME 02:47:37 24-Feb-20
 STOP.S             02:54:57 24-Feb-20: STOP TIME  02:54:57 24-Feb-20
 STEP.S                   0.00: STEP TIME
 NULL.                 -999.25: NULL VALUE
 JOBN.        AZ-XX-0905059384:  JOB TICKET NUMB
 PDAT.          Mean Sea Level:  PERMANENT DATUM
 UNIT.                     N/A:  LOGGING EQUIPMENT ID
 DCON.         Sperry Drilling:  DIRECTNL CONTR
 DOE .                     N/A:  DOE NUMBER
 RIG .             West Chirag:  RIG NAME
 WELL.                     J22:  WELL NAME
 MWDS.                    Baku:  MWD SHOP
 SRVC.     TURAN Drilling & Engineering:  CONTRACTOR
 FLD .                     ACG:  FIELD NAME
 CTRY.              Azerbaijan:  COUNTRY NAME
 PROV.                    Baku:  PROVINCE
 STAT.                    Baku:  STATE NAME
 REGN.                   EESSA:  REGION
 BASE.              Azerbaijan:  LOGGING EQUIPMENT BASE LOCATION
 UWI .                     N/A:  UNIQUE WELL IDENTIFIER
 API .                     N/A:  API NUMBER
 COMP.     BP Exploration (Caspian Sea) Ltd.:  COMPANY
 WTYP.                Deviated:  WELL TYPE
 MDS .        Operator Entered:  MAG DATA SOURCE
 SON .        AZ-XX-0905059384:  JOB NUMBER
 FTOP.          Formation Tops:  FORM TOPS DESC
 ILTD.               Lithology:  INTERP LTH DESC
 SVYD.                  Survey:  SURVEY DESC
 DMOD.             Drill Model:  DRILL MOD DESC
 HPTY.       Minimum Curvature:  HOLE POS TYPE
 NREF.                    Grid:  NORTH REFERENCE
 SPUD.               09-Jan-20:  SPUD DATE
 DATE.      14.04.48 07-Feb-20:  END TIME
 STIM.      07.00.00 09-Jan-20:  START TIME
 DMF .             Drill Floor:  DRILL MEAS FROM
 DFST.                        :  DIST FSL TEXT
 DFWT.                        :  DIST FWL TEXT
 CNTY.                        :  COUNTY
 LOC .                        :  LOCATION
 LMF .             Drill Floor:  LOG MEASURED FROM
 DEP .m                   0.00:  DEPTH
 VSNS.m                  10.28:  VERT SEC N/S
 VSEW.m                  -6.24:  VERT SEC E/W
 AGAP.m                  43.00:  AIR GAP
 APD .m                  43.00:  DEPTH ABOVE PD
 WDMS.m                 169.80:  WD ELEV
 EGL .m                   0.00:  GROUND ELEVATION
 EPD .m                   0.00:  ELEVATION
 AZTC.deg                 6.27:  AZM TOTAL CORR
 GRDC.deg                 0.15:  GRID CORRECTION
 MDEC.deg                 6.42:  MAGNETIC DECL
 MDIP.deg                59.56:  MAGNETIC DIP
 MFLD.nT              50277.00:  MAGNETIC FIELD
 GVFD.g                   1.00:  GRAVITY FIELD
 VSDR.deg               148.53:  VERT SEC DIRECT
 TDD .m                3473.01:  TOTAL DEPTH (DRILLER)
 SDEP.m                 364.00:  START DEPTH
 DFSL.m                   0.00:  DISTANCE FSL
 DFWL.m                   0.00:  DISTANCE FWL
 UTMY.m             4443793.85:  UTM Y
 UTMX.m              519005.06:  UTM X
 WHEW.m                  -6.24:  WELL HEAD E/W
 WHNS.m                  10.28:  WELL HEAD N/S
 LONG.deg                51.22:  LONGITUDE
 LATI.deg                40.13:  LATITUDE
 TVDS.m                  43.00:  TVDSS CORRECTN
 EKB .m                   0.00:  KB ELEVATION
 EDF .m                  43.00:  DF ELEVATION
 TDL .m                 254.00:  TOTAL DEPTH (LOGGER)
 MAGU.                 1850021:  MAGUTM CHECKSUM
 VSC .                       0:  VS TO CLOSURE
~Parameter Information Block
#MNEM.UNIT       Value        Description
#---------     -----------    ---------------------------
 AV  .mps                 0.50:  Ann Velocity 
 AVMX.mps                 1.40:  Max Ann Veloc 
 AZIF.deg               144.94:  Azm, Final 
 BHAT.        Rotary Steerable:  BHA Type 
 BROT.°/30m               0.23:  Build Rotating 
 BS  .in                  8.50:  Bit Size 
 BTPL.psig              264.00:  Bit Press Loss 
 CABU.                     Yes:  Customer Abuse 
 COMM.                     D
_:  Run Comments 1 
 TCS .hr                 87.30:  Time Ciculation Ended 
 CV  .mps                 2.45:  Crit Velocity 
 CVMX.mps                 2.74:  Max Crit Veloc 
 DD1 .             Aziz Aliyev:  Direct Drillr 1 
 DDSV.               Geo-Pilot:  DD Service 
 DEFF.%                 100.00:  % Det Eff 
 DLRX.°/30m               1.22:  Dogleg Rot Max 
 DLSO.°/30m               0.52:  Dogleg Oriented 
 DLSX.°/30m               1.22:  Dogleg Str Max 
 DRET.      12.59.00 23-Feb-20:  Drill End Time 
 DRST.      09.44.00 18-Feb-20:  Drill Start Tim 
 DTIM.hr                 23.03:  Time Drilling 
 EDEP.m                3473.01:  End Depth 
 ENG1.         Almaz Almadatov:  Engineer 1 
 ENG2.         Dair Mahammadov:  Engineer 2 
 ENG3.          Nazrin Asgarli:  Engineer 3 
 ETIM.      10.33.36 26-Feb-20:  End Time 
 FLOI.gpm               480.00:  Flow In 
 FLON.gpm               300.00:  Flow In Min 
 FLOS.cptm                1.00:  Fluid Loss 
 FLOX.gpm               550.00:  Flow In Max 
 HFLO.                      No:  High Flow 
 HPRE.                      No:  High Pressure 
 HTEM.                      No:  High Temp 
 HYDO.m                   1.80:  Hydro Offset 
 IFIN.deg                74.42:  Inc, Final 
 IMAX.deg                76.14:  Inc Max 
 IMIN.deg                74.42:  Inc Min 
 IMND.m                3462.72:  Inc Min Depth 
 IMXD.m                3235.69:  Inc Max Depth 
 JARR.                      No:  Jarring 
 LETM.      12.59.00 23-Feb-20:  Log End Time 
 LOST.hr                     0:  Lost Rig Time 
 LSTM.      09.44.00 18-Feb-20:  Log Start Time 
 MDCL.ppm             45000.00:  Mud Chlorides 
 MDES.     Inversion Oil/Synthetic:  Mud Desc 
 DFD .sg                  1.38:  Mud Density 
 MDMN.sg                  1.34:  Dens Mud Min 
 MDMX.sg                  1.49:  Dens Mud Max 
 MOIL.                      67:  Run Mud Oil % 
 MOWR.                   67:33:  Run Mud OWR 
 MSND.                    0.12:  Run Mud Sand % 
 MSOL.                      22:  Run Mud Solids% 
 DFV .spqt               81.00:  Mud Viscosity 
 MWOD.in                  6.75:  MWD Tool OD 
 MWSI.                      No:  Serv Intrp, MWD 
 OTIM.hr                231.44:  Time Operating 
 PCON.          Wear / Scratch:  Pad Condition 
 PMAX.psia             3400.00:  Press Op, Max 
 PV  .cP                 55.00:  Mud PV 
 RUN .                     800:  Run Number 
 ROPA.m/hr               12.00:  ROP Avg 
 ROPN.m/hr                5.00:  ROP Min 
 ROPX.m/hr               28.00:  ROP Max 
 RPMA.rpm               120.00:  RPM Surface Avg 
 RPMN.rpm                40.00:  RPM Surface Min 
 RPMX.rpm               130.00:  RPM Surface Max 
 RRUN.                    0800:  Rig Run Number 
 RTIM.hr                 45.00:  Time Reaming 
 SAZI.deg               145.38:  Azm, Start 
 SDEP.m                3219.01:  Start Depth 
 SIDD.                      No:  Serv Intrp, DD 
 SINC.deg                75.11:  Inc, Start 
 SPPA.psig             2400.00:  SPP Avg 
 SPPN.psig             2320.00:  SPP Min 
 SPPX.psig             3200.00:  SPP Max 
 STIM.      15.15.00 17-Feb-20:  Start Time 
 SVCS.                 DD, MWD:  Services 
 SVER.                    9.20:  Sperry Version 
 TDAT.m                 254.00:  Tot Depth Attmp 
 TDDF.                      No:  Trip for DD 
 TDLG.m                 254.00:  Tot Depth Loggd 
 TFF .                      No:  Trip for Fail 
 TQAA.f-kp               13.00:  Torque Abs Avg 
 TQAN.f-kp                7.00:  Torque Abs Min 
 TQAX.f-kp               15.00:  Torque Abs Max 
 TRRT.°/30m               0.21:  Turn Rotating 
 MRT .                  EWR-M5:  Maximum Recorded Temperature 
 TTMX.degC               64.00:  Max Tool Temp 
 VS01.                90586516:  Virtual Str1 SN 
 VS02.                90513691:  Virtual Str2 SN 
 VS03.                90586523:  Virtual Str3 SN 
 VS04.                90586520:  Virtual Str4 SN 
 VS05.                90590507:  Virtual Str5 SN 
 WBMN.klb                12.00:  WOB Min 
 WITN.           Rufat Babayev:  Customer Rep 2 
 WITN.         Alistair Sprott:  Customer Rep 
 WOBA.klb                18.00:  WOB Avg 
 WOBX.klb                30.00:  WOB Max 
 YP  .lhf2               41.00:  Yield Point 
~Curve Information Block
#MNEM.UNIT                 API CODE     Curve Description
#---------               -----------    ---------------------------
 TIME.HHMMSS            00 000 000 000:  GT Time & Date
 GTDEPTH.m              00 000 000 000:  GT Depth
 GTPQH.psia             00 000 000 000:  GT HR Quartz Pressure
 GTTQ.degC              00 000 000 000:  GT Quartz Temperature
 GTTN.NONE              00 000 000 000:  GT Test Number
 GTET.sec               00 000 000 000:  GT Elapsed Test Time
 GTTVD.m                00 000 000 000:  GT True Vertical Depth
#Other Information
#
#WARRANTY: Halliburton will use its best efforts to furnish customers with 
#accurate information and interpretations that are part of, and incident to, the services 
#provided.  However, Halliburton cannot and does not warrant the accuracy 
#or correctness of such information and interpretations.  Under no circumstances should any 
#such information or interpretation be relied upon as the sole basis for any drilling, 
#completion, production, or financial decision or any procedure involving any risk to the 
#safety of any drilling venture, drilling rig or its crew or any other third party.  The 
#Customer has full responsibility for all drilling, completion and production operation.  
#Halliburton makes no representations or warranties, either expressed or 
#implied, including, but not limited to, the implied warranties of merchantability or fitness 
#for a particular purpose, with respect to the services rendered.  In no event will 
#Halliburton be liable for failure to obtain any particular results or for 
#any damages, including, but not limited to, indirect, special or consequential damages, 
#resulting from the use of any information or interpretation provided by Halliburton.
#
~A           TIME           GTDEPTH  GTPQH  GTTQ  GTTN  GTET   GTTVD  
# ...
   02:52:59.476.24-Feb-2020 3375.51 4203.62 55.77 5.00 322.13 2709.14
   02:52:59.676.24-Feb-2020 3375.51 4203.62 55.77 5.00 322.33 2709.14
   02:52:59.876.24-Feb-2020 3375.51 4203.56 55.77 5.00 322.53 2709.14
   02:53:00.077.24-Feb-2020 3375.51 4203.51 55.77 5.00 322.73 2709.14
   02:53:00.277.24-Feb-2020 3375.51 4203.66 55.77 5.00 322.93 2709.14
   02:53:00.477.24-Feb-2020 3375.51 4203.63 55.77 5.00 323.13 2709.14
   02:53:00.677.24-Feb-2020 3375.51 4203.52 55.77 5.00 323.33 2709.14
   02:53:00.877.24-Feb-2020 3375.51 4203.60 55.77 5.00 323.53 2709.14
   02:53:01.077.24-Feb-2020 3375.51 4203.11 55.77 5.00 323.73 2709.14
   02:53:01.277.24-Feb-2020 3375.51 4204.03 55.77 5.00 323.93 2709.14
   02:53:01.477.24-Feb-2020 3375.51 4203.76 55.77 5.00 324.13 2709.14
   02:53:01.677.24-Feb-2020 3375.51 4203.76 55.77 5.00 324.33 2709.14
   02:53:01.877.24-Feb-2020 3375.51 4203.58 55.77 5.00 324.53 2709.14
   02:53:02.077.24-Feb-2020 3375.51 4203.62 55.77 5.00 324.73 2709.14
   02:53:02.277.24-Feb-2020 3375.51 4203.54 55.77 5.00 324.93 2709.14
   02:53:02.477.24-Feb-2020 3375.51 4203.70 55.77 5.00 325.13 2709.14
   02:53:02.678.24-Feb-2020 3375.51 4203.70 55.77 5.00 325.33 2709.14
   02:53:02.878.24-Feb-2020 3375.51 4203.56 55.77 5.00 325.53 2709.14
   02:53:03.078.24-Feb-2020 3375.51 4203.61 55.77 5.00 325.73 2709.14
   02:53:03.278.24-Feb-2020 3375.51 4203.64 55.77 5.00 325.93 2709.14
   02:53:03.478.24-Feb-2020 3375.51 4203.72 55.77 5.00 326.13 2709.14
   02:53:03.678.24-Feb-2020 3375.51 4203.72 55.77 5.00 326.33 2709.14
   02:53:03.878.24-Feb-2020 3375.51 4203.55 55.77 5.00 326.53 2709.14
   02:53:04.078.24-Feb-2020 3375.51 4203.62 55.77 5.00 326.73 2709.14
   02:53:04.278.24-Feb-2020 3375.51 4203.59 55.77 5.00 326.93 2709.14
   02:53:04.478.24-Feb-2020 3375.51 4203.55 55.77 5.00 327.13 2709.14
   02:53:04.678.24-Feb-2020 3375.51 4203.55 55.77 5.00 327.33 2709.14
   02:53:04.878.24-Feb-2020 3375.51 4203.60 55.77 5.00 327.53 2709.14
   02:53:05.079.24-Feb-2020 3375.51 4203.58 55.77 5.00 327.73 2709.14
   02:53:05.279.24-Feb-2020 3375.51 4203.60 55.77 5.00 327.93 2709.14
   02:53:05.479.24-Feb-2020 3375.51 4203.58 55.77 5.00 328.13 2709.14
   02:53:05.679.24-Feb-2020 3375.51 4203.58 55.77 5.00 328.33 2709.14
   02:53:05.879.24-Feb-2020 3375.51 4203.63 55.77 5.00 328.53 2709.14
   02:53:06.079.24-Feb-2020 3375.51 4203.57 55.77 5.00 328.73 2709.14
   02:53:06.279.24-Feb-2020 3375.51 4203.09 55.77 5.00 328.93 2709.14
   02:53:06.479.24-Feb-2020 3375.51 4203.98 55.77 5.00 329.13 2709.14
   02:53:06.679.24-Feb-2020 3375.51 4203.98 55.77 5.00 329.33 2709.14
   02:53:06.879.24-Feb-2020 3375.51 4203.52 55.77 5.00 329.53 2709.14
   02:53:07.079.24-Feb-2020 3375.51 4203.58 55.77 5.00 329.73 2709.14
   02:53:07.279.24-Feb-2020 3375.51 4203.61 55.77 5.00 329.93 2709.14
   02:53:07.479.24-Feb-2020 3375.51 4203.54 55.77 5.00 330.13 2709.14
   02:53:07.680.24-Feb-2020 3375.51 4203.54 55.77 5.00 330.33 2709.14
   02:53:07.880.24-Feb-2020 3375.51 4203.54 55.77 5.00 330.53 2709.14
   02:53:08.080.24-Feb-2020 3375.51 4203.60 55.77 5.00 330.73 2709.14
   02:53:08.280.24-Feb-2020 3375.51 4203.60 55.77 5.00 330.93 2709.14
   02:53:08.480.24-Feb-2020 3375.51 4203.56 55.77 5.00 331.13 2709.14
   02:53:08.680.24-Feb-2020 3375.51 4203.56 55.77 5.00 331.33 2709.14
   02:53:08.880.24-Feb-2020 3375.51 4203.60 55.77 5.00 331.53 2709.14
   02:53:09.080.24-Feb-2020 3375.51 4203.58 55.76 5.00 331.73 2709.14
   02:53:09.280.24-Feb-2020 3375.51 4203.59 55.76 5.00 331.93 2709.14
   02:53:09.480.24-Feb-2020 3375.51 4203.53 55.76 5.00 332.13 2709.14
   02:53:09.680.24-Feb-2020 3375.51 4203.53 55.76 5.00 332.33 2709.14
   02:53:09.880.24-Feb-2020 3375.51 4203.70 55.76 5.00 332.53 2709.14
   02:53:10.081.24-Feb-2020 3375.51 4203.50 55.76 5.00 332.73 2709.14
   02:53:10.281.24-Feb-2020 3375.51 4203.51 55.76 5.00 332.93 2709.14
   02:53:10.481.24-Feb-2020 3375.51 4203.58 55.76 5.00 333.13 2709.14
   02:53:10.681.24-Feb-2020 3375.51 4203.58 55.76 5.00 333.33 2709.14
   02:53:10.881.24-Feb-2020 3375.51 4203.60 55.76 5.00 333.53 2709.14
   02:53:11.081.24-Feb-2020 3375.51 4203.66 55.76 5.00 333.73 2709.14
   02:53:11.281.24-Feb-2020 3375.51 4203.53 55.76 5.00 333.93 2709.14
   02:53:11.481.24-Feb-2020 3375.51 4203.61 55.76 5.00 334.13 2709.14
   02:53:11.681.24-Feb-2020 3375.51 4203.61 55.76 5.00 334.33 2709.14
   02:53:11.881.24-Feb-2020 3375.51 4203.59 55.76 5.00 334.53 2709.14
   02:53:12.081.24-Feb-2020 3375.51 4203.78 55.76 5.00 334.73 2709.14
   02:53:12.281.24-Feb-2020 3375.51 4203.54 55.76 5.00 334.93 2709.14
   02:53:12.481.24-Feb-2020 3375.51 4203.55 55.76 5.00 335.13 2709.14
   02:53:12.682.24-Feb-2020 3375.51 4203.55 55.76 5.00 335.33 2709.14
   02:53:12.882.24-Feb-2020 3375.51 4204.09 55.76 5.00 335.53 2709.14
   02:53:13.082.24-Feb-2020 3375.51 4203.50 55.76 5.00 335.73 2709.14
   02:53:13.282.24-Feb-2020 3375.51 4203.65 55.76 5.00 335.93 2709.14
   02:53:13.482.24-Feb-2020 3375.51 4203.58 55.76 5.00 336.13 2709.14
   02:53:13.682.24-Feb-2020 3375.51 4203.58 55.76 5.00 336.33 2709.14
   02:53:13.882.24-Feb-2020 3375.51 4203.57 55.76 5.00 336.53 2709.14
   02:53:14.082.24-Feb-2020 3375.51 4203.58 55.76 5.00 336.73 2709.14
   02:53:14.282.24-Feb-2020 3375.51 4203.55 55.76 5.00 336.93 2709.14
   02:53:14.482.24-Feb-2020 3375.51 4203.59 55.76 5.00 337.13 2709.14
   02:53:14.682.24-Feb-2020 3375.51 4203.59 55.76 5.00 337.33 2709.14
   02:53:14.882.24-Feb-2020 3375.51 4203.57 55.76 5.00 337.54 2709.14
   02:53:15.083.24-Feb-2020 3375.51 4203.61 55.76 5.00 337.74 2709.14
   02:53:15.283.24-Feb-2020 3375.51 4203.59 55.76 5.00 337.94 2709.14
   02:53:15.483.24-Feb-2020 3375.51 4203.61 55.76 5.00 338.14 2709.14
   02:53:15.683.24-Feb-2020 3375.51 4203.61 55.76 5.00 338.34 2709.14
   02:53:15.883.24-Feb-2020 3375.51 4203.49 55.76 5.00 338.54 2709.14
   02:53:16.083.24-Feb-2020 3375.51 4203.63 55.76 5.00 338.74 2709.14
   02:53:16.283.24-Feb-2020 3375.51 4203.67 55.76 5.00 338.94 2709.14
   02:53:16.483.24-Feb-2020 3375.51 4203.54 55.76 5.00 339.14 2709.14
   02:53:16.683.24-Feb-2020 3375.51 4203.54 55.76 5.00 339.34 2709.14
   02:53:16.883.24-Feb-2020 3375.51 4203.58 55.76 5.00 339.54 2709.14
   02:53:17.083.24-Feb-2020 3375.51 4203.50 55.76 5.00 339.74 2709.14
   02:53:17.283.24-Feb-2020 3375.51 4203.56 55.76 5.00 339.94 2709.14
   02:53:17.483.24-Feb-2020 3375.51 4203.55 55.76 5.00 340.14 2709.14
   02:53:17.684.24-Feb-2020 3375.51 4203.62 55.76 5.00 340.34 2709.14
   02:53:17.884.24-Feb-2020 3375.51 4203.60 55.76 5.00 340.54 2709.14
   02:53:18.084.24-Feb-2020 3375.51 4203.52 55.76 5.00 340.74 2709.14
   02:53:18.284.24-Feb-2020 3375.51 4203.54 55.76 5.00 340.94 2709.14
   02:53:18.484.24-Feb-2020 3375.51 4203.60 55.76 5.00 341.14 2709.14
   02:53:18.684.24-Feb-2020 3375.51 4203.57 55.76 5.00 341.34 2709.14
   02:53:18.884.24-Feb-2020 3375.51 4203.59 55.76 5.00 341.54 2709.14
   02:53:19.084.24-Feb-2020 3375.51 4203.12 55.76 5.00 341.74 2709.14
   02:53:19.284.24-Feb-2020 3375.51 4204.03 55.76 5.00 341.94 2709.14
   02:53:19.484.24-Feb-2020 3375.51 4203.51 55.76 5.00 342.14 2709.14
   02:53:19.684.24-Feb-2020 3375.51 4203.51 55.76 5.00 342.34 2709.14
   02:53:19.884.24-Feb-2020 3375.51 4203.54 55.76 5.00 342.54 2709.14
   02:53:20.085.24-Feb-2020 3375.51 4203.53 55.76 5.00 342.74 2709.14
   02:53:20.285.24-Feb-2020 3375.51 4203.58 55.76 5.00 342.94 2709.14
   02:53:20.485.24-Feb-2020 3375.51 4203.71 55.76 5.00 343.14 2709.14
   02:53:20.685.24-Feb-2020 3375.51 4203.49 55.76 5.00 343.34 2709.14
   02:53:20.885.24-Feb-2020 3375.51 4203.52 55.76 5.00 343.54 2709.14
   02:53:21.085.24-Feb-2020 3375.51 4203.59 55.76 5.00 343.74 2709.14
   02:53:21.285.24-Feb-2020 3375.51 4203.18 55.76 5.00 343.94 2709.14
   02:53:21.485.24-Feb-2020 3375.51 4204.08 55.76 5.00 344.14 2709.14
   02:53:21.685.24-Feb-2020 3375.51 4204.08 55.76 5.00 344.34 2709.14
   02:53:21.885.24-Feb-2020 3375.51 4203.64 55.76 5.00 344.54 2709.14
   02:53:22.085.24-Feb-2020 3375.51 4203.54 55.76 5.00 344.74 2709.14
   02:53:22.285.24-Feb-2020 3375.51 4203.07 55.76 5.00 344.94 2709.14
