~Version Information
 VERS.                  2.0:   CWLS log ASCII Standard -VERSION 2.0
 WRAP.                   NO:   One line per depth step
~Well Information Block
#MNEM.UNIT     VALUE/NAME     DESCRIPTION
#---------     -----------    ---------------------------
 STRT.S             05:02:14 24-Feb-20: START TIME 05:02:14 24-Feb-20
 STOP.S             05:09:32 24-Feb-20: STOP TIME  05:09:32 24-Feb-20
 STEP.S                   0.00: STEP TIME
 NULL.                 -999.25: NULL VALUE
 JOBN.        AZ-XX-0905059384:  JOB TICKET NUMB
 PDAT.          Mean Sea Level:  PERMANENT DATUM
 UNIT.                     N/A:  LOGGING EQUIPMENT ID
 DCON.         Sperry Drilling:  DIRECTNL CONTR
 DOE .                     N/A:  DOE NUMBER
 RIG .             West Chirag:  RIG NAME
 WELL.                     J22:  WELL NAME
 MWDS.                    Baku:  MWD SHOP
 SRVC.     TURAN Drilling & Engineering:  CONTRACTOR
 FLD .                     ACG:  FIELD NAME
 CTRY.              Azerbaijan:  COUNTRY NAME
 PROV.                    Baku:  PROVINCE
 STAT.                    Baku:  STATE NAME
 REGN.                   EESSA:  REGION
 BASE.              Azerbaijan:  LOGGING EQUIPMENT BASE LOCATION
 UWI .                     N/A:  UNIQUE WELL IDENTIFIER
 API .                     N/A:  API NUMBER
 COMP.     BP Exploration (Caspian Sea) Ltd.:  COMPANY
 WTYP.                Deviated:  WELL TYPE
 MDS .        Operator Entered:  MAG DATA SOURCE
 SON .        AZ-XX-0905059384:  JOB NUMBER
 FTOP.          Formation Tops:  FORM TOPS DESC
 ILTD.               Lithology:  INTERP LTH DESC
 SVYD.                  Survey:  SURVEY DESC
 DMOD.             Drill Model:  DRILL MOD DESC
 HPTY.       Minimum Curvature:  HOLE POS TYPE
 NREF.                    Grid:  NORTH REFERENCE
 SPUD.               09-Jan-20:  SPUD DATE
 DATE.      14.04.48 07-Feb-20:  END TIME
 STIM.      07.00.00 09-Jan-20:  START TIME
 DMF .             Drill Floor:  DRILL MEAS FROM
 DFST.                        :  DIST FSL TEXT
 DFWT.                        :  DIST FWL TEXT
 CNTY.                        :  COUNTY
 LOC .                        :  LOCATION
 LMF .             Drill Floor:  LOG MEASURED FROM
 DEP .m                   0.00:  DEPTH
 VSNS.m                  10.28:  VERT SEC N/S
 VSEW.m                  -6.24:  VERT SEC E/W
 AGAP.m                  43.00:  AIR GAP
 APD .m                  43.00:  DEPTH ABOVE PD
 WDMS.m                 169.80:  WD ELEV
 EGL .m                   0.00:  GROUND ELEVATION
 EPD .m                   0.00:  ELEVATION
 AZTC.deg                 6.27:  AZM TOTAL CORR
 GRDC.deg                 0.15:  GRID CORRECTION
 MDEC.deg                 6.42:  MAGNETIC DECL
 MDIP.deg                59.56:  MAGNETIC DIP
 MFLD.nT              50277.00:  MAGNETIC FIELD
 GVFD.g                   1.00:  GRAVITY FIELD
 VSDR.deg               148.53:  VERT SEC DIRECT
 TDD .m                3473.01:  TOTAL DEPTH (DRILLER)
 SDEP.m                 364.00:  START DEPTH
 DFSL.m                   0.00:  DISTANCE FSL
 DFWL.m                   0.00:  DISTANCE FWL
 UTMY.m             4443793.85:  UTM Y
 UTMX.m              519005.06:  UTM X
 WHEW.m                  -6.24:  WELL HEAD E/W
 WHNS.m                  10.28:  WELL HEAD N/S
 LONG.deg                51.22:  LONGITUDE
 LATI.deg                40.13:  LATITUDE
 TVDS.m                  43.00:  TVDSS CORRECTN
 EKB .m                   0.00:  KB ELEVATION
 EDF .m                  43.00:  DF ELEVATION
 TDL .m                 254.00:  TOTAL DEPTH (LOGGER)
 MAGU.                 1850021:  MAGUTM CHECKSUM
 VSC .                       0:  VS TO CLOSURE
~Parameter Information Block
#MNEM.UNIT       Value        Description
#---------     -----------    ---------------------------
 AV  .mps                 0.50:  Ann Velocity 
 AVMX.mps                 1.40:  Max Ann Veloc 
 AZIF.deg               144.94:  Azm, Final 
 BHAT.        Rotary Steerable:  BHA Type 
 BROT.°/30m               0.23:  Build Rotating 
 BS  .in                  8.50:  Bit Size 
 BTPL.psig              264.00:  Bit Press Loss 
 CABU.                     Yes:  Customer Abuse 
 TCS .hr                 87.30:  Time Ciculation Ended 
 CV  .mps                 2.45:  Crit Velocity 
 CVMX.mps                 2.74:  Max Crit Veloc 
 DD1 .             Aziz Aliyev:  Direct Drillr 1 
 DDSV.               Geo-Pilot:  DD Service 
 DEFF.%                 100.00:  % Det Eff 
 DLRX.°/30m               1.22:  Dogleg Rot Max 
 DLSO.°/30m               0.52:  Dogleg Oriented 
 DLSX.°/30m               1.22:  Dogleg Str Max 
 DRET.      12.59.00 23-Feb-20:  Drill End Time 
 DRST.      09.44.00 18-Feb-20:  Drill Start Tim 
 DTIM.hr                 23.03:  Time Drilling 
 EDEP.m                3473.01:  End Depth 
 ENG1.         Almaz Almadatov:  Engineer 1 
 ENG2.         Dair Mahammadov:  Engineer 2 
 ENG3.          Nazrin Asgarli:  Engineer 3 
 ETIM.      10.33.36 26-Feb-20:  End Time 
 FLOI.gpm               480.00:  Flow In 
 FLON.gpm               300.00:  Flow In Min 
 FLOS.cptm                1.00:  Fluid Loss 
 FLOX.gpm               550.00:  Flow In Max 
 HFLO.                      No:  High Flow 
 HPRE.                      No:  High Pressure 
 HTEM.                      No:  High Temp 
 HYDO.m                   1.80:  Hydro Offset 
 IFIN.deg                74.42:  Inc, Final 
 IMAX.deg                76.14:  Inc Max 
 IMIN.deg                74.42:  Inc Min 
 IMND.m                3462.72:  Inc Min Depth 
 IMXD.m                3235.69:  Inc Max Depth 
 JARR.                      No:  Jarring 
 LETM.      12.59.00 23-Feb-20:  Log End Time 
 LOST.hr                     0:  Lost Rig Time 
 LSTM.      09.44.00 18-Feb-20:  Log Start Time 
 MDCL.ppm             45000.00:  Mud Chlorides 
 MDES.     Inversion Oil/Synthetic:  Mud Desc 
 DFD .sg                  1.38:  Mud Density 
 MDMN.sg                  1.34:  Dens Mud Min 
 MDMX.sg                  1.49:  Dens Mud Max 
 MOIL.                      67:  Run Mud Oil % 
 MOWR.                   67:33:  Run Mud OWR 
 MSND.                    0.12:  Run Mud Sand % 
 MSOL.                      22:  Run Mud Solids% 
 DFV .spqt               81.00:  Mud Viscosity 
 MWOD.in                  6.75:  MWD Tool OD 
 MWSI.                      No:  Serv Intrp, MWD 
 OTIM.hr                231.44:  Time Operating 
 PCON.          Wear / Scratch:  Pad Condition 
 PMAX.psia             3400.00:  Press Op, Max 
 PV  .cP                 55.00:  Mud PV 
 RUN .                     800:  Run Number 
 ROPA.m/hr               12.00:  ROP Avg 
 ROPN.m/hr                5.00:  ROP Min 
 ROPX.m/hr               28.00:  ROP Max 
 RPMA.rpm               120.00:  RPM Surface Avg 
 RPMN.rpm                40.00:  RPM Surface Min 
 RPMX.rpm               130.00:  RPM Surface Max 
 RRUN.                    0800:  Rig Run Number 
 RTIM.hr                 45.00:  Time Reaming 
 SAZI.deg               145.38:  Azm, Start 
 SDEP.m                3219.01:  Start Depth 
 SIDD.                      No:  Serv Intrp, DD 
 SINC.deg                75.11:  Inc, Start 
 SPPA.psig             2400.00:  SPP Avg 
 SPPN.psig             2320.00:  SPP Min 
 SPPX.psig             3200.00:  SPP Max 
 STIM.      15.15.00 17-Feb-20:  Start Time 
 SVCS.                 DD, MWD:  Services 
 SVER.                    9.20:  Sperry Version 
 TDAT.m                 254.00:  Tot Depth Attmp 
 TDDF.                      No:  Trip for DD 
 TDLG.m                 254.00:  Tot Depth Loggd 
 TFF .                      No:  Trip for Fail 
 TQAA.f-kp               13.00:  Torque Abs Avg 
 TQAN.f-kp                7.00:  Torque Abs Min 
 TQAX.f-kp               15.00:  Torque Abs Max 
 TRRT.°/30m               0.21:  Turn Rotating 
 MRT .                  EWR-M5:  Maximum Recorded Temperature 
 TTMX.degC               64.00:  Max Tool Temp 
 VS01.                90586516:  Virtual Str1 SN 
 VS02.                90513691:  Virtual Str2 SN 
 VS03.                90586523:  Virtual Str3 SN 
 VS04.                90586520:  Virtual Str4 SN 
 VS05.                90590507:  Virtual Str5 SN 
 WBMN.klb                12.00:  WOB Min 
 WITN.           Rufat Babayev:  Customer Rep 2 
 WITN.         Alistair Sprott:  Customer Rep 
 WOBA.klb                18.00:  WOB Avg 
 WOBX.klb                30.00:  WOB Max 
 YP  .lhf2               41.00:  Yield Point 
~Curve Information Block
#MNEM.UNIT                 API CODE     Curve Description
#---------               -----------    ---------------------------
 TIME.HHMMSS            00 000 000 000:  GT Time & Date
 GTDEPTH.m              00 000 000 000:  GT Depth
 GTPQH.psia             00 000 000 000:  GT HR Quartz Pressure
 GTTQ.degC              00 000 000 000:  GT Quartz Temperature
 GTTN.NONE              00 000 000 000:  GT Test Number
 GTET.sec               00 000 000 000:  GT Elapsed Test Time
 GTTVD.m                00 000 000 000:  GT True Vertical Depth
#Other Information
#
#WARRANTY: Halliburton will use its best efforts to furnish customers with 
#accurate information and interpretations that are part of, and incident to, the services 
#provided.  However, Halliburton cannot and does not warrant the accuracy 
#or correctness of such information and interpretations.  Under no circumstances should any 
#such information or interpretation be relied upon as the sole basis for any drilling, 
#completion, production, or financial decision or any procedure involving any risk to the 
#safety of any drilling venture, drilling rig or its crew or any other third party.  The 
#Customer has full responsibility for all drilling, completion and production operation.  
#Halliburton makes no representations or warranties, either expressed or 
#implied, including, but not limited to, the implied warranties of merchantability or fitness 
#for a particular purpose, with respect to the services rendered.  In no event will 
#Halliburton be liable for failure to obtain any particular results or for 
#any damages, including, but not limited to, indirect, special or consequential damages, 
#resulting from the use of any information or interpretation provided by Halliburton.
#
~A           TIME           GTDEPTH  GTPQH  GTTQ  GTTN  GTET   GTTVD  
# ...
   05:02:37.836.24-Feb-2020 3303.51 5689.08 55.52 8.00  22.99 2690.98
   05:02:38.036.24-Feb-2020 3303.51 5689.08 55.52 8.00  23.19 2690.98
   05:02:38.236.24-Feb-2020 3303.51 5689.08 55.52 8.00  23.39 2690.98
   05:02:38.436.24-Feb-2020 3303.51 5688.76 55.52 8.00  23.59 2690.98
   05:02:38.636.24-Feb-2020 3303.51 5689.93 55.52 8.00  23.79 2690.98
   05:02:38.836.24-Feb-2020 3303.51 5690.74 55.52 8.00  23.99 2690.98
   05:02:39.036.24-Feb-2020 3303.51 5690.74 55.52 8.00  24.19 2690.98
   05:02:39.236.24-Feb-2020 3303.51 5688.69 55.52 8.00  24.39 2690.98
   05:02:39.436.24-Feb-2020 3303.51 5697.34 55.52 8.00  24.59 2690.98
   05:02:39.635.24-Feb-2020 3303.51 5684.44 55.52 8.00  24.79 2690.98
   05:02:39.835.24-Feb-2020 3303.51 5689.98 55.52 8.00  24.99 2690.98
   05:02:40.035.24-Feb-2020 3303.51 5689.98 55.52 8.00  25.19 2690.98
   05:02:40.235.24-Feb-2020 3303.51 5689.49 55.52 8.00  25.39 2690.98
   05:02:40.435.24-Feb-2020 3303.51 5699.87 55.52 8.00  25.59 2690.98
   05:02:40.635.24-Feb-2020 3303.51 5686.62 55.52 8.00  25.79 2690.98
   05:02:40.835.24-Feb-2020 3303.51 5690.58 55.52 8.00  25.99 2690.98
   05:02:41.035.24-Feb-2020 3303.51 5687.89 55.52 8.00  26.19 2690.98
   05:02:41.235.24-Feb-2020 3303.51 5688.59 55.52 8.00  26.39 2690.98
   05:02:41.435.24-Feb-2020 3303.51 5699.16 55.52 8.00  26.59 2690.98
   05:02:41.635.24-Feb-2020 3303.51 5686.06 55.52 8.00  26.79 2690.98
   05:02:41.835.24-Feb-2020 3303.51 5690.03 55.52 8.00  26.99 2690.98
   05:02:42.035.24-Feb-2020 3303.51 5690.03 55.52 8.00  27.19 2690.98
   05:02:42.235.24-Feb-2020 3303.51 5683.53 55.52 8.00  27.39 2690.98
   05:02:42.435.24-Feb-2020 3303.51 5681.87 55.52 8.00  27.59 2690.98
   05:02:42.635.24-Feb-2020 3303.51 5680.66 55.52 8.00  27.79 2690.98
   05:02:42.835.24-Feb-2020 3303.51 5690.54 55.52 8.00  27.99 2690.98
   05:02:43.034.24-Feb-2020 3303.51 5690.54 55.52 8.00  28.19 2690.98
   05:02:43.234.24-Feb-2020 3303.51 5681.65 55.52 8.00  28.39 2690.98
   05:02:43.434.24-Feb-2020 3303.51 5679.97 55.52 8.00  28.59 2690.98
   05:02:43.634.24-Feb-2020 3303.51 5680.28 55.52 8.00  28.79 2690.98
   05:02:43.834.24-Feb-2020 3303.51 5680.28 55.52 8.00  28.99 2690.98
   05:02:44.034.24-Feb-2020 3303.51 5680.28 55.52 8.00  29.19 2690.98
   05:02:44.234.24-Feb-2020 3303.51 5680.38 55.52 8.00  29.39 2690.98
   05:02:44.434.24-Feb-2020 3303.51 5680.33 55.52 8.00  29.59 2690.98
   05:02:44.634.24-Feb-2020 3303.51 5680.11 55.52 8.00  29.79 2690.98
   05:02:44.834.24-Feb-2020 3303.51 5680.41 55.52 8.00  29.99 2690.98
   05:02:45.034.24-Feb-2020 3303.51 5680.41 55.52 8.00  30.19 2690.98
   05:02:45.234.24-Feb-2020 3303.51 5680.82 55.52 8.00  30.39 2690.98
   05:02:45.434.24-Feb-2020 3303.51 5680.98 55.52 8.00  30.59 2690.98
   05:02:45.634.24-Feb-2020 3303.51 5680.75 55.52 8.00  30.79 2690.98
   05:02:45.834.24-Feb-2020 3303.51 5679.13 55.52 8.00  30.99 2690.98
   05:02:46.034.24-Feb-2020 3303.51 5679.13 55.52 8.00  31.19 2690.98
   05:02:46.234.24-Feb-2020 3303.51 5678.69 55.52 8.00  31.39 2690.98
   05:02:46.433.24-Feb-2020 3303.51 5678.59 55.52 8.00  31.59 2690.98
   05:02:46.633.24-Feb-2020 3303.51 5680.47 55.52 8.00  31.79 2690.98
   05:02:46.833.24-Feb-2020 3303.51 5678.34 55.52 8.00  31.99 2690.98
   05:02:47.033.24-Feb-2020 3303.51 5678.34 55.52 8.00  32.19 2690.98
   05:02:47.233.24-Feb-2020 3303.51 5678.91 55.52 8.00  32.39 2690.98
   05:02:47.433.24-Feb-2020 3303.51 5679.53 55.52 8.00  32.59 2690.98
   05:02:47.633.24-Feb-2020 3303.51 5679.88 55.52 8.00  32.79 2690.98
   05:02:47.833.24-Feb-2020 3303.51 5678.94 55.52 8.00  32.99 2690.98
   05:02:48.033.24-Feb-2020 3303.51 5678.94 55.52 8.00  33.19 2690.98
   05:02:48.233.24-Feb-2020 3303.51 5679.90 55.52 8.00  33.39 2690.98
   05:02:48.433.24-Feb-2020 3303.51 5680.84 55.52 8.00  33.59 2690.98
   05:02:48.633.24-Feb-2020 3303.51 5682.45 55.52 8.00  33.79 2690.98
   05:02:48.833.24-Feb-2020 3303.51 5683.56 55.52 8.00  33.99 2690.98
   05:02:49.033.24-Feb-2020 3303.51 5684.73 55.52 8.00  34.19 2690.98
   05:02:49.233.24-Feb-2020 3303.51 5684.20 55.52 8.00  34.39 2690.98
   05:02:49.433.24-Feb-2020 3303.51 5692.61 55.52 8.00  34.59 2690.98
   05:02:49.633.24-Feb-2020 3303.51 5684.34 55.52 8.00  34.79 2690.98
   05:02:49.832.24-Feb-2020 3303.51 5685.31 55.52 8.00  34.99 2690.98
   05:02:50.032.24-Feb-2020 3303.51 5685.31 55.52 8.00  35.19 2690.98
   05:02:50.232.24-Feb-2020 3303.51 5686.91 55.52 8.00  35.39 2690.98
   05:02:50.432.24-Feb-2020 3303.51 5696.59 55.52 8.00  35.59 2690.98
   05:02:50.632.24-Feb-2020 3303.51 5688.68 55.52 8.00  35.79 2690.98
   05:02:50.832.24-Feb-2020 3303.51 5689.14 55.52 8.00  35.99 2690.98
   05:02:51.032.24-Feb-2020 3303.51 5689.14 55.52 8.00  36.19 2690.98
   05:02:51.232.24-Feb-2020 3303.51 5694.41 55.52 8.00  36.39 2690.98
   05:02:51.432.24-Feb-2020 3303.51 5692.63 55.52 8.00  36.59 2690.98
   05:02:51.632.24-Feb-2020 3303.51 5691.72 55.52 8.00  36.79 2690.98
   05:02:51.832.24-Feb-2020 3303.51 5689.91 55.52 8.00  36.99 2690.98
   05:02:52.032.24-Feb-2020 3303.51 5689.91 55.52 8.00  37.19 2690.98
   05:02:52.232.24-Feb-2020 3303.51 5689.77 55.51 8.00  37.39 2690.98
   05:02:52.432.24-Feb-2020 3303.51 5693.37 55.51 8.00  37.59 2690.98
   05:02:52.632.24-Feb-2020 3303.51 5689.88 55.51 8.00  37.79 2690.98
   05:02:52.832.24-Feb-2020 3303.51 5690.34 55.51 8.00  37.99 2690.98
   05:02:53.032.24-Feb-2020 3303.51 5689.84 55.51 8.00  38.19 2690.98
   05:02:53.231.24-Feb-2020 3303.51 5690.47 55.51 8.00  38.39 2690.98
   05:02:53.431.24-Feb-2020 3303.51 5689.82 55.51 8.00  38.59 2690.98
   05:02:53.631.24-Feb-2020 3303.51 5690.25 55.51 8.00  38.79 2690.98
   05:02:53.831.24-Feb-2020 3303.51 5690.65 55.51 8.00  38.99 2690.98
   05:02:54.031.24-Feb-2020 3303.51 5690.65 55.51 8.00  39.19 2690.98
   05:02:54.231.24-Feb-2020 3303.51 5691.20 55.51 8.00  39.39 2690.98
   05:02:54.431.24-Feb-2020 3303.51 5691.36 55.51 8.00  39.59 2690.98
   05:02:54.631.24-Feb-2020 3303.51 5691.21 55.51 8.00  39.79 2690.98
   05:02:54.831.24-Feb-2020 3303.51 5691.67 55.51 8.00  39.99 2690.98
   05:02:55.031.24-Feb-2020 3303.51 5691.67 55.51 8.00  40.19 2690.98
   05:02:55.231.24-Feb-2020 3303.51 5692.24 55.51 8.00  40.39 2690.98
   05:02:55.431.24-Feb-2020 3303.51 5692.45 55.51 8.00  40.59 2690.98
   05:02:55.631.24-Feb-2020 3303.51 5691.76 55.51 8.00  40.79 2690.98
   05:02:55.831.24-Feb-2020 3303.51 5690.08 55.51 8.00  40.99 2690.98
   05:02:56.031.24-Feb-2020 3303.51 5690.08 55.51 8.00  41.19 2690.98
   05:02:56.231.24-Feb-2020 3303.51 5686.14 55.51 8.00  41.39 2690.98
   05:02:56.431.24-Feb-2020 3303.51 5691.61 55.51 8.00  41.59 2690.98
   05:02:56.630.24-Feb-2020 3303.51 5688.81 55.51 8.00  41.79 2690.98
   05:02:56.830.24-Feb-2020 3303.51 5688.55 55.51 8.00  41.99 2690.98
   05:02:57.030.24-Feb-2020 3303.51 5687.90 55.51 8.00  42.19 2690.98
   05:02:57.230.24-Feb-2020 3303.51 5688.22 55.51 8.00  42.39 2690.98
   05:02:57.430.24-Feb-2020 3303.51 5661.94 55.51 8.00  42.59 2690.98
   05:02:57.630.24-Feb-2020 3303.51 5591.81 55.51 8.00  42.79 2690.98
   05:02:57.830.24-Feb-2020 3303.51 5602.65 55.51 8.00  42.99 2690.98
   05:02:58.030.24-Feb-2020 3303.51 5602.65 55.51 8.00  43.19 2690.98
   05:02:58.230.24-Feb-2020 3303.51 5649.75 55.51 8.00  43.39 2690.98
   05:02:58.430.24-Feb-2020 3303.51 5664.62 55.51 8.00  43.59 2690.98
   05:02:58.630.24-Feb-2020 3303.51 5677.02 55.51 8.00  43.79 2690.98
   05:02:58.830.24-Feb-2020 3303.51 5688.09 55.51 8.00  43.99 2690.98
   05:02:59.030.24-Feb-2020 3303.51 5688.09 55.51 8.00  44.19 2690.98
   05:02:59.230.24-Feb-2020 3303.51 5711.37 55.51 8.00  44.39 2690.98
   05:02:59.430.24-Feb-2020 3303.51 5725.63 55.51 8.00  44.59 2690.98
   05:02:59.630.24-Feb-2020 3303.51 5741.37 55.51 8.00  44.79 2690.98
   05:02:59.830.24-Feb-2020 3303.51 5759.04 55.51 8.00  44.99 2690.98
   05:03:00.029.24-Feb-2020 3303.51 5759.04 55.51 8.00  45.19 2690.98
   05:03:00.229.24-Feb-2020 3303.51 5784.43 55.51 8.00  45.39 2690.98
   05:03:00.429.24-Feb-2020 3303.51 5797.10 55.51 8.00  45.59 2690.98
   05:03:00.629.24-Feb-2020 3303.51 5810.44 55.51 8.00  45.79 2690.98
