~Version Information
 VERS.                  2.0:   CWLS log ASCII Standard -VERSION 2.0
 WRAP.                   NO:   One line per depth step
~Well Information Block
#MNEM.UNIT     VALUE/NAME     DESCRIPTION
#---------     -----------    ---------------------------
 STRT.S             02:47:37 24-Feb-20: START TIME 02:47:37 24-Feb-20
 STOP.S             02:54:57 24-Feb-20: STOP TIME  02:54:57 24-Feb-20
 STEP.S                   0.00: STEP TIME
 NULL.                 -999.25: NULL VALUE
 JOBN.        AZ-XX-0905059384:  JOB TICKET NUMB
 PDAT.          Mean Sea Level:  PERMANENT DATUM
 UNIT.                     N/A:  LOGGING EQUIPMENT ID
 DCON.         Sperry Drilling:  DIRECTNL CONTR
 DOE .                     N/A:  DOE NUMBER
 RIG .             West Chirag:  RIG NAME
 WELL.                     J22:  WELL NAME
 MWDS.                    Baku:  MWD SHOP
 SRVC.     TURAN Drilling & Engineering:  CONTRACTOR
 FLD .                     ACG:  FIELD NAME
 CTRY.              Azerbaijan:  COUNTRY NAME
 PROV.                    Baku:  PROVINCE
 STAT.                    Baku:  STATE NAME
 REGN.                   EESSA:  REGION
 BASE.              Azerbaijan:  LOGGING EQUIPMENT BASE LOCATION
 UWI .                     N/A:  UNIQUE WELL IDENTIFIER
 API .                     N/A:  API NUMBER
 COMP.     BP Exploration (Caspian Sea) Ltd.:  COMPANY
 WTYP.                Deviated:  WELL TYPE
 MDS .        Operator Entered:  MAG DATA SOURCE
 SON .        AZ-XX-0905059384:  JOB NUMBER
 FTOP.          Formation Tops:  FORM TOPS DESC
 ILTD.               Lithology:  INTERP LTH DESC
 SVYD.                  Survey:  SURVEY DESC
 DMOD.             Drill Model:  DRILL MOD DESC
 HPTY.       Minimum Curvature:  HOLE POS TYPE
 NREF.                    Grid:  NORTH REFERENCE
 SPUD.               09-Jan-20:  SPUD DATE
 DATE.      14.04.48 07-Feb-20:  END TIME
 STIM.      07.00.00 09-Jan-20:  START TIME
 DMF .             Drill Floor:  DRILL MEAS FROM
 DFST.                        :  DIST FSL TEXT
 DFWT.                        :  DIST FWL TEXT
 CNTY.                        :  COUNTY
 LOC .                        :  LOCATION
 LMF .             Drill Floor:  LOG MEASURED FROM
 DEP .m                   0.00:  DEPTH
 VSNS.m                  10.28:  VERT SEC N/S
 VSEW.m                  -6.24:  VERT SEC E/W
 AGAP.m                  43.00:  AIR GAP
 APD .m                  43.00:  DEPTH ABOVE PD
 WDMS.m                 169.80:  WD ELEV
 EGL .m                   0.00:  GROUND ELEVATION
 EPD .m                   0.00:  ELEVATION
 AZTC.deg                 6.27:  AZM TOTAL CORR
 GRDC.deg                 0.15:  GRID CORRECTION
 MDEC.deg                 6.42:  MAGNETIC DECL
 MDIP.deg                59.56:  MAGNETIC DIP
 MFLD.nT              50277.00:  MAGNETIC FIELD
 GVFD.g                   1.00:  GRAVITY FIELD
 VSDR.deg               148.53:  VERT SEC DIRECT
 TDD .m                3473.01:  TOTAL DEPTH (DRILLER)
 SDEP.m                 364.00:  START DEPTH
 DFSL.m                   0.00:  DISTANCE FSL
 DFWL.m                   0.00:  DISTANCE FWL
 UTMY.m             4443793.85:  UTM Y
 UTMX.m              519005.06:  UTM X
 WHEW.m                  -6.24:  WELL HEAD E/W
 WHNS.m                  10.28:  WELL HEAD N/S
 LONG.deg                51.22:  LONGITUDE
 LATI.deg                40.13:  LATITUDE
 TVDS.m                  43.00:  TVDSS CORRECTN
 EKB .m                   0.00:  KB ELEVATION
 EDF .m                  43.00:  DF ELEVATION
 TDL .m                 254.00:  TOTAL DEPTH (LOGGER)
 MAGU.                 1850021:  MAGUTM CHECKSUM
 VSC .                       0:  VS TO CLOSURE
~Parameter Information Block
#MNEM.UNIT       Value        Description
#---------     -----------    ---------------------------
 AV  .mps                 0.50:  Ann Velocity 
 AVMX.mps                 1.40:  Max Ann Veloc 
 AZIF.deg               144.94:  Azm, Final 
 BHAT.        Rotary Steerable:  BHA Type 
 BROT.°/30m               0.23:  Build Rotating 
 BS  .in                  8.50:  Bit Size 
 BTPL.psig              264.00:  Bit Press Loss 
 CABU.                     Yes:  Customer Abuse 
 COMM.                     D
_:  Run Comments 1 
 TCS .hr                 87.30:  Time Ciculation Ended 
 CV  .mps                 2.45:  Crit Velocity 
 CVMX.mps                 2.74:  Max Crit Veloc 
 DD1 .             Aziz Aliyev:  Direct Drillr 1 
 DDSV.               Geo-Pilot:  DD Service 
 DEFF.%                 100.00:  % Det Eff 
 DLRX.°/30m               1.22:  Dogleg Rot Max 
 DLSO.°/30m               0.52:  Dogleg Oriented 
 DLSX.°/30m               1.22:  Dogleg Str Max 
 DRET.      12.59.00 23-Feb-20:  Drill End Time 
 DRST.      09.44.00 18-Feb-20:  Drill Start Tim 
 DTIM.hr                 23.03:  Time Drilling 
 EDEP.m                3473.01:  End Depth 
 ENG1.         Almaz Almadatov:  Engineer 1 
 ENG2.         Dair Mahammadov:  Engineer 2 
 ENG3.          Nazrin Asgarli:  Engineer 3 
 ETIM.      10.33.36 26-Feb-20:  End Time 
 FLOI.gpm               480.00:  Flow In 
 FLON.gpm               300.00:  Flow In Min 
 FLOS.cptm                1.00:  Fluid Loss 
 FLOX.gpm               550.00:  Flow In Max 
 HFLO.                      No:  High Flow 
 HPRE.                      No:  High Pressure 
 HTEM.                      No:  High Temp 
 HYDO.m                   1.80:  Hydro Offset 
 IFIN.deg                74.42:  Inc, Final 
 IMAX.deg                76.14:  Inc Max 
 IMIN.deg                74.42:  Inc Min 
 IMND.m                3462.72:  Inc Min Depth 
 IMXD.m                3235.69:  Inc Max Depth 
 JARR.                      No:  Jarring 
 LETM.      12.59.00 23-Feb-20:  Log End Time 
 LOST.hr                     0:  Lost Rig Time 
 LSTM.      09.44.00 18-Feb-20:  Log Start Time 
 MDCL.ppm             45000.00:  Mud Chlorides 
 MDES.     Inversion Oil/Synthetic:  Mud Desc 
 DFD .sg                  1.38:  Mud Density 
 MDMN.sg                  1.34:  Dens Mud Min 
 MDMX.sg                  1.49:  Dens Mud Max 
 MOIL.                      67:  Run Mud Oil % 
 MOWR.                   67:33:  Run Mud OWR 
 MSND.                    0.12:  Run Mud Sand % 
 MSOL.                      22:  Run Mud Solids% 
 DFV .spqt               81.00:  Mud Viscosity 
 MWOD.in                  6.75:  MWD Tool OD 
 MWSI.                      No:  Serv Intrp, MWD 
 OTIM.hr                231.44:  Time Operating 
 PCON.          Wear / Scratch:  Pad Condition 
 PMAX.psia             3400.00:  Press Op, Max 
 PV  .cP                 55.00:  Mud PV 
 RUN .                     800:  Run Number 
 ROPA.m/hr               12.00:  ROP Avg 
 ROPN.m/hr                5.00:  ROP Min 
 ROPX.m/hr               28.00:  ROP Max 
 RPMA.rpm               120.00:  RPM Surface Avg 
 RPMN.rpm                40.00:  RPM Surface Min 
 RPMX.rpm               130.00:  RPM Surface Max 
 RRUN.                    0800:  Rig Run Number 
 RTIM.hr                 45.00:  Time Reaming 
 SAZI.deg               145.38:  Azm, Start 
 SDEP.m                3219.01:  Start Depth 
 SIDD.                      No:  Serv Intrp, DD 
 SINC.deg                75.11:  Inc, Start 
 SPPA.psig             2400.00:  SPP Avg 
 SPPN.psig             2320.00:  SPP Min 
 SPPX.psig             3200.00:  SPP Max 
 STIM.      15.15.00 17-Feb-20:  Start Time 
 SVCS.                 DD, MWD:  Services 
 SVER.                    9.20:  Sperry Version 
 TDAT.m                 254.00:  Tot Depth Attmp 
 TDDF.                      No:  Trip for DD 
 TDLG.m                 254.00:  Tot Depth Loggd 
 TFF .                      No:  Trip for Fail 
 TQAA.f-kp               13.00:  Torque Abs Avg 
 TQAN.f-kp                7.00:  Torque Abs Min 
 TQAX.f-kp               15.00:  Torque Abs Max 
 TRRT.°/30m               0.21:  Turn Rotating 
 MRT .                  EWR-M5:  Maximum Recorded Temperature 
 TTMX.degC               64.00:  Max Tool Temp 
 VS01.                90586516:  Virtual Str1 SN 
 VS02.                90513691:  Virtual Str2 SN 
 VS03.                90586523:  Virtual Str3 SN 
 VS04.                90586520:  Virtual Str4 SN 
 VS05.                90590507:  Virtual Str5 SN 
 WBMN.klb                12.00:  WOB Min 
 WITN.           Rufat Babayev:  Customer Rep 2 
 WITN.         Alistair Sprott:  Customer Rep 
 WOBA.klb                18.00:  WOB Avg 
 WOBX.klb                30.00:  WOB Max 
 YP  .lhf2               41.00:  Yield Point 
~Curve Information Block
#MNEM.UNIT                 API CODE     Curve Description
#---------               -----------    ---------------------------
 TIME.HHMMSS            00 000 000 000:  GT Time & Date
 GTDEPTH.m              00 000 000 000:  GT Depth
 GTPQH.psia             00 000 000 000:  GT HR Quartz Pressure
 GTTQ.degC              00 000 000 000:  GT Quartz Temperature
 GTTN.NONE              00 000 000 000:  GT Test Number
 GTET.sec               00 000 000 000:  GT Elapsed Test Time
 GTTVD.m                00 000 000 000:  GT True Vertical Depth
#Other Information
#
#WARRANTY: Halliburton will use its best efforts to furnish customers with 
#accurate information and interpretations that are part of, and incident to, the services 
#provided.  However, Halliburton cannot and does not warrant the accuracy 
#or correctness of such information and interpretations.  Under no circumstances should any 
#such information or interpretation be relied upon as the sole basis for any drilling, 
#completion, production, or financial decision or any procedure involving any risk to the 
#safety of any drilling venture, drilling rig or its crew or any other third party.  The 
#Customer has full responsibility for all drilling, completion and production operation.  
#Halliburton makes no representations or warranties, either expressed or 
#implied, including, but not limited to, the implied warranties of merchantability or fitness 
#for a particular purpose, with respect to the services rendered.  In no event will 
#Halliburton be liable for failure to obtain any particular results or for 
#any damages, including, but not limited to, indirect, special or consequential damages, 
#resulting from the use of any information or interpretation provided by Halliburton.
#
~A           TIME           GTDEPTH  GTPQH  GTTQ  GTTN  GTET   GTTVD  
# ...
   02:49:32.393.24-Feb-2020 3375.51 4204.76 55.86 5.00 115.05 2709.14
   02:49:32.593.24-Feb-2020 3375.51 4204.76 55.86 5.00 115.25 2709.14
   02:49:32.794.24-Feb-2020 3375.51 4204.18 55.86 5.00 115.45 2709.14
   02:49:32.994.24-Feb-2020 3375.51 4204.13 55.86 5.00 115.65 2709.14
   02:49:33.194.24-Feb-2020 3375.51 4204.07 55.86 5.00 115.85 2709.14
   02:49:33.394.24-Feb-2020 3375.51 4204.14 55.86 5.00 116.05 2709.14
   02:49:33.594.24-Feb-2020 3375.51 4204.14 55.86 5.00 116.25 2709.14
   02:49:33.794.24-Feb-2020 3375.51 4204.10 55.86 5.00 116.45 2709.14
   02:49:33.994.24-Feb-2020 3375.51 4204.11 55.86 5.00 116.65 2709.14
   02:49:34.194.24-Feb-2020 3375.51 4204.09 55.86 5.00 116.85 2709.14
   02:49:34.394.24-Feb-2020 3375.51 4204.11 55.86 5.00 117.05 2709.14
   02:49:34.594.24-Feb-2020 3375.51 4204.11 55.86 5.00 117.25 2709.14
   02:49:34.794.24-Feb-2020 3375.51 4204.15 55.86 5.00 117.45 2709.14
   02:49:34.994.24-Feb-2020 3375.51 4204.09 55.86 5.00 117.65 2709.14
   02:49:35.195.24-Feb-2020 3375.51 4204.09 55.86 5.00 117.85 2709.14
   02:49:35.395.24-Feb-2020 3375.51 4204.10 55.86 5.00 118.05 2709.14
   02:49:35.595.24-Feb-2020 3375.51 4204.10 55.86 5.00 118.25 2709.14
   02:49:35.795.24-Feb-2020 3375.51 4204.21 55.86 5.00 118.45 2709.14
   02:49:35.995.24-Feb-2020 3375.51 4204.01 55.86 5.00 118.65 2709.14
   02:49:36.195.24-Feb-2020 3375.51 4204.17 55.86 5.00 118.85 2709.14
   02:49:36.395.24-Feb-2020 3375.51 4204.07 55.86 5.00 119.05 2709.14
   02:49:36.595.24-Feb-2020 3375.51 4204.07 55.86 5.00 119.25 2709.14
   02:49:36.795.24-Feb-2020 3375.51 4204.10 55.86 5.00 119.45 2709.14
   02:49:36.995.24-Feb-2020 3375.51 4204.13 55.86 5.00 119.65 2709.14
   02:49:37.195.24-Feb-2020 3375.51 4204.11 55.86 5.00 119.85 2709.14
   02:49:37.395.24-Feb-2020 3375.51 4204.09 55.86 5.00 120.05 2709.14
   02:49:37.595.24-Feb-2020 3375.51 4204.09 55.86 5.00 120.25 2709.14
   02:49:37.796.24-Feb-2020 3375.51 4204.10 55.86 5.00 120.45 2709.14
   02:49:37.996.24-Feb-2020 3375.51 4204.11 55.86 5.00 120.65 2709.14
   02:49:38.196.24-Feb-2020 3375.51 4204.12 55.86 5.00 120.85 2709.14
   02:49:38.396.24-Feb-2020 3375.51 4204.10 55.86 5.00 121.05 2709.14
   02:49:38.596.24-Feb-2020 3375.51 4204.10 55.86 5.00 121.25 2709.14
   02:49:38.796.24-Feb-2020 3375.51 4204.66 55.86 5.00 121.45 2709.14
   02:49:38.996.24-Feb-2020 3375.51 4203.98 55.86 5.00 121.65 2709.14
   02:49:39.196.24-Feb-2020 3375.51 4204.14 55.86 5.00 121.85 2709.14
   02:49:39.396.24-Feb-2020 3375.51 4204.09 55.86 5.00 122.05 2709.14
   02:49:39.596.24-Feb-2020 3375.51 4204.09 55.86 5.00 122.25 2709.14
   02:49:39.796.24-Feb-2020 3375.51 4204.70 55.86 5.00 122.45 2709.14
   02:49:39.996.24-Feb-2020 3375.51 4203.99 55.86 5.00 122.65 2709.14
   02:49:40.197.24-Feb-2020 3375.51 4204.18 55.86 5.00 122.85 2709.14
   02:49:40.397.24-Feb-2020 3375.51 4204.07 55.86 5.00 123.05 2709.14
   02:49:40.597.24-Feb-2020 3375.51 4204.07 55.86 5.00 123.25 2709.14
   02:49:40.797.24-Feb-2020 3375.51 4203.69 55.86 5.00 123.45 2709.14
   02:49:40.997.24-Feb-2020 3375.51 4204.72 55.86 5.00 123.65 2709.14
   02:49:41.197.24-Feb-2020 3375.51 4204.04 55.86 5.00 123.85 2709.14
   02:49:41.397.24-Feb-2020 3375.51 4204.19 55.86 5.00 124.05 2709.14
   02:49:41.597.24-Feb-2020 3375.51 4204.19 55.86 5.00 124.25 2709.14
   02:49:41.797.24-Feb-2020 3375.51 4204.04 55.86 5.00 124.45 2709.14
   02:49:41.997.24-Feb-2020 3375.51 4204.23 55.86 5.00 124.65 2709.14
   02:49:42.197.24-Feb-2020 3375.51 4204.17 55.86 5.00 124.85 2709.14
   02:49:42.397.24-Feb-2020 3375.51 4204.03 55.86 5.00 125.05 2709.14
   02:49:42.597.24-Feb-2020 3375.51 4204.03 55.86 5.00 125.25 2709.14
   02:49:42.798.24-Feb-2020 3375.51 4204.10 55.86 5.00 125.45 2709.14
   02:49:42.998.24-Feb-2020 3375.51 4204.09 55.86 5.00 125.65 2709.14
   02:49:43.198.24-Feb-2020 3375.51 4204.04 55.86 5.00 125.85 2709.14
   02:49:43.398.24-Feb-2020 3375.51 4204.10 55.85 5.00 126.05 2709.14
   02:49:43.598.24-Feb-2020 3375.51 4204.11 55.85 5.00 126.25 2709.14
   02:49:43.798.24-Feb-2020 3375.51 4204.06 55.85 5.00 126.45 2709.14
   02:49:43.998.24-Feb-2020 3375.51 4204.10 55.85 5.00 126.65 2709.14
   02:49:44.198.24-Feb-2020 3375.51 4204.06 55.85 5.00 126.85 2709.14
   02:49:44.398.24-Feb-2020 3375.51 4204.08 55.85 5.00 127.05 2709.14
   02:49:44.598.24-Feb-2020 3375.51 4204.08 55.85 5.00 127.25 2709.14
   02:49:44.798.24-Feb-2020 3375.51 4204.09 55.85 5.00 127.45 2709.14
   02:49:44.998.24-Feb-2020 3375.51 4203.56 55.85 5.00 127.65 2709.14
   02:49:45.199.24-Feb-2020 3375.51 4204.58 55.85 5.00 127.85 2709.14
   02:49:45.399.24-Feb-2020 3375.51 4204.25 55.85 5.00 128.05 2709.14
   02:49:45.599.24-Feb-2020 3375.51 4204.25 55.85 5.00 128.25 2709.14
   02:49:45.799.24-Feb-2020 3375.51 4204.11 55.85 5.00 128.45 2709.14
   02:49:45.999.24-Feb-2020 3375.51 4204.01 55.85 5.00 128.65 2709.14
   02:49:46.199.24-Feb-2020 3375.51 4204.05 55.85 5.00 128.85 2709.14
   02:49:46.399.24-Feb-2020 3375.51 4204.06 55.85 5.00 129.05 2709.14
   02:49:46.599.24-Feb-2020 3375.51 4204.06 55.85 5.00 129.25 2709.14
   02:49:46.799.24-Feb-2020 3375.51 4204.07 55.85 5.00 129.45 2709.14
   02:49:46.999.24-Feb-2020 3375.51 4204.07 55.85 5.00 129.65 2709.14
   02:49:47.199.24-Feb-2020 3375.51 4204.01 55.85 5.00 129.85 2709.14
   02:49:47.399.24-Feb-2020 3375.51 4204.04 55.85 5.00 130.05 2709.14
   02:49:47.600.24-Feb-2020 3375.51 4204.04 55.85 5.00 130.25 2709.14
   02:49:47.800.24-Feb-2020 3375.51 4204.09 55.85 5.00 130.45 2709.14
   02:49:48.000.24-Feb-2020 3375.51 4204.07 55.85 5.00 130.65 2709.14
   02:49:48.200.24-Feb-2020 3375.51 4204.01 55.85 5.00 130.85 2709.14
   02:49:48.400.24-Feb-2020 3375.51 4204.17 55.85 5.00 131.05 2709.14
   02:49:48.600.24-Feb-2020 3375.51 4204.17 55.85 5.00 131.25 2709.14
   02:49:48.800.24-Feb-2020 3375.51 4203.98 55.85 5.00 131.45 2709.14
   02:49:49.000.24-Feb-2020 3375.51 4203.99 55.85 5.00 131.65 2709.14
   02:49:49.200.24-Feb-2020 3375.51 4204.08 55.85 5.00 131.85 2709.14
   02:49:49.400.24-Feb-2020 3375.51 4204.16 55.85 5.00 132.05 2709.14
   02:49:49.600.24-Feb-2020 3375.51 4204.16 55.85 5.00 132.25 2709.14
   02:49:49.800.24-Feb-2020 3375.51 4204.01 55.85 5.00 132.45 2709.14
   02:49:50.000.24-Feb-2020 3375.51 4203.98 55.85 5.00 132.65 2709.14
   02:49:50.201.24-Feb-2020 3375.51 4204.08 55.85 5.00 132.85 2709.14
   02:49:50.401.24-Feb-2020 3375.51 4204.08 55.85 5.00 133.05 2709.14
   02:49:50.601.24-Feb-2020 3375.51 4204.08 55.85 5.00 133.25 2709.14
   02:49:50.801.24-Feb-2020 3375.51 4204.20 55.85 5.00 133.45 2709.14
   02:49:51.001.24-Feb-2020 3375.51 4204.20 55.85 5.00 133.65 2709.14
   02:49:51.201.24-Feb-2020 3375.51 4203.99 55.85 5.00 133.85 2709.14
   02:49:51.401.24-Feb-2020 3375.51 4204.06 55.85 5.00 134.05 2709.14
   02:49:51.601.24-Feb-2020 3375.51 4204.06 55.85 5.00 134.25 2709.14
   02:49:51.801.24-Feb-2020 3375.51 4204.03 55.85 5.00 134.45 2709.14
   02:49:52.001.24-Feb-2020 3375.51 4204.14 55.85 5.00 134.65 2709.14
   02:49:52.201.24-Feb-2020 3375.51 4203.95 55.85 5.00 134.85 2709.14
   02:49:52.401.24-Feb-2020 3375.51 4204.12 55.85 5.00 135.05 2709.14
   02:49:52.602.24-Feb-2020 3375.51 4204.12 55.85 5.00 135.25 2709.14
   02:49:52.802.24-Feb-2020 3375.51 4204.00 55.85 5.00 135.45 2709.14
   02:49:53.002.24-Feb-2020 3375.51 4204.08 55.85 5.00 135.65 2709.14
   02:49:53.202.24-Feb-2020 3375.51 4204.03 55.85 5.00 135.85 2709.14
   02:49:53.402.24-Feb-2020 3375.51 4204.06 55.85 5.00 136.05 2709.14
   02:49:53.602.24-Feb-2020 3375.51 4204.06 55.85 5.00 136.25 2709.14
   02:49:53.802.24-Feb-2020 3375.51 4204.03 55.85 5.00 136.45 2709.14
   02:49:54.002.24-Feb-2020 3375.51 4204.06 55.85 5.00 136.65 2709.14
   02:49:54.202.24-Feb-2020 3375.51 4204.07 55.85 5.00 136.85 2709.14
   02:49:54.402.24-Feb-2020 3375.51 4204.05 55.85 5.00 137.05 2709.14
   02:49:54.602.24-Feb-2020 3375.51 4204.05 55.85 5.00 137.25 2709.14
   02:49:54.802.24-Feb-2020 3375.51 4204.57 55.85 5.00 137.46 2709.14
   02:49:55.002.24-Feb-2020 3375.51 4203.96 55.85 5.00 137.66 2709.14
   02:49:55.203.24-Feb-2020 3375.51 4204.14 55.85 5.00 137.86 2709.14
