~Version Information
 VERS.                  2.0:   CWLS log ASCII Standard -VERSION 2.0
 WRAP.                   NO:   One line per depth step
~Well Information Block
#MNEM.UNIT     VALUE/NAME     DESCRIPTION
#---------     -----------    ---------------------------
 STRT.S             00:23:32 24-Feb-20: START TIME 00:23:32 24-Feb-20
 STOP.S             00:30:40 24-Feb-20: STOP TIME  00:30:40 24-Feb-20
 STEP.S                   0.00: STEP TIME
 NULL.                 -999.25: NULL VALUE
 JOBN.        AZ-XX-0905059384:  JOB TICKET NUMB
 PDAT.          Mean Sea Level:  PERMANENT DATUM
 UNIT.                     N/A:  LOGGING EQUIPMENT ID
 DCON.         Sperry Drilling:  DIRECTNL CONTR
 DOE .                     N/A:  DOE NUMBER
 RIG .             West Chirag:  RIG NAME
 WELL.                     J22:  WELL NAME
 MWDS.                    Baku:  MWD SHOP
 SRVC.     TURAN Drilling & Engineering:  CONTRACTOR
 FLD .                     ACG:  FIELD NAME
 CTRY.              Azerbaijan:  COUNTRY NAME
 PROV.                    Baku:  PROVINCE
 STAT.                    Baku:  STATE NAME
 REGN.                   EESSA:  REGION
 BASE.              Azerbaijan:  LOGGING EQUIPMENT BASE LOCATION
 UWI .                     N/A:  UNIQUE WELL IDENTIFIER
 API .                     N/A:  API NUMBER
 COMP.     BP Exploration (Caspian Sea) Ltd.:  COMPANY
 WTYP.                Deviated:  WELL TYPE
 MDS .        Operator Entered:  MAG DATA SOURCE
 SON .        AZ-XX-0905059384:  JOB NUMBER
 FTOP.          Formation Tops:  FORM TOPS DESC
 ILTD.               Lithology:  INTERP LTH DESC
 SVYD.                  Survey:  SURVEY DESC
 DMOD.             Drill Model:  DRILL MOD DESC
 HPTY.       Minimum Curvature:  HOLE POS TYPE
 NREF.                    Grid:  NORTH REFERENCE
 SPUD.               09-Jan-20:  SPUD DATE
 DATE.      14.04.48 07-Feb-20:  END TIME
 STIM.      07.00.00 09-Jan-20:  START TIME
 DMF .             Drill Floor:  DRILL MEAS FROM
 DFST.                        :  DIST FSL TEXT
 DFWT.                        :  DIST FWL TEXT
 CNTY.                        :  COUNTY
 LOC .                        :  LOCATION
 LMF .             Drill Floor:  LOG MEASURED FROM
 DEP .m                   0.00:  DEPTH
 VSNS.m                  10.28:  VERT SEC N/S
 VSEW.m                  -6.24:  VERT SEC E/W
 AGAP.m                  43.00:  AIR GAP
 APD .m                  43.00:  DEPTH ABOVE PD
 WDMS.m                 169.80:  WD ELEV
 EGL .m                   0.00:  GROUND ELEVATION
 EPD .m                   0.00:  ELEVATION
 AZTC.deg                 6.27:  AZM TOTAL CORR
 GRDC.deg                 0.15:  GRID CORRECTION
 MDEC.deg                 6.42:  MAGNETIC DECL
 MDIP.deg                59.56:  MAGNETIC DIP
 MFLD.nT              50277.00:  MAGNETIC FIELD
 GVFD.g                   1.00:  GRAVITY FIELD
 VSDR.deg               148.53:  VERT SEC DIRECT
 TDD .m                3473.01:  TOTAL DEPTH (DRILLER)
 SDEP.m                 364.00:  START DEPTH
 DFSL.m                   0.00:  DISTANCE FSL
 DFWL.m                   0.00:  DISTANCE FWL
 UTMY.m             4443793.85:  UTM Y
 UTMX.m              519005.06:  UTM X
 WHEW.m                  -6.24:  WELL HEAD E/W
 WHNS.m                  10.28:  WELL HEAD N/S
 LONG.deg                51.22:  LONGITUDE
 LATI.deg                40.13:  LATITUDE
 TVDS.m                  43.00:  TVDSS CORRECTN
 EKB .m                   0.00:  KB ELEVATION
 EDF .m                  43.00:  DF ELEVATION
 TDL .m                 254.00:  TOTAL DEPTH (LOGGER)
 MAGU.                 1850021:  MAGUTM CHECKSUM
 VSC .                       0:  VS TO CLOSURE
~Parameter Information Block
#MNEM.UNIT       Value        Description
#---------     -----------    ---------------------------
 AV  .mps                 0.50:  Ann Velocity 
 AVMX.mps                 1.40:  Max Ann Veloc 
 AZIF.deg               144.94:  Azm, Final 
 BHAT.        Rotary Steerable:  BHA Type 
 BROT.∞/30m               0.23:  Build Rotating 
 BS  .in                  8.50:  Bit Size 
 BTPL.psig              264.00:  Bit Press Loss 
 CABU.                     Yes:  Customer Abuse 
 COMM.                     ÙP`:  Run Comments 1 
 TCS .hr                 87.30:  Time Ciculation Ended 
 CV  .mps                 2.45:  Crit Velocity 
 CVMX.mps                 2.74:  Max Crit Veloc 
 DD1 .             Aziz Aliyev:  Direct Drillr 1 
 DDSV.               Geo-Pilot:  DD Service 
 DEFF.%                 100.00:  % Det Eff 
 DLRX.∞/30m               1.22:  Dogleg Rot Max 
 DLSO.∞/30m               0.52:  Dogleg Oriented 
 DLSX.∞/30m               1.22:  Dogleg Str Max 
 DRET.      12.59.00 23-Feb-20:  Drill End Time 
 DRST.      09.44.00 18-Feb-20:  Drill Start Tim 
 DTIM.hr                 23.03:  Time Drilling 
 EDEP.m                3473.01:  End Depth 
 ENG1.         Almaz Almadatov:  Engineer 1 
 ENG2.         Dair Mahammadov:  Engineer 2 
 ENG3.          Nazrin Asgarli:  Engineer 3 
 ETIM.      10.33.36 26-Feb-20:  End Time 
 FLOI.gpm               480.00:  Flow In 
 FLON.gpm               300.00:  Flow In Min 
 FLOS.cptm                1.00:  Fluid Loss 
 FLOX.gpm               550.00:  Flow In Max 
 HFLO.                      No:  High Flow 
 HPRE.                      No:  High Pressure 
 HTEM.                      No:  High Temp 
 HYDO.m                   1.80:  Hydro Offset 
 IFIN.deg                74.42:  Inc, Final 
 IMAX.deg                76.14:  Inc Max 
 IMIN.deg                74.42:  Inc Min 
 IMND.m                3462.72:  Inc Min Depth 
 IMXD.m                3235.69:  Inc Max Depth 
 JARR.                      No:  Jarring 
 LETM.      12.59.00 23-Feb-20:  Log End Time 
 LOST.hr                     0:  Lost Rig Time 
 LSTM.      09.44.00 18-Feb-20:  Log Start Time 
 MDCL.ppm             45000.00:  Mud Chlorides 
 MDES.     Inversion Oil/Synthetic:  Mud Desc 
 DFD .sg                  1.38:  Mud Density 
 MDMN.sg                  1.34:  Dens Mud Min 
 MDMX.sg                  1.49:  Dens Mud Max 
 MOIL.                      67:  Run Mud Oil % 
 MOWR.                   67:33:  Run Mud OWR 
 MSND.                    0.12:  Run Mud Sand % 
 MSOL.                      22:  Run Mud Solids% 
 DFV .spqt               81.00:  Mud Viscosity 
 MWOD.in                  6.75:  MWD Tool OD 
 MWSI.                      No:  Serv Intrp, MWD 
 OTIM.hr                231.44:  Time Operating 
 PCON.          Wear / Scratch:  Pad Condition 
 PMAX.psia             3400.00:  Press Op, Max 
 PV  .cP                 55.00:  Mud PV 
 RUN .                     800:  Run Number 
 ROPA.m/hr               12.00:  ROP Avg 
 ROPN.m/hr                5.00:  ROP Min 
 ROPX.m/hr               28.00:  ROP Max 
 RPMA.rpm               120.00:  RPM Surface Avg 
 RPMN.rpm                40.00:  RPM Surface Min 
 RPMX.rpm               130.00:  RPM Surface Max 
 RRUN.                    0800:  Rig Run Number 
 RTIM.hr                 45.00:  Time Reaming 
 SAZI.deg               145.38:  Azm, Start 
 SDEP.m                3219.01:  Start Depth 
 SIDD.                      No:  Serv Intrp, DD 
 SINC.deg                75.11:  Inc, Start 
 SPPA.psig             2400.00:  SPP Avg 
 SPPN.psig             2320.00:  SPP Min 
 SPPX.psig             3200.00:  SPP Max 
 STIM.      15.15.00 17-Feb-20:  Start Time 
 SVCS.                 DD, MWD:  Services 
 SVER.                    9.20:  Sperry Version 
 TDAT.m                 254.00:  Tot Depth Attmp 
 TDDF.                      No:  Trip for DD 
 TDLG.m                 254.00:  Tot Depth Loggd 
 TFF .                      No:  Trip for Fail 
 TQAA.f-kp               13.00:  Torque Abs Avg 
 TQAN.f-kp                7.00:  Torque Abs Min 
 TQAX.f-kp               15.00:  Torque Abs Max 
 TRRT.∞/30m               0.21:  Turn Rotating 
 MRT .                  EWR-M5:  Maximum Recorded Temperature 
 TTMX.degC               64.00:  Max Tool Temp 
 VS01.                90586516:  Virtual Str1 SN 
 VS02.                90513691:  Virtual Str2 SN 
 VS03.                90586523:  Virtual Str3 SN 
 VS04.                90586520:  Virtual Str4 SN 
 VS05.                90590507:  Virtual Str5 SN 
 WBMN.klb                12.00:  WOB Min 
 WITN.           Rufat Babayev:  Customer Rep 2 
 WITN.         Alistair Sprott:  Customer Rep 
 WOBA.klb                18.00:  WOB Avg 
 WOBX.klb                30.00:  WOB Max 
 YP  .lhf2               41.00:  Yield Point 
~Curve Information Block
#MNEM.UNIT                 API CODE     Curve Description
#---------               -----------    ---------------------------
 TIME.HHMMSS            00 000 000 000:  GT Time & Date
 GTDEPTH.m              00 000 000 000:  GT Depth
 GTPQH.psia             00 000 000 000:  GT HR Quartz Pressure
 GTTQ.degC              00 000 000 000:  GT Quartz Temperature
 GTTN.NONE              00 000 000 000:  GT Test Number
 GTET.sec               00 000 000 000:  GT Elapsed Test Time
 GTTVD.m                00 000 000 000:  GT True Vertical Depth
#Other Information
#
#WARRANTY: Halliburton will use its best efforts to furnish customers with 
#accurate information and interpretations that are part of, and incident to, the services 
#provided.  However, Halliburton cannot and does not warrant the accuracy 
#or correctness of such information and interpretations.  Under no circumstances should any 
#such information or interpretation be relied upon as the sole basis for any drilling, 
#completion, production, or financial decision or any procedure involving any risk to the 
#safety of any drilling venture, drilling rig or its crew or any other third party.  The 
#Customer has full responsibility for all drilling, completion and production operation.  
#Halliburton makes no representations or warranties, either expressed or 
#implied, including, but not limited to, the implied warranties of merchantability or fitness 
#for a particular purpose, with respect to the services rendered.  In no event will 
#Halliburton be liable for failure to obtain any particular results or for 
#any damages, including, but not limited to, indirect, special or consequential damages, 
#resulting from the use of any information or interpretation provided by Halliburton.
#
~A           TIME           GTDEPTH  GTPQH  GTTQ  GTTN  GTET   GTTVD  
# ...
   00:23:55.659.24-Feb-2020 3430.51 5718.11 56.42 2.00  23.00 2723.35
   00:23:55.859.24-Feb-2020 3430.51 5716.40 56.42 2.00  23.20 2723.35
   00:23:56.059.24-Feb-2020 3430.51 5717.21 56.42 2.00  23.40 2723.35
   00:23:56.259.24-Feb-2020 3430.51 5718.02 56.42 2.00  23.60 2723.35
   00:23:56.459.24-Feb-2020 3430.51 5718.86 56.42 2.00  23.80 2723.35
   00:23:56.659.24-Feb-2020 3430.51 5718.17 56.42 2.00  24.00 2723.35
   00:23:56.859.24-Feb-2020 3430.51 5718.17 56.42 2.00  24.20 2723.35
   00:23:57.059.24-Feb-2020 3430.51 5709.22 56.42 2.00  24.40 2723.35
   00:23:57.260.24-Feb-2020 3430.51 5715.91 56.42 2.00  24.60 2723.35
   00:23:57.460.24-Feb-2020 3430.51 5717.52 56.42 2.00  24.80 2723.35
   00:23:57.660.24-Feb-2020 3430.51 5723.15 56.42 2.00  25.00 2723.35
   00:23:57.860.24-Feb-2020 3430.51 5723.15 56.42 2.00  25.20 2723.35
   00:23:58.060.24-Feb-2020 3430.51 5719.73 56.42 2.00  25.40 2723.35
   00:23:58.260.24-Feb-2020 3430.51 5716.67 56.42 2.00  25.60 2723.35
   00:23:58.460.24-Feb-2020 3430.51 5716.17 56.42 2.00  25.80 2723.35
   00:23:58.660.24-Feb-2020 3430.51 5718.75 56.42 2.00  26.00 2723.35
   00:23:58.860.24-Feb-2020 3430.51 5718.75 56.42 2.00  26.20 2723.35
   00:23:59.060.24-Feb-2020 3430.51 5718.88 56.42 2.00  26.40 2723.35
   00:23:59.260.24-Feb-2020 3430.51 5712.03 56.42 2.00  26.60 2723.35
   00:23:59.460.24-Feb-2020 3430.51 5724.15 56.42 2.00  26.80 2723.35
   00:23:59.660.24-Feb-2020 3430.51 5716.47 56.42 2.00  27.00 2723.35
   00:23:59.860.24-Feb-2020 3430.51 5729.99 56.42 2.00  27.20 2723.35
   00:24:00.060.24-Feb-2020 3430.51 5710.29 56.42 2.00  27.40 2723.35
   00:24:00.260.24-Feb-2020 3430.51 5715.89 56.42 2.00  27.60 2723.35
   00:24:00.460.24-Feb-2020 3430.51 5719.00 56.42 2.00  27.80 2723.35
   00:24:00.660.24-Feb-2020 3430.51 5714.48 56.42 2.00  28.00 2723.35
   00:24:00.860.24-Feb-2020 3430.51 5714.48 56.42 2.00  28.20 2723.35
   00:24:01.060.24-Feb-2020 3430.51 5717.01 56.42 2.00  28.40 2723.35
   00:24:01.260.24-Feb-2020 3430.51 5718.25 56.42 2.00  28.60 2723.35
   00:24:01.460.24-Feb-2020 3430.51 5718.46 56.42 2.00  28.80 2723.35
   00:24:01.660.24-Feb-2020 3430.51 5717.97 56.42 2.00  29.00 2723.35
   00:24:01.860.24-Feb-2020 3430.51 5717.97 56.42 2.00  29.20 2723.35
   00:24:02.060.24-Feb-2020 3430.51 5718.74 56.42 2.00  29.40 2723.35
   00:24:02.260.24-Feb-2020 3430.51 5718.25 56.42 2.00  29.60 2723.35
   00:24:02.460.24-Feb-2020 3430.51 5718.90 56.42 2.00  29.80 2723.35
   00:24:02.660.24-Feb-2020 3430.51 5718.96 56.42 2.00  30.00 2723.35
   00:24:02.860.24-Feb-2020 3430.51 5718.96 56.42 2.00  30.20 2723.35
   00:24:03.060.24-Feb-2020 3430.51 5727.68 56.42 2.00  30.40 2723.35
   00:24:03.260.24-Feb-2020 3430.51 5708.97 56.42 2.00  30.60 2723.35
   00:24:03.460.24-Feb-2020 3430.51 5719.30 56.42 2.00  30.80 2723.35
   00:24:03.660.24-Feb-2020 3430.51 5718.62 56.42 2.00  31.00 2723.35
   00:24:03.860.24-Feb-2020 3430.51 5716.70 56.42 2.00  31.20 2723.35
   00:24:04.060.24-Feb-2020 3430.51 5718.94 56.42 2.00  31.40 2723.35
   00:24:04.260.24-Feb-2020 3430.51 5716.60 56.42 2.00  31.60 2723.35
   00:24:04.460.24-Feb-2020 3430.51 5718.42 56.42 2.00  31.80 2723.35
   00:24:04.660.24-Feb-2020 3430.51 5717.95 56.42 2.00  32.00 2723.35
   00:24:04.860.24-Feb-2020 3430.51 5717.95 56.42 2.00  32.20 2723.35
   00:24:05.060.24-Feb-2020 3430.51 5720.55 56.42 2.00  32.40 2723.35
   00:24:05.260.24-Feb-2020 3430.51 5666.41 56.42 2.00  32.60 2723.35
   00:24:05.460.24-Feb-2020 3430.51 5549.50 56.42 2.00  32.80 2723.35
   00:24:05.660.24-Feb-2020 3430.51 5592.58 56.42 2.00  33.00 2723.35
   00:24:05.861.24-Feb-2020 3430.51 5592.58 56.42 2.00  33.20 2723.35
   00:24:06.061.24-Feb-2020 3430.51 5921.20 56.42 2.00  33.40 2723.35
   00:24:06.261.24-Feb-2020 3430.51 6016.33 56.42 2.00  33.60 2723.35
   00:24:06.461.24-Feb-2020 3430.51 6080.25 56.42 2.00  33.80 2723.35
   00:24:06.661.24-Feb-2020 3430.51 6017.59 56.42 2.00  34.00 2723.35
   00:24:06.861.24-Feb-2020 3430.51 6017.59 56.42 2.00  34.20 2723.35
   00:24:07.061.24-Feb-2020 3430.51 5980.19 56.42 2.00  34.40 2723.35
   00:24:07.261.24-Feb-2020 3430.51 5936.81 56.42 2.00  34.60 2723.35
   00:24:07.461.24-Feb-2020 3430.51 5900.71 56.42 2.00  34.80 2723.35
   00:24:07.661.24-Feb-2020 3430.51 5867.27 56.42 2.00  35.00 2723.35
   00:24:07.861.24-Feb-2020 3430.51 5826.65 56.42 2.00  35.20 2723.35
   00:24:08.061.24-Feb-2020 3430.51 5794.32 56.42 2.00  35.40 2723.35
   00:24:08.261.24-Feb-2020 3430.51 5758.62 56.42 2.00  35.60 2723.35
   00:24:08.461.24-Feb-2020 3430.51 5727.46 56.42 2.00  35.80 2723.35
   00:24:08.661.24-Feb-2020 3430.51 5703.27 56.42 2.00  36.00 2723.35
   00:24:08.861.24-Feb-2020 3430.51 5703.27 56.42 2.00  36.20 2723.35
   00:24:09.061.24-Feb-2020 3430.51 5645.33 56.42 2.00  36.40 2723.35
   00:24:09.261.24-Feb-2020 3430.51 5617.04 56.42 2.00  36.60 2723.35
   00:24:09.461.24-Feb-2020 3430.51 5589.47 56.42 2.00  36.80 2723.35
   00:24:09.661.24-Feb-2020 3430.51 5543.12 56.42 2.00  37.00 2723.35
   00:24:09.861.24-Feb-2020 3430.51 5543.12 56.42 2.00  37.20 2723.35
   00:24:10.061.24-Feb-2020 3430.51 5551.02 56.42 2.00  37.40 2723.35
   00:24:10.261.24-Feb-2020 3430.51 5526.48 56.42 2.00  37.60 2723.35
   00:24:10.461.24-Feb-2020 3430.51 5507.89 56.42 2.00  37.80 2723.35
   00:24:10.661.24-Feb-2020 3430.51 5486.10 56.42 2.00  38.00 2723.35
   00:24:10.861.24-Feb-2020 3430.51 5486.10 56.42 2.00  38.20 2723.35
   00:24:11.061.24-Feb-2020 3430.51 5459.72 56.42 2.00  38.40 2723.35
   00:24:11.261.24-Feb-2020 3430.51 5435.06 56.42 2.00  38.60 2723.35
   00:24:11.461.24-Feb-2020 3430.51 5408.82 56.42 2.00  38.80 2723.35
   00:24:11.661.24-Feb-2020 3430.51 5383.68 56.42 2.00  39.00 2723.35
   00:24:11.861.24-Feb-2020 3430.51 5363.59 56.42 2.00  39.20 2723.35
   00:24:12.061.24-Feb-2020 3430.51 5341.84 56.42 2.00  39.40 2723.35
   00:24:12.261.24-Feb-2020 3430.51 5318.32 56.42 2.00  39.60 2723.35
   00:24:12.461.24-Feb-2020 3430.51 5299.44 56.42 2.00  39.80 2723.35
   00:24:12.661.24-Feb-2020 3430.51 5275.45 56.42 2.00  40.00 2723.35
   00:24:12.861.24-Feb-2020 3430.51 5275.45 56.42 2.00  40.20 2723.35
   00:24:13.061.24-Feb-2020 3430.51 5280.74 56.42 2.00  40.40 2723.35
   00:24:13.261.24-Feb-2020 3430.51 5227.73 56.42 2.00  40.60 2723.35
   00:24:13.461.24-Feb-2020 3430.51 5204.14 56.42 2.00  40.80 2723.35
   00:24:13.661.24-Feb-2020 3430.51 5196.35 56.42 2.00  41.00 2723.35
   00:24:13.861.24-Feb-2020 3430.51 5196.35 56.42 2.00  41.20 2723.35
   00:24:14.061.24-Feb-2020 3430.51 5152.82 56.42 2.00  41.40 2723.35
   00:24:14.261.24-Feb-2020 3430.51 5131.27 56.42 2.00  41.60 2723.35
   00:24:14.461.24-Feb-2020 3430.51 5107.72 56.42 2.00  41.80 2723.35
   00:24:14.662.24-Feb-2020 3430.51 5084.35 56.41 2.00  42.00 2723.35
   00:24:14.862.24-Feb-2020 3430.51 5084.35 56.41 2.00  42.20 2723.35
   00:24:15.062.24-Feb-2020 3430.51 5043.65 56.41 2.00  42.40 2723.35
   00:24:15.262.24-Feb-2020 3430.51 5023.29 56.41 2.00  42.60 2723.35
   00:24:15.462.24-Feb-2020 3430.51 5001.26 56.41 2.00  42.80 2723.35
   00:24:15.662.24-Feb-2020 3430.51 4978.97 56.41 2.00  43.00 2723.35
   00:24:15.862.24-Feb-2020 3430.51 4947.66 56.41 2.00  43.20 2723.35
   00:24:16.062.24-Feb-2020 3430.51 4900.57 56.41 2.00  43.40 2723.35
   00:24:16.262.24-Feb-2020 3430.51 4854.20 56.41 2.00  43.61 2723.35
   00:24:16.462.24-Feb-2020 3430.51 4806.38 56.41 2.00  43.81 2723.35
   00:24:16.662.24-Feb-2020 3430.51 4760.01 56.41 2.00  44.01 2723.35
   00:24:16.862.24-Feb-2020 3430.51 4760.01 56.41 2.00  44.21 2723.35
   00:24:17.062.24-Feb-2020 3430.51 4666.79 56.41 2.00  44.41 2723.35
   00:24:17.262.24-Feb-2020 3430.51 4629.30 56.41 2.00  44.61 2723.35
   00:24:17.462.24-Feb-2020 3430.51 4586.30 56.41 2.00  44.81 2723.35
   00:24:17.662.24-Feb-2020 3430.51 4543.68 56.41 2.00  45.01 2723.35
   00:24:17.862.24-Feb-2020 3430.51 4543.68 56.41 2.00  45.21 2723.35
   00:24:18.062.24-Feb-2020 3430.51 4462.01 56.41 2.00  45.41 2723.35
   00:24:18.262.24-Feb-2020 3430.51 4422.40 56.41 2.00  45.61 2723.35
   00:24:18.462.24-Feb-2020 3430.51 4381.05 56.41 2.00  45.81 2723.35
