~Version Information
 VERS.                  2.0:   CWLS log ASCII Standard -VERSION 2.0
 WRAP.                   NO:   One line per depth step
~Well Information Block
#MNEM.UNIT     VALUE/NAME     DESCRIPTION
#---------     -----------    ---------------------------
 STRT.S             05:02:14 24-Feb-20: START TIME 05:02:14 24-Feb-20
 STOP.S             05:09:32 24-Feb-20: STOP TIME  05:09:32 24-Feb-20
 STEP.S                   0.00: STEP TIME
 NULL.                 -999.25: NULL VALUE
 JOBN.        AZ-XX-0905059384:  JOB TICKET NUMB
 PDAT.          Mean Sea Level:  PERMANENT DATUM
 UNIT.                     N/A:  LOGGING EQUIPMENT ID
 DCON.         Sperry Drilling:  DIRECTNL CONTR
 DOE .                     N/A:  DOE NUMBER
 RIG .             West Chirag:  RIG NAME
 WELL.                     J22:  WELL NAME
 MWDS.                    Baku:  MWD SHOP
 SRVC.     TURAN Drilling & Engineering:  CONTRACTOR
 FLD .                     ACG:  FIELD NAME
 CTRY.              Azerbaijan:  COUNTRY NAME
 PROV.                    Baku:  PROVINCE
 STAT.                    Baku:  STATE NAME
 REGN.                   EESSA:  REGION
 BASE.              Azerbaijan:  LOGGING EQUIPMENT BASE LOCATION
 UWI .                     N/A:  UNIQUE WELL IDENTIFIER
 API .                     N/A:  API NUMBER
 COMP.     BP Exploration (Caspian Sea) Ltd.:  COMPANY
 WTYP.                Deviated:  WELL TYPE
 MDS .        Operator Entered:  MAG DATA SOURCE
 SON .        AZ-XX-0905059384:  JOB NUMBER
 FTOP.          Formation Tops:  FORM TOPS DESC
 ILTD.               Lithology:  INTERP LTH DESC
 SVYD.                  Survey:  SURVEY DESC
 DMOD.             Drill Model:  DRILL MOD DESC
 HPTY.       Minimum Curvature:  HOLE POS TYPE
 NREF.                    Grid:  NORTH REFERENCE
 SPUD.               09-Jan-20:  SPUD DATE
 DATE.      14.04.48 07-Feb-20:  END TIME
 STIM.      07.00.00 09-Jan-20:  START TIME
 DMF .             Drill Floor:  DRILL MEAS FROM
 DFST.                        :  DIST FSL TEXT
 DFWT.                        :  DIST FWL TEXT
 CNTY.                        :  COUNTY
 LOC .                        :  LOCATION
 LMF .             Drill Floor:  LOG MEASURED FROM
 DEP .m                   0.00:  DEPTH
 VSNS.m                  10.28:  VERT SEC N/S
 VSEW.m                  -6.24:  VERT SEC E/W
 AGAP.m                  43.00:  AIR GAP
 APD .m                  43.00:  DEPTH ABOVE PD
 WDMS.m                 169.80:  WD ELEV
 EGL .m                   0.00:  GROUND ELEVATION
 EPD .m                   0.00:  ELEVATION
 AZTC.deg                 6.27:  AZM TOTAL CORR
 GRDC.deg                 0.15:  GRID CORRECTION
 MDEC.deg                 6.42:  MAGNETIC DECL
 MDIP.deg                59.56:  MAGNETIC DIP
 MFLD.nT              50277.00:  MAGNETIC FIELD
 GVFD.g                   1.00:  GRAVITY FIELD
 VSDR.deg               148.53:  VERT SEC DIRECT
 TDD .m                3473.01:  TOTAL DEPTH (DRILLER)
 SDEP.m                 364.00:  START DEPTH
 DFSL.m                   0.00:  DISTANCE FSL
 DFWL.m                   0.00:  DISTANCE FWL
 UTMY.m             4443793.85:  UTM Y
 UTMX.m              519005.06:  UTM X
 WHEW.m                  -6.24:  WELL HEAD E/W
 WHNS.m                  10.28:  WELL HEAD N/S
 LONG.deg                51.22:  LONGITUDE
 LATI.deg                40.13:  LATITUDE
 TVDS.m                  43.00:  TVDSS CORRECTN
 EKB .m                   0.00:  KB ELEVATION
 EDF .m                  43.00:  DF ELEVATION
 TDL .m                 254.00:  TOTAL DEPTH (LOGGER)
 MAGU.                 1850021:  MAGUTM CHECKSUM
 VSC .                       0:  VS TO CLOSURE
~Parameter Information Block
#MNEM.UNIT       Value        Description
#---------     -----------    ---------------------------
 AV  .mps                 0.50:  Ann Velocity 
 AVMX.mps                 1.40:  Max Ann Veloc 
 AZIF.deg               144.94:  Azm, Final 
 BHAT.        Rotary Steerable:  BHA Type 
 BROT.°/30m               0.23:  Build Rotating 
 BS  .in                  8.50:  Bit Size 
 BTPL.psig              264.00:  Bit Press Loss 
 CABU.                     Yes:  Customer Abuse 
 TCS .hr                 87.30:  Time Ciculation Ended 
 CV  .mps                 2.45:  Crit Velocity 
 CVMX.mps                 2.74:  Max Crit Veloc 
 DD1 .             Aziz Aliyev:  Direct Drillr 1 
 DDSV.               Geo-Pilot:  DD Service 
 DEFF.%                 100.00:  % Det Eff 
 DLRX.°/30m               1.22:  Dogleg Rot Max 
 DLSO.°/30m               0.52:  Dogleg Oriented 
 DLSX.°/30m               1.22:  Dogleg Str Max 
 DRET.      12.59.00 23-Feb-20:  Drill End Time 
 DRST.      09.44.00 18-Feb-20:  Drill Start Tim 
 DTIM.hr                 23.03:  Time Drilling 
 EDEP.m                3473.01:  End Depth 
 ENG1.         Almaz Almadatov:  Engineer 1 
 ENG2.         Dair Mahammadov:  Engineer 2 
 ENG3.          Nazrin Asgarli:  Engineer 3 
 ETIM.      10.33.36 26-Feb-20:  End Time 
 FLOI.gpm               480.00:  Flow In 
 FLON.gpm               300.00:  Flow In Min 
 FLOS.cptm                1.00:  Fluid Loss 
 FLOX.gpm               550.00:  Flow In Max 
 HFLO.                      No:  High Flow 
 HPRE.                      No:  High Pressure 
 HTEM.                      No:  High Temp 
 HYDO.m                   1.80:  Hydro Offset 
 IFIN.deg                74.42:  Inc, Final 
 IMAX.deg                76.14:  Inc Max 
 IMIN.deg                74.42:  Inc Min 
 IMND.m                3462.72:  Inc Min Depth 
 IMXD.m                3235.69:  Inc Max Depth 
 JARR.                      No:  Jarring 
 LETM.      12.59.00 23-Feb-20:  Log End Time 
 LOST.hr                     0:  Lost Rig Time 
 LSTM.      09.44.00 18-Feb-20:  Log Start Time 
 MDCL.ppm             45000.00:  Mud Chlorides 
 MDES.     Inversion Oil/Synthetic:  Mud Desc 
 DFD .sg                  1.38:  Mud Density 
 MDMN.sg                  1.34:  Dens Mud Min 
 MDMX.sg                  1.49:  Dens Mud Max 
 MOIL.                      67:  Run Mud Oil % 
 MOWR.                   67:33:  Run Mud OWR 
 MSND.                    0.12:  Run Mud Sand % 
 MSOL.                      22:  Run Mud Solids% 
 DFV .spqt               81.00:  Mud Viscosity 
 MWOD.in                  6.75:  MWD Tool OD 
 MWSI.                      No:  Serv Intrp, MWD 
 OTIM.hr                231.44:  Time Operating 
 PCON.          Wear / Scratch:  Pad Condition 
 PMAX.psia             3400.00:  Press Op, Max 
 PV  .cP                 55.00:  Mud PV 
 RUN .                     800:  Run Number 
 ROPA.m/hr               12.00:  ROP Avg 
 ROPN.m/hr                5.00:  ROP Min 
 ROPX.m/hr               28.00:  ROP Max 
 RPMA.rpm               120.00:  RPM Surface Avg 
 RPMN.rpm                40.00:  RPM Surface Min 
 RPMX.rpm               130.00:  RPM Surface Max 
 RRUN.                    0800:  Rig Run Number 
 RTIM.hr                 45.00:  Time Reaming 
 SAZI.deg               145.38:  Azm, Start 
 SDEP.m                3219.01:  Start Depth 
 SIDD.                      No:  Serv Intrp, DD 
 SINC.deg                75.11:  Inc, Start 
 SPPA.psig             2400.00:  SPP Avg 
 SPPN.psig             2320.00:  SPP Min 
 SPPX.psig             3200.00:  SPP Max 
 STIM.      15.15.00 17-Feb-20:  Start Time 
 SVCS.                 DD, MWD:  Services 
 SVER.                    9.20:  Sperry Version 
 TDAT.m                 254.00:  Tot Depth Attmp 
 TDDF.                      No:  Trip for DD 
 TDLG.m                 254.00:  Tot Depth Loggd 
 TFF .                      No:  Trip for Fail 
 TQAA.f-kp               13.00:  Torque Abs Avg 
 TQAN.f-kp                7.00:  Torque Abs Min 
 TQAX.f-kp               15.00:  Torque Abs Max 
 TRRT.°/30m               0.21:  Turn Rotating 
 MRT .                  EWR-M5:  Maximum Recorded Temperature 
 TTMX.degC               64.00:  Max Tool Temp 
 VS01.                90586516:  Virtual Str1 SN 
 VS02.                90513691:  Virtual Str2 SN 
 VS03.                90586523:  Virtual Str3 SN 
 VS04.                90586520:  Virtual Str4 SN 
 VS05.                90590507:  Virtual Str5 SN 
 WBMN.klb                12.00:  WOB Min 
 WITN.           Rufat Babayev:  Customer Rep 2 
 WITN.         Alistair Sprott:  Customer Rep 
 WOBA.klb                18.00:  WOB Avg 
 WOBX.klb                30.00:  WOB Max 
 YP  .lhf2               41.00:  Yield Point 
~Curve Information Block
#MNEM.UNIT                 API CODE     Curve Description
#---------               -----------    ---------------------------
 TIME.HHMMSS            00 000 000 000:  GT Time & Date
 GTDEPTH.m              00 000 000 000:  GT Depth
 GTPQH.psia             00 000 000 000:  GT HR Quartz Pressure
 GTTQ.degC              00 000 000 000:  GT Quartz Temperature
 GTTN.NONE              00 000 000 000:  GT Test Number
 GTET.sec               00 000 000 000:  GT Elapsed Test Time
 GTTVD.m                00 000 000 000:  GT True Vertical Depth
#Other Information
#
#WARRANTY: Halliburton will use its best efforts to furnish customers with 
#accurate information and interpretations that are part of, and incident to, the services 
#provided.  However, Halliburton cannot and does not warrant the accuracy 
#or correctness of such information and interpretations.  Under no circumstances should any 
#such information or interpretation be relied upon as the sole basis for any drilling, 
#completion, production, or financial decision or any procedure involving any risk to the 
#safety of any drilling venture, drilling rig or its crew or any other third party.  The 
#Customer has full responsibility for all drilling, completion and production operation.  
#Halliburton makes no representations or warranties, either expressed or 
#implied, including, but not limited to, the implied warranties of merchantability or fitness 
#for a particular purpose, with respect to the services rendered.  In no event will 
#Halliburton be liable for failure to obtain any particular results or for 
#any damages, including, but not limited to, indirect, special or consequential damages, 
#resulting from the use of any information or interpretation provided by Halliburton.
#
~A           TIME           GTDEPTH  GTPQH  GTTQ  GTTN  GTET   GTTVD  
# ...
   05:03:46.816.24-Feb-2020 3303.51 4421.07 55.46 8.00  91.97 2690.98
   05:03:47.016.24-Feb-2020 3303.51 4421.07 55.46 8.00  92.17 2690.98
   05:03:47.216.24-Feb-2020 3303.51 4421.11 55.46 8.00  92.37 2690.98
   05:03:47.416.24-Feb-2020 3303.51 4421.11 55.46 8.00  92.57 2690.98
   05:03:47.615.24-Feb-2020 3303.51 4421.08 55.46 8.00  92.77 2690.98
   05:03:47.815.24-Feb-2020 3303.51 4421.09 55.46 8.00  92.97 2690.98
   05:03:48.015.24-Feb-2020 3303.51 4421.09 55.46 8.00  93.17 2690.98
   05:03:48.215.24-Feb-2020 3303.51 4421.10 55.46 8.00  93.37 2690.98
   05:03:48.415.24-Feb-2020 3303.51 4421.06 55.46 8.00  93.57 2690.98
   05:03:48.615.24-Feb-2020 3303.51 4421.36 55.46 8.00  93.77 2690.98
   05:03:48.815.24-Feb-2020 3303.51 4421.16 55.46 8.00  93.97 2690.98
   05:03:49.015.24-Feb-2020 3303.51 4420.96 55.46 8.00  94.17 2690.98
   05:03:49.215.24-Feb-2020 3303.51 4421.38 55.46 8.00  94.37 2690.98
   05:03:49.415.24-Feb-2020 3303.51 4420.86 55.46 8.00  94.57 2690.98
   05:03:49.615.24-Feb-2020 3303.51 4421.48 55.46 8.00  94.77 2690.98
   05:03:49.815.24-Feb-2020 3303.51 4421.14 55.46 8.00  94.97 2690.98
   05:03:50.015.24-Feb-2020 3303.51 4421.10 55.46 8.00  95.17 2690.98
   05:03:50.215.24-Feb-2020 3303.51 4421.11 55.46 8.00  95.37 2690.98
   05:03:50.415.24-Feb-2020 3303.51 4421.12 55.46 8.00  95.57 2690.98
   05:03:50.615.24-Feb-2020 3303.51 4421.19 55.46 8.00  95.77 2690.98
   05:03:50.815.24-Feb-2020 3303.51 4421.42 55.46 8.00  95.97 2690.98
   05:03:51.014.24-Feb-2020 3303.51 4421.42 55.46 8.00  96.17 2690.98
   05:03:51.214.24-Feb-2020 3303.51 4421.08 55.46 8.00  96.37 2690.98
   05:03:51.414.24-Feb-2020 3303.51 4421.52 55.46 8.00  96.57 2690.98
   05:03:51.614.24-Feb-2020 3303.51 4420.90 55.46 8.00  96.77 2690.98
   05:03:51.814.24-Feb-2020 3303.51 4421.09 55.46 8.00  96.97 2690.98
   05:03:52.014.24-Feb-2020 3303.51 4421.09 55.46 8.00  97.17 2690.98
   05:03:52.214.24-Feb-2020 3303.51 4421.11 55.46 8.00  97.37 2690.98
   05:03:52.414.24-Feb-2020 3303.51 4421.10 55.46 8.00  97.57 2690.98
   05:03:52.614.24-Feb-2020 3303.51 4421.08 55.46 8.00  97.77 2690.98
   05:03:52.814.24-Feb-2020 3303.51 4421.10 55.46 8.00  97.97 2690.98
   05:03:53.014.24-Feb-2020 3303.51 4421.13 55.46 8.00  98.17 2690.98
   05:03:53.214.24-Feb-2020 3303.51 4421.12 55.46 8.00  98.37 2690.98
   05:03:53.414.24-Feb-2020 3303.51 4421.11 55.46 8.00  98.57 2690.98
   05:03:53.614.24-Feb-2020 3303.51 4421.12 55.46 8.00  98.77 2690.98
   05:03:53.814.24-Feb-2020 3303.51 4421.12 55.46 8.00  98.97 2690.98
   05:03:54.014.24-Feb-2020 3303.51 4421.12 55.46 8.00  99.17 2690.98
   05:03:54.214.24-Feb-2020 3303.51 4421.13 55.46 8.00  99.37 2690.98
   05:03:54.413.24-Feb-2020 3303.51 4421.12 55.46 8.00  99.57 2690.98
   05:03:54.613.24-Feb-2020 3303.51 4421.17 55.46 8.00  99.77 2690.98
   05:03:54.813.24-Feb-2020 3303.51 4421.40 55.46 8.00  99.97 2690.98
   05:03:55.013.24-Feb-2020 3303.51 4421.40 55.46 8.00 100.17 2690.98
   05:03:55.213.24-Feb-2020 3303.51 4421.04 55.46 8.00 100.37 2690.98
   05:03:55.413.24-Feb-2020 3303.51 4421.11 55.46 8.00 100.57 2690.98
   05:03:55.613.24-Feb-2020 3303.51 4421.10 55.46 8.00 100.77 2690.98
   05:03:55.813.24-Feb-2020 3303.51 4421.09 55.46 8.00 100.97 2690.98
   05:03:56.013.24-Feb-2020 3303.51 4421.09 55.46 8.00 101.17 2690.98
   05:03:56.213.24-Feb-2020 3303.51 4421.12 55.46 8.00 101.37 2690.98
   05:03:56.413.24-Feb-2020 3303.51 4421.12 55.46 8.00 101.57 2690.98
   05:03:56.613.24-Feb-2020 3303.51 4421.13 55.46 8.00 101.77 2690.98
   05:03:56.813.24-Feb-2020 3303.51 4421.08 55.46 8.00 101.97 2690.98
   05:03:57.013.24-Feb-2020 3303.51 4421.11 55.46 8.00 102.17 2690.98
   05:03:57.213.24-Feb-2020 3303.51 4421.13 55.46 8.00 102.37 2690.98
   05:03:57.413.24-Feb-2020 3303.51 4421.14 55.46 8.00 102.57 2690.98
   05:03:57.613.24-Feb-2020 3303.51 4421.11 55.46 8.00 102.77 2690.98
   05:03:57.812.24-Feb-2020 3303.51 4421.27 55.46 8.00 102.97 2690.98
   05:03:58.012.24-Feb-2020 3303.51 4421.27 55.46 8.00 103.17 2690.98
   05:03:58.212.24-Feb-2020 3303.51 4421.46 55.46 8.00 103.37 2690.98
   05:03:58.412.24-Feb-2020 3303.51 4421.15 55.46 8.00 103.57 2690.98
   05:03:58.612.24-Feb-2020 3303.51 4421.44 55.46 8.00 103.77 2690.98
   05:03:58.812.24-Feb-2020 3303.51 4421.18 55.46 8.00 103.97 2690.98
   05:03:59.012.24-Feb-2020 3303.51 4421.18 55.46 8.00 104.17 2690.98
   05:03:59.212.24-Feb-2020 3303.51 4421.22 55.46 8.00 104.37 2690.98
   05:03:59.412.24-Feb-2020 3303.51 4421.09 55.46 8.00 104.57 2690.98
   05:03:59.612.24-Feb-2020 3303.51 4421.13 55.46 8.00 104.77 2690.98
   05:03:59.812.24-Feb-2020 3303.51 4421.54 55.46 8.00 104.97 2690.98
   05:04:00.012.24-Feb-2020 3303.51 4421.54 55.46 8.00 105.17 2690.98
   05:04:00.212.24-Feb-2020 3303.51 4421.16 55.46 8.00 105.37 2690.98
   05:04:00.412.24-Feb-2020 3303.51 4421.26 55.46 8.00 105.57 2690.98
   05:04:00.612.24-Feb-2020 3303.51 4421.14 55.46 8.00 105.77 2690.98
   05:04:00.812.24-Feb-2020 3303.51 4421.07 55.46 8.00 105.97 2690.98
   05:04:01.012.24-Feb-2020 3303.51 4421.35 55.46 8.00 106.17 2690.98
   05:04:01.211.24-Feb-2020 3303.51 4421.11 55.46 8.00 106.37 2690.98
   05:04:01.411.24-Feb-2020 3303.51 4421.04 55.46 8.00 106.57 2690.98
   05:04:01.611.24-Feb-2020 3303.51 4421.09 55.46 8.00 106.77 2690.98
   05:04:01.811.24-Feb-2020 3303.51 4421.11 55.46 8.00 106.97 2690.98
   05:04:02.011.24-Feb-2020 3303.51 4421.11 55.46 8.00 107.17 2690.98
   05:04:02.211.24-Feb-2020 3303.51 4421.10 55.46 8.00 107.37 2690.98
   05:04:02.411.24-Feb-2020 3303.51 4421.13 55.46 8.00 107.57 2690.98
   05:04:02.611.24-Feb-2020 3303.51 4421.12 55.46 8.00 107.77 2690.98
   05:04:02.811.24-Feb-2020 3303.51 4421.10 55.46 8.00 107.97 2690.98
   05:04:03.011.24-Feb-2020 3303.51 4421.10 55.46 8.00 108.17 2690.98
   05:04:03.211.24-Feb-2020 3303.51 4421.11 55.46 8.00 108.37 2690.98
   05:04:03.411.24-Feb-2020 3303.51 4421.11 55.46 8.00 108.57 2690.98
   05:04:03.611.24-Feb-2020 3303.51 4421.14 55.46 8.00 108.77 2690.98
   05:04:03.811.24-Feb-2020 3303.51 4421.55 55.46 8.00 108.97 2690.98
   05:04:04.011.24-Feb-2020 3303.51 4421.55 55.46 8.00 109.17 2690.98
   05:04:04.211.24-Feb-2020 3303.51 4421.11 55.46 8.00 109.37 2690.98
   05:04:04.411.24-Feb-2020 3303.51 4421.21 55.46 8.00 109.57 2690.98
   05:04:04.610.24-Feb-2020 3303.51 4421.13 55.46 8.00 109.77 2690.98
   05:04:04.810.24-Feb-2020 3303.51 4421.05 55.46 8.00 109.97 2690.98
   05:04:05.010.24-Feb-2020 3303.51 4421.05 55.46 8.00 110.17 2690.98
   05:04:05.210.24-Feb-2020 3303.51 4421.07 55.46 8.00 110.37 2690.98
   05:04:05.410.24-Feb-2020 3303.51 4421.12 55.46 8.00 110.57 2690.98
   05:04:05.610.24-Feb-2020 3303.51 4421.13 55.46 8.00 110.77 2690.98
   05:04:05.810.24-Feb-2020 3303.51 4421.13 55.46 8.00 110.97 2690.98
   05:04:06.010.24-Feb-2020 3303.51 4421.13 55.46 8.00 111.17 2690.98
   05:04:06.210.24-Feb-2020 3303.51 4421.09 55.46 8.00 111.37 2690.98
   05:04:06.410.24-Feb-2020 3303.51 4421.10 55.46 8.00 111.57 2690.98
   05:04:06.610.24-Feb-2020 3303.51 4421.12 55.46 8.00 111.77 2690.98
   05:04:06.810.24-Feb-2020 3303.51 4421.14 55.46 8.00 111.97 2690.98
   05:04:07.010.24-Feb-2020 3303.51 4421.14 55.46 8.00 112.17 2690.98
   05:04:07.210.24-Feb-2020 3303.51 4421.37 55.46 8.00 112.37 2690.98
   05:04:07.410.24-Feb-2020 3303.51 4421.16 55.46 8.00 112.57 2690.98
   05:04:07.610.24-Feb-2020 3303.51 4420.98 55.46 8.00 112.77 2690.98
   05:04:07.810.24-Feb-2020 3303.51 4421.37 55.46 8.00 112.97 2690.98
   05:04:08.009.24-Feb-2020 3303.51 4421.37 55.46 8.00 113.17 2690.98
   05:04:08.209.24-Feb-2020 3303.51 4421.48 55.46 8.00 113.37 2690.98
   05:04:08.409.24-Feb-2020 3303.51 4421.14 55.46 8.00 113.57 2690.98
   05:04:08.609.24-Feb-2020 3303.51 4421.10 55.46 8.00 113.77 2690.98
   05:04:08.809.24-Feb-2020 3303.51 4421.10 55.46 8.00 113.97 2690.98
   05:04:09.009.24-Feb-2020 3303.51 4421.11 55.46 8.00 114.17 2690.98
   05:04:09.209.24-Feb-2020 3303.51 4421.16 55.46 8.00 114.37 2690.98
   05:04:09.409.24-Feb-2020 3303.51 4421.44 55.46 8.00 114.57 2690.98
   05:04:09.609.24-Feb-2020 3303.51 4421.17 55.46 8.00 114.77 2690.98
