~Version Information
 VERS.                  2.0:   CWLS log ASCII Standard -VERSION 2.0
 WRAP.                   NO:   One line per depth step
~Well Information Block
#MNEM.UNIT     VALUE/NAME     DESCRIPTION
#---------     -----------    ---------------------------
 STRT.S             00:23:32 24-Feb-20: START TIME 00:23:32 24-Feb-20
 STOP.S             00:30:40 24-Feb-20: STOP TIME  00:30:40 24-Feb-20
 STEP.S                   0.00: STEP TIME
 NULL.                 -999.25: NULL VALUE
 JOBN.        AZ-XX-0905059384:  JOB TICKET NUMB
 PDAT.          Mean Sea Level:  PERMANENT DATUM
 UNIT.                     N/A:  LOGGING EQUIPMENT ID
 DCON.         Sperry Drilling:  DIRECTNL CONTR
 DOE .                     N/A:  DOE NUMBER
 RIG .             West Chirag:  RIG NAME
 WELL.                     J22:  WELL NAME
 MWDS.                    Baku:  MWD SHOP
 SRVC.     TURAN Drilling & Engineering:  CONTRACTOR
 FLD .                     ACG:  FIELD NAME
 CTRY.              Azerbaijan:  COUNTRY NAME
 PROV.                    Baku:  PROVINCE
 STAT.                    Baku:  STATE NAME
 REGN.                   EESSA:  REGION
 BASE.              Azerbaijan:  LOGGING EQUIPMENT BASE LOCATION
 UWI .                     N/A:  UNIQUE WELL IDENTIFIER
 API .                     N/A:  API NUMBER
 COMP.     BP Exploration (Caspian Sea) Ltd.:  COMPANY
 WTYP.                Deviated:  WELL TYPE
 MDS .        Operator Entered:  MAG DATA SOURCE
 SON .        AZ-XX-0905059384:  JOB NUMBER
 FTOP.          Formation Tops:  FORM TOPS DESC
 ILTD.               Lithology:  INTERP LTH DESC
 SVYD.                  Survey:  SURVEY DESC
 DMOD.             Drill Model:  DRILL MOD DESC
 HPTY.       Minimum Curvature:  HOLE POS TYPE
 NREF.                    Grid:  NORTH REFERENCE
 SPUD.               09-Jan-20:  SPUD DATE
 DATE.      14.04.48 07-Feb-20:  END TIME
 STIM.      07.00.00 09-Jan-20:  START TIME
 DMF .             Drill Floor:  DRILL MEAS FROM
 DFST.                        :  DIST FSL TEXT
 DFWT.                        :  DIST FWL TEXT
 CNTY.                        :  COUNTY
 LOC .                        :  LOCATION
 LMF .             Drill Floor:  LOG MEASURED FROM
 DEP .m                   0.00:  DEPTH
 VSNS.m                  10.28:  VERT SEC N/S
 VSEW.m                  -6.24:  VERT SEC E/W
 AGAP.m                  43.00:  AIR GAP
 APD .m                  43.00:  DEPTH ABOVE PD
 WDMS.m                 169.80:  WD ELEV
 EGL .m                   0.00:  GROUND ELEVATION
 EPD .m                   0.00:  ELEVATION
 AZTC.deg                 6.27:  AZM TOTAL CORR
 GRDC.deg                 0.15:  GRID CORRECTION
 MDEC.deg                 6.42:  MAGNETIC DECL
 MDIP.deg                59.56:  MAGNETIC DIP
 MFLD.nT              50277.00:  MAGNETIC FIELD
 GVFD.g                   1.00:  GRAVITY FIELD
 VSDR.deg               148.53:  VERT SEC DIRECT
 TDD .m                3473.01:  TOTAL DEPTH (DRILLER)
 SDEP.m                 364.00:  START DEPTH
 DFSL.m                   0.00:  DISTANCE FSL
 DFWL.m                   0.00:  DISTANCE FWL
 UTMY.m             4443793.85:  UTM Y
 UTMX.m              519005.06:  UTM X
 WHEW.m                  -6.24:  WELL HEAD E/W
 WHNS.m                  10.28:  WELL HEAD N/S
 LONG.deg                51.22:  LONGITUDE
 LATI.deg                40.13:  LATITUDE
 TVDS.m                  43.00:  TVDSS CORRECTN
 EKB .m                   0.00:  KB ELEVATION
 EDF .m                  43.00:  DF ELEVATION
 TDL .m                 254.00:  TOTAL DEPTH (LOGGER)
 MAGU.                 1850021:  MAGUTM CHECKSUM
 VSC .                       0:  VS TO CLOSURE
~Parameter Information Block
#MNEM.UNIT       Value        Description
#---------     -----------    ---------------------------
 AV  .mps                 0.50:  Ann Velocity 
 AVMX.mps                 1.40:  Max Ann Veloc 
 AZIF.deg               144.94:  Azm, Final 
 BHAT.        Rotary Steerable:  BHA Type 
 BROT.∞/30m               0.23:  Build Rotating 
 BS  .in                  8.50:  Bit Size 
 BTPL.psig              264.00:  Bit Press Loss 
 CABU.                     Yes:  Customer Abuse 
 COMM.                     ÙP`:  Run Comments 1 
 TCS .hr                 87.30:  Time Ciculation Ended 
 CV  .mps                 2.45:  Crit Velocity 
 CVMX.mps                 2.74:  Max Crit Veloc 
 DD1 .             Aziz Aliyev:  Direct Drillr 1 
 DDSV.               Geo-Pilot:  DD Service 
 DEFF.%                 100.00:  % Det Eff 
 DLRX.∞/30m               1.22:  Dogleg Rot Max 
 DLSO.∞/30m               0.52:  Dogleg Oriented 
 DLSX.∞/30m               1.22:  Dogleg Str Max 
 DRET.      12.59.00 23-Feb-20:  Drill End Time 
 DRST.      09.44.00 18-Feb-20:  Drill Start Tim 
 DTIM.hr                 23.03:  Time Drilling 
 EDEP.m                3473.01:  End Depth 
 ENG1.         Almaz Almadatov:  Engineer 1 
 ENG2.         Dair Mahammadov:  Engineer 2 
 ENG3.          Nazrin Asgarli:  Engineer 3 
 ETIM.      10.33.36 26-Feb-20:  End Time 
 FLOI.gpm               480.00:  Flow In 
 FLON.gpm               300.00:  Flow In Min 
 FLOS.cptm                1.00:  Fluid Loss 
 FLOX.gpm               550.00:  Flow In Max 
 HFLO.                      No:  High Flow 
 HPRE.                      No:  High Pressure 
 HTEM.                      No:  High Temp 
 HYDO.m                   1.80:  Hydro Offset 
 IFIN.deg                74.42:  Inc, Final 
 IMAX.deg                76.14:  Inc Max 
 IMIN.deg                74.42:  Inc Min 
 IMND.m                3462.72:  Inc Min Depth 
 IMXD.m                3235.69:  Inc Max Depth 
 JARR.                      No:  Jarring 
 LETM.      12.59.00 23-Feb-20:  Log End Time 
 LOST.hr                     0:  Lost Rig Time 
 LSTM.      09.44.00 18-Feb-20:  Log Start Time 
 MDCL.ppm             45000.00:  Mud Chlorides 
 MDES.     Inversion Oil/Synthetic:  Mud Desc 
 DFD .sg                  1.38:  Mud Density 
 MDMN.sg                  1.34:  Dens Mud Min 
 MDMX.sg                  1.49:  Dens Mud Max 
 MOIL.                      67:  Run Mud Oil % 
 MOWR.                   67:33:  Run Mud OWR 
 MSND.                    0.12:  Run Mud Sand % 
 MSOL.                      22:  Run Mud Solids% 
 DFV .spqt               81.00:  Mud Viscosity 
 MWOD.in                  6.75:  MWD Tool OD 
 MWSI.                      No:  Serv Intrp, MWD 
 OTIM.hr                231.44:  Time Operating 
 PCON.          Wear / Scratch:  Pad Condition 
 PMAX.psia             3400.00:  Press Op, Max 
 PV  .cP                 55.00:  Mud PV 
 RUN .                     800:  Run Number 
 ROPA.m/hr               12.00:  ROP Avg 
 ROPN.m/hr                5.00:  ROP Min 
 ROPX.m/hr               28.00:  ROP Max 
 RPMA.rpm               120.00:  RPM Surface Avg 
 RPMN.rpm                40.00:  RPM Surface Min 
 RPMX.rpm               130.00:  RPM Surface Max 
 RRUN.                    0800:  Rig Run Number 
 RTIM.hr                 45.00:  Time Reaming 
 SAZI.deg               145.38:  Azm, Start 
 SDEP.m                3219.01:  Start Depth 
 SIDD.                      No:  Serv Intrp, DD 
 SINC.deg                75.11:  Inc, Start 
 SPPA.psig             2400.00:  SPP Avg 
 SPPN.psig             2320.00:  SPP Min 
 SPPX.psig             3200.00:  SPP Max 
 STIM.      15.15.00 17-Feb-20:  Start Time 
 SVCS.                 DD, MWD:  Services 
 SVER.                    9.20:  Sperry Version 
 TDAT.m                 254.00:  Tot Depth Attmp 
 TDDF.                      No:  Trip for DD 
 TDLG.m                 254.00:  Tot Depth Loggd 
 TFF .                      No:  Trip for Fail 
 TQAA.f-kp               13.00:  Torque Abs Avg 
 TQAN.f-kp                7.00:  Torque Abs Min 
 TQAX.f-kp               15.00:  Torque Abs Max 
 TRRT.∞/30m               0.21:  Turn Rotating 
 MRT .                  EWR-M5:  Maximum Recorded Temperature 
 TTMX.degC               64.00:  Max Tool Temp 
 VS01.                90586516:  Virtual Str1 SN 
 VS02.                90513691:  Virtual Str2 SN 
 VS03.                90586523:  Virtual Str3 SN 
 VS04.                90586520:  Virtual Str4 SN 
 VS05.                90590507:  Virtual Str5 SN 
 WBMN.klb                12.00:  WOB Min 
 WITN.           Rufat Babayev:  Customer Rep 2 
 WITN.         Alistair Sprott:  Customer Rep 
 WOBA.klb                18.00:  WOB Avg 
 WOBX.klb                30.00:  WOB Max 
 YP  .lhf2               41.00:  Yield Point 
~Curve Information Block
#MNEM.UNIT                 API CODE     Curve Description
#---------               -----------    ---------------------------
 TIME.HHMMSS            00 000 000 000:  GT Time & Date
 GTDEPTH.m              00 000 000 000:  GT Depth
 GTPQH.psia             00 000 000 000:  GT HR Quartz Pressure
 GTTQ.degC              00 000 000 000:  GT Quartz Temperature
 GTTN.NONE              00 000 000 000:  GT Test Number
 GTET.sec               00 000 000 000:  GT Elapsed Test Time
 GTTVD.m                00 000 000 000:  GT True Vertical Depth
#Other Information
#
#WARRANTY: Halliburton will use its best efforts to furnish customers with 
#accurate information and interpretations that are part of, and incident to, the services 
#provided.  However, Halliburton cannot and does not warrant the accuracy 
#or correctness of such information and interpretations.  Under no circumstances should any 
#such information or interpretation be relied upon as the sole basis for any drilling, 
#completion, production, or financial decision or any procedure involving any risk to the 
#safety of any drilling venture, drilling rig or its crew or any other third party.  The 
#Customer has full responsibility for all drilling, completion and production operation.  
#Halliburton makes no representations or warranties, either expressed or 
#implied, including, but not limited to, the implied warranties of merchantability or fitness 
#for a particular purpose, with respect to the services rendered.  In no event will 
#Halliburton be liable for failure to obtain any particular results or for 
#any damages, including, but not limited to, indirect, special or consequential damages, 
#resulting from the use of any information or interpretation provided by Halliburton.
#
~A           TIME           GTDEPTH  GTPQH  GTTQ  GTTN  GTET   GTTVD  
# ...
   00:30:03.702.24-Feb-2020 3430.51 5728.99 56.42 2.00 391.04 2723.35
   00:30:03.902.24-Feb-2020 3430.51 5721.33 56.42 2.00 391.25 2723.35
   00:30:04.102.24-Feb-2020 3430.51 5724.43 56.42 2.00 391.45 2723.35
   00:30:04.302.24-Feb-2020 3430.51 5722.26 56.42 2.00 391.65 2723.35
   00:30:04.502.24-Feb-2020 3430.51 5728.07 56.42 2.00 391.85 2723.35
   00:30:04.702.24-Feb-2020 3430.51 5719.15 56.42 2.00 392.05 2723.35
   00:30:04.902.24-Feb-2020 3430.51 5719.15 56.42 2.00 392.25 2723.35
   00:30:05.102.24-Feb-2020 3430.51 5728.69 56.42 2.00 392.45 2723.35
   00:30:05.302.24-Feb-2020 3430.51 5720.69 56.42 2.00 392.65 2723.35
   00:30:05.502.24-Feb-2020 3430.51 5723.84 56.42 2.00 392.85 2723.35
   00:30:05.702.24-Feb-2020 3430.51 5723.13 56.42 2.00 393.05 2723.35
   00:30:05.902.24-Feb-2020 3430.51 5723.13 56.42 2.00 393.25 2723.35
   00:30:06.102.24-Feb-2020 3430.51 5723.42 56.42 2.00 393.45 2723.35
   00:30:06.302.24-Feb-2020 3430.51 5722.96 56.42 2.00 393.65 2723.35
   00:30:06.502.24-Feb-2020 3430.51 5723.68 56.42 2.00 393.85 2723.35
   00:30:06.702.24-Feb-2020 3430.51 5723.51 56.42 2.00 394.05 2723.35
   00:30:06.902.24-Feb-2020 3430.51 5723.68 56.42 2.00 394.25 2723.35
   00:30:07.102.24-Feb-2020 3430.51 5725.01 56.42 2.00 394.45 2723.35
   00:30:07.302.24-Feb-2020 3430.51 5723.77 56.42 2.00 394.65 2723.35
   00:30:07.502.24-Feb-2020 3430.51 5722.79 56.42 2.00 394.85 2723.35
   00:30:07.702.24-Feb-2020 3430.51 5733.87 56.42 2.00 395.05 2723.35
   00:30:07.902.24-Feb-2020 3430.51 5733.87 56.42 2.00 395.25 2723.35
   00:30:08.102.24-Feb-2020 3430.51 5721.23 56.42 2.00 395.45 2723.35
   00:30:08.302.24-Feb-2020 3430.51 5724.41 56.42 2.00 395.65 2723.35
   00:30:08.502.24-Feb-2020 3430.51 5719.28 56.42 2.00 395.85 2723.35
   00:30:08.702.24-Feb-2020 3430.51 5723.86 56.42 2.00 396.05 2723.35
   00:30:08.902.24-Feb-2020 3430.51 5721.81 56.42 2.00 396.25 2723.35
   00:30:09.102.24-Feb-2020 3430.51 5723.32 56.42 2.00 396.45 2723.35
   00:30:09.302.24-Feb-2020 3430.51 5724.17 56.42 2.00 396.65 2723.35
   00:30:09.502.24-Feb-2020 3430.51 5723.49 56.42 2.00 396.85 2723.35
   00:30:09.702.24-Feb-2020 3430.51 5722.57 56.42 2.00 397.05 2723.35
   00:30:09.902.24-Feb-2020 3430.51 5722.57 56.42 2.00 397.25 2723.35
   00:30:10.102.24-Feb-2020 3430.51 5723.27 56.42 2.00 397.45 2723.35
   00:30:10.302.24-Feb-2020 3430.51 5723.16 56.42 2.00 397.65 2723.35
   00:30:10.502.24-Feb-2020 3430.51 5723.93 56.42 2.00 397.85 2723.35
   00:30:10.702.24-Feb-2020 3430.51 5724.41 56.42 2.00 398.05 2723.35
   00:30:10.903.24-Feb-2020 3430.51 5724.41 56.42 2.00 398.25 2723.35
   00:30:11.103.24-Feb-2020 3430.51 5733.69 56.42 2.00 398.45 2723.35
   00:30:11.303.24-Feb-2020 3430.51 5715.26 56.42 2.00 398.65 2723.35
   00:30:11.503.24-Feb-2020 3430.51 5722.80 56.42 2.00 398.85 2723.35
   00:30:11.703.24-Feb-2020 3430.51 5723.18 56.42 2.00 399.05 2723.35
   00:30:11.903.24-Feb-2020 3430.51 5725.07 56.42 2.00 399.25 2723.35
   00:30:12.103.24-Feb-2020 3430.51 5720.67 56.42 2.00 399.45 2723.35
   00:30:12.303.24-Feb-2020 3430.51 5719.31 56.42 2.00 399.65 2723.35
   00:30:12.503.24-Feb-2020 3430.51 5728.17 56.42 2.00 399.85 2723.35
   00:30:12.703.24-Feb-2020 3430.51 5721.11 56.42 2.00 400.05 2723.35
   00:30:12.903.24-Feb-2020 3430.51 5721.11 56.42 2.00 400.25 2723.35
   00:30:13.103.24-Feb-2020 3430.51 5723.09 56.42 2.00 400.45 2723.35
   00:30:13.303.24-Feb-2020 3430.51 5732.39 56.42 2.00 400.65 2723.35
   00:30:13.503.24-Feb-2020 3430.51 5714.53 56.42 2.00 400.85 2723.35
   00:30:13.703.24-Feb-2020 3430.51 5726.70 56.42 2.00 401.05 2723.35
   00:30:13.903.24-Feb-2020 3430.51 5726.70 56.42 2.00 401.25 2723.35
   00:30:14.103.24-Feb-2020 3430.51 5722.59 56.42 2.00 401.45 2723.35
   00:30:14.303.24-Feb-2020 3430.51 5723.21 56.42 2.00 401.65 2723.35
   00:30:14.503.24-Feb-2020 3430.51 5722.38 56.42 2.00 401.85 2723.35
   00:30:14.703.24-Feb-2020 3430.51 5732.81 56.42 2.00 402.05 2723.35
   00:30:14.903.24-Feb-2020 3430.51 5732.81 56.42 2.00 402.25 2723.35
   00:30:15.103.24-Feb-2020 3430.51 5726.52 56.42 2.00 402.45 2723.35
   00:30:15.303.24-Feb-2020 3430.51 5723.83 56.42 2.00 402.65 2723.35
   00:30:15.503.24-Feb-2020 3430.51 5721.67 56.42 2.00 402.85 2723.35
   00:30:15.703.24-Feb-2020 3430.51 5724.76 56.41 2.00 403.05 2723.35
   00:30:15.903.24-Feb-2020 3430.51 5724.76 56.41 2.00 403.25 2723.35
   00:30:16.103.24-Feb-2020 3430.51 5724.02 56.41 2.00 403.45 2723.35
   00:30:16.303.24-Feb-2020 3430.51 5723.61 56.41 2.00 403.65 2723.35
   00:30:16.503.24-Feb-2020 3430.51 5723.94 56.41 2.00 403.85 2723.35
   00:30:16.703.24-Feb-2020 3430.51 5723.77 56.41 2.00 404.05 2723.35
   00:30:16.903.24-Feb-2020 3430.51 5723.77 56.41 2.00 404.25 2723.35
   00:30:17.103.24-Feb-2020 3430.51 5725.01 56.41 2.00 404.45 2723.35
   00:30:17.303.24-Feb-2020 3430.51 5724.32 56.41 2.00 404.65 2723.35
   00:30:17.503.24-Feb-2020 3430.51 5723.85 56.41 2.00 404.85 2723.35
   00:30:17.703.24-Feb-2020 3430.51 5722.44 56.41 2.00 405.05 2723.35
   00:30:17.903.24-Feb-2020 3430.51 5722.44 56.41 2.00 405.25 2723.35
   00:30:18.103.24-Feb-2020 3430.51 5718.43 56.41 2.00 405.45 2723.35
   00:30:18.303.24-Feb-2020 3430.51 5728.91 56.41 2.00 405.65 2723.35
   00:30:18.503.24-Feb-2020 3430.51 5721.37 56.41 2.00 405.85 2723.35
   00:30:18.703.24-Feb-2020 3430.51 5722.65 56.41 2.00 406.05 2723.35
   00:30:18.903.24-Feb-2020 3430.51 5722.65 56.41 2.00 406.25 2723.35
   00:30:19.103.24-Feb-2020 3430.51 5722.25 56.41 2.00 406.45 2723.35
   00:30:19.303.24-Feb-2020 3430.51 5724.44 56.41 2.00 406.65 2723.35
   00:30:19.503.24-Feb-2020 3430.51 5723.44 56.41 2.00 406.85 2723.35
   00:30:19.704.24-Feb-2020 3430.51 5723.60 56.41 2.00 407.05 2723.35
   00:30:19.904.24-Feb-2020 3430.51 5723.60 56.41 2.00 407.25 2723.35
   00:30:20.104.24-Feb-2020 3430.51 5722.99 56.41 2.00 407.45 2723.35
   00:30:20.304.24-Feb-2020 3430.51 5723.21 56.41 2.00 407.65 2723.35
   00:30:20.504.24-Feb-2020 3430.51 5723.19 56.41 2.00 407.85 2723.35
   00:30:20.704.24-Feb-2020 3430.51 5724.34 56.41 2.00 408.05 2723.35
   00:30:20.904.24-Feb-2020 3430.51 5724.34 56.41 2.00 408.25 2723.35
   00:30:21.104.24-Feb-2020 3430.51 5723.52 56.41 2.00 408.45 2723.35
   00:30:21.304.24-Feb-2020 3430.51 5723.08 56.41 2.00 408.65 2723.35
   00:30:21.504.24-Feb-2020 3430.51 5718.54 56.41 2.00 408.85 2723.35
   00:30:21.704.24-Feb-2020 3430.51 5728.38 56.41 2.00 409.05 2723.35
   00:30:21.904.24-Feb-2020 3430.51 5728.38 56.41 2.00 409.25 2723.35
   00:30:22.104.24-Feb-2020 3430.51 5732.99 56.41 2.00 409.45 2723.35
   00:30:22.304.24-Feb-2020 3430.51 5714.46 56.41 2.00 409.65 2723.35
   00:30:22.504.24-Feb-2020 3430.51 5725.47 56.41 2.00 409.85 2723.35
   00:30:22.704.24-Feb-2020 3430.51 5723.41 56.41 2.00 410.05 2723.35
   00:30:22.904.24-Feb-2020 3430.51 5723.41 56.41 2.00 410.25 2723.35
   00:30:23.104.24-Feb-2020 3430.51 5724.11 56.41 2.00 410.45 2723.35
   00:30:23.304.24-Feb-2020 3430.51 5727.80 56.41 2.00 410.65 2723.35
   00:30:23.504.24-Feb-2020 3430.51 5720.19 56.41 2.00 410.85 2723.35
   00:30:23.704.24-Feb-2020 3430.51 5720.59 56.41 2.00 411.05 2723.35
   00:30:23.904.24-Feb-2020 3430.51 5720.59 56.41 2.00 411.25 2723.35
   00:30:24.104.24-Feb-2020 3430.51 5721.58 56.41 2.00 411.45 2723.35
   00:30:24.304.24-Feb-2020 3430.51 5723.93 56.41 2.00 411.65 2723.35
   00:30:24.504.24-Feb-2020 3430.51 5722.48 56.41 2.00 411.85 2723.35
   00:30:24.704.24-Feb-2020 3430.51 5728.33 56.41 2.00 412.05 2723.35
   00:30:24.904.24-Feb-2020 3430.51 5728.33 56.41 2.00 412.25 2723.35
   00:30:25.104.24-Feb-2020 3430.51 5720.11 56.41 2.00 412.45 2723.35
   00:30:25.304.24-Feb-2020 3430.51 5728.97 56.41 2.00 412.65 2723.35
   00:30:25.504.24-Feb-2020 3430.51 5720.49 56.41 2.00 412.85 2723.35
   00:30:25.704.24-Feb-2020 3430.51 5724.09 56.41 2.00 413.05 2723.35
   00:30:25.904.24-Feb-2020 3430.51 5724.09 56.41 2.00 413.25 2723.35
   00:30:26.104.24-Feb-2020 3430.51 5723.03 56.41 2.00 413.45 2723.35
   00:30:26.304.24-Feb-2020 3430.51 5723.47 56.41 2.00 413.65 2723.35
   00:30:26.504.24-Feb-2020 3430.51 5723.64 56.41 2.00 413.85 2723.35
