~Version Information
 VERS.                  2.0:   CWLS log ASCII Standard -VERSION 2.0
 WRAP.                   NO:   One line per depth step
~Well Information Block
#MNEM.UNIT     VALUE/NAME     DESCRIPTION
#---------     -----------    ---------------------------
 STRT.S             23:48:42 23-Feb-20: START TIME 23:48:42 23-Feb-20
 STOP.S             23:55:42 23-Feb-20: STOP TIME  23:55:42 23-Feb-20
 STEP.S                   0.00: STEP TIME
 NULL.                 -999.25: NULL VALUE
 JOBN.        AZ-XX-0905059384:  JOB TICKET NUMB
 PDAT.          Mean Sea Level:  PERMANENT DATUM
 UNIT.                     N/A:  LOGGING EQUIPMENT ID
 DCON.         Sperry Drilling:  DIRECTNL CONTR
 DOE .                     N/A:  DOE NUMBER
 RIG .             West Chirag:  RIG NAME
 WELL.                     J22:  WELL NAME
 MWDS.                    Baku:  MWD SHOP
 SRVC.     TURAN Drilling & Engineering:  CONTRACTOR
 FLD .                     ACG:  FIELD NAME
 CTRY.              Azerbaijan:  COUNTRY NAME
 PROV.                    Baku:  PROVINCE
 STAT.                    Baku:  STATE NAME
 REGN.                   EESSA:  REGION
 BASE.              Azerbaijan:  LOGGING EQUIPMENT BASE LOCATION
 UWI .                     N/A:  UNIQUE WELL IDENTIFIER
 API .                     N/A:  API NUMBER
 COMP.     BP Exploration (Caspian Sea) Ltd.:  COMPANY
 WTYP.                Deviated:  WELL TYPE
 MDS .        Operator Entered:  MAG DATA SOURCE
 SON .        AZ-XX-0905059384:  JOB NUMBER
 FTOP.          Formation Tops:  FORM TOPS DESC
 ILTD.               Lithology:  INTERP LTH DESC
 SVYD.                  Survey:  SURVEY DESC
 DMOD.             Drill Model:  DRILL MOD DESC
 HPTY.       Minimum Curvature:  HOLE POS TYPE
 NREF.                    Grid:  NORTH REFERENCE
 SPUD.               09-Jan-20:  SPUD DATE
 DATE.      14.04.48 07-Feb-20:  END TIME
 STIM.      07.00.00 09-Jan-20:  START TIME
 DMF .             Drill Floor:  DRILL MEAS FROM
 DFST.                        :  DIST FSL TEXT
 DFWT.                        :  DIST FWL TEXT
 CNTY.                        :  COUNTY
 LOC .                        :  LOCATION
 LMF .             Drill Floor:  LOG MEASURED FROM
 DEP .m                   0.00:  DEPTH
 VSNS.m                  10.28:  VERT SEC N/S
 VSEW.m                  -6.24:  VERT SEC E/W
 AGAP.m                  43.00:  AIR GAP
 APD .m                  43.00:  DEPTH ABOVE PD
 WDMS.m                 169.80:  WD ELEV
 EGL .m                   0.00:  GROUND ELEVATION
 EPD .m                   0.00:  ELEVATION
 AZTC.deg                 6.27:  AZM TOTAL CORR
 GRDC.deg                 0.15:  GRID CORRECTION
 MDEC.deg                 6.42:  MAGNETIC DECL
 MDIP.deg                59.56:  MAGNETIC DIP
 MFLD.nT              50277.00:  MAGNETIC FIELD
 GVFD.g                   1.00:  GRAVITY FIELD
 VSDR.deg               148.53:  VERT SEC DIRECT
 TDD .m                3473.01:  TOTAL DEPTH (DRILLER)
 SDEP.m                 364.00:  START DEPTH
 DFSL.m                   0.00:  DISTANCE FSL
 DFWL.m                   0.00:  DISTANCE FWL
 UTMY.m             4443793.85:  UTM Y
 UTMX.m              519005.06:  UTM X
 WHEW.m                  -6.24:  WELL HEAD E/W
 WHNS.m                  10.28:  WELL HEAD N/S
 LONG.deg                51.22:  LONGITUDE
 LATI.deg                40.13:  LATITUDE
 TVDS.m                  43.00:  TVDSS CORRECTN
 EKB .m                   0.00:  KB ELEVATION
 EDF .m                  43.00:  DF ELEVATION
 TDL .m                 254.00:  TOTAL DEPTH (LOGGER)
 MAGU.                 1850021:  MAGUTM CHECKSUM
 VSC .                       0:  VS TO CLOSURE
~Parameter Information Block
#MNEM.UNIT       Value        Description
#---------     -----------    ---------------------------
 AV  .mps                 0.50:  Ann Velocity 
 AVMX.mps                 1.40:  Max Ann Veloc 
 AZIF.deg               144.94:  Azm, Final 
 BHAT.        Rotary Steerable:  BHA Type 
 BROT.°/30m               0.23:  Build Rotating 
 BS  .in                  8.50:  Bit Size 
 BTPL.psig              264.00:  Bit Press Loss 
 CABU.                     Yes:  Customer Abuse 
 COMM.                     ¼ýd:  Run Comments 1 
 TCS .hr                 87.30:  Time Ciculation Ended 
 CV  .mps                 2.45:  Crit Velocity 
 CVMX.mps                 2.74:  Max Crit Veloc 
 DD1 .             Aziz Aliyev:  Direct Drillr 1 
 DDSV.               Geo-Pilot:  DD Service 
 DEFF.%                 100.00:  % Det Eff 
 DLRX.°/30m               1.22:  Dogleg Rot Max 
 DLSO.°/30m               0.52:  Dogleg Oriented 
 DLSX.°/30m               1.22:  Dogleg Str Max 
 DRET.      12.59.00 23-Feb-20:  Drill End Time 
 DRST.      09.44.00 18-Feb-20:  Drill Start Tim 
 DTIM.hr                 23.03:  Time Drilling 
 EDEP.m                3473.01:  End Depth 
 ENG1.         Almaz Almadatov:  Engineer 1 
 ENG2.         Dair Mahammadov:  Engineer 2 
 ENG3.          Nazrin Asgarli:  Engineer 3 
 ETIM.      10.33.36 26-Feb-20:  End Time 
 FLOI.gpm               480.00:  Flow In 
 FLON.gpm               300.00:  Flow In Min 
 FLOS.cptm                1.00:  Fluid Loss 
 FLOX.gpm               550.00:  Flow In Max 
 HFLO.                      No:  High Flow 
 HPRE.                      No:  High Pressure 
 HTEM.                      No:  High Temp 
 HYDO.m                   1.80:  Hydro Offset 
 IFIN.deg                74.42:  Inc, Final 
 IMAX.deg                76.14:  Inc Max 
 IMIN.deg                74.42:  Inc Min 
 IMND.m                3462.72:  Inc Min Depth 
 IMXD.m                3235.69:  Inc Max Depth 
 JARR.                      No:  Jarring 
 LETM.      12.59.00 23-Feb-20:  Log End Time 
 LOST.hr                     0:  Lost Rig Time 
 LSTM.      09.44.00 18-Feb-20:  Log Start Time 
 MDCL.ppm             45000.00:  Mud Chlorides 
 MDES.     Inversion Oil/Synthetic:  Mud Desc 
 DFD .sg                  1.38:  Mud Density 
 MDMN.sg                  1.34:  Dens Mud Min 
 MDMX.sg                  1.49:  Dens Mud Max 
 MOIL.                      67:  Run Mud Oil % 
 MOWR.                   67:33:  Run Mud OWR 
 MSND.                    0.12:  Run Mud Sand % 
 MSOL.                      22:  Run Mud Solids% 
 DFV .spqt               81.00:  Mud Viscosity 
 MWOD.in                  6.75:  MWD Tool OD 
 MWSI.                      No:  Serv Intrp, MWD 
 OTIM.hr                231.44:  Time Operating 
 PCON.          Wear / Scratch:  Pad Condition 
 PMAX.psia             3400.00:  Press Op, Max 
 PV  .cP                 55.00:  Mud PV 
 RUN .                     800:  Run Number 
 ROPA.m/hr               12.00:  ROP Avg 
 ROPN.m/hr                5.00:  ROP Min 
 ROPX.m/hr               28.00:  ROP Max 
 RPMA.rpm               120.00:  RPM Surface Avg 
 RPMN.rpm                40.00:  RPM Surface Min 
 RPMX.rpm               130.00:  RPM Surface Max 
 RRUN.                    0800:  Rig Run Number 
 RTIM.hr                 45.00:  Time Reaming 
 SAZI.deg               145.38:  Azm, Start 
 SDEP.m                3219.01:  Start Depth 
 SIDD.                      No:  Serv Intrp, DD 
 SINC.deg                75.11:  Inc, Start 
 SPPA.psig             2400.00:  SPP Avg 
 SPPN.psig             2320.00:  SPP Min 
 SPPX.psig             3200.00:  SPP Max 
 STIM.      15.15.00 17-Feb-20:  Start Time 
 SVCS.                 DD, MWD:  Services 
 SVER.                    9.20:  Sperry Version 
 TDAT.m                 254.00:  Tot Depth Attmp 
 TDDF.                      No:  Trip for DD 
 TDLG.m                 254.00:  Tot Depth Loggd 
 TFF .                      No:  Trip for Fail 
 TQAA.f-kp               13.00:  Torque Abs Avg 
 TQAN.f-kp                7.00:  Torque Abs Min 
 TQAX.f-kp               15.00:  Torque Abs Max 
 TRRT.°/30m               0.21:  Turn Rotating 
 MRT .                  EWR-M5:  Maximum Recorded Temperature 
 TTMX.degC               64.00:  Max Tool Temp 
 VS01.                90586516:  Virtual Str1 SN 
 VS02.                90513691:  Virtual Str2 SN 
 VS03.                90586523:  Virtual Str3 SN 
 VS04.                90586520:  Virtual Str4 SN 
 VS05.                90590507:  Virtual Str5 SN 
 WBMN.klb                12.00:  WOB Min 
 WITN.           Rufat Babayev:  Customer Rep 2 
 WITN.         Alistair Sprott:  Customer Rep 
 WOBA.klb                18.00:  WOB Avg 
 WOBX.klb                30.00:  WOB Max 
 YP  .lhf2               41.00:  Yield Point 
~Curve Information Block
#MNEM.UNIT                 API CODE     Curve Description
#---------               -----------    ---------------------------
 TIME.HHMMSS            00 000 000 000:  GT Time & Date
 GTDEPTH.m              00 000 000 000:  GT Depth
 GTPQH.psia             00 000 000 000:  GT HR Quartz Pressure
 GTTQ.degC              00 000 000 000:  GT Quartz Temperature
 GTTN.NONE              00 000 000 000:  GT Test Number
 GTET.sec               00 000 000 000:  GT Elapsed Test Time
 GTTVD.m                00 000 000 000:  GT True Vertical Depth
#Other Information
#
#WARRANTY: Halliburton will use its best efforts to furnish customers with 
#accurate information and interpretations that are part of, and incident to, the services 
#provided.  However, Halliburton cannot and does not warrant the accuracy 
#or correctness of such information and interpretations.  Under no circumstances should any 
#such information or interpretation be relied upon as the sole basis for any drilling, 
#completion, production, or financial decision or any procedure involving any risk to the 
#safety of any drilling venture, drilling rig or its crew or any other third party.  The 
#Customer has full responsibility for all drilling, completion and production operation.  
#Halliburton makes no representations or warranties, either expressed or 
#implied, including, but not limited to, the implied warranties of merchantability or fitness 
#for a particular purpose, with respect to the services rendered.  In no event will 
#Halliburton be liable for failure to obtain any particular results or for 
#any damages, including, but not limited to, indirect, special or consequential damages, 
#resulting from the use of any information or interpretation provided by Halliburton.
#
~A           TIME           GTDEPTH  GTPQH  GTTQ  GTTN  GTET   GTTVD  
# ...
   23:52:32.443.23-Feb-2020 3441.51 4209.18 56.59 1.00 230.03 2726.26
   23:52:32.643.23-Feb-2020 3441.51 4209.12 56.59 1.00 230.23 2726.26
   23:52:32.843.23-Feb-2020 3441.51 4209.43 56.59 1.00 230.43 2726.26
   23:52:33.043.23-Feb-2020 3441.51 4208.93 56.59 1.00 230.63 2726.26
   23:52:33.243.23-Feb-2020 3441.51 4209.45 56.59 1.00 230.83 2726.26
   23:52:33.443.23-Feb-2020 3441.51 4208.87 56.59 1.00 231.03 2726.26
   23:52:33.643.23-Feb-2020 3441.51 4208.87 56.59 1.00 231.23 2726.26
   23:52:33.843.23-Feb-2020 3441.51 4208.91 56.59 1.00 231.43 2726.26
   23:52:34.043.23-Feb-2020 3441.51 4209.31 56.59 1.00 231.63 2726.26
   23:52:34.243.23-Feb-2020 3441.51 4209.03 56.59 1.00 231.83 2726.26
   23:52:34.443.23-Feb-2020 3441.51 4209.24 56.59 1.00 232.03 2726.26
   23:52:34.643.23-Feb-2020 3441.51 4209.24 56.59 1.00 232.23 2726.26
   23:52:34.843.23-Feb-2020 3441.51 4209.19 56.59 1.00 232.43 2726.26
   23:52:35.043.23-Feb-2020 3441.51 4209.14 56.59 1.00 232.63 2726.26
   23:52:35.243.23-Feb-2020 3441.51 4209.15 56.59 1.00 232.83 2726.26
   23:52:35.443.23-Feb-2020 3441.51 4209.18 56.59 1.00 233.03 2726.26
   23:52:35.643.23-Feb-2020 3441.51 4209.18 56.59 1.00 233.23 2726.26
   23:52:35.843.23-Feb-2020 3441.51 4209.15 56.59 1.00 233.43 2726.26
   23:52:36.043.23-Feb-2020 3441.51 4209.18 56.59 1.00 233.63 2726.26
   23:52:36.243.23-Feb-2020 3441.51 4209.16 56.59 1.00 233.83 2726.26
   23:52:36.443.23-Feb-2020 3441.51 4209.18 56.59 1.00 234.03 2726.26
   23:52:36.643.23-Feb-2020 3441.51 4209.18 56.59 1.00 234.23 2726.26
   23:52:36.843.23-Feb-2020 3441.51 4208.87 56.59 1.00 234.43 2726.26
   23:52:37.043.23-Feb-2020 3441.51 4209.50 56.59 1.00 234.63 2726.26
   23:52:37.243.23-Feb-2020 3441.51 4209.10 56.59 1.00 234.83 2726.26
   23:52:37.443.23-Feb-2020 3441.51 4209.21 56.59 1.00 235.03 2726.26
   23:52:37.643.23-Feb-2020 3441.51 4209.21 56.59 1.00 235.23 2726.26
   23:52:37.843.23-Feb-2020 3441.51 4209.14 56.59 1.00 235.43 2726.26
   23:52:38.043.23-Feb-2020 3441.51 4209.15 56.59 1.00 235.63 2726.26
   23:52:38.243.23-Feb-2020 3441.51 4209.16 56.59 1.00 235.83 2726.26
   23:52:38.443.23-Feb-2020 3441.51 4209.15 56.59 1.00 236.03 2726.26
   23:52:38.643.23-Feb-2020 3441.51 4209.15 56.59 1.00 236.23 2726.26
   23:52:38.843.23-Feb-2020 3441.51 4209.15 56.59 1.00 236.43 2726.26
   23:52:39.043.23-Feb-2020 3441.51 4209.16 56.59 1.00 236.63 2726.26
   23:52:39.243.23-Feb-2020 3441.51 4209.12 56.59 1.00 236.83 2726.26
   23:52:39.443.23-Feb-2020 3441.51 4209.18 56.59 1.00 237.03 2726.26
   23:52:39.643.23-Feb-2020 3441.51 4209.18 56.59 1.00 237.23 2726.26
   23:52:39.843.23-Feb-2020 3441.51 4209.08 56.59 1.00 237.43 2726.26
   23:52:40.044.23-Feb-2020 3441.51 4209.44 56.59 1.00 237.63 2726.26
   23:52:40.244.23-Feb-2020 3441.51 4209.01 56.59 1.00 237.83 2726.26
   23:52:40.444.23-Feb-2020 3441.51 4209.29 56.59 1.00 238.03 2726.26
   23:52:40.644.23-Feb-2020 3441.51 4209.29 56.59 1.00 238.23 2726.26
   23:52:40.844.23-Feb-2020 3441.51 4209.33 56.59 1.00 238.43 2726.26
   23:52:41.044.23-Feb-2020 3441.51 4208.82 56.59 1.00 238.63 2726.26
   23:52:41.244.23-Feb-2020 3441.51 4209.57 56.59 1.00 238.83 2726.26
   23:52:41.444.23-Feb-2020 3441.51 4209.01 56.59 1.00 239.03 2726.26
   23:52:41.644.23-Feb-2020 3441.51 4209.01 56.59 1.00 239.23 2726.26
   23:52:41.844.23-Feb-2020 3441.51 4209.16 56.59 1.00 239.43 2726.26
   23:52:42.044.23-Feb-2020 3441.51 4209.12 56.59 1.00 239.63 2726.26
   23:52:42.244.23-Feb-2020 3441.51 4209.42 56.59 1.00 239.83 2726.26
   23:52:42.444.23-Feb-2020 3441.51 4208.92 56.59 1.00 240.03 2726.26
   23:52:42.644.23-Feb-2020 3441.51 4208.92 56.59 1.00 240.23 2726.26
   23:52:42.844.23-Feb-2020 3441.51 4208.88 56.59 1.00 240.43 2726.26
   23:52:43.044.23-Feb-2020 3441.51 4209.55 56.59 1.00 240.63 2726.26
   23:52:43.244.23-Feb-2020 3441.51 4208.91 56.59 1.00 240.83 2726.26
   23:52:43.444.23-Feb-2020 3441.51 4209.30 56.59 1.00 241.03 2726.26
   23:52:43.644.23-Feb-2020 3441.51 4209.30 56.59 1.00 241.23 2726.26
   23:52:43.844.23-Feb-2020 3441.51 4209.22 56.59 1.00 241.43 2726.26
   23:52:44.044.23-Feb-2020 3441.51 4209.11 56.59 1.00 241.63 2726.26
   23:52:44.244.23-Feb-2020 3441.51 4209.17 56.59 1.00 241.83 2726.26
   23:52:44.444.23-Feb-2020 3441.51 4209.13 56.59 1.00 242.03 2726.26
   23:52:44.644.23-Feb-2020 3441.51 4209.13 56.59 1.00 242.23 2726.26
   23:52:44.844.23-Feb-2020 3441.51 4209.17 56.59 1.00 242.43 2726.26
   23:52:45.044.23-Feb-2020 3441.51 4209.14 56.59 1.00 242.63 2726.26
   23:52:45.244.23-Feb-2020 3441.51 4209.15 56.59 1.00 242.83 2726.26
   23:52:45.444.23-Feb-2020 3441.51 4209.17 56.59 1.00 243.03 2726.26
   23:52:45.644.23-Feb-2020 3441.51 4209.17 56.59 1.00 243.23 2726.26
   23:52:45.844.23-Feb-2020 3441.51 4209.17 56.59 1.00 243.43 2726.26
   23:52:46.044.23-Feb-2020 3441.51 4209.23 56.59 1.00 243.63 2726.26
   23:52:46.244.23-Feb-2020 3441.51 4208.86 56.59 1.00 243.83 2726.26
   23:52:46.444.23-Feb-2020 3441.51 4209.50 56.59 1.00 244.03 2726.26
   23:52:46.644.23-Feb-2020 3441.51 4209.50 56.59 1.00 244.23 2726.26
   23:52:46.844.23-Feb-2020 3441.51 4209.20 56.59 1.00 244.43 2726.26
   23:52:47.044.23-Feb-2020 3441.51 4209.13 56.59 1.00 244.63 2726.26
   23:52:47.244.23-Feb-2020 3441.51 4209.14 56.59 1.00 244.83 2726.26
   23:52:47.444.23-Feb-2020 3441.51 4209.14 56.59 1.00 245.03 2726.26
   23:52:47.644.23-Feb-2020 3441.51 4209.14 56.59 1.00 245.23 2726.26
   23:52:47.844.23-Feb-2020 3441.51 4209.14 56.59 1.00 245.43 2726.26
   23:52:48.044.23-Feb-2020 3441.51 4209.18 56.59 1.00 245.63 2726.26
   23:52:48.244.23-Feb-2020 3441.51 4209.14 56.59 1.00 245.83 2726.26
   23:52:48.444.23-Feb-2020 3441.51 4209.15 56.59 1.00 246.03 2726.26
   23:52:48.645.23-Feb-2020 3441.51 4209.15 56.59 1.00 246.23 2726.26
   23:52:48.845.23-Feb-2020 3441.51 4209.16 56.59 1.00 246.43 2726.26
   23:52:49.045.23-Feb-2020 3441.51 4209.17 56.59 1.00 246.63 2726.26
   23:52:49.245.23-Feb-2020 3441.51 4209.08 56.59 1.00 246.83 2726.26
   23:52:49.445.23-Feb-2020 3441.51 4209.44 56.59 1.00 247.03 2726.26
   23:52:49.645.23-Feb-2020 3441.51 4209.44 56.59 1.00 247.23 2726.26
   23:52:49.845.23-Feb-2020 3441.51 4209.28 56.59 1.00 247.43 2726.26
   23:52:50.045.23-Feb-2020 3441.51 4209.00 56.59 1.00 247.63 2726.26
   23:52:50.245.23-Feb-2020 3441.51 4209.33 56.59 1.00 247.83 2726.26
   23:52:50.445.23-Feb-2020 3441.51 4208.82 56.59 1.00 248.03 2726.26
   23:52:50.645.23-Feb-2020 3441.51 4208.82 56.59 1.00 248.23 2726.26
   23:52:50.845.23-Feb-2020 3441.51 4209.01 56.59 1.00 248.43 2726.26
   23:52:51.045.23-Feb-2020 3441.51 4209.20 56.59 1.00 248.63 2726.26
   23:52:51.245.23-Feb-2020 3441.51 4209.17 56.59 1.00 248.83 2726.26
   23:52:51.445.23-Feb-2020 3441.51 4209.11 56.59 1.00 249.03 2726.26
   23:52:51.645.23-Feb-2020 3441.51 4209.11 56.59 1.00 249.23 2726.26
   23:52:51.845.23-Feb-2020 3441.51 4208.91 56.59 1.00 249.43 2726.26
   23:52:52.045.23-Feb-2020 3441.51 4209.45 56.59 1.00 249.63 2726.26
   23:52:52.245.23-Feb-2020 3441.51 4208.87 56.59 1.00 249.83 2726.26
   23:52:52.445.23-Feb-2020 3441.51 4209.55 56.59 1.00 250.03 2726.26
   23:52:52.645.23-Feb-2020 3441.51 4208.89 56.59 1.00 250.23 2726.26
   23:52:52.845.23-Feb-2020 3441.51 4209.30 56.59 1.00 250.43 2726.26
   23:52:53.045.23-Feb-2020 3441.51 4209.02 56.59 1.00 250.63 2726.26
   23:52:53.245.23-Feb-2020 3441.51 4209.21 56.59 1.00 250.83 2726.26
   23:52:53.445.23-Feb-2020 3441.51 4209.11 56.59 1.00 251.03 2726.26
   23:52:53.645.23-Feb-2020 3441.51 4209.11 56.59 1.00 251.23 2726.26
   23:52:53.845.23-Feb-2020 3441.51 4209.12 56.59 1.00 251.43 2726.26
   23:52:54.045.23-Feb-2020 3441.51 4209.14 56.59 1.00 251.63 2726.26
   23:52:54.245.23-Feb-2020 3441.51 4209.17 56.59 1.00 251.83 2726.26
   23:52:54.445.23-Feb-2020 3441.51 4209.14 56.59 1.00 252.03 2726.26
   23:52:54.645.23-Feb-2020 3441.51 4209.14 56.59 1.00 252.23 2726.26
   23:52:54.845.23-Feb-2020 3441.51 4209.15 56.59 1.00 252.43 2726.26
   23:52:55.045.23-Feb-2020 3441.51 4209.14 56.59 1.00 252.63 2726.26
   23:52:55.245.23-Feb-2020 3441.51 4209.15 56.59 1.00 252.83 2726.26
