~Version Information
 VERS.                  2.0:   CWLS log ASCII Standard -VERSION 2.0
 WRAP.                   NO:   One line per depth step
~Well Information Block
#MNEM.UNIT     VALUE/NAME     DESCRIPTION
#---------     -----------    ---------------------------
 STRT.S             06:02:59 24-Feb-20: START TIME 06:02:59 24-Feb-20
 STOP.S             06:10:09 24-Feb-20: STOP TIME  06:10:09 24-Feb-20
 STEP.S                   0.00: STEP TIME
 NULL.                 -999.25: NULL VALUE
 JOBN.        AZ-XX-0905059384:  JOB TICKET NUMB
 PDAT.          Mean Sea Level:  PERMANENT DATUM
 UNIT.                     N/A:  LOGGING EQUIPMENT ID
 DCON.         Sperry Drilling:  DIRECTNL CONTR
 DOE .                     N/A:  DOE NUMBER
 RIG .             West Chirag:  RIG NAME
 WELL.                     J22:  WELL NAME
 MWDS.                    Baku:  MWD SHOP
 SRVC.     TURAN Drilling & Engineering:  CONTRACTOR
 FLD .                     ACG:  FIELD NAME
 CTRY.              Azerbaijan:  COUNTRY NAME
 PROV.                    Baku:  PROVINCE
 STAT.                    Baku:  STATE NAME
 REGN.                   EESSA:  REGION
 BASE.              Azerbaijan:  LOGGING EQUIPMENT BASE LOCATION
 UWI .                     N/A:  UNIQUE WELL IDENTIFIER
 API .                     N/A:  API NUMBER
 COMP.     BP Exploration (Caspian Sea) Ltd.:  COMPANY
 WTYP.                Deviated:  WELL TYPE
 MDS .        Operator Entered:  MAG DATA SOURCE
 SON .        AZ-XX-0905059384:  JOB NUMBER
 FTOP.          Formation Tops:  FORM TOPS DESC
 ILTD.               Lithology:  INTERP LTH DESC
 SVYD.                  Survey:  SURVEY DESC
 DMOD.             Drill Model:  DRILL MOD DESC
 HPTY.       Minimum Curvature:  HOLE POS TYPE
 NREF.                    Grid:  NORTH REFERENCE
 SPUD.               09-Jan-20:  SPUD DATE
 DATE.      14.04.48 07-Feb-20:  END TIME
 STIM.      07.00.00 09-Jan-20:  START TIME
 DMF .             Drill Floor:  DRILL MEAS FROM
 DFST.                        :  DIST FSL TEXT
 DFWT.                        :  DIST FWL TEXT
 CNTY.                        :  COUNTY
 LOC .                        :  LOCATION
 LMF .             Drill Floor:  LOG MEASURED FROM
 DEP .m                   0.00:  DEPTH
 VSNS.m                  10.28:  VERT SEC N/S
 VSEW.m                  -6.24:  VERT SEC E/W
 AGAP.m                  43.00:  AIR GAP
 APD .m                  43.00:  DEPTH ABOVE PD
 WDMS.m                 169.80:  WD ELEV
 EGL .m                   0.00:  GROUND ELEVATION
 EPD .m                   0.00:  ELEVATION
 AZTC.deg                 6.27:  AZM TOTAL CORR
 GRDC.deg                 0.15:  GRID CORRECTION
 MDEC.deg                 6.42:  MAGNETIC DECL
 MDIP.deg                59.56:  MAGNETIC DIP
 MFLD.nT              50277.00:  MAGNETIC FIELD
 GVFD.g                   1.00:  GRAVITY FIELD
 VSDR.deg               148.53:  VERT SEC DIRECT
 TDD .m                3473.01:  TOTAL DEPTH (DRILLER)
 SDEP.m                 364.00:  START DEPTH
 DFSL.m                   0.00:  DISTANCE FSL
 DFWL.m                   0.00:  DISTANCE FWL
 UTMY.m             4443793.85:  UTM Y
 UTMX.m              519005.06:  UTM X
 WHEW.m                  -6.24:  WELL HEAD E/W
 WHNS.m                  10.28:  WELL HEAD N/S
 LONG.deg                51.22:  LONGITUDE
 LATI.deg                40.13:  LATITUDE
 TVDS.m                  43.00:  TVDSS CORRECTN
 EKB .m                   0.00:  KB ELEVATION
 EDF .m                  43.00:  DF ELEVATION
 TDL .m                 254.00:  TOTAL DEPTH (LOGGER)
 MAGU.                 1850021:  MAGUTM CHECKSUM
 VSC .                       0:  VS TO CLOSURE
~Parameter Information Block
#MNEM.UNIT       Value        Description
#---------     -----------    ---------------------------
 AV  .mps                 0.50:  Ann Velocity 
 AVMX.mps                 1.40:  Max Ann Veloc 
 AZIF.deg               144.94:  Azm, Final 
 BHAT.        Rotary Steerable:  BHA Type 
 BROT.°/30m               0.23:  Build Rotating 
 BS  .in                  8.50:  Bit Size 
 BTPL.psig              264.00:  Bit Press Loss 
 CABU.                     Yes:  Customer Abuse 
 COMM.                     ä\:  Run Comments 1 
 TCS .hr                 87.30:  Time Ciculation Ended 
 CV  .mps                 2.45:  Crit Velocity 
 CVMX.mps                 2.74:  Max Crit Veloc 
 DD1 .             Aziz Aliyev:  Direct Drillr 1 
 DDSV.               Geo-Pilot:  DD Service 
 DEFF.%                 100.00:  % Det Eff 
 DLRX.°/30m               1.22:  Dogleg Rot Max 
 DLSO.°/30m               0.52:  Dogleg Oriented 
 DLSX.°/30m               1.22:  Dogleg Str Max 
 DRET.      12.59.00 23-Feb-20:  Drill End Time 
 DRST.      09.44.00 18-Feb-20:  Drill Start Tim 
 DTIM.hr                 23.03:  Time Drilling 
 EDEP.m                3473.01:  End Depth 
 ENG1.         Almaz Almadatov:  Engineer 1 
 ENG2.         Dair Mahammadov:  Engineer 2 
 ENG3.          Nazrin Asgarli:  Engineer 3 
 ETIM.      10.33.36 26-Feb-20:  End Time 
 FLOI.gpm               480.00:  Flow In 
 FLON.gpm               300.00:  Flow In Min 
 FLOS.cptm                1.00:  Fluid Loss 
 FLOX.gpm               550.00:  Flow In Max 
 HFLO.                      No:  High Flow 
 HPRE.                      No:  High Pressure 
 HTEM.                      No:  High Temp 
 HYDO.m                   1.80:  Hydro Offset 
 IFIN.deg                74.42:  Inc, Final 
 IMAX.deg                76.14:  Inc Max 
 IMIN.deg                74.42:  Inc Min 
 IMND.m                3462.72:  Inc Min Depth 
 IMXD.m                3235.69:  Inc Max Depth 
 JARR.                      No:  Jarring 
 LETM.      12.59.00 23-Feb-20:  Log End Time 
 LOST.hr                     0:  Lost Rig Time 
 LSTM.      09.44.00 18-Feb-20:  Log Start Time 
 MDCL.ppm             45000.00:  Mud Chlorides 
 MDES.     Inversion Oil/Synthetic:  Mud Desc 
 DFD .sg                  1.38:  Mud Density 
 MDMN.sg                  1.34:  Dens Mud Min 
 MDMX.sg                  1.49:  Dens Mud Max 
 MOIL.                      67:  Run Mud Oil % 
 MOWR.                   67:33:  Run Mud OWR 
 MSND.                    0.12:  Run Mud Sand % 
 MSOL.                      22:  Run Mud Solids% 
 DFV .spqt               81.00:  Mud Viscosity 
 MWOD.in                  6.75:  MWD Tool OD 
 MWSI.                      No:  Serv Intrp, MWD 
 OTIM.hr                231.44:  Time Operating 
 PCON.          Wear / Scratch:  Pad Condition 
 PMAX.psia             3400.00:  Press Op, Max 
 PV  .cP                 55.00:  Mud PV 
 RUN .                     800:  Run Number 
 ROPA.m/hr               12.00:  ROP Avg 
 ROPN.m/hr                5.00:  ROP Min 
 ROPX.m/hr               28.00:  ROP Max 
 RPMA.rpm               120.00:  RPM Surface Avg 
 RPMN.rpm                40.00:  RPM Surface Min 
 RPMX.rpm               130.00:  RPM Surface Max 
 RRUN.                    0800:  Rig Run Number 
 RTIM.hr                 45.00:  Time Reaming 
 SAZI.deg               145.38:  Azm, Start 
 SDEP.m                3219.01:  Start Depth 
 SIDD.                      No:  Serv Intrp, DD 
 SINC.deg                75.11:  Inc, Start 
 SPPA.psig             2400.00:  SPP Avg 
 SPPN.psig             2320.00:  SPP Min 
 SPPX.psig             3200.00:  SPP Max 
 STIM.      15.15.00 17-Feb-20:  Start Time 
 SVCS.                 DD, MWD:  Services 
 SVER.                    9.20:  Sperry Version 
 TDAT.m                 254.00:  Tot Depth Attmp 
 TDDF.                      No:  Trip for DD 
 TDLG.m                 254.00:  Tot Depth Loggd 
 TFF .                      No:  Trip for Fail 
 TQAA.f-kp               13.00:  Torque Abs Avg 
 TQAN.f-kp                7.00:  Torque Abs Min 
 TQAX.f-kp               15.00:  Torque Abs Max 
 TRRT.°/30m               0.21:  Turn Rotating 
 MRT .                  EWR-M5:  Maximum Recorded Temperature 
 TTMX.degC               64.00:  Max Tool Temp 
 VS01.                90586516:  Virtual Str1 SN 
 VS02.                90513691:  Virtual Str2 SN 
 VS03.                90586523:  Virtual Str3 SN 
 VS04.                90586520:  Virtual Str4 SN 
 VS05.                90590507:  Virtual Str5 SN 
 WBMN.klb                12.00:  WOB Min 
 WITN.           Rufat Babayev:  Customer Rep 2 
 WITN.         Alistair Sprott:  Customer Rep 
 WOBA.klb                18.00:  WOB Avg 
 WOBX.klb                30.00:  WOB Max 
 YP  .lhf2               41.00:  Yield Point 
~Curve Information Block
#MNEM.UNIT                 API CODE     Curve Description
#---------               -----------    ---------------------------
 TIME.HHMMSS            00 000 000 000:  GT Time & Date
 GTDEPTH.m              00 000 000 000:  GT Depth
 GTPQH.psia             00 000 000 000:  GT HR Quartz Pressure
 GTTQ.degC              00 000 000 000:  GT Quartz Temperature
 GTTN.NONE              00 000 000 000:  GT Test Number
 GTET.sec               00 000 000 000:  GT Elapsed Test Time
 GTTVD.m                00 000 000 000:  GT True Vertical Depth
#Other Information
#
#WARRANTY: Halliburton will use its best efforts to furnish customers with 
#accurate information and interpretations that are part of, and incident to, the services 
#provided.  However, Halliburton cannot and does not warrant the accuracy 
#or correctness of such information and interpretations.  Under no circumstances should any 
#such information or interpretation be relied upon as the sole basis for any drilling, 
#completion, production, or financial decision or any procedure involving any risk to the 
#safety of any drilling venture, drilling rig or its crew or any other third party.  The 
#Customer has full responsibility for all drilling, completion and production operation.  
#Halliburton makes no representations or warranties, either expressed or 
#implied, including, but not limited to, the implied warranties of merchantability or fitness 
#for a particular purpose, with respect to the services rendered.  In no event will 
#Halliburton be liable for failure to obtain any particular results or for 
#any damages, including, but not limited to, indirect, special or consequential damages, 
#resulting from the use of any information or interpretation provided by Halliburton.
#
~A           TIME           GTDEPTH  GTPQH  GTTQ  GTTN  GTET   GTTVD  
# ...
   06:09:30.255.24-Feb-2020 3290.31 5676.69 54.61 9.00 391.09 2687.60
   06:09:30.455.24-Feb-2020 3290.31 5677.12 54.62 9.00 391.29 2687.60
   06:09:30.655.24-Feb-2020 3290.31 5686.53 54.62 9.00 391.49 2687.60
   06:09:30.855.24-Feb-2020 3290.31 5675.21 54.62 9.00 391.69 2687.60
   06:09:31.055.24-Feb-2020 3290.31 5673.65 54.62 9.00 391.89 2687.60
   06:09:31.255.24-Feb-2020 3290.31 5676.29 54.62 9.00 392.09 2687.60
   06:09:31.455.24-Feb-2020 3290.31 5676.29 54.62 9.00 392.29 2687.60
   06:09:31.655.24-Feb-2020 3290.31 5675.72 54.62 9.00 392.49 2687.60
   06:09:31.855.24-Feb-2020 3290.31 5675.33 54.62 9.00 392.69 2687.60
   06:09:32.055.24-Feb-2020 3290.31 5675.01 54.62 9.00 392.89 2687.60
   06:09:32.255.24-Feb-2020 3290.31 5675.95 54.62 9.00 393.09 2687.60
   06:09:32.455.24-Feb-2020 3290.31 5675.95 54.62 9.00 393.29 2687.60
   06:09:32.655.24-Feb-2020 3290.31 5675.72 54.62 9.00 393.49 2687.60
   06:09:32.855.24-Feb-2020 3290.31 5674.73 54.63 9.00 393.69 2687.60
   06:09:33.056.24-Feb-2020 3290.31 5672.94 54.63 9.00 393.89 2687.60
   06:09:33.256.24-Feb-2020 3290.31 5673.46 54.63 9.00 394.09 2687.60
   06:09:33.456.24-Feb-2020 3290.31 5673.46 54.63 9.00 394.29 2687.60
   06:09:33.656.24-Feb-2020 3290.31 5675.44 54.63 9.00 394.49 2687.60
   06:09:33.856.24-Feb-2020 3290.31 5674.36 54.63 9.00 394.69 2687.60
   06:09:34.056.24-Feb-2020 3290.31 5681.55 54.63 9.00 394.89 2687.60
   06:09:34.256.24-Feb-2020 3290.31 5674.07 54.63 9.00 395.09 2687.60
   06:09:34.456.24-Feb-2020 3290.31 5674.37 54.63 9.00 395.29 2687.60
   06:09:34.656.24-Feb-2020 3290.31 5676.70 54.63 9.00 395.49 2687.60
   06:09:34.856.24-Feb-2020 3290.31 5676.60 54.63 9.00 395.69 2687.60
   06:09:35.056.24-Feb-2020 3290.31 5686.02 54.63 9.00 395.89 2687.60
   06:09:35.256.24-Feb-2020 3290.31 5674.16 54.63 9.00 396.09 2687.60
   06:09:35.456.24-Feb-2020 3290.31 5674.16 54.63 9.00 396.29 2687.60
   06:09:35.656.24-Feb-2020 3290.31 5680.79 54.63 9.00 396.49 2687.60
   06:09:35.856.24-Feb-2020 3290.31 5680.10 54.63 9.00 396.69 2687.60
   06:09:36.056.24-Feb-2020 3290.31 5675.91 54.63 9.00 396.89 2687.60
   06:09:36.256.24-Feb-2020 3290.31 5676.37 54.63 9.00 397.09 2687.60
   06:09:36.456.24-Feb-2020 3290.31 5676.37 54.63 9.00 397.29 2687.60
   06:09:36.656.24-Feb-2020 3290.31 5678.21 54.63 9.00 397.49 2687.60
   06:09:36.856.24-Feb-2020 3290.31 5677.58 54.63 9.00 397.69 2687.60
   06:09:37.056.24-Feb-2020 3290.31 5679.97 54.63 9.00 397.89 2687.60
   06:09:37.256.24-Feb-2020 3290.31 5679.65 54.63 9.00 398.09 2687.60
   06:09:37.456.24-Feb-2020 3290.31 5679.65 54.63 9.00 398.29 2687.60
   06:09:37.657.24-Feb-2020 3290.31 5676.27 54.63 9.00 398.49 2687.60
   06:09:37.857.24-Feb-2020 3290.31 5676.80 54.63 9.00 398.69 2687.60
   06:09:38.057.24-Feb-2020 3290.31 5676.72 54.63 9.00 398.89 2687.60
   06:09:38.257.24-Feb-2020 3290.31 5676.97 54.63 9.00 399.09 2687.60
   06:09:38.457.24-Feb-2020 3290.31 5676.99 54.63 9.00 399.29 2687.60
   06:09:38.657.24-Feb-2020 3290.31 5677.07 54.63 9.00 399.49 2687.60
   06:09:38.857.24-Feb-2020 3290.31 5677.00 54.63 9.00 399.69 2687.60
   06:09:39.057.24-Feb-2020 3290.31 5676.91 54.63 9.00 399.89 2687.60
   06:09:39.257.24-Feb-2020 3290.31 5676.85 54.62 9.00 400.09 2687.60
   06:09:39.457.24-Feb-2020 3290.31 5676.85 54.62 9.00 400.29 2687.60
   06:09:39.657.24-Feb-2020 3290.31 5676.87 54.62 9.00 400.49 2687.60
   06:09:39.857.24-Feb-2020 3290.31 5677.30 54.62 9.00 400.69 2687.60
   06:09:40.057.24-Feb-2020 3290.31 5677.00 54.62 9.00 400.89 2687.60
   06:09:40.257.24-Feb-2020 3290.31 5685.47 54.62 9.00 401.09 2687.60
   06:09:40.457.24-Feb-2020 3290.31 5685.47 54.62 9.00 401.29 2687.60
   06:09:40.657.24-Feb-2020 3290.31 5673.83 54.62 9.00 401.49 2687.60
   06:09:40.857.24-Feb-2020 3290.31 5676.28 54.62 9.00 401.69 2687.60
   06:09:41.057.24-Feb-2020 3290.31 5676.80 54.62 9.00 401.89 2687.60
   06:09:41.257.24-Feb-2020 3290.31 5675.55 54.62 9.00 402.09 2687.60
   06:09:41.457.24-Feb-2020 3290.31 5675.55 54.62 9.00 402.29 2687.60
   06:09:41.657.24-Feb-2020 3290.31 5675.49 54.62 9.00 402.49 2687.60
   06:09:41.857.24-Feb-2020 3290.31 5675.87 54.62 9.00 402.69 2687.60
   06:09:42.057.24-Feb-2020 3290.31 5674.74 54.62 9.00 402.89 2687.60
   06:09:42.258.24-Feb-2020 3290.31 5674.02 54.62 9.00 403.09 2687.60
   06:09:42.458.24-Feb-2020 3290.31 5673.22 54.62 9.00 403.29 2687.60
   06:09:42.658.24-Feb-2020 3290.31 5672.65 54.62 9.00 403.49 2687.60
   06:09:42.858.24-Feb-2020 3290.31 5674.08 54.62 9.00 403.69 2687.60
   06:09:43.058.24-Feb-2020 3290.31 5674.65 54.62 9.00 403.89 2687.60
   06:09:43.258.24-Feb-2020 3290.31 5672.25 54.62 9.00 404.09 2687.60
   06:09:43.458.24-Feb-2020 3290.31 5672.25 54.62 9.00 404.29 2687.60
   06:09:43.658.24-Feb-2020 3290.31 5679.41 54.62 9.00 404.49 2687.60
   06:09:43.858.24-Feb-2020 3290.31 5673.67 54.62 9.00 404.69 2687.60
   06:09:44.058.24-Feb-2020 3290.31 5673.79 54.62 9.00 404.89 2687.60
   06:09:44.258.24-Feb-2020 3290.31 5675.81 54.62 9.00 405.09 2687.60
   06:09:44.458.24-Feb-2020 3290.31 5675.81 54.62 9.00 405.29 2687.60
   06:09:44.658.24-Feb-2020 3290.31 5685.72 54.61 9.00 405.49 2687.60
   06:09:44.858.24-Feb-2020 3290.31 5674.86 54.61 9.00 405.69 2687.60
   06:09:45.058.24-Feb-2020 3290.31 5674.33 54.61 9.00 405.89 2687.60
   06:09:45.258.24-Feb-2020 3290.31 5676.47 54.61 9.00 406.09 2687.60
   06:09:45.458.24-Feb-2020 3290.31 5676.47 54.61 9.00 406.29 2687.60
   06:09:45.658.24-Feb-2020 3290.31 5674.57 54.61 9.00 406.49 2687.60
   06:09:45.858.24-Feb-2020 3290.31 5674.53 54.61 9.00 406.69 2687.60
   06:09:46.058.24-Feb-2020 3290.31 5677.20 54.61 9.00 406.89 2687.60
   06:09:46.258.24-Feb-2020 3290.31 5677.08 54.61 9.00 407.09 2687.60
   06:09:46.458.24-Feb-2020 3290.31 5685.51 54.61 9.00 407.29 2687.60
   06:09:46.658.24-Feb-2020 3290.31 5674.33 54.61 9.00 407.49 2687.60
   06:09:46.859.24-Feb-2020 3290.31 5674.01 54.61 9.00 407.69 2687.60
   06:09:47.059.24-Feb-2020 3290.31 5676.26 54.61 9.00 407.89 2687.60
   06:09:47.259.24-Feb-2020 3290.31 5677.06 54.61 9.00 408.09 2687.60
   06:09:47.459.24-Feb-2020 3290.31 5677.06 54.61 9.00 408.29 2687.60
   06:09:47.659.24-Feb-2020 3290.31 5677.55 54.61 9.00 408.49 2687.60
   06:09:47.859.24-Feb-2020 3290.31 5677.74 54.61 9.00 408.69 2687.60
   06:09:48.059.24-Feb-2020 3290.31 5679.24 54.61 9.00 408.89 2687.60
   06:09:48.259.24-Feb-2020 3290.31 5679.24 54.61 9.00 409.09 2687.60
   06:09:48.459.24-Feb-2020 3290.31 5679.24 54.61 9.00 409.29 2687.60
   06:09:48.659.24-Feb-2020 3290.31 5679.14 54.61 9.00 409.49 2687.60
   06:09:48.859.24-Feb-2020 3290.31 5678.36 54.61 9.00 409.69 2687.60
   06:09:49.059.24-Feb-2020 3290.31 5678.14 54.61 9.00 409.89 2687.60
   06:09:49.259.24-Feb-2020 3290.31 5678.34 54.61 9.00 410.09 2687.60
   06:09:49.459.24-Feb-2020 3290.31 5678.34 54.61 9.00 410.29 2687.60
   06:09:49.659.24-Feb-2020 3290.31 5687.59 54.60 9.00 410.49 2687.60
   06:09:49.859.24-Feb-2020 3290.31 5674.39 54.60 9.00 410.69 2687.60
   06:09:50.059.24-Feb-2020 3290.31 5674.55 54.60 9.00 410.89 2687.60
   06:09:50.259.24-Feb-2020 3290.31 5677.02 54.60 9.00 411.09 2687.60
   06:09:50.459.24-Feb-2020 3290.31 5676.89 54.60 9.00 411.29 2687.60
   06:09:50.659.24-Feb-2020 3290.31 5677.40 54.60 9.00 411.49 2687.60
   06:09:50.859.24-Feb-2020 3290.31 5677.24 54.60 9.00 411.69 2687.60
   06:09:51.059.24-Feb-2020 3290.31 5677.60 54.60 9.00 411.89 2687.60
   06:09:51.260.24-Feb-2020 3290.31 5680.25 54.60 9.00 412.09 2687.60
   06:09:51.460.24-Feb-2020 3290.31 5680.25 54.60 9.00 412.29 2687.60
   06:09:51.660.24-Feb-2020 3290.31 5679.85 54.60 9.00 412.49 2687.60
   06:09:51.860.24-Feb-2020 3290.31 5679.17 54.60 9.00 412.69 2687.60
   06:09:52.060.24-Feb-2020 3290.31 5678.93 54.60 9.00 412.89 2687.60
   06:09:52.260.24-Feb-2020 3290.31 5679.99 54.60 9.00 413.09 2687.60
   06:09:52.460.24-Feb-2020 3290.31 5679.99 54.60 9.00 413.29 2687.60
   06:09:52.660.24-Feb-2020 3290.31 5679.81 54.60 9.00 413.49 2687.60
   06:09:52.860.24-Feb-2020 3290.31 5678.25 54.60 9.00 413.69 2687.60
   06:09:53.060.24-Feb-2020 3290.31 5686.35 54.60 9.00 413.89 2687.60
