~Version Information
 VERS.                  2.0:   CWLS log ASCII Standard -VERSION 2.0
 WRAP.                   NO:   One line per depth step
~Well Information Block
#MNEM.UNIT     VALUE/NAME     DESCRIPTION
#---------     -----------    ---------------------------
 STRT.S             06:02:59 24-Feb-20: START TIME 06:02:59 24-Feb-20
 STOP.S             06:10:09 24-Feb-20: STOP TIME  06:10:09 24-Feb-20
 STEP.S                   0.00: STEP TIME
 NULL.                 -999.25: NULL VALUE
 JOBN.        AZ-XX-0905059384:  JOB TICKET NUMB
 PDAT.          Mean Sea Level:  PERMANENT DATUM
 UNIT.                     N/A:  LOGGING EQUIPMENT ID
 DCON.         Sperry Drilling:  DIRECTNL CONTR
 DOE .                     N/A:  DOE NUMBER
 RIG .             West Chirag:  RIG NAME
 WELL.                     J22:  WELL NAME
 MWDS.                    Baku:  MWD SHOP
 SRVC.     TURAN Drilling & Engineering:  CONTRACTOR
 FLD .                     ACG:  FIELD NAME
 CTRY.              Azerbaijan:  COUNTRY NAME
 PROV.                    Baku:  PROVINCE
 STAT.                    Baku:  STATE NAME
 REGN.                   EESSA:  REGION
 BASE.              Azerbaijan:  LOGGING EQUIPMENT BASE LOCATION
 UWI .                     N/A:  UNIQUE WELL IDENTIFIER
 API .                     N/A:  API NUMBER
 COMP.     BP Exploration (Caspian Sea) Ltd.:  COMPANY
 WTYP.                Deviated:  WELL TYPE
 MDS .        Operator Entered:  MAG DATA SOURCE
 SON .        AZ-XX-0905059384:  JOB NUMBER
 FTOP.          Formation Tops:  FORM TOPS DESC
 ILTD.               Lithology:  INTERP LTH DESC
 SVYD.                  Survey:  SURVEY DESC
 DMOD.             Drill Model:  DRILL MOD DESC
 HPTY.       Minimum Curvature:  HOLE POS TYPE
 NREF.                    Grid:  NORTH REFERENCE
 SPUD.               09-Jan-20:  SPUD DATE
 DATE.      14.04.48 07-Feb-20:  END TIME
 STIM.      07.00.00 09-Jan-20:  START TIME
 DMF .             Drill Floor:  DRILL MEAS FROM
 DFST.                        :  DIST FSL TEXT
 DFWT.                        :  DIST FWL TEXT
 CNTY.                        :  COUNTY
 LOC .                        :  LOCATION
 LMF .             Drill Floor:  LOG MEASURED FROM
 DEP .m                   0.00:  DEPTH
 VSNS.m                  10.28:  VERT SEC N/S
 VSEW.m                  -6.24:  VERT SEC E/W
 AGAP.m                  43.00:  AIR GAP
 APD .m                  43.00:  DEPTH ABOVE PD
 WDMS.m                 169.80:  WD ELEV
 EGL .m                   0.00:  GROUND ELEVATION
 EPD .m                   0.00:  ELEVATION
 AZTC.deg                 6.27:  AZM TOTAL CORR
 GRDC.deg                 0.15:  GRID CORRECTION
 MDEC.deg                 6.42:  MAGNETIC DECL
 MDIP.deg                59.56:  MAGNETIC DIP
 MFLD.nT              50277.00:  MAGNETIC FIELD
 GVFD.g                   1.00:  GRAVITY FIELD
 VSDR.deg               148.53:  VERT SEC DIRECT
 TDD .m                3473.01:  TOTAL DEPTH (DRILLER)
 SDEP.m                 364.00:  START DEPTH
 DFSL.m                   0.00:  DISTANCE FSL
 DFWL.m                   0.00:  DISTANCE FWL
 UTMY.m             4443793.85:  UTM Y
 UTMX.m              519005.06:  UTM X
 WHEW.m                  -6.24:  WELL HEAD E/W
 WHNS.m                  10.28:  WELL HEAD N/S
 LONG.deg                51.22:  LONGITUDE
 LATI.deg                40.13:  LATITUDE
 TVDS.m                  43.00:  TVDSS CORRECTN
 EKB .m                   0.00:  KB ELEVATION
 EDF .m                  43.00:  DF ELEVATION
 TDL .m                 254.00:  TOTAL DEPTH (LOGGER)
 MAGU.                 1850021:  MAGUTM CHECKSUM
 VSC .                       0:  VS TO CLOSURE
~Parameter Information Block
#MNEM.UNIT       Value        Description
#---------     -----------    ---------------------------
 AV  .mps                 0.50:  Ann Velocity 
 AVMX.mps                 1.40:  Max Ann Veloc 
 AZIF.deg               144.94:  Azm, Final 
 BHAT.        Rotary Steerable:  BHA Type 
 BROT.°/30m               0.23:  Build Rotating 
 BS  .in                  8.50:  Bit Size 
 BTPL.psig              264.00:  Bit Press Loss 
 CABU.                     Yes:  Customer Abuse 
 COMM.                     ä\:  Run Comments 1 
 TCS .hr                 87.30:  Time Ciculation Ended 
 CV  .mps                 2.45:  Crit Velocity 
 CVMX.mps                 2.74:  Max Crit Veloc 
 DD1 .             Aziz Aliyev:  Direct Drillr 1 
 DDSV.               Geo-Pilot:  DD Service 
 DEFF.%                 100.00:  % Det Eff 
 DLRX.°/30m               1.22:  Dogleg Rot Max 
 DLSO.°/30m               0.52:  Dogleg Oriented 
 DLSX.°/30m               1.22:  Dogleg Str Max 
 DRET.      12.59.00 23-Feb-20:  Drill End Time 
 DRST.      09.44.00 18-Feb-20:  Drill Start Tim 
 DTIM.hr                 23.03:  Time Drilling 
 EDEP.m                3473.01:  End Depth 
 ENG1.         Almaz Almadatov:  Engineer 1 
 ENG2.         Dair Mahammadov:  Engineer 2 
 ENG3.          Nazrin Asgarli:  Engineer 3 
 ETIM.      10.33.36 26-Feb-20:  End Time 
 FLOI.gpm               480.00:  Flow In 
 FLON.gpm               300.00:  Flow In Min 
 FLOS.cptm                1.00:  Fluid Loss 
 FLOX.gpm               550.00:  Flow In Max 
 HFLO.                      No:  High Flow 
 HPRE.                      No:  High Pressure 
 HTEM.                      No:  High Temp 
 HYDO.m                   1.80:  Hydro Offset 
 IFIN.deg                74.42:  Inc, Final 
 IMAX.deg                76.14:  Inc Max 
 IMIN.deg                74.42:  Inc Min 
 IMND.m                3462.72:  Inc Min Depth 
 IMXD.m                3235.69:  Inc Max Depth 
 JARR.                      No:  Jarring 
 LETM.      12.59.00 23-Feb-20:  Log End Time 
 LOST.hr                     0:  Lost Rig Time 
 LSTM.      09.44.00 18-Feb-20:  Log Start Time 
 MDCL.ppm             45000.00:  Mud Chlorides 
 MDES.     Inversion Oil/Synthetic:  Mud Desc 
 DFD .sg                  1.38:  Mud Density 
 MDMN.sg                  1.34:  Dens Mud Min 
 MDMX.sg                  1.49:  Dens Mud Max 
 MOIL.                      67:  Run Mud Oil % 
 MOWR.                   67:33:  Run Mud OWR 
 MSND.                    0.12:  Run Mud Sand % 
 MSOL.                      22:  Run Mud Solids% 
 DFV .spqt               81.00:  Mud Viscosity 
 MWOD.in                  6.75:  MWD Tool OD 
 MWSI.                      No:  Serv Intrp, MWD 
 OTIM.hr                231.44:  Time Operating 
 PCON.          Wear / Scratch:  Pad Condition 
 PMAX.psia             3400.00:  Press Op, Max 
 PV  .cP                 55.00:  Mud PV 
 RUN .                     800:  Run Number 
 ROPA.m/hr               12.00:  ROP Avg 
 ROPN.m/hr                5.00:  ROP Min 
 ROPX.m/hr               28.00:  ROP Max 
 RPMA.rpm               120.00:  RPM Surface Avg 
 RPMN.rpm                40.00:  RPM Surface Min 
 RPMX.rpm               130.00:  RPM Surface Max 
 RRUN.                    0800:  Rig Run Number 
 RTIM.hr                 45.00:  Time Reaming 
 SAZI.deg               145.38:  Azm, Start 
 SDEP.m                3219.01:  Start Depth 
 SIDD.                      No:  Serv Intrp, DD 
 SINC.deg                75.11:  Inc, Start 
 SPPA.psig             2400.00:  SPP Avg 
 SPPN.psig             2320.00:  SPP Min 
 SPPX.psig             3200.00:  SPP Max 
 STIM.      15.15.00 17-Feb-20:  Start Time 
 SVCS.                 DD, MWD:  Services 
 SVER.                    9.20:  Sperry Version 
 TDAT.m                 254.00:  Tot Depth Attmp 
 TDDF.                      No:  Trip for DD 
 TDLG.m                 254.00:  Tot Depth Loggd 
 TFF .                      No:  Trip for Fail 
 TQAA.f-kp               13.00:  Torque Abs Avg 
 TQAN.f-kp                7.00:  Torque Abs Min 
 TQAX.f-kp               15.00:  Torque Abs Max 
 TRRT.°/30m               0.21:  Turn Rotating 
 MRT .                  EWR-M5:  Maximum Recorded Temperature 
 TTMX.degC               64.00:  Max Tool Temp 
 VS01.                90586516:  Virtual Str1 SN 
 VS02.                90513691:  Virtual Str2 SN 
 VS03.                90586523:  Virtual Str3 SN 
 VS04.                90586520:  Virtual Str4 SN 
 VS05.                90590507:  Virtual Str5 SN 
 WBMN.klb                12.00:  WOB Min 
 WITN.           Rufat Babayev:  Customer Rep 2 
 WITN.         Alistair Sprott:  Customer Rep 
 WOBA.klb                18.00:  WOB Avg 
 WOBX.klb                30.00:  WOB Max 
 YP  .lhf2               41.00:  Yield Point 
~Curve Information Block
#MNEM.UNIT                 API CODE     Curve Description
#---------               -----------    ---------------------------
 TIME.HHMMSS            00 000 000 000:  GT Time & Date
 GTDEPTH.m              00 000 000 000:  GT Depth
 GTPQH.psia             00 000 000 000:  GT HR Quartz Pressure
 GTTQ.degC              00 000 000 000:  GT Quartz Temperature
 GTTN.NONE              00 000 000 000:  GT Test Number
 GTET.sec               00 000 000 000:  GT Elapsed Test Time
 GTTVD.m                00 000 000 000:  GT True Vertical Depth
#Other Information
#
#WARRANTY: Halliburton will use its best efforts to furnish customers with 
#accurate information and interpretations that are part of, and incident to, the services 
#provided.  However, Halliburton cannot and does not warrant the accuracy 
#or correctness of such information and interpretations.  Under no circumstances should any 
#such information or interpretation be relied upon as the sole basis for any drilling, 
#completion, production, or financial decision or any procedure involving any risk to the 
#safety of any drilling venture, drilling rig or its crew or any other third party.  The 
#Customer has full responsibility for all drilling, completion and production operation.  
#Halliburton makes no representations or warranties, either expressed or 
#implied, including, but not limited to, the implied warranties of merchantability or fitness 
#for a particular purpose, with respect to the services rendered.  In no event will 
#Halliburton be liable for failure to obtain any particular results or for 
#any damages, including, but not limited to, indirect, special or consequential damages, 
#resulting from the use of any information or interpretation provided by Halliburton.
#
~A           TIME           GTDEPTH  GTPQH  GTTQ  GTTN  GTET   GTTVD  
# ...
   06:07:35.230.24-Feb-2020 3290.31   24.89 54.56 9.00 276.06 2687.60
   06:07:35.430.24-Feb-2020 3290.31   24.89 54.56 9.00 276.26 2687.60
   06:07:35.630.24-Feb-2020 3290.31   24.37 54.56 9.00 276.46 2687.60
   06:07:35.830.24-Feb-2020 3290.31   24.13 54.56 9.00 276.66 2687.60
   06:07:36.030.24-Feb-2020 3290.31   23.88 54.56 9.00 276.86 2687.60
   06:07:36.230.24-Feb-2020 3290.31   23.64 54.56 9.00 277.06 2687.60
   06:07:36.430.24-Feb-2020 3290.31   23.64 54.56 9.00 277.26 2687.60
   06:07:36.630.24-Feb-2020 3290.31   23.19 54.56 9.00 277.46 2687.60
   06:07:36.830.24-Feb-2020 3290.31   22.97 54.56 9.00 277.66 2687.60
   06:07:37.030.24-Feb-2020 3290.31   22.76 54.56 9.00 277.86 2687.60
   06:07:37.230.24-Feb-2020 3290.31   22.56 54.56 9.00 278.06 2687.60
   06:07:37.430.24-Feb-2020 3290.31   22.56 54.56 9.00 278.26 2687.60
   06:07:37.630.24-Feb-2020 3290.31   22.19 54.55 9.00 278.46 2687.60
   06:07:37.830.24-Feb-2020 3290.31   22.01 54.55 9.00 278.66 2687.60
   06:07:38.030.24-Feb-2020 3290.31   21.84 54.55 9.00 278.86 2687.60
   06:07:38.230.24-Feb-2020 3290.31   21.67 54.55 9.00 279.06 2687.60
   06:07:38.430.24-Feb-2020 3290.31   21.50 54.55 9.00 279.26 2687.60
   06:07:38.631.24-Feb-2020 3290.31   21.32 54.55 9.00 279.46 2687.60
   06:07:38.831.24-Feb-2020 3290.31   21.18 54.55 9.00 279.66 2687.60
   06:07:39.031.24-Feb-2020 3290.31   21.02 54.55 9.00 279.86 2687.60
   06:07:39.231.24-Feb-2020 3290.31   20.86 54.55 9.00 280.06 2687.60
   06:07:39.431.24-Feb-2020 3290.31   20.86 54.55 9.00 280.26 2687.60
   06:07:39.631.24-Feb-2020 3290.31   20.56 54.55 9.00 280.46 2687.60
   06:07:39.831.24-Feb-2020 3290.31   20.42 54.55 9.00 280.66 2687.60
   06:07:40.031.24-Feb-2020 3290.31   20.28 54.55 9.00 280.86 2687.60
   06:07:40.231.24-Feb-2020 3290.31   20.14 54.55 9.00 281.06 2687.60
   06:07:40.431.24-Feb-2020 3290.31   20.14 54.55 9.00 281.26 2687.60
   06:07:40.631.24-Feb-2020 3290.31   19.87 54.55 9.00 281.46 2687.60
   06:07:40.831.24-Feb-2020 3290.31   19.73 54.55 9.00 281.66 2687.60
   06:07:41.031.24-Feb-2020 3290.31   19.61 54.55 9.00 281.86 2687.60
   06:07:41.231.24-Feb-2020 3290.31   19.48 54.55 9.00 282.06 2687.60
   06:07:41.431.24-Feb-2020 3290.31   19.48 54.55 9.00 282.26 2687.60
   06:07:41.631.24-Feb-2020 3290.31   19.23 54.55 9.00 282.46 2687.60
   06:07:41.831.24-Feb-2020 3290.31   19.11 54.55 9.00 282.66 2687.60
   06:07:42.031.24-Feb-2020 3290.31   19.00 54.55 9.00 282.86 2687.60
   06:07:42.231.24-Feb-2020 3290.31   18.87 54.55 9.00 283.06 2687.60
   06:07:42.431.24-Feb-2020 3290.31   18.76 54.55 9.00 283.26 2687.60
   06:07:42.631.24-Feb-2020 3290.31   18.64 54.55 9.00 283.46 2687.60
   06:07:42.831.24-Feb-2020 3290.31   18.53 54.55 9.00 283.66 2687.60
   06:07:43.031.24-Feb-2020 3290.31   18.43 54.55 9.00 283.86 2687.60
   06:07:43.232.24-Feb-2020 3290.31   18.32 54.55 9.00 284.06 2687.60
   06:07:43.432.24-Feb-2020 3290.31   18.32 54.55 9.00 284.26 2687.60
   06:07:43.632.24-Feb-2020 3290.31   18.17 54.55 9.00 284.46 2687.60
   06:07:43.832.24-Feb-2020 3290.31   18.21 54.55 9.00 284.66 2687.60
   06:07:44.032.24-Feb-2020 3290.31   18.24 54.55 9.00 284.86 2687.60
   06:07:44.232.24-Feb-2020 3290.31   18.27 54.55 9.00 285.06 2687.60
   06:07:44.432.24-Feb-2020 3290.31   18.27 54.55 9.00 285.26 2687.60
   06:07:44.632.24-Feb-2020 3290.31   18.32 54.55 9.00 285.46 2687.60
   06:07:44.832.24-Feb-2020 3290.31   18.35 54.55 9.00 285.66 2687.60
   06:07:45.032.24-Feb-2020 3290.31   18.37 54.55 9.00 285.86 2687.60
   06:07:45.232.24-Feb-2020 3290.31   18.39 54.55 9.00 286.06 2687.60
   06:07:45.432.24-Feb-2020 3290.31   18.39 54.55 9.00 286.26 2687.60
   06:07:45.632.24-Feb-2020 3290.31   18.44 54.55 9.00 286.46 2687.60
   06:07:45.832.24-Feb-2020 3290.31   18.46 54.55 9.00 286.66 2687.60
   06:07:46.032.24-Feb-2020 3290.31   18.48 54.55 9.00 286.86 2687.60
   06:07:46.232.24-Feb-2020 3290.31   18.50 54.55 9.00 287.06 2687.60
   06:07:46.432.24-Feb-2020 3290.31   18.51 54.55 9.00 287.26 2687.60
   06:07:46.632.24-Feb-2020 3290.31   18.53 54.55 9.00 287.46 2687.60
   06:07:46.832.24-Feb-2020 3290.31   18.55 54.55 9.00 287.66 2687.60
   06:07:47.032.24-Feb-2020 3290.31   18.57 54.55 9.00 287.86 2687.60
   06:07:47.232.24-Feb-2020 3290.31   18.59 54.55 9.00 288.06 2687.60
   06:07:47.432.24-Feb-2020 3290.31   18.59 54.55 9.00 288.26 2687.60
   06:07:47.632.24-Feb-2020 3290.31   18.62 54.55 9.00 288.46 2687.60
   06:07:47.833.24-Feb-2020 3290.31   18.64 54.55 9.00 288.66 2687.60
   06:07:48.033.24-Feb-2020 3290.31   18.65 54.55 9.00 288.86 2687.60
   06:07:48.233.24-Feb-2020 3290.31   18.67 54.55 9.00 289.06 2687.60
   06:07:48.433.24-Feb-2020 3290.31   18.67 54.55 9.00 289.26 2687.60
   06:07:48.633.24-Feb-2020 3290.31   18.70 54.55 9.00 289.46 2687.60
   06:07:48.833.24-Feb-2020 3290.31   18.72 54.55 9.00 289.66 2687.60
   06:07:49.033.24-Feb-2020 3290.31   18.73 54.55 9.00 289.86 2687.60
   06:07:49.233.24-Feb-2020 3290.31   18.74 54.55 9.00 290.06 2687.60
   06:07:49.433.24-Feb-2020 3290.31   18.74 54.55 9.00 290.26 2687.60
   06:07:49.633.24-Feb-2020 3290.31   18.77 54.55 9.00 290.46 2687.60
   06:07:49.833.24-Feb-2020 3290.31   18.79 54.55 9.00 290.66 2687.60
   06:07:50.033.24-Feb-2020 3290.31   18.80 54.55 9.00 290.86 2687.60
   06:07:50.233.24-Feb-2020 3290.31   18.81 54.55 9.00 291.06 2687.60
   06:07:50.433.24-Feb-2020 3290.31   18.83 54.55 9.00 291.26 2687.60
   06:07:50.633.24-Feb-2020 3290.31   18.85 54.55 9.00 291.46 2687.60
   06:07:50.833.24-Feb-2020 3290.31   18.86 54.55 9.00 291.66 2687.60
   06:07:51.033.24-Feb-2020 3290.31   18.87 54.55 9.00 291.86 2687.60
   06:07:51.233.24-Feb-2020 3290.31   18.88 54.55 9.00 292.06 2687.60
   06:07:51.433.24-Feb-2020 3290.31   18.88 54.55 9.00 292.26 2687.60
   06:07:51.633.24-Feb-2020 3290.31   18.91 54.55 9.00 292.46 2687.60
   06:07:51.833.24-Feb-2020 3290.31   18.92 54.55 9.00 292.66 2687.60
   06:07:52.033.24-Feb-2020 3290.31   18.94 54.55 9.00 292.86 2687.60
   06:07:52.233.24-Feb-2020 3290.31   18.95 54.55 9.00 293.06 2687.60
   06:07:52.434.24-Feb-2020 3290.31   18.95 54.55 9.00 293.26 2687.60
   06:07:52.634.24-Feb-2020 3290.31   18.98 54.55 9.00 293.46 2687.60
   06:07:52.834.24-Feb-2020 3290.31   18.99 54.55 9.00 293.66 2687.60
   06:07:53.034.24-Feb-2020 3290.31   19.00 54.55 9.00 293.86 2687.60
   06:07:53.234.24-Feb-2020 3290.31   19.01 54.55 9.00 294.06 2687.60
   06:07:53.434.24-Feb-2020 3290.31   19.01 54.55 9.00 294.26 2687.60
   06:07:53.634.24-Feb-2020 3290.31   19.05 54.55 9.00 294.46 2687.60
   06:07:53.834.24-Feb-2020 3290.31   19.06 54.55 9.00 294.66 2687.60
   06:07:54.034.24-Feb-2020 3290.31   19.07 54.55 9.00 294.86 2687.60
   06:07:54.234.24-Feb-2020 3290.31   19.08 54.55 9.00 295.06 2687.60
   06:07:54.434.24-Feb-2020 3290.31   19.09 54.55 9.00 295.26 2687.60
   06:07:54.634.24-Feb-2020 3290.31   19.10 54.55 9.00 295.46 2687.60
   06:07:54.834.24-Feb-2020 3290.31   19.11 54.55 9.00 295.66 2687.60
   06:07:55.034.24-Feb-2020 3290.31   19.13 54.55 9.00 295.86 2687.60
   06:07:55.234.24-Feb-2020 3290.31   19.14 54.55 9.00 296.06 2687.60
   06:07:55.434.24-Feb-2020 3290.31   19.14 54.55 9.00 296.26 2687.60
   06:07:55.634.24-Feb-2020 3290.31   19.16 54.55 9.00 296.46 2687.60
   06:07:55.834.24-Feb-2020 3290.31   19.17 54.55 9.00 296.66 2687.60
   06:07:56.034.24-Feb-2020 3290.31   19.18 54.55 9.00 296.86 2687.60
   06:07:56.234.24-Feb-2020 3290.31   19.19 54.54 9.00 297.06 2687.60
   06:07:56.434.24-Feb-2020 3290.31   19.19 54.54 9.00 297.26 2687.60
   06:07:56.634.24-Feb-2020 3290.31   19.21 54.54 9.00 297.47 2687.60
   06:07:56.834.24-Feb-2020 3290.31   19.22 54.54 9.00 297.67 2687.60
   06:07:57.035.24-Feb-2020 3290.31   19.23 54.54 9.00 297.87 2687.60
   06:07:57.235.24-Feb-2020 3290.31   19.24 54.54 9.00 298.07 2687.60
   06:07:57.435.24-Feb-2020 3290.31   19.24 54.54 9.00 298.27 2687.60
   06:07:57.635.24-Feb-2020 3290.31   19.27 54.54 9.00 298.47 2687.60
   06:07:57.835.24-Feb-2020 3290.31   19.28 54.54 9.00 298.67 2687.60
   06:07:58.035.24-Feb-2020 3290.31   19.29 54.54 9.00 298.87 2687.60
