~Version Information
 VERS.                  2.0:   CWLS log ASCII Standard -VERSION 2.0
 WRAP.                   NO:   One line per depth step
~Well Information Block
#MNEM.UNIT     VALUE/NAME     DESCRIPTION
#---------     -----------    ---------------------------
 STRT.S             07:13:35 24-Feb-20: START TIME 07:13:35 24-Feb-20
 STOP.S             07:20:48 24-Feb-20: STOP TIME  07:20:48 24-Feb-20
 STEP.S                   0.00: STEP TIME
 NULL.                 -999.25: NULL VALUE
 JOBN.        AZ-XX-0905059384:  JOB TICKET NUMB
 PDAT.          Mean Sea Level:  PERMANENT DATUM
 UNIT.                     N/A:  LOGGING EQUIPMENT ID
 DCON.         Sperry Drilling:  DIRECTNL CONTR
 DOE .                     N/A:  DOE NUMBER
 RIG .             West Chirag:  RIG NAME
 WELL.                     J22:  WELL NAME
 MWDS.                    Baku:  MWD SHOP
 SRVC.     TURAN Drilling & Engineering:  CONTRACTOR
 FLD .                     ACG:  FIELD NAME
 CTRY.              Azerbaijan:  COUNTRY NAME
 PROV.                    Baku:  PROVINCE
 STAT.                    Baku:  STATE NAME
 REGN.                   EESSA:  REGION
 BASE.              Azerbaijan:  LOGGING EQUIPMENT BASE LOCATION
 UWI .                     N/A:  UNIQUE WELL IDENTIFIER
 API .                     N/A:  API NUMBER
 COMP.     BP Exploration (Caspian Sea) Ltd.:  COMPANY
 WTYP.                Deviated:  WELL TYPE
 MDS .        Operator Entered:  MAG DATA SOURCE
 SON .        AZ-XX-0905059384:  JOB NUMBER
 FTOP.          Formation Tops:  FORM TOPS DESC
 ILTD.               Lithology:  INTERP LTH DESC
 SVYD.                  Survey:  SURVEY DESC
 DMOD.             Drill Model:  DRILL MOD DESC
 HPTY.       Minimum Curvature:  HOLE POS TYPE
 NREF.                    Grid:  NORTH REFERENCE
 SPUD.               09-Jan-20:  SPUD DATE
 DATE.      14.04.48 07-Feb-20:  END TIME
 STIM.      07.00.00 09-Jan-20:  START TIME
 DMF .             Drill Floor:  DRILL MEAS FROM
 DFST.                        :  DIST FSL TEXT
 DFWT.                        :  DIST FWL TEXT
 CNTY.                        :  COUNTY
 LOC .                        :  LOCATION
 LMF .             Drill Floor:  LOG MEASURED FROM
 DEP .m                   0.00:  DEPTH
 VSNS.m                  10.28:  VERT SEC N/S
 VSEW.m                  -6.24:  VERT SEC E/W
 AGAP.m                  43.00:  AIR GAP
 APD .m                  43.00:  DEPTH ABOVE PD
 WDMS.m                 169.80:  WD ELEV
 EGL .m                   0.00:  GROUND ELEVATION
 EPD .m                   0.00:  ELEVATION
 AZTC.deg                 6.27:  AZM TOTAL CORR
 GRDC.deg                 0.15:  GRID CORRECTION
 MDEC.deg                 6.42:  MAGNETIC DECL
 MDIP.deg                59.56:  MAGNETIC DIP
 MFLD.nT              50277.00:  MAGNETIC FIELD
 GVFD.g                   1.00:  GRAVITY FIELD
 VSDR.deg               148.53:  VERT SEC DIRECT
 TDD .m                3473.01:  TOTAL DEPTH (DRILLER)
 SDEP.m                 364.00:  START DEPTH
 DFSL.m                   0.00:  DISTANCE FSL
 DFWL.m                   0.00:  DISTANCE FWL
 UTMY.m             4443793.85:  UTM Y
 UTMX.m              519005.06:  UTM X
 WHEW.m                  -6.24:  WELL HEAD E/W
 WHNS.m                  10.28:  WELL HEAD N/S
 LONG.deg                51.22:  LONGITUDE
 LATI.deg                40.13:  LATITUDE
 TVDS.m                  43.00:  TVDSS CORRECTN
 EKB .m                   0.00:  KB ELEVATION
 EDF .m                  43.00:  DF ELEVATION
 TDL .m                 254.00:  TOTAL DEPTH (LOGGER)
 MAGU.                 1850021:  MAGUTM CHECKSUM
 VSC .                       0:  VS TO CLOSURE
~Parameter Information Block
#MNEM.UNIT       Value        Description
#---------     -----------    ---------------------------
 AV  .mps                 0.50:  Ann Velocity 
 AVMX.mps                 1.40:  Max Ann Veloc 
 AZIF.deg               144.94:  Azm, Final 
 BHAT.        Rotary Steerable:  BHA Type 
 BROT.°/30m               0.23:  Build Rotating 
 BS  .in                  8.50:  Bit Size 
 BTPL.psig              264.00:  Bit Press Loss 
 CABU.                     Yes:  Customer Abuse 
 COMM.                     ëh:  Run Comments 1 
 TCS .hr                 87.30:  Time Ciculation Ended 
 CV  .mps                 2.45:  Crit Velocity 
 CVMX.mps                 2.74:  Max Crit Veloc 
 DD1 .             Aziz Aliyev:  Direct Drillr 1 
 DDSV.               Geo-Pilot:  DD Service 
 DEFF.%                 100.00:  % Det Eff 
 DLRX.°/30m               1.22:  Dogleg Rot Max 
 DLSO.°/30m               0.52:  Dogleg Oriented 
 DLSX.°/30m               1.22:  Dogleg Str Max 
 DRET.      12.59.00 23-Feb-20:  Drill End Time 
 DRST.      09.44.00 18-Feb-20:  Drill Start Tim 
 DTIM.hr                 23.03:  Time Drilling 
 EDEP.m                3473.01:  End Depth 
 ENG1.         Almaz Almadatov:  Engineer 1 
 ENG2.         Dair Mahammadov:  Engineer 2 
 ENG3.          Nazrin Asgarli:  Engineer 3 
 ETIM.      10.33.36 26-Feb-20:  End Time 
 FLOI.gpm               480.00:  Flow In 
 FLON.gpm               300.00:  Flow In Min 
 FLOS.cptm                1.00:  Fluid Loss 
 FLOX.gpm               550.00:  Flow In Max 
 HFLO.                      No:  High Flow 
 HPRE.                      No:  High Pressure 
 HTEM.                      No:  High Temp 
 HYDO.m                   1.80:  Hydro Offset 
 IFIN.deg                74.42:  Inc, Final 
 IMAX.deg                76.14:  Inc Max 
 IMIN.deg                74.42:  Inc Min 
 IMND.m                3462.72:  Inc Min Depth 
 IMXD.m                3235.69:  Inc Max Depth 
 JARR.                      No:  Jarring 
 LETM.      12.59.00 23-Feb-20:  Log End Time 
 LOST.hr                     0:  Lost Rig Time 
 LSTM.      09.44.00 18-Feb-20:  Log Start Time 
 MDCL.ppm             45000.00:  Mud Chlorides 
 MDES.     Inversion Oil/Synthetic:  Mud Desc 
 DFD .sg                  1.38:  Mud Density 
 MDMN.sg                  1.34:  Dens Mud Min 
 MDMX.sg                  1.49:  Dens Mud Max 
 MOIL.                      67:  Run Mud Oil % 
 MOWR.                   67:33:  Run Mud OWR 
 MSND.                    0.12:  Run Mud Sand % 
 MSOL.                      22:  Run Mud Solids% 
 DFV .spqt               81.00:  Mud Viscosity 
 MWOD.in                  6.75:  MWD Tool OD 
 MWSI.                      No:  Serv Intrp, MWD 
 OTIM.hr                231.44:  Time Operating 
 PCON.          Wear / Scratch:  Pad Condition 
 PMAX.psia             3400.00:  Press Op, Max 
 PV  .cP                 55.00:  Mud PV 
 RUN .                     800:  Run Number 
 ROPA.m/hr               12.00:  ROP Avg 
 ROPN.m/hr                5.00:  ROP Min 
 ROPX.m/hr               28.00:  ROP Max 
 RPMA.rpm               120.00:  RPM Surface Avg 
 RPMN.rpm                40.00:  RPM Surface Min 
 RPMX.rpm               130.00:  RPM Surface Max 
 RRUN.                    0800:  Rig Run Number 
 RTIM.hr                 45.00:  Time Reaming 
 SAZI.deg               145.38:  Azm, Start 
 SDEP.m                3219.01:  Start Depth 
 SIDD.                      No:  Serv Intrp, DD 
 SINC.deg                75.11:  Inc, Start 
 SPPA.psig             2400.00:  SPP Avg 
 SPPN.psig             2320.00:  SPP Min 
 SPPX.psig             3200.00:  SPP Max 
 STIM.      15.15.00 17-Feb-20:  Start Time 
 SVCS.                 DD, MWD:  Services 
 SVER.                    9.20:  Sperry Version 
 TDAT.m                 254.00:  Tot Depth Attmp 
 TDDF.                      No:  Trip for DD 
 TDLG.m                 254.00:  Tot Depth Loggd 
 TFF .                      No:  Trip for Fail 
 TQAA.f-kp               13.00:  Torque Abs Avg 
 TQAN.f-kp                7.00:  Torque Abs Min 
 TQAX.f-kp               15.00:  Torque Abs Max 
 TRRT.°/30m               0.21:  Turn Rotating 
 MRT .                  EWR-M5:  Maximum Recorded Temperature 
 TTMX.degC               64.00:  Max Tool Temp 
 VS01.                90586516:  Virtual Str1 SN 
 VS02.                90513691:  Virtual Str2 SN 
 VS03.                90586523:  Virtual Str3 SN 
 VS04.                90586520:  Virtual Str4 SN 
 VS05.                90590507:  Virtual Str5 SN 
 WBMN.klb                12.00:  WOB Min 
 WITN.           Rufat Babayev:  Customer Rep 2 
 WITN.         Alistair Sprott:  Customer Rep 
 WOBA.klb                18.00:  WOB Avg 
 WOBX.klb                30.00:  WOB Max 
 YP  .lhf2               41.00:  Yield Point 
~Curve Information Block
#MNEM.UNIT                 API CODE     Curve Description
#---------               -----------    ---------------------------
 TIME.HHMMSS            00 000 000 000:  GT Time & Date
 GTDEPTH.m              00 000 000 000:  GT Depth
 GTPQH.psia             00 000 000 000:  GT HR Quartz Pressure
 GTTQ.degC              00 000 000 000:  GT Quartz Temperature
 GTTN.NONE              00 000 000 000:  GT Test Number
 GTET.sec               00 000 000 000:  GT Elapsed Test Time
 GTTVD.m                00 000 000 000:  GT True Vertical Depth
#Other Information
#
#WARRANTY: Halliburton will use its best efforts to furnish customers with 
#accurate information and interpretations that are part of, and incident to, the services 
#provided.  However, Halliburton cannot and does not warrant the accuracy 
#or correctness of such information and interpretations.  Under no circumstances should any 
#such information or interpretation be relied upon as the sole basis for any drilling, 
#completion, production, or financial decision or any procedure involving any risk to the 
#safety of any drilling venture, drilling rig or its crew or any other third party.  The 
#Customer has full responsibility for all drilling, completion and production operation.  
#Halliburton makes no representations or warranties, either expressed or 
#implied, including, but not limited to, the implied warranties of merchantability or fitness 
#for a particular purpose, with respect to the services rendered.  In no event will 
#Halliburton be liable for failure to obtain any particular results or for 
#any damages, including, but not limited to, indirect, special or consequential damages, 
#resulting from the use of any information or interpretation provided by Halliburton.
#
~A           TIME           GTDEPTH  GTPQH  GTTQ  GTTN   GTET   GTTVD  
# ...
   07:14:20.200.24-Feb-2020 3225.01 5679.46 54.55 11.00  45.20 2671.15
   07:14:20.400.24-Feb-2020 3225.01 5663.77 54.55 11.00  45.40 2671.15
   07:14:20.600.24-Feb-2020 3225.01 5664.92 54.55 11.00  45.60 2671.15
   07:14:20.800.24-Feb-2020 3225.01 5666.17 54.55 11.00  45.80 2671.15
   07:14:21.000.24-Feb-2020 3225.01 5658.93 54.55 11.00  46.00 2671.15
   07:14:21.200.24-Feb-2020 3225.01 5658.93 54.55 11.00  46.20 2671.15
   07:14:21.400.24-Feb-2020 3225.01 5690.91 54.55 11.00  46.40 2671.15
   07:14:21.600.24-Feb-2020 3225.01 5698.52 54.55 11.00  46.60 2671.15
   07:14:21.800.24-Feb-2020 3225.01 5697.23 54.55 11.00  46.80 2671.15
   07:14:22.000.24-Feb-2020 3225.01 5693.85 54.55 11.00  47.00 2671.15
   07:14:22.200.24-Feb-2020 3225.01 5693.85 54.55 11.00  47.20 2671.15
   07:14:22.400.24-Feb-2020 3225.01 5711.82 54.55 11.00  47.40 2671.15
   07:14:22.600.24-Feb-2020 3225.01 5722.99 54.55 11.00  47.60 2671.15
   07:14:22.800.24-Feb-2020 3225.01 5712.90 54.55 11.00  47.80 2671.15
   07:14:23.000.24-Feb-2020 3225.01 5715.65 54.55 11.00  48.00 2671.15
   07:14:23.200.24-Feb-2020 3225.01 5725.41 54.55 11.00  48.20 2671.15
   07:14:23.400.24-Feb-2020 3225.01 5727.77 54.55 11.00  48.40 2671.15
   07:14:23.600.24-Feb-2020 3225.01 5729.89 54.55 11.00  48.60 2671.15
   07:14:23.800.24-Feb-2020 3225.01 5732.75 54.55 11.00  48.80 2671.15
   07:14:24.000.24-Feb-2020 3225.01 5734.69 54.55 11.00  49.00 2671.15
   07:14:24.200.24-Feb-2020 3225.01 5734.69 54.55 11.00  49.20 2671.15
   07:14:24.400.24-Feb-2020 3225.01 5731.28 54.55 11.00  49.40 2671.15
   07:14:24.600.24-Feb-2020 3225.01 5729.65 54.55 11.00  49.60 2671.15
   07:14:24.800.24-Feb-2020 3225.01 5725.95 54.55 11.00  49.80 2671.15
   07:14:25.000.24-Feb-2020 3225.01 5721.53 54.55 11.00  50.00 2671.15
   07:14:25.200.24-Feb-2020 3225.01 5721.53 54.55 11.00  50.20 2671.15
   07:14:25.400.24-Feb-2020 3225.01 5708.46 54.55 11.00  50.40 2671.15
   07:14:25.600.24-Feb-2020 3225.01 5701.28 54.55 11.00  50.60 2671.15
   07:14:25.800.24-Feb-2020 3225.01 5700.19 54.55 11.00  50.80 2671.15
   07:14:26.000.24-Feb-2020 3225.01 5690.54 54.55 11.00  51.00 2671.15
   07:14:26.200.24-Feb-2020 3225.01 5690.54 54.55 11.00  51.20 2671.15
   07:14:26.400.24-Feb-2020 3225.01 5662.86 54.55 11.00  51.40 2671.15
   07:14:26.600.24-Feb-2020 3225.01 5642.30 54.55 11.00  51.60 2671.15
   07:14:26.800.24-Feb-2020 3225.01 5622.18 54.55 11.00  51.80 2671.15
   07:14:27.000.24-Feb-2020 3225.01 5600.34 54.55 11.00  52.00 2671.15
   07:14:27.200.24-Feb-2020 3225.01 5580.02 54.55 11.00  52.20 2671.15
   07:14:27.400.24-Feb-2020 3225.01 5560.38 54.55 11.00  52.40 2671.15
   07:14:27.600.24-Feb-2020 3225.01 5540.46 54.55 11.00  52.60 2671.15
   07:14:27.800.24-Feb-2020 3225.01 5521.25 54.55 11.00  52.80 2671.15
   07:14:28.000.24-Feb-2020 3225.01 5503.29 54.55 11.00  53.00 2671.15
   07:14:28.200.24-Feb-2020 3225.01 5503.29 54.55 11.00  53.20 2671.15
   07:14:28.400.24-Feb-2020 3225.01 5465.93 54.55 11.00  53.40 2671.15
   07:14:28.600.24-Feb-2020 3225.01 5445.29 54.55 11.00  53.60 2671.15
   07:14:28.800.24-Feb-2020 3225.01 5424.34 54.55 11.00  53.80 2671.15
   07:14:29.000.24-Feb-2020 3225.01 5403.60 54.55 11.00  54.00 2671.15
   07:14:29.200.24-Feb-2020 3225.01 5403.60 54.55 11.00  54.20 2671.15
   07:14:29.400.24-Feb-2020 3225.01 5368.26 54.55 11.00  54.40 2671.15
   07:14:29.600.24-Feb-2020 3225.01 5346.39 54.55 11.00  54.60 2671.15
   07:14:29.800.24-Feb-2020 3225.01 5325.37 54.55 11.00  54.80 2671.15
   07:14:30.000.24-Feb-2020 3225.01 5305.95 54.55 11.00  55.00 2671.15
   07:14:30.200.24-Feb-2020 3225.01 5305.95 54.55 11.00  55.20 2671.15
   07:14:30.400.24-Feb-2020 3225.01 5262.16 54.55 11.00  55.40 2671.15
   07:14:30.600.24-Feb-2020 3225.01 5243.41 54.55 11.00  55.60 2671.15
   07:14:30.800.24-Feb-2020 3225.01 5228.02 54.55 11.00  55.80 2671.15
   07:14:31.000.24-Feb-2020 3225.01 5210.40 54.54 11.00  56.00 2671.15
   07:14:31.200.24-Feb-2020 3225.01 5210.40 54.54 11.00  56.20 2671.15
   07:14:31.400.24-Feb-2020 3225.01 5185.24 54.54 11.00  56.40 2671.15
   07:14:31.600.24-Feb-2020 3225.01 5173.13 54.54 11.00  56.60 2671.15
   07:14:31.800.24-Feb-2020 3225.01 5162.16 54.54 11.00  56.80 2671.15
   07:14:32.000.24-Feb-2020 3225.01 5150.53 54.54 11.00  57.00 2671.15
   07:14:32.200.24-Feb-2020 3225.01 5150.53 54.54 11.00  57.20 2671.15
   07:14:32.400.24-Feb-2020 3225.01 5131.92 54.54 11.00  57.40 2671.15
   07:14:32.600.24-Feb-2020 3225.01 5125.09 54.54 11.00  57.60 2671.15
   07:14:32.800.24-Feb-2020 3225.01 5118.76 54.54 11.00  57.80 2671.15
   07:14:33.000.24-Feb-2020 3225.01 5064.97 54.54 11.00  58.00 2671.15
   07:14:33.200.24-Feb-2020 3225.01 5064.97 54.54 11.00  58.20 2671.15
   07:14:33.400.24-Feb-2020 3225.01 4227.80 54.54 11.00  58.40 2671.15
   07:14:33.600.24-Feb-2020 3225.01 4199.07 54.54 11.00  58.60 2671.15
   07:14:33.800.24-Feb-2020 3225.01 4227.68 54.54 11.00  58.80 2671.15
   07:14:34.000.24-Feb-2020 3225.01 4241.60 54.54 11.00  59.00 2671.15
   07:14:34.200.24-Feb-2020 3225.01 4241.60 54.54 11.00  59.20 2671.15
   07:14:34.400.24-Feb-2020 3225.01 4259.64 54.54 11.00  59.40 2671.15
   07:14:34.600.24-Feb-2020 3225.01 4263.83 54.54 11.00  59.60 2671.15
   07:14:34.800.24-Feb-2020 3225.01 4257.84 54.54 11.00  59.80 2671.15
   07:14:35.000.24-Feb-2020 3225.01 4258.42 54.53 11.00  60.00 2671.15
   07:14:35.200.24-Feb-2020 3225.01 4260.75 54.53 11.00  60.20 2671.15
   07:14:35.400.24-Feb-2020 3225.01 4261.02 54.53 11.00  60.40 2671.15
   07:14:35.600.24-Feb-2020 3225.01 4266.21 54.53 11.00  60.60 2671.15
   07:14:35.800.24-Feb-2020 3225.01 4262.81 54.53 11.00  60.80 2671.15
   07:14:36.000.24-Feb-2020 3225.01 4261.99 54.53 11.00  61.00 2671.15
   07:14:36.200.24-Feb-2020 3225.01 4261.99 54.53 11.00  61.20 2671.15
   07:14:36.400.24-Feb-2020 3225.01 4263.34 54.53 11.00  61.40 2671.15
   07:14:36.600.24-Feb-2020 3225.01 4263.39 54.53 11.00  61.60 2671.15
   07:14:36.800.24-Feb-2020 3225.01 4262.21 54.53 11.00  61.80 2671.15
   07:14:37.000.24-Feb-2020 3225.01 4261.54 54.53 11.00  62.00 2671.15
   07:14:37.200.24-Feb-2020 3225.01 4261.54 54.53 11.00  62.20 2671.15
   07:14:37.400.24-Feb-2020 3225.01 4260.95 54.52 11.00  62.40 2671.15
   07:14:37.600.24-Feb-2020 3225.01 4260.28 54.52 11.00  62.60 2671.15
   07:14:37.800.24-Feb-2020 3225.01 4259.61 54.52 11.00  62.80 2671.15
   07:14:38.000.24-Feb-2020 3225.01 4259.16 54.52 11.00  63.00 2671.15
   07:14:38.200.24-Feb-2020 3225.01 4259.16 54.52 11.00  63.20 2671.15
   07:14:38.400.24-Feb-2020 3225.01 4259.38 54.52 11.00  63.40 2671.15
   07:14:38.600.24-Feb-2020 3225.01 4259.21 54.52 11.00  63.60 2671.15
   07:14:38.800.24-Feb-2020 3225.01 4259.14 54.52 11.00  63.80 2671.15
   07:14:39.000.24-Feb-2020 3225.01 4258.37 54.52 11.00  64.00 2671.15
   07:14:39.200.24-Feb-2020 3225.01 4258.50 54.52 11.00  64.20 2671.15
   07:14:39.400.24-Feb-2020 3225.01 4258.02 54.52 11.00  64.40 2671.15
   07:14:39.600.24-Feb-2020 3225.01 4257.86 54.52 11.00  64.60 2671.15
   07:14:39.800.24-Feb-2020 3225.01 4257.77 54.52 11.00  64.80 2671.15
   07:14:40.000.24-Feb-2020 3225.01 4257.75 54.52 11.00  65.00 2671.15
   07:14:40.200.24-Feb-2020 3225.01 4257.75 54.52 11.00  65.20 2671.15
   07:14:40.400.24-Feb-2020 3225.01 4257.58 54.52 11.00  65.40 2671.15
   07:14:40.600.24-Feb-2020 3225.01 4257.18 54.51 11.00  65.60 2671.15
   07:14:40.800.24-Feb-2020 3225.01 4256.71 54.51 11.00  65.80 2671.15
   07:14:41.000.24-Feb-2020 3225.01 4256.56 54.51 11.00  66.00 2671.15
   07:14:41.200.24-Feb-2020 3225.01 4256.56 54.51 11.00  66.20 2671.15
   07:14:41.400.24-Feb-2020 3225.01 4257.09 54.51 11.00  66.40 2671.15
   07:14:41.600.24-Feb-2020 3225.01 4256.73 54.51 11.00  66.60 2671.15
   07:14:41.800.24-Feb-2020 3225.01 4256.42 54.51 11.00  66.80 2671.15
   07:14:42.000.24-Feb-2020 3225.01 4256.53 54.51 11.00  67.00 2671.15
   07:14:42.200.24-Feb-2020 3225.01 4256.53 54.51 11.00  67.20 2671.15
   07:14:42.400.24-Feb-2020 3225.01 4256.99 54.51 11.00  67.40 2671.15
   07:14:42.600.24-Feb-2020 3225.01 4256.47 54.51 11.00  67.60 2671.15
