~Version Information
 VERS.                  2.0:   CWLS log ASCII Standard -VERSION 2.0
 WRAP.                   NO:   One line per depth step
~Well Information Block
#MNEM.UNIT     VALUE/NAME     DESCRIPTION
#---------     -----------    ---------------------------
 STRT.S             05:02:14 24-Feb-20: START TIME 05:02:14 24-Feb-20
 STOP.S             05:09:32 24-Feb-20: STOP TIME  05:09:32 24-Feb-20
 STEP.S                   0.00: STEP TIME
 NULL.                 -999.25: NULL VALUE
 JOBN.        AZ-XX-0905059384:  JOB TICKET NUMB
 PDAT.          Mean Sea Level:  PERMANENT DATUM
 UNIT.                     N/A:  LOGGING EQUIPMENT ID
 DCON.         Sperry Drilling:  DIRECTNL CONTR
 DOE .                     N/A:  DOE NUMBER
 RIG .             West Chirag:  RIG NAME
 WELL.                     J22:  WELL NAME
 MWDS.                    Baku:  MWD SHOP
 SRVC.     TURAN Drilling & Engineering:  CONTRACTOR
 FLD .                     ACG:  FIELD NAME
 CTRY.              Azerbaijan:  COUNTRY NAME
 PROV.                    Baku:  PROVINCE
 STAT.                    Baku:  STATE NAME
 REGN.                   EESSA:  REGION
 BASE.              Azerbaijan:  LOGGING EQUIPMENT BASE LOCATION
 UWI .                     N/A:  UNIQUE WELL IDENTIFIER
 API .                     N/A:  API NUMBER
 COMP.     BP Exploration (Caspian Sea) Ltd.:  COMPANY
 WTYP.                Deviated:  WELL TYPE
 MDS .        Operator Entered:  MAG DATA SOURCE
 SON .        AZ-XX-0905059384:  JOB NUMBER
 FTOP.          Formation Tops:  FORM TOPS DESC
 ILTD.               Lithology:  INTERP LTH DESC
 SVYD.                  Survey:  SURVEY DESC
 DMOD.             Drill Model:  DRILL MOD DESC
 HPTY.       Minimum Curvature:  HOLE POS TYPE
 NREF.                    Grid:  NORTH REFERENCE
 SPUD.               09-Jan-20:  SPUD DATE
 DATE.      14.04.48 07-Feb-20:  END TIME
 STIM.      07.00.00 09-Jan-20:  START TIME
 DMF .             Drill Floor:  DRILL MEAS FROM
 DFST.                        :  DIST FSL TEXT
 DFWT.                        :  DIST FWL TEXT
 CNTY.                        :  COUNTY
 LOC .                        :  LOCATION
 LMF .             Drill Floor:  LOG MEASURED FROM
 DEP .m                   0.00:  DEPTH
 VSNS.m                  10.28:  VERT SEC N/S
 VSEW.m                  -6.24:  VERT SEC E/W
 AGAP.m                  43.00:  AIR GAP
 APD .m                  43.00:  DEPTH ABOVE PD
 WDMS.m                 169.80:  WD ELEV
 EGL .m                   0.00:  GROUND ELEVATION
 EPD .m                   0.00:  ELEVATION
 AZTC.deg                 6.27:  AZM TOTAL CORR
 GRDC.deg                 0.15:  GRID CORRECTION
 MDEC.deg                 6.42:  MAGNETIC DECL
 MDIP.deg                59.56:  MAGNETIC DIP
 MFLD.nT              50277.00:  MAGNETIC FIELD
 GVFD.g                   1.00:  GRAVITY FIELD
 VSDR.deg               148.53:  VERT SEC DIRECT
 TDD .m                3473.01:  TOTAL DEPTH (DRILLER)
 SDEP.m                 364.00:  START DEPTH
 DFSL.m                   0.00:  DISTANCE FSL
 DFWL.m                   0.00:  DISTANCE FWL
 UTMY.m             4443793.85:  UTM Y
 UTMX.m              519005.06:  UTM X
 WHEW.m                  -6.24:  WELL HEAD E/W
 WHNS.m                  10.28:  WELL HEAD N/S
 LONG.deg                51.22:  LONGITUDE
 LATI.deg                40.13:  LATITUDE
 TVDS.m                  43.00:  TVDSS CORRECTN
 EKB .m                   0.00:  KB ELEVATION
 EDF .m                  43.00:  DF ELEVATION
 TDL .m                 254.00:  TOTAL DEPTH (LOGGER)
 MAGU.                 1850021:  MAGUTM CHECKSUM
 VSC .                       0:  VS TO CLOSURE
~Parameter Information Block
#MNEM.UNIT       Value        Description
#---------     -----------    ---------------------------
 AV  .mps                 0.50:  Ann Velocity 
 AVMX.mps                 1.40:  Max Ann Veloc 
 AZIF.deg               144.94:  Azm, Final 
 BHAT.        Rotary Steerable:  BHA Type 
 BROT.°/30m               0.23:  Build Rotating 
 BS  .in                  8.50:  Bit Size 
 BTPL.psig              264.00:  Bit Press Loss 
 CABU.                     Yes:  Customer Abuse 
 TCS .hr                 87.30:  Time Ciculation Ended 
 CV  .mps                 2.45:  Crit Velocity 
 CVMX.mps                 2.74:  Max Crit Veloc 
 DD1 .             Aziz Aliyev:  Direct Drillr 1 
 DDSV.               Geo-Pilot:  DD Service 
 DEFF.%                 100.00:  % Det Eff 
 DLRX.°/30m               1.22:  Dogleg Rot Max 
 DLSO.°/30m               0.52:  Dogleg Oriented 
 DLSX.°/30m               1.22:  Dogleg Str Max 
 DRET.      12.59.00 23-Feb-20:  Drill End Time 
 DRST.      09.44.00 18-Feb-20:  Drill Start Tim 
 DTIM.hr                 23.03:  Time Drilling 
 EDEP.m                3473.01:  End Depth 
 ENG1.         Almaz Almadatov:  Engineer 1 
 ENG2.         Dair Mahammadov:  Engineer 2 
 ENG3.          Nazrin Asgarli:  Engineer 3 
 ETIM.      10.33.36 26-Feb-20:  End Time 
 FLOI.gpm               480.00:  Flow In 
 FLON.gpm               300.00:  Flow In Min 
 FLOS.cptm                1.00:  Fluid Loss 
 FLOX.gpm               550.00:  Flow In Max 
 HFLO.                      No:  High Flow 
 HPRE.                      No:  High Pressure 
 HTEM.                      No:  High Temp 
 HYDO.m                   1.80:  Hydro Offset 
 IFIN.deg                74.42:  Inc, Final 
 IMAX.deg                76.14:  Inc Max 
 IMIN.deg                74.42:  Inc Min 
 IMND.m                3462.72:  Inc Min Depth 
 IMXD.m                3235.69:  Inc Max Depth 
 JARR.                      No:  Jarring 
 LETM.      12.59.00 23-Feb-20:  Log End Time 
 LOST.hr                     0:  Lost Rig Time 
 LSTM.      09.44.00 18-Feb-20:  Log Start Time 
 MDCL.ppm             45000.00:  Mud Chlorides 
 MDES.     Inversion Oil/Synthetic:  Mud Desc 
 DFD .sg                  1.38:  Mud Density 
 MDMN.sg                  1.34:  Dens Mud Min 
 MDMX.sg                  1.49:  Dens Mud Max 
 MOIL.                      67:  Run Mud Oil % 
 MOWR.                   67:33:  Run Mud OWR 
 MSND.                    0.12:  Run Mud Sand % 
 MSOL.                      22:  Run Mud Solids% 
 DFV .spqt               81.00:  Mud Viscosity 
 MWOD.in                  6.75:  MWD Tool OD 
 MWSI.                      No:  Serv Intrp, MWD 
 OTIM.hr                231.44:  Time Operating 
 PCON.          Wear / Scratch:  Pad Condition 
 PMAX.psia             3400.00:  Press Op, Max 
 PV  .cP                 55.00:  Mud PV 
 RUN .                     800:  Run Number 
 ROPA.m/hr               12.00:  ROP Avg 
 ROPN.m/hr                5.00:  ROP Min 
 ROPX.m/hr               28.00:  ROP Max 
 RPMA.rpm               120.00:  RPM Surface Avg 
 RPMN.rpm                40.00:  RPM Surface Min 
 RPMX.rpm               130.00:  RPM Surface Max 
 RRUN.                    0800:  Rig Run Number 
 RTIM.hr                 45.00:  Time Reaming 
 SAZI.deg               145.38:  Azm, Start 
 SDEP.m                3219.01:  Start Depth 
 SIDD.                      No:  Serv Intrp, DD 
 SINC.deg                75.11:  Inc, Start 
 SPPA.psig             2400.00:  SPP Avg 
 SPPN.psig             2320.00:  SPP Min 
 SPPX.psig             3200.00:  SPP Max 
 STIM.      15.15.00 17-Feb-20:  Start Time 
 SVCS.                 DD, MWD:  Services 
 SVER.                    9.20:  Sperry Version 
 TDAT.m                 254.00:  Tot Depth Attmp 
 TDDF.                      No:  Trip for DD 
 TDLG.m                 254.00:  Tot Depth Loggd 
 TFF .                      No:  Trip for Fail 
 TQAA.f-kp               13.00:  Torque Abs Avg 
 TQAN.f-kp                7.00:  Torque Abs Min 
 TQAX.f-kp               15.00:  Torque Abs Max 
 TRRT.°/30m               0.21:  Turn Rotating 
 MRT .                  EWR-M5:  Maximum Recorded Temperature 
 TTMX.degC               64.00:  Max Tool Temp 
 VS01.                90586516:  Virtual Str1 SN 
 VS02.                90513691:  Virtual Str2 SN 
 VS03.                90586523:  Virtual Str3 SN 
 VS04.                90586520:  Virtual Str4 SN 
 VS05.                90590507:  Virtual Str5 SN 
 WBMN.klb                12.00:  WOB Min 
 WITN.           Rufat Babayev:  Customer Rep 2 
 WITN.         Alistair Sprott:  Customer Rep 
 WOBA.klb                18.00:  WOB Avg 
 WOBX.klb                30.00:  WOB Max 
 YP  .lhf2               41.00:  Yield Point 
~Curve Information Block
#MNEM.UNIT                 API CODE     Curve Description
#---------               -----------    ---------------------------
 TIME.HHMMSS            00 000 000 000:  GT Time & Date
 GTDEPTH.m              00 000 000 000:  GT Depth
 GTPQH.psia             00 000 000 000:  GT HR Quartz Pressure
 GTTQ.degC              00 000 000 000:  GT Quartz Temperature
 GTTN.NONE              00 000 000 000:  GT Test Number
 GTET.sec               00 000 000 000:  GT Elapsed Test Time
 GTTVD.m                00 000 000 000:  GT True Vertical Depth
#Other Information
#
#WARRANTY: Halliburton will use its best efforts to furnish customers with 
#accurate information and interpretations that are part of, and incident to, the services 
#provided.  However, Halliburton cannot and does not warrant the accuracy 
#or correctness of such information and interpretations.  Under no circumstances should any 
#such information or interpretation be relied upon as the sole basis for any drilling, 
#completion, production, or financial decision or any procedure involving any risk to the 
#safety of any drilling venture, drilling rig or its crew or any other third party.  The 
#Customer has full responsibility for all drilling, completion and production operation.  
#Halliburton makes no representations or warranties, either expressed or 
#implied, including, but not limited to, the implied warranties of merchantability or fitness 
#for a particular purpose, with respect to the services rendered.  In no event will 
#Halliburton be liable for failure to obtain any particular results or for 
#any damages, including, but not limited to, indirect, special or consequential damages, 
#resulting from the use of any information or interpretation provided by Halliburton.
#
~A           TIME           GTDEPTH  GTPQH  GTTQ  GTTN  GTET   GTTVD  
   05:02:14.843.24-Feb-2020 3303.51 5679.73 55.53 8.00   0.00 2690.98
   05:02:15.043.24-Feb-2020 3303.51 5679.73 55.53 8.00   0.20 2690.98
   05:02:15.243.24-Feb-2020 3303.51 5689.69 55.53 8.00   0.40 2690.98
   05:02:15.443.24-Feb-2020 3303.51 5676.76 55.53 8.00   0.60 2690.98
   05:02:15.643.24-Feb-2020 3303.51 5681.67 55.53 8.00   0.80 2690.98
   05:02:15.842.24-Feb-2020 3303.51 5680.22 55.53 8.00   1.00 2690.98
   05:02:16.042.24-Feb-2020 3303.51 5680.22 55.53 8.00   1.20 2690.98
   05:02:16.242.24-Feb-2020 3303.51 5688.73 55.53 8.00   1.40 2690.98
   05:02:16.442.24-Feb-2020 3303.51 5679.90 55.53 8.00   1.60 2690.98
   05:02:16.642.24-Feb-2020 3303.51 5680.09 55.53 8.00   1.80 2690.98
   05:02:16.842.24-Feb-2020 3303.51 5686.46 55.53 8.00   2.00 2690.98
   05:02:17.042.24-Feb-2020 3303.51 5682.19 55.53 8.00   2.20 2690.98
   05:02:17.242.24-Feb-2020 3303.51 5682.62 55.53 8.00   2.40 2690.98
   05:02:17.442.24-Feb-2020 3303.51 5681.07 55.53 8.00   2.60 2690.98
   05:02:17.642.24-Feb-2020 3303.51 5689.52 55.53 8.00   2.80 2690.98
   05:02:17.842.24-Feb-2020 3303.51 5681.30 55.53 8.00   3.00 2690.98
   05:02:18.042.24-Feb-2020 3303.51 5681.30 55.53 8.00   3.20 2690.98
   05:02:18.242.24-Feb-2020 3303.51 5680.83 55.53 8.00   3.40 2690.98
   05:02:18.442.24-Feb-2020 3303.51 5679.74 55.53 8.00   3.60 2690.98
   05:02:18.642.24-Feb-2020 3303.51 5688.91 55.53 8.00   3.80 2690.98
   05:02:18.842.24-Feb-2020 3303.51 5680.44 55.53 8.00   4.00 2690.98
   05:02:19.042.24-Feb-2020 3303.51 5680.44 55.53 8.00   4.20 2690.98
   05:02:19.241.24-Feb-2020 3303.51 5682.22 55.53 8.00   4.40 2690.98
   05:02:19.441.24-Feb-2020 3303.51 5681.33 55.53 8.00   4.60 2690.98
   05:02:19.641.24-Feb-2020 3303.51 5682.11 55.53 8.00   4.80 2690.98
   05:02:19.841.24-Feb-2020 3303.51 5682.45 55.53 8.00   5.00 2690.98
   05:02:20.041.24-Feb-2020 3303.51 5682.45 55.53 8.00   5.20 2690.98
   05:02:20.241.24-Feb-2020 3303.51 5681.49 55.53 8.00   5.40 2690.98
   05:02:20.441.24-Feb-2020 3303.51 5680.21 55.53 8.00   5.60 2690.98
   05:02:20.641.24-Feb-2020 3303.51 5679.68 55.53 8.00   5.80 2690.98
   05:02:20.841.24-Feb-2020 3303.51 5679.16 55.53 8.00   6.00 2690.98
   05:02:21.041.24-Feb-2020 3303.51 5685.10 55.53 8.00   6.20 2690.98
   05:02:21.241.24-Feb-2020 3303.51 5681.55 55.53 8.00   6.40 2690.98
   05:02:21.441.24-Feb-2020 3303.51 5680.09 55.53 8.00   6.60 2690.98
   05:02:21.641.24-Feb-2020 3303.51 5676.22 55.53 8.00   6.80 2690.98
   05:02:21.841.24-Feb-2020 3303.51 5676.96 55.53 8.00   7.00 2690.98
   05:02:22.041.24-Feb-2020 3303.51 5676.96 55.53 8.00   7.20 2690.98
   05:02:22.241.24-Feb-2020 3303.51 5678.05 55.53 8.00   7.40 2690.98
   05:02:22.441.24-Feb-2020 3303.51 5677.58 55.53 8.00   7.60 2690.98
   05:02:22.640.24-Feb-2020 3303.51 5677.26 55.53 8.00   7.80 2690.98
   05:02:22.840.24-Feb-2020 3303.51 5677.14 55.53 8.00   8.00 2690.98
   05:02:23.040.24-Feb-2020 3303.51 5677.14 55.53 8.00   8.20 2690.98
   05:02:23.240.24-Feb-2020 3303.51 5676.78 55.53 8.00   8.40 2690.98
   05:02:23.440.24-Feb-2020 3303.51 5677.42 55.53 8.00   8.60 2690.98
   05:02:23.640.24-Feb-2020 3303.51 5677.95 55.53 8.00   8.80 2690.98
   05:02:23.840.24-Feb-2020 3303.51 5677.74 55.53 8.00   9.00 2690.98
   05:02:24.040.24-Feb-2020 3303.51 5677.74 55.53 8.00   9.20 2690.98
   05:02:24.240.24-Feb-2020 3303.51 5677.98 55.53 8.00   9.40 2690.98
   05:02:24.440.24-Feb-2020 3303.51 5679.45 55.53 8.00   9.60 2690.98
   05:02:24.640.24-Feb-2020 3303.51 5690.54 55.53 8.00   9.80 2690.98
   05:02:24.840.24-Feb-2020 3303.51 5676.87 55.53 8.00  10.00 2690.98
   05:02:25.040.24-Feb-2020 3303.51 5676.87 55.53 8.00  10.20 2690.98
   05:02:25.240.24-Feb-2020 3303.51 5679.37 55.53 8.00  10.40 2690.98
   05:02:25.440.24-Feb-2020 3303.51 5680.52 55.53 8.00  10.60 2690.98
   05:02:25.640.24-Feb-2020 3303.51 5681.16 55.53 8.00  10.80 2690.98
   05:02:25.840.24-Feb-2020 3303.51 5681.59 55.53 8.00  11.00 2690.98
   05:02:26.039.24-Feb-2020 3303.51 5681.59 55.53 8.00  11.20 2690.98
   05:02:26.239.24-Feb-2020 3303.51 5681.59 55.53 8.00  11.40 2690.98
   05:02:26.439.24-Feb-2020 3303.51 5681.34 55.53 8.00  11.60 2690.98
   05:02:26.639.24-Feb-2020 3303.51 5681.31 55.53 8.00  11.80 2690.98
   05:02:26.839.24-Feb-2020 3303.51 5681.31 55.53 8.00  12.00 2690.98
   05:02:27.039.24-Feb-2020 3303.51 5682.14 55.53 8.00  12.20 2690.98
   05:02:27.239.24-Feb-2020 3303.51 5683.98 55.53 8.00  12.40 2690.98
   05:02:27.439.24-Feb-2020 3303.51 5683.01 55.53 8.00  12.60 2690.98
   05:02:27.639.24-Feb-2020 3303.51 5682.55 55.53 8.00  12.80 2690.98
   05:02:27.839.24-Feb-2020 3303.51 5682.40 55.53 8.00  13.00 2690.98
   05:02:28.039.24-Feb-2020 3303.51 5682.40 55.53 8.00  13.20 2690.98
   05:02:28.239.24-Feb-2020 3303.51 5683.73 55.53 8.00  13.40 2690.98
   05:02:28.439.24-Feb-2020 3303.51 5692.22 55.53 8.00  13.60 2690.98
   05:02:28.639.24-Feb-2020 3303.51 5683.66 55.53 8.00  13.80 2690.98
   05:02:28.839.24-Feb-2020 3303.51 5683.33 55.53 8.00  14.00 2690.98
   05:02:29.039.24-Feb-2020 3303.51 5684.79 55.53 8.00  14.20 2690.98
   05:02:29.239.24-Feb-2020 3303.51 5683.86 55.53 8.00  14.40 2690.98
   05:02:29.438.24-Feb-2020 3303.51 5688.93 55.53 8.00  14.60 2690.98
   05:02:29.638.24-Feb-2020 3303.51 5685.91 55.53 8.00  14.80 2690.98
   05:02:29.838.24-Feb-2020 3303.51 5686.13 55.53 8.00  15.00 2690.98
   05:02:30.038.24-Feb-2020 3303.51 5686.13 55.53 8.00  15.20 2690.98
   05:02:30.238.24-Feb-2020 3303.51 5685.29 55.53 8.00  15.40 2690.98
   05:02:30.438.24-Feb-2020 3303.51 5692.20 55.53 8.00  15.60 2690.98
   05:02:30.638.24-Feb-2020 3303.51 5686.05 55.53 8.00  15.80 2690.98
   05:02:30.838.24-Feb-2020 3303.51 5685.88 55.53 8.00  16.00 2690.98
   05:02:31.038.24-Feb-2020 3303.51 5685.88 55.53 8.00  16.20 2690.98
   05:02:31.238.24-Feb-2020 3303.51 5680.39 55.53 8.00  16.40 2690.98
   05:02:31.438.24-Feb-2020 3303.51 5684.55 55.53 8.00  16.60 2690.98
   05:02:31.638.24-Feb-2020 3303.51 5683.37 55.53 8.00  16.80 2690.98
   05:02:31.838.24-Feb-2020 3303.51 5692.41 55.53 8.00  17.00 2690.98
   05:02:32.038.24-Feb-2020 3303.51 5692.41 55.53 8.00  17.19 2690.98
   05:02:32.238.24-Feb-2020 3303.51 5683.66 55.52 8.00  17.39 2690.98
   05:02:32.438.24-Feb-2020 3303.51 5685.25 55.52 8.00  17.59 2690.98
   05:02:32.638.24-Feb-2020 3303.51 5684.26 55.52 8.00  17.79 2690.98
   05:02:32.837.24-Feb-2020 3303.51 5689.81 55.52 8.00  17.99 2690.98
   05:02:33.037.24-Feb-2020 3303.51 5687.01 55.52 8.00  18.19 2690.98
   05:02:33.237.24-Feb-2020 3303.51 5687.03 55.52 8.00  18.39 2690.98
   05:02:33.437.24-Feb-2020 3303.51 5685.59 55.52 8.00  18.59 2690.98
   05:02:33.637.24-Feb-2020 3303.51 5686.63 55.52 8.00  18.79 2690.98
   05:02:33.837.24-Feb-2020 3303.51 5685.40 55.52 8.00  18.99 2690.98
   05:02:34.037.24-Feb-2020 3303.51 5685.40 55.52 8.00  19.19 2690.98
   05:02:34.237.24-Feb-2020 3303.51 5686.58 55.52 8.00  19.39 2690.98
   05:02:34.437.24-Feb-2020 3303.51 5687.04 55.52 8.00  19.59 2690.98
   05:02:34.637.24-Feb-2020 3303.51 5686.90 55.52 8.00  19.79 2690.98
   05:02:34.837.24-Feb-2020 3303.51 5686.60 55.52 8.00  19.99 2690.98
   05:02:35.037.24-Feb-2020 3303.51 5686.60 55.52 8.00  20.19 2690.98
   05:02:35.237.24-Feb-2020 3303.51 5686.89 55.52 8.00  20.39 2690.98
   05:02:35.437.24-Feb-2020 3303.51 5687.90 55.52 8.00  20.59 2690.98
   05:02:35.637.24-Feb-2020 3303.51 5688.86 55.52 8.00  20.79 2690.98
   05:02:35.837.24-Feb-2020 3303.51 5687.59 55.52 8.00  20.99 2690.98
   05:02:36.037.24-Feb-2020 3303.51 5687.59 55.52 8.00  21.19 2690.98
   05:02:36.236.24-Feb-2020 3303.51 5684.38 55.52 8.00  21.39 2690.98
   05:02:36.436.24-Feb-2020 3303.51 5689.75 55.52 8.00  21.59 2690.98
   05:02:36.636.24-Feb-2020 3303.51 5687.24 55.52 8.00  21.79 2690.98
   05:02:36.836.24-Feb-2020 3303.51 5688.47 55.52 8.00  21.99 2690.98
   05:02:37.036.24-Feb-2020 3303.51 5688.06 55.52 8.00  22.19 2690.98
   05:02:37.236.24-Feb-2020 3303.51 5688.72 55.52 8.00  22.39 2690.98
   05:02:37.436.24-Feb-2020 3303.51 5688.28 55.52 8.00  22.59 2690.98
   05:02:37.636.24-Feb-2020 3303.51 5688.46 55.52 8.00  22.79 2690.98
