~Version Information
 VERS.                  2.0:   CWLS log ASCII Standard -VERSION 2.0
 WRAP.                   NO:   One line per depth step
~Well Information Block
#MNEM.UNIT     VALUE/NAME     DESCRIPTION
#---------     -----------    ---------------------------
 STRT.S             06:21:10 24-Feb-20: START TIME 06:21:10 24-Feb-20
 STOP.S             06:29:09 24-Feb-20: STOP TIME  06:29:09 24-Feb-20
 STEP.S                   0.00: STEP TIME
 NULL.                 -999.25: NULL VALUE
 JOBN.        AZ-XX-0905059384:  JOB TICKET NUMB
 PDAT.          Mean Sea Level:  PERMANENT DATUM
 UNIT.                     N/A:  LOGGING EQUIPMENT ID
 DCON.         Sperry Drilling:  DIRECTNL CONTR
 DOE .                     N/A:  DOE NUMBER
 RIG .             West Chirag:  RIG NAME
 WELL.                     J22:  WELL NAME
 MWDS.                    Baku:  MWD SHOP
 SRVC.     TURAN Drilling & Engineering:  CONTRACTOR
 FLD .                     ACG:  FIELD NAME
 CTRY.              Azerbaijan:  COUNTRY NAME
 PROV.                    Baku:  PROVINCE
 STAT.                    Baku:  STATE NAME
 REGN.                   EESSA:  REGION
 BASE.              Azerbaijan:  LOGGING EQUIPMENT BASE LOCATION
 UWI .                     N/A:  UNIQUE WELL IDENTIFIER
 API .                     N/A:  API NUMBER
 COMP.     BP Exploration (Caspian Sea) Ltd.:  COMPANY
 WTYP.                Deviated:  WELL TYPE
 MDS .        Operator Entered:  MAG DATA SOURCE
 SON .        AZ-XX-0905059384:  JOB NUMBER
 FTOP.          Formation Tops:  FORM TOPS DESC
 ILTD.               Lithology:  INTERP LTH DESC
 SVYD.                  Survey:  SURVEY DESC
 DMOD.             Drill Model:  DRILL MOD DESC
 HPTY.       Minimum Curvature:  HOLE POS TYPE
 NREF.                    Grid:  NORTH REFERENCE
 SPUD.               09-Jan-20:  SPUD DATE
 DATE.      14.04.48 07-Feb-20:  END TIME
 STIM.      07.00.00 09-Jan-20:  START TIME
 DMF .             Drill Floor:  DRILL MEAS FROM
 DFST.                        :  DIST FSL TEXT
 DFWT.                        :  DIST FWL TEXT
 CNTY.                        :  COUNTY
 LOC .                        :  LOCATION
 LMF .             Drill Floor:  LOG MEASURED FROM
 DEP .m                   0.00:  DEPTH
 VSNS.m                  10.28:  VERT SEC N/S
 VSEW.m                  -6.24:  VERT SEC E/W
 AGAP.m                  43.00:  AIR GAP
 APD .m                  43.00:  DEPTH ABOVE PD
 WDMS.m                 169.80:  WD ELEV
 EGL .m                   0.00:  GROUND ELEVATION
 EPD .m                   0.00:  ELEVATION
 AZTC.deg                 6.27:  AZM TOTAL CORR
 GRDC.deg                 0.15:  GRID CORRECTION
 MDEC.deg                 6.42:  MAGNETIC DECL
 MDIP.deg                59.56:  MAGNETIC DIP
 MFLD.nT              50277.00:  MAGNETIC FIELD
 GVFD.g                   1.00:  GRAVITY FIELD
 VSDR.deg               148.53:  VERT SEC DIRECT
 TDD .m                3473.01:  TOTAL DEPTH (DRILLER)
 SDEP.m                 364.00:  START DEPTH
 DFSL.m                   0.00:  DISTANCE FSL
 DFWL.m                   0.00:  DISTANCE FWL
 UTMY.m             4443793.85:  UTM Y
 UTMX.m              519005.06:  UTM X
 WHEW.m                  -6.24:  WELL HEAD E/W
 WHNS.m                  10.28:  WELL HEAD N/S
 LONG.deg                51.22:  LONGITUDE
 LATI.deg                40.13:  LATITUDE
 TVDS.m                  43.00:  TVDSS CORRECTN
 EKB .m                   0.00:  KB ELEVATION
 EDF .m                  43.00:  DF ELEVATION
 TDL .m                 254.00:  TOTAL DEPTH (LOGGER)
 MAGU.                 1850021:  MAGUTM CHECKSUM
 VSC .                       0:  VS TO CLOSURE
~Parameter Information Block
#MNEM.UNIT       Value        Description
#---------     -----------    ---------------------------
 AV  .mps                 0.50:  Ann Velocity 
 AVMX.mps                 1.40:  Max Ann Veloc 
 AZIF.deg               144.94:  Azm, Final 
 BHAT.        Rotary Steerable:  BHA Type 
 BROT.°/30m               0.23:  Build Rotating 
 BS  .in                  8.50:  Bit Size 
 BTPL.psig              264.00:  Bit Press Loss 
 CABU.                     Yes:  Customer Abuse 
 COMM.                     î^:  Run Comments 1 
 TCS .hr                 87.30:  Time Ciculation Ended 
 CV  .mps                 2.45:  Crit Velocity 
 CVMX.mps                 2.74:  Max Crit Veloc 
 DD1 .             Aziz Aliyev:  Direct Drillr 1 
 DDSV.               Geo-Pilot:  DD Service 
 DEFF.%                 100.00:  % Det Eff 
 DLRX.°/30m               1.22:  Dogleg Rot Max 
 DLSO.°/30m               0.52:  Dogleg Oriented 
 DLSX.°/30m               1.22:  Dogleg Str Max 
 DRET.      12.59.00 23-Feb-20:  Drill End Time 
 DRST.      09.44.00 18-Feb-20:  Drill Start Tim 
 DTIM.hr                 23.03:  Time Drilling 
 EDEP.m                3473.01:  End Depth 
 ENG1.         Almaz Almadatov:  Engineer 1 
 ENG2.         Dair Mahammadov:  Engineer 2 
 ENG3.          Nazrin Asgarli:  Engineer 3 
 ETIM.      10.33.36 26-Feb-20:  End Time 
 FLOI.gpm               480.00:  Flow In 
 FLON.gpm               300.00:  Flow In Min 
 FLOS.cptm                1.00:  Fluid Loss 
 FLOX.gpm               550.00:  Flow In Max 
 HFLO.                      No:  High Flow 
 HPRE.                      No:  High Pressure 
 HTEM.                      No:  High Temp 
 HYDO.m                   1.80:  Hydro Offset 
 IFIN.deg                74.42:  Inc, Final 
 IMAX.deg                76.14:  Inc Max 
 IMIN.deg                74.42:  Inc Min 
 IMND.m                3462.72:  Inc Min Depth 
 IMXD.m                3235.69:  Inc Max Depth 
 JARR.                      No:  Jarring 
 LETM.      12.59.00 23-Feb-20:  Log End Time 
 LOST.hr                     0:  Lost Rig Time 
 LSTM.      09.44.00 18-Feb-20:  Log Start Time 
 MDCL.ppm             45000.00:  Mud Chlorides 
 MDES.     Inversion Oil/Synthetic:  Mud Desc 
 DFD .sg                  1.38:  Mud Density 
 MDMN.sg                  1.34:  Dens Mud Min 
 MDMX.sg                  1.49:  Dens Mud Max 
 MOIL.                      67:  Run Mud Oil % 
 MOWR.                   67:33:  Run Mud OWR 
 MSND.                    0.12:  Run Mud Sand % 
 MSOL.                      22:  Run Mud Solids% 
 DFV .spqt               81.00:  Mud Viscosity 
 MWOD.in                  6.75:  MWD Tool OD 
 MWSI.                      No:  Serv Intrp, MWD 
 OTIM.hr                231.44:  Time Operating 
 PCON.          Wear / Scratch:  Pad Condition 
 PMAX.psia             3400.00:  Press Op, Max 
 PV  .cP                 55.00:  Mud PV 
 RUN .                     800:  Run Number 
 ROPA.m/hr               12.00:  ROP Avg 
 ROPN.m/hr                5.00:  ROP Min 
 ROPX.m/hr               28.00:  ROP Max 
 RPMA.rpm               120.00:  RPM Surface Avg 
 RPMN.rpm                40.00:  RPM Surface Min 
 RPMX.rpm               130.00:  RPM Surface Max 
 RRUN.                    0800:  Rig Run Number 
 RTIM.hr                 45.00:  Time Reaming 
 SAZI.deg               145.38:  Azm, Start 
 SDEP.m                3219.01:  Start Depth 
 SIDD.                      No:  Serv Intrp, DD 
 SINC.deg                75.11:  Inc, Start 
 SPPA.psig             2400.00:  SPP Avg 
 SPPN.psig             2320.00:  SPP Min 
 SPPX.psig             3200.00:  SPP Max 
 STIM.      15.15.00 17-Feb-20:  Start Time 
 SVCS.                 DD, MWD:  Services 
 SVER.                    9.20:  Sperry Version 
 TDAT.m                 254.00:  Tot Depth Attmp 
 TDDF.                      No:  Trip for DD 
 TDLG.m                 254.00:  Tot Depth Loggd 
 TFF .                      No:  Trip for Fail 
 TQAA.f-kp               13.00:  Torque Abs Avg 
 TQAN.f-kp                7.00:  Torque Abs Min 
 TQAX.f-kp               15.00:  Torque Abs Max 
 TRRT.°/30m               0.21:  Turn Rotating 
 MRT .                  EWR-M5:  Maximum Recorded Temperature 
 TTMX.degC               64.00:  Max Tool Temp 
 VS01.                90586516:  Virtual Str1 SN 
 VS02.                90513691:  Virtual Str2 SN 
 VS03.                90586523:  Virtual Str3 SN 
 VS04.                90586520:  Virtual Str4 SN 
 VS05.                90590507:  Virtual Str5 SN 
 WBMN.klb                12.00:  WOB Min 
 WITN.           Rufat Babayev:  Customer Rep 2 
 WITN.         Alistair Sprott:  Customer Rep 
 WOBA.klb                18.00:  WOB Avg 
 WOBX.klb                30.00:  WOB Max 
 YP  .lhf2               41.00:  Yield Point 
~Curve Information Block
#MNEM.UNIT                 API CODE     Curve Description
#---------               -----------    ---------------------------
 TIME.HHMMSS            00 000 000 000:  GT Time & Date
 GTDEPTH.m              00 000 000 000:  GT Depth
 GTPQH.psia             00 000 000 000:  GT HR Quartz Pressure
 GTTQ.degC              00 000 000 000:  GT Quartz Temperature
 GTTN.NONE              00 000 000 000:  GT Test Number
 GTET.sec               00 000 000 000:  GT Elapsed Test Time
 GTTVD.m                00 000 000 000:  GT True Vertical Depth
#Other Information
#
#WARRANTY: Halliburton will use its best efforts to furnish customers with 
#accurate information and interpretations that are part of, and incident to, the services 
#provided.  However, Halliburton cannot and does not warrant the accuracy 
#or correctness of such information and interpretations.  Under no circumstances should any 
#such information or interpretation be relied upon as the sole basis for any drilling, 
#completion, production, or financial decision or any procedure involving any risk to the 
#safety of any drilling venture, drilling rig or its crew or any other third party.  The 
#Customer has full responsibility for all drilling, completion and production operation.  
#Halliburton makes no representations or warranties, either expressed or 
#implied, including, but not limited to, the implied warranties of merchantability or fitness 
#for a particular purpose, with respect to the services rendered.  In no event will 
#Halliburton be liable for failure to obtain any particular results or for 
#any damages, including, but not limited to, indirect, special or consequential damages, 
#resulting from the use of any information or interpretation provided by Halliburton.
#
~A           TIME           GTDEPTH  GTPQH  GTTQ  GTTN   GTET   GTTVD  
   06:21:10.408.24-Feb-2020 3290.51 5669.10 54.06 10.00   0.00 2687.65
   06:21:10.608.24-Feb-2020 3290.51 5669.10 54.06 10.00   0.20 2687.65
   06:21:10.808.24-Feb-2020 3290.51 5665.70 54.06 10.00   0.40 2687.65
   06:21:11.008.24-Feb-2020 3290.51 5665.75 54.06 10.00   0.60 2687.65
   06:21:11.208.24-Feb-2020 3290.51 5668.73 54.06 10.00   0.80 2687.65
   06:21:11.408.24-Feb-2020 3290.51 5668.94 54.06 10.00   1.00 2687.65
   06:21:11.608.24-Feb-2020 3290.51 5668.94 54.06 10.00   1.20 2687.65
   06:21:11.808.24-Feb-2020 3290.51 5672.01 54.06 10.00   1.40 2687.65
   06:21:12.008.24-Feb-2020 3290.51 5672.13 54.06 10.00   1.60 2687.65
   06:21:12.208.24-Feb-2020 3290.51 5667.83 54.06 10.00   1.80 2687.65
   06:21:12.408.24-Feb-2020 3290.51 5668.28 54.06 10.00   2.00 2687.65
   06:21:12.608.24-Feb-2020 3290.51 5669.78 54.06 10.00   2.20 2687.65
   06:21:12.809.24-Feb-2020 3290.51 5670.03 54.06 10.00   2.40 2687.65
   06:21:13.009.24-Feb-2020 3290.51 5670.77 54.06 10.00   2.60 2687.65
   06:21:13.209.24-Feb-2020 3290.51 5669.47 54.06 10.00   2.80 2687.65
   06:21:13.409.24-Feb-2020 3290.51 5669.83 54.06 10.00   3.00 2687.65
   06:21:13.609.24-Feb-2020 3290.51 5669.83 54.06 10.00   3.20 2687.65
   06:21:13.809.24-Feb-2020 3290.51 5670.66 54.06 10.00   3.40 2687.65
   06:21:14.009.24-Feb-2020 3290.51 5678.40 54.06 10.00   3.60 2687.65
   06:21:14.209.24-Feb-2020 3290.51 5667.20 54.06 10.00   3.80 2687.65
   06:21:14.409.24-Feb-2020 3290.51 5667.23 54.06 10.00   4.00 2687.65
   06:21:14.609.24-Feb-2020 3290.51 5667.23 54.06 10.00   4.20 2687.65
   06:21:14.809.24-Feb-2020 3290.51 5670.67 54.06 10.00   4.40 2687.65
   06:21:15.009.24-Feb-2020 3290.51 5669.41 54.06 10.00   4.60 2687.65
   06:21:15.209.24-Feb-2020 3290.51 5669.47 54.06 10.00   4.80 2687.65
   06:21:15.409.24-Feb-2020 3290.51 5669.69 54.06 10.00   5.00 2687.65
   06:21:15.609.24-Feb-2020 3290.51 5669.69 54.06 10.00   5.20 2687.65
   06:21:15.809.24-Feb-2020 3290.51 5671.58 54.06 10.00   5.40 2687.65
   06:21:16.009.24-Feb-2020 3290.51 5669.82 54.06 10.00   5.60 2687.65
   06:21:16.209.24-Feb-2020 3290.51 5669.63 54.06 10.00   5.80 2687.65
   06:21:16.409.24-Feb-2020 3290.51 5670.24 54.06 10.00   6.00 2687.65
   06:21:16.609.24-Feb-2020 3290.51 5671.02 54.06 10.00   6.20 2687.65
   06:21:16.809.24-Feb-2020 3290.51 5671.02 54.06 10.00   6.40 2687.65
   06:21:17.009.24-Feb-2020 3290.51 5669.91 54.06 10.00   6.60 2687.65
   06:21:17.209.24-Feb-2020 3290.51 5669.49 54.05 10.00   6.80 2687.65
   06:21:17.410.24-Feb-2020 3290.51 5669.71 54.05 10.00   7.00 2687.65
   06:21:17.610.24-Feb-2020 3290.51 5669.71 54.05 10.00   7.20 2687.65
   06:21:17.810.24-Feb-2020 3290.51 5667.40 54.05 10.00   7.40 2687.65
   06:21:18.010.24-Feb-2020 3290.51 5668.33 54.05 10.00   7.60 2687.65
   06:21:18.210.24-Feb-2020 3290.51 5669.91 54.05 10.00   7.80 2687.65
   06:21:18.410.24-Feb-2020 3290.51 5669.23 54.05 10.00   8.00 2687.65
   06:21:18.610.24-Feb-2020 3290.51 5669.23 54.05 10.00   8.20 2687.65
   06:21:18.810.24-Feb-2020 3290.51 5669.87 54.05 10.00   8.40 2687.65
   06:21:19.010.24-Feb-2020 3290.51 5670.58 54.05 10.00   8.60 2687.65
   06:21:19.210.24-Feb-2020 3290.51 5671.07 54.05 10.00   8.80 2687.65
   06:21:19.410.24-Feb-2020 3290.51 5671.25 54.05 10.00   9.00 2687.65
   06:21:19.610.24-Feb-2020 3290.51 5671.25 54.05 10.00   9.20 2687.65
   06:21:19.810.24-Feb-2020 3290.51 5672.16 54.05 10.00   9.40 2687.65
   06:21:20.010.24-Feb-2020 3290.51 5672.21 54.05 10.00   9.60 2687.65
   06:21:20.210.24-Feb-2020 3290.51 5671.74 54.05 10.00   9.80 2687.65
   06:21:20.410.24-Feb-2020 3290.51 5670.69 54.05 10.00  10.00 2687.65
   06:21:20.610.24-Feb-2020 3290.51 5670.37 54.05 10.00  10.20 2687.65
   06:21:20.810.24-Feb-2020 3290.51 5670.60 54.05 10.00  10.40 2687.65
   06:21:21.010.24-Feb-2020 3290.51 5671.27 54.05 10.00  10.60 2687.65
   06:21:21.210.24-Feb-2020 3290.51 5671.55 54.05 10.00  10.80 2687.65
   06:21:21.410.24-Feb-2020 3290.51 5677.32 54.05 10.00  11.00 2687.65
   06:21:21.610.24-Feb-2020 3290.51 5677.32 54.05 10.00  11.20 2687.65
   06:21:21.810.24-Feb-2020 3290.51 5670.06 54.05 10.00  11.40 2687.65
   06:21:22.011.24-Feb-2020 3290.51 5671.34 54.05 10.00  11.60 2687.65
   06:21:22.211.24-Feb-2020 3290.51 5671.17 54.05 10.00  11.80 2687.65
   06:21:22.411.24-Feb-2020 3290.51 5680.27 54.05 10.00  12.00 2687.65
   06:21:22.611.24-Feb-2020 3290.51 5680.27 54.05 10.00  12.20 2687.65
   06:21:22.811.24-Feb-2020 3290.51 5668.71 54.05 10.00  12.40 2687.65
   06:21:23.011.24-Feb-2020 3290.51 5671.40 54.05 10.00  12.60 2687.65
   06:21:23.211.24-Feb-2020 3290.51 5674.68 54.05 10.00  12.80 2687.65
   06:21:23.411.24-Feb-2020 3290.51 5675.02 54.05 10.00  13.00 2687.65
   06:21:23.611.24-Feb-2020 3290.51 5675.02 54.05 10.00  13.20 2687.65
   06:21:23.811.24-Feb-2020 3290.51 5669.87 54.05 10.00  13.40 2687.65
   06:21:24.011.24-Feb-2020 3290.51 5679.89 54.05 10.00  13.60 2687.65
   06:21:24.211.24-Feb-2020 3290.51 5667.41 54.05 10.00  13.80 2687.65
   06:21:24.411.24-Feb-2020 3290.51 5669.06 54.05 10.00  14.00 2687.65
   06:21:24.611.24-Feb-2020 3290.51 5672.28 54.05 10.00  14.20 2687.65
   06:21:24.811.24-Feb-2020 3290.51 5677.39 54.05 10.00  14.40 2687.65
   06:21:25.011.24-Feb-2020 3290.51 5670.03 54.05 10.00  14.60 2687.65
   06:21:25.211.24-Feb-2020 3290.51 5670.93 54.05 10.00  14.80 2687.65
   06:21:25.411.24-Feb-2020 3290.51 5671.91 54.05 10.00  15.00 2687.65
   06:21:25.611.24-Feb-2020 3290.51 5671.91 54.05 10.00  15.20 2687.65
   06:21:25.811.24-Feb-2020 3290.51 5671.91 54.05 10.00  15.40 2687.65
   06:21:26.011.24-Feb-2020 3290.51 5669.94 54.05 10.00  15.60 2687.65
   06:21:26.211.24-Feb-2020 3290.51 5669.44 54.05 10.00  15.80 2687.65
   06:21:26.411.24-Feb-2020 3290.51 5672.14 54.05 10.00  16.00 2687.65
   06:21:26.612.24-Feb-2020 3290.51 5672.14 54.05 10.00  16.20 2687.65
   06:21:26.812.24-Feb-2020 3290.51 5672.35 54.05 10.00  16.40 2687.65
   06:21:27.012.24-Feb-2020 3290.51 5673.15 54.05 10.00  16.60 2687.65
   06:21:27.212.24-Feb-2020 3290.51 5673.33 54.05 10.00  16.80 2687.65
   06:21:27.412.24-Feb-2020 3290.51 5673.51 54.05 10.00  17.00 2687.65
   06:21:27.612.24-Feb-2020 3290.51 5673.51 54.05 10.00  17.20 2687.65
   06:21:27.812.24-Feb-2020 3290.51 5671.64 54.05 10.00  17.40 2687.65
   06:21:28.012.24-Feb-2020 3290.51 5671.53 54.05 10.00  17.60 2687.65
   06:21:28.212.24-Feb-2020 3290.51 5672.59 54.05 10.00  17.80 2687.65
   06:21:28.412.24-Feb-2020 3290.51 5673.55 54.05 10.00  18.00 2687.65
   06:21:28.612.24-Feb-2020 3290.51 5672.90 54.05 10.00  18.20 2687.65
   06:21:28.812.24-Feb-2020 3290.51 5671.76 54.05 10.00  18.40 2687.65
   06:21:29.012.24-Feb-2020 3290.51 5680.96 54.05 10.00  18.60 2687.65
   06:21:29.212.24-Feb-2020 3290.51 5668.96 54.05 10.00  18.80 2687.65
   06:21:29.412.24-Feb-2020 3290.51 5670.64 54.05 10.00  19.00 2687.65
   06:21:29.612.24-Feb-2020 3290.51 5670.64 54.05 10.00  19.20 2687.65
   06:21:29.812.24-Feb-2020 3290.51 5672.28 54.05 10.00  19.40 2687.65
   06:21:30.012.24-Feb-2020 3290.51 5672.65 54.05 10.00  19.60 2687.65
   06:21:30.212.24-Feb-2020 3290.51 5672.18 54.05 10.00  19.80 2687.65
   06:21:30.412.24-Feb-2020 3290.51 5672.25 54.05 10.00  20.00 2687.65
   06:21:30.612.24-Feb-2020 3290.51 5672.25 54.05 10.00  20.20 2687.65
   06:21:30.812.24-Feb-2020 3290.51 5673.26 54.05 10.00  20.40 2687.65
   06:21:31.012.24-Feb-2020 3290.51 5672.15 54.05 10.00  20.60 2687.65
   06:21:31.213.24-Feb-2020 3290.51 5671.77 54.05 10.00  20.80 2687.65
   06:21:31.413.24-Feb-2020 3290.51 5671.69 54.05 10.00  21.00 2687.65
   06:21:31.613.24-Feb-2020 3290.51 5671.69 54.05 10.00  21.20 2687.65
   06:21:31.813.24-Feb-2020 3290.51 5673.78 54.05 10.00  21.40 2687.65
   06:21:32.013.24-Feb-2020 3290.51 5673.04 54.05 10.00  21.60 2687.65
   06:21:32.213.24-Feb-2020 3290.51 5672.21 54.04 10.00  21.80 2687.65
   06:21:32.413.24-Feb-2020 3290.51 5680.63 54.04 10.00  22.00 2687.65
   06:21:32.613.24-Feb-2020 3290.51 5668.85 54.04 10.00  22.20 2687.65
   06:21:32.813.24-Feb-2020 3290.51 5670.58 54.04 10.00  22.40 2687.65
