~Version Information
 VERS.                  2.0:   CWLS log ASCII Standard -VERSION 2.0
 WRAP.                   NO:   One line per depth step
~Well Information Block
#MNEM.UNIT     VALUE/NAME     DESCRIPTION
#---------     -----------    ---------------------------
 STRT.S             00:23:32 24-Feb-20: START TIME 00:23:32 24-Feb-20
 STOP.S             00:30:40 24-Feb-20: STOP TIME  00:30:40 24-Feb-20
 STEP.S                   0.00: STEP TIME
 NULL.                 -999.25: NULL VALUE
 JOBN.        AZ-XX-0905059384:  JOB TICKET NUMB
 PDAT.          Mean Sea Level:  PERMANENT DATUM
 UNIT.                     N/A:  LOGGING EQUIPMENT ID
 DCON.         Sperry Drilling:  DIRECTNL CONTR
 DOE .                     N/A:  DOE NUMBER
 RIG .             West Chirag:  RIG NAME
 WELL.                     J22:  WELL NAME
 MWDS.                    Baku:  MWD SHOP
 SRVC.     TURAN Drilling & Engineering:  CONTRACTOR
 FLD .                     ACG:  FIELD NAME
 CTRY.              Azerbaijan:  COUNTRY NAME
 PROV.                    Baku:  PROVINCE
 STAT.                    Baku:  STATE NAME
 REGN.                   EESSA:  REGION
 BASE.              Azerbaijan:  LOGGING EQUIPMENT BASE LOCATION
 UWI .                     N/A:  UNIQUE WELL IDENTIFIER
 API .                     N/A:  API NUMBER
 COMP.     BP Exploration (Caspian Sea) Ltd.:  COMPANY
 WTYP.                Deviated:  WELL TYPE
 MDS .        Operator Entered:  MAG DATA SOURCE
 SON .        AZ-XX-0905059384:  JOB NUMBER
 FTOP.          Formation Tops:  FORM TOPS DESC
 ILTD.               Lithology:  INTERP LTH DESC
 SVYD.                  Survey:  SURVEY DESC
 DMOD.             Drill Model:  DRILL MOD DESC
 HPTY.       Minimum Curvature:  HOLE POS TYPE
 NREF.                    Grid:  NORTH REFERENCE
 SPUD.               09-Jan-20:  SPUD DATE
 DATE.      14.04.48 07-Feb-20:  END TIME
 STIM.      07.00.00 09-Jan-20:  START TIME
 DMF .             Drill Floor:  DRILL MEAS FROM
 DFST.                        :  DIST FSL TEXT
 DFWT.                        :  DIST FWL TEXT
 CNTY.                        :  COUNTY
 LOC .                        :  LOCATION
 LMF .             Drill Floor:  LOG MEASURED FROM
 DEP .m                   0.00:  DEPTH
 VSNS.m                  10.28:  VERT SEC N/S
 VSEW.m                  -6.24:  VERT SEC E/W
 AGAP.m                  43.00:  AIR GAP
 APD .m                  43.00:  DEPTH ABOVE PD
 WDMS.m                 169.80:  WD ELEV
 EGL .m                   0.00:  GROUND ELEVATION
 EPD .m                   0.00:  ELEVATION
 AZTC.deg                 6.27:  AZM TOTAL CORR
 GRDC.deg                 0.15:  GRID CORRECTION
 MDEC.deg                 6.42:  MAGNETIC DECL
 MDIP.deg                59.56:  MAGNETIC DIP
 MFLD.nT              50277.00:  MAGNETIC FIELD
 GVFD.g                   1.00:  GRAVITY FIELD
 VSDR.deg               148.53:  VERT SEC DIRECT
 TDD .m                3473.01:  TOTAL DEPTH (DRILLER)
 SDEP.m                 364.00:  START DEPTH
 DFSL.m                   0.00:  DISTANCE FSL
 DFWL.m                   0.00:  DISTANCE FWL
 UTMY.m             4443793.85:  UTM Y
 UTMX.m              519005.06:  UTM X
 WHEW.m                  -6.24:  WELL HEAD E/W
 WHNS.m                  10.28:  WELL HEAD N/S
 LONG.deg                51.22:  LONGITUDE
 LATI.deg                40.13:  LATITUDE
 TVDS.m                  43.00:  TVDSS CORRECTN
 EKB .m                   0.00:  KB ELEVATION
 EDF .m                  43.00:  DF ELEVATION
 TDL .m                 254.00:  TOTAL DEPTH (LOGGER)
 MAGU.                 1850021:  MAGUTM CHECKSUM
 VSC .                       0:  VS TO CLOSURE
~Parameter Information Block
#MNEM.UNIT       Value        Description
#---------     -----------    ---------------------------
 AV  .mps                 0.50:  Ann Velocity 
 AVMX.mps                 1.40:  Max Ann Veloc 
 AZIF.deg               144.94:  Azm, Final 
 BHAT.        Rotary Steerable:  BHA Type 
 BROT.∞/30m               0.23:  Build Rotating 
 BS  .in                  8.50:  Bit Size 
 BTPL.psig              264.00:  Bit Press Loss 
 CABU.                     Yes:  Customer Abuse 
 COMM.                     ÙP`:  Run Comments 1 
 TCS .hr                 87.30:  Time Ciculation Ended 
 CV  .mps                 2.45:  Crit Velocity 
 CVMX.mps                 2.74:  Max Crit Veloc 
 DD1 .             Aziz Aliyev:  Direct Drillr 1 
 DDSV.               Geo-Pilot:  DD Service 
 DEFF.%                 100.00:  % Det Eff 
 DLRX.∞/30m               1.22:  Dogleg Rot Max 
 DLSO.∞/30m               0.52:  Dogleg Oriented 
 DLSX.∞/30m               1.22:  Dogleg Str Max 
 DRET.      12.59.00 23-Feb-20:  Drill End Time 
 DRST.      09.44.00 18-Feb-20:  Drill Start Tim 
 DTIM.hr                 23.03:  Time Drilling 
 EDEP.m                3473.01:  End Depth 
 ENG1.         Almaz Almadatov:  Engineer 1 
 ENG2.         Dair Mahammadov:  Engineer 2 
 ENG3.          Nazrin Asgarli:  Engineer 3 
 ETIM.      10.33.36 26-Feb-20:  End Time 
 FLOI.gpm               480.00:  Flow In 
 FLON.gpm               300.00:  Flow In Min 
 FLOS.cptm                1.00:  Fluid Loss 
 FLOX.gpm               550.00:  Flow In Max 
 HFLO.                      No:  High Flow 
 HPRE.                      No:  High Pressure 
 HTEM.                      No:  High Temp 
 HYDO.m                   1.80:  Hydro Offset 
 IFIN.deg                74.42:  Inc, Final 
 IMAX.deg                76.14:  Inc Max 
 IMIN.deg                74.42:  Inc Min 
 IMND.m                3462.72:  Inc Min Depth 
 IMXD.m                3235.69:  Inc Max Depth 
 JARR.                      No:  Jarring 
 LETM.      12.59.00 23-Feb-20:  Log End Time 
 LOST.hr                     0:  Lost Rig Time 
 LSTM.      09.44.00 18-Feb-20:  Log Start Time 
 MDCL.ppm             45000.00:  Mud Chlorides 
 MDES.     Inversion Oil/Synthetic:  Mud Desc 
 DFD .sg                  1.38:  Mud Density 
 MDMN.sg                  1.34:  Dens Mud Min 
 MDMX.sg                  1.49:  Dens Mud Max 
 MOIL.                      67:  Run Mud Oil % 
 MOWR.                   67:33:  Run Mud OWR 
 MSND.                    0.12:  Run Mud Sand % 
 MSOL.                      22:  Run Mud Solids% 
 DFV .spqt               81.00:  Mud Viscosity 
 MWOD.in                  6.75:  MWD Tool OD 
 MWSI.                      No:  Serv Intrp, MWD 
 OTIM.hr                231.44:  Time Operating 
 PCON.          Wear / Scratch:  Pad Condition 
 PMAX.psia             3400.00:  Press Op, Max 
 PV  .cP                 55.00:  Mud PV 
 RUN .                     800:  Run Number 
 ROPA.m/hr               12.00:  ROP Avg 
 ROPN.m/hr                5.00:  ROP Min 
 ROPX.m/hr               28.00:  ROP Max 
 RPMA.rpm               120.00:  RPM Surface Avg 
 RPMN.rpm                40.00:  RPM Surface Min 
 RPMX.rpm               130.00:  RPM Surface Max 
 RRUN.                    0800:  Rig Run Number 
 RTIM.hr                 45.00:  Time Reaming 
 SAZI.deg               145.38:  Azm, Start 
 SDEP.m                3219.01:  Start Depth 
 SIDD.                      No:  Serv Intrp, DD 
 SINC.deg                75.11:  Inc, Start 
 SPPA.psig             2400.00:  SPP Avg 
 SPPN.psig             2320.00:  SPP Min 
 SPPX.psig             3200.00:  SPP Max 
 STIM.      15.15.00 17-Feb-20:  Start Time 
 SVCS.                 DD, MWD:  Services 
 SVER.                    9.20:  Sperry Version 
 TDAT.m                 254.00:  Tot Depth Attmp 
 TDDF.                      No:  Trip for DD 
 TDLG.m                 254.00:  Tot Depth Loggd 
 TFF .                      No:  Trip for Fail 
 TQAA.f-kp               13.00:  Torque Abs Avg 
 TQAN.f-kp                7.00:  Torque Abs Min 
 TQAX.f-kp               15.00:  Torque Abs Max 
 TRRT.∞/30m               0.21:  Turn Rotating 
 MRT .                  EWR-M5:  Maximum Recorded Temperature 
 TTMX.degC               64.00:  Max Tool Temp 
 VS01.                90586516:  Virtual Str1 SN 
 VS02.                90513691:  Virtual Str2 SN 
 VS03.                90586523:  Virtual Str3 SN 
 VS04.                90586520:  Virtual Str4 SN 
 VS05.                90590507:  Virtual Str5 SN 
 WBMN.klb                12.00:  WOB Min 
 WITN.           Rufat Babayev:  Customer Rep 2 
 WITN.         Alistair Sprott:  Customer Rep 
 WOBA.klb                18.00:  WOB Avg 
 WOBX.klb                30.00:  WOB Max 
 YP  .lhf2               41.00:  Yield Point 
~Curve Information Block
#MNEM.UNIT                 API CODE     Curve Description
#---------               -----------    ---------------------------
 TIME.HHMMSS            00 000 000 000:  GT Time & Date
 GTDEPTH.m              00 000 000 000:  GT Depth
 GTPQH.psia             00 000 000 000:  GT HR Quartz Pressure
 GTTQ.degC              00 000 000 000:  GT Quartz Temperature
 GTTN.NONE              00 000 000 000:  GT Test Number
 GTET.sec               00 000 000 000:  GT Elapsed Test Time
 GTTVD.m                00 000 000 000:  GT True Vertical Depth
#Other Information
#
#WARRANTY: Halliburton will use its best efforts to furnish customers with 
#accurate information and interpretations that are part of, and incident to, the services 
#provided.  However, Halliburton cannot and does not warrant the accuracy 
#or correctness of such information and interpretations.  Under no circumstances should any 
#such information or interpretation be relied upon as the sole basis for any drilling, 
#completion, production, or financial decision or any procedure involving any risk to the 
#safety of any drilling venture, drilling rig or its crew or any other third party.  The 
#Customer has full responsibility for all drilling, completion and production operation.  
#Halliburton makes no representations or warranties, either expressed or 
#implied, including, but not limited to, the implied warranties of merchantability or fitness 
#for a particular purpose, with respect to the services rendered.  In no event will 
#Halliburton be liable for failure to obtain any particular results or for 
#any damages, including, but not limited to, indirect, special or consequential damages, 
#resulting from the use of any information or interpretation provided by Halliburton.
#
~A           TIME           GTDEPTH  GTPQH  GTTQ  GTTN  GTET   GTTVD  
# ...
   00:28:08.688.24-Feb-2020 3430.51 4169.02 56.36 2.00 276.03 2723.35
   00:28:08.888.24-Feb-2020 3430.51 4169.02 56.36 2.00 276.23 2723.35
   00:28:09.088.24-Feb-2020 3430.51 4190.20 56.36 2.00 276.43 2723.35
   00:28:09.289.24-Feb-2020 3430.51 4196.46 56.36 2.00 276.63 2723.35
   00:28:09.489.24-Feb-2020 3430.51 4200.16 56.36 2.00 276.83 2723.35
   00:28:09.689.24-Feb-2020 3430.51 4201.88 56.36 2.00 277.03 2723.35
   00:28:09.889.24-Feb-2020 3430.51 4201.88 56.36 2.00 277.23 2723.35
   00:28:10.089.24-Feb-2020 3430.51 4208.42 56.36 2.00 277.43 2723.35
   00:28:10.289.24-Feb-2020 3430.51 4209.20 56.36 2.00 277.63 2723.35
   00:28:10.489.24-Feb-2020 3430.51 4210.64 56.36 2.00 277.83 2723.35
   00:28:10.689.24-Feb-2020 3430.51 4211.13 56.37 2.00 278.03 2723.35
   00:28:10.889.24-Feb-2020 3430.51 4211.13 56.37 2.00 278.23 2723.35
   00:28:11.089.24-Feb-2020 3430.51 4213.03 56.37 2.00 278.43 2723.35
   00:28:11.289.24-Feb-2020 3430.51 4213.95 56.37 2.00 278.63 2723.35
   00:28:11.489.24-Feb-2020 3430.51 4213.53 56.37 2.00 278.83 2723.35
   00:28:11.689.24-Feb-2020 3430.51 4214.41 56.37 2.00 279.03 2723.35
   00:28:11.889.24-Feb-2020 3430.51 4214.41 56.37 2.00 279.23 2723.35
   00:28:12.089.24-Feb-2020 3430.51 4214.01 56.37 2.00 279.43 2723.35
   00:28:12.289.24-Feb-2020 3430.51 4215.51 56.37 2.00 279.63 2723.35
   00:28:12.489.24-Feb-2020 3430.51 4216.18 56.37 2.00 279.83 2723.35
   00:28:12.689.24-Feb-2020 3430.51 4215.32 56.37 2.00 280.03 2723.35
   00:28:12.889.24-Feb-2020 3430.51 4215.32 56.37 2.00 280.23 2723.35
   00:28:13.089.24-Feb-2020 3430.51 4215.55 56.37 2.00 280.43 2723.35
   00:28:13.289.24-Feb-2020 3430.51 4215.49 56.38 2.00 280.63 2723.35
   00:28:13.489.24-Feb-2020 3430.51 4216.28 56.38 2.00 280.83 2723.35
   00:28:13.689.24-Feb-2020 3430.51 4216.06 56.38 2.00 281.03 2723.35
   00:28:13.889.24-Feb-2020 3430.51 4216.06 56.38 2.00 281.23 2723.35
   00:28:14.089.24-Feb-2020 3430.51 4215.88 56.38 2.00 281.43 2723.35
   00:28:14.289.24-Feb-2020 3430.51 4216.60 56.38 2.00 281.63 2723.35
   00:28:14.489.24-Feb-2020 3430.51 4216.68 56.38 2.00 281.83 2723.35
   00:28:14.689.24-Feb-2020 3430.51 4216.65 56.38 2.00 282.03 2723.35
   00:28:14.889.24-Feb-2020 3430.51 4216.65 56.38 2.00 282.23 2723.35
   00:28:15.089.24-Feb-2020 3430.51 4216.85 56.38 2.00 282.43 2723.35
   00:28:15.289.24-Feb-2020 3430.51 4216.91 56.38 2.00 282.63 2723.35
   00:28:15.489.24-Feb-2020 3430.51 4217.11 56.38 2.00 282.83 2723.35
   00:28:15.689.24-Feb-2020 3430.51 4217.10 56.38 2.00 283.03 2723.35
   00:28:15.889.24-Feb-2020 3430.51 4217.10 56.38 2.00 283.23 2723.35
   00:28:16.089.24-Feb-2020 3430.51 4216.90 56.38 2.00 283.43 2723.35
   00:28:16.289.24-Feb-2020 3430.51 4217.16 56.38 2.00 283.63 2723.35
   00:28:16.489.24-Feb-2020 3430.51 4217.16 56.38 2.00 283.83 2723.35
   00:28:16.689.24-Feb-2020 3430.51 4217.54 56.38 2.00 284.03 2723.35
   00:28:16.889.24-Feb-2020 3430.51 4217.54 56.38 2.00 284.23 2723.35
   00:28:17.089.24-Feb-2020 3430.51 4217.36 56.38 2.00 284.43 2723.35
   00:28:17.289.24-Feb-2020 3430.51 4217.03 56.39 2.00 284.63 2723.35
   00:28:17.489.24-Feb-2020 3430.51 4217.69 56.39 2.00 284.83 2723.35
   00:28:17.689.24-Feb-2020 3430.51 4217.91 56.39 2.00 285.03 2723.35
   00:28:17.890.24-Feb-2020 3430.51 4217.91 56.39 2.00 285.23 2723.35
   00:28:18.090.24-Feb-2020 3430.51 4217.75 56.39 2.00 285.43 2723.35
   00:28:18.290.24-Feb-2020 3430.51 4217.76 56.39 2.00 285.63 2723.35
   00:28:18.490.24-Feb-2020 3430.51 4217.62 56.39 2.00 285.83 2723.35
   00:28:18.690.24-Feb-2020 3430.51 4217.73 56.39 2.00 286.03 2723.35
   00:28:18.890.24-Feb-2020 3430.51 4217.73 56.39 2.00 286.23 2723.35
   00:28:19.090.24-Feb-2020 3430.51 4217.69 56.39 2.00 286.43 2723.35
   00:28:19.290.24-Feb-2020 3430.51 4217.91 56.39 2.00 286.63 2723.35
   00:28:19.490.24-Feb-2020 3430.51 4217.80 56.39 2.00 286.83 2723.35
   00:28:19.690.24-Feb-2020 3430.51 4217.65 56.39 2.00 287.03 2723.35
   00:28:19.890.24-Feb-2020 3430.51 4217.65 56.39 2.00 287.23 2723.35
   00:28:20.090.24-Feb-2020 3430.51 4216.44 56.39 2.00 287.43 2723.35
   00:28:20.290.24-Feb-2020 3430.51 4218.30 56.39 2.00 287.63 2723.35
   00:28:20.490.24-Feb-2020 3430.51 4218.49 56.39 2.00 287.83 2723.35
   00:28:20.690.24-Feb-2020 3430.51 4217.85 56.39 2.00 288.03 2723.35
   00:28:20.890.24-Feb-2020 3430.51 4217.85 56.39 2.00 288.23 2723.35
   00:28:21.090.24-Feb-2020 3430.51 4217.84 56.39 2.00 288.43 2723.35
   00:28:21.290.24-Feb-2020 3430.51 4218.60 56.39 2.00 288.63 2723.35
   00:28:21.490.24-Feb-2020 3430.51 4217.80 56.39 2.00 288.83 2723.35
   00:28:21.690.24-Feb-2020 3430.51 4218.15 56.39 2.00 289.03 2723.35
   00:28:21.890.24-Feb-2020 3430.51 4218.15 56.39 2.00 289.23 2723.35
   00:28:22.090.24-Feb-2020 3430.51 4217.96 56.39 2.00 289.43 2723.35
   00:28:22.290.24-Feb-2020 3430.51 4217.34 56.39 2.00 289.63 2723.35
   00:28:22.490.24-Feb-2020 3430.51 4218.38 56.39 2.00 289.83 2723.35
   00:28:22.690.24-Feb-2020 3430.51 4219.03 56.39 2.00 290.03 2723.35
   00:28:22.890.24-Feb-2020 3430.51 4219.03 56.39 2.00 290.23 2723.35
   00:28:23.090.24-Feb-2020 3430.51 4218.30 56.39 2.00 290.43 2723.35
   00:28:23.290.24-Feb-2020 3430.51 4218.68 56.39 2.00 290.63 2723.35
   00:28:23.490.24-Feb-2020 3430.51 4216.94 56.39 2.00 290.83 2723.35
   00:28:23.690.24-Feb-2020 3430.51 4218.49 56.39 2.00 291.03 2723.35
   00:28:23.890.24-Feb-2020 3430.51 4218.49 56.39 2.00 291.23 2723.35
   00:28:24.090.24-Feb-2020 3430.51 4218.40 56.39 2.00 291.43 2723.35
   00:28:24.290.24-Feb-2020 3430.51 4218.55 56.39 2.00 291.63 2723.35
   00:28:24.490.24-Feb-2020 3430.51 4218.34 56.39 2.00 291.83 2723.35
   00:28:24.690.24-Feb-2020 3430.51 4218.45 56.39 2.00 292.03 2723.35
   00:28:24.890.24-Feb-2020 3430.51 4218.45 56.39 2.00 292.23 2723.35
   00:28:25.090.24-Feb-2020 3430.51 4218.60 56.39 2.00 292.43 2723.35
   00:28:25.290.24-Feb-2020 3430.51 4218.52 56.39 2.00 292.63 2723.35
   00:28:25.490.24-Feb-2020 3430.51 4218.49 56.39 2.00 292.83 2723.35
   00:28:25.690.24-Feb-2020 3430.51 4218.49 56.39 2.00 293.03 2723.35
   00:28:25.890.24-Feb-2020 3430.51 4218.49 56.39 2.00 293.23 2723.35
   00:28:26.090.24-Feb-2020 3430.51 4218.45 56.39 2.00 293.43 2723.35
   00:28:26.290.24-Feb-2020 3430.51 4217.89 56.39 2.00 293.63 2723.35
   00:28:26.490.24-Feb-2020 3430.51 4218.47 56.39 2.00 293.83 2723.35
   00:28:26.691.24-Feb-2020 3430.51 4218.42 56.39 2.00 294.03 2723.35
   00:28:26.891.24-Feb-2020 3430.51 4218.42 56.39 2.00 294.23 2723.35
   00:28:27.091.24-Feb-2020 3430.51 4218.06 56.39 2.00 294.43 2723.35
   00:28:27.291.24-Feb-2020 3430.51 4218.41 56.39 2.00 294.63 2723.35
   00:28:27.491.24-Feb-2020 3430.51 4218.67 56.39 2.00 294.83 2723.35
   00:28:27.691.24-Feb-2020 3430.51 4218.56 56.39 2.00 295.03 2723.35
   00:28:27.891.24-Feb-2020 3430.51 4218.56 56.39 2.00 295.23 2723.35
   00:28:28.091.24-Feb-2020 3430.51 4218.66 56.39 2.00 295.43 2723.35
   00:28:28.291.24-Feb-2020 3430.51 4218.68 56.39 2.00 295.63 2723.35
   00:28:28.491.24-Feb-2020 3430.51 4218.54 56.39 2.00 295.83 2723.35
   00:28:28.691.24-Feb-2020 3430.51 4218.49 56.39 2.00 296.03 2723.35
   00:28:28.891.24-Feb-2020 3430.51 4218.49 56.39 2.00 296.23 2723.35
   00:28:29.091.24-Feb-2020 3430.51 4218.60 56.39 2.00 296.43 2723.35
   00:28:29.291.24-Feb-2020 3430.51 4218.73 56.39 2.00 296.63 2723.35
   00:28:29.491.24-Feb-2020 3430.51 4218.76 56.39 2.00 296.83 2723.35
   00:28:29.691.24-Feb-2020 3430.51 4219.19 56.39 2.00 297.03 2723.35
   00:28:29.891.24-Feb-2020 3430.51 4219.19 56.39 2.00 297.23 2723.35
   00:28:30.091.24-Feb-2020 3430.51 4218.99 56.39 2.00 297.43 2723.35
   00:28:30.291.24-Feb-2020 3430.51 4218.96 56.39 2.00 297.63 2723.35
   00:28:30.491.24-Feb-2020 3430.51 4218.70 56.39 2.00 297.83 2723.35
   00:28:30.691.24-Feb-2020 3430.51 4219.60 56.39 2.00 298.03 2723.35
   00:28:30.891.24-Feb-2020 3430.51 4219.60 56.39 2.00 298.23 2723.35
   00:28:31.091.24-Feb-2020 3430.51 4218.87 56.39 2.00 298.43 2723.35
   00:28:31.291.24-Feb-2020 3430.51 4219.02 56.39 2.00 298.63 2723.35
   00:28:31.491.24-Feb-2020 3430.51 4218.71 56.39 2.00 298.83 2723.35
