~Version Information
 VERS.                  2.0:   CWLS log ASCII Standard -VERSION 2.0
 WRAP.                   NO:   One line per depth step
~Well Information Block
#MNEM.UNIT     VALUE/NAME     DESCRIPTION
#---------     -----------    ---------------------------
 STRT.S             06:21:10 24-Feb-20: START TIME 06:21:10 24-Feb-20
 STOP.S             06:29:09 24-Feb-20: STOP TIME  06:29:09 24-Feb-20
 STEP.S                   0.00: STEP TIME
 NULL.                 -999.25: NULL VALUE
 JOBN.        AZ-XX-0905059384:  JOB TICKET NUMB
 PDAT.          Mean Sea Level:  PERMANENT DATUM
 UNIT.                     N/A:  LOGGING EQUIPMENT ID
 DCON.         Sperry Drilling:  DIRECTNL CONTR
 DOE .                     N/A:  DOE NUMBER
 RIG .             West Chirag:  RIG NAME
 WELL.                     J22:  WELL NAME
 MWDS.                    Baku:  MWD SHOP
 SRVC.     TURAN Drilling & Engineering:  CONTRACTOR
 FLD .                     ACG:  FIELD NAME
 CTRY.              Azerbaijan:  COUNTRY NAME
 PROV.                    Baku:  PROVINCE
 STAT.                    Baku:  STATE NAME
 REGN.                   EESSA:  REGION
 BASE.              Azerbaijan:  LOGGING EQUIPMENT BASE LOCATION
 UWI .                     N/A:  UNIQUE WELL IDENTIFIER
 API .                     N/A:  API NUMBER
 COMP.     BP Exploration (Caspian Sea) Ltd.:  COMPANY
 WTYP.                Deviated:  WELL TYPE
 MDS .        Operator Entered:  MAG DATA SOURCE
 SON .        AZ-XX-0905059384:  JOB NUMBER
 FTOP.          Formation Tops:  FORM TOPS DESC
 ILTD.               Lithology:  INTERP LTH DESC
 SVYD.                  Survey:  SURVEY DESC
 DMOD.             Drill Model:  DRILL MOD DESC
 HPTY.       Minimum Curvature:  HOLE POS TYPE
 NREF.                    Grid:  NORTH REFERENCE
 SPUD.               09-Jan-20:  SPUD DATE
 DATE.      14.04.48 07-Feb-20:  END TIME
 STIM.      07.00.00 09-Jan-20:  START TIME
 DMF .             Drill Floor:  DRILL MEAS FROM
 DFST.                        :  DIST FSL TEXT
 DFWT.                        :  DIST FWL TEXT
 CNTY.                        :  COUNTY
 LOC .                        :  LOCATION
 LMF .             Drill Floor:  LOG MEASURED FROM
 DEP .m                   0.00:  DEPTH
 VSNS.m                  10.28:  VERT SEC N/S
 VSEW.m                  -6.24:  VERT SEC E/W
 AGAP.m                  43.00:  AIR GAP
 APD .m                  43.00:  DEPTH ABOVE PD
 WDMS.m                 169.80:  WD ELEV
 EGL .m                   0.00:  GROUND ELEVATION
 EPD .m                   0.00:  ELEVATION
 AZTC.deg                 6.27:  AZM TOTAL CORR
 GRDC.deg                 0.15:  GRID CORRECTION
 MDEC.deg                 6.42:  MAGNETIC DECL
 MDIP.deg                59.56:  MAGNETIC DIP
 MFLD.nT              50277.00:  MAGNETIC FIELD
 GVFD.g                   1.00:  GRAVITY FIELD
 VSDR.deg               148.53:  VERT SEC DIRECT
 TDD .m                3473.01:  TOTAL DEPTH (DRILLER)
 SDEP.m                 364.00:  START DEPTH
 DFSL.m                   0.00:  DISTANCE FSL
 DFWL.m                   0.00:  DISTANCE FWL
 UTMY.m             4443793.85:  UTM Y
 UTMX.m              519005.06:  UTM X
 WHEW.m                  -6.24:  WELL HEAD E/W
 WHNS.m                  10.28:  WELL HEAD N/S
 LONG.deg                51.22:  LONGITUDE
 LATI.deg                40.13:  LATITUDE
 TVDS.m                  43.00:  TVDSS CORRECTN
 EKB .m                   0.00:  KB ELEVATION
 EDF .m                  43.00:  DF ELEVATION
 TDL .m                 254.00:  TOTAL DEPTH (LOGGER)
 MAGU.                 1850021:  MAGUTM CHECKSUM
 VSC .                       0:  VS TO CLOSURE
~Parameter Information Block
#MNEM.UNIT       Value        Description
#---------     -----------    ---------------------------
 AV  .mps                 0.50:  Ann Velocity 
 AVMX.mps                 1.40:  Max Ann Veloc 
 AZIF.deg               144.94:  Azm, Final 
 BHAT.        Rotary Steerable:  BHA Type 
 BROT.°/30m               0.23:  Build Rotating 
 BS  .in                  8.50:  Bit Size 
 BTPL.psig              264.00:  Bit Press Loss 
 CABU.                     Yes:  Customer Abuse 
 COMM.                     î^:  Run Comments 1 
 TCS .hr                 87.30:  Time Ciculation Ended 
 CV  .mps                 2.45:  Crit Velocity 
 CVMX.mps                 2.74:  Max Crit Veloc 
 DD1 .             Aziz Aliyev:  Direct Drillr 1 
 DDSV.               Geo-Pilot:  DD Service 
 DEFF.%                 100.00:  % Det Eff 
 DLRX.°/30m               1.22:  Dogleg Rot Max 
 DLSO.°/30m               0.52:  Dogleg Oriented 
 DLSX.°/30m               1.22:  Dogleg Str Max 
 DRET.      12.59.00 23-Feb-20:  Drill End Time 
 DRST.      09.44.00 18-Feb-20:  Drill Start Tim 
 DTIM.hr                 23.03:  Time Drilling 
 EDEP.m                3473.01:  End Depth 
 ENG1.         Almaz Almadatov:  Engineer 1 
 ENG2.         Dair Mahammadov:  Engineer 2 
 ENG3.          Nazrin Asgarli:  Engineer 3 
 ETIM.      10.33.36 26-Feb-20:  End Time 
 FLOI.gpm               480.00:  Flow In 
 FLON.gpm               300.00:  Flow In Min 
 FLOS.cptm                1.00:  Fluid Loss 
 FLOX.gpm               550.00:  Flow In Max 
 HFLO.                      No:  High Flow 
 HPRE.                      No:  High Pressure 
 HTEM.                      No:  High Temp 
 HYDO.m                   1.80:  Hydro Offset 
 IFIN.deg                74.42:  Inc, Final 
 IMAX.deg                76.14:  Inc Max 
 IMIN.deg                74.42:  Inc Min 
 IMND.m                3462.72:  Inc Min Depth 
 IMXD.m                3235.69:  Inc Max Depth 
 JARR.                      No:  Jarring 
 LETM.      12.59.00 23-Feb-20:  Log End Time 
 LOST.hr                     0:  Lost Rig Time 
 LSTM.      09.44.00 18-Feb-20:  Log Start Time 
 MDCL.ppm             45000.00:  Mud Chlorides 
 MDES.     Inversion Oil/Synthetic:  Mud Desc 
 DFD .sg                  1.38:  Mud Density 
 MDMN.sg                  1.34:  Dens Mud Min 
 MDMX.sg                  1.49:  Dens Mud Max 
 MOIL.                      67:  Run Mud Oil % 
 MOWR.                   67:33:  Run Mud OWR 
 MSND.                    0.12:  Run Mud Sand % 
 MSOL.                      22:  Run Mud Solids% 
 DFV .spqt               81.00:  Mud Viscosity 
 MWOD.in                  6.75:  MWD Tool OD 
 MWSI.                      No:  Serv Intrp, MWD 
 OTIM.hr                231.44:  Time Operating 
 PCON.          Wear / Scratch:  Pad Condition 
 PMAX.psia             3400.00:  Press Op, Max 
 PV  .cP                 55.00:  Mud PV 
 RUN .                     800:  Run Number 
 ROPA.m/hr               12.00:  ROP Avg 
 ROPN.m/hr                5.00:  ROP Min 
 ROPX.m/hr               28.00:  ROP Max 
 RPMA.rpm               120.00:  RPM Surface Avg 
 RPMN.rpm                40.00:  RPM Surface Min 
 RPMX.rpm               130.00:  RPM Surface Max 
 RRUN.                    0800:  Rig Run Number 
 RTIM.hr                 45.00:  Time Reaming 
 SAZI.deg               145.38:  Azm, Start 
 SDEP.m                3219.01:  Start Depth 
 SIDD.                      No:  Serv Intrp, DD 
 SINC.deg                75.11:  Inc, Start 
 SPPA.psig             2400.00:  SPP Avg 
 SPPN.psig             2320.00:  SPP Min 
 SPPX.psig             3200.00:  SPP Max 
 STIM.      15.15.00 17-Feb-20:  Start Time 
 SVCS.                 DD, MWD:  Services 
 SVER.                    9.20:  Sperry Version 
 TDAT.m                 254.00:  Tot Depth Attmp 
 TDDF.                      No:  Trip for DD 
 TDLG.m                 254.00:  Tot Depth Loggd 
 TFF .                      No:  Trip for Fail 
 TQAA.f-kp               13.00:  Torque Abs Avg 
 TQAN.f-kp                7.00:  Torque Abs Min 
 TQAX.f-kp               15.00:  Torque Abs Max 
 TRRT.°/30m               0.21:  Turn Rotating 
 MRT .                  EWR-M5:  Maximum Recorded Temperature 
 TTMX.degC               64.00:  Max Tool Temp 
 VS01.                90586516:  Virtual Str1 SN 
 VS02.                90513691:  Virtual Str2 SN 
 VS03.                90586523:  Virtual Str3 SN 
 VS04.                90586520:  Virtual Str4 SN 
 VS05.                90590507:  Virtual Str5 SN 
 WBMN.klb                12.00:  WOB Min 
 WITN.           Rufat Babayev:  Customer Rep 2 
 WITN.         Alistair Sprott:  Customer Rep 
 WOBA.klb                18.00:  WOB Avg 
 WOBX.klb                30.00:  WOB Max 
 YP  .lhf2               41.00:  Yield Point 
~Curve Information Block
#MNEM.UNIT                 API CODE     Curve Description
#---------               -----------    ---------------------------
 TIME.HHMMSS            00 000 000 000:  GT Time & Date
 GTDEPTH.m              00 000 000 000:  GT Depth
 GTPQH.psia             00 000 000 000:  GT HR Quartz Pressure
 GTTQ.degC              00 000 000 000:  GT Quartz Temperature
 GTTN.NONE              00 000 000 000:  GT Test Number
 GTET.sec               00 000 000 000:  GT Elapsed Test Time
 GTTVD.m                00 000 000 000:  GT True Vertical Depth
#Other Information
#
#WARRANTY: Halliburton will use its best efforts to furnish customers with 
#accurate information and interpretations that are part of, and incident to, the services 
#provided.  However, Halliburton cannot and does not warrant the accuracy 
#or correctness of such information and interpretations.  Under no circumstances should any 
#such information or interpretation be relied upon as the sole basis for any drilling, 
#completion, production, or financial decision or any procedure involving any risk to the 
#safety of any drilling venture, drilling rig or its crew or any other third party.  The 
#Customer has full responsibility for all drilling, completion and production operation.  
#Halliburton makes no representations or warranties, either expressed or 
#implied, including, but not limited to, the implied warranties of merchantability or fitness 
#for a particular purpose, with respect to the services rendered.  In no event will 
#Halliburton be liable for failure to obtain any particular results or for 
#any damages, including, but not limited to, indirect, special or consequential damages, 
#resulting from the use of any information or interpretation provided by Halliburton.
#
~A           TIME           GTDEPTH  GTPQH  GTTQ  GTTN   GTET   GTTVD  
# ...
   06:23:48.643.24-Feb-2020 3290.51 4402.10 53.96 10.00 158.23 2687.65
   06:23:48.843.24-Feb-2020 3290.51 4402.03 53.96 10.00 158.43 2687.65
   06:23:49.043.24-Feb-2020 3290.51 4402.16 53.96 10.00 158.63 2687.65
   06:23:49.243.24-Feb-2020 3290.51 4402.27 53.96 10.00 158.83 2687.65
   06:23:49.443.24-Feb-2020 3290.51 4401.70 53.96 10.00 159.03 2687.65
   06:23:49.643.24-Feb-2020 3290.51 4401.70 53.96 10.00 159.23 2687.65
   06:23:49.843.24-Feb-2020 3290.51 4402.13 53.96 10.00 159.43 2687.65
   06:23:50.043.24-Feb-2020 3290.51 4402.35 53.96 10.00 159.63 2687.65
   06:23:50.243.24-Feb-2020 3290.51 4402.27 53.96 10.00 159.83 2687.65
   06:23:50.443.24-Feb-2020 3290.51 4402.12 53.96 10.00 160.03 2687.65
   06:23:50.643.24-Feb-2020 3290.51 4402.12 53.96 10.00 160.24 2687.65
   06:23:50.843.24-Feb-2020 3290.51 4401.59 53.96 10.00 160.44 2687.65
   06:23:51.043.24-Feb-2020 3290.51 4401.91 53.96 10.00 160.64 2687.65
   06:23:51.243.24-Feb-2020 3290.51 4401.98 53.96 10.00 160.84 2687.65
   06:23:51.443.24-Feb-2020 3290.51 4402.29 53.96 10.00 161.04 2687.65
   06:23:51.643.24-Feb-2020 3290.51 4402.29 53.96 10.00 161.24 2687.65
   06:23:51.843.24-Feb-2020 3290.51 4402.24 53.96 10.00 161.44 2687.65
   06:23:52.043.24-Feb-2020 3290.51 4402.22 53.96 10.00 161.64 2687.65
   06:23:52.243.24-Feb-2020 3290.51 4402.18 53.96 10.00 161.84 2687.65
   06:23:52.443.24-Feb-2020 3290.51 4402.22 53.96 10.00 162.04 2687.65
   06:23:52.643.24-Feb-2020 3290.51 4402.19 53.96 10.00 162.24 2687.65
   06:23:52.843.24-Feb-2020 3290.51 4402.17 53.96 10.00 162.44 2687.65
   06:23:53.044.24-Feb-2020 3290.51 4402.23 53.96 10.00 162.64 2687.65
   06:23:53.244.24-Feb-2020 3290.51 4402.28 53.96 10.00 162.84 2687.65
   06:23:53.444.24-Feb-2020 3290.51 4402.19 53.96 10.00 163.04 2687.65
   06:23:53.644.24-Feb-2020 3290.51 4402.19 53.96 10.00 163.24 2687.65
   06:23:53.844.24-Feb-2020 3290.51 4401.41 53.96 10.00 163.44 2687.65
   06:23:54.044.24-Feb-2020 3290.51 4401.89 53.96 10.00 163.64 2687.65
   06:23:54.244.24-Feb-2020 3290.51 4401.93 53.96 10.00 163.84 2687.65
   06:23:54.444.24-Feb-2020 3290.51 4402.15 53.96 10.00 164.04 2687.65
   06:23:54.644.24-Feb-2020 3290.51 4402.15 53.96 10.00 164.24 2687.65
   06:23:54.844.24-Feb-2020 3290.51 4402.09 53.96 10.00 164.44 2687.65
   06:23:55.044.24-Feb-2020 3290.51 4402.24 53.96 10.00 164.64 2687.65
   06:23:55.244.24-Feb-2020 3290.51 4402.15 53.96 10.00 164.84 2687.65
   06:23:55.444.24-Feb-2020 3290.51 4402.15 53.96 10.00 165.04 2687.65
   06:23:55.644.24-Feb-2020 3290.51 4402.15 53.96 10.00 165.24 2687.65
   06:23:55.844.24-Feb-2020 3290.51 4402.09 53.96 10.00 165.44 2687.65
   06:23:56.044.24-Feb-2020 3290.51 4402.08 53.96 10.00 165.64 2687.65
   06:23:56.244.24-Feb-2020 3290.51 4402.12 53.96 10.00 165.84 2687.65
   06:23:56.444.24-Feb-2020 3290.51 4402.21 53.96 10.00 166.04 2687.65
   06:23:56.644.24-Feb-2020 3290.51 4402.14 53.96 10.00 166.24 2687.65
   06:23:56.844.24-Feb-2020 3290.51 4402.12 53.96 10.00 166.44 2687.65
   06:23:57.044.24-Feb-2020 3290.51 4401.93 53.96 10.00 166.64 2687.65
   06:23:57.244.24-Feb-2020 3290.51 4401.86 53.96 10.00 166.84 2687.65
   06:23:57.445.24-Feb-2020 3290.51 4401.24 53.96 10.00 167.04 2687.65
   06:23:57.645.24-Feb-2020 3290.51 4401.24 53.96 10.00 167.24 2687.65
   06:23:57.845.24-Feb-2020 3290.51 4402.21 53.96 10.00 167.44 2687.65
   06:23:58.045.24-Feb-2020 3290.51 4401.63 53.96 10.00 167.64 2687.65
   06:23:58.245.24-Feb-2020 3290.51 4402.12 53.96 10.00 167.84 2687.65
   06:23:58.445.24-Feb-2020 3290.51 4401.59 53.96 10.00 168.04 2687.65
   06:23:58.645.24-Feb-2020 3290.51 4401.59 53.96 10.00 168.24 2687.65
   06:23:58.845.24-Feb-2020 3290.51 4402.22 53.96 10.00 168.44 2687.65
   06:23:59.045.24-Feb-2020 3290.51 4401.63 53.96 10.00 168.64 2687.65
   06:23:59.245.24-Feb-2020 3290.51 4401.92 53.96 10.00 168.84 2687.65
   06:23:59.445.24-Feb-2020 3290.51 4401.97 53.96 10.00 169.04 2687.65
   06:23:59.645.24-Feb-2020 3290.51 4401.97 53.96 10.00 169.24 2687.65
   06:23:59.845.24-Feb-2020 3290.51 4402.32 53.96 10.00 169.44 2687.65
   06:24:00.045.24-Feb-2020 3290.51 4402.13 53.96 10.00 169.64 2687.65
   06:24:00.245.24-Feb-2020 3290.51 4401.51 53.96 10.00 169.84 2687.65
   06:24:00.445.24-Feb-2020 3290.51 4401.81 53.96 10.00 170.04 2687.65
   06:24:00.645.24-Feb-2020 3290.51 4401.92 53.96 10.00 170.24 2687.65
   06:24:00.845.24-Feb-2020 3290.51 4402.28 53.96 10.00 170.44 2687.65
   06:24:01.045.24-Feb-2020 3290.51 4402.24 53.96 10.00 170.64 2687.65
   06:24:01.245.24-Feb-2020 3290.51 4402.26 53.96 10.00 170.84 2687.65
   06:24:01.445.24-Feb-2020 3290.51 4402.25 53.96 10.00 171.04 2687.65
   06:24:01.645.24-Feb-2020 3290.51 4402.25 53.96 10.00 171.24 2687.65
   06:24:01.845.24-Feb-2020 3290.51 4402.22 53.96 10.00 171.44 2687.65
   06:24:02.046.24-Feb-2020 3290.51 4402.19 53.96 10.00 171.64 2687.65
   06:24:02.246.24-Feb-2020 3290.51 4402.17 53.96 10.00 171.84 2687.65
   06:24:02.446.24-Feb-2020 3290.51 4402.20 53.96 10.00 172.04 2687.65
   06:24:02.646.24-Feb-2020 3290.51 4402.20 53.96 10.00 172.24 2687.65
   06:24:02.846.24-Feb-2020 3290.51 4402.25 53.96 10.00 172.44 2687.65
   06:24:03.046.24-Feb-2020 3290.51 4402.22 53.96 10.00 172.64 2687.65
   06:24:03.246.24-Feb-2020 3290.51 4401.65 53.96 10.00 172.84 2687.65
   06:24:03.446.24-Feb-2020 3290.51 4401.62 53.96 10.00 173.04 2687.65
   06:24:03.646.24-Feb-2020 3290.51 4401.62 53.96 10.00 173.24 2687.65
   06:24:03.846.24-Feb-2020 3290.51 4402.16 53.96 10.00 173.44 2687.65
   06:24:04.046.24-Feb-2020 3290.51 4402.24 53.96 10.00 173.64 2687.65
   06:24:04.246.24-Feb-2020 3290.51 4402.14 53.96 10.00 173.84 2687.65
   06:24:04.446.24-Feb-2020 3290.51 4402.06 53.96 10.00 174.04 2687.65
   06:24:04.646.24-Feb-2020 3290.51 4402.06 53.96 10.00 174.24 2687.65
   06:24:04.846.24-Feb-2020 3290.51 4402.19 53.96 10.00 174.44 2687.65
   06:24:05.046.24-Feb-2020 3290.51 4402.22 53.96 10.00 174.64 2687.65
   06:24:05.246.24-Feb-2020 3290.51 4402.05 53.96 10.00 174.84 2687.65
   06:24:05.446.24-Feb-2020 3290.51 4402.08 53.96 10.00 175.04 2687.65
   06:24:05.646.24-Feb-2020 3290.51 4402.08 53.96 10.00 175.24 2687.65
   06:24:05.846.24-Feb-2020 3290.51 4402.20 53.96 10.00 175.44 2687.65
   06:24:06.046.24-Feb-2020 3290.51 4402.16 53.96 10.00 175.64 2687.65
   06:24:06.246.24-Feb-2020 3290.51 4402.14 53.96 10.00 175.84 2687.65
   06:24:06.446.24-Feb-2020 3290.51 4401.99 53.96 10.00 176.04 2687.65
   06:24:06.647.24-Feb-2020 3290.51 4401.99 53.96 10.00 176.24 2687.65
   06:24:06.847.24-Feb-2020 3290.51 4401.19 53.96 10.00 176.44 2687.65
   06:24:07.047.24-Feb-2020 3290.51 4401.99 53.96 10.00 176.64 2687.65
   06:24:07.247.24-Feb-2020 3290.51 4402.30 53.96 10.00 176.84 2687.65
   06:24:07.447.24-Feb-2020 3290.51 4402.25 53.96 10.00 177.04 2687.65
   06:24:07.647.24-Feb-2020 3290.51 4402.25 53.96 10.00 177.24 2687.65
   06:24:07.847.24-Feb-2020 3290.51 4402.02 53.96 10.00 177.44 2687.65
   06:24:08.047.24-Feb-2020 3290.51 4402.17 53.96 10.00 177.64 2687.65
   06:24:08.247.24-Feb-2020 3290.51 4402.42 53.95 10.00 177.84 2687.65
   06:24:08.447.24-Feb-2020 3290.51 4401.86 53.95 10.00 178.04 2687.65
   06:24:08.647.24-Feb-2020 3290.51 4402.17 53.95 10.00 178.24 2687.65
   06:24:08.847.24-Feb-2020 3290.51 4402.27 53.95 10.00 178.44 2687.65
   06:24:09.047.24-Feb-2020 3290.51 4402.55 53.95 10.00 178.64 2687.65
   06:24:09.247.24-Feb-2020 3290.51 4402.60 53.95 10.00 178.84 2687.65
   06:24:09.447.24-Feb-2020 3290.51 4402.36 53.95 10.00 179.04 2687.65
   06:24:09.647.24-Feb-2020 3290.51 4402.36 53.95 10.00 179.24 2687.65
   06:24:09.847.24-Feb-2020 3290.51 4401.81 53.95 10.00 179.44 2687.65
   06:24:10.047.24-Feb-2020 3290.51 4402.08 53.95 10.00 179.64 2687.65
   06:24:10.247.24-Feb-2020 3290.51 4402.15 53.95 10.00 179.84 2687.65
   06:24:10.447.24-Feb-2020 3290.51 4402.38 53.95 10.00 180.04 2687.65
   06:24:10.647.24-Feb-2020 3290.51 4402.38 53.95 10.00 180.24 2687.65
   06:24:10.847.24-Feb-2020 3290.51 4402.41 53.95 10.00 180.44 2687.65
   06:24:11.047.24-Feb-2020 3290.51 4402.48 53.95 10.00 180.64 2687.65
