~Version Information
 VERS.                  2.0:   CWLS log ASCII Standard -VERSION 2.0
 WRAP.                   NO:   One line per depth step
~Well Information Block
#MNEM.UNIT     VALUE/NAME     DESCRIPTION
#---------     -----------    ---------------------------
 STRT.S             07:13:35 24-Feb-20: START TIME 07:13:35 24-Feb-20
 STOP.S             07:20:48 24-Feb-20: STOP TIME  07:20:48 24-Feb-20
 STEP.S                   0.00: STEP TIME
 NULL.                 -999.25: NULL VALUE
 JOBN.        AZ-XX-0905059384:  JOB TICKET NUMB
 PDAT.          Mean Sea Level:  PERMANENT DATUM
 UNIT.                     N/A:  LOGGING EQUIPMENT ID
 DCON.         Sperry Drilling:  DIRECTNL CONTR
 DOE .                     N/A:  DOE NUMBER
 RIG .             West Chirag:  RIG NAME
 WELL.                     J22:  WELL NAME
 MWDS.                    Baku:  MWD SHOP
 SRVC.     TURAN Drilling & Engineering:  CONTRACTOR
 FLD .                     ACG:  FIELD NAME
 CTRY.              Azerbaijan:  COUNTRY NAME
 PROV.                    Baku:  PROVINCE
 STAT.                    Baku:  STATE NAME
 REGN.                   EESSA:  REGION
 BASE.              Azerbaijan:  LOGGING EQUIPMENT BASE LOCATION
 UWI .                     N/A:  UNIQUE WELL IDENTIFIER
 API .                     N/A:  API NUMBER
 COMP.     BP Exploration (Caspian Sea) Ltd.:  COMPANY
 WTYP.                Deviated:  WELL TYPE
 MDS .        Operator Entered:  MAG DATA SOURCE
 SON .        AZ-XX-0905059384:  JOB NUMBER
 FTOP.          Formation Tops:  FORM TOPS DESC
 ILTD.               Lithology:  INTERP LTH DESC
 SVYD.                  Survey:  SURVEY DESC
 DMOD.             Drill Model:  DRILL MOD DESC
 HPTY.       Minimum Curvature:  HOLE POS TYPE
 NREF.                    Grid:  NORTH REFERENCE
 SPUD.               09-Jan-20:  SPUD DATE
 DATE.      14.04.48 07-Feb-20:  END TIME
 STIM.      07.00.00 09-Jan-20:  START TIME
 DMF .             Drill Floor:  DRILL MEAS FROM
 DFST.                        :  DIST FSL TEXT
 DFWT.                        :  DIST FWL TEXT
 CNTY.                        :  COUNTY
 LOC .                        :  LOCATION
 LMF .             Drill Floor:  LOG MEASURED FROM
 DEP .m                   0.00:  DEPTH
 VSNS.m                  10.28:  VERT SEC N/S
 VSEW.m                  -6.24:  VERT SEC E/W
 AGAP.m                  43.00:  AIR GAP
 APD .m                  43.00:  DEPTH ABOVE PD
 WDMS.m                 169.80:  WD ELEV
 EGL .m                   0.00:  GROUND ELEVATION
 EPD .m                   0.00:  ELEVATION
 AZTC.deg                 6.27:  AZM TOTAL CORR
 GRDC.deg                 0.15:  GRID CORRECTION
 MDEC.deg                 6.42:  MAGNETIC DECL
 MDIP.deg                59.56:  MAGNETIC DIP
 MFLD.nT              50277.00:  MAGNETIC FIELD
 GVFD.g                   1.00:  GRAVITY FIELD
 VSDR.deg               148.53:  VERT SEC DIRECT
 TDD .m                3473.01:  TOTAL DEPTH (DRILLER)
 SDEP.m                 364.00:  START DEPTH
 DFSL.m                   0.00:  DISTANCE FSL
 DFWL.m                   0.00:  DISTANCE FWL
 UTMY.m             4443793.85:  UTM Y
 UTMX.m              519005.06:  UTM X
 WHEW.m                  -6.24:  WELL HEAD E/W
 WHNS.m                  10.28:  WELL HEAD N/S
 LONG.deg                51.22:  LONGITUDE
 LATI.deg                40.13:  LATITUDE
 TVDS.m                  43.00:  TVDSS CORRECTN
 EKB .m                   0.00:  KB ELEVATION
 EDF .m                  43.00:  DF ELEVATION
 TDL .m                 254.00:  TOTAL DEPTH (LOGGER)
 MAGU.                 1850021:  MAGUTM CHECKSUM
 VSC .                       0:  VS TO CLOSURE
~Parameter Information Block
#MNEM.UNIT       Value        Description
#---------     -----------    ---------------------------
 AV  .mps                 0.50:  Ann Velocity 
 AVMX.mps                 1.40:  Max Ann Veloc 
 AZIF.deg               144.94:  Azm, Final 
 BHAT.        Rotary Steerable:  BHA Type 
 BROT.°/30m               0.23:  Build Rotating 
 BS  .in                  8.50:  Bit Size 
 BTPL.psig              264.00:  Bit Press Loss 
 CABU.                     Yes:  Customer Abuse 
 COMM.                     ëh:  Run Comments 1 
 TCS .hr                 87.30:  Time Ciculation Ended 
 CV  .mps                 2.45:  Crit Velocity 
 CVMX.mps                 2.74:  Max Crit Veloc 
 DD1 .             Aziz Aliyev:  Direct Drillr 1 
 DDSV.               Geo-Pilot:  DD Service 
 DEFF.%                 100.00:  % Det Eff 
 DLRX.°/30m               1.22:  Dogleg Rot Max 
 DLSO.°/30m               0.52:  Dogleg Oriented 
 DLSX.°/30m               1.22:  Dogleg Str Max 
 DRET.      12.59.00 23-Feb-20:  Drill End Time 
 DRST.      09.44.00 18-Feb-20:  Drill Start Tim 
 DTIM.hr                 23.03:  Time Drilling 
 EDEP.m                3473.01:  End Depth 
 ENG1.         Almaz Almadatov:  Engineer 1 
 ENG2.         Dair Mahammadov:  Engineer 2 
 ENG3.          Nazrin Asgarli:  Engineer 3 
 ETIM.      10.33.36 26-Feb-20:  End Time 
 FLOI.gpm               480.00:  Flow In 
 FLON.gpm               300.00:  Flow In Min 
 FLOS.cptm                1.00:  Fluid Loss 
 FLOX.gpm               550.00:  Flow In Max 
 HFLO.                      No:  High Flow 
 HPRE.                      No:  High Pressure 
 HTEM.                      No:  High Temp 
 HYDO.m                   1.80:  Hydro Offset 
 IFIN.deg                74.42:  Inc, Final 
 IMAX.deg                76.14:  Inc Max 
 IMIN.deg                74.42:  Inc Min 
 IMND.m                3462.72:  Inc Min Depth 
 IMXD.m                3235.69:  Inc Max Depth 
 JARR.                      No:  Jarring 
 LETM.      12.59.00 23-Feb-20:  Log End Time 
 LOST.hr                     0:  Lost Rig Time 
 LSTM.      09.44.00 18-Feb-20:  Log Start Time 
 MDCL.ppm             45000.00:  Mud Chlorides 
 MDES.     Inversion Oil/Synthetic:  Mud Desc 
 DFD .sg                  1.38:  Mud Density 
 MDMN.sg                  1.34:  Dens Mud Min 
 MDMX.sg                  1.49:  Dens Mud Max 
 MOIL.                      67:  Run Mud Oil % 
 MOWR.                   67:33:  Run Mud OWR 
 MSND.                    0.12:  Run Mud Sand % 
 MSOL.                      22:  Run Mud Solids% 
 DFV .spqt               81.00:  Mud Viscosity 
 MWOD.in                  6.75:  MWD Tool OD 
 MWSI.                      No:  Serv Intrp, MWD 
 OTIM.hr                231.44:  Time Operating 
 PCON.          Wear / Scratch:  Pad Condition 
 PMAX.psia             3400.00:  Press Op, Max 
 PV  .cP                 55.00:  Mud PV 
 RUN .                     800:  Run Number 
 ROPA.m/hr               12.00:  ROP Avg 
 ROPN.m/hr                5.00:  ROP Min 
 ROPX.m/hr               28.00:  ROP Max 
 RPMA.rpm               120.00:  RPM Surface Avg 
 RPMN.rpm                40.00:  RPM Surface Min 
 RPMX.rpm               130.00:  RPM Surface Max 
 RRUN.                    0800:  Rig Run Number 
 RTIM.hr                 45.00:  Time Reaming 
 SAZI.deg               145.38:  Azm, Start 
 SDEP.m                3219.01:  Start Depth 
 SIDD.                      No:  Serv Intrp, DD 
 SINC.deg                75.11:  Inc, Start 
 SPPA.psig             2400.00:  SPP Avg 
 SPPN.psig             2320.00:  SPP Min 
 SPPX.psig             3200.00:  SPP Max 
 STIM.      15.15.00 17-Feb-20:  Start Time 
 SVCS.                 DD, MWD:  Services 
 SVER.                    9.20:  Sperry Version 
 TDAT.m                 254.00:  Tot Depth Attmp 
 TDDF.                      No:  Trip for DD 
 TDLG.m                 254.00:  Tot Depth Loggd 
 TFF .                      No:  Trip for Fail 
 TQAA.f-kp               13.00:  Torque Abs Avg 
 TQAN.f-kp                7.00:  Torque Abs Min 
 TQAX.f-kp               15.00:  Torque Abs Max 
 TRRT.°/30m               0.21:  Turn Rotating 
 MRT .                  EWR-M5:  Maximum Recorded Temperature 
 TTMX.degC               64.00:  Max Tool Temp 
 VS01.                90586516:  Virtual Str1 SN 
 VS02.                90513691:  Virtual Str2 SN 
 VS03.                90586523:  Virtual Str3 SN 
 VS04.                90586520:  Virtual Str4 SN 
 VS05.                90590507:  Virtual Str5 SN 
 WBMN.klb                12.00:  WOB Min 
 WITN.           Rufat Babayev:  Customer Rep 2 
 WITN.         Alistair Sprott:  Customer Rep 
 WOBA.klb                18.00:  WOB Avg 
 WOBX.klb                30.00:  WOB Max 
 YP  .lhf2               41.00:  Yield Point 
~Curve Information Block
#MNEM.UNIT                 API CODE     Curve Description
#---------               -----------    ---------------------------
 TIME.HHMMSS            00 000 000 000:  GT Time & Date
 GTDEPTH.m              00 000 000 000:  GT Depth
 GTPQH.psia             00 000 000 000:  GT HR Quartz Pressure
 GTTQ.degC              00 000 000 000:  GT Quartz Temperature
 GTTN.NONE              00 000 000 000:  GT Test Number
 GTET.sec               00 000 000 000:  GT Elapsed Test Time
 GTTVD.m                00 000 000 000:  GT True Vertical Depth
#Other Information
#
#WARRANTY: Halliburton will use its best efforts to furnish customers with 
#accurate information and interpretations that are part of, and incident to, the services 
#provided.  However, Halliburton cannot and does not warrant the accuracy 
#or correctness of such information and interpretations.  Under no circumstances should any 
#such information or interpretation be relied upon as the sole basis for any drilling, 
#completion, production, or financial decision or any procedure involving any risk to the 
#safety of any drilling venture, drilling rig or its crew or any other third party.  The 
#Customer has full responsibility for all drilling, completion and production operation.  
#Halliburton makes no representations or warranties, either expressed or 
#implied, including, but not limited to, the implied warranties of merchantability or fitness 
#for a particular purpose, with respect to the services rendered.  In no event will 
#Halliburton be liable for failure to obtain any particular results or for 
#any damages, including, but not limited to, indirect, special or consequential damages, 
#resulting from the use of any information or interpretation provided by Halliburton.
#
~A           TIME           GTDEPTH  GTPQH  GTTQ  GTTN   GTET   GTTVD  
# ...
   07:19:36.600.24-Feb-2020 3225.01 4278.95 54.41 11.00 361.60 2671.15
   07:19:36.800.24-Feb-2020 3225.01 4278.94 54.41 11.00 361.80 2671.15
   07:19:37.000.24-Feb-2020 3225.01 4278.94 54.41 11.00 362.00 2671.15
   07:19:37.200.24-Feb-2020 3225.01 4278.94 54.41 11.00 362.20 2671.15
   07:19:37.400.24-Feb-2020 3225.01 4278.94 54.41 11.00 362.40 2671.15
   07:19:37.600.24-Feb-2020 3225.01 4278.94 54.41 11.00 362.60 2671.15
   07:19:37.800.24-Feb-2020 3225.01 4278.93 54.41 11.00 362.80 2671.15
   07:19:38.000.24-Feb-2020 3225.01 4278.94 54.41 11.00 363.00 2671.15
   07:19:38.200.24-Feb-2020 3225.01 4278.94 54.41 11.00 363.20 2671.15
   07:19:38.400.24-Feb-2020 3225.01 4278.92 54.41 11.00 363.40 2671.15
   07:19:38.600.24-Feb-2020 3225.01 4278.91 54.41 11.00 363.60 2671.15
   07:19:38.800.24-Feb-2020 3225.01 4278.86 54.41 11.00 363.80 2671.15
   07:19:39.000.24-Feb-2020 3225.01 4279.02 54.41 11.00 364.00 2671.15
   07:19:39.200.24-Feb-2020 3225.01 4278.86 54.41 11.00 364.20 2671.15
   07:19:39.400.24-Feb-2020 3225.01 4278.92 54.41 11.00 364.40 2671.15
   07:19:39.600.24-Feb-2020 3225.01 4278.95 54.41 11.00 364.60 2671.15
   07:19:39.800.24-Feb-2020 3225.01 4278.95 54.41 11.00 364.80 2671.15
   07:19:40.000.24-Feb-2020 3225.01 4278.91 54.41 11.00 365.00 2671.15
   07:19:40.200.24-Feb-2020 3225.01 4278.91 54.41 11.00 365.20 2671.15
   07:19:40.400.24-Feb-2020 3225.01 4278.94 54.41 11.00 365.40 2671.15
   07:19:40.600.24-Feb-2020 3225.01 4278.95 54.41 11.00 365.60 2671.15
   07:19:40.800.24-Feb-2020 3225.01 4278.95 54.41 11.00 365.80 2671.15
   07:19:41.000.24-Feb-2020 3225.01 4278.92 54.41 11.00 366.00 2671.15
   07:19:41.200.24-Feb-2020 3225.01 4278.92 54.41 11.00 366.20 2671.15
   07:19:41.400.24-Feb-2020 3225.01 4278.93 54.41 11.00 366.40 2671.15
   07:19:41.600.24-Feb-2020 3225.01 4278.93 54.41 11.00 366.60 2671.15
   07:19:41.800.24-Feb-2020 3225.01 4278.91 54.41 11.00 366.80 2671.15
   07:19:42.000.24-Feb-2020 3225.01 4279.32 54.41 11.00 367.00 2671.15
   07:19:42.200.24-Feb-2020 3225.01 4279.32 54.41 11.00 367.20 2671.15
   07:19:42.400.24-Feb-2020 3225.01 4278.85 54.41 11.00 367.40 2671.15
   07:19:42.600.24-Feb-2020 3225.01 4279.06 54.41 11.00 367.60 2671.15
   07:19:42.800.24-Feb-2020 3225.01 4278.90 54.41 11.00 367.80 2671.15
   07:19:43.000.24-Feb-2020 3225.01 4278.96 54.41 11.00 368.00 2671.15
   07:19:43.200.24-Feb-2020 3225.01 4278.96 54.41 11.00 368.20 2671.15
   07:19:43.400.24-Feb-2020 3225.01 4279.38 54.41 11.00 368.40 2671.15
   07:19:43.600.24-Feb-2020 3225.01 4278.45 54.41 11.00 368.60 2671.15
   07:19:43.800.24-Feb-2020 3225.01 4278.90 54.41 11.00 368.80 2671.15
   07:19:44.000.24-Feb-2020 3225.01 4279.01 54.41 11.00 369.00 2671.15
   07:19:44.200.24-Feb-2020 3225.01 4279.01 54.41 11.00 369.20 2671.15
   07:19:44.400.24-Feb-2020 3225.01 4279.01 54.41 11.00 369.40 2671.15
   07:19:44.600.24-Feb-2020 3225.01 4278.61 54.41 11.00 369.60 2671.15
   07:19:44.800.24-Feb-2020 3225.01 4278.86 54.41 11.00 369.80 2671.15
   07:19:45.000.24-Feb-2020 3225.01 4278.99 54.41 11.00 370.00 2671.15
   07:19:45.200.24-Feb-2020 3225.01 4278.99 54.41 11.00 370.20 2671.15
   07:19:45.400.24-Feb-2020 3225.01 4278.93 54.41 11.00 370.40 2671.15
   07:19:45.600.24-Feb-2020 3225.01 4279.00 54.41 11.00 370.60 2671.15
   07:19:45.800.24-Feb-2020 3225.01 4278.90 54.41 11.00 370.80 2671.15
   07:19:46.000.24-Feb-2020 3225.01 4278.94 54.41 11.00 371.00 2671.15
   07:19:46.200.24-Feb-2020 3225.01 4278.94 54.41 11.00 371.20 2671.15
   07:19:46.400.24-Feb-2020 3225.01 4278.93 54.41 11.00 371.40 2671.15
   07:19:46.600.24-Feb-2020 3225.01 4278.95 54.41 11.00 371.60 2671.15
   07:19:46.800.24-Feb-2020 3225.01 4278.94 54.41 11.00 371.80 2671.15
   07:19:47.000.24-Feb-2020 3225.01 4278.92 54.41 11.00 372.00 2671.15
   07:19:47.200.24-Feb-2020 3225.01 4278.93 54.41 11.00 372.20 2671.15
   07:19:47.400.24-Feb-2020 3225.01 4278.93 54.41 11.00 372.40 2671.15
   07:19:47.600.24-Feb-2020 3225.01 4278.95 54.41 11.00 372.60 2671.15
   07:19:47.800.24-Feb-2020 3225.01 4278.92 54.41 11.00 372.80 2671.15
   07:19:48.000.24-Feb-2020 3225.01 4278.93 54.41 11.00 373.00 2671.15
   07:19:48.200.24-Feb-2020 3225.01 4278.93 54.41 11.00 373.20 2671.15
   07:19:48.400.24-Feb-2020 3225.01 4278.45 54.41 11.00 373.40 2671.15
   07:19:48.600.24-Feb-2020 3225.01 4278.90 54.41 11.00 373.60 2671.15
   07:19:48.800.24-Feb-2020 3225.01 4279.00 54.41 11.00 373.80 2671.15
   07:19:49.000.24-Feb-2020 3225.01 4278.93 54.41 11.00 374.00 2671.15
   07:19:49.200.24-Feb-2020 3225.01 4278.93 54.41 11.00 374.20 2671.15
   07:19:49.400.24-Feb-2020 3225.01 4278.92 54.41 11.00 374.40 2671.15
   07:19:49.600.24-Feb-2020 3225.01 4278.91 54.41 11.00 374.60 2671.15
   07:19:49.800.24-Feb-2020 3225.01 4278.93 54.41 11.00 374.80 2671.15
   07:19:50.000.24-Feb-2020 3225.01 4278.96 54.41 11.00 375.00 2671.15
   07:19:50.200.24-Feb-2020 3225.01 4278.96 54.41 11.00 375.20 2671.15
   07:19:50.400.24-Feb-2020 3225.01 4278.92 54.41 11.00 375.40 2671.15
   07:19:50.600.24-Feb-2020 3225.01 4278.92 54.41 11.00 375.60 2671.15
   07:19:50.800.24-Feb-2020 3225.01 4278.94 54.41 11.00 375.80 2671.15
   07:19:51.000.24-Feb-2020 3225.01 4278.94 54.41 11.00 376.00 2671.15
   07:19:51.200.24-Feb-2020 3225.01 4278.94 54.41 11.00 376.20 2671.15
   07:19:51.400.24-Feb-2020 3225.01 4278.89 54.41 11.00 376.40 2671.15
   07:19:51.600.24-Feb-2020 3225.01 4283.06 54.41 11.00 376.60 2671.15
   07:19:51.800.24-Feb-2020 3225.01 4284.92 54.41 11.00 376.80 2671.15
   07:19:52.000.24-Feb-2020 3225.01 4281.21 54.41 11.00 377.00 2671.15
   07:19:52.200.24-Feb-2020 3225.01 4281.21 54.41 11.00 377.20 2671.15
   07:19:52.400.24-Feb-2020 3225.01 5643.59 54.41 11.00 377.40 2671.15
   07:19:52.600.24-Feb-2020 3225.01 5644.30 54.41 11.00 377.60 2671.15
   07:19:52.800.24-Feb-2020 3225.01 5652.20 54.41 11.00 377.80 2671.15
   07:19:53.000.24-Feb-2020 3225.01 5644.22 54.41 11.00 378.00 2671.15
   07:19:53.200.24-Feb-2020 3225.01 5644.22 54.41 11.00 378.20 2671.15
   07:19:53.400.24-Feb-2020 3225.01 5644.58 54.41 11.00 378.40 2671.15
   07:19:53.600.24-Feb-2020 3225.01 5644.39 54.41 11.00 378.60 2671.15
   07:19:53.800.24-Feb-2020 3225.01 5654.49 54.41 11.00 378.80 2671.15
   07:19:54.000.24-Feb-2020 3225.01 5646.41 54.41 11.00 379.00 2671.15
   07:19:54.200.24-Feb-2020 3225.01 5646.41 54.41 11.00 379.20 2671.15
   07:19:54.400.24-Feb-2020 3225.01 5644.89 54.41 11.00 379.40 2671.15
   07:19:54.600.24-Feb-2020 3225.01 5655.76 54.41 11.00 379.60 2671.15
   07:19:54.800.24-Feb-2020 3225.01 5641.43 54.41 11.00 379.80 2671.15
   07:19:55.000.24-Feb-2020 3225.01 5641.98 54.41 11.00 380.00 2671.15
   07:19:55.200.24-Feb-2020 3225.01 5646.96 54.41 11.00 380.20 2671.15
   07:19:55.400.24-Feb-2020 3225.01 5645.57 54.41 11.00 380.40 2671.15
   07:19:55.600.24-Feb-2020 3225.01 5646.96 54.42 11.00 380.60 2671.15
   07:19:55.800.24-Feb-2020 3225.01 5646.92 54.42 11.00 380.80 2671.15
   07:19:56.000.24-Feb-2020 3225.01 5647.33 54.42 11.00 381.00 2671.15
   07:19:56.200.24-Feb-2020 3225.01 5647.33 54.42 11.00 381.20 2671.15
   07:19:56.400.24-Feb-2020 3225.01 5647.90 54.42 11.00 381.40 2671.15
   07:19:56.600.24-Feb-2020 3225.01 5647.67 54.42 11.00 381.60 2671.15
   07:19:56.800.24-Feb-2020 3225.01 5647.83 54.42 11.00 381.80 2671.15
   07:19:57.000.24-Feb-2020 3225.01 5648.33 54.42 11.00 382.00 2671.15
   07:19:57.200.24-Feb-2020 3225.01 5648.33 54.42 11.00 382.20 2671.15
   07:19:57.400.24-Feb-2020 3225.01 5648.62 54.42 11.00 382.40 2671.15
   07:19:57.600.24-Feb-2020 3225.01 5655.32 54.42 11.00 382.60 2671.15
   07:19:57.800.24-Feb-2020 3225.01 5645.65 54.42 11.00 382.80 2671.15
   07:19:58.000.24-Feb-2020 3225.01 5642.57 54.42 11.00 383.00 2671.15
   07:19:58.200.24-Feb-2020 3225.01 5642.57 54.42 11.00 383.20 2671.15
   07:19:58.400.24-Feb-2020 3225.01 5646.38 54.43 11.00 383.40 2671.15
   07:19:58.600.24-Feb-2020 3225.01 5647.57 54.43 11.00 383.60 2671.15
   07:19:58.800.24-Feb-2020 3225.01 5648.65 54.43 11.00 383.80 2671.15
   07:19:59.000.24-Feb-2020 3225.01 5646.96 54.43 11.00 384.00 2671.15
