~Version Information
 VERS.                  2.0:   CWLS log ASCII Standard -VERSION 2.0
 WRAP.                   NO:   One line per depth step
~Well Information Block
#MNEM.UNIT     VALUE/NAME     DESCRIPTION
#---------     -----------    ---------------------------
 STRT.S             03:19:12 24-Feb-20: START TIME 03:19:12 24-Feb-20
 STOP.S             03:27:48 24-Feb-20: STOP TIME  03:27:48 24-Feb-20
 STEP.S                   0.00: STEP TIME
 NULL.                 -999.25: NULL VALUE
 JOBN.        AZ-XX-0905059384:  JOB TICKET NUMB
 PDAT.          Mean Sea Level:  PERMANENT DATUM
 UNIT.                     N/A:  LOGGING EQUIPMENT ID
 DCON.         Sperry Drilling:  DIRECTNL CONTR
 DOE .                     N/A:  DOE NUMBER
 RIG .             West Chirag:  RIG NAME
 WELL.                     J22:  WELL NAME
 MWDS.                    Baku:  MWD SHOP
 SRVC.     TURAN Drilling & Engineering:  CONTRACTOR
 FLD .                     ACG:  FIELD NAME
 CTRY.              Azerbaijan:  COUNTRY NAME
 PROV.                    Baku:  PROVINCE
 STAT.                    Baku:  STATE NAME
 REGN.                   EESSA:  REGION
 BASE.              Azerbaijan:  LOGGING EQUIPMENT BASE LOCATION
 UWI .                     N/A:  UNIQUE WELL IDENTIFIER
 API .                     N/A:  API NUMBER
 COMP.     BP Exploration (Caspian Sea) Ltd.:  COMPANY
 WTYP.                Deviated:  WELL TYPE
 MDS .        Operator Entered:  MAG DATA SOURCE
 SON .        AZ-XX-0905059384:  JOB NUMBER
 FTOP.          Formation Tops:  FORM TOPS DESC
 ILTD.               Lithology:  INTERP LTH DESC
 SVYD.                  Survey:  SURVEY DESC
 DMOD.             Drill Model:  DRILL MOD DESC
 HPTY.       Minimum Curvature:  HOLE POS TYPE
 NREF.                    Grid:  NORTH REFERENCE
 SPUD.               09-Jan-20:  SPUD DATE
 DATE.      14.04.48 07-Feb-20:  END TIME
 STIM.      07.00.00 09-Jan-20:  START TIME
 DMF .             Drill Floor:  DRILL MEAS FROM
 DFST.                        :  DIST FSL TEXT
 DFWT.                        :  DIST FWL TEXT
 CNTY.                        :  COUNTY
 LOC .                        :  LOCATION
 LMF .             Drill Floor:  LOG MEASURED FROM
 DEP .m                   0.00:  DEPTH
 VSNS.m                  10.28:  VERT SEC N/S
 VSEW.m                  -6.24:  VERT SEC E/W
 AGAP.m                  43.00:  AIR GAP
 APD .m                  43.00:  DEPTH ABOVE PD
 WDMS.m                 169.80:  WD ELEV
 EGL .m                   0.00:  GROUND ELEVATION
 EPD .m                   0.00:  ELEVATION
 AZTC.deg                 6.27:  AZM TOTAL CORR
 GRDC.deg                 0.15:  GRID CORRECTION
 MDEC.deg                 6.42:  MAGNETIC DECL
 MDIP.deg                59.56:  MAGNETIC DIP
 MFLD.nT              50277.00:  MAGNETIC FIELD
 GVFD.g                   1.00:  GRAVITY FIELD
 VSDR.deg               148.53:  VERT SEC DIRECT
 TDD .m                3473.01:  TOTAL DEPTH (DRILLER)
 SDEP.m                 364.00:  START DEPTH
 DFSL.m                   0.00:  DISTANCE FSL
 DFWL.m                   0.00:  DISTANCE FWL
 UTMY.m             4443793.85:  UTM Y
 UTMX.m              519005.06:  UTM X
 WHEW.m                  -6.24:  WELL HEAD E/W
 WHNS.m                  10.28:  WELL HEAD N/S
 LONG.deg                51.22:  LONGITUDE
 LATI.deg                40.13:  LATITUDE
 TVDS.m                  43.00:  TVDSS CORRECTN
 EKB .m                   0.00:  KB ELEVATION
 EDF .m                  43.00:  DF ELEVATION
 TDL .m                 254.00:  TOTAL DEPTH (LOGGER)
 MAGU.                 1850021:  MAGUTM CHECKSUM
 VSC .                       0:  VS TO CLOSURE
~Parameter Information Block
#MNEM.UNIT       Value        Description
#---------     -----------    ---------------------------
 AV  .mps                 0.50:  Ann Velocity 
 AVMX.mps                 1.40:  Max Ann Veloc 
 AZIF.deg               144.94:  Azm, Final 
 BHAT.        Rotary Steerable:  BHA Type 
 BROT.°/30m               0.23:  Build Rotating 
 BS  .in                  8.50:  Bit Size 
 BTPL.psig              264.00:  Bit Press Loss 
 CABU.                     Yes:  Customer Abuse 
 COMM.                     ´á{:  Run Comments 1 
 TCS .hr                 87.30:  Time Ciculation Ended 
 CV  .mps                 2.45:  Crit Velocity 
 CVMX.mps                 2.74:  Max Crit Veloc 
 DD1 .             Aziz Aliyev:  Direct Drillr 1 
 DDSV.               Geo-Pilot:  DD Service 
 DEFF.%                 100.00:  % Det Eff 
 DLRX.°/30m               1.22:  Dogleg Rot Max 
 DLSO.°/30m               0.52:  Dogleg Oriented 
 DLSX.°/30m               1.22:  Dogleg Str Max 
 DRET.      12.59.00 23-Feb-20:  Drill End Time 
 DRST.      09.44.00 18-Feb-20:  Drill Start Tim 
 DTIM.hr                 23.03:  Time Drilling 
 EDEP.m                3473.01:  End Depth 
 ENG1.         Almaz Almadatov:  Engineer 1 
 ENG2.         Dair Mahammadov:  Engineer 2 
 ENG3.          Nazrin Asgarli:  Engineer 3 
 ETIM.      10.33.36 26-Feb-20:  End Time 
 FLOI.gpm               480.00:  Flow In 
 FLON.gpm               300.00:  Flow In Min 
 FLOS.cptm                1.00:  Fluid Loss 
 FLOX.gpm               550.00:  Flow In Max 
 HFLO.                      No:  High Flow 
 HPRE.                      No:  High Pressure 
 HTEM.                      No:  High Temp 
 HYDO.m                   1.80:  Hydro Offset 
 IFIN.deg                74.42:  Inc, Final 
 IMAX.deg                76.14:  Inc Max 
 IMIN.deg                74.42:  Inc Min 
 IMND.m                3462.72:  Inc Min Depth 
 IMXD.m                3235.69:  Inc Max Depth 
 JARR.                      No:  Jarring 
 LETM.      12.59.00 23-Feb-20:  Log End Time 
 LOST.hr                     0:  Lost Rig Time 
 LSTM.      09.44.00 18-Feb-20:  Log Start Time 
 MDCL.ppm             45000.00:  Mud Chlorides 
 MDES.     Inversion Oil/Synthetic:  Mud Desc 
 DFD .sg                  1.38:  Mud Density 
 MDMN.sg                  1.34:  Dens Mud Min 
 MDMX.sg                  1.49:  Dens Mud Max 
 MOIL.                      67:  Run Mud Oil % 
 MOWR.                   67:33:  Run Mud OWR 
 MSND.                    0.12:  Run Mud Sand % 
 MSOL.                      22:  Run Mud Solids% 
 DFV .spqt               81.00:  Mud Viscosity 
 MWOD.in                  6.75:  MWD Tool OD 
 MWSI.                      No:  Serv Intrp, MWD 
 OTIM.hr                231.44:  Time Operating 
 PCON.          Wear / Scratch:  Pad Condition 
 PMAX.psia             3400.00:  Press Op, Max 
 PV  .cP                 55.00:  Mud PV 
 RUN .                     800:  Run Number 
 ROPA.m/hr               12.00:  ROP Avg 
 ROPN.m/hr                5.00:  ROP Min 
 ROPX.m/hr               28.00:  ROP Max 
 RPMA.rpm               120.00:  RPM Surface Avg 
 RPMN.rpm                40.00:  RPM Surface Min 
 RPMX.rpm               130.00:  RPM Surface Max 
 RRUN.                    0800:  Rig Run Number 
 RTIM.hr                 45.00:  Time Reaming 
 SAZI.deg               145.38:  Azm, Start 
 SDEP.m                3219.01:  Start Depth 
 SIDD.                      No:  Serv Intrp, DD 
 SINC.deg                75.11:  Inc, Start 
 SPPA.psig             2400.00:  SPP Avg 
 SPPN.psig             2320.00:  SPP Min 
 SPPX.psig             3200.00:  SPP Max 
 STIM.      15.15.00 17-Feb-20:  Start Time 
 SVCS.                 DD, MWD:  Services 
 SVER.                    9.20:  Sperry Version 
 TDAT.m                 254.00:  Tot Depth Attmp 
 TDDF.                      No:  Trip for DD 
 TDLG.m                 254.00:  Tot Depth Loggd 
 TFF .                      No:  Trip for Fail 
 TQAA.f-kp               13.00:  Torque Abs Avg 
 TQAN.f-kp                7.00:  Torque Abs Min 
 TQAX.f-kp               15.00:  Torque Abs Max 
 TRRT.°/30m               0.21:  Turn Rotating 
 MRT .                  EWR-M5:  Maximum Recorded Temperature 
 TTMX.degC               64.00:  Max Tool Temp 
 VS01.                90586516:  Virtual Str1 SN 
 VS02.                90513691:  Virtual Str2 SN 
 VS03.                90586523:  Virtual Str3 SN 
 VS04.                90586520:  Virtual Str4 SN 
 VS05.                90590507:  Virtual Str5 SN 
 WBMN.klb                12.00:  WOB Min 
 WITN.           Rufat Babayev:  Customer Rep 2 
 WITN.         Alistair Sprott:  Customer Rep 
 WOBA.klb                18.00:  WOB Avg 
 WOBX.klb                30.00:  WOB Max 
 YP  .lhf2               41.00:  Yield Point 
~Curve Information Block
#MNEM.UNIT                 API CODE     Curve Description
#---------               -----------    ---------------------------
 TIME.HHMMSS            00 000 000 000:  GT Time & Date
 GTDEPTH.m              00 000 000 000:  GT Depth
 GTPQH.psia             00 000 000 000:  GT HR Quartz Pressure
 GTTQ.degC              00 000 000 000:  GT Quartz Temperature
 GTTN.NONE              00 000 000 000:  GT Test Number
 GTET.sec               00 000 000 000:  GT Elapsed Test Time
 GTTVD.m                00 000 000 000:  GT True Vertical Depth
#Other Information
#
#WARRANTY: Halliburton will use its best efforts to furnish customers with 
#accurate information and interpretations that are part of, and incident to, the services 
#provided.  However, Halliburton cannot and does not warrant the accuracy 
#or correctness of such information and interpretations.  Under no circumstances should any 
#such information or interpretation be relied upon as the sole basis for any drilling, 
#completion, production, or financial decision or any procedure involving any risk to the 
#safety of any drilling venture, drilling rig or its crew or any other third party.  The 
#Customer has full responsibility for all drilling, completion and production operation.  
#Halliburton makes no representations or warranties, either expressed or 
#implied, including, but not limited to, the implied warranties of merchantability or fitness 
#for a particular purpose, with respect to the services rendered.  In no event will 
#Halliburton be liable for failure to obtain any particular results or for 
#any damages, including, but not limited to, indirect, special or consequential damages, 
#resulting from the use of any information or interpretation provided by Halliburton.
#
~A           TIME           GTDEPTH  GTPQH  GTTQ  GTTN  GTET   GTTVD  
# ...
   03:24:57.244.24-Feb-2020 3366.71 4181.76 55.01 6.00 345.14 2706.89
   03:24:57.444.24-Feb-2020 3366.71 4181.76 55.01 6.00 345.34 2706.89
   03:24:57.644.24-Feb-2020 3366.71 4232.01 55.01 6.00 345.54 2706.89
   03:24:57.844.24-Feb-2020 3366.71 4252.82 55.01 6.00 345.74 2706.89
   03:24:58.044.24-Feb-2020 3366.71 4270.82 55.01 6.00 345.94 2706.89
   03:24:58.244.24-Feb-2020 3366.71 4285.96 55.01 6.00 346.14 2706.89
   03:24:58.444.24-Feb-2020 3366.71 4285.96 55.01 6.00 346.34 2706.89
   03:24:58.644.24-Feb-2020 3366.71 4311.28 55.01 6.00 346.54 2706.89
   03:24:58.844.24-Feb-2020 3366.71 4321.63 55.01 6.00 346.74 2706.89
   03:24:59.044.24-Feb-2020 3366.71 4330.77 55.01 6.00 346.94 2706.89
   03:24:59.244.24-Feb-2020 3366.71 4338.79 55.01 6.00 347.14 2706.89
   03:24:59.445.24-Feb-2020 3366.71 4338.79 55.01 6.00 347.34 2706.89
   03:24:59.645.24-Feb-2020 3366.71 4351.98 55.02 6.00 347.54 2706.89
   03:24:59.845.24-Feb-2020 3366.71 4357.67 55.02 6.00 347.74 2706.89
   03:25:00.045.24-Feb-2020 3366.71 4362.72 55.02 6.00 347.94 2706.89
   03:25:00.245.24-Feb-2020 3366.71 4367.34 55.02 6.00 348.14 2706.89
   03:25:00.445.24-Feb-2020 3366.71 4367.34 55.02 6.00 348.34 2706.89
   03:25:00.645.24-Feb-2020 3366.71 4374.67 55.02 6.00 348.54 2706.89
   03:25:00.845.24-Feb-2020 3366.71 4377.71 55.02 6.00 348.74 2706.89
   03:25:01.045.24-Feb-2020 3366.71 4381.02 55.02 6.00 348.94 2706.89
   03:25:01.245.24-Feb-2020 3366.71 4383.81 55.02 6.00 349.14 2706.89
   03:25:01.445.24-Feb-2020 3366.71 4383.81 55.02 6.00 349.34 2706.89
   03:25:01.645.24-Feb-2020 3366.71 4387.70 55.02 6.00 349.54 2706.89
   03:25:01.846.24-Feb-2020 3366.71 4390.84 55.03 6.00 349.74 2706.89
   03:25:02.046.24-Feb-2020 3366.71 4393.18 55.03 6.00 349.94 2706.89
   03:25:02.246.24-Feb-2020 3366.71 4394.65 55.03 6.00 350.14 2706.89
   03:25:02.446.24-Feb-2020 3366.71 4394.65 55.03 6.00 350.34 2706.89
   03:25:02.646.24-Feb-2020 3366.71 4397.96 55.03 6.00 350.54 2706.89
   03:25:02.846.24-Feb-2020 3366.71 4399.35 55.03 6.00 350.74 2706.89
   03:25:03.046.24-Feb-2020 3366.71 4400.34 55.03 6.00 350.94 2706.89
   03:25:03.246.24-Feb-2020 3366.71 4401.78 55.03 6.00 351.14 2706.89
   03:25:03.446.24-Feb-2020 3366.71 4401.78 55.03 6.00 351.34 2706.89
   03:25:03.646.24-Feb-2020 3366.71 4404.40 55.03 6.00 351.54 2706.89
   03:25:03.846.24-Feb-2020 3366.71 4404.53 55.03 6.00 351.74 2706.89
   03:25:04.046.24-Feb-2020 3366.71 4406.33 55.03 6.00 351.94 2706.89
   03:25:04.246.24-Feb-2020 3366.71 4407.60 55.03 6.00 352.14 2706.89
   03:25:04.447.24-Feb-2020 3366.71 4407.60 55.03 6.00 352.34 2706.89
   03:25:04.647.24-Feb-2020 3366.71 4408.91 55.03 6.00 352.54 2706.89
   03:25:04.847.24-Feb-2020 3366.71 4409.64 55.04 6.00 352.74 2706.89
   03:25:05.047.24-Feb-2020 3366.71 4410.32 55.04 6.00 352.94 2706.89
   03:25:05.247.24-Feb-2020 3366.71 4410.97 55.04 6.00 353.14 2706.89
   03:25:05.447.24-Feb-2020 3366.71 4410.97 55.04 6.00 353.34 2706.89
   03:25:05.647.24-Feb-2020 3366.71 4412.16 55.04 6.00 353.54 2706.89
   03:25:05.847.24-Feb-2020 3366.71 4412.68 55.04 6.00 353.74 2706.89
   03:25:06.047.24-Feb-2020 3366.71 4413.23 55.04 6.00 353.94 2706.89
   03:25:06.247.24-Feb-2020 3366.71 4413.75 55.04 6.00 354.14 2706.89
   03:25:06.447.24-Feb-2020 3366.71 4413.75 55.04 6.00 354.34 2706.89
   03:25:06.647.24-Feb-2020 3366.71 4414.77 55.04 6.00 354.54 2706.89
   03:25:06.848.24-Feb-2020 3366.71 4414.90 55.04 6.00 354.74 2706.89
   03:25:07.048.24-Feb-2020 3366.71 4415.34 55.04 6.00 354.94 2706.89
   03:25:07.248.24-Feb-2020 3366.71 4416.00 55.04 6.00 355.14 2706.89
   03:25:07.448.24-Feb-2020 3366.71 4416.00 55.04 6.00 355.34 2706.89
   03:25:07.648.24-Feb-2020 3366.71 4416.77 55.04 6.00 355.54 2706.89
   03:25:07.848.24-Feb-2020 3366.71 4417.15 55.04 6.00 355.74 2706.89
   03:25:08.048.24-Feb-2020 3366.71 4417.32 55.04 6.00 355.94 2706.89
   03:25:08.248.24-Feb-2020 3366.71 4417.57 55.04 6.00 356.14 2706.89
   03:25:08.448.24-Feb-2020 3366.71 4417.57 55.04 6.00 356.34 2706.89
   03:25:08.648.24-Feb-2020 3366.71 4418.16 55.04 6.00 356.54 2706.89
   03:25:08.848.24-Feb-2020 3366.71 4418.50 55.04 6.00 356.74 2706.89
   03:25:09.048.24-Feb-2020 3366.71 4418.82 55.04 6.00 356.94 2706.89
   03:25:09.248.24-Feb-2020 3366.71 4419.10 55.04 6.00 357.14 2706.89
   03:25:09.449.24-Feb-2020 3366.71 4419.10 55.04 6.00 357.34 2706.89
   03:25:09.649.24-Feb-2020 3366.71 4419.48 55.04 6.00 357.54 2706.89
   03:25:09.849.24-Feb-2020 3366.71 4419.78 55.04 6.00 357.74 2706.89
   03:25:10.049.24-Feb-2020 3366.71 4419.99 55.04 6.00 357.94 2706.89
   03:25:10.249.24-Feb-2020 3366.71 4419.16 55.04 6.00 358.14 2706.89
   03:25:10.449.24-Feb-2020 3366.71 4419.16 55.04 6.00 358.34 2706.89
   03:25:10.649.24-Feb-2020 3366.71 4420.92 55.04 6.00 358.54 2706.89
   03:25:10.849.24-Feb-2020 3366.71 4420.83 55.04 6.00 358.74 2706.89
   03:25:11.049.24-Feb-2020 3366.71 4421.00 55.04 6.00 358.94 2706.89
   03:25:11.249.24-Feb-2020 3366.71 4421.17 55.04 6.00 359.14 2706.89
   03:25:11.449.24-Feb-2020 3366.71 4421.17 55.04 6.00 359.34 2706.89
   03:25:11.649.24-Feb-2020 3366.71 4421.74 55.04 6.00 359.54 2706.89
   03:25:11.850.24-Feb-2020 3366.71 4421.68 55.04 6.00 359.74 2706.89
   03:25:12.050.24-Feb-2020 3366.71 4421.91 55.04 6.00 359.94 2706.89
   03:25:12.250.24-Feb-2020 3366.71 4422.06 55.04 6.00 360.14 2706.89
   03:25:12.450.24-Feb-2020 3366.71 4422.06 55.04 6.00 360.34 2706.89
   03:25:12.650.24-Feb-2020 3366.71 4422.34 55.04 6.00 360.54 2706.89
   03:25:12.850.24-Feb-2020 3366.71 4421.76 55.04 6.00 360.74 2706.89
   03:25:13.050.24-Feb-2020 3366.71 4422.92 55.04 6.00 360.94 2706.89
   03:25:13.250.24-Feb-2020 3366.71 4423.12 55.04 6.00 361.14 2706.89
   03:25:13.450.24-Feb-2020 3366.71 4423.12 55.04 6.00 361.34 2706.89
   03:25:13.650.24-Feb-2020 3366.71 4422.35 55.04 6.00 361.54 2706.89
   03:25:13.850.24-Feb-2020 3366.71 4423.43 55.04 6.00 361.74 2706.89
   03:25:14.050.24-Feb-2020 3366.71 4423.70 55.04 6.00 361.94 2706.89
   03:25:14.251.24-Feb-2020 3366.71 4423.62 55.04 6.00 362.14 2706.89
   03:25:14.451.24-Feb-2020 3366.71 4423.62 55.04 6.00 362.34 2706.89
   03:25:14.651.24-Feb-2020 3366.71 4423.60 55.04 6.00 362.55 2706.89
   03:25:14.851.24-Feb-2020 3366.71 4423.68 55.04 6.00 362.75 2706.89
   03:25:15.051.24-Feb-2020 3366.71 4423.80 55.04 6.00 362.95 2706.89
   03:25:15.251.24-Feb-2020 3366.71 4423.83 55.04 6.00 363.15 2706.89
   03:25:15.451.24-Feb-2020 3366.71 4423.83 55.04 6.00 363.35 2706.89
   03:25:15.651.24-Feb-2020 3366.71 4424.01 55.04 6.00 363.55 2706.89
   03:25:15.851.24-Feb-2020 3366.71 4424.10 55.04 6.00 363.75 2706.89
   03:25:16.051.24-Feb-2020 3366.71 4424.30 55.04 6.00 363.95 2706.89
   03:25:16.251.24-Feb-2020 3366.71 4424.36 55.04 6.00 364.15 2706.89
   03:25:16.451.24-Feb-2020 3366.71 4424.36 55.04 6.00 364.35 2706.89
   03:25:16.651.24-Feb-2020 3366.71 4423.97 55.04 6.00 364.55 2706.89
   03:25:16.852.24-Feb-2020 3366.71 4424.41 55.04 6.00 364.75 2706.89
   03:25:17.052.24-Feb-2020 3366.71 4424.86 55.04 6.00 364.95 2706.89
   03:25:17.252.24-Feb-2020 3366.71 4424.91 55.04 6.00 365.15 2706.89
   03:25:17.452.24-Feb-2020 3366.71 4424.91 55.04 6.00 365.35 2706.89
   03:25:17.652.24-Feb-2020 3366.71 4424.91 55.04 6.00 365.55 2706.89
   03:25:17.852.24-Feb-2020 3366.71 4424.82 55.04 6.00 365.75 2706.89
   03:25:18.052.24-Feb-2020 3366.71 4424.93 55.04 6.00 365.95 2706.89
   03:25:18.252.24-Feb-2020 3366.71 4424.92 55.04 6.00 366.15 2706.89
   03:25:18.452.24-Feb-2020 3366.71 4424.92 55.04 6.00 366.35 2706.89
   03:25:18.652.24-Feb-2020 3366.71 4425.15 55.04 6.00 366.55 2706.89
   03:25:18.852.24-Feb-2020 3366.71 4425.21 55.04 6.00 366.75 2706.89
   03:25:19.052.24-Feb-2020 3366.71 4425.25 55.04 6.00 366.95 2706.89
   03:25:19.253.24-Feb-2020 3366.71 4425.20 55.04 6.00 367.15 2706.89
   03:25:19.453.24-Feb-2020 3366.71 4425.20 55.04 6.00 367.35 2706.89
   03:25:19.653.24-Feb-2020 3366.71 4425.42 55.04 6.00 367.55 2706.89
   03:25:19.853.24-Feb-2020 3366.71 4425.46 55.04 6.00 367.75 2706.89
   03:25:20.053.24-Feb-2020 3366.71 4424.48 55.04 6.00 367.95 2706.89
