~Version Information
 VERS.                  2.0:   CWLS log ASCII Standard -VERSION 2.0
 WRAP.                   NO:   One line per depth step
~Well Information Block
#MNEM.UNIT     VALUE/NAME     DESCRIPTION
#---------     -----------    ---------------------------
 STRT.S             05:02:14 24-Feb-20: START TIME 05:02:14 24-Feb-20
 STOP.S             05:09:32 24-Feb-20: STOP TIME  05:09:32 24-Feb-20
 STEP.S                   0.00: STEP TIME
 NULL.                 -999.25: NULL VALUE
 JOBN.        AZ-XX-0905059384:  JOB TICKET NUMB
 PDAT.          Mean Sea Level:  PERMANENT DATUM
 UNIT.                     N/A:  LOGGING EQUIPMENT ID
 DCON.         Sperry Drilling:  DIRECTNL CONTR
 DOE .                     N/A:  DOE NUMBER
 RIG .             West Chirag:  RIG NAME
 WELL.                     J22:  WELL NAME
 MWDS.                    Baku:  MWD SHOP
 SRVC.     TURAN Drilling & Engineering:  CONTRACTOR
 FLD .                     ACG:  FIELD NAME
 CTRY.              Azerbaijan:  COUNTRY NAME
 PROV.                    Baku:  PROVINCE
 STAT.                    Baku:  STATE NAME
 REGN.                   EESSA:  REGION
 BASE.              Azerbaijan:  LOGGING EQUIPMENT BASE LOCATION
 UWI .                     N/A:  UNIQUE WELL IDENTIFIER
 API .                     N/A:  API NUMBER
 COMP.     BP Exploration (Caspian Sea) Ltd.:  COMPANY
 WTYP.                Deviated:  WELL TYPE
 MDS .        Operator Entered:  MAG DATA SOURCE
 SON .        AZ-XX-0905059384:  JOB NUMBER
 FTOP.          Formation Tops:  FORM TOPS DESC
 ILTD.               Lithology:  INTERP LTH DESC
 SVYD.                  Survey:  SURVEY DESC
 DMOD.             Drill Model:  DRILL MOD DESC
 HPTY.       Minimum Curvature:  HOLE POS TYPE
 NREF.                    Grid:  NORTH REFERENCE
 SPUD.               09-Jan-20:  SPUD DATE
 DATE.      14.04.48 07-Feb-20:  END TIME
 STIM.      07.00.00 09-Jan-20:  START TIME
 DMF .             Drill Floor:  DRILL MEAS FROM
 DFST.                        :  DIST FSL TEXT
 DFWT.                        :  DIST FWL TEXT
 CNTY.                        :  COUNTY
 LOC .                        :  LOCATION
 LMF .             Drill Floor:  LOG MEASURED FROM
 DEP .m                   0.00:  DEPTH
 VSNS.m                  10.28:  VERT SEC N/S
 VSEW.m                  -6.24:  VERT SEC E/W
 AGAP.m                  43.00:  AIR GAP
 APD .m                  43.00:  DEPTH ABOVE PD
 WDMS.m                 169.80:  WD ELEV
 EGL .m                   0.00:  GROUND ELEVATION
 EPD .m                   0.00:  ELEVATION
 AZTC.deg                 6.27:  AZM TOTAL CORR
 GRDC.deg                 0.15:  GRID CORRECTION
 MDEC.deg                 6.42:  MAGNETIC DECL
 MDIP.deg                59.56:  MAGNETIC DIP
 MFLD.nT              50277.00:  MAGNETIC FIELD
 GVFD.g                   1.00:  GRAVITY FIELD
 VSDR.deg               148.53:  VERT SEC DIRECT
 TDD .m                3473.01:  TOTAL DEPTH (DRILLER)
 SDEP.m                 364.00:  START DEPTH
 DFSL.m                   0.00:  DISTANCE FSL
 DFWL.m                   0.00:  DISTANCE FWL
 UTMY.m             4443793.85:  UTM Y
 UTMX.m              519005.06:  UTM X
 WHEW.m                  -6.24:  WELL HEAD E/W
 WHNS.m                  10.28:  WELL HEAD N/S
 LONG.deg                51.22:  LONGITUDE
 LATI.deg                40.13:  LATITUDE
 TVDS.m                  43.00:  TVDSS CORRECTN
 EKB .m                   0.00:  KB ELEVATION
 EDF .m                  43.00:  DF ELEVATION
 TDL .m                 254.00:  TOTAL DEPTH (LOGGER)
 MAGU.                 1850021:  MAGUTM CHECKSUM
 VSC .                       0:  VS TO CLOSURE
~Parameter Information Block
#MNEM.UNIT       Value        Description
#---------     -----------    ---------------------------
 AV  .mps                 0.50:  Ann Velocity 
 AVMX.mps                 1.40:  Max Ann Veloc 
 AZIF.deg               144.94:  Azm, Final 
 BHAT.        Rotary Steerable:  BHA Type 
 BROT.°/30m               0.23:  Build Rotating 
 BS  .in                  8.50:  Bit Size 
 BTPL.psig              264.00:  Bit Press Loss 
 CABU.                     Yes:  Customer Abuse 
 TCS .hr                 87.30:  Time Ciculation Ended 
 CV  .mps                 2.45:  Crit Velocity 
 CVMX.mps                 2.74:  Max Crit Veloc 
 DD1 .             Aziz Aliyev:  Direct Drillr 1 
 DDSV.               Geo-Pilot:  DD Service 
 DEFF.%                 100.00:  % Det Eff 
 DLRX.°/30m               1.22:  Dogleg Rot Max 
 DLSO.°/30m               0.52:  Dogleg Oriented 
 DLSX.°/30m               1.22:  Dogleg Str Max 
 DRET.      12.59.00 23-Feb-20:  Drill End Time 
 DRST.      09.44.00 18-Feb-20:  Drill Start Tim 
 DTIM.hr                 23.03:  Time Drilling 
 EDEP.m                3473.01:  End Depth 
 ENG1.         Almaz Almadatov:  Engineer 1 
 ENG2.         Dair Mahammadov:  Engineer 2 
 ENG3.          Nazrin Asgarli:  Engineer 3 
 ETIM.      10.33.36 26-Feb-20:  End Time 
 FLOI.gpm               480.00:  Flow In 
 FLON.gpm               300.00:  Flow In Min 
 FLOS.cptm                1.00:  Fluid Loss 
 FLOX.gpm               550.00:  Flow In Max 
 HFLO.                      No:  High Flow 
 HPRE.                      No:  High Pressure 
 HTEM.                      No:  High Temp 
 HYDO.m                   1.80:  Hydro Offset 
 IFIN.deg                74.42:  Inc, Final 
 IMAX.deg                76.14:  Inc Max 
 IMIN.deg                74.42:  Inc Min 
 IMND.m                3462.72:  Inc Min Depth 
 IMXD.m                3235.69:  Inc Max Depth 
 JARR.                      No:  Jarring 
 LETM.      12.59.00 23-Feb-20:  Log End Time 
 LOST.hr                     0:  Lost Rig Time 
 LSTM.      09.44.00 18-Feb-20:  Log Start Time 
 MDCL.ppm             45000.00:  Mud Chlorides 
 MDES.     Inversion Oil/Synthetic:  Mud Desc 
 DFD .sg                  1.38:  Mud Density 
 MDMN.sg                  1.34:  Dens Mud Min 
 MDMX.sg                  1.49:  Dens Mud Max 
 MOIL.                      67:  Run Mud Oil % 
 MOWR.                   67:33:  Run Mud OWR 
 MSND.                    0.12:  Run Mud Sand % 
 MSOL.                      22:  Run Mud Solids% 
 DFV .spqt               81.00:  Mud Viscosity 
 MWOD.in                  6.75:  MWD Tool OD 
 MWSI.                      No:  Serv Intrp, MWD 
 OTIM.hr                231.44:  Time Operating 
 PCON.          Wear / Scratch:  Pad Condition 
 PMAX.psia             3400.00:  Press Op, Max 
 PV  .cP                 55.00:  Mud PV 
 RUN .                     800:  Run Number 
 ROPA.m/hr               12.00:  ROP Avg 
 ROPN.m/hr                5.00:  ROP Min 
 ROPX.m/hr               28.00:  ROP Max 
 RPMA.rpm               120.00:  RPM Surface Avg 
 RPMN.rpm                40.00:  RPM Surface Min 
 RPMX.rpm               130.00:  RPM Surface Max 
 RRUN.                    0800:  Rig Run Number 
 RTIM.hr                 45.00:  Time Reaming 
 SAZI.deg               145.38:  Azm, Start 
 SDEP.m                3219.01:  Start Depth 
 SIDD.                      No:  Serv Intrp, DD 
 SINC.deg                75.11:  Inc, Start 
 SPPA.psig             2400.00:  SPP Avg 
 SPPN.psig             2320.00:  SPP Min 
 SPPX.psig             3200.00:  SPP Max 
 STIM.      15.15.00 17-Feb-20:  Start Time 
 SVCS.                 DD, MWD:  Services 
 SVER.                    9.20:  Sperry Version 
 TDAT.m                 254.00:  Tot Depth Attmp 
 TDDF.                      No:  Trip for DD 
 TDLG.m                 254.00:  Tot Depth Loggd 
 TFF .                      No:  Trip for Fail 
 TQAA.f-kp               13.00:  Torque Abs Avg 
 TQAN.f-kp                7.00:  Torque Abs Min 
 TQAX.f-kp               15.00:  Torque Abs Max 
 TRRT.°/30m               0.21:  Turn Rotating 
 MRT .                  EWR-M5:  Maximum Recorded Temperature 
 TTMX.degC               64.00:  Max Tool Temp 
 VS01.                90586516:  Virtual Str1 SN 
 VS02.                90513691:  Virtual Str2 SN 
 VS03.                90586523:  Virtual Str3 SN 
 VS04.                90586520:  Virtual Str4 SN 
 VS05.                90590507:  Virtual Str5 SN 
 WBMN.klb                12.00:  WOB Min 
 WITN.           Rufat Babayev:  Customer Rep 2 
 WITN.         Alistair Sprott:  Customer Rep 
 WOBA.klb                18.00:  WOB Avg 
 WOBX.klb                30.00:  WOB Max 
 YP  .lhf2               41.00:  Yield Point 
~Curve Information Block
#MNEM.UNIT                 API CODE     Curve Description
#---------               -----------    ---------------------------
 TIME.HHMMSS            00 000 000 000:  GT Time & Date
 GTDEPTH.m              00 000 000 000:  GT Depth
 GTPQH.psia             00 000 000 000:  GT HR Quartz Pressure
 GTTQ.degC              00 000 000 000:  GT Quartz Temperature
 GTTN.NONE              00 000 000 000:  GT Test Number
 GTET.sec               00 000 000 000:  GT Elapsed Test Time
 GTTVD.m                00 000 000 000:  GT True Vertical Depth
#Other Information
#
#WARRANTY: Halliburton will use its best efforts to furnish customers with 
#accurate information and interpretations that are part of, and incident to, the services 
#provided.  However, Halliburton cannot and does not warrant the accuracy 
#or correctness of such information and interpretations.  Under no circumstances should any 
#such information or interpretation be relied upon as the sole basis for any drilling, 
#completion, production, or financial decision or any procedure involving any risk to the 
#safety of any drilling venture, drilling rig or its crew or any other third party.  The 
#Customer has full responsibility for all drilling, completion and production operation.  
#Halliburton makes no representations or warranties, either expressed or 
#implied, including, but not limited to, the implied warranties of merchantability or fitness 
#for a particular purpose, with respect to the services rendered.  In no event will 
#Halliburton be liable for failure to obtain any particular results or for 
#any damages, including, but not limited to, indirect, special or consequential damages, 
#resulting from the use of any information or interpretation provided by Halliburton.
#
~A           TIME           GTDEPTH  GTPQH  GTTQ  GTTN  GTET   GTTVD  
# ...
   05:06:04.775.24-Feb-2020 3303.51 4421.08 55.41 8.00 229.93 2690.98
   05:06:04.975.24-Feb-2020 3303.51 4421.08 55.41 8.00 230.13 2690.98
   05:06:05.175.24-Feb-2020 3303.51 4421.09 55.41 8.00 230.33 2690.98
   05:06:05.375.24-Feb-2020 3303.51 4420.92 55.41 8.00 230.53 2690.98
   05:06:05.575.24-Feb-2020 3303.51 4421.07 55.41 8.00 230.73 2690.98
   05:06:05.775.24-Feb-2020 3303.51 4421.01 55.41 8.00 230.93 2690.98
   05:06:05.975.24-Feb-2020 3303.51 4421.01 55.41 8.00 231.13 2690.98
   05:06:06.175.24-Feb-2020 3303.51 4420.99 55.41 8.00 231.33 2690.98
   05:06:06.375.24-Feb-2020 3303.51 4421.01 55.41 8.00 231.53 2690.98
   05:06:06.575.24-Feb-2020 3303.51 4421.04 55.41 8.00 231.73 2690.98
   05:06:06.775.24-Feb-2020 3303.51 4421.05 55.41 8.00 231.93 2690.98
   05:06:06.975.24-Feb-2020 3303.51 4421.05 55.41 8.00 232.13 2690.98
   05:06:07.174.24-Feb-2020 3303.51 4421.01 55.41 8.00 232.33 2690.98
   05:06:07.374.24-Feb-2020 3303.51 4421.02 55.41 8.00 232.53 2690.98
   05:06:07.574.24-Feb-2020 3303.51 4421.04 55.41 8.00 232.73 2690.98
   05:06:07.774.24-Feb-2020 3303.51 4421.05 55.41 8.00 232.93 2690.98
   05:06:07.974.24-Feb-2020 3303.51 4421.05 55.41 8.00 233.13 2690.98
   05:06:08.174.24-Feb-2020 3303.51 4421.02 55.41 8.00 233.33 2690.98
   05:06:08.374.24-Feb-2020 3303.51 4420.93 55.41 8.00 233.53 2690.98
   05:06:08.574.24-Feb-2020 3303.51 4421.24 55.41 8.00 233.73 2690.98
   05:06:08.774.24-Feb-2020 3303.51 4421.06 55.41 8.00 233.93 2690.98
   05:06:08.974.24-Feb-2020 3303.51 4421.41 55.41 8.00 234.13 2690.98
   05:06:09.174.24-Feb-2020 3303.51 4420.75 55.41 8.00 234.33 2690.98
   05:06:09.374.24-Feb-2020 3303.51 4420.95 55.41 8.00 234.53 2690.98
   05:06:09.574.24-Feb-2020 3303.51 4421.12 55.41 8.00 234.73 2690.98
   05:06:09.774.24-Feb-2020 3303.51 4421.02 55.41 8.00 234.93 2690.98
   05:06:09.974.24-Feb-2020 3303.51 4421.02 55.41 8.00 235.13 2690.98
   05:06:10.174.24-Feb-2020 3303.51 4421.30 55.41 8.00 235.33 2690.98
   05:06:10.374.24-Feb-2020 3303.51 4420.68 55.41 8.00 235.53 2690.98
   05:06:10.573.24-Feb-2020 3303.51 4421.28 55.41 8.00 235.73 2690.98
   05:06:10.773.24-Feb-2020 3303.51 4421.03 55.41 8.00 235.93 2690.98
   05:06:10.973.24-Feb-2020 3303.51 4421.03 55.41 8.00 236.13 2690.98
   05:06:11.173.24-Feb-2020 3303.51 4421.10 55.41 8.00 236.33 2690.98
   05:06:11.373.24-Feb-2020 3303.51 4421.09 55.41 8.00 236.53 2690.98
   05:06:11.573.24-Feb-2020 3303.51 4420.91 55.41 8.00 236.73 2690.98
   05:06:11.773.24-Feb-2020 3303.51 4421.07 55.41 8.00 236.93 2690.98
   05:06:11.973.24-Feb-2020 3303.51 4421.07 55.41 8.00 237.13 2690.98
   05:06:12.173.24-Feb-2020 3303.51 4421.05 55.41 8.00 237.33 2690.98
   05:06:12.373.24-Feb-2020 3303.51 4421.03 55.41 8.00 237.53 2690.98
   05:06:12.573.24-Feb-2020 3303.51 4421.01 55.41 8.00 237.73 2690.98
   05:06:12.773.24-Feb-2020 3303.51 4421.03 55.41 8.00 237.93 2690.98
   05:06:12.973.24-Feb-2020 3303.51 4421.03 55.41 8.00 238.13 2690.98
   05:06:13.173.24-Feb-2020 3303.51 4421.04 55.41 8.00 238.33 2690.98
   05:06:13.373.24-Feb-2020 3303.51 4421.04 55.41 8.00 238.53 2690.98
   05:06:13.573.24-Feb-2020 3303.51 4421.03 55.41 8.00 238.73 2690.98
   05:06:13.773.24-Feb-2020 3303.51 4421.04 55.41 8.00 238.93 2690.98
   05:06:13.972.24-Feb-2020 3303.51 4421.04 55.41 8.00 239.13 2690.98
   05:06:14.172.24-Feb-2020 3303.51 4421.33 55.41 8.00 239.33 2690.98
   05:06:14.372.24-Feb-2020 3303.51 4420.72 55.41 8.00 239.53 2690.98
   05:06:14.572.24-Feb-2020 3303.51 4421.22 55.41 8.00 239.73 2690.98
   05:06:14.772.24-Feb-2020 3303.51 4421.01 55.41 8.00 239.93 2690.98
   05:06:14.972.24-Feb-2020 3303.51 4421.01 55.41 8.00 240.13 2690.98
   05:06:15.172.24-Feb-2020 3303.51 4420.99 55.41 8.00 240.33 2690.98
   05:06:15.372.24-Feb-2020 3303.51 4421.00 55.41 8.00 240.53 2690.98
   05:06:15.572.24-Feb-2020 3303.51 4421.01 55.41 8.00 240.73 2690.98
   05:06:15.772.24-Feb-2020 3303.51 4421.03 55.41 8.00 240.93 2690.98
   05:06:15.972.24-Feb-2020 3303.51 4421.03 55.41 8.00 241.13 2690.98
   05:06:16.172.24-Feb-2020 3303.51 4421.03 55.41 8.00 241.33 2690.98
   05:06:16.372.24-Feb-2020 3303.51 4421.06 55.41 8.00 241.53 2690.98
   05:06:16.572.24-Feb-2020 3303.51 4421.01 55.41 8.00 241.73 2690.98
   05:06:16.772.24-Feb-2020 3303.51 4421.02 55.41 8.00 241.93 2690.98
   05:06:16.972.24-Feb-2020 3303.51 4421.04 55.41 8.00 242.13 2690.98
   05:06:17.172.24-Feb-2020 3303.51 4421.08 55.41 8.00 242.33 2690.98
   05:06:17.371.24-Feb-2020 3303.51 4421.01 55.41 8.00 242.53 2690.98
   05:06:17.571.24-Feb-2020 3303.51 4421.45 55.41 8.00 242.73 2690.98
   05:06:17.771.24-Feb-2020 3303.51 4420.72 55.41 8.00 242.93 2690.98
   05:06:17.971.24-Feb-2020 3303.51 4420.72 55.41 8.00 243.13 2690.98
   05:06:18.171.24-Feb-2020 3303.51 4421.10 55.41 8.00 243.33 2690.98
   05:06:18.371.24-Feb-2020 3303.51 4420.95 55.41 8.00 243.53 2690.98
   05:06:18.571.24-Feb-2020 3303.51 4421.22 55.41 8.00 243.73 2690.98
   05:06:18.771.24-Feb-2020 3303.51 4421.05 55.41 8.00 243.93 2690.98
   05:06:18.971.24-Feb-2020 3303.51 4421.05 55.41 8.00 244.13 2690.98
   05:06:19.171.24-Feb-2020 3303.51 4421.04 55.41 8.00 244.33 2690.98
   05:06:19.371.24-Feb-2020 3303.51 4421.03 55.41 8.00 244.53 2690.98
   05:06:19.571.24-Feb-2020 3303.51 4421.17 55.41 8.00 244.73 2690.98
   05:06:19.771.24-Feb-2020 3303.51 4421.10 55.40 8.00 244.93 2690.98
   05:06:19.971.24-Feb-2020 3303.51 4421.10 55.40 8.00 245.13 2690.98
   05:06:20.171.24-Feb-2020 3303.51 4421.10 55.41 8.00 245.33 2690.98
   05:06:20.371.24-Feb-2020 3303.51 4421.28 55.40 8.00 245.53 2690.98
   05:06:20.571.24-Feb-2020 3303.51 4420.70 55.40 8.00 245.73 2690.98
   05:06:20.770.24-Feb-2020 3303.51 4421.19 55.40 8.00 245.93 2690.98
   05:06:20.970.24-Feb-2020 3303.51 4420.97 55.40 8.00 246.13 2690.98
   05:06:21.170.24-Feb-2020 3303.51 4421.01 55.40 8.00 246.33 2690.98
   05:06:21.370.24-Feb-2020 3303.51 4421.01 55.40 8.00 246.53 2690.98
   05:06:21.570.24-Feb-2020 3303.51 4421.01 55.40 8.00 246.73 2690.98
   05:06:21.770.24-Feb-2020 3303.51 4421.03 55.40 8.00 246.93 2690.98
   05:06:21.970.24-Feb-2020 3303.51 4421.03 55.40 8.00 247.13 2690.98
   05:06:22.170.24-Feb-2020 3303.51 4421.04 55.40 8.00 247.33 2690.98
   05:06:22.370.24-Feb-2020 3303.51 4421.03 55.40 8.00 247.53 2690.98
   05:06:22.570.24-Feb-2020 3303.51 4421.04 55.40 8.00 247.73 2690.98
   05:06:22.770.24-Feb-2020 3303.51 4421.04 55.40 8.00 247.93 2690.98
   05:06:22.970.24-Feb-2020 3303.51 4421.04 55.40 8.00 248.13 2690.98
   05:06:23.170.24-Feb-2020 3303.51 4421.04 55.40 8.00 248.33 2690.98
   05:06:23.370.24-Feb-2020 3303.51 4421.06 55.40 8.00 248.53 2690.98
   05:06:23.570.24-Feb-2020 3303.51 4421.19 55.40 8.00 248.73 2690.98
   05:06:23.770.24-Feb-2020 3303.51 4421.08 55.40 8.00 248.93 2690.98
   05:06:23.970.24-Feb-2020 3303.51 4421.08 55.40 8.00 249.13 2690.98
   05:06:24.169.24-Feb-2020 3303.51 4421.07 55.40 8.00 249.33 2690.98
   05:06:24.369.24-Feb-2020 3303.51 4420.99 55.40 8.00 249.53 2690.98
   05:06:24.569.24-Feb-2020 3303.51 4421.04 55.40 8.00 249.73 2690.98
   05:06:24.769.24-Feb-2020 3303.51 4420.99 55.40 8.00 249.93 2690.98
   05:06:24.969.24-Feb-2020 3303.51 4420.99 55.40 8.00 250.13 2690.98
   05:06:25.169.24-Feb-2020 3303.51 4421.03 55.40 8.00 250.33 2690.98
   05:06:25.369.24-Feb-2020 3303.51 4421.06 55.40 8.00 250.53 2690.98
   05:06:25.569.24-Feb-2020 3303.51 4421.05 55.40 8.00 250.73 2690.98
   05:06:25.769.24-Feb-2020 3303.51 4421.01 55.40 8.00 250.93 2690.98
   05:06:25.969.24-Feb-2020 3303.51 4421.01 55.40 8.00 251.13 2690.98
   05:06:26.169.24-Feb-2020 3303.51 4421.03 55.40 8.00 251.33 2690.98
   05:06:26.369.24-Feb-2020 3303.51 4421.05 55.40 8.00 251.53 2690.98
   05:06:26.569.24-Feb-2020 3303.51 4421.06 55.40 8.00 251.73 2690.98
   05:06:26.769.24-Feb-2020 3303.51 4421.00 55.40 8.00 251.93 2690.98
   05:06:26.969.24-Feb-2020 3303.51 4421.00 55.40 8.00 252.13 2690.98
   05:06:27.169.24-Feb-2020 3303.51 4421.21 55.40 8.00 252.33 2690.98
   05:06:27.369.24-Feb-2020 3303.51 4421.04 55.40 8.00 252.53 2690.98
   05:06:27.568.24-Feb-2020 3303.51 4421.39 55.40 8.00 252.73 2690.98
