~Version Information
 VERS.                  2.0:   CWLS log ASCII Standard -VERSION 2.0
 WRAP.                   NO:   One line per depth step
~Well Information Block
#MNEM.UNIT     VALUE/NAME     DESCRIPTION
#---------     -----------    ---------------------------
 STRT.S             02:47:37 24-Feb-20: START TIME 02:47:37 24-Feb-20
 STOP.S             02:54:57 24-Feb-20: STOP TIME  02:54:57 24-Feb-20
 STEP.S                   0.00: STEP TIME
 NULL.                 -999.25: NULL VALUE
 JOBN.        AZ-XX-0905059384:  JOB TICKET NUMB
 PDAT.          Mean Sea Level:  PERMANENT DATUM
 UNIT.                     N/A:  LOGGING EQUIPMENT ID
 DCON.         Sperry Drilling:  DIRECTNL CONTR
 DOE .                     N/A:  DOE NUMBER
 RIG .             West Chirag:  RIG NAME
 WELL.                     J22:  WELL NAME
 MWDS.                    Baku:  MWD SHOP
 SRVC.     TURAN Drilling & Engineering:  CONTRACTOR
 FLD .                     ACG:  FIELD NAME
 CTRY.              Azerbaijan:  COUNTRY NAME
 PROV.                    Baku:  PROVINCE
 STAT.                    Baku:  STATE NAME
 REGN.                   EESSA:  REGION
 BASE.              Azerbaijan:  LOGGING EQUIPMENT BASE LOCATION
 UWI .                     N/A:  UNIQUE WELL IDENTIFIER
 API .                     N/A:  API NUMBER
 COMP.     BP Exploration (Caspian Sea) Ltd.:  COMPANY
 WTYP.                Deviated:  WELL TYPE
 MDS .        Operator Entered:  MAG DATA SOURCE
 SON .        AZ-XX-0905059384:  JOB NUMBER
 FTOP.          Formation Tops:  FORM TOPS DESC
 ILTD.               Lithology:  INTERP LTH DESC
 SVYD.                  Survey:  SURVEY DESC
 DMOD.             Drill Model:  DRILL MOD DESC
 HPTY.       Minimum Curvature:  HOLE POS TYPE
 NREF.                    Grid:  NORTH REFERENCE
 SPUD.               09-Jan-20:  SPUD DATE
 DATE.      14.04.48 07-Feb-20:  END TIME
 STIM.      07.00.00 09-Jan-20:  START TIME
 DMF .             Drill Floor:  DRILL MEAS FROM
 DFST.                        :  DIST FSL TEXT
 DFWT.                        :  DIST FWL TEXT
 CNTY.                        :  COUNTY
 LOC .                        :  LOCATION
 LMF .             Drill Floor:  LOG MEASURED FROM
 DEP .m                   0.00:  DEPTH
 VSNS.m                  10.28:  VERT SEC N/S
 VSEW.m                  -6.24:  VERT SEC E/W
 AGAP.m                  43.00:  AIR GAP
 APD .m                  43.00:  DEPTH ABOVE PD
 WDMS.m                 169.80:  WD ELEV
 EGL .m                   0.00:  GROUND ELEVATION
 EPD .m                   0.00:  ELEVATION
 AZTC.deg                 6.27:  AZM TOTAL CORR
 GRDC.deg                 0.15:  GRID CORRECTION
 MDEC.deg                 6.42:  MAGNETIC DECL
 MDIP.deg                59.56:  MAGNETIC DIP
 MFLD.nT              50277.00:  MAGNETIC FIELD
 GVFD.g                   1.00:  GRAVITY FIELD
 VSDR.deg               148.53:  VERT SEC DIRECT
 TDD .m                3473.01:  TOTAL DEPTH (DRILLER)
 SDEP.m                 364.00:  START DEPTH
 DFSL.m                   0.00:  DISTANCE FSL
 DFWL.m                   0.00:  DISTANCE FWL
 UTMY.m             4443793.85:  UTM Y
 UTMX.m              519005.06:  UTM X
 WHEW.m                  -6.24:  WELL HEAD E/W
 WHNS.m                  10.28:  WELL HEAD N/S
 LONG.deg                51.22:  LONGITUDE
 LATI.deg                40.13:  LATITUDE
 TVDS.m                  43.00:  TVDSS CORRECTN
 EKB .m                   0.00:  KB ELEVATION
 EDF .m                  43.00:  DF ELEVATION
 TDL .m                 254.00:  TOTAL DEPTH (LOGGER)
 MAGU.                 1850021:  MAGUTM CHECKSUM
 VSC .                       0:  VS TO CLOSURE
~Parameter Information Block
#MNEM.UNIT       Value        Description
#---------     -----------    ---------------------------
 AV  .mps                 0.50:  Ann Velocity 
 AVMX.mps                 1.40:  Max Ann Veloc 
 AZIF.deg               144.94:  Azm, Final 
 BHAT.        Rotary Steerable:  BHA Type 
 BROT.°/30m               0.23:  Build Rotating 
 BS  .in                  8.50:  Bit Size 
 BTPL.psig              264.00:  Bit Press Loss 
 CABU.                     Yes:  Customer Abuse 
 COMM.                     D
_:  Run Comments 1 
 TCS .hr                 87.30:  Time Ciculation Ended 
 CV  .mps                 2.45:  Crit Velocity 
 CVMX.mps                 2.74:  Max Crit Veloc 
 DD1 .             Aziz Aliyev:  Direct Drillr 1 
 DDSV.               Geo-Pilot:  DD Service 
 DEFF.%                 100.00:  % Det Eff 
 DLRX.°/30m               1.22:  Dogleg Rot Max 
 DLSO.°/30m               0.52:  Dogleg Oriented 
 DLSX.°/30m               1.22:  Dogleg Str Max 
 DRET.      12.59.00 23-Feb-20:  Drill End Time 
 DRST.      09.44.00 18-Feb-20:  Drill Start Tim 
 DTIM.hr                 23.03:  Time Drilling 
 EDEP.m                3473.01:  End Depth 
 ENG1.         Almaz Almadatov:  Engineer 1 
 ENG2.         Dair Mahammadov:  Engineer 2 
 ENG3.          Nazrin Asgarli:  Engineer 3 
 ETIM.      10.33.36 26-Feb-20:  End Time 
 FLOI.gpm               480.00:  Flow In 
 FLON.gpm               300.00:  Flow In Min 
 FLOS.cptm                1.00:  Fluid Loss 
 FLOX.gpm               550.00:  Flow In Max 
 HFLO.                      No:  High Flow 
 HPRE.                      No:  High Pressure 
 HTEM.                      No:  High Temp 
 HYDO.m                   1.80:  Hydro Offset 
 IFIN.deg                74.42:  Inc, Final 
 IMAX.deg                76.14:  Inc Max 
 IMIN.deg                74.42:  Inc Min 
 IMND.m                3462.72:  Inc Min Depth 
 IMXD.m                3235.69:  Inc Max Depth 
 JARR.                      No:  Jarring 
 LETM.      12.59.00 23-Feb-20:  Log End Time 
 LOST.hr                     0:  Lost Rig Time 
 LSTM.      09.44.00 18-Feb-20:  Log Start Time 
 MDCL.ppm             45000.00:  Mud Chlorides 
 MDES.     Inversion Oil/Synthetic:  Mud Desc 
 DFD .sg                  1.38:  Mud Density 
 MDMN.sg                  1.34:  Dens Mud Min 
 MDMX.sg                  1.49:  Dens Mud Max 
 MOIL.                      67:  Run Mud Oil % 
 MOWR.                   67:33:  Run Mud OWR 
 MSND.                    0.12:  Run Mud Sand % 
 MSOL.                      22:  Run Mud Solids% 
 DFV .spqt               81.00:  Mud Viscosity 
 MWOD.in                  6.75:  MWD Tool OD 
 MWSI.                      No:  Serv Intrp, MWD 
 OTIM.hr                231.44:  Time Operating 
 PCON.          Wear / Scratch:  Pad Condition 
 PMAX.psia             3400.00:  Press Op, Max 
 PV  .cP                 55.00:  Mud PV 
 RUN .                     800:  Run Number 
 ROPA.m/hr               12.00:  ROP Avg 
 ROPN.m/hr                5.00:  ROP Min 
 ROPX.m/hr               28.00:  ROP Max 
 RPMA.rpm               120.00:  RPM Surface Avg 
 RPMN.rpm                40.00:  RPM Surface Min 
 RPMX.rpm               130.00:  RPM Surface Max 
 RRUN.                    0800:  Rig Run Number 
 RTIM.hr                 45.00:  Time Reaming 
 SAZI.deg               145.38:  Azm, Start 
 SDEP.m                3219.01:  Start Depth 
 SIDD.                      No:  Serv Intrp, DD 
 SINC.deg                75.11:  Inc, Start 
 SPPA.psig             2400.00:  SPP Avg 
 SPPN.psig             2320.00:  SPP Min 
 SPPX.psig             3200.00:  SPP Max 
 STIM.      15.15.00 17-Feb-20:  Start Time 
 SVCS.                 DD, MWD:  Services 
 SVER.                    9.20:  Sperry Version 
 TDAT.m                 254.00:  Tot Depth Attmp 
 TDDF.                      No:  Trip for DD 
 TDLG.m                 254.00:  Tot Depth Loggd 
 TFF .                      No:  Trip for Fail 
 TQAA.f-kp               13.00:  Torque Abs Avg 
 TQAN.f-kp                7.00:  Torque Abs Min 
 TQAX.f-kp               15.00:  Torque Abs Max 
 TRRT.°/30m               0.21:  Turn Rotating 
 MRT .                  EWR-M5:  Maximum Recorded Temperature 
 TTMX.degC               64.00:  Max Tool Temp 
 VS01.                90586516:  Virtual Str1 SN 
 VS02.                90513691:  Virtual Str2 SN 
 VS03.                90586523:  Virtual Str3 SN 
 VS04.                90586520:  Virtual Str4 SN 
 VS05.                90590507:  Virtual Str5 SN 
 WBMN.klb                12.00:  WOB Min 
 WITN.           Rufat Babayev:  Customer Rep 2 
 WITN.         Alistair Sprott:  Customer Rep 
 WOBA.klb                18.00:  WOB Avg 
 WOBX.klb                30.00:  WOB Max 
 YP  .lhf2               41.00:  Yield Point 
~Curve Information Block
#MNEM.UNIT                 API CODE     Curve Description
#---------               -----------    ---------------------------
 TIME.HHMMSS            00 000 000 000:  GT Time & Date
 GTDEPTH.m              00 000 000 000:  GT Depth
 GTPQH.psia             00 000 000 000:  GT HR Quartz Pressure
 GTTQ.degC              00 000 000 000:  GT Quartz Temperature
 GTTN.NONE              00 000 000 000:  GT Test Number
 GTET.sec               00 000 000 000:  GT Elapsed Test Time
 GTTVD.m                00 000 000 000:  GT True Vertical Depth
#Other Information
#
#WARRANTY: Halliburton will use its best efforts to furnish customers with 
#accurate information and interpretations that are part of, and incident to, the services 
#provided.  However, Halliburton cannot and does not warrant the accuracy 
#or correctness of such information and interpretations.  Under no circumstances should any 
#such information or interpretation be relied upon as the sole basis for any drilling, 
#completion, production, or financial decision or any procedure involving any risk to the 
#safety of any drilling venture, drilling rig or its crew or any other third party.  The 
#Customer has full responsibility for all drilling, completion and production operation.  
#Halliburton makes no representations or warranties, either expressed or 
#implied, including, but not limited to, the implied warranties of merchantability or fitness 
#for a particular purpose, with respect to the services rendered.  In no event will 
#Halliburton be liable for failure to obtain any particular results or for 
#any damages, including, but not limited to, indirect, special or consequential damages, 
#resulting from the use of any information or interpretation provided by Halliburton.
#
~A           TIME           GTDEPTH  GTPQH  GTTQ  GTTN  GTET   GTTVD  
# ...
   02:48:23.366.24-Feb-2020 3375.51 4238.30 55.89 5.00  46.02 2709.14
   02:48:23.566.24-Feb-2020 3375.51 4219.20 55.89 5.00  46.22 2709.14
   02:48:23.766.24-Feb-2020 3375.51 4192.45 55.89 5.00  46.42 2709.14
   02:48:23.966.24-Feb-2020 3375.51 4171.48 55.89 5.00  46.62 2709.14
   02:48:24.166.24-Feb-2020 3375.51 4168.13 55.89 5.00  46.82 2709.14
   02:48:24.366.24-Feb-2020 3375.51 4171.21 55.89 5.00  47.02 2709.14
   02:48:24.566.24-Feb-2020 3375.51 4171.21 55.89 5.00  47.22 2709.14
   02:48:24.766.24-Feb-2020 3375.51 4174.58 55.88 5.00  47.42 2709.14
   02:48:24.966.24-Feb-2020 3375.51 4172.58 55.88 5.00  47.62 2709.14
   02:48:25.167.24-Feb-2020 3375.51 4172.60 55.88 5.00  47.82 2709.14
   02:48:25.367.24-Feb-2020 3375.51 4172.26 55.88 5.00  48.02 2709.14
   02:48:25.567.24-Feb-2020 3375.51 4172.26 55.88 5.00  48.22 2709.14
   02:48:25.767.24-Feb-2020 3375.51 4173.05 55.88 5.00  48.42 2709.14
   02:48:25.967.24-Feb-2020 3375.51 4175.68 55.88 5.00  48.62 2709.14
   02:48:26.167.24-Feb-2020 3375.51 4180.88 55.88 5.00  48.82 2709.14
   02:48:26.367.24-Feb-2020 3375.51 4174.33 55.88 5.00  49.02 2709.14
   02:48:26.567.24-Feb-2020 3375.51 4174.33 55.88 5.00  49.22 2709.14
   02:48:26.767.24-Feb-2020 3375.51 4177.91 55.88 5.00  49.42 2709.14
   02:48:26.967.24-Feb-2020 3375.51 4180.82 55.88 5.00  49.62 2709.14
   02:48:27.167.24-Feb-2020 3375.51 4184.67 55.88 5.00  49.82 2709.14
   02:48:27.367.24-Feb-2020 3375.51 4183.28 55.88 5.00  50.02 2709.14
   02:48:27.567.24-Feb-2020 3375.51 4183.28 55.88 5.00  50.22 2709.14
   02:48:27.768.24-Feb-2020 3375.51 4188.94 55.88 5.00  50.42 2709.14
   02:48:27.968.24-Feb-2020 3375.51 4190.18 55.87 5.00  50.62 2709.14
   02:48:28.168.24-Feb-2020 3375.51 4188.04 55.87 5.00  50.82 2709.14
   02:48:28.368.24-Feb-2020 3375.51 4187.72 55.87 5.00  51.02 2709.14
   02:48:28.568.24-Feb-2020 3375.51 4187.72 55.87 5.00  51.22 2709.14
   02:48:28.768.24-Feb-2020 3375.51 4185.79 55.87 5.00  51.42 2709.14
   02:48:28.968.24-Feb-2020 3375.51 4199.75 55.87 5.00  51.62 2709.14
   02:48:29.168.24-Feb-2020 3375.51 4206.39 55.87 5.00  51.82 2709.14
   02:48:29.368.24-Feb-2020 3375.51 4210.91 55.87 5.00  52.02 2709.14
   02:48:29.568.24-Feb-2020 3375.51 4210.91 55.87 5.00  52.22 2709.14
   02:48:29.768.24-Feb-2020 3375.51 4213.42 55.87 5.00  52.42 2709.14
   02:48:29.968.24-Feb-2020 3375.51 4215.21 55.87 5.00  52.62 2709.14
   02:48:30.169.24-Feb-2020 3375.51 4223.86 55.87 5.00  52.82 2709.14
   02:48:30.369.24-Feb-2020 3375.51 4232.73 55.87 5.00  53.02 2709.14
   02:48:30.569.24-Feb-2020 3375.51 4232.73 55.87 5.00  53.22 2709.14
   02:48:30.769.24-Feb-2020 3375.51 4233.09 55.87 5.00  53.42 2709.14
   02:48:30.969.24-Feb-2020 3375.51 4237.26 55.87 5.00  53.62 2709.14
   02:48:31.169.24-Feb-2020 3375.51 4237.30 55.87 5.00  53.82 2709.14
   02:48:31.369.24-Feb-2020 3375.51 4229.00 55.87 5.00  54.02 2709.14
   02:48:31.569.24-Feb-2020 3375.51 4229.00 55.87 5.00  54.22 2709.14
   02:48:31.769.24-Feb-2020 3375.51 4216.77 55.87 5.00  54.42 2709.14
   02:48:31.969.24-Feb-2020 3375.51 4212.80 55.87 5.00  54.62 2709.14
   02:48:32.169.24-Feb-2020 3375.51 4212.11 55.87 5.00  54.82 2709.14
   02:48:32.369.24-Feb-2020 3375.51 4212.11 55.87 5.00  55.02 2709.14
   02:48:32.569.24-Feb-2020 3375.51 4212.11 55.87 5.00  55.22 2709.14
   02:48:32.770.24-Feb-2020 3375.51 4209.79 55.87 5.00  55.42 2709.14
   02:48:32.970.24-Feb-2020 3375.51 4207.51 55.87 5.00  55.62 2709.14
   02:48:33.170.24-Feb-2020 3375.51 4208.50 55.87 5.00  55.82 2709.14
   02:48:33.370.24-Feb-2020 3375.51 4208.19 55.87 5.00  56.02 2709.14
   02:48:33.570.24-Feb-2020 3375.51 4208.19 55.87 5.00  56.22 2709.14
   02:48:33.770.24-Feb-2020 3375.51 4205.92 55.87 5.00  56.42 2709.14
   02:48:33.970.24-Feb-2020 3375.51 4219.83 55.87 5.00  56.62 2709.14
   02:48:34.170.24-Feb-2020 3375.51 4230.32 55.87 5.00  56.82 2709.14
   02:48:34.370.24-Feb-2020 3375.51 4233.79 55.87 5.00  57.02 2709.14
   02:48:34.570.24-Feb-2020 3375.51 4233.79 55.87 5.00  57.22 2709.14
   02:48:34.770.24-Feb-2020 3375.51 4221.95 55.87 5.00  57.42 2709.14
   02:48:34.970.24-Feb-2020 3375.51 4216.94 55.87 5.00  57.62 2709.14
   02:48:35.171.24-Feb-2020 3375.51 4214.24 55.87 5.00  57.82 2709.14
   02:48:35.371.24-Feb-2020 3375.51 4212.66 55.87 5.00  58.02 2709.14
   02:48:35.571.24-Feb-2020 3375.51 4212.66 55.87 5.00  58.22 2709.14
   02:48:35.771.24-Feb-2020 3375.51 4210.91 55.87 5.00  58.42 2709.14
   02:48:35.971.24-Feb-2020 3375.51 4210.32 55.87 5.00  58.62 2709.14
   02:48:36.171.24-Feb-2020 3375.51 4209.96 55.87 5.00  58.82 2709.14
   02:48:36.371.24-Feb-2020 3375.51 4209.78 55.87 5.00  59.02 2709.14
   02:48:36.571.24-Feb-2020 3375.51 4209.78 55.87 5.00  59.22 2709.14
   02:48:36.771.24-Feb-2020 3375.51 4209.55 55.87 5.00  59.42 2709.14
   02:48:36.971.24-Feb-2020 3375.51 4209.49 55.87 5.00  59.62 2709.14
   02:48:37.171.24-Feb-2020 3375.51 4209.93 55.87 5.00  59.82 2709.14
   02:48:37.371.24-Feb-2020 3375.51 4209.43 55.87 5.00  60.02 2709.14
   02:48:37.571.24-Feb-2020 3375.51 4209.43 55.87 5.00  60.22 2709.14
   02:48:37.772.24-Feb-2020 3375.51 4209.36 55.87 5.00  60.42 2709.14
   02:48:37.972.24-Feb-2020 3375.51 4209.43 55.87 5.00  60.62 2709.14
   02:48:38.172.24-Feb-2020 3375.51 4209.47 55.87 5.00  60.82 2709.14
   02:48:38.372.24-Feb-2020 3375.51 4209.33 55.87 5.00  61.02 2709.14
   02:48:38.572.24-Feb-2020 3375.51 4209.33 55.87 5.00  61.22 2709.14
   02:48:38.772.24-Feb-2020 3375.51 4209.83 55.87 5.00  61.42 2709.14
   02:48:38.972.24-Feb-2020 3375.51 4216.89 55.87 5.00  61.62 2709.14
   02:48:39.172.24-Feb-2020 3375.51 4113.21 55.87 5.00  61.82 2709.14
   02:48:39.372.24-Feb-2020 3375.51 3857.69 55.87 5.00  62.02 2709.14
   02:48:39.572.24-Feb-2020 3375.51 3857.69 55.87 5.00  62.22 2709.14
   02:48:39.772.24-Feb-2020 3375.51 3964.28 55.87 5.00  62.42 2709.14
   02:48:39.972.24-Feb-2020 3375.51 3968.57 55.87 5.00  62.63 2709.14
   02:48:40.173.24-Feb-2020 3375.51 3982.74 55.87 5.00  62.83 2709.14
   02:48:40.373.24-Feb-2020 3375.51 3992.27 55.87 5.00  63.03 2709.14
   02:48:40.573.24-Feb-2020 3375.51 3992.27 55.87 5.00  63.23 2709.14
   02:48:40.773.24-Feb-2020 3375.51 3998.47 55.87 5.00  63.43 2709.14
   02:48:40.973.24-Feb-2020 3375.51 4004.98 55.87 5.00  63.63 2709.14
   02:48:41.173.24-Feb-2020 3375.51 4009.97 55.87 5.00  63.83 2709.14
   02:48:41.373.24-Feb-2020 3375.51 4010.21 55.87 5.00  64.03 2709.14
   02:48:41.573.24-Feb-2020 3375.51 4010.21 55.87 5.00  64.23 2709.14
   02:48:41.773.24-Feb-2020 3375.51 4009.52 55.87 5.00  64.43 2709.14
   02:48:41.973.24-Feb-2020 3375.51 4009.79 55.87 5.00  64.63 2709.14
   02:48:42.173.24-Feb-2020 3375.51 4011.65 55.87 5.00  64.83 2709.14
   02:48:42.373.24-Feb-2020 3375.51 4009.74 55.86 5.00  65.03 2709.14
   02:48:42.573.24-Feb-2020 3375.51 4009.74 55.86 5.00  65.23 2709.14
   02:48:42.774.24-Feb-2020 3375.51 4010.54 55.86 5.00  65.43 2709.14
   02:48:42.974.24-Feb-2020 3375.51 4010.39 55.86 5.00  65.63 2709.14
   02:48:43.174.24-Feb-2020 3375.51 4010.71 55.86 5.00  65.83 2709.14
   02:48:43.374.24-Feb-2020 3375.51 4010.33 55.86 5.00  66.03 2709.14
   02:48:43.574.24-Feb-2020 3375.51 4010.33 55.86 5.00  66.23 2709.14
   02:48:43.774.24-Feb-2020 3375.51 4012.65 55.86 5.00  66.43 2709.14
   02:48:43.974.24-Feb-2020 3375.51 4010.71 55.86 5.00  66.63 2709.14
   02:48:44.174.24-Feb-2020 3375.51 4009.98 55.86 5.00  66.83 2709.14
   02:48:44.374.24-Feb-2020 3375.51 4010.27 55.86 5.00  67.03 2709.14
   02:48:44.574.24-Feb-2020 3375.51 4010.27 55.86 5.00  67.23 2709.14
   02:48:44.774.24-Feb-2020 3375.51 4009.66 55.86 5.00  67.43 2709.14
   02:48:44.974.24-Feb-2020 3375.51 4012.17 55.86 5.00  67.63 2709.14
   02:48:45.175.24-Feb-2020 3375.51 4009.84 55.86 5.00  67.83 2709.14
   02:48:45.375.24-Feb-2020 3375.51 4010.21 55.86 5.00  68.03 2709.14
   02:48:45.575.24-Feb-2020 3375.51 4010.21 55.86 5.00  68.23 2709.14
   02:48:45.775.24-Feb-2020 3375.51 4010.30 55.86 5.00  68.43 2709.14
   02:48:45.975.24-Feb-2020 3375.51 4010.55 55.86 5.00  68.63 2709.14
   02:48:46.175.24-Feb-2020 3375.51 4009.19 55.86 5.00  68.83 2709.14
