~Version Information
 VERS.                  2.0:   CWLS log ASCII Standard -VERSION 2.0
 WRAP.                   NO:   One line per depth step
~Well Information Block
#MNEM.UNIT     VALUE/NAME     DESCRIPTION
#---------     -----------    ---------------------------
 STRT.S             02:47:37 24-Feb-20: START TIME 02:47:37 24-Feb-20
 STOP.S             02:54:57 24-Feb-20: STOP TIME  02:54:57 24-Feb-20
 STEP.S                   0.00: STEP TIME
 NULL.                 -999.25: NULL VALUE
 JOBN.        AZ-XX-0905059384:  JOB TICKET NUMB
 PDAT.          Mean Sea Level:  PERMANENT DATUM
 UNIT.                     N/A:  LOGGING EQUIPMENT ID
 DCON.         Sperry Drilling:  DIRECTNL CONTR
 DOE .                     N/A:  DOE NUMBER
 RIG .             West Chirag:  RIG NAME
 WELL.                     J22:  WELL NAME
 MWDS.                    Baku:  MWD SHOP
 SRVC.     TURAN Drilling & Engineering:  CONTRACTOR
 FLD .                     ACG:  FIELD NAME
 CTRY.              Azerbaijan:  COUNTRY NAME
 PROV.                    Baku:  PROVINCE
 STAT.                    Baku:  STATE NAME
 REGN.                   EESSA:  REGION
 BASE.              Azerbaijan:  LOGGING EQUIPMENT BASE LOCATION
 UWI .                     N/A:  UNIQUE WELL IDENTIFIER
 API .                     N/A:  API NUMBER
 COMP.     BP Exploration (Caspian Sea) Ltd.:  COMPANY
 WTYP.                Deviated:  WELL TYPE
 MDS .        Operator Entered:  MAG DATA SOURCE
 SON .        AZ-XX-0905059384:  JOB NUMBER
 FTOP.          Formation Tops:  FORM TOPS DESC
 ILTD.               Lithology:  INTERP LTH DESC
 SVYD.                  Survey:  SURVEY DESC
 DMOD.             Drill Model:  DRILL MOD DESC
 HPTY.       Minimum Curvature:  HOLE POS TYPE
 NREF.                    Grid:  NORTH REFERENCE
 SPUD.               09-Jan-20:  SPUD DATE
 DATE.      14.04.48 07-Feb-20:  END TIME
 STIM.      07.00.00 09-Jan-20:  START TIME
 DMF .             Drill Floor:  DRILL MEAS FROM
 DFST.                        :  DIST FSL TEXT
 DFWT.                        :  DIST FWL TEXT
 CNTY.                        :  COUNTY
 LOC .                        :  LOCATION
 LMF .             Drill Floor:  LOG MEASURED FROM
 DEP .m                   0.00:  DEPTH
 VSNS.m                  10.28:  VERT SEC N/S
 VSEW.m                  -6.24:  VERT SEC E/W
 AGAP.m                  43.00:  AIR GAP
 APD .m                  43.00:  DEPTH ABOVE PD
 WDMS.m                 169.80:  WD ELEV
 EGL .m                   0.00:  GROUND ELEVATION
 EPD .m                   0.00:  ELEVATION
 AZTC.deg                 6.27:  AZM TOTAL CORR
 GRDC.deg                 0.15:  GRID CORRECTION
 MDEC.deg                 6.42:  MAGNETIC DECL
 MDIP.deg                59.56:  MAGNETIC DIP
 MFLD.nT              50277.00:  MAGNETIC FIELD
 GVFD.g                   1.00:  GRAVITY FIELD
 VSDR.deg               148.53:  VERT SEC DIRECT
 TDD .m                3473.01:  TOTAL DEPTH (DRILLER)
 SDEP.m                 364.00:  START DEPTH
 DFSL.m                   0.00:  DISTANCE FSL
 DFWL.m                   0.00:  DISTANCE FWL
 UTMY.m             4443793.85:  UTM Y
 UTMX.m              519005.06:  UTM X
 WHEW.m                  -6.24:  WELL HEAD E/W
 WHNS.m                  10.28:  WELL HEAD N/S
 LONG.deg                51.22:  LONGITUDE
 LATI.deg                40.13:  LATITUDE
 TVDS.m                  43.00:  TVDSS CORRECTN
 EKB .m                   0.00:  KB ELEVATION
 EDF .m                  43.00:  DF ELEVATION
 TDL .m                 254.00:  TOTAL DEPTH (LOGGER)
 MAGU.                 1850021:  MAGUTM CHECKSUM
 VSC .                       0:  VS TO CLOSURE
~Parameter Information Block
#MNEM.UNIT       Value        Description
#---------     -----------    ---------------------------
 AV  .mps                 0.50:  Ann Velocity 
 AVMX.mps                 1.40:  Max Ann Veloc 
 AZIF.deg               144.94:  Azm, Final 
 BHAT.        Rotary Steerable:  BHA Type 
 BROT.°/30m               0.23:  Build Rotating 
 BS  .in                  8.50:  Bit Size 
 BTPL.psig              264.00:  Bit Press Loss 
 CABU.                     Yes:  Customer Abuse 
 COMM.                     D
_:  Run Comments 1 
 TCS .hr                 87.30:  Time Ciculation Ended 
 CV  .mps                 2.45:  Crit Velocity 
 CVMX.mps                 2.74:  Max Crit Veloc 
 DD1 .             Aziz Aliyev:  Direct Drillr 1 
 DDSV.               Geo-Pilot:  DD Service 
 DEFF.%                 100.00:  % Det Eff 
 DLRX.°/30m               1.22:  Dogleg Rot Max 
 DLSO.°/30m               0.52:  Dogleg Oriented 
 DLSX.°/30m               1.22:  Dogleg Str Max 
 DRET.      12.59.00 23-Feb-20:  Drill End Time 
 DRST.      09.44.00 18-Feb-20:  Drill Start Tim 
 DTIM.hr                 23.03:  Time Drilling 
 EDEP.m                3473.01:  End Depth 
 ENG1.         Almaz Almadatov:  Engineer 1 
 ENG2.         Dair Mahammadov:  Engineer 2 
 ENG3.          Nazrin Asgarli:  Engineer 3 
 ETIM.      10.33.36 26-Feb-20:  End Time 
 FLOI.gpm               480.00:  Flow In 
 FLON.gpm               300.00:  Flow In Min 
 FLOS.cptm                1.00:  Fluid Loss 
 FLOX.gpm               550.00:  Flow In Max 
 HFLO.                      No:  High Flow 
 HPRE.                      No:  High Pressure 
 HTEM.                      No:  High Temp 
 HYDO.m                   1.80:  Hydro Offset 
 IFIN.deg                74.42:  Inc, Final 
 IMAX.deg                76.14:  Inc Max 
 IMIN.deg                74.42:  Inc Min 
 IMND.m                3462.72:  Inc Min Depth 
 IMXD.m                3235.69:  Inc Max Depth 
 JARR.                      No:  Jarring 
 LETM.      12.59.00 23-Feb-20:  Log End Time 
 LOST.hr                     0:  Lost Rig Time 
 LSTM.      09.44.00 18-Feb-20:  Log Start Time 
 MDCL.ppm             45000.00:  Mud Chlorides 
 MDES.     Inversion Oil/Synthetic:  Mud Desc 
 DFD .sg                  1.38:  Mud Density 
 MDMN.sg                  1.34:  Dens Mud Min 
 MDMX.sg                  1.49:  Dens Mud Max 
 MOIL.                      67:  Run Mud Oil % 
 MOWR.                   67:33:  Run Mud OWR 
 MSND.                    0.12:  Run Mud Sand % 
 MSOL.                      22:  Run Mud Solids% 
 DFV .spqt               81.00:  Mud Viscosity 
 MWOD.in                  6.75:  MWD Tool OD 
 MWSI.                      No:  Serv Intrp, MWD 
 OTIM.hr                231.44:  Time Operating 
 PCON.          Wear / Scratch:  Pad Condition 
 PMAX.psia             3400.00:  Press Op, Max 
 PV  .cP                 55.00:  Mud PV 
 RUN .                     800:  Run Number 
 ROPA.m/hr               12.00:  ROP Avg 
 ROPN.m/hr                5.00:  ROP Min 
 ROPX.m/hr               28.00:  ROP Max 
 RPMA.rpm               120.00:  RPM Surface Avg 
 RPMN.rpm                40.00:  RPM Surface Min 
 RPMX.rpm               130.00:  RPM Surface Max 
 RRUN.                    0800:  Rig Run Number 
 RTIM.hr                 45.00:  Time Reaming 
 SAZI.deg               145.38:  Azm, Start 
 SDEP.m                3219.01:  Start Depth 
 SIDD.                      No:  Serv Intrp, DD 
 SINC.deg                75.11:  Inc, Start 
 SPPA.psig             2400.00:  SPP Avg 
 SPPN.psig             2320.00:  SPP Min 
 SPPX.psig             3200.00:  SPP Max 
 STIM.      15.15.00 17-Feb-20:  Start Time 
 SVCS.                 DD, MWD:  Services 
 SVER.                    9.20:  Sperry Version 
 TDAT.m                 254.00:  Tot Depth Attmp 
 TDDF.                      No:  Trip for DD 
 TDLG.m                 254.00:  Tot Depth Loggd 
 TFF .                      No:  Trip for Fail 
 TQAA.f-kp               13.00:  Torque Abs Avg 
 TQAN.f-kp                7.00:  Torque Abs Min 
 TQAX.f-kp               15.00:  Torque Abs Max 
 TRRT.°/30m               0.21:  Turn Rotating 
 MRT .                  EWR-M5:  Maximum Recorded Temperature 
 TTMX.degC               64.00:  Max Tool Temp 
 VS01.                90586516:  Virtual Str1 SN 
 VS02.                90513691:  Virtual Str2 SN 
 VS03.                90586523:  Virtual Str3 SN 
 VS04.                90586520:  Virtual Str4 SN 
 VS05.                90590507:  Virtual Str5 SN 
 WBMN.klb                12.00:  WOB Min 
 WITN.           Rufat Babayev:  Customer Rep 2 
 WITN.         Alistair Sprott:  Customer Rep 
 WOBA.klb                18.00:  WOB Avg 
 WOBX.klb                30.00:  WOB Max 
 YP  .lhf2               41.00:  Yield Point 
~Curve Information Block
#MNEM.UNIT                 API CODE     Curve Description
#---------               -----------    ---------------------------
 TIME.HHMMSS            00 000 000 000:  GT Time & Date
 GTDEPTH.m              00 000 000 000:  GT Depth
 GTPQH.psia             00 000 000 000:  GT HR Quartz Pressure
 GTTQ.degC              00 000 000 000:  GT Quartz Temperature
 GTTN.NONE              00 000 000 000:  GT Test Number
 GTET.sec               00 000 000 000:  GT Elapsed Test Time
 GTTVD.m                00 000 000 000:  GT True Vertical Depth
#Other Information
#
#WARRANTY: Halliburton will use its best efforts to furnish customers with 
#accurate information and interpretations that are part of, and incident to, the services 
#provided.  However, Halliburton cannot and does not warrant the accuracy 
#or correctness of such information and interpretations.  Under no circumstances should any 
#such information or interpretation be relied upon as the sole basis for any drilling, 
#completion, production, or financial decision or any procedure involving any risk to the 
#safety of any drilling venture, drilling rig or its crew or any other third party.  The 
#Customer has full responsibility for all drilling, completion and production operation.  
#Halliburton makes no representations or warranties, either expressed or 
#implied, including, but not limited to, the implied warranties of merchantability or fitness 
#for a particular purpose, with respect to the services rendered.  In no event will 
#Halliburton be liable for failure to obtain any particular results or for 
#any damages, including, but not limited to, indirect, special or consequential damages, 
#resulting from the use of any information or interpretation provided by Halliburton.
#
~A           TIME           GTDEPTH  GTPQH  GTTQ  GTTN  GTET   GTTVD  
# ...
   02:52:36.467.24-Feb-2020 3375.51 4203.61 55.78 5.00 299.12 2709.14
   02:52:36.667.24-Feb-2020 3375.51 4203.61 55.78 5.00 299.32 2709.14
   02:52:36.867.24-Feb-2020 3375.51 4203.64 55.78 5.00 299.52 2709.14
   02:52:37.067.24-Feb-2020 3375.51 4203.64 55.78 5.00 299.72 2709.14
   02:52:37.267.24-Feb-2020 3375.51 4203.62 55.78 5.00 299.92 2709.14
   02:52:37.467.24-Feb-2020 3375.51 4203.56 55.78 5.00 300.12 2709.14
   02:52:37.668.24-Feb-2020 3375.51 4203.56 55.78 5.00 300.32 2709.14
   02:52:37.868.24-Feb-2020 3375.51 4203.69 55.78 5.00 300.52 2709.14
   02:52:38.068.24-Feb-2020 3375.51 4203.69 55.78 5.00 300.72 2709.14
   02:52:38.268.24-Feb-2020 3375.51 4203.55 55.78 5.00 300.92 2709.14
   02:52:38.468.24-Feb-2020 3375.51 4203.66 55.78 5.00 301.12 2709.14
   02:52:38.668.24-Feb-2020 3375.51 4203.63 55.78 5.00 301.32 2709.14
   02:52:38.868.24-Feb-2020 3375.51 4203.54 55.78 5.00 301.52 2709.14
   02:52:39.068.24-Feb-2020 3375.51 4203.60 55.78 5.00 301.72 2709.14
   02:52:39.268.24-Feb-2020 3375.51 4203.60 55.78 5.00 301.92 2709.14
   02:52:39.468.24-Feb-2020 3375.51 4203.63 55.78 5.00 302.12 2709.14
   02:52:39.668.24-Feb-2020 3375.51 4203.63 55.78 5.00 302.32 2709.14
   02:52:39.868.24-Feb-2020 3375.51 4203.58 55.78 5.00 302.52 2709.14
   02:52:40.069.24-Feb-2020 3375.51 4203.60 55.78 5.00 302.72 2709.14
   02:52:40.269.24-Feb-2020 3375.51 4203.63 55.78 5.00 302.92 2709.14
   02:52:40.469.24-Feb-2020 3375.51 4203.62 55.78 5.00 303.12 2709.14
   02:52:40.669.24-Feb-2020 3375.51 4203.62 55.78 5.00 303.32 2709.14
   02:52:40.869.24-Feb-2020 3375.51 4203.16 55.78 5.00 303.52 2709.14
   02:52:41.069.24-Feb-2020 3375.51 4204.06 55.78 5.00 303.72 2709.14
   02:52:41.269.24-Feb-2020 3375.51 4203.59 55.78 5.00 303.92 2709.14
   02:52:41.469.24-Feb-2020 3375.51 4203.62 55.78 5.00 304.12 2709.14
   02:52:41.669.24-Feb-2020 3375.51 4203.57 55.78 5.00 304.32 2709.14
   02:52:41.869.24-Feb-2020 3375.51 4203.58 55.78 5.00 304.52 2709.14
   02:52:42.069.24-Feb-2020 3375.51 4203.62 55.78 5.00 304.72 2709.14
   02:52:42.269.24-Feb-2020 3375.51 4203.76 55.78 5.00 304.92 2709.14
   02:52:42.469.24-Feb-2020 3375.51 4203.55 55.78 5.00 305.12 2709.14
   02:52:42.670.24-Feb-2020 3375.51 4203.55 55.78 5.00 305.32 2709.14
   02:52:42.870.24-Feb-2020 3375.51 4203.62 55.78 5.00 305.52 2709.14
   02:52:43.070.24-Feb-2020 3375.51 4203.20 55.78 5.00 305.72 2709.14
   02:52:43.270.24-Feb-2020 3375.51 4204.11 55.78 5.00 305.92 2709.14
   02:52:43.470.24-Feb-2020 3375.51 4203.62 55.78 5.00 306.12 2709.14
   02:52:43.670.24-Feb-2020 3375.51 4203.69 55.78 5.00 306.32 2709.14
   02:52:43.870.24-Feb-2020 3375.51 4203.60 55.78 5.00 306.52 2709.14
   02:52:44.070.24-Feb-2020 3375.51 4203.08 55.78 5.00 306.72 2709.14
   02:52:44.270.24-Feb-2020 3375.51 4204.08 55.78 5.00 306.92 2709.14
   02:52:44.470.24-Feb-2020 3375.51 4203.82 55.78 5.00 307.12 2709.14
   02:52:44.670.24-Feb-2020 3375.51 4203.82 55.78 5.00 307.32 2709.14
   02:52:44.870.24-Feb-2020 3375.51 4203.61 55.78 5.00 307.52 2709.14
   02:52:45.071.24-Feb-2020 3375.51 4203.65 55.78 5.00 307.72 2709.14
   02:52:45.271.24-Feb-2020 3375.51 4203.60 55.78 5.00 307.92 2709.14
   02:52:45.471.24-Feb-2020 3375.51 4203.61 55.78 5.00 308.12 2709.14
   02:52:45.671.24-Feb-2020 3375.51 4203.61 55.78 5.00 308.32 2709.14
   02:52:45.871.24-Feb-2020 3375.51 4203.60 55.78 5.00 308.52 2709.14
   02:52:46.071.24-Feb-2020 3375.51 4203.63 55.78 5.00 308.72 2709.14
   02:52:46.271.24-Feb-2020 3375.51 4203.60 55.78 5.00 308.92 2709.14
   02:52:46.471.24-Feb-2020 3375.51 4203.61 55.78 5.00 309.12 2709.14
   02:52:46.671.24-Feb-2020 3375.51 4203.61 55.78 5.00 309.32 2709.14
   02:52:46.871.24-Feb-2020 3375.51 4203.60 55.78 5.00 309.52 2709.14
   02:52:47.071.24-Feb-2020 3375.51 4203.60 55.78 5.00 309.72 2709.14
   02:52:47.271.24-Feb-2020 3375.51 4203.58 55.78 5.00 309.92 2709.14
   02:52:47.471.24-Feb-2020 3375.51 4203.75 55.78 5.00 310.12 2709.14
   02:52:47.672.24-Feb-2020 3375.51 4203.75 55.78 5.00 310.32 2709.14
   02:52:47.872.24-Feb-2020 3375.51 4203.57 55.78 5.00 310.52 2709.14
   02:52:48.072.24-Feb-2020 3375.51 4203.63 55.78 5.00 310.72 2709.14
   02:52:48.272.24-Feb-2020 3375.51 4203.56 55.78 5.00 310.92 2709.14
   02:52:48.472.24-Feb-2020 3375.51 4203.55 55.78 5.00 311.12 2709.14
   02:52:48.672.24-Feb-2020 3375.51 4203.55 55.78 5.00 311.32 2709.14
   02:52:48.872.24-Feb-2020 3375.51 4203.61 55.78 5.00 311.52 2709.14
   02:52:49.072.24-Feb-2020 3375.51 4203.60 55.78 5.00 311.72 2709.14
   02:52:49.272.24-Feb-2020 3375.51 4203.61 55.78 5.00 311.92 2709.14
   02:52:49.472.24-Feb-2020 3375.51 4203.55 55.78 5.00 312.12 2709.14
   02:52:49.672.24-Feb-2020 3375.51 4203.55 55.78 5.00 312.32 2709.14
   02:52:49.872.24-Feb-2020 3375.51 4203.62 55.78 5.00 312.53 2709.14
   02:52:50.073.24-Feb-2020 3375.51 4203.60 55.78 5.00 312.73 2709.14
   02:52:50.273.24-Feb-2020 3375.51 4203.59 55.78 5.00 312.93 2709.14
   02:52:50.473.24-Feb-2020 3375.51 4203.07 55.77 5.00 313.13 2709.14
   02:52:50.673.24-Feb-2020 3375.51 4203.07 55.77 5.00 313.33 2709.14
   02:52:50.873.24-Feb-2020 3375.51 4203.75 55.77 5.00 313.53 2709.14
   02:52:51.073.24-Feb-2020 3375.51 4203.50 55.77 5.00 313.73 2709.14
   02:52:51.273.24-Feb-2020 3375.51 4203.57 55.77 5.00 313.93 2709.14
   02:52:51.473.24-Feb-2020 3375.51 4203.22 55.77 5.00 314.13 2709.14
   02:52:51.673.24-Feb-2020 3375.51 4203.22 55.77 5.00 314.33 2709.14
   02:52:51.873.24-Feb-2020 3375.51 4203.57 55.77 5.00 314.53 2709.14
   02:52:52.073.24-Feb-2020 3375.51 4203.63 55.77 5.00 314.73 2709.14
   02:52:52.273.24-Feb-2020 3375.51 4203.57 55.77 5.00 314.93 2709.14
   02:52:52.473.24-Feb-2020 3375.51 4203.58 55.77 5.00 315.13 2709.14
   02:52:52.674.24-Feb-2020 3375.51 4203.58 55.77 5.00 315.33 2709.14
   02:52:52.874.24-Feb-2020 3375.51 4204.08 55.77 5.00 315.53 2709.14
   02:52:53.074.24-Feb-2020 3375.51 4203.80 55.77 5.00 315.73 2709.14
   02:52:53.274.24-Feb-2020 3375.51 4203.55 55.77 5.00 315.93 2709.14
   02:52:53.474.24-Feb-2020 3375.51 4203.56 55.77 5.00 316.13 2709.14
   02:52:53.674.24-Feb-2020 3375.51 4203.56 55.77 5.00 316.33 2709.14
   02:52:53.874.24-Feb-2020 3375.51 4203.72 55.77 5.00 316.53 2709.14
   02:52:54.074.24-Feb-2020 3375.51 4203.67 55.77 5.00 316.73 2709.14
   02:52:54.274.24-Feb-2020 3375.51 4203.51 55.77 5.00 316.93 2709.14
   02:52:54.474.24-Feb-2020 3375.51 4203.64 55.77 5.00 317.13 2709.14
   02:52:54.674.24-Feb-2020 3375.51 4203.64 55.77 5.00 317.33 2709.14
   02:52:54.874.24-Feb-2020 3375.51 4203.56 55.77 5.00 317.53 2709.14
   02:52:55.075.24-Feb-2020 3375.51 4203.61 55.77 5.00 317.73 2709.14
   02:52:55.275.24-Feb-2020 3375.51 4203.58 55.77 5.00 317.93 2709.14
   02:52:55.475.24-Feb-2020 3375.51 4203.59 55.77 5.00 318.13 2709.14
   02:52:55.675.24-Feb-2020 3375.51 4203.59 55.77 5.00 318.33 2709.14
   02:52:55.875.24-Feb-2020 3375.51 4203.60 55.77 5.00 318.53 2709.14
   02:52:56.075.24-Feb-2020 3375.51 4203.59 55.77 5.00 318.73 2709.14
   02:52:56.275.24-Feb-2020 3375.51 4203.64 55.77 5.00 318.93 2709.14
   02:52:56.475.24-Feb-2020 3375.51 4203.60 55.77 5.00 319.13 2709.14
   02:52:56.675.24-Feb-2020 3375.51 4203.60 55.77 5.00 319.33 2709.14
   02:52:56.875.24-Feb-2020 3375.51 4204.02 55.77 5.00 319.53 2709.14
   02:52:57.075.24-Feb-2020 3375.51 4203.57 55.77 5.00 319.73 2709.14
   02:52:57.275.24-Feb-2020 3375.51 4203.66 55.77 5.00 319.93 2709.14
   02:52:57.475.24-Feb-2020 3375.51 4203.57 55.77 5.00 320.13 2709.14
   02:52:57.676.24-Feb-2020 3375.51 4203.60 55.77 5.00 320.33 2709.14
   02:52:57.876.24-Feb-2020 3375.51 4203.53 55.77 5.00 320.53 2709.14
   02:52:58.076.24-Feb-2020 3375.51 4203.57 55.77 5.00 320.73 2709.14
   02:52:58.276.24-Feb-2020 3375.51 4203.58 55.77 5.00 320.93 2709.14
   02:52:58.476.24-Feb-2020 3375.51 4203.59 55.77 5.00 321.13 2709.14
   02:52:58.676.24-Feb-2020 3375.51 4203.59 55.77 5.00 321.33 2709.14
   02:52:58.876.24-Feb-2020 3375.51 4203.59 55.77 5.00 321.53 2709.14
   02:52:59.076.24-Feb-2020 3375.51 4203.53 55.77 5.00 321.73 2709.14
   02:52:59.276.24-Feb-2020 3375.51 4203.58 55.77 5.00 321.93 2709.14
