~Version Information
 VERS.                  2.0:   CWLS log ASCII Standard -VERSION 2.0
 WRAP.                   NO:   One line per depth step
~Well Information Block
#MNEM.UNIT     VALUE/NAME     DESCRIPTION
#---------     -----------    ---------------------------
 STRT.S             23:48:42 23-Feb-20: START TIME 23:48:42 23-Feb-20
 STOP.S             23:55:42 23-Feb-20: STOP TIME  23:55:42 23-Feb-20
 STEP.S                   0.00: STEP TIME
 NULL.                 -999.25: NULL VALUE
 JOBN.        AZ-XX-0905059384:  JOB TICKET NUMB
 PDAT.          Mean Sea Level:  PERMANENT DATUM
 UNIT.                     N/A:  LOGGING EQUIPMENT ID
 DCON.         Sperry Drilling:  DIRECTNL CONTR
 DOE .                     N/A:  DOE NUMBER
 RIG .             West Chirag:  RIG NAME
 WELL.                     J22:  WELL NAME
 MWDS.                    Baku:  MWD SHOP
 SRVC.     TURAN Drilling & Engineering:  CONTRACTOR
 FLD .                     ACG:  FIELD NAME
 CTRY.              Azerbaijan:  COUNTRY NAME
 PROV.                    Baku:  PROVINCE
 STAT.                    Baku:  STATE NAME
 REGN.                   EESSA:  REGION
 BASE.              Azerbaijan:  LOGGING EQUIPMENT BASE LOCATION
 UWI .                     N/A:  UNIQUE WELL IDENTIFIER
 API .                     N/A:  API NUMBER
 COMP.     BP Exploration (Caspian Sea) Ltd.:  COMPANY
 WTYP.                Deviated:  WELL TYPE
 MDS .        Operator Entered:  MAG DATA SOURCE
 SON .        AZ-XX-0905059384:  JOB NUMBER
 FTOP.          Formation Tops:  FORM TOPS DESC
 ILTD.               Lithology:  INTERP LTH DESC
 SVYD.                  Survey:  SURVEY DESC
 DMOD.             Drill Model:  DRILL MOD DESC
 HPTY.       Minimum Curvature:  HOLE POS TYPE
 NREF.                    Grid:  NORTH REFERENCE
 SPUD.               09-Jan-20:  SPUD DATE
 DATE.      14.04.48 07-Feb-20:  END TIME
 STIM.      07.00.00 09-Jan-20:  START TIME
 DMF .             Drill Floor:  DRILL MEAS FROM
 DFST.                        :  DIST FSL TEXT
 DFWT.                        :  DIST FWL TEXT
 CNTY.                        :  COUNTY
 LOC .                        :  LOCATION
 LMF .             Drill Floor:  LOG MEASURED FROM
 DEP .m                   0.00:  DEPTH
 VSNS.m                  10.28:  VERT SEC N/S
 VSEW.m                  -6.24:  VERT SEC E/W
 AGAP.m                  43.00:  AIR GAP
 APD .m                  43.00:  DEPTH ABOVE PD
 WDMS.m                 169.80:  WD ELEV
 EGL .m                   0.00:  GROUND ELEVATION
 EPD .m                   0.00:  ELEVATION
 AZTC.deg                 6.27:  AZM TOTAL CORR
 GRDC.deg                 0.15:  GRID CORRECTION
 MDEC.deg                 6.42:  MAGNETIC DECL
 MDIP.deg                59.56:  MAGNETIC DIP
 MFLD.nT              50277.00:  MAGNETIC FIELD
 GVFD.g                   1.00:  GRAVITY FIELD
 VSDR.deg               148.53:  VERT SEC DIRECT
 TDD .m                3473.01:  TOTAL DEPTH (DRILLER)
 SDEP.m                 364.00:  START DEPTH
 DFSL.m                   0.00:  DISTANCE FSL
 DFWL.m                   0.00:  DISTANCE FWL
 UTMY.m             4443793.85:  UTM Y
 UTMX.m              519005.06:  UTM X
 WHEW.m                  -6.24:  WELL HEAD E/W
 WHNS.m                  10.28:  WELL HEAD N/S
 LONG.deg                51.22:  LONGITUDE
 LATI.deg                40.13:  LATITUDE
 TVDS.m                  43.00:  TVDSS CORRECTN
 EKB .m                   0.00:  KB ELEVATION
 EDF .m                  43.00:  DF ELEVATION
 TDL .m                 254.00:  TOTAL DEPTH (LOGGER)
 MAGU.                 1850021:  MAGUTM CHECKSUM
 VSC .                       0:  VS TO CLOSURE
~Parameter Information Block
#MNEM.UNIT       Value        Description
#---------     -----------    ---------------------------
 AV  .mps                 0.50:  Ann Velocity 
 AVMX.mps                 1.40:  Max Ann Veloc 
 AZIF.deg               144.94:  Azm, Final 
 BHAT.        Rotary Steerable:  BHA Type 
 BROT.°/30m               0.23:  Build Rotating 
 BS  .in                  8.50:  Bit Size 
 BTPL.psig              264.00:  Bit Press Loss 
 CABU.                     Yes:  Customer Abuse 
 COMM.                     ¼ýd:  Run Comments 1 
 TCS .hr                 87.30:  Time Ciculation Ended 
 CV  .mps                 2.45:  Crit Velocity 
 CVMX.mps                 2.74:  Max Crit Veloc 
 DD1 .             Aziz Aliyev:  Direct Drillr 1 
 DDSV.               Geo-Pilot:  DD Service 
 DEFF.%                 100.00:  % Det Eff 
 DLRX.°/30m               1.22:  Dogleg Rot Max 
 DLSO.°/30m               0.52:  Dogleg Oriented 
 DLSX.°/30m               1.22:  Dogleg Str Max 
 DRET.      12.59.00 23-Feb-20:  Drill End Time 
 DRST.      09.44.00 18-Feb-20:  Drill Start Tim 
 DTIM.hr                 23.03:  Time Drilling 
 EDEP.m                3473.01:  End Depth 
 ENG1.         Almaz Almadatov:  Engineer 1 
 ENG2.         Dair Mahammadov:  Engineer 2 
 ENG3.          Nazrin Asgarli:  Engineer 3 
 ETIM.      10.33.36 26-Feb-20:  End Time 
 FLOI.gpm               480.00:  Flow In 
 FLON.gpm               300.00:  Flow In Min 
 FLOS.cptm                1.00:  Fluid Loss 
 FLOX.gpm               550.00:  Flow In Max 
 HFLO.                      No:  High Flow 
 HPRE.                      No:  High Pressure 
 HTEM.                      No:  High Temp 
 HYDO.m                   1.80:  Hydro Offset 
 IFIN.deg                74.42:  Inc, Final 
 IMAX.deg                76.14:  Inc Max 
 IMIN.deg                74.42:  Inc Min 
 IMND.m                3462.72:  Inc Min Depth 
 IMXD.m                3235.69:  Inc Max Depth 
 JARR.                      No:  Jarring 
 LETM.      12.59.00 23-Feb-20:  Log End Time 
 LOST.hr                     0:  Lost Rig Time 
 LSTM.      09.44.00 18-Feb-20:  Log Start Time 
 MDCL.ppm             45000.00:  Mud Chlorides 
 MDES.     Inversion Oil/Synthetic:  Mud Desc 
 DFD .sg                  1.38:  Mud Density 
 MDMN.sg                  1.34:  Dens Mud Min 
 MDMX.sg                  1.49:  Dens Mud Max 
 MOIL.                      67:  Run Mud Oil % 
 MOWR.                   67:33:  Run Mud OWR 
 MSND.                    0.12:  Run Mud Sand % 
 MSOL.                      22:  Run Mud Solids% 
 DFV .spqt               81.00:  Mud Viscosity 
 MWOD.in                  6.75:  MWD Tool OD 
 MWSI.                      No:  Serv Intrp, MWD 
 OTIM.hr                231.44:  Time Operating 
 PCON.          Wear / Scratch:  Pad Condition 
 PMAX.psia             3400.00:  Press Op, Max 
 PV  .cP                 55.00:  Mud PV 
 RUN .                     800:  Run Number 
 ROPA.m/hr               12.00:  ROP Avg 
 ROPN.m/hr                5.00:  ROP Min 
 ROPX.m/hr               28.00:  ROP Max 
 RPMA.rpm               120.00:  RPM Surface Avg 
 RPMN.rpm                40.00:  RPM Surface Min 
 RPMX.rpm               130.00:  RPM Surface Max 
 RRUN.                    0800:  Rig Run Number 
 RTIM.hr                 45.00:  Time Reaming 
 SAZI.deg               145.38:  Azm, Start 
 SDEP.m                3219.01:  Start Depth 
 SIDD.                      No:  Serv Intrp, DD 
 SINC.deg                75.11:  Inc, Start 
 SPPA.psig             2400.00:  SPP Avg 
 SPPN.psig             2320.00:  SPP Min 
 SPPX.psig             3200.00:  SPP Max 
 STIM.      15.15.00 17-Feb-20:  Start Time 
 SVCS.                 DD, MWD:  Services 
 SVER.                    9.20:  Sperry Version 
 TDAT.m                 254.00:  Tot Depth Attmp 
 TDDF.                      No:  Trip for DD 
 TDLG.m                 254.00:  Tot Depth Loggd 
 TFF .                      No:  Trip for Fail 
 TQAA.f-kp               13.00:  Torque Abs Avg 
 TQAN.f-kp                7.00:  Torque Abs Min 
 TQAX.f-kp               15.00:  Torque Abs Max 
 TRRT.°/30m               0.21:  Turn Rotating 
 MRT .                  EWR-M5:  Maximum Recorded Temperature 
 TTMX.degC               64.00:  Max Tool Temp 
 VS01.                90586516:  Virtual Str1 SN 
 VS02.                90513691:  Virtual Str2 SN 
 VS03.                90586523:  Virtual Str3 SN 
 VS04.                90586520:  Virtual Str4 SN 
 VS05.                90590507:  Virtual Str5 SN 
 WBMN.klb                12.00:  WOB Min 
 WITN.           Rufat Babayev:  Customer Rep 2 
 WITN.         Alistair Sprott:  Customer Rep 
 WOBA.klb                18.00:  WOB Avg 
 WOBX.klb                30.00:  WOB Max 
 YP  .lhf2               41.00:  Yield Point 
~Curve Information Block
#MNEM.UNIT                 API CODE     Curve Description
#---------               -----------    ---------------------------
 TIME.HHMMSS            00 000 000 000:  GT Time & Date
 GTDEPTH.m              00 000 000 000:  GT Depth
 GTPQH.psia             00 000 000 000:  GT HR Quartz Pressure
 GTTQ.degC              00 000 000 000:  GT Quartz Temperature
 GTTN.NONE              00 000 000 000:  GT Test Number
 GTET.sec               00 000 000 000:  GT Elapsed Test Time
 GTTVD.m                00 000 000 000:  GT True Vertical Depth
#Other Information
#
#WARRANTY: Halliburton will use its best efforts to furnish customers with 
#accurate information and interpretations that are part of, and incident to, the services 
#provided.  However, Halliburton cannot and does not warrant the accuracy 
#or correctness of such information and interpretations.  Under no circumstances should any 
#such information or interpretation be relied upon as the sole basis for any drilling, 
#completion, production, or financial decision or any procedure involving any risk to the 
#safety of any drilling venture, drilling rig or its crew or any other third party.  The 
#Customer has full responsibility for all drilling, completion and production operation.  
#Halliburton makes no representations or warranties, either expressed or 
#implied, including, but not limited to, the implied warranties of merchantability or fitness 
#for a particular purpose, with respect to the services rendered.  In no event will 
#Halliburton be liable for failure to obtain any particular results or for 
#any damages, including, but not limited to, indirect, special or consequential damages, 
#resulting from the use of any information or interpretation provided by Halliburton.
#
~A           TIME           GTDEPTH  GTPQH  GTTQ  GTTN  GTET   GTTVD  
# ...
   23:54:04.453.23-Feb-2020 3441.51 4209.05 56.59 1.00 322.04 2726.26
   23:54:04.653.23-Feb-2020 3441.51 4209.05 56.59 1.00 322.24 2726.26
   23:54:04.853.23-Feb-2020 3441.51 4209.50 56.59 1.00 322.44 2726.26
   23:54:05.053.23-Feb-2020 3441.51 4209.10 56.59 1.00 322.64 2726.26
   23:54:05.253.23-Feb-2020 3441.51 4209.09 56.59 1.00 322.84 2726.26
   23:54:05.453.23-Feb-2020 3441.51 4209.44 56.59 1.00 323.04 2726.26
   23:54:05.653.23-Feb-2020 3441.51 4209.44 56.59 1.00 323.24 2726.26
   23:54:05.853.23-Feb-2020 3441.51 4209.43 56.59 1.00 323.44 2726.26
   23:54:06.053.23-Feb-2020 3441.51 4208.88 56.59 1.00 323.64 2726.26
   23:54:06.253.23-Feb-2020 3441.51 4209.23 56.59 1.00 323.84 2726.26
   23:54:06.453.23-Feb-2020 3441.51 4209.08 56.59 1.00 324.04 2726.26
   23:54:06.653.23-Feb-2020 3441.51 4209.08 56.59 1.00 324.24 2726.26
   23:54:06.854.23-Feb-2020 3441.51 4209.44 56.59 1.00 324.44 2726.26
   23:54:07.054.23-Feb-2020 3441.51 4208.94 56.59 1.00 324.64 2726.26
   23:54:07.254.23-Feb-2020 3441.51 4209.24 56.59 1.00 324.84 2726.26
   23:54:07.454.23-Feb-2020 3441.51 4208.93 56.59 1.00 325.04 2726.26
   23:54:07.654.23-Feb-2020 3441.51 4208.93 56.59 1.00 325.24 2726.26
   23:54:07.854.23-Feb-2020 3441.51 4209.35 56.59 1.00 325.44 2726.26
   23:54:08.054.23-Feb-2020 3441.51 4209.16 56.59 1.00 325.64 2726.26
   23:54:08.254.23-Feb-2020 3441.51 4209.07 56.59 1.00 325.84 2726.26
   23:54:08.454.23-Feb-2020 3441.51 4209.17 56.59 1.00 326.04 2726.26
   23:54:08.654.23-Feb-2020 3441.51 4209.17 56.59 1.00 326.24 2726.26
   23:54:08.854.23-Feb-2020 3441.51 4209.14 56.59 1.00 326.44 2726.26
   23:54:09.054.23-Feb-2020 3441.51 4209.09 56.59 1.00 326.64 2726.26
   23:54:09.254.23-Feb-2020 3441.51 4209.13 56.59 1.00 326.84 2726.26
   23:54:09.454.23-Feb-2020 3441.51 4209.14 56.59 1.00 327.04 2726.26
   23:54:09.654.23-Feb-2020 3441.51 4209.14 56.59 1.00 327.24 2726.26
   23:54:09.854.23-Feb-2020 3441.51 4209.12 56.59 1.00 327.44 2726.26
   23:54:10.054.23-Feb-2020 3441.51 4209.13 56.59 1.00 327.64 2726.26
   23:54:10.254.23-Feb-2020 3441.51 4209.12 56.59 1.00 327.84 2726.26
   23:54:10.454.23-Feb-2020 3441.51 4209.14 56.59 1.00 328.04 2726.26
   23:54:10.654.23-Feb-2020 3441.51 4209.14 56.59 1.00 328.24 2726.26
   23:54:10.854.23-Feb-2020 3441.51 4208.79 56.59 1.00 328.44 2726.26
   23:54:11.054.23-Feb-2020 3441.51 4209.39 56.59 1.00 328.64 2726.26
   23:54:11.254.23-Feb-2020 3441.51 4208.96 56.59 1.00 328.84 2726.26
   23:54:11.454.23-Feb-2020 3441.51 4209.20 56.59 1.00 329.04 2726.26
   23:54:11.654.23-Feb-2020 3441.51 4209.20 56.59 1.00 329.24 2726.26
   23:54:11.854.23-Feb-2020 3441.51 4209.11 56.59 1.00 329.44 2726.26
   23:54:12.054.23-Feb-2020 3441.51 4209.12 56.59 1.00 329.64 2726.26
   23:54:12.254.23-Feb-2020 3441.51 4209.12 56.59 1.00 329.84 2726.26
   23:54:12.454.23-Feb-2020 3441.51 4209.11 56.59 1.00 330.04 2726.26
   23:54:12.654.23-Feb-2020 3441.51 4209.15 56.59 1.00 330.24 2726.26
   23:54:12.854.23-Feb-2020 3441.51 4209.10 56.59 1.00 330.44 2726.26
   23:54:13.054.23-Feb-2020 3441.51 4209.12 56.59 1.00 330.64 2726.26
   23:54:13.254.23-Feb-2020 3441.51 4209.08 56.59 1.00 330.84 2726.26
   23:54:13.454.23-Feb-2020 3441.51 4209.15 56.59 1.00 331.04 2726.26
   23:54:13.654.23-Feb-2020 3441.51 4209.15 56.59 1.00 331.24 2726.26
   23:54:13.854.23-Feb-2020 3441.51 4209.04 56.59 1.00 331.44 2726.26
   23:54:14.054.23-Feb-2020 3441.51 4208.93 56.59 1.00 331.64 2726.26
   23:54:14.254.23-Feb-2020 3441.51 4209.48 56.59 1.00 331.84 2726.26
   23:54:14.454.23-Feb-2020 3441.51 4209.12 56.59 1.00 332.04 2726.26
   23:54:14.654.23-Feb-2020 3441.51 4209.12 56.59 1.00 332.24 2726.26
   23:54:14.854.23-Feb-2020 3441.51 4209.44 56.59 1.00 332.44 2726.26
   23:54:15.054.23-Feb-2020 3441.51 4208.78 56.59 1.00 332.64 2726.26
   23:54:15.254.23-Feb-2020 3441.51 4209.44 56.59 1.00 332.84 2726.26
   23:54:15.454.23-Feb-2020 3441.51 4208.87 56.59 1.00 333.04 2726.26
   23:54:15.655.23-Feb-2020 3441.51 4209.23 56.59 1.00 333.24 2726.26
   23:54:15.855.23-Feb-2020 3441.51 4209.07 56.59 1.00 333.44 2726.26
   23:54:16.055.23-Feb-2020 3441.51 4209.05 56.59 1.00 333.64 2726.26
   23:54:16.255.23-Feb-2020 3441.51 4209.43 56.59 1.00 333.84 2726.26
   23:54:16.455.23-Feb-2020 3441.51 4208.93 56.59 1.00 334.04 2726.26
   23:54:16.655.23-Feb-2020 3441.51 4209.24 56.59 1.00 334.24 2726.26
   23:54:16.855.23-Feb-2020 3441.51 4208.91 56.59 1.00 334.44 2726.26
   23:54:17.055.23-Feb-2020 3441.51 4209.03 56.59 1.00 334.64 2726.26
   23:54:17.255.23-Feb-2020 3441.51 4209.36 56.59 1.00 334.84 2726.26
   23:54:17.455.23-Feb-2020 3441.51 4209.15 56.59 1.00 335.04 2726.26
   23:54:17.655.23-Feb-2020 3441.51 4209.15 56.59 1.00 335.24 2726.26
   23:54:17.855.23-Feb-2020 3441.51 4209.17 56.59 1.00 335.44 2726.26
   23:54:18.055.23-Feb-2020 3441.51 4209.09 56.59 1.00 335.64 2726.26
   23:54:18.255.23-Feb-2020 3441.51 4209.13 56.59 1.00 335.84 2726.26
   23:54:18.455.23-Feb-2020 3441.51 4209.09 56.59 1.00 336.04 2726.26
   23:54:18.655.23-Feb-2020 3441.51 4209.09 56.59 1.00 336.24 2726.26
   23:54:18.855.23-Feb-2020 3441.51 4209.13 56.59 1.00 336.44 2726.26
   23:54:19.055.23-Feb-2020 3441.51 4209.10 56.59 1.00 336.64 2726.26
   23:54:19.255.23-Feb-2020 3441.51 4209.12 56.59 1.00 336.84 2726.26
   23:54:19.455.23-Feb-2020 3441.51 4209.13 56.59 1.00 337.04 2726.26
   23:54:19.655.23-Feb-2020 3441.51 4209.11 56.59 1.00 337.24 2726.26
   23:54:19.855.23-Feb-2020 3441.51 4209.13 56.59 1.00 337.44 2726.26
   23:54:20.055.23-Feb-2020 3441.51 4209.39 56.59 1.00 337.64 2726.26
   23:54:20.255.23-Feb-2020 3441.51 4208.78 56.59 1.00 337.84 2726.26
   23:54:20.455.23-Feb-2020 3441.51 4209.38 56.58 1.00 338.04 2726.26
   23:54:20.655.23-Feb-2020 3441.51 4208.96 56.59 1.00 338.24 2726.26
   23:54:20.855.23-Feb-2020 3441.51 4209.19 56.59 1.00 338.44 2726.26
   23:54:21.055.23-Feb-2020 3441.51 4209.08 56.59 1.00 338.64 2726.26
   23:54:21.255.23-Feb-2020 3441.51 4209.10 56.59 1.00 338.84 2726.26
   23:54:21.455.23-Feb-2020 3441.51 4209.11 56.58 1.00 339.04 2726.26
   23:54:21.655.23-Feb-2020 3441.51 4209.11 56.58 1.00 339.24 2726.26
   23:54:21.855.23-Feb-2020 3441.51 4209.11 56.59 1.00 339.44 2726.26
   23:54:22.055.23-Feb-2020 3441.51 4209.15 56.58 1.00 339.64 2726.26
   23:54:22.255.23-Feb-2020 3441.51 4209.10 56.59 1.00 339.84 2726.26
   23:54:22.455.23-Feb-2020 3441.51 4209.12 56.58 1.00 340.04 2726.26
   23:54:22.655.23-Feb-2020 3441.51 4209.12 56.58 1.00 340.24 2726.26
   23:54:22.855.23-Feb-2020 3441.51 4209.15 56.59 1.00 340.44 2726.26
   23:54:23.055.23-Feb-2020 3441.51 4209.12 56.58 1.00 340.64 2726.26
   23:54:23.255.23-Feb-2020 3441.51 4209.03 56.58 1.00 340.84 2726.26
   23:54:23.455.23-Feb-2020 3441.51 4208.91 56.59 1.00 341.04 2726.26
   23:54:23.655.23-Feb-2020 3441.51 4208.91 56.59 1.00 341.24 2726.26
   23:54:23.855.23-Feb-2020 3441.51 4209.11 56.58 1.00 341.44 2726.26
   23:54:24.055.23-Feb-2020 3441.51 4209.07 56.58 1.00 341.64 2726.26
   23:54:24.256.23-Feb-2020 3441.51 4209.43 56.59 1.00 341.84 2726.26
   23:54:24.456.23-Feb-2020 3441.51 4208.77 56.58 1.00 342.04 2726.26
   23:54:24.656.23-Feb-2020 3441.51 4208.77 56.58 1.00 342.24 2726.26
   23:54:24.856.23-Feb-2020 3441.51 4208.87 56.58 1.00 342.44 2726.26
   23:54:25.056.23-Feb-2020 3441.51 4209.23 56.58 1.00 342.64 2726.26
   23:54:25.256.23-Feb-2020 3441.51 4209.07 56.58 1.00 342.84 2726.26
   23:54:25.456.23-Feb-2020 3441.51 4209.06 56.58 1.00 343.04 2726.26
   23:54:25.656.23-Feb-2020 3441.51 4209.06 56.58 1.00 343.24 2726.26
   23:54:25.856.23-Feb-2020 3441.51 4208.92 56.58 1.00 343.44 2726.26
   23:54:26.056.23-Feb-2020 3441.51 4209.23 56.59 1.00 343.64 2726.26
   23:54:26.256.23-Feb-2020 3441.51 4208.92 56.58 1.00 343.84 2726.26
   23:54:26.456.23-Feb-2020 3441.51 4209.02 56.58 1.00 344.04 2726.26
   23:54:26.656.23-Feb-2020 3441.51 4209.02 56.58 1.00 344.24 2726.26
   23:54:26.856.23-Feb-2020 3441.51 4209.16 56.58 1.00 344.44 2726.26
   23:54:27.056.23-Feb-2020 3441.51 4209.06 56.58 1.00 344.64 2726.26
   23:54:27.256.23-Feb-2020 3441.51 4209.17 56.58 1.00 344.84 2726.26
