~Version Information
 VERS.                  2.0:   CWLS log ASCII Standard -VERSION 2.0
 WRAP.                   NO:   One line per depth step
~Well Information Block
#MNEM.UNIT     VALUE/NAME     DESCRIPTION
#---------     -----------    ---------------------------
 STRT.S             01:26:08 24-Feb-20: START TIME 01:26:08 24-Feb-20
 STOP.S             01:33:25 24-Feb-20: STOP TIME  01:33:25 24-Feb-20
 STEP.S                   0.00: STEP TIME
 NULL.                 -999.25: NULL VALUE
 JOBN.        AZ-XX-0905059384:  JOB TICKET NUMB
 PDAT.          Mean Sea Level:  PERMANENT DATUM
 UNIT.                     N/A:  LOGGING EQUIPMENT ID
 DCON.         Sperry Drilling:  DIRECTNL CONTR
 DOE .                     N/A:  DOE NUMBER
 RIG .             West Chirag:  RIG NAME
 WELL.                     J22:  WELL NAME
 MWDS.                    Baku:  MWD SHOP
 SRVC.     TURAN Drilling & Engineering:  CONTRACTOR
 FLD .                     ACG:  FIELD NAME
 CTRY.              Azerbaijan:  COUNTRY NAME
 PROV.                    Baku:  PROVINCE
 STAT.                    Baku:  STATE NAME
 REGN.                   EESSA:  REGION
 BASE.              Azerbaijan:  LOGGING EQUIPMENT BASE LOCATION
 UWI .                     N/A:  UNIQUE WELL IDENTIFIER
 API .                     N/A:  API NUMBER
 COMP.     BP Exploration (Caspian Sea) Ltd.:  COMPANY
 WTYP.                Deviated:  WELL TYPE
 MDS .        Operator Entered:  MAG DATA SOURCE
 SON .        AZ-XX-0905059384:  JOB NUMBER
 FTOP.          Formation Tops:  FORM TOPS DESC
 ILTD.               Lithology:  INTERP LTH DESC
 SVYD.                  Survey:  SURVEY DESC
 DMOD.             Drill Model:  DRILL MOD DESC
 HPTY.       Minimum Curvature:  HOLE POS TYPE
 NREF.                    Grid:  NORTH REFERENCE
 SPUD.               09-Jan-20:  SPUD DATE
 DATE.      14.04.48 07-Feb-20:  END TIME
 STIM.      07.00.00 09-Jan-20:  START TIME
 DMF .             Drill Floor:  DRILL MEAS FROM
 DFST.                        :  DIST FSL TEXT
 DFWT.                        :  DIST FWL TEXT
 CNTY.                        :  COUNTY
 LOC .                        :  LOCATION
 LMF .             Drill Floor:  LOG MEASURED FROM
 DEP .m                   0.00:  DEPTH
 VSNS.m                  10.28:  VERT SEC N/S
 VSEW.m                  -6.24:  VERT SEC E/W
 AGAP.m                  43.00:  AIR GAP
 APD .m                  43.00:  DEPTH ABOVE PD
 WDMS.m                 169.80:  WD ELEV
 EGL .m                   0.00:  GROUND ELEVATION
 EPD .m                   0.00:  ELEVATION
 AZTC.deg                 6.27:  AZM TOTAL CORR
 GRDC.deg                 0.15:  GRID CORRECTION
 MDEC.deg                 6.42:  MAGNETIC DECL
 MDIP.deg                59.56:  MAGNETIC DIP
 MFLD.nT              50277.00:  MAGNETIC FIELD
 GVFD.g                   1.00:  GRAVITY FIELD
 VSDR.deg               148.53:  VERT SEC DIRECT
 TDD .m                3473.01:  TOTAL DEPTH (DRILLER)
 SDEP.m                 364.00:  START DEPTH
 DFSL.m                   0.00:  DISTANCE FSL
 DFWL.m                   0.00:  DISTANCE FWL
 UTMY.m             4443793.85:  UTM Y
 UTMX.m              519005.06:  UTM X
 WHEW.m                  -6.24:  WELL HEAD E/W
 WHNS.m                  10.28:  WELL HEAD N/S
 LONG.deg                51.22:  LONGITUDE
 LATI.deg                40.13:  LATITUDE
 TVDS.m                  43.00:  TVDSS CORRECTN
 EKB .m                   0.00:  KB ELEVATION
 EDF .m                  43.00:  DF ELEVATION
 TDL .m                 254.00:  TOTAL DEPTH (LOGGER)
 MAGU.                 1850021:  MAGUTM CHECKSUM
 VSC .                       0:  VS TO CLOSURE
~Parameter Information Block
#MNEM.UNIT       Value        Description
#---------     -----------    ---------------------------
 AV  .mps                 0.50:  Ann Velocity 
 AVMX.mps                 1.40:  Max Ann Veloc 
 AZIF.deg               144.94:  Azm, Final 
 BHAT.        Rotary Steerable:  BHA Type 
 BROT.°/30m               0.23:  Build Rotating 
 BS  .in                  8.50:  Bit Size 
 BTPL.psig              264.00:  Bit Press Loss 
 CABU.                     Yes:  Customer Abuse 
 TCS .hr                 87.30:  Time Ciculation Ended 
 CV  .mps                 2.45:  Crit Velocity 
 CVMX.mps                 2.74:  Max Crit Veloc 
 DD1 .             Aziz Aliyev:  Direct Drillr 1 
 DDSV.               Geo-Pilot:  DD Service 
 DEFF.%                 100.00:  % Det Eff 
 DLRX.°/30m               1.22:  Dogleg Rot Max 
 DLSO.°/30m               0.52:  Dogleg Oriented 
 DLSX.°/30m               1.22:  Dogleg Str Max 
 DRET.      12.59.00 23-Feb-20:  Drill End Time 
 DRST.      09.44.00 18-Feb-20:  Drill Start Tim 
 DTIM.hr                 23.03:  Time Drilling 
 EDEP.m                3473.01:  End Depth 
 ENG1.         Almaz Almadatov:  Engineer 1 
 ENG2.         Dair Mahammadov:  Engineer 2 
 ENG3.          Nazrin Asgarli:  Engineer 3 
 ETIM.      10.33.36 26-Feb-20:  End Time 
 FLOI.gpm               480.00:  Flow In 
 FLON.gpm               300.00:  Flow In Min 
 FLOS.cptm                1.00:  Fluid Loss 
 FLOX.gpm               550.00:  Flow In Max 
 HFLO.                      No:  High Flow 
 HPRE.                      No:  High Pressure 
 HTEM.                      No:  High Temp 
 HYDO.m                   1.80:  Hydro Offset 
 IFIN.deg                74.42:  Inc, Final 
 IMAX.deg                76.14:  Inc Max 
 IMIN.deg                74.42:  Inc Min 
 IMND.m                3462.72:  Inc Min Depth 
 IMXD.m                3235.69:  Inc Max Depth 
 JARR.                      No:  Jarring 
 LETM.      12.59.00 23-Feb-20:  Log End Time 
 LOST.hr                     0:  Lost Rig Time 
 LSTM.      09.44.00 18-Feb-20:  Log Start Time 
 MDCL.ppm             45000.00:  Mud Chlorides 
 MDES.     Inversion Oil/Synthetic:  Mud Desc 
 DFD .sg                  1.38:  Mud Density 
 MDMN.sg                  1.34:  Dens Mud Min 
 MDMX.sg                  1.49:  Dens Mud Max 
 MOIL.                      67:  Run Mud Oil % 
 MOWR.                   67:33:  Run Mud OWR 
 MSND.                    0.12:  Run Mud Sand % 
 MSOL.                      22:  Run Mud Solids% 
 DFV .spqt               81.00:  Mud Viscosity 
 MWOD.in                  6.75:  MWD Tool OD 
 MWSI.                      No:  Serv Intrp, MWD 
 OTIM.hr                231.44:  Time Operating 
 PCON.          Wear / Scratch:  Pad Condition 
 PMAX.psia             3400.00:  Press Op, Max 
 PV  .cP                 55.00:  Mud PV 
 RUN .                     800:  Run Number 
 ROPA.m/hr               12.00:  ROP Avg 
 ROPN.m/hr                5.00:  ROP Min 
 ROPX.m/hr               28.00:  ROP Max 
 RPMA.rpm               120.00:  RPM Surface Avg 
 RPMN.rpm                40.00:  RPM Surface Min 
 RPMX.rpm               130.00:  RPM Surface Max 
 RRUN.                    0800:  Rig Run Number 
 RTIM.hr                 45.00:  Time Reaming 
 SAZI.deg               145.38:  Azm, Start 
 SDEP.m                3219.01:  Start Depth 
 SIDD.                      No:  Serv Intrp, DD 
 SINC.deg                75.11:  Inc, Start 
 SPPA.psig             2400.00:  SPP Avg 
 SPPN.psig             2320.00:  SPP Min 
 SPPX.psig             3200.00:  SPP Max 
 STIM.      15.15.00 17-Feb-20:  Start Time 
 SVCS.                 DD, MWD:  Services 
 SVER.                    9.20:  Sperry Version 
 TDAT.m                 254.00:  Tot Depth Attmp 
 TDDF.                      No:  Trip for DD 
 TDLG.m                 254.00:  Tot Depth Loggd 
 TFF .                      No:  Trip for Fail 
 TQAA.f-kp               13.00:  Torque Abs Avg 
 TQAN.f-kp                7.00:  Torque Abs Min 
 TQAX.f-kp               15.00:  Torque Abs Max 
 TRRT.°/30m               0.21:  Turn Rotating 
 MRT .                  EWR-M5:  Maximum Recorded Temperature 
 TTMX.degC               64.00:  Max Tool Temp 
 VS01.                90586516:  Virtual Str1 SN 
 VS02.                90513691:  Virtual Str2 SN 
 VS03.                90586523:  Virtual Str3 SN 
 VS04.                90586520:  Virtual Str4 SN 
 VS05.                90590507:  Virtual Str5 SN 
 WBMN.klb                12.00:  WOB Min 
 WITN.           Rufat Babayev:  Customer Rep 2 
 WITN.         Alistair Sprott:  Customer Rep 
 WOBA.klb                18.00:  WOB Avg 
 WOBX.klb                30.00:  WOB Max 
 YP  .lhf2               41.00:  Yield Point 
~Curve Information Block
#MNEM.UNIT                 API CODE     Curve Description
#---------               -----------    ---------------------------
 TIME.HHMMSS            00 000 000 000:  GT Time & Date
 GTDEPTH.m              00 000 000 000:  GT Depth
 GTPQH.psia             00 000 000 000:  GT HR Quartz Pressure
 GTTQ.degC              00 000 000 000:  GT Quartz Temperature
 GTTN.NONE              00 000 000 000:  GT Test Number
 GTET.sec               00 000 000 000:  GT Elapsed Test Time
 GTTVD.m                00 000 000 000:  GT True Vertical Depth
#Other Information
#
#WARRANTY: Halliburton will use its best efforts to furnish customers with 
#accurate information and interpretations that are part of, and incident to, the services 
#provided.  However, Halliburton cannot and does not warrant the accuracy 
#or correctness of such information and interpretations.  Under no circumstances should any 
#such information or interpretation be relied upon as the sole basis for any drilling, 
#completion, production, or financial decision or any procedure involving any risk to the 
#safety of any drilling venture, drilling rig or its crew or any other third party.  The 
#Customer has full responsibility for all drilling, completion and production operation.  
#Halliburton makes no representations or warranties, either expressed or 
#implied, including, but not limited to, the implied warranties of merchantability or fitness 
#for a particular purpose, with respect to the services rendered.  In no event will 
#Halliburton be liable for failure to obtain any particular results or for 
#any damages, including, but not limited to, indirect, special or consequential damages, 
#resulting from the use of any information or interpretation provided by Halliburton.
#
~A           TIME           GTDEPTH  GTPQH  GTTQ  GTTN  GTET   GTTVD  
# ...
   01:31:30.228.24-Feb-2020 3405.01 4215.19 56.81 3.00 322.07 2716.73
   01:31:30.429.24-Feb-2020 3405.01 4215.19 56.81 3.00 322.27 2716.73
   01:31:30.629.24-Feb-2020 3405.01 4215.15 56.80 3.00 322.47 2716.73
   01:31:30.829.24-Feb-2020 3405.01 4215.16 56.80 3.00 322.67 2716.73
   01:31:31.029.24-Feb-2020 3405.01 4215.37 56.80 3.00 322.87 2716.73
   01:31:31.229.24-Feb-2020 3405.01 4215.03 56.80 3.00 323.07 2716.73
   01:31:31.429.24-Feb-2020 3405.01 4215.03 56.80 3.00 323.27 2716.73
   01:31:31.629.24-Feb-2020 3405.01 4215.19 56.80 3.00 323.47 2716.73
   01:31:31.829.24-Feb-2020 3405.01 4215.19 56.80 3.00 323.67 2716.73
   01:31:32.029.24-Feb-2020 3405.01 4215.02 56.80 3.00 323.87 2716.73
   01:31:32.229.24-Feb-2020 3405.01 4215.35 56.80 3.00 324.07 2716.73
   01:31:32.429.24-Feb-2020 3405.01 4215.35 56.80 3.00 324.27 2716.73
   01:31:32.629.24-Feb-2020 3405.01 4215.13 56.80 3.00 324.47 2716.73
   01:31:32.829.24-Feb-2020 3405.01 4215.15 56.80 3.00 324.67 2716.73
   01:31:33.029.24-Feb-2020 3405.01 4215.15 56.80 3.00 324.87 2716.73
   01:31:33.229.24-Feb-2020 3405.01 4215.17 56.80 3.00 325.07 2716.73
   01:31:33.429.24-Feb-2020 3405.01 4215.17 56.80 3.00 325.27 2716.73
   01:31:33.629.24-Feb-2020 3405.01 4215.16 56.80 3.00 325.47 2716.73
   01:31:33.829.24-Feb-2020 3405.01 4215.17 56.80 3.00 325.67 2716.73
   01:31:34.029.24-Feb-2020 3405.01 4215.17 56.80 3.00 325.87 2716.73
   01:31:34.229.24-Feb-2020 3405.01 4215.16 56.80 3.00 326.07 2716.73
   01:31:34.429.24-Feb-2020 3405.01 4215.16 56.80 3.00 326.27 2716.73
   01:31:34.629.24-Feb-2020 3405.01 4215.18 56.80 3.00 326.47 2716.73
   01:31:34.829.24-Feb-2020 3405.01 4215.19 56.80 3.00 326.67 2716.73
   01:31:35.029.24-Feb-2020 3405.01 4215.24 56.80 3.00 326.87 2716.73
   01:31:35.230.24-Feb-2020 3405.01 4215.09 56.80 3.00 327.07 2716.73
   01:31:35.430.24-Feb-2020 3405.01 4215.11 56.80 3.00 327.27 2716.73
   01:31:35.630.24-Feb-2020 3405.01 4215.15 56.80 3.00 327.47 2716.73
   01:31:35.830.24-Feb-2020 3405.01 4215.21 56.80 3.00 327.67 2716.73
   01:31:36.030.24-Feb-2020 3405.01 4215.15 56.80 3.00 327.87 2716.73
   01:31:36.230.24-Feb-2020 3405.01 4215.13 56.80 3.00 328.07 2716.73
   01:31:36.430.24-Feb-2020 3405.01 4215.17 56.80 3.00 328.27 2716.73
   01:31:36.630.24-Feb-2020 3405.01 4215.16 56.80 3.00 328.47 2716.73
   01:31:36.830.24-Feb-2020 3405.01 4215.17 56.80 3.00 328.67 2716.73
   01:31:37.030.24-Feb-2020 3405.01 4215.17 56.80 3.00 328.87 2716.73
   01:31:37.230.24-Feb-2020 3405.01 4215.15 56.80 3.00 329.07 2716.73
   01:31:37.430.24-Feb-2020 3405.01 4215.15 56.80 3.00 329.27 2716.73
   01:31:37.630.24-Feb-2020 3405.01 4215.15 56.80 3.00 329.47 2716.73
   01:31:37.830.24-Feb-2020 3405.01 4215.18 56.80 3.00 329.67 2716.73
   01:31:38.030.24-Feb-2020 3405.01 4215.15 56.80 3.00 329.87 2716.73
   01:31:38.230.24-Feb-2020 3405.01 4215.12 56.80 3.00 330.07 2716.73
   01:31:38.430.24-Feb-2020 3405.01 4215.12 56.80 3.00 330.27 2716.73
   01:31:38.630.24-Feb-2020 3405.01 4215.38 56.80 3.00 330.47 2716.73
   01:31:38.830.24-Feb-2020 3405.01 4215.17 56.80 3.00 330.67 2716.73
   01:31:39.030.24-Feb-2020 3405.01 4215.12 56.80 3.00 330.87 2716.73
   01:31:39.230.24-Feb-2020 3405.01 4214.89 56.80 3.00 331.07 2716.73
   01:31:39.430.24-Feb-2020 3405.01 4215.49 56.80 3.00 331.27 2716.73
   01:31:39.630.24-Feb-2020 3405.01 4215.19 56.80 3.00 331.47 2716.73
   01:31:39.830.24-Feb-2020 3405.01 4215.06 56.80 3.00 331.67 2716.73
   01:31:40.031.24-Feb-2020 3405.01 4215.17 56.80 3.00 331.87 2716.73
   01:31:40.231.24-Feb-2020 3405.01 4215.18 56.80 3.00 332.07 2716.73
   01:31:40.431.24-Feb-2020 3405.01 4215.18 56.80 3.00 332.27 2716.73
   01:31:40.631.24-Feb-2020 3405.01 4215.14 56.80 3.00 332.47 2716.73
   01:31:40.831.24-Feb-2020 3405.01 4215.01 56.80 3.00 332.67 2716.73
   01:31:41.031.24-Feb-2020 3405.01 4215.39 56.80 3.00 332.87 2716.73
   01:31:41.231.24-Feb-2020 3405.01 4215.18 56.80 3.00 333.07 2716.73
   01:31:41.431.24-Feb-2020 3405.01 4215.18 56.80 3.00 333.27 2716.73
   01:31:41.631.24-Feb-2020 3405.01 4215.49 56.80 3.00 333.47 2716.73
   01:31:41.831.24-Feb-2020 3405.01 4215.16 56.80 3.00 333.67 2716.73
   01:31:42.031.24-Feb-2020 3405.01 4215.07 56.80 3.00 333.87 2716.73
   01:31:42.231.24-Feb-2020 3405.01 4215.16 56.80 3.00 334.07 2716.73
   01:31:42.431.24-Feb-2020 3405.01 4215.16 56.80 3.00 334.27 2716.73
   01:31:42.631.24-Feb-2020 3405.01 4215.17 56.80 3.00 334.47 2716.73
   01:31:42.831.24-Feb-2020 3405.01 4215.15 56.80 3.00 334.67 2716.73
   01:31:43.031.24-Feb-2020 3405.01 4215.17 56.80 3.00 334.87 2716.73
   01:31:43.231.24-Feb-2020 3405.01 4215.16 56.80 3.00 335.07 2716.73
   01:31:43.431.24-Feb-2020 3405.01 4215.16 56.80 3.00 335.27 2716.73
   01:31:43.631.24-Feb-2020 3405.01 4215.17 56.80 3.00 335.47 2716.73
   01:31:43.831.24-Feb-2020 3405.01 4215.17 56.80 3.00 335.67 2716.73
   01:31:44.031.24-Feb-2020 3405.01 4215.17 56.80 3.00 335.87 2716.73
   01:31:44.231.24-Feb-2020 3405.01 4215.17 56.80 3.00 336.07 2716.73
   01:31:44.431.24-Feb-2020 3405.01 4215.17 56.80 3.00 336.27 2716.73
   01:31:44.631.24-Feb-2020 3405.01 4215.01 56.80 3.00 336.47 2716.73
   01:31:44.832.24-Feb-2020 3405.01 4215.07 56.80 3.00 336.67 2716.73
   01:31:45.032.24-Feb-2020 3405.01 4215.22 56.80 3.00 336.87 2716.73
   01:31:45.232.24-Feb-2020 3405.01 4215.20 56.80 3.00 337.07 2716.73
   01:31:45.432.24-Feb-2020 3405.01 4215.20 56.80 3.00 337.27 2716.73
   01:31:45.632.24-Feb-2020 3405.01 4215.12 56.79 3.00 337.47 2716.73
   01:31:45.832.24-Feb-2020 3405.01 4215.17 56.79 3.00 337.67 2716.73
   01:31:46.032.24-Feb-2020 3405.01 4215.18 56.79 3.00 337.87 2716.73
   01:31:46.232.24-Feb-2020 3405.01 4215.16 56.79 3.00 338.07 2716.73
   01:31:46.432.24-Feb-2020 3405.01 4215.16 56.79 3.00 338.27 2716.73
   01:31:46.632.24-Feb-2020 3405.01 4215.17 56.79 3.00 338.47 2716.73
   01:31:46.832.24-Feb-2020 3405.01 4215.17 56.79 3.00 338.67 2716.73
   01:31:47.032.24-Feb-2020 3405.01 4215.15 56.79 3.00 338.87 2716.73
   01:31:47.232.24-Feb-2020 3405.01 4215.17 56.79 3.00 339.07 2716.73
   01:31:47.432.24-Feb-2020 3405.01 4215.18 56.79 3.00 339.27 2716.73
   01:31:47.632.24-Feb-2020 3405.01 4215.16 56.79 3.00 339.47 2716.73
   01:31:47.832.24-Feb-2020 3405.01 4214.90 56.79 3.00 339.67 2716.73
   01:31:48.032.24-Feb-2020 3405.01 4215.51 56.79 3.00 339.87 2716.73
   01:31:48.232.24-Feb-2020 3405.01 4215.16 56.79 3.00 340.07 2716.73
   01:31:48.432.24-Feb-2020 3405.01 4215.16 56.79 3.00 340.27 2716.73
   01:31:48.632.24-Feb-2020 3405.01 4215.21 56.79 3.00 340.47 2716.73
   01:31:48.832.24-Feb-2020 3405.01 4215.25 56.79 3.00 340.67 2716.73
   01:31:49.032.24-Feb-2020 3405.01 4215.11 56.79 3.00 340.87 2716.73
   01:31:49.232.24-Feb-2020 3405.01 4215.10 56.79 3.00 341.07 2716.73
   01:31:49.432.24-Feb-2020 3405.01 4215.10 56.79 3.00 341.27 2716.73
   01:31:49.633.24-Feb-2020 3405.01 4215.22 56.79 3.00 341.47 2716.73
   01:31:49.833.24-Feb-2020 3405.01 4215.16 56.79 3.00 341.67 2716.73
   01:31:50.033.24-Feb-2020 3405.01 4215.15 56.79 3.00 341.87 2716.73
   01:31:50.233.24-Feb-2020 3405.01 4214.93 56.79 3.00 342.07 2716.73
   01:31:50.433.24-Feb-2020 3405.01 4214.93 56.79 3.00 342.27 2716.73
   01:31:50.633.24-Feb-2020 3405.01 4215.18 56.79 3.00 342.47 2716.73
   01:31:50.833.24-Feb-2020 3405.01 4215.07 56.79 3.00 342.67 2716.73
   01:31:51.033.24-Feb-2020 3405.01 4215.26 56.79 3.00 342.87 2716.73
   01:31:51.233.24-Feb-2020 3405.01 4215.13 56.79 3.00 343.07 2716.73
   01:31:51.433.24-Feb-2020 3405.01 4215.08 56.79 3.00 343.27 2716.73
   01:31:51.633.24-Feb-2020 3405.01 4215.16 56.79 3.00 343.47 2716.73
   01:31:51.833.24-Feb-2020 3405.01 4215.21 56.79 3.00 343.67 2716.73
   01:31:52.033.24-Feb-2020 3405.01 4215.15 56.79 3.00 343.87 2716.73
   01:31:52.233.24-Feb-2020 3405.01 4215.16 56.79 3.00 344.07 2716.73
   01:31:52.433.24-Feb-2020 3405.01 4215.16 56.79 3.00 344.27 2716.73
   01:31:52.633.24-Feb-2020 3405.01 4215.16 56.79 3.00 344.47 2716.73
   01:31:52.833.24-Feb-2020 3405.01 4215.17 56.79 3.00 344.67 2716.73
   01:31:53.033.24-Feb-2020 3405.01 4215.17 56.79 3.00 344.87 2716.73
