~Version Information
 VERS.                  2.0:   CWLS log ASCII Standard -VERSION 2.0
 WRAP.                   NO:   One line per depth step
~Well Information Block
#MNEM.UNIT     VALUE/NAME     DESCRIPTION
#---------     -----------    ---------------------------
 STRT.S             02:47:37 24-Feb-20: START TIME 02:47:37 24-Feb-20
 STOP.S             02:54:57 24-Feb-20: STOP TIME  02:54:57 24-Feb-20
 STEP.S                   0.00: STEP TIME
 NULL.                 -999.25: NULL VALUE
 JOBN.        AZ-XX-0905059384:  JOB TICKET NUMB
 PDAT.          Mean Sea Level:  PERMANENT DATUM
 UNIT.                     N/A:  LOGGING EQUIPMENT ID
 DCON.         Sperry Drilling:  DIRECTNL CONTR
 DOE .                     N/A:  DOE NUMBER
 RIG .             West Chirag:  RIG NAME
 WELL.                     J22:  WELL NAME
 MWDS.                    Baku:  MWD SHOP
 SRVC.     TURAN Drilling & Engineering:  CONTRACTOR
 FLD .                     ACG:  FIELD NAME
 CTRY.              Azerbaijan:  COUNTRY NAME
 PROV.                    Baku:  PROVINCE
 STAT.                    Baku:  STATE NAME
 REGN.                   EESSA:  REGION
 BASE.              Azerbaijan:  LOGGING EQUIPMENT BASE LOCATION
 UWI .                     N/A:  UNIQUE WELL IDENTIFIER
 API .                     N/A:  API NUMBER
 COMP.     BP Exploration (Caspian Sea) Ltd.:  COMPANY
 WTYP.                Deviated:  WELL TYPE
 MDS .        Operator Entered:  MAG DATA SOURCE
 SON .        AZ-XX-0905059384:  JOB NUMBER
 FTOP.          Formation Tops:  FORM TOPS DESC
 ILTD.               Lithology:  INTERP LTH DESC
 SVYD.                  Survey:  SURVEY DESC
 DMOD.             Drill Model:  DRILL MOD DESC
 HPTY.       Minimum Curvature:  HOLE POS TYPE
 NREF.                    Grid:  NORTH REFERENCE
 SPUD.               09-Jan-20:  SPUD DATE
 DATE.      14.04.48 07-Feb-20:  END TIME
 STIM.      07.00.00 09-Jan-20:  START TIME
 DMF .             Drill Floor:  DRILL MEAS FROM
 DFST.                        :  DIST FSL TEXT
 DFWT.                        :  DIST FWL TEXT
 CNTY.                        :  COUNTY
 LOC .                        :  LOCATION
 LMF .             Drill Floor:  LOG MEASURED FROM
 DEP .m                   0.00:  DEPTH
 VSNS.m                  10.28:  VERT SEC N/S
 VSEW.m                  -6.24:  VERT SEC E/W
 AGAP.m                  43.00:  AIR GAP
 APD .m                  43.00:  DEPTH ABOVE PD
 WDMS.m                 169.80:  WD ELEV
 EGL .m                   0.00:  GROUND ELEVATION
 EPD .m                   0.00:  ELEVATION
 AZTC.deg                 6.27:  AZM TOTAL CORR
 GRDC.deg                 0.15:  GRID CORRECTION
 MDEC.deg                 6.42:  MAGNETIC DECL
 MDIP.deg                59.56:  MAGNETIC DIP
 MFLD.nT              50277.00:  MAGNETIC FIELD
 GVFD.g                   1.00:  GRAVITY FIELD
 VSDR.deg               148.53:  VERT SEC DIRECT
 TDD .m                3473.01:  TOTAL DEPTH (DRILLER)
 SDEP.m                 364.00:  START DEPTH
 DFSL.m                   0.00:  DISTANCE FSL
 DFWL.m                   0.00:  DISTANCE FWL
 UTMY.m             4443793.85:  UTM Y
 UTMX.m              519005.06:  UTM X
 WHEW.m                  -6.24:  WELL HEAD E/W
 WHNS.m                  10.28:  WELL HEAD N/S
 LONG.deg                51.22:  LONGITUDE
 LATI.deg                40.13:  LATITUDE
 TVDS.m                  43.00:  TVDSS CORRECTN
 EKB .m                   0.00:  KB ELEVATION
 EDF .m                  43.00:  DF ELEVATION
 TDL .m                 254.00:  TOTAL DEPTH (LOGGER)
 MAGU.                 1850021:  MAGUTM CHECKSUM
 VSC .                       0:  VS TO CLOSURE
~Parameter Information Block
#MNEM.UNIT       Value        Description
#---------     -----------    ---------------------------
 AV  .mps                 0.50:  Ann Velocity 
 AVMX.mps                 1.40:  Max Ann Veloc 
 AZIF.deg               144.94:  Azm, Final 
 BHAT.        Rotary Steerable:  BHA Type 
 BROT.°/30m               0.23:  Build Rotating 
 BS  .in                  8.50:  Bit Size 
 BTPL.psig              264.00:  Bit Press Loss 
 CABU.                     Yes:  Customer Abuse 
 COMM.                     D
_:  Run Comments 1 
 TCS .hr                 87.30:  Time Ciculation Ended 
 CV  .mps                 2.45:  Crit Velocity 
 CVMX.mps                 2.74:  Max Crit Veloc 
 DD1 .             Aziz Aliyev:  Direct Drillr 1 
 DDSV.               Geo-Pilot:  DD Service 
 DEFF.%                 100.00:  % Det Eff 
 DLRX.°/30m               1.22:  Dogleg Rot Max 
 DLSO.°/30m               0.52:  Dogleg Oriented 
 DLSX.°/30m               1.22:  Dogleg Str Max 
 DRET.      12.59.00 23-Feb-20:  Drill End Time 
 DRST.      09.44.00 18-Feb-20:  Drill Start Tim 
 DTIM.hr                 23.03:  Time Drilling 
 EDEP.m                3473.01:  End Depth 
 ENG1.         Almaz Almadatov:  Engineer 1 
 ENG2.         Dair Mahammadov:  Engineer 2 
 ENG3.          Nazrin Asgarli:  Engineer 3 
 ETIM.      10.33.36 26-Feb-20:  End Time 
 FLOI.gpm               480.00:  Flow In 
 FLON.gpm               300.00:  Flow In Min 
 FLOS.cptm                1.00:  Fluid Loss 
 FLOX.gpm               550.00:  Flow In Max 
 HFLO.                      No:  High Flow 
 HPRE.                      No:  High Pressure 
 HTEM.                      No:  High Temp 
 HYDO.m                   1.80:  Hydro Offset 
 IFIN.deg                74.42:  Inc, Final 
 IMAX.deg                76.14:  Inc Max 
 IMIN.deg                74.42:  Inc Min 
 IMND.m                3462.72:  Inc Min Depth 
 IMXD.m                3235.69:  Inc Max Depth 
 JARR.                      No:  Jarring 
 LETM.      12.59.00 23-Feb-20:  Log End Time 
 LOST.hr                     0:  Lost Rig Time 
 LSTM.      09.44.00 18-Feb-20:  Log Start Time 
 MDCL.ppm             45000.00:  Mud Chlorides 
 MDES.     Inversion Oil/Synthetic:  Mud Desc 
 DFD .sg                  1.38:  Mud Density 
 MDMN.sg                  1.34:  Dens Mud Min 
 MDMX.sg                  1.49:  Dens Mud Max 
 MOIL.                      67:  Run Mud Oil % 
 MOWR.                   67:33:  Run Mud OWR 
 MSND.                    0.12:  Run Mud Sand % 
 MSOL.                      22:  Run Mud Solids% 
 DFV .spqt               81.00:  Mud Viscosity 
 MWOD.in                  6.75:  MWD Tool OD 
 MWSI.                      No:  Serv Intrp, MWD 
 OTIM.hr                231.44:  Time Operating 
 PCON.          Wear / Scratch:  Pad Condition 
 PMAX.psia             3400.00:  Press Op, Max 
 PV  .cP                 55.00:  Mud PV 
 RUN .                     800:  Run Number 
 ROPA.m/hr               12.00:  ROP Avg 
 ROPN.m/hr                5.00:  ROP Min 
 ROPX.m/hr               28.00:  ROP Max 
 RPMA.rpm               120.00:  RPM Surface Avg 
 RPMN.rpm                40.00:  RPM Surface Min 
 RPMX.rpm               130.00:  RPM Surface Max 
 RRUN.                    0800:  Rig Run Number 
 RTIM.hr                 45.00:  Time Reaming 
 SAZI.deg               145.38:  Azm, Start 
 SDEP.m                3219.01:  Start Depth 
 SIDD.                      No:  Serv Intrp, DD 
 SINC.deg                75.11:  Inc, Start 
 SPPA.psig             2400.00:  SPP Avg 
 SPPN.psig             2320.00:  SPP Min 
 SPPX.psig             3200.00:  SPP Max 
 STIM.      15.15.00 17-Feb-20:  Start Time 
 SVCS.                 DD, MWD:  Services 
 SVER.                    9.20:  Sperry Version 
 TDAT.m                 254.00:  Tot Depth Attmp 
 TDDF.                      No:  Trip for DD 
 TDLG.m                 254.00:  Tot Depth Loggd 
 TFF .                      No:  Trip for Fail 
 TQAA.f-kp               13.00:  Torque Abs Avg 
 TQAN.f-kp                7.00:  Torque Abs Min 
 TQAX.f-kp               15.00:  Torque Abs Max 
 TRRT.°/30m               0.21:  Turn Rotating 
 MRT .                  EWR-M5:  Maximum Recorded Temperature 
 TTMX.degC               64.00:  Max Tool Temp 
 VS01.                90586516:  Virtual Str1 SN 
 VS02.                90513691:  Virtual Str2 SN 
 VS03.                90586523:  Virtual Str3 SN 
 VS04.                90586520:  Virtual Str4 SN 
 VS05.                90590507:  Virtual Str5 SN 
 WBMN.klb                12.00:  WOB Min 
 WITN.           Rufat Babayev:  Customer Rep 2 
 WITN.         Alistair Sprott:  Customer Rep 
 WOBA.klb                18.00:  WOB Avg 
 WOBX.klb                30.00:  WOB Max 
 YP  .lhf2               41.00:  Yield Point 
~Curve Information Block
#MNEM.UNIT                 API CODE     Curve Description
#---------               -----------    ---------------------------
 TIME.HHMMSS            00 000 000 000:  GT Time & Date
 GTDEPTH.m              00 000 000 000:  GT Depth
 GTPQH.psia             00 000 000 000:  GT HR Quartz Pressure
 GTTQ.degC              00 000 000 000:  GT Quartz Temperature
 GTTN.NONE              00 000 000 000:  GT Test Number
 GTET.sec               00 000 000 000:  GT Elapsed Test Time
 GTTVD.m                00 000 000 000:  GT True Vertical Depth
#Other Information
#
#WARRANTY: Halliburton will use its best efforts to furnish customers with 
#accurate information and interpretations that are part of, and incident to, the services 
#provided.  However, Halliburton cannot and does not warrant the accuracy 
#or correctness of such information and interpretations.  Under no circumstances should any 
#such information or interpretation be relied upon as the sole basis for any drilling, 
#completion, production, or financial decision or any procedure involving any risk to the 
#safety of any drilling venture, drilling rig or its crew or any other third party.  The 
#Customer has full responsibility for all drilling, completion and production operation.  
#Halliburton makes no representations or warranties, either expressed or 
#implied, including, but not limited to, the implied warranties of merchantability or fitness 
#for a particular purpose, with respect to the services rendered.  In no event will 
#Halliburton be liable for failure to obtain any particular results or for 
#any damages, including, but not limited to, indirect, special or consequential damages, 
#resulting from the use of any information or interpretation provided by Halliburton.
#
~A           TIME           GTDEPTH  GTPQH  GTTQ  GTTN  GTET   GTTVD  
   02:47:37.347.24-Feb-2020 3375.51 5703.23 55.93 5.00   0.00 2709.14
   02:47:37.547.24-Feb-2020 3375.51 5703.23 55.93 5.00   0.20 2709.14
   02:47:37.748.24-Feb-2020 3375.51 5703.26 55.93 5.00   0.40 2709.14
   02:47:37.948.24-Feb-2020 3375.51 5702.40 55.93 5.00   0.60 2709.14
   02:47:38.148.24-Feb-2020 3375.51 5701.96 55.93 5.00   0.80 2709.14
   02:47:38.348.24-Feb-2020 3375.51 5703.19 55.93 5.00   1.00 2709.14
   02:47:38.548.24-Feb-2020 3375.51 5703.19 55.93 5.00   1.20 2709.14
   02:47:38.748.24-Feb-2020 3375.51 5702.07 55.93 5.00   1.40 2709.14
   02:47:38.948.24-Feb-2020 3375.51 5704.14 55.93 5.00   1.60 2709.14
   02:47:39.148.24-Feb-2020 3375.51 5702.83 55.93 5.00   1.80 2709.14
   02:47:39.348.24-Feb-2020 3375.51 5704.08 55.93 5.00   2.00 2709.14
   02:47:39.548.24-Feb-2020 3375.51 5704.08 55.93 5.00   2.20 2709.14
   02:47:39.748.24-Feb-2020 3375.51 5702.48 55.93 5.00   2.40 2709.14
   02:47:39.948.24-Feb-2020 3375.51 5704.24 55.93 5.00   2.60 2709.14
   02:47:40.148.24-Feb-2020 3375.51 5702.92 55.93 5.00   2.80 2709.14
   02:47:40.349.24-Feb-2020 3375.51 5703.74 55.93 5.00   3.00 2709.14
   02:47:40.549.24-Feb-2020 3375.51 5703.74 55.93 5.00   3.20 2709.14
   02:47:40.749.24-Feb-2020 3375.51 5705.03 55.93 5.00   3.40 2709.14
   02:47:40.949.24-Feb-2020 3375.51 5705.09 55.93 5.00   3.60 2709.14
   02:47:41.149.24-Feb-2020 3375.51 5703.96 55.93 5.00   3.80 2709.14
   02:47:41.349.24-Feb-2020 3375.51 5703.56 55.93 5.00   4.00 2709.14
   02:47:41.549.24-Feb-2020 3375.51 5703.56 55.93 5.00   4.20 2709.14
   02:47:41.749.24-Feb-2020 3375.51 5705.08 55.93 5.00   4.40 2709.14
   02:47:41.949.24-Feb-2020 3375.51 5705.38 55.93 5.00   4.60 2709.14
   02:47:42.149.24-Feb-2020 3375.51 5704.60 55.93 5.00   4.80 2709.14
   02:47:42.349.24-Feb-2020 3375.51 5704.39 55.93 5.00   5.00 2709.14
   02:47:42.549.24-Feb-2020 3375.51 5704.39 55.93 5.00   5.20 2709.14
   02:47:42.750.24-Feb-2020 3375.51 5704.76 55.93 5.00   5.40 2709.14
   02:47:42.950.24-Feb-2020 3375.51 5704.16 55.93 5.00   5.60 2709.14
   02:47:43.150.24-Feb-2020 3375.51 5704.88 55.93 5.00   5.80 2709.14
   02:47:43.350.24-Feb-2020 3375.51 5704.27 55.93 5.00   6.00 2709.14
   02:47:43.550.24-Feb-2020 3375.51 5704.27 55.93 5.00   6.20 2709.14
   02:47:43.750.24-Feb-2020 3375.51 5704.93 55.93 5.00   6.40 2709.14
   02:47:43.950.24-Feb-2020 3375.51 5704.35 55.93 5.00   6.60 2709.14
   02:47:44.150.24-Feb-2020 3375.51 5704.97 55.93 5.00   6.80 2709.14
   02:47:44.350.24-Feb-2020 3375.51 5705.75 55.93 5.00   7.00 2709.14
   02:47:44.550.24-Feb-2020 3375.51 5705.75 55.93 5.00   7.20 2709.14
   02:47:44.750.24-Feb-2020 3375.51 5705.75 55.93 5.00   7.40 2709.14
   02:47:44.950.24-Feb-2020 3375.51 5704.73 55.93 5.00   7.60 2709.14
   02:47:45.151.24-Feb-2020 3375.51 5704.47 55.93 5.00   7.80 2709.14
   02:47:45.351.24-Feb-2020 3375.51 5705.52 55.93 5.00   8.00 2709.14
   02:47:45.551.24-Feb-2020 3375.51 5705.52 55.93 5.00   8.20 2709.14
   02:47:45.751.24-Feb-2020 3375.51 5705.29 55.93 5.00   8.40 2709.14
   02:47:45.951.24-Feb-2020 3375.51 5706.38 55.93 5.00   8.60 2709.14
   02:47:46.151.24-Feb-2020 3375.51 5704.93 55.93 5.00   8.80 2709.14
   02:47:46.351.24-Feb-2020 3375.51 5705.10 55.93 5.00   9.00 2709.14
   02:47:46.551.24-Feb-2020 3375.51 5705.10 55.93 5.00   9.20 2709.14
   02:47:46.751.24-Feb-2020 3375.51 5706.94 55.93 5.00   9.40 2709.14
   02:47:46.951.24-Feb-2020 3375.51 5705.00 55.93 5.00   9.60 2709.14
   02:47:47.151.24-Feb-2020 3375.51 5706.85 55.93 5.00   9.80 2709.14
   02:47:47.351.24-Feb-2020 3375.51 5705.95 55.93 5.00  10.00 2709.14
   02:47:47.551.24-Feb-2020 3375.51 5705.95 55.93 5.00  10.20 2709.14
   02:47:47.752.24-Feb-2020 3375.51 5707.13 55.93 5.00  10.40 2709.14
   02:47:47.952.24-Feb-2020 3375.51 5706.08 55.93 5.00  10.60 2709.14
   02:47:48.152.24-Feb-2020 3375.51 5706.25 55.93 5.00  10.80 2709.14
   02:47:48.352.24-Feb-2020 3375.51 5706.92 55.92 5.00  11.00 2709.14
   02:47:48.552.24-Feb-2020 3375.51 5706.92 55.92 5.00  11.20 2709.14
   02:47:48.752.24-Feb-2020 3375.51 5707.28 55.92 5.00  11.40 2709.14
   02:47:48.952.24-Feb-2020 3375.51 5707.01 55.92 5.00  11.60 2709.14
   02:47:49.152.24-Feb-2020 3375.51 5707.65 55.92 5.00  11.80 2709.14
   02:47:49.352.24-Feb-2020 3375.51 5705.13 55.92 5.00  12.00 2709.14
   02:47:49.552.24-Feb-2020 3375.51 5705.13 55.92 5.00  12.20 2709.14
   02:47:49.752.24-Feb-2020 3375.51 5706.30 55.92 5.00  12.40 2709.14
   02:47:49.952.24-Feb-2020 3375.51 5707.13 55.92 5.00  12.61 2709.14
   02:47:50.153.24-Feb-2020 3375.51 5707.96 55.92 5.00  12.81 2709.14
   02:47:50.353.24-Feb-2020 3375.51 5705.63 55.92 5.00  13.01 2709.14
   02:47:50.553.24-Feb-2020 3375.51 5705.63 55.92 5.00  13.21 2709.14
   02:47:50.753.24-Feb-2020 3375.51 5706.25 55.92 5.00  13.41 2709.14
   02:47:50.953.24-Feb-2020 3375.51 5705.87 55.92 5.00  13.61 2709.14
   02:47:51.153.24-Feb-2020 3375.51 5707.78 55.92 5.00  13.81 2709.14
   02:47:51.353.24-Feb-2020 3375.51 5705.75 55.92 5.00  14.01 2709.14
   02:47:51.553.24-Feb-2020 3375.51 5705.75 55.92 5.00  14.21 2709.14
   02:47:51.753.24-Feb-2020 3375.51 5707.15 55.92 5.00  14.41 2709.14
   02:47:51.953.24-Feb-2020 3375.51 5706.59 55.92 5.00  14.61 2709.14
   02:47:52.153.24-Feb-2020 3375.51 5706.83 55.92 5.00  14.81 2709.14
   02:47:52.353.24-Feb-2020 3375.51 5706.36 55.92 5.00  15.01 2709.14
   02:47:52.553.24-Feb-2020 3375.51 5706.36 55.92 5.00  15.21 2709.14
   02:47:52.754.24-Feb-2020 3375.51 5707.82 55.92 5.00  15.41 2709.14
   02:47:52.954.24-Feb-2020 3375.51 5708.04 55.92 5.00  15.61 2709.14
   02:47:53.154.24-Feb-2020 3375.51 5707.54 55.92 5.00  15.81 2709.14
   02:47:53.354.24-Feb-2020 3375.51 5706.63 55.92 5.00  16.01 2709.14
   02:47:53.554.24-Feb-2020 3375.51 5706.63 55.92 5.00  16.21 2709.14
   02:47:53.754.24-Feb-2020 3375.51 5707.66 55.92 5.00  16.41 2709.14
   02:47:53.954.24-Feb-2020 3375.51 5708.12 55.92 5.00  16.61 2709.14
   02:47:54.154.24-Feb-2020 3375.51 5708.01 55.92 5.00  16.81 2709.14
   02:47:54.354.24-Feb-2020 3375.51 5706.84 55.92 5.00  17.01 2709.14
   02:47:54.554.24-Feb-2020 3375.51 5706.84 55.92 5.00  17.21 2709.14
   02:47:54.754.24-Feb-2020 3375.51 5708.54 55.92 5.00  17.41 2709.14
   02:47:54.954.24-Feb-2020 3375.51 5706.39 55.92 5.00  17.61 2709.14
   02:47:55.155.24-Feb-2020 3375.51 5708.77 55.92 5.00  17.81 2709.14
   02:47:55.355.24-Feb-2020 3375.51 5707.29 55.92 5.00  18.01 2709.14
   02:47:55.555.24-Feb-2020 3375.51 5707.29 55.92 5.00  18.21 2709.14
   02:47:55.755.24-Feb-2020 3375.51 5706.83 55.92 5.00  18.41 2709.14
   02:47:55.955.24-Feb-2020 3375.51 5707.24 55.92 5.00  18.61 2709.14
   02:47:56.155.24-Feb-2020 3375.51 5708.06 55.92 5.00  18.81 2709.14
   02:47:56.355.24-Feb-2020 3375.51 5708.43 55.92 5.00  19.01 2709.14
   02:47:56.555.24-Feb-2020 3375.51 5708.43 55.92 5.00  19.21 2709.14
   02:47:56.755.24-Feb-2020 3375.51 5707.07 55.92 5.00  19.41 2709.14
   02:47:56.955.24-Feb-2020 3375.51 5707.73 55.92 5.00  19.61 2709.14
   02:47:57.155.24-Feb-2020 3375.51 5708.34 55.92 5.00  19.81 2709.14
   02:47:57.355.24-Feb-2020 3375.51 5708.49 55.92 5.00  20.01 2709.14
   02:47:57.555.24-Feb-2020 3375.51 5708.49 55.92 5.00  20.21 2709.14
   02:47:57.756.24-Feb-2020 3375.51 5707.33 55.92 5.00  20.41 2709.14
   02:47:57.956.24-Feb-2020 3375.51 5707.63 55.92 5.00  20.61 2709.14
   02:47:58.156.24-Feb-2020 3375.51 5707.99 55.92 5.00  20.81 2709.14
   02:47:58.356.24-Feb-2020 3375.51 5708.90 55.92 5.00  21.01 2709.14
   02:47:58.556.24-Feb-2020 3375.51 5707.86 55.92 5.00  21.21 2709.14
   02:47:58.756.24-Feb-2020 3375.51 5707.72 55.92 5.00  21.41 2709.14
   02:47:58.956.24-Feb-2020 3375.51 5708.40 55.92 5.00  21.61 2709.14
   02:47:59.156.24-Feb-2020 3375.51 5707.19 55.92 5.00  21.81 2709.14
   02:47:59.356.24-Feb-2020 3375.51 5708.20 55.92 5.00  22.01 2709.14
   02:47:59.556.24-Feb-2020 3375.51 5708.20 55.92 5.00  22.21 2709.14
   02:47:59.756.24-Feb-2020 3375.51 5707.10 55.92 5.00  22.41 2709.14
   02:47:59.956.24-Feb-2020 3375.51 5708.76 55.92 5.00  22.61 2709.14
   02:48:00.157.24-Feb-2020 3375.51 5707.91 55.92 5.00  22.81 2709.14
