~Version Information
 VERS.                  2.0:   CWLS log ASCII Standard -VERSION 2.0
 WRAP.                   NO:   One line per depth step
~Well Information Block
#MNEM.UNIT     VALUE/NAME     DESCRIPTION
#---------     -----------    ---------------------------
 STRT.S             23:48:42 23-Feb-20: START TIME 23:48:42 23-Feb-20
 STOP.S             23:55:42 23-Feb-20: STOP TIME  23:55:42 23-Feb-20
 STEP.S                   0.00: STEP TIME
 NULL.                 -999.25: NULL VALUE
 JOBN.        AZ-XX-0905059384:  JOB TICKET NUMB
 PDAT.          Mean Sea Level:  PERMANENT DATUM
 UNIT.                     N/A:  LOGGING EQUIPMENT ID
 DCON.         Sperry Drilling:  DIRECTNL CONTR
 DOE .                     N/A:  DOE NUMBER
 RIG .             West Chirag:  RIG NAME
 WELL.                     J22:  WELL NAME
 MWDS.                    Baku:  MWD SHOP
 SRVC.     TURAN Drilling & Engineering:  CONTRACTOR
 FLD .                     ACG:  FIELD NAME
 CTRY.              Azerbaijan:  COUNTRY NAME
 PROV.                    Baku:  PROVINCE
 STAT.                    Baku:  STATE NAME
 REGN.                   EESSA:  REGION
 BASE.              Azerbaijan:  LOGGING EQUIPMENT BASE LOCATION
 UWI .                     N/A:  UNIQUE WELL IDENTIFIER
 API .                     N/A:  API NUMBER
 COMP.     BP Exploration (Caspian Sea) Ltd.:  COMPANY
 WTYP.                Deviated:  WELL TYPE
 MDS .        Operator Entered:  MAG DATA SOURCE
 SON .        AZ-XX-0905059384:  JOB NUMBER
 FTOP.          Formation Tops:  FORM TOPS DESC
 ILTD.               Lithology:  INTERP LTH DESC
 SVYD.                  Survey:  SURVEY DESC
 DMOD.             Drill Model:  DRILL MOD DESC
 HPTY.       Minimum Curvature:  HOLE POS TYPE
 NREF.                    Grid:  NORTH REFERENCE
 SPUD.               09-Jan-20:  SPUD DATE
 DATE.      14.04.48 07-Feb-20:  END TIME
 STIM.      07.00.00 09-Jan-20:  START TIME
 DMF .             Drill Floor:  DRILL MEAS FROM
 DFST.                        :  DIST FSL TEXT
 DFWT.                        :  DIST FWL TEXT
 CNTY.                        :  COUNTY
 LOC .                        :  LOCATION
 LMF .             Drill Floor:  LOG MEASURED FROM
 DEP .m                   0.00:  DEPTH
 VSNS.m                  10.28:  VERT SEC N/S
 VSEW.m                  -6.24:  VERT SEC E/W
 AGAP.m                  43.00:  AIR GAP
 APD .m                  43.00:  DEPTH ABOVE PD
 WDMS.m                 169.80:  WD ELEV
 EGL .m                   0.00:  GROUND ELEVATION
 EPD .m                   0.00:  ELEVATION
 AZTC.deg                 6.27:  AZM TOTAL CORR
 GRDC.deg                 0.15:  GRID CORRECTION
 MDEC.deg                 6.42:  MAGNETIC DECL
 MDIP.deg                59.56:  MAGNETIC DIP
 MFLD.nT              50277.00:  MAGNETIC FIELD
 GVFD.g                   1.00:  GRAVITY FIELD
 VSDR.deg               148.53:  VERT SEC DIRECT
 TDD .m                3473.01:  TOTAL DEPTH (DRILLER)
 SDEP.m                 364.00:  START DEPTH
 DFSL.m                   0.00:  DISTANCE FSL
 DFWL.m                   0.00:  DISTANCE FWL
 UTMY.m             4443793.85:  UTM Y
 UTMX.m              519005.06:  UTM X
 WHEW.m                  -6.24:  WELL HEAD E/W
 WHNS.m                  10.28:  WELL HEAD N/S
 LONG.deg                51.22:  LONGITUDE
 LATI.deg                40.13:  LATITUDE
 TVDS.m                  43.00:  TVDSS CORRECTN
 EKB .m                   0.00:  KB ELEVATION
 EDF .m                  43.00:  DF ELEVATION
 TDL .m                 254.00:  TOTAL DEPTH (LOGGER)
 MAGU.                 1850021:  MAGUTM CHECKSUM
 VSC .                       0:  VS TO CLOSURE
~Parameter Information Block
#MNEM.UNIT       Value        Description
#---------     -----------    ---------------------------
 AV  .mps                 0.50:  Ann Velocity 
 AVMX.mps                 1.40:  Max Ann Veloc 
 AZIF.deg               144.94:  Azm, Final 
 BHAT.        Rotary Steerable:  BHA Type 
 BROT.°/30m               0.23:  Build Rotating 
 BS  .in                  8.50:  Bit Size 
 BTPL.psig              264.00:  Bit Press Loss 
 CABU.                     Yes:  Customer Abuse 
 COMM.                     ¼ýd:  Run Comments 1 
 TCS .hr                 87.30:  Time Ciculation Ended 
 CV  .mps                 2.45:  Crit Velocity 
 CVMX.mps                 2.74:  Max Crit Veloc 
 DD1 .             Aziz Aliyev:  Direct Drillr 1 
 DDSV.               Geo-Pilot:  DD Service 
 DEFF.%                 100.00:  % Det Eff 
 DLRX.°/30m               1.22:  Dogleg Rot Max 
 DLSO.°/30m               0.52:  Dogleg Oriented 
 DLSX.°/30m               1.22:  Dogleg Str Max 
 DRET.      12.59.00 23-Feb-20:  Drill End Time 
 DRST.      09.44.00 18-Feb-20:  Drill Start Tim 
 DTIM.hr                 23.03:  Time Drilling 
 EDEP.m                3473.01:  End Depth 
 ENG1.         Almaz Almadatov:  Engineer 1 
 ENG2.         Dair Mahammadov:  Engineer 2 
 ENG3.          Nazrin Asgarli:  Engineer 3 
 ETIM.      10.33.36 26-Feb-20:  End Time 
 FLOI.gpm               480.00:  Flow In 
 FLON.gpm               300.00:  Flow In Min 
 FLOS.cptm                1.00:  Fluid Loss 
 FLOX.gpm               550.00:  Flow In Max 
 HFLO.                      No:  High Flow 
 HPRE.                      No:  High Pressure 
 HTEM.                      No:  High Temp 
 HYDO.m                   1.80:  Hydro Offset 
 IFIN.deg                74.42:  Inc, Final 
 IMAX.deg                76.14:  Inc Max 
 IMIN.deg                74.42:  Inc Min 
 IMND.m                3462.72:  Inc Min Depth 
 IMXD.m                3235.69:  Inc Max Depth 
 JARR.                      No:  Jarring 
 LETM.      12.59.00 23-Feb-20:  Log End Time 
 LOST.hr                     0:  Lost Rig Time 
 LSTM.      09.44.00 18-Feb-20:  Log Start Time 
 MDCL.ppm             45000.00:  Mud Chlorides 
 MDES.     Inversion Oil/Synthetic:  Mud Desc 
 DFD .sg                  1.38:  Mud Density 
 MDMN.sg                  1.34:  Dens Mud Min 
 MDMX.sg                  1.49:  Dens Mud Max 
 MOIL.                      67:  Run Mud Oil % 
 MOWR.                   67:33:  Run Mud OWR 
 MSND.                    0.12:  Run Mud Sand % 
 MSOL.                      22:  Run Mud Solids% 
 DFV .spqt               81.00:  Mud Viscosity 
 MWOD.in                  6.75:  MWD Tool OD 
 MWSI.                      No:  Serv Intrp, MWD 
 OTIM.hr                231.44:  Time Operating 
 PCON.          Wear / Scratch:  Pad Condition 
 PMAX.psia             3400.00:  Press Op, Max 
 PV  .cP                 55.00:  Mud PV 
 RUN .                     800:  Run Number 
 ROPA.m/hr               12.00:  ROP Avg 
 ROPN.m/hr                5.00:  ROP Min 
 ROPX.m/hr               28.00:  ROP Max 
 RPMA.rpm               120.00:  RPM Surface Avg 
 RPMN.rpm                40.00:  RPM Surface Min 
 RPMX.rpm               130.00:  RPM Surface Max 
 RRUN.                    0800:  Rig Run Number 
 RTIM.hr                 45.00:  Time Reaming 
 SAZI.deg               145.38:  Azm, Start 
 SDEP.m                3219.01:  Start Depth 
 SIDD.                      No:  Serv Intrp, DD 
 SINC.deg                75.11:  Inc, Start 
 SPPA.psig             2400.00:  SPP Avg 
 SPPN.psig             2320.00:  SPP Min 
 SPPX.psig             3200.00:  SPP Max 
 STIM.      15.15.00 17-Feb-20:  Start Time 
 SVCS.                 DD, MWD:  Services 
 SVER.                    9.20:  Sperry Version 
 TDAT.m                 254.00:  Tot Depth Attmp 
 TDDF.                      No:  Trip for DD 
 TDLG.m                 254.00:  Tot Depth Loggd 
 TFF .                      No:  Trip for Fail 
 TQAA.f-kp               13.00:  Torque Abs Avg 
 TQAN.f-kp                7.00:  Torque Abs Min 
 TQAX.f-kp               15.00:  Torque Abs Max 
 TRRT.°/30m               0.21:  Turn Rotating 
 MRT .                  EWR-M5:  Maximum Recorded Temperature 
 TTMX.degC               64.00:  Max Tool Temp 
 VS01.                90586516:  Virtual Str1 SN 
 VS02.                90513691:  Virtual Str2 SN 
 VS03.                90586523:  Virtual Str3 SN 
 VS04.                90586520:  Virtual Str4 SN 
 VS05.                90590507:  Virtual Str5 SN 
 WBMN.klb                12.00:  WOB Min 
 WITN.           Rufat Babayev:  Customer Rep 2 
 WITN.         Alistair Sprott:  Customer Rep 
 WOBA.klb                18.00:  WOB Avg 
 WOBX.klb                30.00:  WOB Max 
 YP  .lhf2               41.00:  Yield Point 
~Curve Information Block
#MNEM.UNIT                 API CODE     Curve Description
#---------               -----------    ---------------------------
 TIME.HHMMSS            00 000 000 000:  GT Time & Date
 GTDEPTH.m              00 000 000 000:  GT Depth
 GTPQH.psia             00 000 000 000:  GT HR Quartz Pressure
 GTTQ.degC              00 000 000 000:  GT Quartz Temperature
 GTTN.NONE              00 000 000 000:  GT Test Number
 GTET.sec               00 000 000 000:  GT Elapsed Test Time
 GTTVD.m                00 000 000 000:  GT True Vertical Depth
#Other Information
#
#WARRANTY: Halliburton will use its best efforts to furnish customers with 
#accurate information and interpretations that are part of, and incident to, the services 
#provided.  However, Halliburton cannot and does not warrant the accuracy 
#or correctness of such information and interpretations.  Under no circumstances should any 
#such information or interpretation be relied upon as the sole basis for any drilling, 
#completion, production, or financial decision or any procedure involving any risk to the 
#safety of any drilling venture, drilling rig or its crew or any other third party.  The 
#Customer has full responsibility for all drilling, completion and production operation.  
#Halliburton makes no representations or warranties, either expressed or 
#implied, including, but not limited to, the implied warranties of merchantability or fitness 
#for a particular purpose, with respect to the services rendered.  In no event will 
#Halliburton be liable for failure to obtain any particular results or for 
#any damages, including, but not limited to, indirect, special or consequential damages, 
#resulting from the use of any information or interpretation provided by Halliburton.
#
~A           TIME           GTDEPTH  GTPQH  GTTQ  GTTN  GTET   GTTVD  
# ...
   23:51:00.432.23-Feb-2020 3441.51 4208.98 56.59 1.00 138.02 2726.26
   23:51:00.632.23-Feb-2020 3441.51 4209.34 56.59 1.00 138.22 2726.26
   23:51:00.832.23-Feb-2020 3441.51 4209.09 56.59 1.00 138.42 2726.26
   23:51:01.032.23-Feb-2020 3441.51 4209.31 56.59 1.00 138.62 2726.26
   23:51:01.232.23-Feb-2020 3441.51 4209.17 56.59 1.00 138.82 2726.26
   23:51:01.432.23-Feb-2020 3441.51 4209.25 56.59 1.00 139.02 2726.26
   23:51:01.632.23-Feb-2020 3441.51 4209.25 56.59 1.00 139.22 2726.26
   23:51:01.832.23-Feb-2020 3441.51 4209.21 56.59 1.00 139.42 2726.26
   23:51:02.032.23-Feb-2020 3441.51 4209.23 56.59 1.00 139.62 2726.26
   23:51:02.232.23-Feb-2020 3441.51 4209.23 56.59 1.00 139.82 2726.26
   23:51:02.432.23-Feb-2020 3441.51 4209.21 56.59 1.00 140.02 2726.26
   23:51:02.632.23-Feb-2020 3441.51 4209.21 56.59 1.00 140.22 2726.26
   23:51:02.832.23-Feb-2020 3441.51 4209.24 56.59 1.00 140.42 2726.26
   23:51:03.032.23-Feb-2020 3441.51 4209.24 56.59 1.00 140.62 2726.26
   23:51:03.232.23-Feb-2020 3441.51 4209.29 56.59 1.00 140.82 2726.26
   23:51:03.432.23-Feb-2020 3441.51 4208.91 56.59 1.00 141.02 2726.26
   23:51:03.632.23-Feb-2020 3441.51 4208.91 56.59 1.00 141.22 2726.26
   23:51:03.832.23-Feb-2020 3441.51 4209.16 56.59 1.00 141.42 2726.26
   23:51:04.032.23-Feb-2020 3441.51 4209.29 56.59 1.00 141.62 2726.26
   23:51:04.232.23-Feb-2020 3441.51 4209.19 56.59 1.00 141.82 2726.26
   23:51:04.433.23-Feb-2020 3441.51 4209.20 56.59 1.00 142.02 2726.26
   23:51:04.633.23-Feb-2020 3441.51 4209.20 56.59 1.00 142.22 2726.26
   23:51:04.833.23-Feb-2020 3441.51 4209.23 56.59 1.00 142.42 2726.26
   23:51:05.033.23-Feb-2020 3441.51 4209.20 56.59 1.00 142.62 2726.26
   23:51:05.233.23-Feb-2020 3441.51 4209.25 56.59 1.00 142.82 2726.26
   23:51:05.433.23-Feb-2020 3441.51 4209.22 56.59 1.00 143.02 2726.26
   23:51:05.633.23-Feb-2020 3441.51 4209.22 56.59 1.00 143.22 2726.26
   23:51:05.833.23-Feb-2020 3441.51 4209.19 56.59 1.00 143.42 2726.26
   23:51:06.033.23-Feb-2020 3441.51 4209.25 56.59 1.00 143.62 2726.26
   23:51:06.233.23-Feb-2020 3441.51 4209.22 56.59 1.00 143.82 2726.26
   23:51:06.433.23-Feb-2020 3441.51 4209.13 56.59 1.00 144.02 2726.26
   23:51:06.633.23-Feb-2020 3441.51 4209.13 56.59 1.00 144.22 2726.26
   23:51:06.833.23-Feb-2020 3441.51 4209.55 56.59 1.00 144.42 2726.26
   23:51:07.033.23-Feb-2020 3441.51 4209.33 56.59 1.00 144.62 2726.26
   23:51:07.233.23-Feb-2020 3441.51 4209.10 56.59 1.00 144.82 2726.26
   23:51:07.433.23-Feb-2020 3441.51 4209.38 56.59 1.00 145.02 2726.26
   23:51:07.633.23-Feb-2020 3441.51 4209.38 56.59 1.00 145.22 2726.26
   23:51:07.833.23-Feb-2020 3441.51 4209.61 56.59 1.00 145.42 2726.26
   23:51:08.033.23-Feb-2020 3441.51 4209.09 56.59 1.00 145.62 2726.26
   23:51:08.233.23-Feb-2020 3441.51 4209.28 56.59 1.00 145.82 2726.26
   23:51:08.433.23-Feb-2020 3441.51 4209.23 56.59 1.00 146.02 2726.26
   23:51:08.633.23-Feb-2020 3441.51 4209.23 56.59 1.00 146.22 2726.26
   23:51:08.833.23-Feb-2020 3441.51 4209.44 56.59 1.00 146.42 2726.26
   23:51:09.033.23-Feb-2020 3441.51 4209.00 56.59 1.00 146.62 2726.26
   23:51:09.233.23-Feb-2020 3441.51 4209.46 56.59 1.00 146.82 2726.26
   23:51:09.433.23-Feb-2020 3441.51 4208.91 56.59 1.00 147.02 2726.26
   23:51:09.633.23-Feb-2020 3441.51 4208.91 56.59 1.00 147.22 2726.26
   23:51:09.833.23-Feb-2020 3441.51 4208.97 56.59 1.00 147.42 2726.26
   23:51:10.033.23-Feb-2020 3441.51 4209.32 56.59 1.00 147.62 2726.26
   23:51:10.233.23-Feb-2020 3441.51 4209.09 56.59 1.00 147.82 2726.26
   23:51:10.433.23-Feb-2020 3441.51 4209.29 56.59 1.00 148.02 2726.26
   23:51:10.633.23-Feb-2020 3441.51 4209.29 56.59 1.00 148.22 2726.26
   23:51:10.833.23-Feb-2020 3441.51 4209.21 56.59 1.00 148.42 2726.26
   23:51:11.033.23-Feb-2020 3441.51 4156.81 56.59 1.00 148.62 2726.26
   23:51:11.233.23-Feb-2020 3441.51 4122.27 56.59 1.00 148.82 2726.26
   23:51:11.433.23-Feb-2020 3441.51 4112.96 56.59 1.00 149.02 2726.26
   23:51:11.633.23-Feb-2020 3441.51 4112.96 56.59 1.00 149.22 2726.26
   23:51:11.833.23-Feb-2020 3441.51 4114.86 56.59 1.00 149.42 2726.26
   23:51:12.033.23-Feb-2020 3441.51 4114.34 56.59 1.00 149.62 2726.26
   23:51:12.233.23-Feb-2020 3441.51 4113.78 56.59 1.00 149.82 2726.26
   23:51:12.433.23-Feb-2020 3441.51 4114.46 56.59 1.00 150.02 2726.26
   23:51:12.633.23-Feb-2020 3441.51 4114.46 56.59 1.00 150.22 2726.26
   23:51:12.833.23-Feb-2020 3441.51 4110.20 56.59 1.00 150.42 2726.26
   23:51:13.034.23-Feb-2020 3441.51 4115.00 56.59 1.00 150.62 2726.26
   23:51:13.234.23-Feb-2020 3441.51 4115.24 56.59 1.00 150.82 2726.26
   23:51:13.434.23-Feb-2020 3441.51 4114.22 56.59 1.00 151.02 2726.26
   23:51:13.634.23-Feb-2020 3441.51 4114.22 56.59 1.00 151.22 2726.26
   23:51:13.834.23-Feb-2020 3441.51 4113.72 56.59 1.00 151.42 2726.26
   23:51:14.034.23-Feb-2020 3441.51 4113.65 56.59 1.00 151.62 2726.26
   23:51:14.234.23-Feb-2020 3441.51 4114.85 56.59 1.00 151.82 2726.26
   23:51:14.434.23-Feb-2020 3441.51 4114.35 56.59 1.00 152.02 2726.26
   23:51:14.634.23-Feb-2020 3441.51 4114.35 56.59 1.00 152.22 2726.26
   23:51:14.834.23-Feb-2020 3441.51 4114.94 56.59 1.00 152.42 2726.26
   23:51:15.034.23-Feb-2020 3441.51 4114.54 56.59 1.00 152.62 2726.26
   23:51:15.234.23-Feb-2020 3441.51 4114.58 56.59 1.00 152.82 2726.26
   23:51:15.434.23-Feb-2020 3441.51 4115.43 56.59 1.00 153.02 2726.26
   23:51:15.634.23-Feb-2020 3441.51 4115.43 56.59 1.00 153.22 2726.26
   23:51:15.834.23-Feb-2020 3441.51 4115.64 56.59 1.00 153.42 2726.26
   23:51:16.034.23-Feb-2020 3441.51 4117.03 56.59 1.00 153.62 2726.26
   23:51:16.234.23-Feb-2020 3441.51 4117.80 56.59 1.00 153.82 2726.26
   23:51:16.434.23-Feb-2020 3441.51 4121.41 56.59 1.00 154.02 2726.26
   23:51:16.634.23-Feb-2020 3441.51 4121.41 56.59 1.00 154.22 2726.26
   23:51:16.834.23-Feb-2020 3441.51 4123.63 56.59 1.00 154.42 2726.26
   23:51:17.034.23-Feb-2020 3441.51 4118.01 56.59 1.00 154.62 2726.26
   23:51:17.234.23-Feb-2020 3441.51 4120.72 56.59 1.00 154.82 2726.26
   23:51:17.434.23-Feb-2020 3441.51 4118.74 56.59 1.00 155.02 2726.26
   23:51:17.634.23-Feb-2020 3441.51 4118.74 56.59 1.00 155.22 2726.26
   23:51:17.834.23-Feb-2020 3441.51 4120.00 56.59 1.00 155.42 2726.26
   23:51:18.034.23-Feb-2020 3441.51 4118.51 56.59 1.00 155.62 2726.26
   23:51:18.234.23-Feb-2020 3441.51 4121.74 56.59 1.00 155.82 2726.26
   23:51:18.434.23-Feb-2020 3441.51 4118.41 56.59 1.00 156.02 2726.26
   23:51:18.634.23-Feb-2020 3441.51 4118.41 56.59 1.00 156.22 2726.26
   23:51:18.834.23-Feb-2020 3441.51 4117.91 56.59 1.00 156.42 2726.26
   23:51:19.034.23-Feb-2020 3441.51 4119.76 56.59 1.00 156.62 2726.26
   23:51:19.234.23-Feb-2020 3441.51 4118.13 56.59 1.00 156.82 2726.26
   23:51:19.434.23-Feb-2020 3441.51 4120.37 56.59 1.00 157.02 2726.26
   23:51:19.634.23-Feb-2020 3441.51 4120.37 56.59 1.00 157.22 2726.26
   23:51:19.834.23-Feb-2020 3441.51 4118.95 56.59 1.00 157.42 2726.26
   23:51:20.034.23-Feb-2020 3441.51 4118.09 56.59 1.00 157.62 2726.26
   23:51:20.234.23-Feb-2020 3441.51 4118.86 56.59 1.00 157.82 2726.26
   23:51:20.434.23-Feb-2020 3441.51 4118.76 56.59 1.00 158.02 2726.26
   23:51:20.634.23-Feb-2020 3441.51 4118.76 56.59 1.00 158.22 2726.26
   23:51:20.834.23-Feb-2020 3441.51 4119.68 56.59 1.00 158.42 2726.26
   23:51:21.034.23-Feb-2020 3441.51 4119.69 56.59 1.00 158.62 2726.26
   23:51:21.234.23-Feb-2020 3441.51 4194.91 56.59 1.00 158.82 2726.26
   23:51:21.434.23-Feb-2020 3441.51 4208.76 56.59 1.00 159.02 2726.26
   23:51:21.634.23-Feb-2020 3441.51 4208.76 56.59 1.00 159.22 2726.26
   23:51:21.835.23-Feb-2020 3441.51 4208.99 56.59 1.00 159.42 2726.26
   23:51:22.035.23-Feb-2020 3441.51 4209.60 56.59 1.00 159.62 2726.26
   23:51:22.235.23-Feb-2020 3441.51 4209.04 56.59 1.00 159.82 2726.26
   23:51:22.435.23-Feb-2020 3441.51 4209.53 56.59 1.00 160.02 2726.26
   23:51:22.635.23-Feb-2020 3441.51 4209.53 56.59 1.00 160.22 2726.26
   23:51:22.835.23-Feb-2020 3441.51 4209.20 56.59 1.00 160.42 2726.26
   23:51:23.035.23-Feb-2020 3441.51 4209.10 56.59 1.00 160.62 2726.26
   23:51:23.235.23-Feb-2020 3441.51 4209.10 56.59 1.00 160.82 2726.26
