~Version Information
 VERS.                  2.0:   CWLS log ASCII Standard -VERSION 2.0
 WRAP.                   NO:   One line per depth step
~Well Information Block
#MNEM.UNIT     VALUE/NAME     DESCRIPTION
#---------     -----------    ---------------------------
 STRT.S             02:47:37 24-Feb-20: START TIME 02:47:37 24-Feb-20
 STOP.S             02:54:57 24-Feb-20: STOP TIME  02:54:57 24-Feb-20
 STEP.S                   0.00: STEP TIME
 NULL.                 -999.25: NULL VALUE
 JOBN.        AZ-XX-0905059384:  JOB TICKET NUMB
 PDAT.          Mean Sea Level:  PERMANENT DATUM
 UNIT.                     N/A:  LOGGING EQUIPMENT ID
 DCON.         Sperry Drilling:  DIRECTNL CONTR
 DOE .                     N/A:  DOE NUMBER
 RIG .             West Chirag:  RIG NAME
 WELL.                     J22:  WELL NAME
 MWDS.                    Baku:  MWD SHOP
 SRVC.     TURAN Drilling & Engineering:  CONTRACTOR
 FLD .                     ACG:  FIELD NAME
 CTRY.              Azerbaijan:  COUNTRY NAME
 PROV.                    Baku:  PROVINCE
 STAT.                    Baku:  STATE NAME
 REGN.                   EESSA:  REGION
 BASE.              Azerbaijan:  LOGGING EQUIPMENT BASE LOCATION
 UWI .                     N/A:  UNIQUE WELL IDENTIFIER
 API .                     N/A:  API NUMBER
 COMP.     BP Exploration (Caspian Sea) Ltd.:  COMPANY
 WTYP.                Deviated:  WELL TYPE
 MDS .        Operator Entered:  MAG DATA SOURCE
 SON .        AZ-XX-0905059384:  JOB NUMBER
 FTOP.          Formation Tops:  FORM TOPS DESC
 ILTD.               Lithology:  INTERP LTH DESC
 SVYD.                  Survey:  SURVEY DESC
 DMOD.             Drill Model:  DRILL MOD DESC
 HPTY.       Minimum Curvature:  HOLE POS TYPE
 NREF.                    Grid:  NORTH REFERENCE
 SPUD.               09-Jan-20:  SPUD DATE
 DATE.      14.04.48 07-Feb-20:  END TIME
 STIM.      07.00.00 09-Jan-20:  START TIME
 DMF .             Drill Floor:  DRILL MEAS FROM
 DFST.                        :  DIST FSL TEXT
 DFWT.                        :  DIST FWL TEXT
 CNTY.                        :  COUNTY
 LOC .                        :  LOCATION
 LMF .             Drill Floor:  LOG MEASURED FROM
 DEP .m                   0.00:  DEPTH
 VSNS.m                  10.28:  VERT SEC N/S
 VSEW.m                  -6.24:  VERT SEC E/W
 AGAP.m                  43.00:  AIR GAP
 APD .m                  43.00:  DEPTH ABOVE PD
 WDMS.m                 169.80:  WD ELEV
 EGL .m                   0.00:  GROUND ELEVATION
 EPD .m                   0.00:  ELEVATION
 AZTC.deg                 6.27:  AZM TOTAL CORR
 GRDC.deg                 0.15:  GRID CORRECTION
 MDEC.deg                 6.42:  MAGNETIC DECL
 MDIP.deg                59.56:  MAGNETIC DIP
 MFLD.nT              50277.00:  MAGNETIC FIELD
 GVFD.g                   1.00:  GRAVITY FIELD
 VSDR.deg               148.53:  VERT SEC DIRECT
 TDD .m                3473.01:  TOTAL DEPTH (DRILLER)
 SDEP.m                 364.00:  START DEPTH
 DFSL.m                   0.00:  DISTANCE FSL
 DFWL.m                   0.00:  DISTANCE FWL
 UTMY.m             4443793.85:  UTM Y
 UTMX.m              519005.06:  UTM X
 WHEW.m                  -6.24:  WELL HEAD E/W
 WHNS.m                  10.28:  WELL HEAD N/S
 LONG.deg                51.22:  LONGITUDE
 LATI.deg                40.13:  LATITUDE
 TVDS.m                  43.00:  TVDSS CORRECTN
 EKB .m                   0.00:  KB ELEVATION
 EDF .m                  43.00:  DF ELEVATION
 TDL .m                 254.00:  TOTAL DEPTH (LOGGER)
 MAGU.                 1850021:  MAGUTM CHECKSUM
 VSC .                       0:  VS TO CLOSURE
~Parameter Information Block
#MNEM.UNIT       Value        Description
#---------     -----------    ---------------------------
 AV  .mps                 0.50:  Ann Velocity 
 AVMX.mps                 1.40:  Max Ann Veloc 
 AZIF.deg               144.94:  Azm, Final 
 BHAT.        Rotary Steerable:  BHA Type 
 BROT.°/30m               0.23:  Build Rotating 
 BS  .in                  8.50:  Bit Size 
 BTPL.psig              264.00:  Bit Press Loss 
 CABU.                     Yes:  Customer Abuse 
 COMM.                     D
_:  Run Comments 1 
 TCS .hr                 87.30:  Time Ciculation Ended 
 CV  .mps                 2.45:  Crit Velocity 
 CVMX.mps                 2.74:  Max Crit Veloc 
 DD1 .             Aziz Aliyev:  Direct Drillr 1 
 DDSV.               Geo-Pilot:  DD Service 
 DEFF.%                 100.00:  % Det Eff 
 DLRX.°/30m               1.22:  Dogleg Rot Max 
 DLSO.°/30m               0.52:  Dogleg Oriented 
 DLSX.°/30m               1.22:  Dogleg Str Max 
 DRET.      12.59.00 23-Feb-20:  Drill End Time 
 DRST.      09.44.00 18-Feb-20:  Drill Start Tim 
 DTIM.hr                 23.03:  Time Drilling 
 EDEP.m                3473.01:  End Depth 
 ENG1.         Almaz Almadatov:  Engineer 1 
 ENG2.         Dair Mahammadov:  Engineer 2 
 ENG3.          Nazrin Asgarli:  Engineer 3 
 ETIM.      10.33.36 26-Feb-20:  End Time 
 FLOI.gpm               480.00:  Flow In 
 FLON.gpm               300.00:  Flow In Min 
 FLOS.cptm                1.00:  Fluid Loss 
 FLOX.gpm               550.00:  Flow In Max 
 HFLO.                      No:  High Flow 
 HPRE.                      No:  High Pressure 
 HTEM.                      No:  High Temp 
 HYDO.m                   1.80:  Hydro Offset 
 IFIN.deg                74.42:  Inc, Final 
 IMAX.deg                76.14:  Inc Max 
 IMIN.deg                74.42:  Inc Min 
 IMND.m                3462.72:  Inc Min Depth 
 IMXD.m                3235.69:  Inc Max Depth 
 JARR.                      No:  Jarring 
 LETM.      12.59.00 23-Feb-20:  Log End Time 
 LOST.hr                     0:  Lost Rig Time 
 LSTM.      09.44.00 18-Feb-20:  Log Start Time 
 MDCL.ppm             45000.00:  Mud Chlorides 
 MDES.     Inversion Oil/Synthetic:  Mud Desc 
 DFD .sg                  1.38:  Mud Density 
 MDMN.sg                  1.34:  Dens Mud Min 
 MDMX.sg                  1.49:  Dens Mud Max 
 MOIL.                      67:  Run Mud Oil % 
 MOWR.                   67:33:  Run Mud OWR 
 MSND.                    0.12:  Run Mud Sand % 
 MSOL.                      22:  Run Mud Solids% 
 DFV .spqt               81.00:  Mud Viscosity 
 MWOD.in                  6.75:  MWD Tool OD 
 MWSI.                      No:  Serv Intrp, MWD 
 OTIM.hr                231.44:  Time Operating 
 PCON.          Wear / Scratch:  Pad Condition 
 PMAX.psia             3400.00:  Press Op, Max 
 PV  .cP                 55.00:  Mud PV 
 RUN .                     800:  Run Number 
 ROPA.m/hr               12.00:  ROP Avg 
 ROPN.m/hr                5.00:  ROP Min 
 ROPX.m/hr               28.00:  ROP Max 
 RPMA.rpm               120.00:  RPM Surface Avg 
 RPMN.rpm                40.00:  RPM Surface Min 
 RPMX.rpm               130.00:  RPM Surface Max 
 RRUN.                    0800:  Rig Run Number 
 RTIM.hr                 45.00:  Time Reaming 
 SAZI.deg               145.38:  Azm, Start 
 SDEP.m                3219.01:  Start Depth 
 SIDD.                      No:  Serv Intrp, DD 
 SINC.deg                75.11:  Inc, Start 
 SPPA.psig             2400.00:  SPP Avg 
 SPPN.psig             2320.00:  SPP Min 
 SPPX.psig             3200.00:  SPP Max 
 STIM.      15.15.00 17-Feb-20:  Start Time 
 SVCS.                 DD, MWD:  Services 
 SVER.                    9.20:  Sperry Version 
 TDAT.m                 254.00:  Tot Depth Attmp 
 TDDF.                      No:  Trip for DD 
 TDLG.m                 254.00:  Tot Depth Loggd 
 TFF .                      No:  Trip for Fail 
 TQAA.f-kp               13.00:  Torque Abs Avg 
 TQAN.f-kp                7.00:  Torque Abs Min 
 TQAX.f-kp               15.00:  Torque Abs Max 
 TRRT.°/30m               0.21:  Turn Rotating 
 MRT .                  EWR-M5:  Maximum Recorded Temperature 
 TTMX.degC               64.00:  Max Tool Temp 
 VS01.                90586516:  Virtual Str1 SN 
 VS02.                90513691:  Virtual Str2 SN 
 VS03.                90586523:  Virtual Str3 SN 
 VS04.                90586520:  Virtual Str4 SN 
 VS05.                90590507:  Virtual Str5 SN 
 WBMN.klb                12.00:  WOB Min 
 WITN.           Rufat Babayev:  Customer Rep 2 
 WITN.         Alistair Sprott:  Customer Rep 
 WOBA.klb                18.00:  WOB Avg 
 WOBX.klb                30.00:  WOB Max 
 YP  .lhf2               41.00:  Yield Point 
~Curve Information Block
#MNEM.UNIT                 API CODE     Curve Description
#---------               -----------    ---------------------------
 TIME.HHMMSS            00 000 000 000:  GT Time & Date
 GTDEPTH.m              00 000 000 000:  GT Depth
 GTPQH.psia             00 000 000 000:  GT HR Quartz Pressure
 GTTQ.degC              00 000 000 000:  GT Quartz Temperature
 GTTN.NONE              00 000 000 000:  GT Test Number
 GTET.sec               00 000 000 000:  GT Elapsed Test Time
 GTTVD.m                00 000 000 000:  GT True Vertical Depth
#Other Information
#
#WARRANTY: Halliburton will use its best efforts to furnish customers with 
#accurate information and interpretations that are part of, and incident to, the services 
#provided.  However, Halliburton cannot and does not warrant the accuracy 
#or correctness of such information and interpretations.  Under no circumstances should any 
#such information or interpretation be relied upon as the sole basis for any drilling, 
#completion, production, or financial decision or any procedure involving any risk to the 
#safety of any drilling venture, drilling rig or its crew or any other third party.  The 
#Customer has full responsibility for all drilling, completion and production operation.  
#Halliburton makes no representations or warranties, either expressed or 
#implied, including, but not limited to, the implied warranties of merchantability or fitness 
#for a particular purpose, with respect to the services rendered.  In no event will 
#Halliburton be liable for failure to obtain any particular results or for 
#any damages, including, but not limited to, indirect, special or consequential damages, 
#resulting from the use of any information or interpretation provided by Halliburton.
#
~A           TIME           GTDEPTH  GTPQH  GTTQ  GTTN  GTET   GTTVD  
# ...
   02:51:50.449.24-Feb-2020 3375.51 4203.76 55.80 5.00 253.10 2709.14
   02:51:50.649.24-Feb-2020 3375.51 4203.76 55.80 5.00 253.30 2709.14
   02:51:50.849.24-Feb-2020 3375.51 4203.67 55.80 5.00 253.50 2709.14
   02:51:51.049.24-Feb-2020 3375.51 4203.73 55.80 5.00 253.70 2709.14
   02:51:51.249.24-Feb-2020 3375.51 4203.74 55.80 5.00 253.90 2709.14
   02:51:51.449.24-Feb-2020 3375.51 4203.72 55.80 5.00 254.10 2709.14
   02:51:51.649.24-Feb-2020 3375.51 4203.72 55.80 5.00 254.30 2709.14
   02:51:51.849.24-Feb-2020 3375.51 4203.67 55.80 5.00 254.50 2709.14
   02:51:52.049.24-Feb-2020 3375.51 4203.70 55.80 5.00 254.70 2709.14
   02:51:52.249.24-Feb-2020 3375.51 4203.75 55.80 5.00 254.90 2709.14
   02:51:52.449.24-Feb-2020 3375.51 4203.72 55.80 5.00 255.10 2709.14
   02:51:52.650.24-Feb-2020 3375.51 4203.72 55.80 5.00 255.30 2709.14
   02:51:52.850.24-Feb-2020 3375.51 4203.21 55.80 5.00 255.50 2709.14
   02:51:53.050.24-Feb-2020 3375.51 4204.17 55.80 5.00 255.70 2709.14
   02:51:53.250.24-Feb-2020 3375.51 4203.90 55.80 5.00 255.90 2709.14
   02:51:53.450.24-Feb-2020 3375.51 4203.60 55.80 5.00 256.10 2709.14
   02:51:53.650.24-Feb-2020 3375.51 4203.60 55.80 5.00 256.30 2709.14
   02:51:53.850.24-Feb-2020 3375.51 4203.36 55.80 5.00 256.50 2709.14
   02:51:54.050.24-Feb-2020 3375.51 4204.19 55.80 5.00 256.70 2709.14
   02:51:54.250.24-Feb-2020 3375.51 4203.67 55.80 5.00 256.90 2709.14
   02:51:54.450.24-Feb-2020 3375.51 4203.75 55.80 5.00 257.10 2709.14
   02:51:54.650.24-Feb-2020 3375.51 4203.75 55.80 5.00 257.30 2709.14
   02:51:54.850.24-Feb-2020 3375.51 4203.72 55.80 5.00 257.50 2709.14
   02:51:55.051.24-Feb-2020 3375.51 4203.27 55.80 5.00 257.70 2709.14
   02:51:55.251.24-Feb-2020 3375.51 4204.20 55.80 5.00 257.90 2709.14
   02:51:55.451.24-Feb-2020 3375.51 4203.93 55.80 5.00 258.10 2709.14
   02:51:55.651.24-Feb-2020 3375.51 4203.93 55.80 5.00 258.30 2709.14
   02:51:55.851.24-Feb-2020 3375.51 4203.65 55.80 5.00 258.50 2709.14
   02:51:56.051.24-Feb-2020 3375.51 4203.75 55.80 5.00 258.70 2709.14
   02:51:56.251.24-Feb-2020 3375.51 4203.79 55.80 5.00 258.90 2709.14
   02:51:56.451.24-Feb-2020 3375.51 4203.79 55.80 5.00 259.10 2709.14
   02:51:56.651.24-Feb-2020 3375.51 4203.79 55.80 5.00 259.30 2709.14
   02:51:56.851.24-Feb-2020 3375.51 4203.77 55.80 5.00 259.50 2709.14
   02:51:57.051.24-Feb-2020 3375.51 4203.75 55.80 5.00 259.70 2709.14
   02:51:57.251.24-Feb-2020 3375.51 4203.65 55.80 5.00 259.90 2709.14
   02:51:57.451.24-Feb-2020 3375.51 4203.72 55.80 5.00 260.10 2709.14
   02:51:57.652.24-Feb-2020 3375.51 4203.72 55.80 5.00 260.30 2709.14
   02:51:57.852.24-Feb-2020 3375.51 4203.73 55.80 5.00 260.50 2709.14
   02:51:58.052.24-Feb-2020 3375.51 4203.73 55.80 5.00 260.70 2709.14
   02:51:58.252.24-Feb-2020 3375.51 4203.71 55.80 5.00 260.90 2709.14
   02:51:58.452.24-Feb-2020 3375.51 4203.72 55.80 5.00 261.10 2709.14
   02:51:58.652.24-Feb-2020 3375.51 4203.72 55.80 5.00 261.30 2709.14
   02:51:58.852.24-Feb-2020 3375.51 4203.71 55.80 5.00 261.50 2709.14
   02:51:59.052.24-Feb-2020 3375.51 4203.32 55.80 5.00 261.70 2709.14
   02:51:59.252.24-Feb-2020 3375.51 4204.17 55.80 5.00 261.90 2709.14
   02:51:59.452.24-Feb-2020 3375.51 4203.68 55.80 5.00 262.10 2709.14
   02:51:59.652.24-Feb-2020 3375.51 4203.68 55.80 5.00 262.30 2709.14
   02:51:59.852.24-Feb-2020 3375.51 4203.70 55.80 5.00 262.51 2709.14
   02:52:00.053.24-Feb-2020 3375.51 4203.71 55.80 5.00 262.71 2709.14
   02:52:00.253.24-Feb-2020 3375.51 4203.65 55.80 5.00 262.91 2709.14
   02:52:00.453.24-Feb-2020 3375.51 4203.69 55.80 5.00 263.11 2709.14
   02:52:00.653.24-Feb-2020 3375.51 4203.69 55.80 5.00 263.31 2709.14
   02:52:00.853.24-Feb-2020 3375.51 4203.72 55.80 5.00 263.51 2709.14
   02:52:01.053.24-Feb-2020 3375.51 4203.69 55.80 5.00 263.71 2709.14
   02:52:01.253.24-Feb-2020 3375.51 4203.73 55.80 5.00 263.91 2709.14
   02:52:01.453.24-Feb-2020 3375.51 4203.65 55.80 5.00 264.11 2709.14
   02:52:01.653.24-Feb-2020 3375.51 4203.65 55.80 5.00 264.31 2709.14
   02:52:01.853.24-Feb-2020 3375.51 4203.74 55.80 5.00 264.51 2709.14
   02:52:02.053.24-Feb-2020 3375.51 4203.71 55.80 5.00 264.71 2709.14
   02:52:02.253.24-Feb-2020 3375.51 4203.68 55.80 5.00 264.91 2709.14
   02:52:02.453.24-Feb-2020 3375.51 4203.69 55.80 5.00 265.11 2709.14
   02:52:02.654.24-Feb-2020 3375.51 4203.69 55.80 5.00 265.31 2709.14
   02:52:02.854.24-Feb-2020 3375.51 4203.73 55.80 5.00 265.51 2709.14
   02:52:03.054.24-Feb-2020 3375.51 4203.64 55.80 5.00 265.71 2709.14
   02:52:03.254.24-Feb-2020 3375.51 4203.71 55.80 5.00 265.91 2709.14
   02:52:03.454.24-Feb-2020 3375.51 4203.25 55.80 5.00 266.11 2709.14
   02:52:03.654.24-Feb-2020 3375.51 4203.25 55.80 5.00 266.31 2709.14
   02:52:03.854.24-Feb-2020 3375.51 4203.88 55.80 5.00 266.51 2709.14
   02:52:04.054.24-Feb-2020 3375.51 4203.59 55.80 5.00 266.71 2709.14
   02:52:04.254.24-Feb-2020 3375.51 4203.69 55.80 5.00 266.91 2709.14
   02:52:04.454.24-Feb-2020 3375.51 4203.76 55.80 5.00 267.11 2709.14
   02:52:04.654.24-Feb-2020 3375.51 4203.76 55.80 5.00 267.31 2709.14
   02:52:04.854.24-Feb-2020 3375.51 4203.79 55.80 5.00 267.51 2709.14
   02:52:05.055.24-Feb-2020 3375.51 4203.76 55.80 5.00 267.71 2709.14
   02:52:05.255.24-Feb-2020 3375.51 4203.69 55.80 5.00 267.91 2709.14
   02:52:05.455.24-Feb-2020 3375.51 4203.71 55.80 5.00 268.11 2709.14
   02:52:05.655.24-Feb-2020 3375.51 4203.71 55.80 5.00 268.31 2709.14
   02:52:05.855.24-Feb-2020 3375.51 4203.81 55.80 5.00 268.51 2709.14
   02:52:06.055.24-Feb-2020 3375.51 4203.60 55.80 5.00 268.71 2709.14
   02:52:06.255.24-Feb-2020 3375.51 4203.66 55.80 5.00 268.91 2709.14
   02:52:06.455.24-Feb-2020 3375.51 4203.73 55.80 5.00 269.11 2709.14
   02:52:06.655.24-Feb-2020 3375.51 4203.73 55.80 5.00 269.31 2709.14
   02:52:06.855.24-Feb-2020 3375.51 4203.69 55.80 5.00 269.51 2709.14
   02:52:07.055.24-Feb-2020 3375.51 4203.70 55.80 5.00 269.71 2709.14
   02:52:07.255.24-Feb-2020 3375.51 4203.69 55.80 5.00 269.91 2709.14
   02:52:07.455.24-Feb-2020 3375.51 4203.70 55.80 5.00 270.11 2709.14
   02:52:07.656.24-Feb-2020 3375.51 4203.70 55.80 5.00 270.31 2709.14
   02:52:07.856.24-Feb-2020 3375.51 4203.69 55.80 5.00 270.51 2709.14
   02:52:08.056.24-Feb-2020 3375.51 4203.70 55.80 5.00 270.71 2709.14
   02:52:08.256.24-Feb-2020 3375.51 4203.73 55.80 5.00 270.91 2709.14
   02:52:08.456.24-Feb-2020 3375.51 4203.69 55.80 5.00 271.11 2709.14
   02:52:08.656.24-Feb-2020 3375.51 4203.69 55.80 5.00 271.31 2709.14
   02:52:08.856.24-Feb-2020 3375.51 4204.09 55.80 5.00 271.51 2709.14
   02:52:09.056.24-Feb-2020 3375.51 4203.91 55.80 5.00 271.71 2709.14
   02:52:09.256.24-Feb-2020 3375.51 4203.63 55.80 5.00 271.91 2709.14
   02:52:09.456.24-Feb-2020 3375.51 4203.67 55.80 5.00 272.11 2709.14
   02:52:09.656.24-Feb-2020 3375.51 4203.67 55.80 5.00 272.31 2709.14
   02:52:09.856.24-Feb-2020 3375.51 4203.65 55.80 5.00 272.51 2709.14
   02:52:10.057.24-Feb-2020 3375.51 4203.68 55.80 5.00 272.71 2709.14
   02:52:10.257.24-Feb-2020 3375.51 4203.68 55.80 5.00 272.91 2709.14
   02:52:10.457.24-Feb-2020 3375.51 4203.70 55.80 5.00 273.11 2709.14
   02:52:10.657.24-Feb-2020 3375.51 4203.70 55.80 5.00 273.31 2709.14
   02:52:10.857.24-Feb-2020 3375.51 4203.67 55.80 5.00 273.51 2709.14
   02:52:11.057.24-Feb-2020 3375.51 4203.64 55.79 5.00 273.71 2709.14
   02:52:11.257.24-Feb-2020 3375.51 4203.71 55.79 5.00 273.91 2709.14
   02:52:11.457.24-Feb-2020 3375.51 4203.72 55.79 5.00 274.11 2709.14
   02:52:11.657.24-Feb-2020 3375.51 4203.71 55.79 5.00 274.31 2709.14
   02:52:11.857.24-Feb-2020 3375.51 4203.65 55.79 5.00 274.51 2709.14
   02:52:12.057.24-Feb-2020 3375.51 4203.72 55.79 5.00 274.71 2709.14
   02:52:12.257.24-Feb-2020 3375.51 4203.79 55.79 5.00 274.91 2709.14
   02:52:12.457.24-Feb-2020 3375.51 4203.50 55.79 5.00 275.11 2709.14
   02:52:12.658.24-Feb-2020 3375.51 4203.50 55.79 5.00 275.31 2709.14
   02:52:12.858.24-Feb-2020 3375.51 4034.42 55.79 5.00 275.51 2709.14
   02:52:13.058.24-Feb-2020 3375.51 4016.56 55.79 5.00 275.71 2709.14
   02:52:13.258.24-Feb-2020 3375.51 4013.62 55.79 5.00 275.91 2709.14
