~Version Information
 VERS.                  2.0:   CWLS log ASCII Standard -VERSION 2.0
 WRAP.                   NO:   One line per depth step
~Well Information Block
#MNEM.UNIT     VALUE/NAME     DESCRIPTION
#---------     -----------    ---------------------------
 STRT.S             06:02:59 24-Feb-20: START TIME 06:02:59 24-Feb-20
 STOP.S             06:10:09 24-Feb-20: STOP TIME  06:10:09 24-Feb-20
 STEP.S                   0.00: STEP TIME
 NULL.                 -999.25: NULL VALUE
 JOBN.        AZ-XX-0905059384:  JOB TICKET NUMB
 PDAT.          Mean Sea Level:  PERMANENT DATUM
 UNIT.                     N/A:  LOGGING EQUIPMENT ID
 DCON.         Sperry Drilling:  DIRECTNL CONTR
 DOE .                     N/A:  DOE NUMBER
 RIG .             West Chirag:  RIG NAME
 WELL.                     J22:  WELL NAME
 MWDS.                    Baku:  MWD SHOP
 SRVC.     TURAN Drilling & Engineering:  CONTRACTOR
 FLD .                     ACG:  FIELD NAME
 CTRY.              Azerbaijan:  COUNTRY NAME
 PROV.                    Baku:  PROVINCE
 STAT.                    Baku:  STATE NAME
 REGN.                   EESSA:  REGION
 BASE.              Azerbaijan:  LOGGING EQUIPMENT BASE LOCATION
 UWI .                     N/A:  UNIQUE WELL IDENTIFIER
 API .                     N/A:  API NUMBER
 COMP.     BP Exploration (Caspian Sea) Ltd.:  COMPANY
 WTYP.                Deviated:  WELL TYPE
 MDS .        Operator Entered:  MAG DATA SOURCE
 SON .        AZ-XX-0905059384:  JOB NUMBER
 FTOP.          Formation Tops:  FORM TOPS DESC
 ILTD.               Lithology:  INTERP LTH DESC
 SVYD.                  Survey:  SURVEY DESC
 DMOD.             Drill Model:  DRILL MOD DESC
 HPTY.       Minimum Curvature:  HOLE POS TYPE
 NREF.                    Grid:  NORTH REFERENCE
 SPUD.               09-Jan-20:  SPUD DATE
 DATE.      14.04.48 07-Feb-20:  END TIME
 STIM.      07.00.00 09-Jan-20:  START TIME
 DMF .             Drill Floor:  DRILL MEAS FROM
 DFST.                        :  DIST FSL TEXT
 DFWT.                        :  DIST FWL TEXT
 CNTY.                        :  COUNTY
 LOC .                        :  LOCATION
 LMF .             Drill Floor:  LOG MEASURED FROM
 DEP .m                   0.00:  DEPTH
 VSNS.m                  10.28:  VERT SEC N/S
 VSEW.m                  -6.24:  VERT SEC E/W
 AGAP.m                  43.00:  AIR GAP
 APD .m                  43.00:  DEPTH ABOVE PD
 WDMS.m                 169.80:  WD ELEV
 EGL .m                   0.00:  GROUND ELEVATION
 EPD .m                   0.00:  ELEVATION
 AZTC.deg                 6.27:  AZM TOTAL CORR
 GRDC.deg                 0.15:  GRID CORRECTION
 MDEC.deg                 6.42:  MAGNETIC DECL
 MDIP.deg                59.56:  MAGNETIC DIP
 MFLD.nT              50277.00:  MAGNETIC FIELD
 GVFD.g                   1.00:  GRAVITY FIELD
 VSDR.deg               148.53:  VERT SEC DIRECT
 TDD .m                3473.01:  TOTAL DEPTH (DRILLER)
 SDEP.m                 364.00:  START DEPTH
 DFSL.m                   0.00:  DISTANCE FSL
 DFWL.m                   0.00:  DISTANCE FWL
 UTMY.m             4443793.85:  UTM Y
 UTMX.m              519005.06:  UTM X
 WHEW.m                  -6.24:  WELL HEAD E/W
 WHNS.m                  10.28:  WELL HEAD N/S
 LONG.deg                51.22:  LONGITUDE
 LATI.deg                40.13:  LATITUDE
 TVDS.m                  43.00:  TVDSS CORRECTN
 EKB .m                   0.00:  KB ELEVATION
 EDF .m                  43.00:  DF ELEVATION
 TDL .m                 254.00:  TOTAL DEPTH (LOGGER)
 MAGU.                 1850021:  MAGUTM CHECKSUM
 VSC .                       0:  VS TO CLOSURE
~Parameter Information Block
#MNEM.UNIT       Value        Description
#---------     -----------    ---------------------------
 AV  .mps                 0.50:  Ann Velocity 
 AVMX.mps                 1.40:  Max Ann Veloc 
 AZIF.deg               144.94:  Azm, Final 
 BHAT.        Rotary Steerable:  BHA Type 
 BROT.°/30m               0.23:  Build Rotating 
 BS  .in                  8.50:  Bit Size 
 BTPL.psig              264.00:  Bit Press Loss 
 CABU.                     Yes:  Customer Abuse 
 COMM.                     ä\:  Run Comments 1 
 TCS .hr                 87.30:  Time Ciculation Ended 
 CV  .mps                 2.45:  Crit Velocity 
 CVMX.mps                 2.74:  Max Crit Veloc 
 DD1 .             Aziz Aliyev:  Direct Drillr 1 
 DDSV.               Geo-Pilot:  DD Service 
 DEFF.%                 100.00:  % Det Eff 
 DLRX.°/30m               1.22:  Dogleg Rot Max 
 DLSO.°/30m               0.52:  Dogleg Oriented 
 DLSX.°/30m               1.22:  Dogleg Str Max 
 DRET.      12.59.00 23-Feb-20:  Drill End Time 
 DRST.      09.44.00 18-Feb-20:  Drill Start Tim 
 DTIM.hr                 23.03:  Time Drilling 
 EDEP.m                3473.01:  End Depth 
 ENG1.         Almaz Almadatov:  Engineer 1 
 ENG2.         Dair Mahammadov:  Engineer 2 
 ENG3.          Nazrin Asgarli:  Engineer 3 
 ETIM.      10.33.36 26-Feb-20:  End Time 
 FLOI.gpm               480.00:  Flow In 
 FLON.gpm               300.00:  Flow In Min 
 FLOS.cptm                1.00:  Fluid Loss 
 FLOX.gpm               550.00:  Flow In Max 
 HFLO.                      No:  High Flow 
 HPRE.                      No:  High Pressure 
 HTEM.                      No:  High Temp 
 HYDO.m                   1.80:  Hydro Offset 
 IFIN.deg                74.42:  Inc, Final 
 IMAX.deg                76.14:  Inc Max 
 IMIN.deg                74.42:  Inc Min 
 IMND.m                3462.72:  Inc Min Depth 
 IMXD.m                3235.69:  Inc Max Depth 
 JARR.                      No:  Jarring 
 LETM.      12.59.00 23-Feb-20:  Log End Time 
 LOST.hr                     0:  Lost Rig Time 
 LSTM.      09.44.00 18-Feb-20:  Log Start Time 
 MDCL.ppm             45000.00:  Mud Chlorides 
 MDES.     Inversion Oil/Synthetic:  Mud Desc 
 DFD .sg                  1.38:  Mud Density 
 MDMN.sg                  1.34:  Dens Mud Min 
 MDMX.sg                  1.49:  Dens Mud Max 
 MOIL.                      67:  Run Mud Oil % 
 MOWR.                   67:33:  Run Mud OWR 
 MSND.                    0.12:  Run Mud Sand % 
 MSOL.                      22:  Run Mud Solids% 
 DFV .spqt               81.00:  Mud Viscosity 
 MWOD.in                  6.75:  MWD Tool OD 
 MWSI.                      No:  Serv Intrp, MWD 
 OTIM.hr                231.44:  Time Operating 
 PCON.          Wear / Scratch:  Pad Condition 
 PMAX.psia             3400.00:  Press Op, Max 
 PV  .cP                 55.00:  Mud PV 
 RUN .                     800:  Run Number 
 ROPA.m/hr               12.00:  ROP Avg 
 ROPN.m/hr                5.00:  ROP Min 
 ROPX.m/hr               28.00:  ROP Max 
 RPMA.rpm               120.00:  RPM Surface Avg 
 RPMN.rpm                40.00:  RPM Surface Min 
 RPMX.rpm               130.00:  RPM Surface Max 
 RRUN.                    0800:  Rig Run Number 
 RTIM.hr                 45.00:  Time Reaming 
 SAZI.deg               145.38:  Azm, Start 
 SDEP.m                3219.01:  Start Depth 
 SIDD.                      No:  Serv Intrp, DD 
 SINC.deg                75.11:  Inc, Start 
 SPPA.psig             2400.00:  SPP Avg 
 SPPN.psig             2320.00:  SPP Min 
 SPPX.psig             3200.00:  SPP Max 
 STIM.      15.15.00 17-Feb-20:  Start Time 
 SVCS.                 DD, MWD:  Services 
 SVER.                    9.20:  Sperry Version 
 TDAT.m                 254.00:  Tot Depth Attmp 
 TDDF.                      No:  Trip for DD 
 TDLG.m                 254.00:  Tot Depth Loggd 
 TFF .                      No:  Trip for Fail 
 TQAA.f-kp               13.00:  Torque Abs Avg 
 TQAN.f-kp                7.00:  Torque Abs Min 
 TQAX.f-kp               15.00:  Torque Abs Max 
 TRRT.°/30m               0.21:  Turn Rotating 
 MRT .                  EWR-M5:  Maximum Recorded Temperature 
 TTMX.degC               64.00:  Max Tool Temp 
 VS01.                90586516:  Virtual Str1 SN 
 VS02.                90513691:  Virtual Str2 SN 
 VS03.                90586523:  Virtual Str3 SN 
 VS04.                90586520:  Virtual Str4 SN 
 VS05.                90590507:  Virtual Str5 SN 
 WBMN.klb                12.00:  WOB Min 
 WITN.           Rufat Babayev:  Customer Rep 2 
 WITN.         Alistair Sprott:  Customer Rep 
 WOBA.klb                18.00:  WOB Avg 
 WOBX.klb                30.00:  WOB Max 
 YP  .lhf2               41.00:  Yield Point 
~Curve Information Block
#MNEM.UNIT                 API CODE     Curve Description
#---------               -----------    ---------------------------
 TIME.HHMMSS            00 000 000 000:  GT Time & Date
 GTDEPTH.m              00 000 000 000:  GT Depth
 GTPQH.psia             00 000 000 000:  GT HR Quartz Pressure
 GTTQ.degC              00 000 000 000:  GT Quartz Temperature
 GTTN.NONE              00 000 000 000:  GT Test Number
 GTET.sec               00 000 000 000:  GT Elapsed Test Time
 GTTVD.m                00 000 000 000:  GT True Vertical Depth
#Other Information
#
#WARRANTY: Halliburton will use its best efforts to furnish customers with 
#accurate information and interpretations that are part of, and incident to, the services 
#provided.  However, Halliburton cannot and does not warrant the accuracy 
#or correctness of such information and interpretations.  Under no circumstances should any 
#such information or interpretation be relied upon as the sole basis for any drilling, 
#completion, production, or financial decision or any procedure involving any risk to the 
#safety of any drilling venture, drilling rig or its crew or any other third party.  The 
#Customer has full responsibility for all drilling, completion and production operation.  
#Halliburton makes no representations or warranties, either expressed or 
#implied, including, but not limited to, the implied warranties of merchantability or fitness 
#for a particular purpose, with respect to the services rendered.  In no event will 
#Halliburton be liable for failure to obtain any particular results or for 
#any damages, including, but not limited to, indirect, special or consequential damages, 
#resulting from the use of any information or interpretation provided by Halliburton.
#
~A           TIME           GTDEPTH  GTPQH  GTTQ  GTTN  GTET   GTTVD  
# ...
   06:04:54.195.24-Feb-2020 3290.31   55.46 54.60 9.00 115.03 2687.60
   06:04:54.395.24-Feb-2020 3290.31   55.52 54.60 9.00 115.23 2687.60
   06:04:54.595.24-Feb-2020 3290.31   55.59 54.60 9.00 115.43 2687.60
   06:04:54.795.24-Feb-2020 3290.31   55.66 54.60 9.00 115.63 2687.60
   06:04:54.995.24-Feb-2020 3290.31   55.73 54.60 9.00 115.83 2687.60
   06:04:55.195.24-Feb-2020 3290.31   55.80 54.60 9.00 116.03 2687.60
   06:04:55.395.24-Feb-2020 3290.31   55.80 54.60 9.00 116.23 2687.60
   06:04:55.595.24-Feb-2020 3290.31   55.93 54.60 9.00 116.43 2687.60
   06:04:55.795.24-Feb-2020 3290.31   55.99 54.60 9.00 116.63 2687.60
   06:04:55.995.24-Feb-2020 3290.31   56.05 54.60 9.00 116.83 2687.60
   06:04:56.195.24-Feb-2020 3290.31   56.12 54.60 9.00 117.03 2687.60
   06:04:56.395.24-Feb-2020 3290.31   56.12 54.60 9.00 117.23 2687.60
   06:04:56.595.24-Feb-2020 3290.31   56.24 54.60 9.00 117.43 2687.60
   06:04:56.795.24-Feb-2020 3290.31   56.31 54.60 9.00 117.63 2687.60
   06:04:56.995.24-Feb-2020 3290.31   56.37 54.60 9.00 117.83 2687.60
   06:04:57.195.24-Feb-2020 3290.31   56.44 54.60 9.00 118.03 2687.60
   06:04:57.395.24-Feb-2020 3290.31   56.44 54.60 9.00 118.23 2687.60
   06:04:57.595.24-Feb-2020 3290.31   56.56 54.60 9.00 118.43 2687.60
   06:04:57.795.24-Feb-2020 3290.31   56.62 54.60 9.00 118.63 2687.60
   06:04:57.995.24-Feb-2020 3290.31   56.68 54.60 9.00 118.83 2687.60
   06:04:58.195.24-Feb-2020 3290.31   56.75 54.60 9.00 119.03 2687.60
   06:04:58.395.24-Feb-2020 3290.31   56.81 54.60 9.00 119.23 2687.60
   06:04:58.596.24-Feb-2020 3290.31   56.86 54.60 9.00 119.43 2687.60
   06:04:58.796.24-Feb-2020 3290.31   56.94 54.60 9.00 119.63 2687.60
   06:04:58.996.24-Feb-2020 3290.31   56.99 54.60 9.00 119.83 2687.60
   06:04:59.196.24-Feb-2020 3290.31   57.06 54.60 9.00 120.03 2687.60
   06:04:59.396.24-Feb-2020 3290.31   57.06 54.60 9.00 120.23 2687.60
   06:04:59.596.24-Feb-2020 3290.31   57.18 54.60 9.00 120.43 2687.60
   06:04:59.796.24-Feb-2020 3290.31   57.24 54.60 9.00 120.63 2687.60
   06:04:59.996.24-Feb-2020 3290.31   57.31 54.60 9.00 120.83 2687.60
   06:05:00.196.24-Feb-2020 3290.31   57.37 54.60 9.00 121.03 2687.60
   06:05:00.396.24-Feb-2020 3290.31   57.37 54.60 9.00 121.23 2687.60
   06:05:00.596.24-Feb-2020 3290.31   57.49 54.60 9.00 121.43 2687.60
   06:05:00.796.24-Feb-2020 3290.31   57.56 54.60 9.00 121.63 2687.60
   06:05:00.996.24-Feb-2020 3290.31   57.62 54.60 9.00 121.83 2687.60
   06:05:01.196.24-Feb-2020 3290.31   57.68 54.60 9.00 122.03 2687.60
   06:05:01.396.24-Feb-2020 3290.31   57.68 54.60 9.00 122.23 2687.60
   06:05:01.596.24-Feb-2020 3290.31   57.80 54.60 9.00 122.43 2687.60
   06:05:01.796.24-Feb-2020 3290.31   57.87 54.60 9.00 122.63 2687.60
   06:05:01.996.24-Feb-2020 3290.31   57.93 54.60 9.00 122.83 2687.60
   06:05:02.196.24-Feb-2020 3290.31   58.00 54.60 9.00 123.03 2687.60
   06:05:02.396.24-Feb-2020 3290.31   58.06 54.60 9.00 123.23 2687.60
   06:05:02.596.24-Feb-2020 3290.31   58.11 54.60 9.00 123.43 2687.60
   06:05:02.796.24-Feb-2020 3290.31   58.19 54.60 9.00 123.63 2687.60
   06:05:02.996.24-Feb-2020 3290.31   58.25 54.60 9.00 123.83 2687.60
   06:05:03.197.24-Feb-2020 3290.31   58.32 54.60 9.00 124.03 2687.60
   06:05:03.397.24-Feb-2020 3290.31   58.32 54.60 9.00 124.23 2687.60
   06:05:03.597.24-Feb-2020 3290.31   58.45 54.60 9.00 124.43 2687.60
   06:05:03.797.24-Feb-2020 3290.31   58.52 54.60 9.00 124.63 2687.60
   06:05:03.997.24-Feb-2020 3290.31   58.58 54.60 9.00 124.83 2687.60
   06:05:04.197.24-Feb-2020 3290.31   58.65 54.60 9.00 125.03 2687.60
   06:05:04.397.24-Feb-2020 3290.31   58.65 54.60 9.00 125.23 2687.60
   06:05:04.597.24-Feb-2020 3290.31   58.78 54.60 9.00 125.43 2687.60
   06:05:04.797.24-Feb-2020 3290.31   58.84 54.60 9.00 125.63 2687.60
   06:05:04.997.24-Feb-2020 3290.31   58.90 54.60 9.00 125.83 2687.60
   06:05:05.197.24-Feb-2020 3290.31   58.97 54.60 9.00 126.03 2687.60
   06:05:05.397.24-Feb-2020 3290.31   58.97 54.60 9.00 126.23 2687.60
   06:05:05.597.24-Feb-2020 3290.31   59.10 54.60 9.00 126.43 2687.60
   06:05:05.797.24-Feb-2020 3290.31   59.16 54.60 9.00 126.63 2687.60
   06:05:05.997.24-Feb-2020 3290.31   59.23 54.60 9.00 126.83 2687.60
   06:05:06.197.24-Feb-2020 3290.31   59.30 54.60 9.00 127.03 2687.60
   06:05:06.397.24-Feb-2020 3290.31   59.36 54.60 9.00 127.23 2687.60
   06:05:06.597.24-Feb-2020 3290.31   59.42 54.60 9.00 127.43 2687.60
   06:05:06.797.24-Feb-2020 3290.31   59.47 54.60 9.00 127.63 2687.60
   06:05:06.997.24-Feb-2020 3290.31   59.55 54.60 9.00 127.83 2687.60
   06:05:07.197.24-Feb-2020 3290.31   59.61 54.60 9.00 128.03 2687.60
   06:05:07.397.24-Feb-2020 3290.31   59.61 54.60 9.00 128.23 2687.60
   06:05:07.597.24-Feb-2020 3290.31   59.73 54.60 9.00 128.43 2687.60
   06:05:07.798.24-Feb-2020 3290.31   59.80 54.60 9.00 128.63 2687.60
   06:05:07.998.24-Feb-2020 3290.31   59.86 54.60 9.00 128.83 2687.60
   06:05:08.198.24-Feb-2020 3290.31   59.92 54.60 9.00 129.03 2687.60
   06:05:08.398.24-Feb-2020 3290.31   59.92 54.60 9.00 129.23 2687.60
   06:05:08.598.24-Feb-2020 3290.31   60.05 54.60 9.00 129.43 2687.60
   06:05:08.798.24-Feb-2020 3290.31   60.11 54.60 9.00 129.63 2687.60
   06:05:08.998.24-Feb-2020 3290.31   60.17 54.60 9.00 129.83 2687.60
   06:05:09.198.24-Feb-2020 3290.31   60.24 54.60 9.00 130.03 2687.60
   06:05:09.398.24-Feb-2020 3290.31   60.24 54.60 9.00 130.23 2687.60
   06:05:09.598.24-Feb-2020 3290.31   60.36 54.60 9.00 130.43 2687.60
   06:05:09.798.24-Feb-2020 3290.31   60.41 54.60 9.00 130.63 2687.60
   06:05:09.998.24-Feb-2020 3290.31   60.49 54.60 9.00 130.83 2687.60
   06:05:10.198.24-Feb-2020 3290.31   60.54 54.60 9.00 131.03 2687.60
   06:05:10.398.24-Feb-2020 3290.31   60.61 54.60 9.00 131.23 2687.60
   06:05:10.598.24-Feb-2020 3290.31   60.67 54.60 9.00 131.43 2687.60
   06:05:10.798.24-Feb-2020 3290.31   60.72 54.60 9.00 131.63 2687.60
   06:05:10.998.24-Feb-2020 3290.31   60.80 54.60 9.00 131.83 2687.60
   06:05:11.198.24-Feb-2020 3290.31   60.85 54.60 9.00 132.03 2687.60
   06:05:11.398.24-Feb-2020 3290.31   60.85 54.60 9.00 132.23 2687.60
   06:05:11.598.24-Feb-2020 3290.31   60.97 54.60 9.00 132.43 2687.60
   06:05:11.798.24-Feb-2020 3290.31   61.03 54.60 9.00 132.63 2687.60
   06:05:11.998.24-Feb-2020 3290.31   61.10 54.60 9.00 132.83 2687.60
   06:05:12.198.24-Feb-2020 3290.31   61.16 54.60 9.00 133.03 2687.60
   06:05:12.399.24-Feb-2020 3290.31   61.16 54.60 9.00 133.23 2687.60
   06:05:12.599.24-Feb-2020 3290.31   61.28 54.60 9.00 133.43 2687.60
   06:05:12.799.24-Feb-2020 3290.31   61.33 54.60 9.00 133.63 2687.60
   06:05:12.999.24-Feb-2020 3290.31   61.40 54.60 9.00 133.83 2687.60
   06:05:13.199.24-Feb-2020 3290.31   61.47 54.60 9.00 134.03 2687.60
   06:05:13.399.24-Feb-2020 3290.31   61.47 54.60 9.00 134.23 2687.60
   06:05:13.599.24-Feb-2020 3290.31   61.59 54.60 9.00 134.43 2687.60
   06:05:13.799.24-Feb-2020 3290.31   61.64 54.60 9.00 134.63 2687.60
   06:05:13.999.24-Feb-2020 3290.31   61.70 54.60 9.00 134.83 2687.60
   06:05:14.199.24-Feb-2020 3290.31   61.77 54.60 9.00 135.03 2687.60
   06:05:14.399.24-Feb-2020 3290.31   61.83 54.60 9.00 135.23 2687.60
   06:05:14.599.24-Feb-2020 3290.31   61.88 54.60 9.00 135.43 2687.60
   06:05:14.799.24-Feb-2020 3290.31   61.95 54.60 9.00 135.63 2687.60
   06:05:14.999.24-Feb-2020 3290.31   62.00 54.60 9.00 135.83 2687.60
   06:05:15.199.24-Feb-2020 3290.31   62.06 54.60 9.00 136.03 2687.60
   06:05:15.399.24-Feb-2020 3290.31   62.06 54.60 9.00 136.23 2687.60
   06:05:15.599.24-Feb-2020 3290.31   62.17 54.60 9.00 136.43 2687.60
   06:05:15.799.24-Feb-2020 3290.31   62.23 54.60 9.00 136.63 2687.60
   06:05:15.999.24-Feb-2020 3290.31   62.28 54.60 9.00 136.83 2687.60
   06:05:16.199.24-Feb-2020 3290.31   62.36 54.60 9.00 137.03 2687.60
   06:05:16.399.24-Feb-2020 3290.31   62.36 54.60 9.00 137.23 2687.60
   06:05:16.599.24-Feb-2020 3290.31   62.47 54.60 9.00 137.43 2687.60
   06:05:16.800.24-Feb-2020 3290.31   62.52 54.60 9.00 137.63 2687.60
   06:05:17.000.24-Feb-2020 3290.31   62.57 54.60 9.00 137.83 2687.60
