~Version Information
 VERS.                  2.0:   CWLS log ASCII Standard -VERSION 2.0
 WRAP.                   NO:   One line per depth step
~Well Information Block
#MNEM.UNIT     VALUE/NAME     DESCRIPTION
#---------     -----------    ---------------------------
 STRT.S             06:02:59 24-Feb-20: START TIME 06:02:59 24-Feb-20
 STOP.S             06:10:09 24-Feb-20: STOP TIME  06:10:09 24-Feb-20
 STEP.S                   0.00: STEP TIME
 NULL.                 -999.25: NULL VALUE
 JOBN.        AZ-XX-0905059384:  JOB TICKET NUMB
 PDAT.          Mean Sea Level:  PERMANENT DATUM
 UNIT.                     N/A:  LOGGING EQUIPMENT ID
 DCON.         Sperry Drilling:  DIRECTNL CONTR
 DOE .                     N/A:  DOE NUMBER
 RIG .             West Chirag:  RIG NAME
 WELL.                     J22:  WELL NAME
 MWDS.                    Baku:  MWD SHOP
 SRVC.     TURAN Drilling & Engineering:  CONTRACTOR
 FLD .                     ACG:  FIELD NAME
 CTRY.              Azerbaijan:  COUNTRY NAME
 PROV.                    Baku:  PROVINCE
 STAT.                    Baku:  STATE NAME
 REGN.                   EESSA:  REGION
 BASE.              Azerbaijan:  LOGGING EQUIPMENT BASE LOCATION
 UWI .                     N/A:  UNIQUE WELL IDENTIFIER
 API .                     N/A:  API NUMBER
 COMP.     BP Exploration (Caspian Sea) Ltd.:  COMPANY
 WTYP.                Deviated:  WELL TYPE
 MDS .        Operator Entered:  MAG DATA SOURCE
 SON .        AZ-XX-0905059384:  JOB NUMBER
 FTOP.          Formation Tops:  FORM TOPS DESC
 ILTD.               Lithology:  INTERP LTH DESC
 SVYD.                  Survey:  SURVEY DESC
 DMOD.             Drill Model:  DRILL MOD DESC
 HPTY.       Minimum Curvature:  HOLE POS TYPE
 NREF.                    Grid:  NORTH REFERENCE
 SPUD.               09-Jan-20:  SPUD DATE
 DATE.      14.04.48 07-Feb-20:  END TIME
 STIM.      07.00.00 09-Jan-20:  START TIME
 DMF .             Drill Floor:  DRILL MEAS FROM
 DFST.                        :  DIST FSL TEXT
 DFWT.                        :  DIST FWL TEXT
 CNTY.                        :  COUNTY
 LOC .                        :  LOCATION
 LMF .             Drill Floor:  LOG MEASURED FROM
 DEP .m                   0.00:  DEPTH
 VSNS.m                  10.28:  VERT SEC N/S
 VSEW.m                  -6.24:  VERT SEC E/W
 AGAP.m                  43.00:  AIR GAP
 APD .m                  43.00:  DEPTH ABOVE PD
 WDMS.m                 169.80:  WD ELEV
 EGL .m                   0.00:  GROUND ELEVATION
 EPD .m                   0.00:  ELEVATION
 AZTC.deg                 6.27:  AZM TOTAL CORR
 GRDC.deg                 0.15:  GRID CORRECTION
 MDEC.deg                 6.42:  MAGNETIC DECL
 MDIP.deg                59.56:  MAGNETIC DIP
 MFLD.nT              50277.00:  MAGNETIC FIELD
 GVFD.g                   1.00:  GRAVITY FIELD
 VSDR.deg               148.53:  VERT SEC DIRECT
 TDD .m                3473.01:  TOTAL DEPTH (DRILLER)
 SDEP.m                 364.00:  START DEPTH
 DFSL.m                   0.00:  DISTANCE FSL
 DFWL.m                   0.00:  DISTANCE FWL
 UTMY.m             4443793.85:  UTM Y
 UTMX.m              519005.06:  UTM X
 WHEW.m                  -6.24:  WELL HEAD E/W
 WHNS.m                  10.28:  WELL HEAD N/S
 LONG.deg                51.22:  LONGITUDE
 LATI.deg                40.13:  LATITUDE
 TVDS.m                  43.00:  TVDSS CORRECTN
 EKB .m                   0.00:  KB ELEVATION
 EDF .m                  43.00:  DF ELEVATION
 TDL .m                 254.00:  TOTAL DEPTH (LOGGER)
 MAGU.                 1850021:  MAGUTM CHECKSUM
 VSC .                       0:  VS TO CLOSURE
~Parameter Information Block
#MNEM.UNIT       Value        Description
#---------     -----------    ---------------------------
 AV  .mps                 0.50:  Ann Velocity 
 AVMX.mps                 1.40:  Max Ann Veloc 
 AZIF.deg               144.94:  Azm, Final 
 BHAT.        Rotary Steerable:  BHA Type 
 BROT.°/30m               0.23:  Build Rotating 
 BS  .in                  8.50:  Bit Size 
 BTPL.psig              264.00:  Bit Press Loss 
 CABU.                     Yes:  Customer Abuse 
 COMM.                     ä\:  Run Comments 1 
 TCS .hr                 87.30:  Time Ciculation Ended 
 CV  .mps                 2.45:  Crit Velocity 
 CVMX.mps                 2.74:  Max Crit Veloc 
 DD1 .             Aziz Aliyev:  Direct Drillr 1 
 DDSV.               Geo-Pilot:  DD Service 
 DEFF.%                 100.00:  % Det Eff 
 DLRX.°/30m               1.22:  Dogleg Rot Max 
 DLSO.°/30m               0.52:  Dogleg Oriented 
 DLSX.°/30m               1.22:  Dogleg Str Max 
 DRET.      12.59.00 23-Feb-20:  Drill End Time 
 DRST.      09.44.00 18-Feb-20:  Drill Start Tim 
 DTIM.hr                 23.03:  Time Drilling 
 EDEP.m                3473.01:  End Depth 
 ENG1.         Almaz Almadatov:  Engineer 1 
 ENG2.         Dair Mahammadov:  Engineer 2 
 ENG3.          Nazrin Asgarli:  Engineer 3 
 ETIM.      10.33.36 26-Feb-20:  End Time 
 FLOI.gpm               480.00:  Flow In 
 FLON.gpm               300.00:  Flow In Min 
 FLOS.cptm                1.00:  Fluid Loss 
 FLOX.gpm               550.00:  Flow In Max 
 HFLO.                      No:  High Flow 
 HPRE.                      No:  High Pressure 
 HTEM.                      No:  High Temp 
 HYDO.m                   1.80:  Hydro Offset 
 IFIN.deg                74.42:  Inc, Final 
 IMAX.deg                76.14:  Inc Max 
 IMIN.deg                74.42:  Inc Min 
 IMND.m                3462.72:  Inc Min Depth 
 IMXD.m                3235.69:  Inc Max Depth 
 JARR.                      No:  Jarring 
 LETM.      12.59.00 23-Feb-20:  Log End Time 
 LOST.hr                     0:  Lost Rig Time 
 LSTM.      09.44.00 18-Feb-20:  Log Start Time 
 MDCL.ppm             45000.00:  Mud Chlorides 
 MDES.     Inversion Oil/Synthetic:  Mud Desc 
 DFD .sg                  1.38:  Mud Density 
 MDMN.sg                  1.34:  Dens Mud Min 
 MDMX.sg                  1.49:  Dens Mud Max 
 MOIL.                      67:  Run Mud Oil % 
 MOWR.                   67:33:  Run Mud OWR 
 MSND.                    0.12:  Run Mud Sand % 
 MSOL.                      22:  Run Mud Solids% 
 DFV .spqt               81.00:  Mud Viscosity 
 MWOD.in                  6.75:  MWD Tool OD 
 MWSI.                      No:  Serv Intrp, MWD 
 OTIM.hr                231.44:  Time Operating 
 PCON.          Wear / Scratch:  Pad Condition 
 PMAX.psia             3400.00:  Press Op, Max 
 PV  .cP                 55.00:  Mud PV 
 RUN .                     800:  Run Number 
 ROPA.m/hr               12.00:  ROP Avg 
 ROPN.m/hr                5.00:  ROP Min 
 ROPX.m/hr               28.00:  ROP Max 
 RPMA.rpm               120.00:  RPM Surface Avg 
 RPMN.rpm                40.00:  RPM Surface Min 
 RPMX.rpm               130.00:  RPM Surface Max 
 RRUN.                    0800:  Rig Run Number 
 RTIM.hr                 45.00:  Time Reaming 
 SAZI.deg               145.38:  Azm, Start 
 SDEP.m                3219.01:  Start Depth 
 SIDD.                      No:  Serv Intrp, DD 
 SINC.deg                75.11:  Inc, Start 
 SPPA.psig             2400.00:  SPP Avg 
 SPPN.psig             2320.00:  SPP Min 
 SPPX.psig             3200.00:  SPP Max 
 STIM.      15.15.00 17-Feb-20:  Start Time 
 SVCS.                 DD, MWD:  Services 
 SVER.                    9.20:  Sperry Version 
 TDAT.m                 254.00:  Tot Depth Attmp 
 TDDF.                      No:  Trip for DD 
 TDLG.m                 254.00:  Tot Depth Loggd 
 TFF .                      No:  Trip for Fail 
 TQAA.f-kp               13.00:  Torque Abs Avg 
 TQAN.f-kp                7.00:  Torque Abs Min 
 TQAX.f-kp               15.00:  Torque Abs Max 
 TRRT.°/30m               0.21:  Turn Rotating 
 MRT .                  EWR-M5:  Maximum Recorded Temperature 
 TTMX.degC               64.00:  Max Tool Temp 
 VS01.                90586516:  Virtual Str1 SN 
 VS02.                90513691:  Virtual Str2 SN 
 VS03.                90586523:  Virtual Str3 SN 
 VS04.                90586520:  Virtual Str4 SN 
 VS05.                90590507:  Virtual Str5 SN 
 WBMN.klb                12.00:  WOB Min 
 WITN.           Rufat Babayev:  Customer Rep 2 
 WITN.         Alistair Sprott:  Customer Rep 
 WOBA.klb                18.00:  WOB Avg 
 WOBX.klb                30.00:  WOB Max 
 YP  .lhf2               41.00:  Yield Point 
~Curve Information Block
#MNEM.UNIT                 API CODE     Curve Description
#---------               -----------    ---------------------------
 TIME.HHMMSS            00 000 000 000:  GT Time & Date
 GTDEPTH.m              00 000 000 000:  GT Depth
 GTPQH.psia             00 000 000 000:  GT HR Quartz Pressure
 GTTQ.degC              00 000 000 000:  GT Quartz Temperature
 GTTN.NONE              00 000 000 000:  GT Test Number
 GTET.sec               00 000 000 000:  GT Elapsed Test Time
 GTTVD.m                00 000 000 000:  GT True Vertical Depth
#Other Information
#
#WARRANTY: Halliburton will use its best efforts to furnish customers with 
#accurate information and interpretations that are part of, and incident to, the services 
#provided.  However, Halliburton cannot and does not warrant the accuracy 
#or correctness of such information and interpretations.  Under no circumstances should any 
#such information or interpretation be relied upon as the sole basis for any drilling, 
#completion, production, or financial decision or any procedure involving any risk to the 
#safety of any drilling venture, drilling rig or its crew or any other third party.  The 
#Customer has full responsibility for all drilling, completion and production operation.  
#Halliburton makes no representations or warranties, either expressed or 
#implied, including, but not limited to, the implied warranties of merchantability or fitness 
#for a particular purpose, with respect to the services rendered.  In no event will 
#Halliburton be liable for failure to obtain any particular results or for 
#any damages, including, but not limited to, indirect, special or consequential damages, 
#resulting from the use of any information or interpretation provided by Halliburton.
#
~A           TIME           GTDEPTH  GTPQH  GTTQ  GTTN  GTET   GTTVD  
   06:02:59.169.24-Feb-2020 3290.31 5672.35 54.76 9.00   0.00 2687.60
   06:02:59.369.24-Feb-2020 3290.31 5672.35 54.76 9.00   0.20 2687.60
   06:02:59.569.24-Feb-2020 3290.31 5677.82 54.76 9.00   0.40 2687.60
   06:02:59.770.24-Feb-2020 3290.31 5669.84 54.76 9.00   0.60 2687.60
   06:02:59.970.24-Feb-2020 3290.31 5670.29 54.76 9.00   0.80 2687.60
   06:03:00.170.24-Feb-2020 3290.31 5672.29 54.76 9.00   1.00 2687.60
   06:03:00.370.24-Feb-2020 3290.31 5672.29 54.76 9.00   1.20 2687.60
   06:03:00.570.24-Feb-2020 3290.31 5668.87 54.76 9.00   1.40 2687.60
   06:03:00.770.24-Feb-2020 3290.31 5668.74 54.76 9.00   1.60 2687.60
   06:03:00.970.24-Feb-2020 3290.31 5672.19 54.76 9.00   1.80 2687.60
   06:03:01.170.24-Feb-2020 3290.31 5678.87 54.76 9.00   2.00 2687.60
   06:03:01.370.24-Feb-2020 3290.31 5678.87 54.76 9.00   2.20 2687.60
   06:03:01.570.24-Feb-2020 3290.31 5670.32 54.76 9.00   2.40 2687.60
   06:03:01.770.24-Feb-2020 3290.31 5671.57 54.76 9.00   2.60 2687.60
   06:03:01.970.24-Feb-2020 3290.31 5671.19 54.76 9.00   2.80 2687.60
   06:03:02.170.24-Feb-2020 3290.31 5675.60 54.76 9.00   3.00 2687.60
   06:03:02.370.24-Feb-2020 3290.31 5675.00 54.76 9.00   3.20 2687.60
   06:03:02.570.24-Feb-2020 3290.31 5671.04 54.76 9.00   3.40 2687.60
   06:03:02.770.24-Feb-2020 3290.31 5671.71 54.76 9.00   3.60 2687.60
   06:03:02.970.24-Feb-2020 3290.31 5672.96 54.76 9.00   3.80 2687.60
   06:03:03.170.24-Feb-2020 3290.31 5673.07 54.76 9.00   4.00 2687.60
   06:03:03.370.24-Feb-2020 3290.31 5673.07 54.76 9.00   4.20 2687.60
   06:03:03.570.24-Feb-2020 3290.31 5671.42 54.76 9.00   4.40 2687.60
   06:03:03.770.24-Feb-2020 3290.31 5671.97 54.76 9.00   4.60 2687.60
   06:03:03.970.24-Feb-2020 3290.31 5673.31 54.76 9.00   4.80 2687.60
   06:03:04.171.24-Feb-2020 3290.31 5673.88 54.76 9.00   5.00 2687.60
   06:03:04.371.24-Feb-2020 3290.31 5673.88 54.76 9.00   5.20 2687.60
   06:03:04.571.24-Feb-2020 3290.31 5673.88 54.76 9.00   5.40 2687.60
   06:03:04.771.24-Feb-2020 3290.31 5669.57 54.76 9.00   5.60 2687.60
   06:03:04.971.24-Feb-2020 3290.31 5672.31 54.76 9.00   5.80 2687.60
   06:03:05.171.24-Feb-2020 3290.31 5672.31 54.76 9.00   6.00 2687.60
   06:03:05.371.24-Feb-2020 3290.31 5672.80 54.76 9.00   6.20 2687.60
   06:03:05.571.24-Feb-2020 3290.31 5675.51 54.76 9.00   6.40 2687.60
   06:03:05.771.24-Feb-2020 3290.31 5670.87 54.76 9.00   6.60 2687.60
   06:03:05.971.24-Feb-2020 3290.31 5671.68 54.76 9.00   6.80 2687.60
   06:03:06.171.24-Feb-2020 3290.31 5673.21 54.76 9.00   7.00 2687.60
   06:03:06.371.24-Feb-2020 3290.31 5673.77 54.76 9.00   7.20 2687.60
   06:03:06.571.24-Feb-2020 3290.31 5673.82 54.76 9.00   7.40 2687.60
   06:03:06.771.24-Feb-2020 3290.31 5682.04 54.76 9.00   7.60 2687.60
   06:03:06.971.24-Feb-2020 3290.31 5670.38 54.76 9.00   7.80 2687.60
   06:03:07.171.24-Feb-2020 3290.31 5671.85 54.76 9.00   8.00 2687.60
   06:03:07.371.24-Feb-2020 3290.31 5671.85 54.76 9.00   8.20 2687.60
   06:03:07.571.24-Feb-2020 3290.31 5672.91 54.76 9.00   8.40 2687.60
   06:03:07.771.24-Feb-2020 3290.31 5673.13 54.76 9.00   8.60 2687.60
   06:03:07.971.24-Feb-2020 3290.31 5674.42 54.76 9.00   8.80 2687.60
   06:03:08.171.24-Feb-2020 3290.31 5674.65 54.76 9.00   9.00 2687.60
   06:03:08.371.24-Feb-2020 3290.31 5674.65 54.76 9.00   9.20 2687.60
   06:03:08.571.24-Feb-2020 3290.31 5673.28 54.76 9.00   9.40 2687.60
   06:03:08.772.24-Feb-2020 3290.31 5673.17 54.76 9.00   9.60 2687.60
   06:03:08.972.24-Feb-2020 3290.31 5673.94 54.76 9.00   9.80 2687.60
   06:03:09.172.24-Feb-2020 3290.31 5674.77 54.76 9.00  10.00 2687.60
   06:03:09.372.24-Feb-2020 3290.31 5674.77 54.76 9.00  10.20 2687.60
   06:03:09.572.24-Feb-2020 3290.31 5673.40 54.76 9.00  10.40 2687.60
   06:03:09.772.24-Feb-2020 3290.31 5673.31 54.76 9.00  10.60 2687.60
   06:03:09.972.24-Feb-2020 3290.31 5673.44 54.76 9.00  10.80 2687.60
   06:03:10.172.24-Feb-2020 3290.31 5674.72 54.76 9.00  11.00 2687.60
   06:03:10.372.24-Feb-2020 3290.31 5681.68 54.76 9.00  11.20 2687.60
   06:03:10.572.24-Feb-2020 3290.31 5672.22 54.76 9.00  11.40 2687.60
   06:03:10.772.24-Feb-2020 3290.31 5671.89 54.76 9.00  11.60 2687.60
   06:03:10.972.24-Feb-2020 3290.31 5673.20 54.76 9.00  11.80 2687.60
   06:03:11.172.24-Feb-2020 3290.31 5673.82 54.75 9.00  12.00 2687.60
   06:03:11.372.24-Feb-2020 3290.31 5673.82 54.75 9.00  12.20 2687.60
   06:03:11.572.24-Feb-2020 3290.31 5675.09 54.75 9.00  12.40 2687.60
   06:03:11.772.24-Feb-2020 3290.31 5673.62 54.75 9.00  12.60 2687.60
   06:03:11.972.24-Feb-2020 3290.31 5673.45 54.75 9.00  12.80 2687.60
   06:03:12.172.24-Feb-2020 3290.31 5673.81 54.75 9.00  13.00 2687.60
   06:03:12.372.24-Feb-2020 3290.31 5673.81 54.75 9.00  13.20 2687.60
   06:03:12.572.24-Feb-2020 3290.31 5675.43 54.75 9.00  13.40 2687.60
   06:03:12.772.24-Feb-2020 3290.31 5675.51 54.75 9.00  13.60 2687.60
   06:03:12.972.24-Feb-2020 3290.31 5674.19 54.75 9.00  13.80 2687.60
   06:03:13.172.24-Feb-2020 3290.31 5673.88 54.75 9.00  14.00 2687.60
   06:03:13.373.24-Feb-2020 3290.31 5673.88 54.75 9.00  14.20 2687.60
   06:03:13.573.24-Feb-2020 3290.31 5674.40 54.75 9.00  14.40 2687.60
   06:03:13.773.24-Feb-2020 3290.31 5674.93 54.75 9.00  14.60 2687.60
   06:03:13.973.24-Feb-2020 3290.31 5678.63 54.75 9.00  14.80 2687.60
   06:03:14.173.24-Feb-2020 3290.31 5677.24 54.75 9.00  15.00 2687.60
   06:03:14.373.24-Feb-2020 3290.31 5672.82 54.75 9.00  15.20 2687.60
   06:03:14.573.24-Feb-2020 3290.31 5673.20 54.75 9.00  15.40 2687.60
   06:03:14.773.24-Feb-2020 3290.31 5674.47 54.75 9.00  15.60 2687.60
   06:03:14.973.24-Feb-2020 3290.31 5674.67 54.75 9.00  15.80 2687.60
   06:03:15.173.24-Feb-2020 3290.31 5683.48 54.75 9.00  16.00 2687.60
   06:03:15.373.24-Feb-2020 3290.31 5683.48 54.75 9.00  16.20 2687.60
   06:03:15.573.24-Feb-2020 3290.31 5672.30 54.75 9.00  16.40 2687.60
   06:03:15.773.24-Feb-2020 3290.31 5675.08 54.75 9.00  16.60 2687.60
   06:03:15.973.24-Feb-2020 3290.31 5684.83 54.75 9.00  16.80 2687.60
   06:03:16.173.24-Feb-2020 3290.31 5672.29 54.75 9.00  17.00 2687.60
   06:03:16.373.24-Feb-2020 3290.31 5672.29 54.75 9.00  17.20 2687.60
   06:03:16.573.24-Feb-2020 3290.31 5673.88 54.75 9.00  17.40 2687.60
   06:03:16.773.24-Feb-2020 3290.31 5680.35 54.75 9.00  17.60 2687.60
   06:03:16.973.24-Feb-2020 3290.31 5672.33 54.75 9.00  17.80 2687.60
   06:03:17.173.24-Feb-2020 3290.31 5673.47 54.75 9.00  18.00 2687.60
   06:03:17.373.24-Feb-2020 3290.31 5673.47 54.75 9.00  18.20 2687.60
   06:03:17.573.24-Feb-2020 3290.31 5677.47 54.75 9.00  18.40 2687.60
   06:03:17.773.24-Feb-2020 3290.31 5673.36 54.75 9.00  18.60 2687.60
   06:03:17.974.24-Feb-2020 3290.31 5673.75 54.75 9.00  18.80 2687.60
   06:03:18.174.24-Feb-2020 3290.31 5673.75 54.75 9.00  19.00 2687.60
   06:03:18.374.24-Feb-2020 3290.31 5674.84 54.75 9.00  19.20 2687.60
   06:03:18.574.24-Feb-2020 3290.31 5681.77 54.75 9.00  19.40 2687.60
   06:03:18.774.24-Feb-2020 3290.31 5673.63 54.75 9.00  19.60 2687.60
   06:03:18.974.24-Feb-2020 3290.31 5672.68 54.75 9.00  19.80 2687.60
   06:03:19.174.24-Feb-2020 3290.31 5675.54 54.75 9.00  20.00 2687.60
   06:03:19.374.24-Feb-2020 3290.31 5675.54 54.75 9.00  20.20 2687.60
   06:03:19.574.24-Feb-2020 3290.31 5675.34 54.75 9.00  20.40 2687.60
   06:03:19.774.24-Feb-2020 3290.31 5676.18 54.75 9.00  20.60 2687.60
   06:03:19.974.24-Feb-2020 3290.31 5675.71 54.75 9.00  20.80 2687.60
   06:03:20.174.24-Feb-2020 3290.31 5675.58 54.75 9.00  21.00 2687.60
   06:03:20.374.24-Feb-2020 3290.31 5675.58 54.75 9.00  21.20 2687.60
   06:03:20.574.24-Feb-2020 3290.31 5674.31 54.75 9.00  21.40 2687.60
   06:03:20.774.24-Feb-2020 3290.31 5675.00 54.75 9.00  21.60 2687.60
   06:03:20.974.24-Feb-2020 3290.31 5675.96 54.75 9.00  21.80 2687.60
   06:03:21.174.24-Feb-2020 3290.31 5676.35 54.75 9.00  22.00 2687.60
   06:03:21.374.24-Feb-2020 3290.31 5676.35 54.75 9.00  22.20 2687.60
   06:03:21.574.24-Feb-2020 3290.31 5674.53 54.75 9.00  22.40 2687.60
   06:03:21.774.24-Feb-2020 3290.31 5681.57 54.75 9.00  22.60 2687.60
   06:03:21.974.24-Feb-2020 3290.31 5673.70 54.75 9.00  22.80 2687.60
