~Version Information
 VERS.                  2.0:   CWLS log ASCII Standard -VERSION 2.0
 WRAP.                   NO:   One line per depth step
~Well Information Block
#MNEM.UNIT     VALUE/NAME     DESCRIPTION
#---------     -----------    ---------------------------
 STRT.S             06:02:59 24-Feb-20: START TIME 06:02:59 24-Feb-20
 STOP.S             06:10:09 24-Feb-20: STOP TIME  06:10:09 24-Feb-20
 STEP.S                   0.00: STEP TIME
 NULL.                 -999.25: NULL VALUE
 JOBN.        AZ-XX-0905059384:  JOB TICKET NUMB
 PDAT.          Mean Sea Level:  PERMANENT DATUM
 UNIT.                     N/A:  LOGGING EQUIPMENT ID
 DCON.         Sperry Drilling:  DIRECTNL CONTR
 DOE .                     N/A:  DOE NUMBER
 RIG .             West Chirag:  RIG NAME
 WELL.                     J22:  WELL NAME
 MWDS.                    Baku:  MWD SHOP
 SRVC.     TURAN Drilling & Engineering:  CONTRACTOR
 FLD .                     ACG:  FIELD NAME
 CTRY.              Azerbaijan:  COUNTRY NAME
 PROV.                    Baku:  PROVINCE
 STAT.                    Baku:  STATE NAME
 REGN.                   EESSA:  REGION
 BASE.              Azerbaijan:  LOGGING EQUIPMENT BASE LOCATION
 UWI .                     N/A:  UNIQUE WELL IDENTIFIER
 API .                     N/A:  API NUMBER
 COMP.     BP Exploration (Caspian Sea) Ltd.:  COMPANY
 WTYP.                Deviated:  WELL TYPE
 MDS .        Operator Entered:  MAG DATA SOURCE
 SON .        AZ-XX-0905059384:  JOB NUMBER
 FTOP.          Formation Tops:  FORM TOPS DESC
 ILTD.               Lithology:  INTERP LTH DESC
 SVYD.                  Survey:  SURVEY DESC
 DMOD.             Drill Model:  DRILL MOD DESC
 HPTY.       Minimum Curvature:  HOLE POS TYPE
 NREF.                    Grid:  NORTH REFERENCE
 SPUD.               09-Jan-20:  SPUD DATE
 DATE.      14.04.48 07-Feb-20:  END TIME
 STIM.      07.00.00 09-Jan-20:  START TIME
 DMF .             Drill Floor:  DRILL MEAS FROM
 DFST.                        :  DIST FSL TEXT
 DFWT.                        :  DIST FWL TEXT
 CNTY.                        :  COUNTY
 LOC .                        :  LOCATION
 LMF .             Drill Floor:  LOG MEASURED FROM
 DEP .m                   0.00:  DEPTH
 VSNS.m                  10.28:  VERT SEC N/S
 VSEW.m                  -6.24:  VERT SEC E/W
 AGAP.m                  43.00:  AIR GAP
 APD .m                  43.00:  DEPTH ABOVE PD
 WDMS.m                 169.80:  WD ELEV
 EGL .m                   0.00:  GROUND ELEVATION
 EPD .m                   0.00:  ELEVATION
 AZTC.deg                 6.27:  AZM TOTAL CORR
 GRDC.deg                 0.15:  GRID CORRECTION
 MDEC.deg                 6.42:  MAGNETIC DECL
 MDIP.deg                59.56:  MAGNETIC DIP
 MFLD.nT              50277.00:  MAGNETIC FIELD
 GVFD.g                   1.00:  GRAVITY FIELD
 VSDR.deg               148.53:  VERT SEC DIRECT
 TDD .m                3473.01:  TOTAL DEPTH (DRILLER)
 SDEP.m                 364.00:  START DEPTH
 DFSL.m                   0.00:  DISTANCE FSL
 DFWL.m                   0.00:  DISTANCE FWL
 UTMY.m             4443793.85:  UTM Y
 UTMX.m              519005.06:  UTM X
 WHEW.m                  -6.24:  WELL HEAD E/W
 WHNS.m                  10.28:  WELL HEAD N/S
 LONG.deg                51.22:  LONGITUDE
 LATI.deg                40.13:  LATITUDE
 TVDS.m                  43.00:  TVDSS CORRECTN
 EKB .m                   0.00:  KB ELEVATION
 EDF .m                  43.00:  DF ELEVATION
 TDL .m                 254.00:  TOTAL DEPTH (LOGGER)
 MAGU.                 1850021:  MAGUTM CHECKSUM
 VSC .                       0:  VS TO CLOSURE
~Parameter Information Block
#MNEM.UNIT       Value        Description
#---------     -----------    ---------------------------
 AV  .mps                 0.50:  Ann Velocity 
 AVMX.mps                 1.40:  Max Ann Veloc 
 AZIF.deg               144.94:  Azm, Final 
 BHAT.        Rotary Steerable:  BHA Type 
 BROT.°/30m               0.23:  Build Rotating 
 BS  .in                  8.50:  Bit Size 
 BTPL.psig              264.00:  Bit Press Loss 
 CABU.                     Yes:  Customer Abuse 
 COMM.                     ä\:  Run Comments 1 
 TCS .hr                 87.30:  Time Ciculation Ended 
 CV  .mps                 2.45:  Crit Velocity 
 CVMX.mps                 2.74:  Max Crit Veloc 
 DD1 .             Aziz Aliyev:  Direct Drillr 1 
 DDSV.               Geo-Pilot:  DD Service 
 DEFF.%                 100.00:  % Det Eff 
 DLRX.°/30m               1.22:  Dogleg Rot Max 
 DLSO.°/30m               0.52:  Dogleg Oriented 
 DLSX.°/30m               1.22:  Dogleg Str Max 
 DRET.      12.59.00 23-Feb-20:  Drill End Time 
 DRST.      09.44.00 18-Feb-20:  Drill Start Tim 
 DTIM.hr                 23.03:  Time Drilling 
 EDEP.m                3473.01:  End Depth 
 ENG1.         Almaz Almadatov:  Engineer 1 
 ENG2.         Dair Mahammadov:  Engineer 2 
 ENG3.          Nazrin Asgarli:  Engineer 3 
 ETIM.      10.33.36 26-Feb-20:  End Time 
 FLOI.gpm               480.00:  Flow In 
 FLON.gpm               300.00:  Flow In Min 
 FLOS.cptm                1.00:  Fluid Loss 
 FLOX.gpm               550.00:  Flow In Max 
 HFLO.                      No:  High Flow 
 HPRE.                      No:  High Pressure 
 HTEM.                      No:  High Temp 
 HYDO.m                   1.80:  Hydro Offset 
 IFIN.deg                74.42:  Inc, Final 
 IMAX.deg                76.14:  Inc Max 
 IMIN.deg                74.42:  Inc Min 
 IMND.m                3462.72:  Inc Min Depth 
 IMXD.m                3235.69:  Inc Max Depth 
 JARR.                      No:  Jarring 
 LETM.      12.59.00 23-Feb-20:  Log End Time 
 LOST.hr                     0:  Lost Rig Time 
 LSTM.      09.44.00 18-Feb-20:  Log Start Time 
 MDCL.ppm             45000.00:  Mud Chlorides 
 MDES.     Inversion Oil/Synthetic:  Mud Desc 
 DFD .sg                  1.38:  Mud Density 
 MDMN.sg                  1.34:  Dens Mud Min 
 MDMX.sg                  1.49:  Dens Mud Max 
 MOIL.                      67:  Run Mud Oil % 
 MOWR.                   67:33:  Run Mud OWR 
 MSND.                    0.12:  Run Mud Sand % 
 MSOL.                      22:  Run Mud Solids% 
 DFV .spqt               81.00:  Mud Viscosity 
 MWOD.in                  6.75:  MWD Tool OD 
 MWSI.                      No:  Serv Intrp, MWD 
 OTIM.hr                231.44:  Time Operating 
 PCON.          Wear / Scratch:  Pad Condition 
 PMAX.psia             3400.00:  Press Op, Max 
 PV  .cP                 55.00:  Mud PV 
 RUN .                     800:  Run Number 
 ROPA.m/hr               12.00:  ROP Avg 
 ROPN.m/hr                5.00:  ROP Min 
 ROPX.m/hr               28.00:  ROP Max 
 RPMA.rpm               120.00:  RPM Surface Avg 
 RPMN.rpm                40.00:  RPM Surface Min 
 RPMX.rpm               130.00:  RPM Surface Max 
 RRUN.                    0800:  Rig Run Number 
 RTIM.hr                 45.00:  Time Reaming 
 SAZI.deg               145.38:  Azm, Start 
 SDEP.m                3219.01:  Start Depth 
 SIDD.                      No:  Serv Intrp, DD 
 SINC.deg                75.11:  Inc, Start 
 SPPA.psig             2400.00:  SPP Avg 
 SPPN.psig             2320.00:  SPP Min 
 SPPX.psig             3200.00:  SPP Max 
 STIM.      15.15.00 17-Feb-20:  Start Time 
 SVCS.                 DD, MWD:  Services 
 SVER.                    9.20:  Sperry Version 
 TDAT.m                 254.00:  Tot Depth Attmp 
 TDDF.                      No:  Trip for DD 
 TDLG.m                 254.00:  Tot Depth Loggd 
 TFF .                      No:  Trip for Fail 
 TQAA.f-kp               13.00:  Torque Abs Avg 
 TQAN.f-kp                7.00:  Torque Abs Min 
 TQAX.f-kp               15.00:  Torque Abs Max 
 TRRT.°/30m               0.21:  Turn Rotating 
 MRT .                  EWR-M5:  Maximum Recorded Temperature 
 TTMX.degC               64.00:  Max Tool Temp 
 VS01.                90586516:  Virtual Str1 SN 
 VS02.                90513691:  Virtual Str2 SN 
 VS03.                90586523:  Virtual Str3 SN 
 VS04.                90586520:  Virtual Str4 SN 
 VS05.                90590507:  Virtual Str5 SN 
 WBMN.klb                12.00:  WOB Min 
 WITN.           Rufat Babayev:  Customer Rep 2 
 WITN.         Alistair Sprott:  Customer Rep 
 WOBA.klb                18.00:  WOB Avg 
 WOBX.klb                30.00:  WOB Max 
 YP  .lhf2               41.00:  Yield Point 
~Curve Information Block
#MNEM.UNIT                 API CODE     Curve Description
#---------               -----------    ---------------------------
 TIME.HHMMSS            00 000 000 000:  GT Time & Date
 GTDEPTH.m              00 000 000 000:  GT Depth
 GTPQH.psia             00 000 000 000:  GT HR Quartz Pressure
 GTTQ.degC              00 000 000 000:  GT Quartz Temperature
 GTTN.NONE              00 000 000 000:  GT Test Number
 GTET.sec               00 000 000 000:  GT Elapsed Test Time
 GTTVD.m                00 000 000 000:  GT True Vertical Depth
#Other Information
#
#WARRANTY: Halliburton will use its best efforts to furnish customers with 
#accurate information and interpretations that are part of, and incident to, the services 
#provided.  However, Halliburton cannot and does not warrant the accuracy 
#or correctness of such information and interpretations.  Under no circumstances should any 
#such information or interpretation be relied upon as the sole basis for any drilling, 
#completion, production, or financial decision or any procedure involving any risk to the 
#safety of any drilling venture, drilling rig or its crew or any other third party.  The 
#Customer has full responsibility for all drilling, completion and production operation.  
#Halliburton makes no representations or warranties, either expressed or 
#implied, including, but not limited to, the implied warranties of merchantability or fitness 
#for a particular purpose, with respect to the services rendered.  In no event will 
#Halliburton be liable for failure to obtain any particular results or for 
#any damages, including, but not limited to, indirect, special or consequential damages, 
#resulting from the use of any information or interpretation provided by Halliburton.
#
~A           TIME           GTDEPTH  GTPQH  GTTQ  GTTN  GTET   GTTVD  
# ...
   06:08:21.240.24-Feb-2020 3290.31   20.26 54.53 9.00 322.07 2687.60
   06:08:21.440.24-Feb-2020 3290.31   20.26 54.53 9.00 322.27 2687.60
   06:08:21.640.24-Feb-2020 3290.31   20.28 54.53 9.00 322.47 2687.60
   06:08:21.840.24-Feb-2020 3290.31   20.28 54.53 9.00 322.67 2687.60
   06:08:22.040.24-Feb-2020 3290.31   20.28 54.53 9.00 322.87 2687.60
   06:08:22.240.24-Feb-2020 3290.31   20.30 54.53 9.00 323.07 2687.60
   06:08:22.440.24-Feb-2020 3290.31   20.30 54.53 9.00 323.27 2687.60
   06:08:22.640.24-Feb-2020 3290.31   20.31 54.53 9.00 323.47 2687.60
   06:08:22.840.24-Feb-2020 3290.31   20.31 54.53 9.00 323.67 2687.60
   06:08:23.040.24-Feb-2020 3290.31   20.32 54.53 9.00 323.87 2687.60
   06:08:23.240.24-Feb-2020 3290.31   20.32 54.53 9.00 324.07 2687.60
   06:08:23.440.24-Feb-2020 3290.31   20.32 54.53 9.00 324.27 2687.60
   06:08:23.640.24-Feb-2020 3290.31   20.33 54.53 9.00 324.47 2687.60
   06:08:23.840.24-Feb-2020 3290.31   20.34 54.53 9.00 324.67 2687.60
   06:08:24.040.24-Feb-2020 3290.31   20.35 54.53 9.00 324.87 2687.60
   06:08:24.240.24-Feb-2020 3290.31   20.36 54.53 9.00 325.07 2687.60
   06:08:24.441.24-Feb-2020 3290.31   20.36 54.53 9.00 325.27 2687.60
   06:08:24.641.24-Feb-2020 3290.31   20.37 54.53 9.00 325.47 2687.60
   06:08:24.841.24-Feb-2020 3290.31   20.37 54.53 9.00 325.67 2687.60
   06:08:25.041.24-Feb-2020 3290.31   20.38 54.53 9.00 325.87 2687.60
   06:08:25.241.24-Feb-2020 3290.31   20.39 54.53 9.00 326.07 2687.60
   06:08:25.441.24-Feb-2020 3290.31   20.39 54.53 9.00 326.27 2687.60
   06:08:25.641.24-Feb-2020 3290.31   20.39 54.53 9.00 326.47 2687.60
   06:08:25.841.24-Feb-2020 3290.31   20.41 54.53 9.00 326.67 2687.60
   06:08:26.041.24-Feb-2020 3290.31   20.41 54.53 9.00 326.87 2687.60
   06:08:26.241.24-Feb-2020 3290.31   20.42 54.53 9.00 327.07 2687.60
   06:08:26.441.24-Feb-2020 3290.31   20.42 54.53 9.00 327.27 2687.60
   06:08:26.641.24-Feb-2020 3290.31   20.43 54.53 9.00 327.47 2687.60
   06:08:26.841.24-Feb-2020 3290.31   20.43 54.53 9.00 327.67 2687.60
   06:08:27.041.24-Feb-2020 3290.31   20.43 54.53 9.00 327.87 2687.60
   06:08:27.241.24-Feb-2020 3290.31   20.45 54.53 9.00 328.07 2687.60
   06:08:27.441.24-Feb-2020 3290.31   20.45 54.53 9.00 328.27 2687.60
   06:08:27.641.24-Feb-2020 3290.31   20.45 54.53 9.00 328.47 2687.60
   06:08:27.841.24-Feb-2020 3290.31   20.46 54.53 9.00 328.67 2687.60
   06:08:28.041.24-Feb-2020 3290.31   20.46 54.53 9.00 328.87 2687.60
   06:08:28.241.24-Feb-2020 3290.31   20.48 54.53 9.00 329.07 2687.60
   06:08:28.441.24-Feb-2020 3290.31   20.48 54.53 9.00 329.27 2687.60
   06:08:28.641.24-Feb-2020 3290.31   20.49 54.53 9.00 329.47 2687.60
   06:08:28.841.24-Feb-2020 3290.31   20.49 54.53 9.00 329.67 2687.60
   06:08:29.042.24-Feb-2020 3290.31   20.50 54.53 9.00 329.87 2687.60
   06:08:29.242.24-Feb-2020 3290.31   20.50 54.53 9.00 330.07 2687.60
   06:08:29.442.24-Feb-2020 3290.31   20.50 54.53 9.00 330.27 2687.60
   06:08:29.642.24-Feb-2020 3290.31   20.52 54.53 9.00 330.47 2687.60
   06:08:29.842.24-Feb-2020 3290.31   20.52 54.53 9.00 330.67 2687.60
   06:08:30.042.24-Feb-2020 3290.31   20.53 54.53 9.00 330.87 2687.60
   06:08:30.242.24-Feb-2020 3290.31   20.54 54.53 9.00 331.07 2687.60
   06:08:30.442.24-Feb-2020 3290.31   20.54 54.53 9.00 331.27 2687.60
   06:08:30.642.24-Feb-2020 3290.31   20.54 54.53 9.00 331.47 2687.60
   06:08:30.842.24-Feb-2020 3290.31   20.55 54.53 9.00 331.67 2687.60
   06:08:31.042.24-Feb-2020 3290.31   20.56 54.53 9.00 331.87 2687.60
   06:08:31.242.24-Feb-2020 3290.31   20.56 54.53 9.00 332.07 2687.60
   06:08:31.442.24-Feb-2020 3290.31   20.56 54.53 9.00 332.27 2687.60
   06:08:31.642.24-Feb-2020 3290.31   20.57 54.53 9.00 332.47 2687.60
   06:08:31.842.24-Feb-2020 3290.31   20.58 54.53 9.00 332.67 2687.60
   06:08:32.042.24-Feb-2020 3290.31   20.58 54.53 9.00 332.87 2687.60
   06:08:32.242.24-Feb-2020 3290.31   20.59 54.53 9.00 333.07 2687.60
   06:08:32.442.24-Feb-2020 3290.31   20.59 54.53 9.00 333.27 2687.60
   06:08:32.642.24-Feb-2020 3290.31   20.61 54.52 9.00 333.47 2687.60
   06:08:32.842.24-Feb-2020 3290.31   20.62 54.52 9.00 333.67 2687.60
   06:08:33.042.24-Feb-2020 3290.31   20.62 54.52 9.00 333.87 2687.60
   06:08:33.242.24-Feb-2020 3290.31   20.63 54.52 9.00 334.07 2687.60
   06:08:33.442.24-Feb-2020 3290.31   20.63 54.52 9.00 334.27 2687.60
   06:08:33.643.24-Feb-2020 3290.31   20.63 54.52 9.00 334.47 2687.60
   06:08:33.843.24-Feb-2020 3290.31   20.65 54.52 9.00 334.67 2687.60
   06:08:34.043.24-Feb-2020 3290.31   20.65 54.52 9.00 334.87 2687.60
   06:08:34.243.24-Feb-2020 3290.31   20.65 54.52 9.00 335.07 2687.60
   06:08:34.443.24-Feb-2020 3290.31   20.66 54.52 9.00 335.27 2687.60
   06:08:34.643.24-Feb-2020 3290.31   20.67 54.52 9.00 335.47 2687.60
   06:08:34.843.24-Feb-2020 3290.31   20.67 54.52 9.00 335.67 2687.60
   06:08:35.043.24-Feb-2020 3290.31   20.67 54.52 9.00 335.87 2687.60
   06:08:35.243.24-Feb-2020 3290.31   20.68 54.52 9.00 336.07 2687.60
   06:08:35.443.24-Feb-2020 3290.31   20.68 54.52 9.00 336.27 2687.60
   06:08:35.643.24-Feb-2020 3290.31   20.69 54.52 9.00 336.47 2687.60
   06:08:35.843.24-Feb-2020 3290.31   20.70 54.52 9.00 336.67 2687.60
   06:08:36.043.24-Feb-2020 3290.31   20.70 54.52 9.00 336.87 2687.60
   06:08:36.243.24-Feb-2020 3290.31   20.71 54.52 9.00 337.07 2687.60
   06:08:36.443.24-Feb-2020 3290.31   20.71 54.52 9.00 337.27 2687.60
   06:08:36.643.24-Feb-2020 3290.31   20.72 54.52 9.00 337.47 2687.60
   06:08:36.843.24-Feb-2020 3290.31   20.73 54.52 9.00 337.67 2687.60
   06:08:37.043.24-Feb-2020 3290.31   20.73 54.52 9.00 337.87 2687.60
   06:08:37.243.24-Feb-2020 3290.31   20.73 54.52 9.00 338.07 2687.60
   06:08:37.443.24-Feb-2020 3290.31   20.73 54.52 9.00 338.27 2687.60
   06:08:37.643.24-Feb-2020 3290.31   20.74 54.52 9.00 338.47 2687.60
   06:08:37.843.24-Feb-2020 3290.31   20.75 54.52 9.00 338.67 2687.60
   06:08:38.043.24-Feb-2020 3290.31   20.75 54.52 9.00 338.87 2687.60
   06:08:38.244.24-Feb-2020 3290.31   20.76 54.52 9.00 339.07 2687.60
   06:08:38.444.24-Feb-2020 3290.31   20.76 54.52 9.00 339.27 2687.60
   06:08:38.644.24-Feb-2020 3290.31   20.77 54.52 9.00 339.47 2687.60
   06:08:38.844.24-Feb-2020 3290.31   20.77 54.52 9.00 339.67 2687.60
   06:08:39.044.24-Feb-2020 3290.31   20.78 54.52 9.00 339.87 2687.60
   06:08:39.244.24-Feb-2020 3290.31   20.78 54.52 9.00 340.07 2687.60
   06:08:39.444.24-Feb-2020 3290.31   20.78 54.52 9.00 340.27 2687.60
   06:08:39.644.24-Feb-2020 3290.31   20.80 54.52 9.00 340.47 2687.60
   06:08:39.844.24-Feb-2020 3290.31   20.79 54.52 9.00 340.67 2687.60
   06:08:40.044.24-Feb-2020 3290.31   20.81 54.52 9.00 340.87 2687.60
   06:08:40.244.24-Feb-2020 3290.31   20.81 54.52 9.00 341.07 2687.60
   06:08:40.444.24-Feb-2020 3290.31   20.81 54.52 9.00 341.27 2687.60
   06:08:40.644.24-Feb-2020 3290.31   20.82 54.52 9.00 341.47 2687.60
   06:08:40.844.24-Feb-2020 3290.31   20.82 54.52 9.00 341.67 2687.60
   06:08:41.044.24-Feb-2020 3290.31   20.82 54.52 9.00 341.87 2687.60
   06:08:41.244.24-Feb-2020 3290.31   20.83 54.52 9.00 342.07 2687.60
   06:08:41.444.24-Feb-2020 3290.31   20.83 54.52 9.00 342.27 2687.60
   06:08:41.644.24-Feb-2020 3290.31   20.84 54.52 9.00 342.47 2687.60
   06:08:41.844.24-Feb-2020 3290.31   20.85 54.52 9.00 342.67 2687.60
   06:08:42.044.24-Feb-2020 3290.31   20.85 54.52 9.00 342.87 2687.60
   06:08:42.244.24-Feb-2020 3290.31   20.85 54.52 9.00 343.08 2687.60
   06:08:42.444.24-Feb-2020 3290.31   20.86 54.52 9.00 343.28 2687.60
   06:08:42.645.24-Feb-2020 3290.31   20.87 54.52 9.00 343.48 2687.60
   06:08:42.845.24-Feb-2020 3290.31   20.87 54.52 9.00 343.68 2687.60
   06:08:43.045.24-Feb-2020 3290.31   20.87 54.52 9.00 343.88 2687.60
   06:08:43.245.24-Feb-2020 3290.31   20.88 54.52 9.00 344.08 2687.60
   06:08:43.445.24-Feb-2020 3290.31   20.88 54.52 9.00 344.28 2687.60
   06:08:43.645.24-Feb-2020 3290.31   20.89 54.52 9.00 344.48 2687.60
   06:08:43.845.24-Feb-2020 3290.31   20.89 54.52 9.00 344.68 2687.60
   06:08:44.045.24-Feb-2020 3290.31   20.89 54.52 9.00 344.88 2687.60
