~Version Information
 VERS.                  2.0:   CWLS log ASCII Standard -VERSION 2.0
 WRAP.                   NO:   One line per depth step
~Well Information Block
#MNEM.UNIT     VALUE/NAME     DESCRIPTION
#---------     -----------    ---------------------------
 STRT.S             01:26:08 24-Feb-20: START TIME 01:26:08 24-Feb-20
 STOP.S             01:33:25 24-Feb-20: STOP TIME  01:33:25 24-Feb-20
 STEP.S                   0.00: STEP TIME
 NULL.                 -999.25: NULL VALUE
 JOBN.        AZ-XX-0905059384:  JOB TICKET NUMB
 PDAT.          Mean Sea Level:  PERMANENT DATUM
 UNIT.                     N/A:  LOGGING EQUIPMENT ID
 DCON.         Sperry Drilling:  DIRECTNL CONTR
 DOE .                     N/A:  DOE NUMBER
 RIG .             West Chirag:  RIG NAME
 WELL.                     J22:  WELL NAME
 MWDS.                    Baku:  MWD SHOP
 SRVC.     TURAN Drilling & Engineering:  CONTRACTOR
 FLD .                     ACG:  FIELD NAME
 CTRY.              Azerbaijan:  COUNTRY NAME
 PROV.                    Baku:  PROVINCE
 STAT.                    Baku:  STATE NAME
 REGN.                   EESSA:  REGION
 BASE.              Azerbaijan:  LOGGING EQUIPMENT BASE LOCATION
 UWI .                     N/A:  UNIQUE WELL IDENTIFIER
 API .                     N/A:  API NUMBER
 COMP.     BP Exploration (Caspian Sea) Ltd.:  COMPANY
 WTYP.                Deviated:  WELL TYPE
 MDS .        Operator Entered:  MAG DATA SOURCE
 SON .        AZ-XX-0905059384:  JOB NUMBER
 FTOP.          Formation Tops:  FORM TOPS DESC
 ILTD.               Lithology:  INTERP LTH DESC
 SVYD.                  Survey:  SURVEY DESC
 DMOD.             Drill Model:  DRILL MOD DESC
 HPTY.       Minimum Curvature:  HOLE POS TYPE
 NREF.                    Grid:  NORTH REFERENCE
 SPUD.               09-Jan-20:  SPUD DATE
 DATE.      14.04.48 07-Feb-20:  END TIME
 STIM.      07.00.00 09-Jan-20:  START TIME
 DMF .             Drill Floor:  DRILL MEAS FROM
 DFST.                        :  DIST FSL TEXT
 DFWT.                        :  DIST FWL TEXT
 CNTY.                        :  COUNTY
 LOC .                        :  LOCATION
 LMF .             Drill Floor:  LOG MEASURED FROM
 DEP .m                   0.00:  DEPTH
 VSNS.m                  10.28:  VERT SEC N/S
 VSEW.m                  -6.24:  VERT SEC E/W
 AGAP.m                  43.00:  AIR GAP
 APD .m                  43.00:  DEPTH ABOVE PD
 WDMS.m                 169.80:  WD ELEV
 EGL .m                   0.00:  GROUND ELEVATION
 EPD .m                   0.00:  ELEVATION
 AZTC.deg                 6.27:  AZM TOTAL CORR
 GRDC.deg                 0.15:  GRID CORRECTION
 MDEC.deg                 6.42:  MAGNETIC DECL
 MDIP.deg                59.56:  MAGNETIC DIP
 MFLD.nT              50277.00:  MAGNETIC FIELD
 GVFD.g                   1.00:  GRAVITY FIELD
 VSDR.deg               148.53:  VERT SEC DIRECT
 TDD .m                3473.01:  TOTAL DEPTH (DRILLER)
 SDEP.m                 364.00:  START DEPTH
 DFSL.m                   0.00:  DISTANCE FSL
 DFWL.m                   0.00:  DISTANCE FWL
 UTMY.m             4443793.85:  UTM Y
 UTMX.m              519005.06:  UTM X
 WHEW.m                  -6.24:  WELL HEAD E/W
 WHNS.m                  10.28:  WELL HEAD N/S
 LONG.deg                51.22:  LONGITUDE
 LATI.deg                40.13:  LATITUDE
 TVDS.m                  43.00:  TVDSS CORRECTN
 EKB .m                   0.00:  KB ELEVATION
 EDF .m                  43.00:  DF ELEVATION
 TDL .m                 254.00:  TOTAL DEPTH (LOGGER)
 MAGU.                 1850021:  MAGUTM CHECKSUM
 VSC .                       0:  VS TO CLOSURE
~Parameter Information Block
#MNEM.UNIT       Value        Description
#---------     -----------    ---------------------------
 AV  .mps                 0.50:  Ann Velocity 
 AVMX.mps                 1.40:  Max Ann Veloc 
 AZIF.deg               144.94:  Azm, Final 
 BHAT.        Rotary Steerable:  BHA Type 
 BROT.°/30m               0.23:  Build Rotating 
 BS  .in                  8.50:  Bit Size 
 BTPL.psig              264.00:  Bit Press Loss 
 CABU.                     Yes:  Customer Abuse 
 TCS .hr                 87.30:  Time Ciculation Ended 
 CV  .mps                 2.45:  Crit Velocity 
 CVMX.mps                 2.74:  Max Crit Veloc 
 DD1 .             Aziz Aliyev:  Direct Drillr 1 
 DDSV.               Geo-Pilot:  DD Service 
 DEFF.%                 100.00:  % Det Eff 
 DLRX.°/30m               1.22:  Dogleg Rot Max 
 DLSO.°/30m               0.52:  Dogleg Oriented 
 DLSX.°/30m               1.22:  Dogleg Str Max 
 DRET.      12.59.00 23-Feb-20:  Drill End Time 
 DRST.      09.44.00 18-Feb-20:  Drill Start Tim 
 DTIM.hr                 23.03:  Time Drilling 
 EDEP.m                3473.01:  End Depth 
 ENG1.         Almaz Almadatov:  Engineer 1 
 ENG2.         Dair Mahammadov:  Engineer 2 
 ENG3.          Nazrin Asgarli:  Engineer 3 
 ETIM.      10.33.36 26-Feb-20:  End Time 
 FLOI.gpm               480.00:  Flow In 
 FLON.gpm               300.00:  Flow In Min 
 FLOS.cptm                1.00:  Fluid Loss 
 FLOX.gpm               550.00:  Flow In Max 
 HFLO.                      No:  High Flow 
 HPRE.                      No:  High Pressure 
 HTEM.                      No:  High Temp 
 HYDO.m                   1.80:  Hydro Offset 
 IFIN.deg                74.42:  Inc, Final 
 IMAX.deg                76.14:  Inc Max 
 IMIN.deg                74.42:  Inc Min 
 IMND.m                3462.72:  Inc Min Depth 
 IMXD.m                3235.69:  Inc Max Depth 
 JARR.                      No:  Jarring 
 LETM.      12.59.00 23-Feb-20:  Log End Time 
 LOST.hr                     0:  Lost Rig Time 
 LSTM.      09.44.00 18-Feb-20:  Log Start Time 
 MDCL.ppm             45000.00:  Mud Chlorides 
 MDES.     Inversion Oil/Synthetic:  Mud Desc 
 DFD .sg                  1.38:  Mud Density 
 MDMN.sg                  1.34:  Dens Mud Min 
 MDMX.sg                  1.49:  Dens Mud Max 
 MOIL.                      67:  Run Mud Oil % 
 MOWR.                   67:33:  Run Mud OWR 
 MSND.                    0.12:  Run Mud Sand % 
 MSOL.                      22:  Run Mud Solids% 
 DFV .spqt               81.00:  Mud Viscosity 
 MWOD.in                  6.75:  MWD Tool OD 
 MWSI.                      No:  Serv Intrp, MWD 
 OTIM.hr                231.44:  Time Operating 
 PCON.          Wear / Scratch:  Pad Condition 
 PMAX.psia             3400.00:  Press Op, Max 
 PV  .cP                 55.00:  Mud PV 
 RUN .                     800:  Run Number 
 ROPA.m/hr               12.00:  ROP Avg 
 ROPN.m/hr                5.00:  ROP Min 
 ROPX.m/hr               28.00:  ROP Max 
 RPMA.rpm               120.00:  RPM Surface Avg 
 RPMN.rpm                40.00:  RPM Surface Min 
 RPMX.rpm               130.00:  RPM Surface Max 
 RRUN.                    0800:  Rig Run Number 
 RTIM.hr                 45.00:  Time Reaming 
 SAZI.deg               145.38:  Azm, Start 
 SDEP.m                3219.01:  Start Depth 
 SIDD.                      No:  Serv Intrp, DD 
 SINC.deg                75.11:  Inc, Start 
 SPPA.psig             2400.00:  SPP Avg 
 SPPN.psig             2320.00:  SPP Min 
 SPPX.psig             3200.00:  SPP Max 
 STIM.      15.15.00 17-Feb-20:  Start Time 
 SVCS.                 DD, MWD:  Services 
 SVER.                    9.20:  Sperry Version 
 TDAT.m                 254.00:  Tot Depth Attmp 
 TDDF.                      No:  Trip for DD 
 TDLG.m                 254.00:  Tot Depth Loggd 
 TFF .                      No:  Trip for Fail 
 TQAA.f-kp               13.00:  Torque Abs Avg 
 TQAN.f-kp                7.00:  Torque Abs Min 
 TQAX.f-kp               15.00:  Torque Abs Max 
 TRRT.°/30m               0.21:  Turn Rotating 
 MRT .                  EWR-M5:  Maximum Recorded Temperature 
 TTMX.degC               64.00:  Max Tool Temp 
 VS01.                90586516:  Virtual Str1 SN 
 VS02.                90513691:  Virtual Str2 SN 
 VS03.                90586523:  Virtual Str3 SN 
 VS04.                90586520:  Virtual Str4 SN 
 VS05.                90590507:  Virtual Str5 SN 
 WBMN.klb                12.00:  WOB Min 
 WITN.           Rufat Babayev:  Customer Rep 2 
 WITN.         Alistair Sprott:  Customer Rep 
 WOBA.klb                18.00:  WOB Avg 
 WOBX.klb                30.00:  WOB Max 
 YP  .lhf2               41.00:  Yield Point 
~Curve Information Block
#MNEM.UNIT                 API CODE     Curve Description
#---------               -----------    ---------------------------
 TIME.HHMMSS            00 000 000 000:  GT Time & Date
 GTDEPTH.m              00 000 000 000:  GT Depth
 GTPQH.psia             00 000 000 000:  GT HR Quartz Pressure
 GTTQ.degC              00 000 000 000:  GT Quartz Temperature
 GTTN.NONE              00 000 000 000:  GT Test Number
 GTET.sec               00 000 000 000:  GT Elapsed Test Time
 GTTVD.m                00 000 000 000:  GT True Vertical Depth
#Other Information
#
#WARRANTY: Halliburton will use its best efforts to furnish customers with 
#accurate information and interpretations that are part of, and incident to, the services 
#provided.  However, Halliburton cannot and does not warrant the accuracy 
#or correctness of such information and interpretations.  Under no circumstances should any 
#such information or interpretation be relied upon as the sole basis for any drilling, 
#completion, production, or financial decision or any procedure involving any risk to the 
#safety of any drilling venture, drilling rig or its crew or any other third party.  The 
#Customer has full responsibility for all drilling, completion and production operation.  
#Halliburton makes no representations or warranties, either expressed or 
#implied, including, but not limited to, the implied warranties of merchantability or fitness 
#for a particular purpose, with respect to the services rendered.  In no event will 
#Halliburton be liable for failure to obtain any particular results or for 
#any damages, including, but not limited to, indirect, special or consequential damages, 
#resulting from the use of any information or interpretation provided by Halliburton.
#
~A           TIME           GTDEPTH  GTPQH  GTTQ  GTTN  GTET   GTTVD  
# ...
   01:26:31.166.24-Feb-2020 3405.01 5724.99 56.98 3.00  23.00 2716.73
   01:26:31.366.24-Feb-2020 3405.01 5729.35 56.98 3.00  23.20 2716.73
   01:26:31.566.24-Feb-2020 3405.01 5728.49 56.98 3.00  23.40 2716.73
   01:26:31.766.24-Feb-2020 3405.01 5728.01 56.98 3.00  23.60 2716.73
   01:26:31.966.24-Feb-2020 3405.01 5728.00 56.98 3.00  23.80 2716.73
   01:26:32.166.24-Feb-2020 3405.01 5725.91 56.98 3.00  24.01 2716.73
   01:26:32.366.24-Feb-2020 3405.01 5725.91 56.98 3.00  24.21 2716.73
   01:26:32.566.24-Feb-2020 3405.01 5732.24 56.98 3.00  24.41 2716.73
   01:26:32.766.24-Feb-2020 3405.01 5726.97 56.98 3.00  24.61 2716.73
   01:26:32.967.24-Feb-2020 3405.01 5727.00 56.98 3.00  24.81 2716.73
   01:26:33.167.24-Feb-2020 3405.01 5728.94 56.98 3.00  25.01 2716.73
   01:26:33.367.24-Feb-2020 3405.01 5728.94 56.98 3.00  25.21 2716.73
   01:26:33.567.24-Feb-2020 3405.01 5728.74 56.98 3.00  25.41 2716.73
   01:26:33.767.24-Feb-2020 3405.01 5728.70 56.98 3.00  25.61 2716.73
   01:26:33.967.24-Feb-2020 3405.01 5728.56 56.98 3.00  25.81 2716.73
   01:26:34.167.24-Feb-2020 3405.01 5728.71 56.98 3.00  26.01 2716.73
   01:26:34.367.24-Feb-2020 3405.01 5728.71 56.98 3.00  26.21 2716.73
   01:26:34.567.24-Feb-2020 3405.01 5729.56 56.98 3.00  26.41 2716.73
   01:26:34.767.24-Feb-2020 3405.01 5729.12 56.98 3.00  26.61 2716.73
   01:26:34.967.24-Feb-2020 3405.01 5728.53 56.98 3.00  26.81 2716.73
   01:26:35.167.24-Feb-2020 3405.01 5729.00 56.98 3.00  27.01 2716.73
   01:26:35.367.24-Feb-2020 3405.01 5729.44 56.98 3.00  27.21 2716.73
   01:26:35.567.24-Feb-2020 3405.01 5728.56 56.98 3.00  27.41 2716.73
   01:26:35.767.24-Feb-2020 3405.01 5727.91 56.98 3.00  27.61 2716.73
   01:26:35.967.24-Feb-2020 3405.01 5725.82 56.98 3.00  27.81 2716.73
   01:26:36.167.24-Feb-2020 3405.01 5728.04 56.98 3.00  28.01 2716.73
   01:26:36.367.24-Feb-2020 3405.01 5728.04 56.98 3.00  28.21 2716.73
   01:26:36.567.24-Feb-2020 3405.01 5727.82 56.98 3.00  28.41 2716.73
   01:26:36.767.24-Feb-2020 3405.01 5729.13 56.98 3.00  28.61 2716.73
   01:26:36.967.24-Feb-2020 3405.01 5728.54 56.98 3.00  28.81 2716.73
   01:26:37.167.24-Feb-2020 3405.01 5728.51 56.98 3.00  29.01 2716.73
   01:26:37.367.24-Feb-2020 3405.01 5728.51 56.98 3.00  29.21 2716.73
   01:26:37.567.24-Feb-2020 3405.01 5728.19 56.98 3.00  29.41 2716.73
   01:26:37.768.24-Feb-2020 3405.01 5728.67 56.98 3.00  29.61 2716.73
   01:26:37.968.24-Feb-2020 3405.01 5728.77 56.98 3.00  29.81 2716.73
   01:26:38.168.24-Feb-2020 3405.01 5729.49 56.98 3.00  30.01 2716.73
   01:26:38.368.24-Feb-2020 3405.01 5729.49 56.98 3.00  30.21 2716.73
   01:26:38.568.24-Feb-2020 3405.01 5729.40 56.98 3.00  30.41 2716.73
   01:26:38.768.24-Feb-2020 3405.01 5728.56 56.98 3.00  30.61 2716.73
   01:26:38.968.24-Feb-2020 3405.01 5728.84 56.98 3.00  30.81 2716.73
   01:26:39.168.24-Feb-2020 3405.01 5727.98 56.98 3.00  31.01 2716.73
   01:26:39.368.24-Feb-2020 3405.01 5726.54 56.98 3.00  31.21 2716.73
   01:26:39.568.24-Feb-2020 3405.01 5727.27 56.98 3.00  31.41 2716.73
   01:26:39.768.24-Feb-2020 3405.01 5729.89 56.98 3.00  31.61 2716.73
   01:26:39.968.24-Feb-2020 3405.01 5732.20 56.98 3.00  31.81 2716.73
   01:26:40.168.24-Feb-2020 3405.01 5727.16 56.98 3.00  32.01 2716.73
   01:26:40.368.24-Feb-2020 3405.01 5727.16 56.98 3.00  32.21 2716.73
   01:26:40.568.24-Feb-2020 3405.01 5729.28 56.98 3.00  32.41 2716.73
   01:26:40.768.24-Feb-2020 3405.01 5728.96 56.97 3.00  32.61 2716.73
   01:26:40.968.24-Feb-2020 3405.01 5735.61 56.97 3.00  32.81 2716.73
   01:26:41.168.24-Feb-2020 3405.01 5721.02 56.97 3.00  33.01 2716.73
   01:26:41.368.24-Feb-2020 3405.01 5721.02 56.97 3.00  33.21 2716.73
   01:26:41.568.24-Feb-2020 3405.01 5731.76 56.97 3.00  33.41 2716.73
   01:26:41.768.24-Feb-2020 3405.01 5727.24 56.97 3.00  33.61 2716.73
   01:26:41.968.24-Feb-2020 3405.01 5729.59 56.97 3.00  33.81 2716.73
   01:26:42.168.24-Feb-2020 3405.01 5729.19 56.97 3.00  34.01 2716.73
   01:26:42.368.24-Feb-2020 3405.01 5729.19 56.97 3.00  34.21 2716.73
   01:26:42.569.24-Feb-2020 3405.01 5728.91 56.97 3.00  34.41 2716.73
   01:26:42.769.24-Feb-2020 3405.01 5726.65 56.97 3.00  34.61 2716.73
   01:26:42.969.24-Feb-2020 3405.01 5729.07 56.97 3.00  34.81 2716.73
   01:26:43.169.24-Feb-2020 3405.01 5729.42 56.97 3.00  35.01 2716.73
   01:26:43.369.24-Feb-2020 3405.01 5729.42 56.97 3.00  35.21 2716.73
   01:26:43.569.24-Feb-2020 3405.01 5729.09 56.97 3.00  35.41 2716.73
   01:26:43.769.24-Feb-2020 3405.01 5728.95 56.97 3.00  35.61 2716.73
   01:26:43.969.24-Feb-2020 3405.01 5729.03 56.97 3.00  35.81 2716.73
   01:26:44.169.24-Feb-2020 3405.01 5729.09 56.97 3.00  36.01 2716.73
   01:26:44.369.24-Feb-2020 3405.01 5729.09 56.97 3.00  36.21 2716.73
   01:26:44.569.24-Feb-2020 3405.01 5729.70 56.97 3.00  36.41 2716.73
   01:26:44.769.24-Feb-2020 3405.01 5729.77 56.97 3.00  36.61 2716.73
   01:26:44.969.24-Feb-2020 3405.01 5729.37 56.97 3.00  36.81 2716.73
   01:26:45.169.24-Feb-2020 3405.01 5728.22 56.97 3.00  37.01 2716.73
   01:26:45.369.24-Feb-2020 3405.01 5728.22 56.97 3.00  37.21 2716.73
   01:26:45.569.24-Feb-2020 3405.01 5737.48 56.97 3.00  37.41 2716.73
   01:26:45.769.24-Feb-2020 3405.01 5725.40 56.97 3.00  37.61 2716.73
   01:26:45.969.24-Feb-2020 3405.01 5724.08 56.97 3.00  37.81 2716.73
   01:26:46.169.24-Feb-2020 3405.01 5728.91 56.97 3.00  38.01 2716.73
   01:26:46.369.24-Feb-2020 3405.01 5728.91 56.97 3.00  38.21 2716.73
   01:26:46.569.24-Feb-2020 3405.01 5728.81 56.97 3.00  38.41 2716.73
   01:26:46.769.24-Feb-2020 3405.01 5728.75 56.97 3.00  38.61 2716.73
   01:26:46.969.24-Feb-2020 3405.01 5729.53 56.97 3.00  38.81 2716.73
   01:26:47.169.24-Feb-2020 3405.01 5729.50 56.97 3.00  39.01 2716.73
   01:26:47.370.24-Feb-2020 3405.01 5728.96 56.97 3.00  39.21 2716.73
   01:26:47.570.24-Feb-2020 3405.01 5728.22 56.97 3.00  39.41 2716.73
   01:26:47.770.24-Feb-2020 3405.01 5729.21 56.97 3.00  39.61 2716.73
   01:26:47.970.24-Feb-2020 3405.01 5729.65 56.97 3.00  39.81 2716.73
   01:26:48.170.24-Feb-2020 3405.01 5729.74 56.97 3.00  40.01 2716.73
   01:26:48.370.24-Feb-2020 3405.01 5729.74 56.97 3.00  40.21 2716.73
   01:26:48.570.24-Feb-2020 3405.01 5728.59 56.97 3.00  40.41 2716.73
   01:26:48.770.24-Feb-2020 3405.01 5728.67 56.97 3.00  40.61 2716.73
   01:26:48.970.24-Feb-2020 3405.01 5729.19 56.97 3.00  40.81 2716.73
   01:26:49.170.24-Feb-2020 3405.01 5729.07 56.97 3.00  41.01 2716.73
   01:26:49.370.24-Feb-2020 3405.01 5684.87 56.97 3.00  41.21 2716.73
   01:26:49.570.24-Feb-2020 3405.01 5425.51 56.97 3.00  41.41 2716.73
   01:26:49.770.24-Feb-2020 3405.01 5286.75 56.97 3.00  41.61 2716.73
   01:26:49.970.24-Feb-2020 3405.01 5220.64 56.97 3.00  41.81 2716.73
   01:26:50.170.24-Feb-2020 3405.01 5191.87 56.97 3.00  42.01 2716.73
   01:26:50.370.24-Feb-2020 3405.01 5177.13 56.97 3.00  42.21 2716.73
   01:26:50.570.24-Feb-2020 3405.01 5151.16 56.97 3.00  42.41 2716.73
   01:26:50.770.24-Feb-2020 3405.01 5120.05 56.97 3.00  42.61 2716.73
   01:26:50.970.24-Feb-2020 3405.01 5097.75 56.97 3.00  42.81 2716.73
   01:26:51.170.24-Feb-2020 3405.01 5070.40 56.97 3.00  43.01 2716.73
   01:26:51.370.24-Feb-2020 3405.01 5078.04 56.97 3.00  43.21 2716.73
   01:26:51.570.24-Feb-2020 3405.01 5014.39 56.97 3.00  43.41 2716.73
   01:26:51.770.24-Feb-2020 3405.01 4989.58 56.97 3.00  43.61 2716.73
   01:26:51.970.24-Feb-2020 3405.01 4961.29 56.97 3.00  43.81 2716.73
   01:26:52.171.24-Feb-2020 3405.01 4925.72 56.97 3.00  44.01 2716.73
   01:26:52.371.24-Feb-2020 3405.01 4925.72 56.97 3.00  44.21 2716.73
   01:26:52.571.24-Feb-2020 3405.01 4866.77 56.96 3.00  44.41 2716.73
   01:26:52.771.24-Feb-2020 3405.01 4841.50 56.96 3.00  44.61 2716.73
   01:26:52.971.24-Feb-2020 3405.01 4805.02 56.96 3.00  44.81 2716.73
   01:26:53.171.24-Feb-2020 3405.01 4773.93 56.96 3.00  45.01 2716.73
   01:26:53.371.24-Feb-2020 3405.01 4773.93 56.96 3.00  45.21 2716.73
   01:26:53.571.24-Feb-2020 3405.01 4706.48 56.96 3.00  45.41 2716.73
   01:26:53.771.24-Feb-2020 3405.01 4674.54 56.96 3.00  45.61 2716.73
   01:26:53.971.24-Feb-2020 3405.01 4648.47 56.96 3.00  45.81 2716.73
