~Version Information
 VERS.                  2.0:   CWLS log ASCII Standard -VERSION 2.0
 WRAP.                   NO:   One line per depth step
~Well Information Block
#MNEM.UNIT     VALUE/NAME     DESCRIPTION
#---------     -----------    ---------------------------
 STRT.S             02:47:37 24-Feb-20: START TIME 02:47:37 24-Feb-20
 STOP.S             02:54:57 24-Feb-20: STOP TIME  02:54:57 24-Feb-20
 STEP.S                   0.00: STEP TIME
 NULL.                 -999.25: NULL VALUE
 JOBN.        AZ-XX-0905059384:  JOB TICKET NUMB
 PDAT.          Mean Sea Level:  PERMANENT DATUM
 UNIT.                     N/A:  LOGGING EQUIPMENT ID
 DCON.         Sperry Drilling:  DIRECTNL CONTR
 DOE .                     N/A:  DOE NUMBER
 RIG .             West Chirag:  RIG NAME
 WELL.                     J22:  WELL NAME
 MWDS.                    Baku:  MWD SHOP
 SRVC.     TURAN Drilling & Engineering:  CONTRACTOR
 FLD .                     ACG:  FIELD NAME
 CTRY.              Azerbaijan:  COUNTRY NAME
 PROV.                    Baku:  PROVINCE
 STAT.                    Baku:  STATE NAME
 REGN.                   EESSA:  REGION
 BASE.              Azerbaijan:  LOGGING EQUIPMENT BASE LOCATION
 UWI .                     N/A:  UNIQUE WELL IDENTIFIER
 API .                     N/A:  API NUMBER
 COMP.     BP Exploration (Caspian Sea) Ltd.:  COMPANY
 WTYP.                Deviated:  WELL TYPE
 MDS .        Operator Entered:  MAG DATA SOURCE
 SON .        AZ-XX-0905059384:  JOB NUMBER
 FTOP.          Formation Tops:  FORM TOPS DESC
 ILTD.               Lithology:  INTERP LTH DESC
 SVYD.                  Survey:  SURVEY DESC
 DMOD.             Drill Model:  DRILL MOD DESC
 HPTY.       Minimum Curvature:  HOLE POS TYPE
 NREF.                    Grid:  NORTH REFERENCE
 SPUD.               09-Jan-20:  SPUD DATE
 DATE.      14.04.48 07-Feb-20:  END TIME
 STIM.      07.00.00 09-Jan-20:  START TIME
 DMF .             Drill Floor:  DRILL MEAS FROM
 DFST.                        :  DIST FSL TEXT
 DFWT.                        :  DIST FWL TEXT
 CNTY.                        :  COUNTY
 LOC .                        :  LOCATION
 LMF .             Drill Floor:  LOG MEASURED FROM
 DEP .m                   0.00:  DEPTH
 VSNS.m                  10.28:  VERT SEC N/S
 VSEW.m                  -6.24:  VERT SEC E/W
 AGAP.m                  43.00:  AIR GAP
 APD .m                  43.00:  DEPTH ABOVE PD
 WDMS.m                 169.80:  WD ELEV
 EGL .m                   0.00:  GROUND ELEVATION
 EPD .m                   0.00:  ELEVATION
 AZTC.deg                 6.27:  AZM TOTAL CORR
 GRDC.deg                 0.15:  GRID CORRECTION
 MDEC.deg                 6.42:  MAGNETIC DECL
 MDIP.deg                59.56:  MAGNETIC DIP
 MFLD.nT              50277.00:  MAGNETIC FIELD
 GVFD.g                   1.00:  GRAVITY FIELD
 VSDR.deg               148.53:  VERT SEC DIRECT
 TDD .m                3473.01:  TOTAL DEPTH (DRILLER)
 SDEP.m                 364.00:  START DEPTH
 DFSL.m                   0.00:  DISTANCE FSL
 DFWL.m                   0.00:  DISTANCE FWL
 UTMY.m             4443793.85:  UTM Y
 UTMX.m              519005.06:  UTM X
 WHEW.m                  -6.24:  WELL HEAD E/W
 WHNS.m                  10.28:  WELL HEAD N/S
 LONG.deg                51.22:  LONGITUDE
 LATI.deg                40.13:  LATITUDE
 TVDS.m                  43.00:  TVDSS CORRECTN
 EKB .m                   0.00:  KB ELEVATION
 EDF .m                  43.00:  DF ELEVATION
 TDL .m                 254.00:  TOTAL DEPTH (LOGGER)
 MAGU.                 1850021:  MAGUTM CHECKSUM
 VSC .                       0:  VS TO CLOSURE
~Parameter Information Block
#MNEM.UNIT       Value        Description
#---------     -----------    ---------------------------
 AV  .mps                 0.50:  Ann Velocity 
 AVMX.mps                 1.40:  Max Ann Veloc 
 AZIF.deg               144.94:  Azm, Final 
 BHAT.        Rotary Steerable:  BHA Type 
 BROT.°/30m               0.23:  Build Rotating 
 BS  .in                  8.50:  Bit Size 
 BTPL.psig              264.00:  Bit Press Loss 
 CABU.                     Yes:  Customer Abuse 
 COMM.                     D
_:  Run Comments 1 
 TCS .hr                 87.30:  Time Ciculation Ended 
 CV  .mps                 2.45:  Crit Velocity 
 CVMX.mps                 2.74:  Max Crit Veloc 
 DD1 .             Aziz Aliyev:  Direct Drillr 1 
 DDSV.               Geo-Pilot:  DD Service 
 DEFF.%                 100.00:  % Det Eff 
 DLRX.°/30m               1.22:  Dogleg Rot Max 
 DLSO.°/30m               0.52:  Dogleg Oriented 
 DLSX.°/30m               1.22:  Dogleg Str Max 
 DRET.      12.59.00 23-Feb-20:  Drill End Time 
 DRST.      09.44.00 18-Feb-20:  Drill Start Tim 
 DTIM.hr                 23.03:  Time Drilling 
 EDEP.m                3473.01:  End Depth 
 ENG1.         Almaz Almadatov:  Engineer 1 
 ENG2.         Dair Mahammadov:  Engineer 2 
 ENG3.          Nazrin Asgarli:  Engineer 3 
 ETIM.      10.33.36 26-Feb-20:  End Time 
 FLOI.gpm               480.00:  Flow In 
 FLON.gpm               300.00:  Flow In Min 
 FLOS.cptm                1.00:  Fluid Loss 
 FLOX.gpm               550.00:  Flow In Max 
 HFLO.                      No:  High Flow 
 HPRE.                      No:  High Pressure 
 HTEM.                      No:  High Temp 
 HYDO.m                   1.80:  Hydro Offset 
 IFIN.deg                74.42:  Inc, Final 
 IMAX.deg                76.14:  Inc Max 
 IMIN.deg                74.42:  Inc Min 
 IMND.m                3462.72:  Inc Min Depth 
 IMXD.m                3235.69:  Inc Max Depth 
 JARR.                      No:  Jarring 
 LETM.      12.59.00 23-Feb-20:  Log End Time 
 LOST.hr                     0:  Lost Rig Time 
 LSTM.      09.44.00 18-Feb-20:  Log Start Time 
 MDCL.ppm             45000.00:  Mud Chlorides 
 MDES.     Inversion Oil/Synthetic:  Mud Desc 
 DFD .sg                  1.38:  Mud Density 
 MDMN.sg                  1.34:  Dens Mud Min 
 MDMX.sg                  1.49:  Dens Mud Max 
 MOIL.                      67:  Run Mud Oil % 
 MOWR.                   67:33:  Run Mud OWR 
 MSND.                    0.12:  Run Mud Sand % 
 MSOL.                      22:  Run Mud Solids% 
 DFV .spqt               81.00:  Mud Viscosity 
 MWOD.in                  6.75:  MWD Tool OD 
 MWSI.                      No:  Serv Intrp, MWD 
 OTIM.hr                231.44:  Time Operating 
 PCON.          Wear / Scratch:  Pad Condition 
 PMAX.psia             3400.00:  Press Op, Max 
 PV  .cP                 55.00:  Mud PV 
 RUN .                     800:  Run Number 
 ROPA.m/hr               12.00:  ROP Avg 
 ROPN.m/hr                5.00:  ROP Min 
 ROPX.m/hr               28.00:  ROP Max 
 RPMA.rpm               120.00:  RPM Surface Avg 
 RPMN.rpm                40.00:  RPM Surface Min 
 RPMX.rpm               130.00:  RPM Surface Max 
 RRUN.                    0800:  Rig Run Number 
 RTIM.hr                 45.00:  Time Reaming 
 SAZI.deg               145.38:  Azm, Start 
 SDEP.m                3219.01:  Start Depth 
 SIDD.                      No:  Serv Intrp, DD 
 SINC.deg                75.11:  Inc, Start 
 SPPA.psig             2400.00:  SPP Avg 
 SPPN.psig             2320.00:  SPP Min 
 SPPX.psig             3200.00:  SPP Max 
 STIM.      15.15.00 17-Feb-20:  Start Time 
 SVCS.                 DD, MWD:  Services 
 SVER.                    9.20:  Sperry Version 
 TDAT.m                 254.00:  Tot Depth Attmp 
 TDDF.                      No:  Trip for DD 
 TDLG.m                 254.00:  Tot Depth Loggd 
 TFF .                      No:  Trip for Fail 
 TQAA.f-kp               13.00:  Torque Abs Avg 
 TQAN.f-kp                7.00:  Torque Abs Min 
 TQAX.f-kp               15.00:  Torque Abs Max 
 TRRT.°/30m               0.21:  Turn Rotating 
 MRT .                  EWR-M5:  Maximum Recorded Temperature 
 TTMX.degC               64.00:  Max Tool Temp 
 VS01.                90586516:  Virtual Str1 SN 
 VS02.                90513691:  Virtual Str2 SN 
 VS03.                90586523:  Virtual Str3 SN 
 VS04.                90586520:  Virtual Str4 SN 
 VS05.                90590507:  Virtual Str5 SN 
 WBMN.klb                12.00:  WOB Min 
 WITN.           Rufat Babayev:  Customer Rep 2 
 WITN.         Alistair Sprott:  Customer Rep 
 WOBA.klb                18.00:  WOB Avg 
 WOBX.klb                30.00:  WOB Max 
 YP  .lhf2               41.00:  Yield Point 
~Curve Information Block
#MNEM.UNIT                 API CODE     Curve Description
#---------               -----------    ---------------------------
 TIME.HHMMSS            00 000 000 000:  GT Time & Date
 GTDEPTH.m              00 000 000 000:  GT Depth
 GTPQH.psia             00 000 000 000:  GT HR Quartz Pressure
 GTTQ.degC              00 000 000 000:  GT Quartz Temperature
 GTTN.NONE              00 000 000 000:  GT Test Number
 GTET.sec               00 000 000 000:  GT Elapsed Test Time
 GTTVD.m                00 000 000 000:  GT True Vertical Depth
#Other Information
#
#WARRANTY: Halliburton will use its best efforts to furnish customers with 
#accurate information and interpretations that are part of, and incident to, the services 
#provided.  However, Halliburton cannot and does not warrant the accuracy 
#or correctness of such information and interpretations.  Under no circumstances should any 
#such information or interpretation be relied upon as the sole basis for any drilling, 
#completion, production, or financial decision or any procedure involving any risk to the 
#safety of any drilling venture, drilling rig or its crew or any other third party.  The 
#Customer has full responsibility for all drilling, completion and production operation.  
#Halliburton makes no representations or warranties, either expressed or 
#implied, including, but not limited to, the implied warranties of merchantability or fitness 
#for a particular purpose, with respect to the services rendered.  In no event will 
#Halliburton be liable for failure to obtain any particular results or for 
#any damages, including, but not limited to, indirect, special or consequential damages, 
#resulting from the use of any information or interpretation provided by Halliburton.
#
~A           TIME           GTDEPTH  GTPQH  GTTQ  GTTN  GTET   GTTVD  
# ...
   02:53:45.495.24-Feb-2020 3375.51 4203.57 55.74 5.00 368.15 2709.14
   02:53:45.695.24-Feb-2020 3375.51 4203.57 55.74 5.00 368.35 2709.14
   02:53:45.895.24-Feb-2020 3375.51 4203.50 55.74 5.00 368.55 2709.14
   02:53:46.095.24-Feb-2020 3375.51 4203.50 55.74 5.00 368.75 2709.14
   02:53:46.295.24-Feb-2020 3375.51 4203.55 55.74 5.00 368.95 2709.14
   02:53:46.495.24-Feb-2020 3375.51 4203.56 55.74 5.00 369.15 2709.14
   02:53:46.695.24-Feb-2020 3375.51 4203.56 55.74 5.00 369.35 2709.14
   02:53:46.895.24-Feb-2020 3375.51 4203.46 55.74 5.00 369.55 2709.14
   02:53:47.095.24-Feb-2020 3375.51 4203.52 55.74 5.00 369.75 2709.14
   02:53:47.295.24-Feb-2020 3375.51 4203.54 55.74 5.00 369.95 2709.14
   02:53:47.495.24-Feb-2020 3375.51 4203.53 55.74 5.00 370.15 2709.14
   02:53:47.696.24-Feb-2020 3375.51 4203.53 55.74 5.00 370.35 2709.14
   02:53:47.896.24-Feb-2020 3375.51 4203.53 55.74 5.00 370.55 2709.14
   02:53:48.096.24-Feb-2020 3375.51 4203.64 55.74 5.00 370.75 2709.14
   02:53:48.296.24-Feb-2020 3375.51 4203.44 55.74 5.00 370.95 2709.14
   02:53:48.496.24-Feb-2020 3375.51 4203.45 55.74 5.00 371.15 2709.14
   02:53:48.696.24-Feb-2020 3375.51 4203.45 55.74 5.00 371.35 2709.14
   02:53:48.896.24-Feb-2020 3375.51 4203.46 55.74 5.00 371.55 2709.14
   02:53:49.096.24-Feb-2020 3375.51 4203.55 55.74 5.00 371.75 2709.14
   02:53:49.296.24-Feb-2020 3375.51 4203.60 55.74 5.00 371.95 2709.14
   02:53:49.496.24-Feb-2020 3375.51 4203.47 55.74 5.00 372.15 2709.14
   02:53:49.696.24-Feb-2020 3375.51 4203.47 55.74 5.00 372.35 2709.14
   02:53:49.896.24-Feb-2020 3375.51 4203.53 55.74 5.00 372.55 2709.14
   02:53:50.097.24-Feb-2020 3375.51 4203.55 55.74 5.00 372.75 2709.14
   02:53:50.297.24-Feb-2020 3375.51 4203.74 55.74 5.00 372.95 2709.14
   02:53:50.497.24-Feb-2020 3375.51 4203.45 55.74 5.00 373.15 2709.14
   02:53:50.697.24-Feb-2020 3375.51 4203.50 55.74 5.00 373.35 2709.14
   02:53:50.897.24-Feb-2020 3375.51 4203.13 55.74 5.00 373.55 2709.14
   02:53:51.097.24-Feb-2020 3375.51 4204.03 55.74 5.00 373.75 2709.14
   02:53:51.297.24-Feb-2020 3375.51 4203.48 55.74 5.00 373.95 2709.14
   02:53:51.497.24-Feb-2020 3375.51 4203.57 55.74 5.00 374.15 2709.14
   02:53:51.697.24-Feb-2020 3375.51 4203.57 55.74 5.00 374.35 2709.14
   02:53:51.897.24-Feb-2020 3375.51 4203.49 55.74 5.00 374.55 2709.14
   02:53:52.097.24-Feb-2020 3375.51 4203.49 55.74 5.00 374.75 2709.14
   02:53:52.297.24-Feb-2020 3375.51 4203.53 55.74 5.00 374.95 2709.14
   02:53:52.497.24-Feb-2020 3375.51 4203.49 55.74 5.00 375.15 2709.14
   02:53:52.698.24-Feb-2020 3375.51 4203.49 55.74 5.00 375.35 2709.14
   02:53:52.898.24-Feb-2020 3375.51 4203.53 55.74 5.00 375.55 2709.14
   02:53:53.098.24-Feb-2020 3375.51 4203.51 55.74 5.00 375.75 2709.14
   02:53:53.298.24-Feb-2020 3375.51 4203.52 55.74 5.00 375.95 2709.14
   02:53:53.498.24-Feb-2020 3375.51 4203.52 55.74 5.00 376.15 2709.14
   02:53:53.698.24-Feb-2020 3375.51 4203.52 55.74 5.00 376.35 2709.14
   02:53:53.898.24-Feb-2020 3375.51 4203.54 55.74 5.00 376.55 2709.14
   02:53:54.098.24-Feb-2020 3375.51 4203.42 55.74 5.00 376.75 2709.14
   02:53:54.298.24-Feb-2020 3375.51 4203.56 55.74 5.00 376.95 2709.14
   02:53:54.498.24-Feb-2020 3375.51 4203.60 55.74 5.00 377.15 2709.14
   02:53:54.698.24-Feb-2020 3375.51 4203.60 55.74 5.00 377.35 2709.14
   02:53:54.898.24-Feb-2020 3375.51 4203.55 55.74 5.00 377.55 2709.14
   02:53:55.099.24-Feb-2020 3375.51 4203.50 55.74 5.00 377.75 2709.14
   02:53:55.299.24-Feb-2020 3375.51 4203.44 55.74 5.00 377.95 2709.14
   02:53:55.499.24-Feb-2020 3375.51 4203.51 55.74 5.00 378.15 2709.14
   02:53:55.699.24-Feb-2020 3375.51 4203.51 55.74 5.00 378.35 2709.14
   02:53:55.899.24-Feb-2020 3375.51 4203.53 55.74 5.00 378.55 2709.14
   02:53:56.099.24-Feb-2020 3375.51 4203.52 55.74 5.00 378.75 2709.14
   02:53:56.299.24-Feb-2020 3375.51 4203.44 55.74 5.00 378.95 2709.14
   02:53:56.499.24-Feb-2020 3375.51 4203.48 55.74 5.00 379.15 2709.14
   02:53:56.699.24-Feb-2020 3375.51 4203.48 55.74 5.00 379.35 2709.14
   02:53:56.899.24-Feb-2020 3375.51 4203.50 55.74 5.00 379.55 2709.14
   02:53:57.099.24-Feb-2020 3375.51 4203.52 55.74 5.00 379.75 2709.14
   02:53:57.299.24-Feb-2020 3375.51 4203.06 55.74 5.00 379.95 2709.14
   02:53:57.500.24-Feb-2020 3375.51 4203.98 55.74 5.00 380.15 2709.14
   02:53:57.700.24-Feb-2020 3375.51 4203.98 55.74 5.00 380.35 2709.14
   02:53:57.900.24-Feb-2020 3375.51 4203.52 55.74 5.00 380.55 2709.14
   02:53:58.100.24-Feb-2020 3375.51 4203.47 55.74 5.00 380.75 2709.14
   02:53:58.300.24-Feb-2020 3375.51 4203.45 55.74 5.00 380.95 2709.14
   02:53:58.500.24-Feb-2020 3375.51 4203.50 55.74 5.00 381.15 2709.14
   02:53:58.700.24-Feb-2020 3375.51 4203.50 55.74 5.00 381.35 2709.14
   02:53:58.900.24-Feb-2020 3375.51 4203.43 55.74 5.00 381.55 2709.14
   02:53:59.100.24-Feb-2020 3375.51 4203.47 55.74 5.00 381.75 2709.14
   02:53:59.300.24-Feb-2020 3375.51 4203.51 55.74 5.00 381.95 2709.14
   02:53:59.500.24-Feb-2020 3375.51 4203.12 55.74 5.00 382.15 2709.14
   02:53:59.700.24-Feb-2020 3375.51 4203.12 55.74 5.00 382.35 2709.14
   02:53:59.900.24-Feb-2020 3375.51 4215.32 55.74 5.00 382.55 2709.14
   02:54:00.101.24-Feb-2020 3375.51 4274.76 55.74 5.00 382.75 2709.14
   02:54:00.301.24-Feb-2020 3375.51 4273.40 55.74 5.00 382.95 2709.14
   02:54:00.501.24-Feb-2020 3375.51 4930.12 55.74 5.00 383.15 2709.14
   02:54:00.701.24-Feb-2020 3375.51 4930.12 55.74 5.00 383.35 2709.14
   02:54:00.901.24-Feb-2020 3375.51 5707.38 55.74 5.00 383.55 2709.14
   02:54:01.101.24-Feb-2020 3375.51 5706.53 55.74 5.00 383.75 2709.14
   02:54:01.301.24-Feb-2020 3375.51 5706.11 55.74 5.00 383.95 2709.14
   02:54:01.501.24-Feb-2020 3375.51 5707.45 55.74 5.00 384.15 2709.14
   02:54:01.701.24-Feb-2020 3375.51 5707.45 55.74 5.00 384.35 2709.14
   02:54:01.901.24-Feb-2020 3375.51 5707.31 55.74 5.00 384.55 2709.14
   02:54:02.101.24-Feb-2020 3375.51 5707.59 55.74 5.00 384.75 2709.14
   02:54:02.301.24-Feb-2020 3375.51 5708.09 55.74 5.00 384.95 2709.14
   02:54:02.502.24-Feb-2020 3375.51 5708.57 55.74 5.00 385.15 2709.14
   02:54:02.702.24-Feb-2020 3375.51 5708.57 55.74 5.00 385.35 2709.14
   02:54:02.902.24-Feb-2020 3375.51 5708.84 55.74 5.00 385.55 2709.14
   02:54:03.102.24-Feb-2020 3375.51 5709.16 55.74 5.00 385.75 2709.14
   02:54:03.302.24-Feb-2020 3375.51 5709.82 55.74 5.00 385.95 2709.14
   02:54:03.502.24-Feb-2020 3375.51 5710.25 55.74 5.00 386.15 2709.14
   02:54:03.702.24-Feb-2020 3375.51 5710.25 55.74 5.00 386.35 2709.14
   02:54:03.902.24-Feb-2020 3375.51 5708.54 55.75 5.00 386.55 2709.14
   02:54:04.102.24-Feb-2020 3375.51 5710.46 55.75 5.00 386.75 2709.14
   02:54:04.302.24-Feb-2020 3375.51 5709.31 55.75 5.00 386.95 2709.14
   02:54:04.502.24-Feb-2020 3375.51 5709.94 55.75 5.00 387.15 2709.14
   02:54:04.702.24-Feb-2020 3375.51 5709.94 55.75 5.00 387.36 2709.14
   02:54:04.902.24-Feb-2020 3375.51 5708.61 55.75 5.00 387.56 2709.14
   02:54:05.103.24-Feb-2020 3375.51 5707.81 55.75 5.00 387.76 2709.14
   02:54:05.303.24-Feb-2020 3375.51 5708.38 55.75 5.00 387.96 2709.14
   02:54:05.503.24-Feb-2020 3375.51 5709.30 55.75 5.00 388.16 2709.14
   02:54:05.703.24-Feb-2020 3375.51 5709.30 55.75 5.00 388.36 2709.14
   02:54:05.903.24-Feb-2020 3375.51 5709.62 55.75 5.00 388.56 2709.14
   02:54:06.103.24-Feb-2020 3375.51 5708.47 55.76 5.00 388.76 2709.14
   02:54:06.303.24-Feb-2020 3375.51 5708.49 55.76 5.00 388.96 2709.14
   02:54:06.503.24-Feb-2020 3375.51 5709.51 55.76 5.00 389.16 2709.14
   02:54:06.703.24-Feb-2020 3375.51 5709.51 55.76 5.00 389.36 2709.14
   02:54:06.903.24-Feb-2020 3375.51 5711.09 55.76 5.00 389.56 2709.14
   02:54:07.103.24-Feb-2020 3375.51 5708.67 55.76 5.00 389.76 2709.14
   02:54:07.303.24-Feb-2020 3375.51 5710.35 55.76 5.00 389.96 2709.14
   02:54:07.504.24-Feb-2020 3375.51 5709.31 55.76 5.00 390.16 2709.14
   02:54:07.704.24-Feb-2020 3375.51 5709.31 55.76 5.00 390.36 2709.14
   02:54:07.904.24-Feb-2020 3375.51 5710.20 55.76 5.00 390.56 2709.14
   02:54:08.104.24-Feb-2020 3375.51 5709.83 55.76 5.00 390.76 2709.14
   02:54:08.304.24-Feb-2020 3375.51 5709.98 55.76 5.00 390.96 2709.14
