~Version Information
 VERS.                  2.0:   CWLS log ASCII Standard -VERSION 2.0
 WRAP.                   NO:   One line per depth step
~Well Information Block
#MNEM.UNIT     VALUE/NAME     DESCRIPTION
#---------     -----------    ---------------------------
 STRT.S             06:21:10 24-Feb-20: START TIME 06:21:10 24-Feb-20
 STOP.S             06:29:09 24-Feb-20: STOP TIME  06:29:09 24-Feb-20
 STEP.S                   0.00: STEP TIME
 NULL.                 -999.25: NULL VALUE
 JOBN.        AZ-XX-0905059384:  JOB TICKET NUMB
 PDAT.          Mean Sea Level:  PERMANENT DATUM
 UNIT.                     N/A:  LOGGING EQUIPMENT ID
 DCON.         Sperry Drilling:  DIRECTNL CONTR
 DOE .                     N/A:  DOE NUMBER
 RIG .             West Chirag:  RIG NAME
 WELL.                     J22:  WELL NAME
 MWDS.                    Baku:  MWD SHOP
 SRVC.     TURAN Drilling & Engineering:  CONTRACTOR
 FLD .                     ACG:  FIELD NAME
 CTRY.              Azerbaijan:  COUNTRY NAME
 PROV.                    Baku:  PROVINCE
 STAT.                    Baku:  STATE NAME
 REGN.                   EESSA:  REGION
 BASE.              Azerbaijan:  LOGGING EQUIPMENT BASE LOCATION
 UWI .                     N/A:  UNIQUE WELL IDENTIFIER
 API .                     N/A:  API NUMBER
 COMP.     BP Exploration (Caspian Sea) Ltd.:  COMPANY
 WTYP.                Deviated:  WELL TYPE
 MDS .        Operator Entered:  MAG DATA SOURCE
 SON .        AZ-XX-0905059384:  JOB NUMBER
 FTOP.          Formation Tops:  FORM TOPS DESC
 ILTD.               Lithology:  INTERP LTH DESC
 SVYD.                  Survey:  SURVEY DESC
 DMOD.             Drill Model:  DRILL MOD DESC
 HPTY.       Minimum Curvature:  HOLE POS TYPE
 NREF.                    Grid:  NORTH REFERENCE
 SPUD.               09-Jan-20:  SPUD DATE
 DATE.      14.04.48 07-Feb-20:  END TIME
 STIM.      07.00.00 09-Jan-20:  START TIME
 DMF .             Drill Floor:  DRILL MEAS FROM
 DFST.                        :  DIST FSL TEXT
 DFWT.                        :  DIST FWL TEXT
 CNTY.                        :  COUNTY
 LOC .                        :  LOCATION
 LMF .             Drill Floor:  LOG MEASURED FROM
 DEP .m                   0.00:  DEPTH
 VSNS.m                  10.28:  VERT SEC N/S
 VSEW.m                  -6.24:  VERT SEC E/W
 AGAP.m                  43.00:  AIR GAP
 APD .m                  43.00:  DEPTH ABOVE PD
 WDMS.m                 169.80:  WD ELEV
 EGL .m                   0.00:  GROUND ELEVATION
 EPD .m                   0.00:  ELEVATION
 AZTC.deg                 6.27:  AZM TOTAL CORR
 GRDC.deg                 0.15:  GRID CORRECTION
 MDEC.deg                 6.42:  MAGNETIC DECL
 MDIP.deg                59.56:  MAGNETIC DIP
 MFLD.nT              50277.00:  MAGNETIC FIELD
 GVFD.g                   1.00:  GRAVITY FIELD
 VSDR.deg               148.53:  VERT SEC DIRECT
 TDD .m                3473.01:  TOTAL DEPTH (DRILLER)
 SDEP.m                 364.00:  START DEPTH
 DFSL.m                   0.00:  DISTANCE FSL
 DFWL.m                   0.00:  DISTANCE FWL
 UTMY.m             4443793.85:  UTM Y
 UTMX.m              519005.06:  UTM X
 WHEW.m                  -6.24:  WELL HEAD E/W
 WHNS.m                  10.28:  WELL HEAD N/S
 LONG.deg                51.22:  LONGITUDE
 LATI.deg                40.13:  LATITUDE
 TVDS.m                  43.00:  TVDSS CORRECTN
 EKB .m                   0.00:  KB ELEVATION
 EDF .m                  43.00:  DF ELEVATION
 TDL .m                 254.00:  TOTAL DEPTH (LOGGER)
 MAGU.                 1850021:  MAGUTM CHECKSUM
 VSC .                       0:  VS TO CLOSURE
~Parameter Information Block
#MNEM.UNIT       Value        Description
#---------     -----------    ---------------------------
 AV  .mps                 0.50:  Ann Velocity 
 AVMX.mps                 1.40:  Max Ann Veloc 
 AZIF.deg               144.94:  Azm, Final 
 BHAT.        Rotary Steerable:  BHA Type 
 BROT.°/30m               0.23:  Build Rotating 
 BS  .in                  8.50:  Bit Size 
 BTPL.psig              264.00:  Bit Press Loss 
 CABU.                     Yes:  Customer Abuse 
 COMM.                     î^:  Run Comments 1 
 TCS .hr                 87.30:  Time Ciculation Ended 
 CV  .mps                 2.45:  Crit Velocity 
 CVMX.mps                 2.74:  Max Crit Veloc 
 DD1 .             Aziz Aliyev:  Direct Drillr 1 
 DDSV.               Geo-Pilot:  DD Service 
 DEFF.%                 100.00:  % Det Eff 
 DLRX.°/30m               1.22:  Dogleg Rot Max 
 DLSO.°/30m               0.52:  Dogleg Oriented 
 DLSX.°/30m               1.22:  Dogleg Str Max 
 DRET.      12.59.00 23-Feb-20:  Drill End Time 
 DRST.      09.44.00 18-Feb-20:  Drill Start Tim 
 DTIM.hr                 23.03:  Time Drilling 
 EDEP.m                3473.01:  End Depth 
 ENG1.         Almaz Almadatov:  Engineer 1 
 ENG2.         Dair Mahammadov:  Engineer 2 
 ENG3.          Nazrin Asgarli:  Engineer 3 
 ETIM.      10.33.36 26-Feb-20:  End Time 
 FLOI.gpm               480.00:  Flow In 
 FLON.gpm               300.00:  Flow In Min 
 FLOS.cptm                1.00:  Fluid Loss 
 FLOX.gpm               550.00:  Flow In Max 
 HFLO.                      No:  High Flow 
 HPRE.                      No:  High Pressure 
 HTEM.                      No:  High Temp 
 HYDO.m                   1.80:  Hydro Offset 
 IFIN.deg                74.42:  Inc, Final 
 IMAX.deg                76.14:  Inc Max 
 IMIN.deg                74.42:  Inc Min 
 IMND.m                3462.72:  Inc Min Depth 
 IMXD.m                3235.69:  Inc Max Depth 
 JARR.                      No:  Jarring 
 LETM.      12.59.00 23-Feb-20:  Log End Time 
 LOST.hr                     0:  Lost Rig Time 
 LSTM.      09.44.00 18-Feb-20:  Log Start Time 
 MDCL.ppm             45000.00:  Mud Chlorides 
 MDES.     Inversion Oil/Synthetic:  Mud Desc 
 DFD .sg                  1.38:  Mud Density 
 MDMN.sg                  1.34:  Dens Mud Min 
 MDMX.sg                  1.49:  Dens Mud Max 
 MOIL.                      67:  Run Mud Oil % 
 MOWR.                   67:33:  Run Mud OWR 
 MSND.                    0.12:  Run Mud Sand % 
 MSOL.                      22:  Run Mud Solids% 
 DFV .spqt               81.00:  Mud Viscosity 
 MWOD.in                  6.75:  MWD Tool OD 
 MWSI.                      No:  Serv Intrp, MWD 
 OTIM.hr                231.44:  Time Operating 
 PCON.          Wear / Scratch:  Pad Condition 
 PMAX.psia             3400.00:  Press Op, Max 
 PV  .cP                 55.00:  Mud PV 
 RUN .                     800:  Run Number 
 ROPA.m/hr               12.00:  ROP Avg 
 ROPN.m/hr                5.00:  ROP Min 
 ROPX.m/hr               28.00:  ROP Max 
 RPMA.rpm               120.00:  RPM Surface Avg 
 RPMN.rpm                40.00:  RPM Surface Min 
 RPMX.rpm               130.00:  RPM Surface Max 
 RRUN.                    0800:  Rig Run Number 
 RTIM.hr                 45.00:  Time Reaming 
 SAZI.deg               145.38:  Azm, Start 
 SDEP.m                3219.01:  Start Depth 
 SIDD.                      No:  Serv Intrp, DD 
 SINC.deg                75.11:  Inc, Start 
 SPPA.psig             2400.00:  SPP Avg 
 SPPN.psig             2320.00:  SPP Min 
 SPPX.psig             3200.00:  SPP Max 
 STIM.      15.15.00 17-Feb-20:  Start Time 
 SVCS.                 DD, MWD:  Services 
 SVER.                    9.20:  Sperry Version 
 TDAT.m                 254.00:  Tot Depth Attmp 
 TDDF.                      No:  Trip for DD 
 TDLG.m                 254.00:  Tot Depth Loggd 
 TFF .                      No:  Trip for Fail 
 TQAA.f-kp               13.00:  Torque Abs Avg 
 TQAN.f-kp                7.00:  Torque Abs Min 
 TQAX.f-kp               15.00:  Torque Abs Max 
 TRRT.°/30m               0.21:  Turn Rotating 
 MRT .                  EWR-M5:  Maximum Recorded Temperature 
 TTMX.degC               64.00:  Max Tool Temp 
 VS01.                90586516:  Virtual Str1 SN 
 VS02.                90513691:  Virtual Str2 SN 
 VS03.                90586523:  Virtual Str3 SN 
 VS04.                90586520:  Virtual Str4 SN 
 VS05.                90590507:  Virtual Str5 SN 
 WBMN.klb                12.00:  WOB Min 
 WITN.           Rufat Babayev:  Customer Rep 2 
 WITN.         Alistair Sprott:  Customer Rep 
 WOBA.klb                18.00:  WOB Avg 
 WOBX.klb                30.00:  WOB Max 
 YP  .lhf2               41.00:  Yield Point 
~Curve Information Block
#MNEM.UNIT                 API CODE     Curve Description
#---------               -----------    ---------------------------
 TIME.HHMMSS            00 000 000 000:  GT Time & Date
 GTDEPTH.m              00 000 000 000:  GT Depth
 GTPQH.psia             00 000 000 000:  GT HR Quartz Pressure
 GTTQ.degC              00 000 000 000:  GT Quartz Temperature
 GTTN.NONE              00 000 000 000:  GT Test Number
 GTET.sec               00 000 000 000:  GT Elapsed Test Time
 GTTVD.m                00 000 000 000:  GT True Vertical Depth
#Other Information
#
#WARRANTY: Halliburton will use its best efforts to furnish customers with 
#accurate information and interpretations that are part of, and incident to, the services 
#provided.  However, Halliburton cannot and does not warrant the accuracy 
#or correctness of such information and interpretations.  Under no circumstances should any 
#such information or interpretation be relied upon as the sole basis for any drilling, 
#completion, production, or financial decision or any procedure involving any risk to the 
#safety of any drilling venture, drilling rig or its crew or any other third party.  The 
#Customer has full responsibility for all drilling, completion and production operation.  
#Halliburton makes no representations or warranties, either expressed or 
#implied, including, but not limited to, the implied warranties of merchantability or fitness 
#for a particular purpose, with respect to the services rendered.  In no event will 
#Halliburton be liable for failure to obtain any particular results or for 
#any damages, including, but not limited to, indirect, special or consequential damages, 
#resulting from the use of any information or interpretation provided by Halliburton.
#
~A           TIME           GTDEPTH  GTPQH  GTTQ  GTTN   GTET   GTTVD  
# ...
   06:28:42.507.24-Feb-2020 3290.51 5675.41 53.90 10.00 452.10 2687.65
   06:28:42.707.24-Feb-2020 3290.51 5675.41 53.90 10.00 452.30 2687.65
   06:28:42.907.24-Feb-2020 3290.51 5675.04 53.90 10.00 452.50 2687.65
   06:28:43.107.24-Feb-2020 3290.51 5674.60 53.90 10.00 452.70 2687.65
   06:28:43.307.24-Feb-2020 3290.51 5674.59 53.90 10.00 452.90 2687.65
   06:28:43.507.24-Feb-2020 3290.51 5675.48 53.90 10.00 453.10 2687.65
   06:28:43.707.24-Feb-2020 3290.51 5675.48 53.90 10.00 453.30 2687.65
   06:28:43.907.24-Feb-2020 3290.51 5675.43 53.90 10.00 453.50 2687.65
   06:28:44.107.24-Feb-2020 3290.51 5674.74 53.90 10.00 453.70 2687.65
   06:28:44.307.24-Feb-2020 3290.51 5680.49 53.90 10.00 453.90 2687.65
   06:28:44.507.24-Feb-2020 3290.51 5675.00 53.90 10.00 454.10 2687.65
   06:28:44.707.24-Feb-2020 3290.51 5676.10 53.90 10.00 454.30 2687.65
   06:28:44.907.24-Feb-2020 3290.51 5676.69 53.90 10.00 454.50 2687.65
   06:28:45.107.24-Feb-2020 3290.51 5675.67 53.90 10.00 454.70 2687.65
   06:28:45.307.24-Feb-2020 3290.51 5684.36 53.90 10.00 454.90 2687.65
   06:28:45.507.24-Feb-2020 3290.51 5672.52 53.90 10.00 455.10 2687.65
   06:28:45.708.24-Feb-2020 3290.51 5672.52 53.90 10.00 455.30 2687.65
   06:28:45.908.24-Feb-2020 3290.51 5677.65 53.90 10.00 455.50 2687.65
   06:28:46.108.24-Feb-2020 3290.51 5682.31 53.90 10.00 455.70 2687.65
   06:28:46.308.24-Feb-2020 3290.51 5675.61 53.90 10.00 455.90 2687.65
   06:28:46.508.24-Feb-2020 3290.51 5677.12 53.90 10.00 456.10 2687.65
   06:28:46.708.24-Feb-2020 3290.51 5677.12 53.90 10.00 456.30 2687.65
   06:28:46.908.24-Feb-2020 3290.51 5686.86 53.90 10.00 456.50 2687.65
   06:28:47.108.24-Feb-2020 3290.51 5674.50 53.90 10.00 456.70 2687.65
   06:28:47.308.24-Feb-2020 3290.51 5674.83 53.90 10.00 456.90 2687.65
   06:28:47.508.24-Feb-2020 3290.51 5677.36 53.90 10.00 457.10 2687.65
   06:28:47.708.24-Feb-2020 3290.51 5677.36 53.90 10.00 457.30 2687.65
   06:28:47.908.24-Feb-2020 3290.51 5676.44 53.90 10.00 457.50 2687.65
   06:28:48.108.24-Feb-2020 3290.51 5676.31 53.90 10.00 457.70 2687.65
   06:28:48.308.24-Feb-2020 3290.51 5675.80 53.90 10.00 457.90 2687.65
   06:28:48.508.24-Feb-2020 3290.51 5675.83 53.90 10.00 458.10 2687.65
   06:28:48.708.24-Feb-2020 3290.51 5675.92 53.90 10.00 458.30 2687.65
   06:28:48.908.24-Feb-2020 3290.51 5675.97 53.90 10.00 458.50 2687.65
   06:28:49.108.24-Feb-2020 3290.51 5675.83 53.90 10.00 458.70 2687.65
   06:28:49.308.24-Feb-2020 3290.51 5675.86 53.90 10.00 458.90 2687.65
   06:28:49.508.24-Feb-2020 3290.51 5675.94 53.90 10.00 459.10 2687.65
   06:28:49.708.24-Feb-2020 3290.51 5675.94 53.90 10.00 459.30 2687.65
   06:28:49.908.24-Feb-2020 3290.51 5676.41 53.90 10.00 459.50 2687.65
   06:28:50.108.24-Feb-2020 3290.51 5685.78 53.90 10.00 459.70 2687.65
   06:28:50.309.24-Feb-2020 3290.51 5673.95 53.90 10.00 459.90 2687.65
   06:28:50.509.24-Feb-2020 3290.51 5674.39 53.90 10.00 460.10 2687.65
   06:28:50.709.24-Feb-2020 3290.51 5674.39 53.90 10.00 460.30 2687.65
   06:28:50.909.24-Feb-2020 3290.51 5676.10 53.90 10.00 460.50 2687.65
   06:28:51.109.24-Feb-2020 3290.51 5676.05 53.90 10.00 460.70 2687.65
   06:28:51.309.24-Feb-2020 3290.51 5676.81 53.90 10.00 460.90 2687.65
   06:28:51.509.24-Feb-2020 3290.51 5675.24 53.90 10.00 461.10 2687.65
   06:28:51.709.24-Feb-2020 3290.51 5675.24 53.90 10.00 461.30 2687.65
   06:28:51.909.24-Feb-2020 3290.51 5674.87 53.90 10.00 461.50 2687.65
   06:28:52.109.24-Feb-2020 3290.51 5675.49 53.90 10.00 461.70 2687.65
   06:28:52.309.24-Feb-2020 3290.51 5674.31 53.90 10.00 461.90 2687.65
   06:28:52.509.24-Feb-2020 3290.51 5674.40 53.90 10.00 462.10 2687.65
   06:28:52.709.24-Feb-2020 3290.51 5674.74 53.90 10.00 462.30 2687.65
   06:28:52.909.24-Feb-2020 3290.51 5675.34 53.90 10.00 462.50 2687.65
   06:28:53.109.24-Feb-2020 3290.51 5675.22 53.90 10.00 462.70 2687.65
   06:28:53.309.24-Feb-2020 3290.51 5674.35 53.90 10.00 462.90 2687.65
   06:28:53.509.24-Feb-2020 3290.51 5682.98 53.90 10.00 463.10 2687.65
   06:28:53.709.24-Feb-2020 3290.51 5682.98 53.90 10.00 463.30 2687.65
   06:28:53.909.24-Feb-2020 3290.51 5674.42 53.90 10.00 463.50 2687.65
   06:28:54.109.24-Feb-2020 3290.51 5676.91 53.90 10.00 463.70 2687.65
   06:28:54.309.24-Feb-2020 3290.51 5675.47 53.90 10.00 463.90 2687.65
   06:28:54.509.24-Feb-2020 3290.51 5684.22 53.90 10.00 464.10 2687.65
   06:28:54.709.24-Feb-2020 3290.51 5684.22 53.90 10.00 464.30 2687.65
   06:28:54.910.24-Feb-2020 3290.51 5674.45 53.90 10.00 464.50 2687.65
   06:28:55.110.24-Feb-2020 3290.51 5677.57 53.90 10.00 464.70 2687.65
   06:28:55.310.24-Feb-2020 3290.51 5685.00 53.90 10.00 464.90 2687.65
   06:28:55.510.24-Feb-2020 3290.51 5673.87 53.90 10.00 465.10 2687.65
   06:28:55.710.24-Feb-2020 3290.51 5673.87 53.90 10.00 465.30 2687.65
   06:28:55.910.24-Feb-2020 3290.51 5677.91 53.90 10.00 465.50 2687.65
   06:28:56.110.24-Feb-2020 3290.51 5678.07 53.90 10.00 465.70 2687.65
   06:28:56.310.24-Feb-2020 3290.51 5682.38 53.90 10.00 465.90 2687.65
   06:28:56.510.24-Feb-2020 3290.51 5675.85 53.90 10.00 466.10 2687.65
   06:28:56.710.24-Feb-2020 3290.51 5676.19 53.90 10.00 466.30 2687.65
   06:28:56.910.24-Feb-2020 3290.51 5677.44 53.90 10.00 466.50 2687.65
   06:28:57.110.24-Feb-2020 3290.51 5676.49 53.90 10.00 466.70 2687.65
   06:28:57.310.24-Feb-2020 3290.51 5676.08 53.90 10.00 466.90 2687.65
   06:28:57.510.24-Feb-2020 3290.51 5675.83 53.90 10.00 467.10 2687.65
   06:28:57.710.24-Feb-2020 3290.51 5675.83 53.90 10.00 467.30 2687.65
   06:28:57.910.24-Feb-2020 3290.51 5675.72 53.90 10.00 467.50 2687.65
   06:28:58.110.24-Feb-2020 3290.51 5675.81 53.90 10.00 467.70 2687.65
   06:28:58.310.24-Feb-2020 3290.51 5675.80 53.90 10.00 467.90 2687.65
   06:28:58.510.24-Feb-2020 3290.51 5675.72 53.90 10.00 468.10 2687.65
   06:28:58.710.24-Feb-2020 3290.51 5675.72 53.90 10.00 468.30 2687.65
   06:28:58.910.24-Feb-2020 3290.51 5675.95 53.90 10.00 468.50 2687.65
   06:28:59.110.24-Feb-2020 3290.51 5676.37 53.90 10.00 468.70 2687.65
   06:28:59.311.24-Feb-2020 3290.51 5679.37 53.90 10.00 468.90 2687.65
   06:28:59.511.24-Feb-2020 3290.51 5680.68 53.90 10.00 469.10 2687.65
   06:28:59.711.24-Feb-2020 3290.51 5680.68 53.90 10.00 469.30 2687.65
   06:28:59.911.24-Feb-2020 3290.51 5675.71 53.90 10.00 469.50 2687.65
   06:29:00.111.24-Feb-2020 3290.51 5676.89 53.90 10.00 469.70 2687.65
   06:29:00.311.24-Feb-2020 3290.51 5676.05 53.90 10.00 469.90 2687.65
   06:29:00.511.24-Feb-2020 3290.51 5676.56 53.90 10.00 470.10 2687.65
   06:29:00.711.24-Feb-2020 3290.51 5675.29 53.90 10.00 470.30 2687.65
   06:29:00.911.24-Feb-2020 3290.51 5674.78 53.90 10.00 470.50 2687.65
   06:29:01.111.24-Feb-2020 3290.51 5675.05 53.90 10.00 470.70 2687.65
   06:29:01.311.24-Feb-2020 3290.51 5675.54 53.90 10.00 470.90 2687.65
   06:29:01.511.24-Feb-2020 3290.51 5675.08 53.90 10.00 471.10 2687.65
   06:29:01.711.24-Feb-2020 3290.51 5675.08 53.90 10.00 471.30 2687.65
   06:29:01.911.24-Feb-2020 3290.51 5674.67 53.90 10.00 471.50 2687.65
   06:29:02.111.24-Feb-2020 3290.51 5675.04 53.90 10.00 471.70 2687.65
   06:29:02.311.24-Feb-2020 3290.51 5676.01 53.90 10.00 471.90 2687.65
   06:29:02.511.24-Feb-2020 3290.51 5674.83 53.90 10.00 472.10 2687.65
   06:29:02.711.24-Feb-2020 3290.51 5674.83 53.90 10.00 472.30 2687.65
   06:29:02.911.24-Feb-2020 3290.51 5677.44 53.90 10.00 472.50 2687.65
   06:29:03.111.24-Feb-2020 3290.51 5674.93 53.90 10.00 472.70 2687.65
   06:29:03.311.24-Feb-2020 3290.51 5675.74 53.90 10.00 472.90 2687.65
   06:29:03.511.24-Feb-2020 3290.51 5675.96 53.90 10.00 473.10 2687.65
   06:29:03.711.24-Feb-2020 3290.51 5675.96 53.90 10.00 473.30 2687.65
   06:29:03.912.24-Feb-2020 3290.51 5678.70 53.90 10.00 473.50 2687.65
   06:29:04.112.24-Feb-2020 3290.51 5675.22 53.90 10.00 473.70 2687.65
   06:29:04.312.24-Feb-2020 3290.51 5675.22 53.90 10.00 473.90 2687.65
   06:29:04.512.24-Feb-2020 3290.51 5676.11 53.90 10.00 474.10 2687.65
   06:29:04.712.24-Feb-2020 3290.51 5679.73 53.90 10.00 474.30 2687.65
   06:29:04.912.24-Feb-2020 3290.51 5676.25 53.90 10.00 474.50 2687.65
