~Version Information
 VERS.                  2.0:   CWLS log ASCII Standard -VERSION 2.0
 WRAP.                   NO:   One line per depth step
~Well Information Block
#MNEM.UNIT     VALUE/NAME     DESCRIPTION
#---------     -----------    ---------------------------
 STRT.S             01:46:16 24-Feb-20: START TIME 01:46:16 24-Feb-20
 STOP.S             01:53:27 24-Feb-20: STOP TIME  01:53:27 24-Feb-20
 STEP.S                   0.00: STEP TIME
 NULL.                 -999.25: NULL VALUE
 JOBN.        AZ-XX-0905059384:  JOB TICKET NUMB
 PDAT.          Mean Sea Level:  PERMANENT DATUM
 UNIT.                     N/A:  LOGGING EQUIPMENT ID
 DCON.         Sperry Drilling:  DIRECTNL CONTR
 DOE .                     N/A:  DOE NUMBER
 RIG .             West Chirag:  RIG NAME
 WELL.                     J22:  WELL NAME
 MWDS.                    Baku:  MWD SHOP
 SRVC.     TURAN Drilling & Engineering:  CONTRACTOR
 FLD .                     ACG:  FIELD NAME
 CTRY.              Azerbaijan:  COUNTRY NAME
 PROV.                    Baku:  PROVINCE
 STAT.                    Baku:  STATE NAME
 REGN.                   EESSA:  REGION
 BASE.              Azerbaijan:  LOGGING EQUIPMENT BASE LOCATION
 UWI .                     N/A:  UNIQUE WELL IDENTIFIER
 API .                     N/A:  API NUMBER
 COMP.     BP Exploration (Caspian Sea) Ltd.:  COMPANY
 WTYP.                Deviated:  WELL TYPE
 MDS .        Operator Entered:  MAG DATA SOURCE
 SON .        AZ-XX-0905059384:  JOB NUMBER
 FTOP.          Formation Tops:  FORM TOPS DESC
 ILTD.               Lithology:  INTERP LTH DESC
 SVYD.                  Survey:  SURVEY DESC
 DMOD.             Drill Model:  DRILL MOD DESC
 HPTY.       Minimum Curvature:  HOLE POS TYPE
 NREF.                    Grid:  NORTH REFERENCE
 SPUD.               09-Jan-20:  SPUD DATE
 DATE.      14.04.48 07-Feb-20:  END TIME
 STIM.      07.00.00 09-Jan-20:  START TIME
 DMF .             Drill Floor:  DRILL MEAS FROM
 DFST.                        :  DIST FSL TEXT
 DFWT.                        :  DIST FWL TEXT
 CNTY.                        :  COUNTY
 LOC .                        :  LOCATION
 LMF .             Drill Floor:  LOG MEASURED FROM
 DEP .m                   0.00:  DEPTH
 VSNS.m                  10.28:  VERT SEC N/S
 VSEW.m                  -6.24:  VERT SEC E/W
 AGAP.m                  43.00:  AIR GAP
 APD .m                  43.00:  DEPTH ABOVE PD
 WDMS.m                 169.80:  WD ELEV
 EGL .m                   0.00:  GROUND ELEVATION
 EPD .m                   0.00:  ELEVATION
 AZTC.deg                 6.27:  AZM TOTAL CORR
 GRDC.deg                 0.15:  GRID CORRECTION
 MDEC.deg                 6.42:  MAGNETIC DECL
 MDIP.deg                59.56:  MAGNETIC DIP
 MFLD.nT              50277.00:  MAGNETIC FIELD
 GVFD.g                   1.00:  GRAVITY FIELD
 VSDR.deg               148.53:  VERT SEC DIRECT
 TDD .m                3473.01:  TOTAL DEPTH (DRILLER)
 SDEP.m                 364.00:  START DEPTH
 DFSL.m                   0.00:  DISTANCE FSL
 DFWL.m                   0.00:  DISTANCE FWL
 UTMY.m             4443793.85:  UTM Y
 UTMX.m              519005.06:  UTM X
 WHEW.m                  -6.24:  WELL HEAD E/W
 WHNS.m                  10.28:  WELL HEAD N/S
 LONG.deg                51.22:  LONGITUDE
 LATI.deg                40.13:  LATITUDE
 TVDS.m                  43.00:  TVDSS CORRECTN
 EKB .m                   0.00:  KB ELEVATION
 EDF .m                  43.00:  DF ELEVATION
 TDL .m                 254.00:  TOTAL DEPTH (LOGGER)
 MAGU.                 1850021:  MAGUTM CHECKSUM
 VSC .                       0:  VS TO CLOSURE
~Parameter Information Block
#MNEM.UNIT       Value        Description
#---------     -----------    ---------------------------
 AV  .mps                 0.50:  Ann Velocity 
 AVMX.mps                 1.40:  Max Ann Veloc 
 AZIF.deg               144.94:  Azm, Final 
 BHAT.        Rotary Steerable:  BHA Type 
 BROT.°/30m               0.23:  Build Rotating 
 BS  .in                  8.50:  Bit Size 
 BTPL.psig              264.00:  Bit Press Loss 
 CABU.                     Yes:  Customer Abuse 
 COMM.                     $æx:  Run Comments 1 
 TCS .hr                 87.30:  Time Ciculation Ended 
 CV  .mps                 2.45:  Crit Velocity 
 CVMX.mps                 2.74:  Max Crit Veloc 
 DD1 .             Aziz Aliyev:  Direct Drillr 1 
 DDSV.               Geo-Pilot:  DD Service 
 DEFF.%                 100.00:  % Det Eff 
 DLRX.°/30m               1.22:  Dogleg Rot Max 
 DLSO.°/30m               0.52:  Dogleg Oriented 
 DLSX.°/30m               1.22:  Dogleg Str Max 
 DRET.      12.59.00 23-Feb-20:  Drill End Time 
 DRST.      09.44.00 18-Feb-20:  Drill Start Tim 
 DTIM.hr                 23.03:  Time Drilling 
 EDEP.m                3473.01:  End Depth 
 ENG1.         Almaz Almadatov:  Engineer 1 
 ENG2.         Dair Mahammadov:  Engineer 2 
 ENG3.          Nazrin Asgarli:  Engineer 3 
 ETIM.      10.33.36 26-Feb-20:  End Time 
 FLOI.gpm               480.00:  Flow In 
 FLON.gpm               300.00:  Flow In Min 
 FLOS.cptm                1.00:  Fluid Loss 
 FLOX.gpm               550.00:  Flow In Max 
 HFLO.                      No:  High Flow 
 HPRE.                      No:  High Pressure 
 HTEM.                      No:  High Temp 
 HYDO.m                   1.80:  Hydro Offset 
 IFIN.deg                74.42:  Inc, Final 
 IMAX.deg                76.14:  Inc Max 
 IMIN.deg                74.42:  Inc Min 
 IMND.m                3462.72:  Inc Min Depth 
 IMXD.m                3235.69:  Inc Max Depth 
 JARR.                      No:  Jarring 
 LETM.      12.59.00 23-Feb-20:  Log End Time 
 LOST.hr                     0:  Lost Rig Time 
 LSTM.      09.44.00 18-Feb-20:  Log Start Time 
 MDCL.ppm             45000.00:  Mud Chlorides 
 MDES.     Inversion Oil/Synthetic:  Mud Desc 
 DFD .sg                  1.38:  Mud Density 
 MDMN.sg                  1.34:  Dens Mud Min 
 MDMX.sg                  1.49:  Dens Mud Max 
 MOIL.                      67:  Run Mud Oil % 
 MOWR.                   67:33:  Run Mud OWR 
 MSND.                    0.12:  Run Mud Sand % 
 MSOL.                      22:  Run Mud Solids% 
 DFV .spqt               81.00:  Mud Viscosity 
 MWOD.in                  6.75:  MWD Tool OD 
 MWSI.                      No:  Serv Intrp, MWD 
 OTIM.hr                231.44:  Time Operating 
 PCON.          Wear / Scratch:  Pad Condition 
 PMAX.psia             3400.00:  Press Op, Max 
 PV  .cP                 55.00:  Mud PV 
 RUN .                     800:  Run Number 
 ROPA.m/hr               12.00:  ROP Avg 
 ROPN.m/hr                5.00:  ROP Min 
 ROPX.m/hr               28.00:  ROP Max 
 RPMA.rpm               120.00:  RPM Surface Avg 
 RPMN.rpm                40.00:  RPM Surface Min 
 RPMX.rpm               130.00:  RPM Surface Max 
 RRUN.                    0800:  Rig Run Number 
 RTIM.hr                 45.00:  Time Reaming 
 SAZI.deg               145.38:  Azm, Start 
 SDEP.m                3219.01:  Start Depth 
 SIDD.                      No:  Serv Intrp, DD 
 SINC.deg                75.11:  Inc, Start 
 SPPA.psig             2400.00:  SPP Avg 
 SPPN.psig             2320.00:  SPP Min 
 SPPX.psig             3200.00:  SPP Max 
 STIM.      15.15.00 17-Feb-20:  Start Time 
 SVCS.                 DD, MWD:  Services 
 SVER.                    9.20:  Sperry Version 
 TDAT.m                 254.00:  Tot Depth Attmp 
 TDDF.                      No:  Trip for DD 
 TDLG.m                 254.00:  Tot Depth Loggd 
 TFF .                      No:  Trip for Fail 
 TQAA.f-kp               13.00:  Torque Abs Avg 
 TQAN.f-kp                7.00:  Torque Abs Min 
 TQAX.f-kp               15.00:  Torque Abs Max 
 TRRT.°/30m               0.21:  Turn Rotating 
 MRT .                  EWR-M5:  Maximum Recorded Temperature 
 TTMX.degC               64.00:  Max Tool Temp 
 VS01.                90586516:  Virtual Str1 SN 
 VS02.                90513691:  Virtual Str2 SN 
 VS03.                90586523:  Virtual Str3 SN 
 VS04.                90586520:  Virtual Str4 SN 
 VS05.                90590507:  Virtual Str5 SN 
 WBMN.klb                12.00:  WOB Min 
 WITN.           Rufat Babayev:  Customer Rep 2 
 WITN.         Alistair Sprott:  Customer Rep 
 WOBA.klb                18.00:  WOB Avg 
 WOBX.klb                30.00:  WOB Max 
 YP  .lhf2               41.00:  Yield Point 
~Curve Information Block
#MNEM.UNIT                 API CODE     Curve Description
#---------               -----------    ---------------------------
 TIME.HHMMSS            00 000 000 000:  GT Time & Date
 GTDEPTH.m              00 000 000 000:  GT Depth
 GTPQH.psia             00 000 000 000:  GT HR Quartz Pressure
 GTTQ.degC              00 000 000 000:  GT Quartz Temperature
 GTTN.NONE              00 000 000 000:  GT Test Number
 GTET.sec               00 000 000 000:  GT Elapsed Test Time
 GTTVD.m                00 000 000 000:  GT True Vertical Depth
#Other Information
#
#WARRANTY: Halliburton will use its best efforts to furnish customers with 
#accurate information and interpretations that are part of, and incident to, the services 
#provided.  However, Halliburton cannot and does not warrant the accuracy 
#or correctness of such information and interpretations.  Under no circumstances should any 
#such information or interpretation be relied upon as the sole basis for any drilling, 
#completion, production, or financial decision or any procedure involving any risk to the 
#safety of any drilling venture, drilling rig or its crew or any other third party.  The 
#Customer has full responsibility for all drilling, completion and production operation.  
#Halliburton makes no representations or warranties, either expressed or 
#implied, including, but not limited to, the implied warranties of merchantability or fitness 
#for a particular purpose, with respect to the services rendered.  In no event will 
#Halliburton be liable for failure to obtain any particular results or for 
#any damages, including, but not limited to, indirect, special or consequential damages, 
#resulting from the use of any information or interpretation provided by Halliburton.
#
~A           TIME           GTDEPTH  GTPQH  GTTQ  GTTN  GTET   GTTVD  
# ...
   01:52:47.495.24-Feb-2020 3392.01 5713.99 55.86 4.00 391.08 2713.39
   01:52:47.695.24-Feb-2020 3392.01 5713.78 55.86 4.00 391.28 2713.39
   01:52:47.895.24-Feb-2020 3392.01 5713.43 55.86 4.00 391.48 2713.39
   01:52:48.095.24-Feb-2020 3392.01 5713.08 55.86 4.00 391.68 2713.39
   01:52:48.295.24-Feb-2020 3392.01 5713.05 55.86 4.00 391.88 2713.39
   01:52:48.495.24-Feb-2020 3392.01 5713.20 55.86 4.00 392.08 2713.39
   01:52:48.695.24-Feb-2020 3392.01 5713.20 55.86 4.00 392.28 2713.39
   01:52:48.895.24-Feb-2020 3392.01 5713.17 55.86 4.00 392.48 2713.39
   01:52:49.095.24-Feb-2020 3392.01 5713.36 55.86 4.00 392.68 2713.39
   01:52:49.295.24-Feb-2020 3392.01 5713.03 55.86 4.00 392.88 2713.39
   01:52:49.495.24-Feb-2020 3392.01 5713.09 55.86 4.00 393.08 2713.39
   01:52:49.695.24-Feb-2020 3392.01 5713.09 55.86 4.00 393.28 2713.39
   01:52:49.895.24-Feb-2020 3392.01 5716.79 55.86 4.00 393.48 2713.39
   01:52:50.095.24-Feb-2020 3392.01 5714.40 55.86 4.00 393.68 2713.39
   01:52:50.295.24-Feb-2020 3392.01 5713.65 55.86 4.00 393.88 2713.39
   01:52:50.495.24-Feb-2020 3392.01 5713.89 55.86 4.00 394.08 2713.39
   01:52:50.695.24-Feb-2020 3392.01 5714.45 55.86 4.00 394.28 2713.39
   01:52:50.896.24-Feb-2020 3392.01 5714.02 55.86 4.00 394.48 2713.39
   01:52:51.096.24-Feb-2020 3392.01 5713.31 55.86 4.00 394.68 2713.39
   01:52:51.296.24-Feb-2020 3392.01 5712.32 55.86 4.00 394.88 2713.39
   01:52:51.496.24-Feb-2020 3392.01 5712.72 55.86 4.00 395.08 2713.39
   01:52:51.696.24-Feb-2020 3392.01 5712.72 55.86 4.00 395.28 2713.39
   01:52:51.896.24-Feb-2020 3392.01 5713.47 55.86 4.00 395.48 2713.39
   01:52:52.096.24-Feb-2020 3392.01 5713.73 55.86 4.00 395.68 2713.39
   01:52:52.296.24-Feb-2020 3392.01 5712.70 55.86 4.00 395.88 2713.39
   01:52:52.496.24-Feb-2020 3392.01 5711.94 55.86 4.00 396.08 2713.39
   01:52:52.696.24-Feb-2020 3392.01 5711.94 55.86 4.00 396.28 2713.39
   01:52:52.896.24-Feb-2020 3392.01 5713.63 55.86 4.00 396.48 2713.39
   01:52:53.096.24-Feb-2020 3392.01 5712.87 55.86 4.00 396.68 2713.39
   01:52:53.296.24-Feb-2020 3392.01 5715.15 55.86 4.00 396.88 2713.39
   01:52:53.496.24-Feb-2020 3392.01 5713.68 55.86 4.00 397.08 2713.39
   01:52:53.696.24-Feb-2020 3392.01 5713.68 55.86 4.00 397.28 2713.39
   01:52:53.896.24-Feb-2020 3392.01 5717.26 55.86 4.00 397.48 2713.39
   01:52:54.096.24-Feb-2020 3392.01 5711.34 55.86 4.00 397.68 2713.39
   01:52:54.296.24-Feb-2020 3392.01 5715.36 55.86 4.00 397.88 2713.39
   01:52:54.496.24-Feb-2020 3392.01 5713.42 55.86 4.00 398.08 2713.39
   01:52:54.696.24-Feb-2020 3392.01 5713.42 55.86 4.00 398.28 2713.39
   01:52:54.896.24-Feb-2020 3392.01 5713.65 55.86 4.00 398.48 2713.39
   01:52:55.096.24-Feb-2020 3392.01 5712.72 55.86 4.00 398.68 2713.39
   01:52:55.296.24-Feb-2020 3392.01 5716.12 55.86 4.00 398.88 2713.39
   01:52:55.496.24-Feb-2020 3392.01 5714.04 55.86 4.00 399.08 2713.39
   01:52:55.697.24-Feb-2020 3392.01 5714.04 55.86 4.00 399.28 2713.39
   01:52:55.897.24-Feb-2020 3392.01 5714.96 55.86 4.00 399.48 2713.39
   01:52:56.097.24-Feb-2020 3392.01 5717.59 55.86 4.00 399.68 2713.39
   01:52:56.297.24-Feb-2020 3392.01 5713.95 55.85 4.00 399.88 2713.39
   01:52:56.497.24-Feb-2020 3392.01 5713.94 55.85 4.00 400.08 2713.39
   01:52:56.697.24-Feb-2020 3392.01 5713.94 55.85 4.00 400.28 2713.39
   01:52:56.897.24-Feb-2020 3392.01 5713.71 55.85 4.00 400.48 2713.39
   01:52:57.097.24-Feb-2020 3392.01 5714.08 55.85 4.00 400.68 2713.39
   01:52:57.297.24-Feb-2020 3392.01 5713.85 55.85 4.00 400.88 2713.39
   01:52:57.497.24-Feb-2020 3392.01 5713.37 55.85 4.00 401.08 2713.39
   01:52:57.697.24-Feb-2020 3392.01 5713.37 55.85 4.00 401.28 2713.39
   01:52:57.897.24-Feb-2020 3392.01 5713.30 55.85 4.00 401.48 2713.39
   01:52:58.097.24-Feb-2020 3392.01 5713.14 55.85 4.00 401.68 2713.39
   01:52:58.297.24-Feb-2020 3392.01 5713.19 55.85 4.00 401.88 2713.39
   01:52:58.497.24-Feb-2020 3392.01 5713.19 55.85 4.00 402.08 2713.39
   01:52:58.697.24-Feb-2020 3392.01 5713.19 55.85 4.00 402.28 2713.39
   01:52:58.897.24-Feb-2020 3392.01 5712.88 55.85 4.00 402.48 2713.39
   01:52:59.097.24-Feb-2020 3392.01 5718.67 55.85 4.00 402.68 2713.39
   01:52:59.297.24-Feb-2020 3392.01 5710.33 55.85 4.00 402.88 2713.39
   01:52:59.497.24-Feb-2020 3392.01 5715.21 55.85 4.00 403.08 2713.39
   01:52:59.697.24-Feb-2020 3392.01 5714.93 55.85 4.00 403.28 2713.39
   01:52:59.897.24-Feb-2020 3392.01 5713.08 55.85 4.00 403.48 2713.39
   01:53:00.097.24-Feb-2020 3392.01 5714.19 55.85 4.00 403.68 2713.39
   01:53:00.297.24-Feb-2020 3392.01 5713.52 55.85 4.00 403.88 2713.39
   01:53:00.498.24-Feb-2020 3392.01 5712.36 55.85 4.00 404.08 2713.39
   01:53:00.698.24-Feb-2020 3392.01 5712.36 55.85 4.00 404.28 2713.39
   01:53:00.898.24-Feb-2020 3392.01 5712.49 55.85 4.00 404.48 2713.39
   01:53:01.098.24-Feb-2020 3392.01 5712.80 55.85 4.00 404.68 2713.39
   01:53:01.298.24-Feb-2020 3392.01 5713.43 55.85 4.00 404.88 2713.39
   01:53:01.498.24-Feb-2020 3392.01 5713.46 55.85 4.00 405.08 2713.39
   01:53:01.698.24-Feb-2020 3392.01 5713.46 55.85 4.00 405.28 2713.39
   01:53:01.898.24-Feb-2020 3392.01 5712.73 55.85 4.00 405.48 2713.39
   01:53:02.098.24-Feb-2020 3392.01 5713.66 55.85 4.00 405.68 2713.39
   01:53:02.298.24-Feb-2020 3392.01 5713.71 55.85 4.00 405.88 2713.39
   01:53:02.498.24-Feb-2020 3392.01 5717.54 55.85 4.00 406.08 2713.39
   01:53:02.698.24-Feb-2020 3392.01 5717.54 55.85 4.00 406.28 2713.39
   01:53:02.898.24-Feb-2020 3392.01 5714.75 55.85 4.00 406.48 2713.39
   01:53:03.098.24-Feb-2020 3392.01 5714.11 55.85 4.00 406.68 2713.39
   01:53:03.298.24-Feb-2020 3392.01 5716.28 55.85 4.00 406.88 2713.39
   01:53:03.498.24-Feb-2020 3392.01 5711.10 55.85 4.00 407.08 2713.39
   01:53:03.698.24-Feb-2020 3392.01 5711.10 55.85 4.00 407.28 2713.39
   01:53:03.898.24-Feb-2020 3392.01 5713.50 55.85 4.00 407.48 2713.39
   01:53:04.098.24-Feb-2020 3392.01 5713.37 55.85 4.00 407.69 2713.39
   01:53:04.298.24-Feb-2020 3392.01 5713.77 55.85 4.00 407.89 2713.39
   01:53:04.498.24-Feb-2020 3392.01 5712.93 55.85 4.00 408.09 2713.39
   01:53:04.698.24-Feb-2020 3392.01 5716.17 55.85 4.00 408.29 2713.39
   01:53:04.898.24-Feb-2020 3392.01 5714.12 55.85 4.00 408.49 2713.39
   01:53:05.098.24-Feb-2020 3392.01 5714.16 55.85 4.00 408.69 2713.39
   01:53:05.299.24-Feb-2020 3392.01 5715.05 55.85 4.00 408.89 2713.39
   01:53:05.499.24-Feb-2020 3392.01 5714.93 55.85 4.00 409.09 2713.39
   01:53:05.699.24-Feb-2020 3392.01 5714.93 55.85 4.00 409.29 2713.39
   01:53:05.899.24-Feb-2020 3392.01 5714.44 55.85 4.00 409.49 2713.39
   01:53:06.099.24-Feb-2020 3392.01 5713.97 55.85 4.00 409.69 2713.39
   01:53:06.299.24-Feb-2020 3392.01 5714.05 55.85 4.00 409.89 2713.39
   01:53:06.499.24-Feb-2020 3392.01 5714.42 55.85 4.00 410.09 2713.39
   01:53:06.699.24-Feb-2020 3392.01 5713.75 55.85 4.00 410.29 2713.39
   01:53:06.899.24-Feb-2020 3392.01 5713.11 55.85 4.00 410.49 2713.39
   01:53:07.099.24-Feb-2020 3392.01 5713.15 55.85 4.00 410.69 2713.39
   01:53:07.299.24-Feb-2020 3392.01 5712.91 55.85 4.00 410.89 2713.39
   01:53:07.499.24-Feb-2020 3392.01 5712.87 55.85 4.00 411.09 2713.39
   01:53:07.699.24-Feb-2020 3392.01 5713.02 55.85 4.00 411.29 2713.39
   01:53:07.899.24-Feb-2020 3392.01 5712.98 55.85 4.00 411.49 2713.39
   01:53:08.099.24-Feb-2020 3392.01 5712.87 55.85 4.00 411.69 2713.39
   01:53:08.299.24-Feb-2020 3392.01 5713.06 55.85 4.00 411.89 2713.39
   01:53:08.499.24-Feb-2020 3392.01 5713.99 55.85 4.00 412.09 2713.39
   01:53:08.699.24-Feb-2020 3392.01 5713.99 55.85 4.00 412.29 2713.39
   01:53:08.899.24-Feb-2020 3392.01 5710.09 55.85 4.00 412.49 2713.39
   01:53:09.099.24-Feb-2020 3392.01 5714.34 55.85 4.00 412.69 2713.39
   01:53:09.299.24-Feb-2020 3392.01 5715.33 55.85 4.00 412.89 2713.39
   01:53:09.499.24-Feb-2020 3392.01 5713.17 55.85 4.00 413.09 2713.39
   01:53:09.699.24-Feb-2020 3392.01 5713.56 55.84 4.00 413.29 2713.39
   01:53:09.899.24-Feb-2020 3392.01 5712.35 55.84 4.00 413.49 2713.39
   01:53:10.100.24-Feb-2020 3392.01 5712.41 55.84 4.00 413.69 2713.39
   01:53:10.300.24-Feb-2020 3392.01 5712.56 55.84 4.00 413.89 2713.39
