~Version Information
 VERS.                  2.0:   CWLS log ASCII Standard -VERSION 2.0
 WRAP.                   NO:   One line per depth step
~Well Information Block
#MNEM.UNIT     VALUE/NAME     DESCRIPTION
#---------     -----------    ---------------------------
 STRT.S             06:21:10 24-Feb-20: START TIME 06:21:10 24-Feb-20
 STOP.S             06:29:09 24-Feb-20: STOP TIME  06:29:09 24-Feb-20
 STEP.S                   0.00: STEP TIME
 NULL.                 -999.25: NULL VALUE
 JOBN.        AZ-XX-0905059384:  JOB TICKET NUMB
 PDAT.          Mean Sea Level:  PERMANENT DATUM
 UNIT.                     N/A:  LOGGING EQUIPMENT ID
 DCON.         Sperry Drilling:  DIRECTNL CONTR
 DOE .                     N/A:  DOE NUMBER
 RIG .             West Chirag:  RIG NAME
 WELL.                     J22:  WELL NAME
 MWDS.                    Baku:  MWD SHOP
 SRVC.     TURAN Drilling & Engineering:  CONTRACTOR
 FLD .                     ACG:  FIELD NAME
 CTRY.              Azerbaijan:  COUNTRY NAME
 PROV.                    Baku:  PROVINCE
 STAT.                    Baku:  STATE NAME
 REGN.                   EESSA:  REGION
 BASE.              Azerbaijan:  LOGGING EQUIPMENT BASE LOCATION
 UWI .                     N/A:  UNIQUE WELL IDENTIFIER
 API .                     N/A:  API NUMBER
 COMP.     BP Exploration (Caspian Sea) Ltd.:  COMPANY
 WTYP.                Deviated:  WELL TYPE
 MDS .        Operator Entered:  MAG DATA SOURCE
 SON .        AZ-XX-0905059384:  JOB NUMBER
 FTOP.          Formation Tops:  FORM TOPS DESC
 ILTD.               Lithology:  INTERP LTH DESC
 SVYD.                  Survey:  SURVEY DESC
 DMOD.             Drill Model:  DRILL MOD DESC
 HPTY.       Minimum Curvature:  HOLE POS TYPE
 NREF.                    Grid:  NORTH REFERENCE
 SPUD.               09-Jan-20:  SPUD DATE
 DATE.      14.04.48 07-Feb-20:  END TIME
 STIM.      07.00.00 09-Jan-20:  START TIME
 DMF .             Drill Floor:  DRILL MEAS FROM
 DFST.                        :  DIST FSL TEXT
 DFWT.                        :  DIST FWL TEXT
 CNTY.                        :  COUNTY
 LOC .                        :  LOCATION
 LMF .             Drill Floor:  LOG MEASURED FROM
 DEP .m                   0.00:  DEPTH
 VSNS.m                  10.28:  VERT SEC N/S
 VSEW.m                  -6.24:  VERT SEC E/W
 AGAP.m                  43.00:  AIR GAP
 APD .m                  43.00:  DEPTH ABOVE PD
 WDMS.m                 169.80:  WD ELEV
 EGL .m                   0.00:  GROUND ELEVATION
 EPD .m                   0.00:  ELEVATION
 AZTC.deg                 6.27:  AZM TOTAL CORR
 GRDC.deg                 0.15:  GRID CORRECTION
 MDEC.deg                 6.42:  MAGNETIC DECL
 MDIP.deg                59.56:  MAGNETIC DIP
 MFLD.nT              50277.00:  MAGNETIC FIELD
 GVFD.g                   1.00:  GRAVITY FIELD
 VSDR.deg               148.53:  VERT SEC DIRECT
 TDD .m                3473.01:  TOTAL DEPTH (DRILLER)
 SDEP.m                 364.00:  START DEPTH
 DFSL.m                   0.00:  DISTANCE FSL
 DFWL.m                   0.00:  DISTANCE FWL
 UTMY.m             4443793.85:  UTM Y
 UTMX.m              519005.06:  UTM X
 WHEW.m                  -6.24:  WELL HEAD E/W
 WHNS.m                  10.28:  WELL HEAD N/S
 LONG.deg                51.22:  LONGITUDE
 LATI.deg                40.13:  LATITUDE
 TVDS.m                  43.00:  TVDSS CORRECTN
 EKB .m                   0.00:  KB ELEVATION
 EDF .m                  43.00:  DF ELEVATION
 TDL .m                 254.00:  TOTAL DEPTH (LOGGER)
 MAGU.                 1850021:  MAGUTM CHECKSUM
 VSC .                       0:  VS TO CLOSURE
~Parameter Information Block
#MNEM.UNIT       Value        Description
#---------     -----------    ---------------------------
 AV  .mps                 0.50:  Ann Velocity 
 AVMX.mps                 1.40:  Max Ann Veloc 
 AZIF.deg               144.94:  Azm, Final 
 BHAT.        Rotary Steerable:  BHA Type 
 BROT.°/30m               0.23:  Build Rotating 
 BS  .in                  8.50:  Bit Size 
 BTPL.psig              264.00:  Bit Press Loss 
 CABU.                     Yes:  Customer Abuse 
 COMM.                     î^:  Run Comments 1 
 TCS .hr                 87.30:  Time Ciculation Ended 
 CV  .mps                 2.45:  Crit Velocity 
 CVMX.mps                 2.74:  Max Crit Veloc 
 DD1 .             Aziz Aliyev:  Direct Drillr 1 
 DDSV.               Geo-Pilot:  DD Service 
 DEFF.%                 100.00:  % Det Eff 
 DLRX.°/30m               1.22:  Dogleg Rot Max 
 DLSO.°/30m               0.52:  Dogleg Oriented 
 DLSX.°/30m               1.22:  Dogleg Str Max 
 DRET.      12.59.00 23-Feb-20:  Drill End Time 
 DRST.      09.44.00 18-Feb-20:  Drill Start Tim 
 DTIM.hr                 23.03:  Time Drilling 
 EDEP.m                3473.01:  End Depth 
 ENG1.         Almaz Almadatov:  Engineer 1 
 ENG2.         Dair Mahammadov:  Engineer 2 
 ENG3.          Nazrin Asgarli:  Engineer 3 
 ETIM.      10.33.36 26-Feb-20:  End Time 
 FLOI.gpm               480.00:  Flow In 
 FLON.gpm               300.00:  Flow In Min 
 FLOS.cptm                1.00:  Fluid Loss 
 FLOX.gpm               550.00:  Flow In Max 
 HFLO.                      No:  High Flow 
 HPRE.                      No:  High Pressure 
 HTEM.                      No:  High Temp 
 HYDO.m                   1.80:  Hydro Offset 
 IFIN.deg                74.42:  Inc, Final 
 IMAX.deg                76.14:  Inc Max 
 IMIN.deg                74.42:  Inc Min 
 IMND.m                3462.72:  Inc Min Depth 
 IMXD.m                3235.69:  Inc Max Depth 
 JARR.                      No:  Jarring 
 LETM.      12.59.00 23-Feb-20:  Log End Time 
 LOST.hr                     0:  Lost Rig Time 
 LSTM.      09.44.00 18-Feb-20:  Log Start Time 
 MDCL.ppm             45000.00:  Mud Chlorides 
 MDES.     Inversion Oil/Synthetic:  Mud Desc 
 DFD .sg                  1.38:  Mud Density 
 MDMN.sg                  1.34:  Dens Mud Min 
 MDMX.sg                  1.49:  Dens Mud Max 
 MOIL.                      67:  Run Mud Oil % 
 MOWR.                   67:33:  Run Mud OWR 
 MSND.                    0.12:  Run Mud Sand % 
 MSOL.                      22:  Run Mud Solids% 
 DFV .spqt               81.00:  Mud Viscosity 
 MWOD.in                  6.75:  MWD Tool OD 
 MWSI.                      No:  Serv Intrp, MWD 
 OTIM.hr                231.44:  Time Operating 
 PCON.          Wear / Scratch:  Pad Condition 
 PMAX.psia             3400.00:  Press Op, Max 
 PV  .cP                 55.00:  Mud PV 
 RUN .                     800:  Run Number 
 ROPA.m/hr               12.00:  ROP Avg 
 ROPN.m/hr                5.00:  ROP Min 
 ROPX.m/hr               28.00:  ROP Max 
 RPMA.rpm               120.00:  RPM Surface Avg 
 RPMN.rpm                40.00:  RPM Surface Min 
 RPMX.rpm               130.00:  RPM Surface Max 
 RRUN.                    0800:  Rig Run Number 
 RTIM.hr                 45.00:  Time Reaming 
 SAZI.deg               145.38:  Azm, Start 
 SDEP.m                3219.01:  Start Depth 
 SIDD.                      No:  Serv Intrp, DD 
 SINC.deg                75.11:  Inc, Start 
 SPPA.psig             2400.00:  SPP Avg 
 SPPN.psig             2320.00:  SPP Min 
 SPPX.psig             3200.00:  SPP Max 
 STIM.      15.15.00 17-Feb-20:  Start Time 
 SVCS.                 DD, MWD:  Services 
 SVER.                    9.20:  Sperry Version 
 TDAT.m                 254.00:  Tot Depth Attmp 
 TDDF.                      No:  Trip for DD 
 TDLG.m                 254.00:  Tot Depth Loggd 
 TFF .                      No:  Trip for Fail 
 TQAA.f-kp               13.00:  Torque Abs Avg 
 TQAN.f-kp                7.00:  Torque Abs Min 
 TQAX.f-kp               15.00:  Torque Abs Max 
 TRRT.°/30m               0.21:  Turn Rotating 
 MRT .                  EWR-M5:  Maximum Recorded Temperature 
 TTMX.degC               64.00:  Max Tool Temp 
 VS01.                90586516:  Virtual Str1 SN 
 VS02.                90513691:  Virtual Str2 SN 
 VS03.                90586523:  Virtual Str3 SN 
 VS04.                90586520:  Virtual Str4 SN 
 VS05.                90590507:  Virtual Str5 SN 
 WBMN.klb                12.00:  WOB Min 
 WITN.           Rufat Babayev:  Customer Rep 2 
 WITN.         Alistair Sprott:  Customer Rep 
 WOBA.klb                18.00:  WOB Avg 
 WOBX.klb                30.00:  WOB Max 
 YP  .lhf2               41.00:  Yield Point 
~Curve Information Block
#MNEM.UNIT                 API CODE     Curve Description
#---------               -----------    ---------------------------
 TIME.HHMMSS            00 000 000 000:  GT Time & Date
 GTDEPTH.m              00 000 000 000:  GT Depth
 GTPQH.psia             00 000 000 000:  GT HR Quartz Pressure
 GTTQ.degC              00 000 000 000:  GT Quartz Temperature
 GTTN.NONE              00 000 000 000:  GT Test Number
 GTET.sec               00 000 000 000:  GT Elapsed Test Time
 GTTVD.m                00 000 000 000:  GT True Vertical Depth
#Other Information
#
#WARRANTY: Halliburton will use its best efforts to furnish customers with 
#accurate information and interpretations that are part of, and incident to, the services 
#provided.  However, Halliburton cannot and does not warrant the accuracy 
#or correctness of such information and interpretations.  Under no circumstances should any 
#such information or interpretation be relied upon as the sole basis for any drilling, 
#completion, production, or financial decision or any procedure involving any risk to the 
#safety of any drilling venture, drilling rig or its crew or any other third party.  The 
#Customer has full responsibility for all drilling, completion and production operation.  
#Halliburton makes no representations or warranties, either expressed or 
#implied, including, but not limited to, the implied warranties of merchantability or fitness 
#for a particular purpose, with respect to the services rendered.  In no event will 
#Halliburton be liable for failure to obtain any particular results or for 
#any damages, including, but not limited to, indirect, special or consequential damages, 
#resulting from the use of any information or interpretation provided by Halliburton.
#
~A           TIME           GTDEPTH  GTPQH  GTTQ  GTTN   GTET   GTTVD  
# ...
   06:28:19.902.24-Feb-2020 3290.51 5677.45 53.91 10.00 429.49 2687.65
   06:28:20.102.24-Feb-2020 3290.51 5677.26 53.91 10.00 429.69 2687.65
   06:28:20.302.24-Feb-2020 3290.51 5676.90 53.91 10.00 429.89 2687.65
   06:28:20.502.24-Feb-2020 3290.51 5676.82 53.91 10.00 430.09 2687.65
   06:28:20.702.24-Feb-2020 3290.51 5677.02 53.91 10.00 430.29 2687.65
   06:28:20.902.24-Feb-2020 3290.51 5677.02 53.91 10.00 430.49 2687.65
   06:28:21.102.24-Feb-2020 3290.51 5676.94 53.91 10.00 430.69 2687.65
   06:28:21.302.24-Feb-2020 3290.51 5677.08 53.91 10.00 430.89 2687.65
   06:28:21.502.24-Feb-2020 3290.51 5677.10 53.91 10.00 431.09 2687.65
   06:28:21.702.24-Feb-2020 3290.51 5677.10 53.91 10.00 431.29 2687.65
   06:28:21.902.24-Feb-2020 3290.51 5678.11 53.91 10.00 431.49 2687.65
   06:28:22.102.24-Feb-2020 3290.51 5686.90 53.91 10.00 431.69 2687.65
   06:28:22.302.24-Feb-2020 3290.51 5676.09 53.91 10.00 431.89 2687.65
   06:28:22.502.24-Feb-2020 3290.51 5675.12 53.91 10.00 432.09 2687.65
   06:28:22.702.24-Feb-2020 3290.51 5675.12 53.91 10.00 432.29 2687.65
   06:28:22.903.24-Feb-2020 3290.51 5677.65 53.91 10.00 432.49 2687.65
   06:28:23.103.24-Feb-2020 3290.51 5677.29 53.91 10.00 432.69 2687.65
   06:28:23.303.24-Feb-2020 3290.51 5677.37 53.91 10.00 432.89 2687.65
   06:28:23.503.24-Feb-2020 3290.51 5676.00 53.91 10.00 433.09 2687.65
   06:28:23.703.24-Feb-2020 3290.51 5676.00 53.91 10.00 433.29 2687.65
   06:28:23.903.24-Feb-2020 3290.51 5675.94 53.91 10.00 433.49 2687.65
   06:28:24.103.24-Feb-2020 3290.51 5676.37 53.91 10.00 433.69 2687.65
   06:28:24.303.24-Feb-2020 3290.51 5675.21 53.91 10.00 433.89 2687.65
   06:28:24.503.24-Feb-2020 3290.51 5674.96 53.91 10.00 434.09 2687.65
   06:28:24.703.24-Feb-2020 3290.51 5675.65 53.91 10.00 434.29 2687.65
   06:28:24.903.24-Feb-2020 3290.51 5676.18 53.91 10.00 434.49 2687.65
   06:28:25.103.24-Feb-2020 3290.51 5676.69 53.91 10.00 434.70 2687.65
   06:28:25.303.24-Feb-2020 3290.51 5675.43 53.91 10.00 434.90 2687.65
   06:28:25.503.24-Feb-2020 3290.51 5683.57 53.91 10.00 435.10 2687.65
   06:28:25.703.24-Feb-2020 3290.51 5683.57 53.91 10.00 435.30 2687.65
   06:28:25.903.24-Feb-2020 3290.51 5674.51 53.91 10.00 435.50 2687.65
   06:28:26.103.24-Feb-2020 3290.51 5677.22 53.91 10.00 435.70 2687.65
   06:28:26.303.24-Feb-2020 3290.51 5676.50 53.91 10.00 435.90 2687.65
   06:28:26.503.24-Feb-2020 3290.51 5684.57 53.91 10.00 436.10 2687.65
   06:28:26.703.24-Feb-2020 3290.51 5684.57 53.91 10.00 436.30 2687.65
   06:28:26.903.24-Feb-2020 3290.51 5674.80 53.91 10.00 436.50 2687.65
   06:28:27.103.24-Feb-2020 3290.51 5677.67 53.91 10.00 436.70 2687.65
   06:28:27.304.24-Feb-2020 3290.51 5685.92 53.91 10.00 436.90 2687.65
   06:28:27.504.24-Feb-2020 3290.51 5674.81 53.91 10.00 437.10 2687.65
   06:28:27.704.24-Feb-2020 3290.51 5674.81 53.91 10.00 437.30 2687.65
   06:28:27.904.24-Feb-2020 3290.51 5678.71 53.91 10.00 437.50 2687.65
   06:28:28.104.24-Feb-2020 3290.51 5678.41 53.91 10.00 437.70 2687.65
   06:28:28.304.24-Feb-2020 3290.51 5685.97 53.91 10.00 437.90 2687.65
   06:28:28.504.24-Feb-2020 3290.51 5675.11 53.91 10.00 438.10 2687.65
   06:28:28.704.24-Feb-2020 3290.51 5675.24 53.91 10.00 438.30 2687.65
   06:28:28.904.24-Feb-2020 3290.51 5677.45 53.91 10.00 438.50 2687.65
   06:28:29.104.24-Feb-2020 3290.51 5677.21 53.91 10.00 438.70 2687.65
   06:28:29.304.24-Feb-2020 3290.51 5676.50 53.91 10.00 438.90 2687.65
   06:28:29.504.24-Feb-2020 3290.51 5676.23 53.91 10.00 439.10 2687.65
   06:28:29.704.24-Feb-2020 3290.51 5676.23 53.91 10.00 439.30 2687.65
   06:28:29.904.24-Feb-2020 3290.51 5676.00 53.91 10.00 439.50 2687.65
   06:28:30.104.24-Feb-2020 3290.51 5676.06 53.91 10.00 439.70 2687.65
   06:28:30.304.24-Feb-2020 3290.51 5676.00 53.91 10.00 439.90 2687.65
   06:28:30.504.24-Feb-2020 3290.51 5675.96 53.91 10.00 440.10 2687.65
   06:28:30.704.24-Feb-2020 3290.51 5675.96 53.91 10.00 440.30 2687.65
   06:28:30.904.24-Feb-2020 3290.51 5676.23 53.91 10.00 440.50 2687.65
   06:28:31.104.24-Feb-2020 3290.51 5676.49 53.91 10.00 440.70 2687.65
   06:28:31.304.24-Feb-2020 3290.51 5677.27 53.91 10.00 440.90 2687.65
   06:28:31.504.24-Feb-2020 3290.51 5686.61 53.91 10.00 441.10 2687.65
   06:28:31.704.24-Feb-2020 3290.51 5686.61 53.91 10.00 441.30 2687.65
   06:28:31.905.24-Feb-2020 3290.51 5674.82 53.91 10.00 441.50 2687.65
   06:28:32.105.24-Feb-2020 3290.51 5677.63 53.91 10.00 441.70 2687.65
   06:28:32.305.24-Feb-2020 3290.51 5676.71 53.91 10.00 441.90 2687.65
   06:28:32.505.24-Feb-2020 3290.51 5676.78 53.91 10.00 442.10 2687.65
   06:28:32.705.24-Feb-2020 3290.51 5676.16 53.91 10.00 442.30 2687.65
   06:28:32.905.24-Feb-2020 3290.51 5675.13 53.91 10.00 442.50 2687.65
   06:28:33.105.24-Feb-2020 3290.51 5675.49 53.91 10.00 442.70 2687.65
   06:28:33.305.24-Feb-2020 3290.51 5675.51 53.91 10.00 442.90 2687.65
   06:28:33.505.24-Feb-2020 3290.51 5675.30 53.91 10.00 443.10 2687.65
   06:28:33.705.24-Feb-2020 3290.51 5675.30 53.91 10.00 443.30 2687.65
   06:28:33.905.24-Feb-2020 3290.51 5674.40 53.91 10.00 443.50 2687.65
   06:28:34.105.24-Feb-2020 3290.51 5675.16 53.91 10.00 443.70 2687.65
   06:28:34.305.24-Feb-2020 3290.51 5675.86 53.91 10.00 443.90 2687.65
   06:28:34.505.24-Feb-2020 3290.51 5675.52 53.91 10.00 444.10 2687.65
   06:28:34.705.24-Feb-2020 3290.51 5675.52 53.91 10.00 444.30 2687.65
   06:28:34.905.24-Feb-2020 3290.51 5683.30 53.91 10.00 444.50 2687.65
   06:28:35.105.24-Feb-2020 3290.51 5672.19 53.91 10.00 444.70 2687.65
   06:28:35.305.24-Feb-2020 3290.51 5674.91 53.91 10.00 444.90 2687.65
   06:28:35.505.24-Feb-2020 3290.51 5677.40 53.91 10.00 445.10 2687.65
   06:28:35.705.24-Feb-2020 3290.51 5677.40 53.91 10.00 445.30 2687.65
   06:28:35.905.24-Feb-2020 3290.51 5684.41 53.90 10.00 445.50 2687.65
   06:28:36.105.24-Feb-2020 3290.51 5672.70 53.91 10.00 445.70 2687.65
   06:28:36.305.24-Feb-2020 3290.51 5674.98 53.90 10.00 445.90 2687.65
   06:28:36.506.24-Feb-2020 3290.51 5677.75 53.90 10.00 446.10 2687.65
   06:28:36.706.24-Feb-2020 3290.51 5685.59 53.90 10.00 446.30 2687.65
   06:28:36.906.24-Feb-2020 3290.51 5673.15 53.90 10.00 446.50 2687.65
   06:28:37.106.24-Feb-2020 3290.51 5675.66 53.90 10.00 446.70 2687.65
   06:28:37.306.24-Feb-2020 3290.51 5678.64 53.90 10.00 446.90 2687.65
   06:28:37.506.24-Feb-2020 3290.51 5678.17 53.90 10.00 447.10 2687.65
   06:28:37.706.24-Feb-2020 3290.51 5678.17 53.90 10.00 447.30 2687.65
   06:28:37.906.24-Feb-2020 3290.51 5673.64 53.90 10.00 447.50 2687.65
   06:28:38.106.24-Feb-2020 3290.51 5675.25 53.90 10.00 447.70 2687.65
   06:28:38.306.24-Feb-2020 3290.51 5677.78 53.90 10.00 447.90 2687.65
   06:28:38.506.24-Feb-2020 3290.51 5676.83 53.90 10.00 448.10 2687.65
   06:28:38.706.24-Feb-2020 3290.51 5676.83 53.90 10.00 448.30 2687.65
   06:28:38.906.24-Feb-2020 3290.51 5675.95 53.90 10.00 448.50 2687.65
   06:28:39.106.24-Feb-2020 3290.51 5675.87 53.90 10.00 448.70 2687.65
   06:28:39.306.24-Feb-2020 3290.51 5675.94 53.90 10.00 448.90 2687.65
   06:28:39.506.24-Feb-2020 3290.51 5676.04 53.90 10.00 449.10 2687.65
   06:28:39.706.24-Feb-2020 3290.51 5676.04 53.90 10.00 449.30 2687.65
   06:28:39.906.24-Feb-2020 3290.51 5675.98 53.90 10.00 449.50 2687.65
   06:28:40.106.24-Feb-2020 3290.51 5676.04 53.90 10.00 449.70 2687.65
   06:28:40.306.24-Feb-2020 3290.51 5676.18 53.90 10.00 449.90 2687.65
   06:28:40.506.24-Feb-2020 3290.51 5676.50 53.90 10.00 450.10 2687.65
   06:28:40.706.24-Feb-2020 3290.51 5677.17 53.90 10.00 450.30 2687.65
   06:28:40.906.24-Feb-2020 3290.51 5683.40 53.90 10.00 450.50 2687.65
   06:28:41.107.24-Feb-2020 3290.51 5675.19 53.90 10.00 450.70 2687.65
   06:28:41.307.24-Feb-2020 3290.51 5675.97 53.90 10.00 450.90 2687.65
   06:28:41.507.24-Feb-2020 3290.51 5677.15 53.90 10.00 451.10 2687.65
   06:28:41.707.24-Feb-2020 3290.51 5677.15 53.90 10.00 451.30 2687.65
   06:28:41.907.24-Feb-2020 3290.51 5676.94 53.90 10.00 451.50 2687.65
   06:28:42.107.24-Feb-2020 3290.51 5675.65 53.90 10.00 451.70 2687.65
   06:28:42.307.24-Feb-2020 3290.51 5675.18 53.90 10.00 451.90 2687.65
