~Version Information
 VERS.                  2.0:   CWLS log ASCII Standard -VERSION 2.0
 WRAP.                   NO:   One line per depth step
~Well Information Block
#MNEM.UNIT     VALUE/NAME     DESCRIPTION
#---------     -----------    ---------------------------
 STRT.S             01:26:08 24-Feb-20: START TIME 01:26:08 24-Feb-20
 STOP.S             01:33:25 24-Feb-20: STOP TIME  01:33:25 24-Feb-20
 STEP.S                   0.00: STEP TIME
 NULL.                 -999.25: NULL VALUE
 JOBN.        AZ-XX-0905059384:  JOB TICKET NUMB
 PDAT.          Mean Sea Level:  PERMANENT DATUM
 UNIT.                     N/A:  LOGGING EQUIPMENT ID
 DCON.         Sperry Drilling:  DIRECTNL CONTR
 DOE .                     N/A:  DOE NUMBER
 RIG .             West Chirag:  RIG NAME
 WELL.                     J22:  WELL NAME
 MWDS.                    Baku:  MWD SHOP
 SRVC.     TURAN Drilling & Engineering:  CONTRACTOR
 FLD .                     ACG:  FIELD NAME
 CTRY.              Azerbaijan:  COUNTRY NAME
 PROV.                    Baku:  PROVINCE
 STAT.                    Baku:  STATE NAME
 REGN.                   EESSA:  REGION
 BASE.              Azerbaijan:  LOGGING EQUIPMENT BASE LOCATION
 UWI .                     N/A:  UNIQUE WELL IDENTIFIER
 API .                     N/A:  API NUMBER
 COMP.     BP Exploration (Caspian Sea) Ltd.:  COMPANY
 WTYP.                Deviated:  WELL TYPE
 MDS .        Operator Entered:  MAG DATA SOURCE
 SON .        AZ-XX-0905059384:  JOB NUMBER
 FTOP.          Formation Tops:  FORM TOPS DESC
 ILTD.               Lithology:  INTERP LTH DESC
 SVYD.                  Survey:  SURVEY DESC
 DMOD.             Drill Model:  DRILL MOD DESC
 HPTY.       Minimum Curvature:  HOLE POS TYPE
 NREF.                    Grid:  NORTH REFERENCE
 SPUD.               09-Jan-20:  SPUD DATE
 DATE.      14.04.48 07-Feb-20:  END TIME
 STIM.      07.00.00 09-Jan-20:  START TIME
 DMF .             Drill Floor:  DRILL MEAS FROM
 DFST.                        :  DIST FSL TEXT
 DFWT.                        :  DIST FWL TEXT
 CNTY.                        :  COUNTY
 LOC .                        :  LOCATION
 LMF .             Drill Floor:  LOG MEASURED FROM
 DEP .m                   0.00:  DEPTH
 VSNS.m                  10.28:  VERT SEC N/S
 VSEW.m                  -6.24:  VERT SEC E/W
 AGAP.m                  43.00:  AIR GAP
 APD .m                  43.00:  DEPTH ABOVE PD
 WDMS.m                 169.80:  WD ELEV
 EGL .m                   0.00:  GROUND ELEVATION
 EPD .m                   0.00:  ELEVATION
 AZTC.deg                 6.27:  AZM TOTAL CORR
 GRDC.deg                 0.15:  GRID CORRECTION
 MDEC.deg                 6.42:  MAGNETIC DECL
 MDIP.deg                59.56:  MAGNETIC DIP
 MFLD.nT              50277.00:  MAGNETIC FIELD
 GVFD.g                   1.00:  GRAVITY FIELD
 VSDR.deg               148.53:  VERT SEC DIRECT
 TDD .m                3473.01:  TOTAL DEPTH (DRILLER)
 SDEP.m                 364.00:  START DEPTH
 DFSL.m                   0.00:  DISTANCE FSL
 DFWL.m                   0.00:  DISTANCE FWL
 UTMY.m             4443793.85:  UTM Y
 UTMX.m              519005.06:  UTM X
 WHEW.m                  -6.24:  WELL HEAD E/W
 WHNS.m                  10.28:  WELL HEAD N/S
 LONG.deg                51.22:  LONGITUDE
 LATI.deg                40.13:  LATITUDE
 TVDS.m                  43.00:  TVDSS CORRECTN
 EKB .m                   0.00:  KB ELEVATION
 EDF .m                  43.00:  DF ELEVATION
 TDL .m                 254.00:  TOTAL DEPTH (LOGGER)
 MAGU.                 1850021:  MAGUTM CHECKSUM
 VSC .                       0:  VS TO CLOSURE
~Parameter Information Block
#MNEM.UNIT       Value        Description
#---------     -----------    ---------------------------
 AV  .mps                 0.50:  Ann Velocity 
 AVMX.mps                 1.40:  Max Ann Veloc 
 AZIF.deg               144.94:  Azm, Final 
 BHAT.        Rotary Steerable:  BHA Type 
 BROT.°/30m               0.23:  Build Rotating 
 BS  .in                  8.50:  Bit Size 
 BTPL.psig              264.00:  Bit Press Loss 
 CABU.                     Yes:  Customer Abuse 
 TCS .hr                 87.30:  Time Ciculation Ended 
 CV  .mps                 2.45:  Crit Velocity 
 CVMX.mps                 2.74:  Max Crit Veloc 
 DD1 .             Aziz Aliyev:  Direct Drillr 1 
 DDSV.               Geo-Pilot:  DD Service 
 DEFF.%                 100.00:  % Det Eff 
 DLRX.°/30m               1.22:  Dogleg Rot Max 
 DLSO.°/30m               0.52:  Dogleg Oriented 
 DLSX.°/30m               1.22:  Dogleg Str Max 
 DRET.      12.59.00 23-Feb-20:  Drill End Time 
 DRST.      09.44.00 18-Feb-20:  Drill Start Tim 
 DTIM.hr                 23.03:  Time Drilling 
 EDEP.m                3473.01:  End Depth 
 ENG1.         Almaz Almadatov:  Engineer 1 
 ENG2.         Dair Mahammadov:  Engineer 2 
 ENG3.          Nazrin Asgarli:  Engineer 3 
 ETIM.      10.33.36 26-Feb-20:  End Time 
 FLOI.gpm               480.00:  Flow In 
 FLON.gpm               300.00:  Flow In Min 
 FLOS.cptm                1.00:  Fluid Loss 
 FLOX.gpm               550.00:  Flow In Max 
 HFLO.                      No:  High Flow 
 HPRE.                      No:  High Pressure 
 HTEM.                      No:  High Temp 
 HYDO.m                   1.80:  Hydro Offset 
 IFIN.deg                74.42:  Inc, Final 
 IMAX.deg                76.14:  Inc Max 
 IMIN.deg                74.42:  Inc Min 
 IMND.m                3462.72:  Inc Min Depth 
 IMXD.m                3235.69:  Inc Max Depth 
 JARR.                      No:  Jarring 
 LETM.      12.59.00 23-Feb-20:  Log End Time 
 LOST.hr                     0:  Lost Rig Time 
 LSTM.      09.44.00 18-Feb-20:  Log Start Time 
 MDCL.ppm             45000.00:  Mud Chlorides 
 MDES.     Inversion Oil/Synthetic:  Mud Desc 
 DFD .sg                  1.38:  Mud Density 
 MDMN.sg                  1.34:  Dens Mud Min 
 MDMX.sg                  1.49:  Dens Mud Max 
 MOIL.                      67:  Run Mud Oil % 
 MOWR.                   67:33:  Run Mud OWR 
 MSND.                    0.12:  Run Mud Sand % 
 MSOL.                      22:  Run Mud Solids% 
 DFV .spqt               81.00:  Mud Viscosity 
 MWOD.in                  6.75:  MWD Tool OD 
 MWSI.                      No:  Serv Intrp, MWD 
 OTIM.hr                231.44:  Time Operating 
 PCON.          Wear / Scratch:  Pad Condition 
 PMAX.psia             3400.00:  Press Op, Max 
 PV  .cP                 55.00:  Mud PV 
 RUN .                     800:  Run Number 
 ROPA.m/hr               12.00:  ROP Avg 
 ROPN.m/hr                5.00:  ROP Min 
 ROPX.m/hr               28.00:  ROP Max 
 RPMA.rpm               120.00:  RPM Surface Avg 
 RPMN.rpm                40.00:  RPM Surface Min 
 RPMX.rpm               130.00:  RPM Surface Max 
 RRUN.                    0800:  Rig Run Number 
 RTIM.hr                 45.00:  Time Reaming 
 SAZI.deg               145.38:  Azm, Start 
 SDEP.m                3219.01:  Start Depth 
 SIDD.                      No:  Serv Intrp, DD 
 SINC.deg                75.11:  Inc, Start 
 SPPA.psig             2400.00:  SPP Avg 
 SPPN.psig             2320.00:  SPP Min 
 SPPX.psig             3200.00:  SPP Max 
 STIM.      15.15.00 17-Feb-20:  Start Time 
 SVCS.                 DD, MWD:  Services 
 SVER.                    9.20:  Sperry Version 
 TDAT.m                 254.00:  Tot Depth Attmp 
 TDDF.                      No:  Trip for DD 
 TDLG.m                 254.00:  Tot Depth Loggd 
 TFF .                      No:  Trip for Fail 
 TQAA.f-kp               13.00:  Torque Abs Avg 
 TQAN.f-kp                7.00:  Torque Abs Min 
 TQAX.f-kp               15.00:  Torque Abs Max 
 TRRT.°/30m               0.21:  Turn Rotating 
 MRT .                  EWR-M5:  Maximum Recorded Temperature 
 TTMX.degC               64.00:  Max Tool Temp 
 VS01.                90586516:  Virtual Str1 SN 
 VS02.                90513691:  Virtual Str2 SN 
 VS03.                90586523:  Virtual Str3 SN 
 VS04.                90586520:  Virtual Str4 SN 
 VS05.                90590507:  Virtual Str5 SN 
 WBMN.klb                12.00:  WOB Min 
 WITN.           Rufat Babayev:  Customer Rep 2 
 WITN.         Alistair Sprott:  Customer Rep 
 WOBA.klb                18.00:  WOB Avg 
 WOBX.klb                30.00:  WOB Max 
 YP  .lhf2               41.00:  Yield Point 
~Curve Information Block
#MNEM.UNIT                 API CODE     Curve Description
#---------               -----------    ---------------------------
 TIME.HHMMSS            00 000 000 000:  GT Time & Date
 GTDEPTH.m              00 000 000 000:  GT Depth
 GTPQH.psia             00 000 000 000:  GT HR Quartz Pressure
 GTTQ.degC              00 000 000 000:  GT Quartz Temperature
 GTTN.NONE              00 000 000 000:  GT Test Number
 GTET.sec               00 000 000 000:  GT Elapsed Test Time
 GTTVD.m                00 000 000 000:  GT True Vertical Depth
#Other Information
#
#WARRANTY: Halliburton will use its best efforts to furnish customers with 
#accurate information and interpretations that are part of, and incident to, the services 
#provided.  However, Halliburton cannot and does not warrant the accuracy 
#or correctness of such information and interpretations.  Under no circumstances should any 
#such information or interpretation be relied upon as the sole basis for any drilling, 
#completion, production, or financial decision or any procedure involving any risk to the 
#safety of any drilling venture, drilling rig or its crew or any other third party.  The 
#Customer has full responsibility for all drilling, completion and production operation.  
#Halliburton makes no representations or warranties, either expressed or 
#implied, including, but not limited to, the implied warranties of merchantability or fitness 
#for a particular purpose, with respect to the services rendered.  In no event will 
#Halliburton be liable for failure to obtain any particular results or for 
#any damages, including, but not limited to, indirect, special or consequential damages, 
#resulting from the use of any information or interpretation provided by Halliburton.
#
~A           TIME           GTDEPTH  GTPQH  GTTQ  GTTN  GTET   GTTVD  
# ...
   01:26:54.171.24-Feb-2020 3405.01 4617.13 56.96 3.00  46.01 2716.73
   01:26:54.371.24-Feb-2020 3405.01 4617.13 56.96 3.00  46.21 2716.73
   01:26:54.571.24-Feb-2020 3405.01 4557.35 56.96 3.00  46.41 2716.73
   01:26:54.771.24-Feb-2020 3405.01 4527.47 56.96 3.00  46.61 2716.73
   01:26:54.971.24-Feb-2020 3405.01 4496.57 56.96 3.00  46.81 2716.73
   01:26:55.171.24-Feb-2020 3405.01 4466.24 56.95 3.00  47.01 2716.73
   01:26:55.371.24-Feb-2020 3405.01 4436.87 56.95 3.00  47.21 2716.73
   01:26:55.571.24-Feb-2020 3405.01 4407.42 56.95 3.00  47.41 2716.73
   01:26:55.771.24-Feb-2020 3405.01 4381.48 56.95 3.00  47.61 2716.73
   01:26:55.971.24-Feb-2020 3405.01 4433.36 56.95 3.00  47.81 2716.73
   01:26:56.171.24-Feb-2020 3405.01 4500.74 56.95 3.00  48.01 2716.73
   01:26:56.371.24-Feb-2020 3405.01 4500.74 56.95 3.00  48.21 2716.73
   01:26:56.571.24-Feb-2020 3405.01 4593.50 56.95 3.00  48.41 2716.73
   01:26:56.771.24-Feb-2020 3405.01 4630.95 56.95 3.00  48.61 2716.73
   01:26:56.972.24-Feb-2020 3405.01 4666.35 56.95 3.00  48.81 2716.73
   01:26:57.172.24-Feb-2020 3405.01 4691.90 56.95 3.00  49.01 2716.73
   01:26:57.372.24-Feb-2020 3405.01 4691.90 56.95 3.00  49.21 2716.73
   01:26:57.572.24-Feb-2020 3405.01 4742.74 56.95 3.00  49.41 2716.73
   01:26:57.772.24-Feb-2020 3405.01 4767.10 56.95 3.00  49.61 2716.73
   01:26:57.972.24-Feb-2020 3405.01 4791.20 56.94 3.00  49.81 2716.73
   01:26:58.172.24-Feb-2020 3405.01 4813.74 56.94 3.00  50.01 2716.73
   01:26:58.372.24-Feb-2020 3405.01 4813.74 56.94 3.00  50.21 2716.73
   01:26:58.572.24-Feb-2020 3405.01 4853.31 56.94 3.00  50.41 2716.73
   01:26:58.772.24-Feb-2020 3405.01 4866.31 56.94 3.00  50.61 2716.73
   01:26:58.972.24-Feb-2020 3405.01 4874.08 56.94 3.00  50.81 2716.73
   01:26:59.172.24-Feb-2020 3405.01 4889.15 56.94 3.00  51.01 2716.73
   01:26:59.372.24-Feb-2020 3405.01 4907.67 56.94 3.00  51.21 2716.73
   01:26:59.572.24-Feb-2020 3405.01 4923.71 56.94 3.00  51.41 2716.73
   01:26:59.772.24-Feb-2020 3405.01 4936.57 56.94 3.00  51.61 2716.73
   01:26:59.972.24-Feb-2020 3405.01 4948.31 56.94 3.00  51.81 2716.73
   01:27:00.172.24-Feb-2020 3405.01 4960.61 56.94 3.00  52.01 2716.73
   01:27:00.372.24-Feb-2020 3405.01 4960.61 56.94 3.00  52.21 2716.73
   01:27:00.572.24-Feb-2020 3405.01 4995.84 56.94 3.00  52.41 2716.73
   01:27:00.772.24-Feb-2020 3405.01 5013.22 56.94 3.00  52.61 2716.73
   01:27:00.972.24-Feb-2020 3405.01 5024.37 56.94 3.00  52.81 2716.73
   01:27:01.172.24-Feb-2020 3405.01 5046.85 56.94 3.00  53.01 2716.73
   01:27:01.372.24-Feb-2020 3405.01 5046.85 56.94 3.00  53.21 2716.73
   01:27:01.572.24-Feb-2020 3405.01 5106.60 56.94 3.00  53.41 2716.73
   01:27:01.773.24-Feb-2020 3405.01 5132.66 56.94 3.00  53.61 2716.73
   01:27:01.973.24-Feb-2020 3405.01 5151.45 56.94 3.00  53.81 2716.73
   01:27:02.173.24-Feb-2020 3405.01 5176.15 56.94 3.00  54.01 2716.73
   01:27:02.373.24-Feb-2020 3405.01 5176.15 56.94 3.00  54.21 2716.73
   01:27:02.573.24-Feb-2020 3405.01 5316.06 56.94 3.00  54.41 2716.73
   01:27:02.773.24-Feb-2020 3405.01 5437.47 56.94 3.00  54.61 2716.73
   01:27:02.973.24-Feb-2020 3405.01 5445.77 56.94 3.00  54.81 2716.73
   01:27:03.173.24-Feb-2020 3405.01 5426.68 56.94 3.00  55.01 2716.73
   01:27:03.373.24-Feb-2020 3405.01 5426.68 56.94 3.00  55.21 2716.73
   01:27:03.573.24-Feb-2020 3405.01 5406.15 56.94 3.00  55.41 2716.73
   01:27:03.773.24-Feb-2020 3405.01 5397.23 56.94 3.00  55.61 2716.73
   01:27:03.973.24-Feb-2020 3405.01 5391.39 56.94 3.00  55.81 2716.73
   01:27:04.173.24-Feb-2020 3405.01 5386.85 56.94 3.00  56.01 2716.73
   01:27:04.373.24-Feb-2020 3405.01 5386.85 56.94 3.00  56.21 2716.73
   01:27:04.573.24-Feb-2020 3405.01 5378.89 56.94 3.00  56.41 2716.73
   01:27:04.773.24-Feb-2020 3405.01 5375.67 56.94 3.00  56.61 2716.73
   01:27:04.973.24-Feb-2020 3405.01 5373.34 56.94 3.00  56.81 2716.73
   01:27:05.173.24-Feb-2020 3405.01 5371.42 56.94 3.00  57.01 2716.73
   01:27:05.373.24-Feb-2020 3405.01 5371.42 56.94 3.00  57.21 2716.73
   01:27:05.573.24-Feb-2020 3405.01 5367.10 56.94 3.00  57.41 2716.73
   01:27:05.773.24-Feb-2020 3405.01 5365.04 56.95 3.00  57.61 2716.73
   01:27:05.973.24-Feb-2020 3405.01 5363.10 56.95 3.00  57.81 2716.73
   01:27:06.173.24-Feb-2020 3405.01 5361.47 56.95 3.00  58.01 2716.73
   01:27:06.373.24-Feb-2020 3405.01 5361.47 56.95 3.00  58.21 2716.73
   01:27:06.574.24-Feb-2020 3405.01 5358.44 56.95 3.00  58.41 2716.73
   01:27:06.774.24-Feb-2020 3405.01 5358.14 56.95 3.00  58.61 2716.73
   01:27:06.974.24-Feb-2020 3405.01 5351.62 56.95 3.00  58.81 2716.73
   01:27:07.174.24-Feb-2020 3405.01 5354.31 56.95 3.00  59.01 2716.73
   01:27:07.374.24-Feb-2020 3405.01 5354.32 56.95 3.00  59.21 2716.73
   01:27:07.574.24-Feb-2020 3405.01 5357.53 56.95 3.00  59.41 2716.73
   01:27:07.774.24-Feb-2020 3405.01 4991.51 56.95 3.00  59.61 2716.73
   01:27:07.974.24-Feb-2020 3405.01 4082.97 56.95 3.00  59.81 2716.73
   01:27:08.174.24-Feb-2020 3405.01 4064.08 56.95 3.00  60.01 2716.73
   01:27:08.374.24-Feb-2020 3405.01 4064.08 56.95 3.00  60.21 2716.73
   01:27:08.574.24-Feb-2020 3405.01 4163.99 56.95 3.00  60.41 2716.73
   01:27:08.774.24-Feb-2020 3405.01 4169.44 56.95 3.00  60.61 2716.73
   01:27:08.974.24-Feb-2020 3405.01 4172.90 56.95 3.00  60.81 2716.73
   01:27:09.174.24-Feb-2020 3405.01 4177.19 56.95 3.00  61.01 2716.73
   01:27:09.374.24-Feb-2020 3405.01 4177.19 56.95 3.00  61.21 2716.73
   01:27:09.574.24-Feb-2020 3405.01 4183.77 56.95 3.00  61.41 2716.73
   01:27:09.774.24-Feb-2020 3405.01 4184.76 56.94 3.00  61.61 2716.73
   01:27:09.974.24-Feb-2020 3405.01 4184.48 56.94 3.00  61.81 2716.73
   01:27:10.174.24-Feb-2020 3405.01 4183.61 56.94 3.00  62.01 2716.73
   01:27:10.374.24-Feb-2020 3405.01 4183.61 56.94 3.00  62.21 2716.73
   01:27:10.574.24-Feb-2020 3405.01 4184.77 56.94 3.00  62.41 2716.73
   01:27:10.774.24-Feb-2020 3405.01 4184.55 56.94 3.00  62.61 2716.73
   01:27:10.974.24-Feb-2020 3405.01 4185.79 56.94 3.00  62.81 2716.73
   01:27:11.174.24-Feb-2020 3405.01 4185.38 56.94 3.00  63.01 2716.73
   01:27:11.375.24-Feb-2020 3405.01 4184.13 56.94 3.00  63.21 2716.73
   01:27:11.575.24-Feb-2020 3405.01 4185.77 56.94 3.00  63.41 2716.73
   01:27:11.775.24-Feb-2020 3405.01 4184.49 56.94 3.00  63.61 2716.73
   01:27:11.975.24-Feb-2020 3405.01 4185.97 56.94 3.00  63.81 2716.73
   01:27:12.175.24-Feb-2020 3405.01 4186.09 56.94 3.00  64.01 2716.73
   01:27:12.375.24-Feb-2020 3405.01 4186.09 56.94 3.00  64.21 2716.73
   01:27:12.575.24-Feb-2020 3405.01 4186.85 56.93 3.00  64.41 2716.73
   01:27:12.775.24-Feb-2020 3405.01 4185.54 56.93 3.00  64.61 2716.73
   01:27:12.975.24-Feb-2020 3405.01 4186.65 56.93 3.00  64.81 2716.73
   01:27:13.175.24-Feb-2020 3405.01 4186.78 56.93 3.00  65.01 2716.73
   01:27:13.375.24-Feb-2020 3405.01 4186.78 56.93 3.00  65.21 2716.73
   01:27:13.575.24-Feb-2020 3405.01 4186.98 56.93 3.00  65.41 2716.73
   01:27:13.775.24-Feb-2020 3405.01 4186.53 56.93 3.00  65.61 2716.73
   01:27:13.975.24-Feb-2020 3405.01 4187.12 56.93 3.00  65.81 2716.73
   01:27:14.175.24-Feb-2020 3405.01 4187.26 56.93 3.00  66.01 2716.73
   01:27:14.375.24-Feb-2020 3405.01 4187.26 56.93 3.00  66.21 2716.73
   01:27:14.575.24-Feb-2020 3405.01 4187.61 56.93 3.00  66.41 2716.73
   01:27:14.775.24-Feb-2020 3405.01 4187.83 56.93 3.00  66.61 2716.73
   01:27:14.975.24-Feb-2020 3405.01 4188.25 56.93 3.00  66.81 2716.73
   01:27:15.175.24-Feb-2020 3405.01 4188.36 56.93 3.00  67.01 2716.73
   01:27:15.375.24-Feb-2020 3405.01 4188.46 56.93 3.00  67.21 2716.73
   01:27:15.575.24-Feb-2020 3405.01 4188.66 56.93 3.00  67.41 2716.73
   01:27:15.775.24-Feb-2020 3405.01 4189.79 56.93 3.00  67.61 2716.73
   01:27:15.975.24-Feb-2020 3405.01 4189.08 56.93 3.00  67.81 2716.73
   01:27:16.176.24-Feb-2020 3405.01 4189.55 56.92 3.00  68.01 2716.73
   01:27:16.376.24-Feb-2020 3405.01 4189.55 56.92 3.00  68.21 2716.73
   01:27:16.576.24-Feb-2020 3405.01 4189.56 56.92 3.00  68.41 2716.73
   01:27:16.776.24-Feb-2020 3405.01 4189.88 56.92 3.00  68.61 2716.73
   01:27:16.976.24-Feb-2020 3405.01 4190.17 56.92 3.00  68.81 2716.73
