~Version Information
 VERS.                  2.0:   CWLS log ASCII Standard -VERSION 2.0
 WRAP.                   NO:   One line per depth step
~Well Information Block
#MNEM.UNIT     VALUE/NAME     DESCRIPTION
#---------     -----------    ---------------------------
 STRT.S             02:47:37 24-Feb-20: START TIME 02:47:37 24-Feb-20
 STOP.S             02:54:57 24-Feb-20: STOP TIME  02:54:57 24-Feb-20
 STEP.S                   0.00: STEP TIME
 NULL.                 -999.25: NULL VALUE
 JOBN.        AZ-XX-0905059384:  JOB TICKET NUMB
 PDAT.          Mean Sea Level:  PERMANENT DATUM
 UNIT.                     N/A:  LOGGING EQUIPMENT ID
 DCON.         Sperry Drilling:  DIRECTNL CONTR
 DOE .                     N/A:  DOE NUMBER
 RIG .             West Chirag:  RIG NAME
 WELL.                     J22:  WELL NAME
 MWDS.                    Baku:  MWD SHOP
 SRVC.     TURAN Drilling & Engineering:  CONTRACTOR
 FLD .                     ACG:  FIELD NAME
 CTRY.              Azerbaijan:  COUNTRY NAME
 PROV.                    Baku:  PROVINCE
 STAT.                    Baku:  STATE NAME
 REGN.                   EESSA:  REGION
 BASE.              Azerbaijan:  LOGGING EQUIPMENT BASE LOCATION
 UWI .                     N/A:  UNIQUE WELL IDENTIFIER
 API .                     N/A:  API NUMBER
 COMP.     BP Exploration (Caspian Sea) Ltd.:  COMPANY
 WTYP.                Deviated:  WELL TYPE
 MDS .        Operator Entered:  MAG DATA SOURCE
 SON .        AZ-XX-0905059384:  JOB NUMBER
 FTOP.          Formation Tops:  FORM TOPS DESC
 ILTD.               Lithology:  INTERP LTH DESC
 SVYD.                  Survey:  SURVEY DESC
 DMOD.             Drill Model:  DRILL MOD DESC
 HPTY.       Minimum Curvature:  HOLE POS TYPE
 NREF.                    Grid:  NORTH REFERENCE
 SPUD.               09-Jan-20:  SPUD DATE
 DATE.      14.04.48 07-Feb-20:  END TIME
 STIM.      07.00.00 09-Jan-20:  START TIME
 DMF .             Drill Floor:  DRILL MEAS FROM
 DFST.                        :  DIST FSL TEXT
 DFWT.                        :  DIST FWL TEXT
 CNTY.                        :  COUNTY
 LOC .                        :  LOCATION
 LMF .             Drill Floor:  LOG MEASURED FROM
 DEP .m                   0.00:  DEPTH
 VSNS.m                  10.28:  VERT SEC N/S
 VSEW.m                  -6.24:  VERT SEC E/W
 AGAP.m                  43.00:  AIR GAP
 APD .m                  43.00:  DEPTH ABOVE PD
 WDMS.m                 169.80:  WD ELEV
 EGL .m                   0.00:  GROUND ELEVATION
 EPD .m                   0.00:  ELEVATION
 AZTC.deg                 6.27:  AZM TOTAL CORR
 GRDC.deg                 0.15:  GRID CORRECTION
 MDEC.deg                 6.42:  MAGNETIC DECL
 MDIP.deg                59.56:  MAGNETIC DIP
 MFLD.nT              50277.00:  MAGNETIC FIELD
 GVFD.g                   1.00:  GRAVITY FIELD
 VSDR.deg               148.53:  VERT SEC DIRECT
 TDD .m                3473.01:  TOTAL DEPTH (DRILLER)
 SDEP.m                 364.00:  START DEPTH
 DFSL.m                   0.00:  DISTANCE FSL
 DFWL.m                   0.00:  DISTANCE FWL
 UTMY.m             4443793.85:  UTM Y
 UTMX.m              519005.06:  UTM X
 WHEW.m                  -6.24:  WELL HEAD E/W
 WHNS.m                  10.28:  WELL HEAD N/S
 LONG.deg                51.22:  LONGITUDE
 LATI.deg                40.13:  LATITUDE
 TVDS.m                  43.00:  TVDSS CORRECTN
 EKB .m                   0.00:  KB ELEVATION
 EDF .m                  43.00:  DF ELEVATION
 TDL .m                 254.00:  TOTAL DEPTH (LOGGER)
 MAGU.                 1850021:  MAGUTM CHECKSUM
 VSC .                       0:  VS TO CLOSURE
~Parameter Information Block
#MNEM.UNIT       Value        Description
#---------     -----------    ---------------------------
 AV  .mps                 0.50:  Ann Velocity 
 AVMX.mps                 1.40:  Max Ann Veloc 
 AZIF.deg               144.94:  Azm, Final 
 BHAT.        Rotary Steerable:  BHA Type 
 BROT.°/30m               0.23:  Build Rotating 
 BS  .in                  8.50:  Bit Size 
 BTPL.psig              264.00:  Bit Press Loss 
 CABU.                     Yes:  Customer Abuse 
 COMM.                     D
_:  Run Comments 1 
 TCS .hr                 87.30:  Time Ciculation Ended 
 CV  .mps                 2.45:  Crit Velocity 
 CVMX.mps                 2.74:  Max Crit Veloc 
 DD1 .             Aziz Aliyev:  Direct Drillr 1 
 DDSV.               Geo-Pilot:  DD Service 
 DEFF.%                 100.00:  % Det Eff 
 DLRX.°/30m               1.22:  Dogleg Rot Max 
 DLSO.°/30m               0.52:  Dogleg Oriented 
 DLSX.°/30m               1.22:  Dogleg Str Max 
 DRET.      12.59.00 23-Feb-20:  Drill End Time 
 DRST.      09.44.00 18-Feb-20:  Drill Start Tim 
 DTIM.hr                 23.03:  Time Drilling 
 EDEP.m                3473.01:  End Depth 
 ENG1.         Almaz Almadatov:  Engineer 1 
 ENG2.         Dair Mahammadov:  Engineer 2 
 ENG3.          Nazrin Asgarli:  Engineer 3 
 ETIM.      10.33.36 26-Feb-20:  End Time 
 FLOI.gpm               480.00:  Flow In 
 FLON.gpm               300.00:  Flow In Min 
 FLOS.cptm                1.00:  Fluid Loss 
 FLOX.gpm               550.00:  Flow In Max 
 HFLO.                      No:  High Flow 
 HPRE.                      No:  High Pressure 
 HTEM.                      No:  High Temp 
 HYDO.m                   1.80:  Hydro Offset 
 IFIN.deg                74.42:  Inc, Final 
 IMAX.deg                76.14:  Inc Max 
 IMIN.deg                74.42:  Inc Min 
 IMND.m                3462.72:  Inc Min Depth 
 IMXD.m                3235.69:  Inc Max Depth 
 JARR.                      No:  Jarring 
 LETM.      12.59.00 23-Feb-20:  Log End Time 
 LOST.hr                     0:  Lost Rig Time 
 LSTM.      09.44.00 18-Feb-20:  Log Start Time 
 MDCL.ppm             45000.00:  Mud Chlorides 
 MDES.     Inversion Oil/Synthetic:  Mud Desc 
 DFD .sg                  1.38:  Mud Density 
 MDMN.sg                  1.34:  Dens Mud Min 
 MDMX.sg                  1.49:  Dens Mud Max 
 MOIL.                      67:  Run Mud Oil % 
 MOWR.                   67:33:  Run Mud OWR 
 MSND.                    0.12:  Run Mud Sand % 
 MSOL.                      22:  Run Mud Solids% 
 DFV .spqt               81.00:  Mud Viscosity 
 MWOD.in                  6.75:  MWD Tool OD 
 MWSI.                      No:  Serv Intrp, MWD 
 OTIM.hr                231.44:  Time Operating 
 PCON.          Wear / Scratch:  Pad Condition 
 PMAX.psia             3400.00:  Press Op, Max 
 PV  .cP                 55.00:  Mud PV 
 RUN .                     800:  Run Number 
 ROPA.m/hr               12.00:  ROP Avg 
 ROPN.m/hr                5.00:  ROP Min 
 ROPX.m/hr               28.00:  ROP Max 
 RPMA.rpm               120.00:  RPM Surface Avg 
 RPMN.rpm                40.00:  RPM Surface Min 
 RPMX.rpm               130.00:  RPM Surface Max 
 RRUN.                    0800:  Rig Run Number 
 RTIM.hr                 45.00:  Time Reaming 
 SAZI.deg               145.38:  Azm, Start 
 SDEP.m                3219.01:  Start Depth 
 SIDD.                      No:  Serv Intrp, DD 
 SINC.deg                75.11:  Inc, Start 
 SPPA.psig             2400.00:  SPP Avg 
 SPPN.psig             2320.00:  SPP Min 
 SPPX.psig             3200.00:  SPP Max 
 STIM.      15.15.00 17-Feb-20:  Start Time 
 SVCS.                 DD, MWD:  Services 
 SVER.                    9.20:  Sperry Version 
 TDAT.m                 254.00:  Tot Depth Attmp 
 TDDF.                      No:  Trip for DD 
 TDLG.m                 254.00:  Tot Depth Loggd 
 TFF .                      No:  Trip for Fail 
 TQAA.f-kp               13.00:  Torque Abs Avg 
 TQAN.f-kp                7.00:  Torque Abs Min 
 TQAX.f-kp               15.00:  Torque Abs Max 
 TRRT.°/30m               0.21:  Turn Rotating 
 MRT .                  EWR-M5:  Maximum Recorded Temperature 
 TTMX.degC               64.00:  Max Tool Temp 
 VS01.                90586516:  Virtual Str1 SN 
 VS02.                90513691:  Virtual Str2 SN 
 VS03.                90586523:  Virtual Str3 SN 
 VS04.                90586520:  Virtual Str4 SN 
 VS05.                90590507:  Virtual Str5 SN 
 WBMN.klb                12.00:  WOB Min 
 WITN.           Rufat Babayev:  Customer Rep 2 
 WITN.         Alistair Sprott:  Customer Rep 
 WOBA.klb                18.00:  WOB Avg 
 WOBX.klb                30.00:  WOB Max 
 YP  .lhf2               41.00:  Yield Point 
~Curve Information Block
#MNEM.UNIT                 API CODE     Curve Description
#---------               -----------    ---------------------------
 TIME.HHMMSS            00 000 000 000:  GT Time & Date
 GTDEPTH.m              00 000 000 000:  GT Depth
 GTPQH.psia             00 000 000 000:  GT HR Quartz Pressure
 GTTQ.degC              00 000 000 000:  GT Quartz Temperature
 GTTN.NONE              00 000 000 000:  GT Test Number
 GTET.sec               00 000 000 000:  GT Elapsed Test Time
 GTTVD.m                00 000 000 000:  GT True Vertical Depth
#Other Information
#
#WARRANTY: Halliburton will use its best efforts to furnish customers with 
#accurate information and interpretations that are part of, and incident to, the services 
#provided.  However, Halliburton cannot and does not warrant the accuracy 
#or correctness of such information and interpretations.  Under no circumstances should any 
#such information or interpretation be relied upon as the sole basis for any drilling, 
#completion, production, or financial decision or any procedure involving any risk to the 
#safety of any drilling venture, drilling rig or its crew or any other third party.  The 
#Customer has full responsibility for all drilling, completion and production operation.  
#Halliburton makes no representations or warranties, either expressed or 
#implied, including, but not limited to, the implied warranties of merchantability or fitness 
#for a particular purpose, with respect to the services rendered.  In no event will 
#Halliburton be liable for failure to obtain any particular results or for 
#any damages, including, but not limited to, indirect, special or consequential damages, 
#resulting from the use of any information or interpretation provided by Halliburton.
#
~A           TIME           GTDEPTH  GTPQH  GTTQ  GTTN  GTET   GTTVD  
# ...
   02:52:13.458.24-Feb-2020 3375.51 4015.55 55.79 5.00 276.11 2709.14
   02:52:13.658.24-Feb-2020 3375.51 4012.94 55.79 5.00 276.31 2709.14
   02:52:13.858.24-Feb-2020 3375.51 4013.76 55.79 5.00 276.51 2709.14
   02:52:14.058.24-Feb-2020 3375.51 4012.40 55.79 5.00 276.71 2709.14
   02:52:14.258.24-Feb-2020 3375.51 4010.88 55.79 5.00 276.91 2709.14
   02:52:14.458.24-Feb-2020 3375.51 4012.00 55.79 5.00 277.11 2709.14
   02:52:14.658.24-Feb-2020 3375.51 4012.00 55.79 5.00 277.31 2709.14
   02:52:14.858.24-Feb-2020 3375.51 4012.59 55.79 5.00 277.51 2709.14
   02:52:15.059.24-Feb-2020 3375.51 4010.60 55.79 5.00 277.71 2709.14
   02:52:15.259.24-Feb-2020 3375.51 4012.35 55.79 5.00 277.91 2709.14
   02:52:15.459.24-Feb-2020 3375.51 4012.12 55.79 5.00 278.11 2709.14
   02:52:15.659.24-Feb-2020 3375.51 4012.84 55.79 5.00 278.31 2709.14
   02:52:15.859.24-Feb-2020 3375.51 4012.67 55.79 5.00 278.51 2709.14
   02:52:16.059.24-Feb-2020 3375.51 4011.83 55.79 5.00 278.71 2709.14
   02:52:16.259.24-Feb-2020 3375.51 4011.40 55.79 5.00 278.91 2709.14
   02:52:16.459.24-Feb-2020 3375.51 4011.28 55.79 5.00 279.11 2709.14
   02:52:16.659.24-Feb-2020 3375.51 4011.28 55.79 5.00 279.31 2709.14
   02:52:16.859.24-Feb-2020 3375.51 4011.31 55.79 5.00 279.51 2709.14
   02:52:17.059.24-Feb-2020 3375.51 4011.95 55.79 5.00 279.71 2709.14
   02:52:17.259.24-Feb-2020 3375.51 4010.80 55.79 5.00 279.91 2709.14
   02:52:17.459.24-Feb-2020 3375.51 4011.43 55.79 5.00 280.11 2709.14
   02:52:17.660.24-Feb-2020 3375.51 4011.43 55.79 5.00 280.31 2709.14
   02:52:17.860.24-Feb-2020 3375.51 4011.40 55.79 5.00 280.51 2709.14
   02:52:18.060.24-Feb-2020 3375.51 4011.06 55.79 5.00 280.71 2709.14
   02:52:18.260.24-Feb-2020 3375.51 4010.48 55.79 5.00 280.91 2709.14
   02:52:18.460.24-Feb-2020 3375.51 4010.15 55.79 5.00 281.11 2709.14
   02:52:18.660.24-Feb-2020 3375.51 4010.15 55.79 5.00 281.31 2709.14
   02:52:18.860.24-Feb-2020 3375.51 4011.27 55.79 5.00 281.51 2709.14
   02:52:19.060.24-Feb-2020 3375.51 4010.22 55.79 5.00 281.71 2709.14
   02:52:19.260.24-Feb-2020 3375.51 4011.18 55.79 5.00 281.91 2709.14
   02:52:19.460.24-Feb-2020 3375.51 4010.16 55.79 5.00 282.11 2709.14
   02:52:19.660.24-Feb-2020 3375.51 4010.16 55.79 5.00 282.31 2709.14
   02:52:19.860.24-Feb-2020 3375.51 4011.75 55.79 5.00 282.51 2709.14
   02:52:20.061.24-Feb-2020 3375.51 4010.38 55.79 5.00 282.71 2709.14
   02:52:20.261.24-Feb-2020 3375.51 4010.09 55.79 5.00 282.91 2709.14
   02:52:20.461.24-Feb-2020 3375.51 4008.47 55.79 5.00 283.11 2709.14
   02:52:20.661.24-Feb-2020 3375.51 4008.47 55.79 5.00 283.31 2709.14
   02:52:20.861.24-Feb-2020 3375.51 4010.63 55.79 5.00 283.51 2709.14
   02:52:21.061.24-Feb-2020 3375.51 4012.98 55.79 5.00 283.71 2709.14
   02:52:21.261.24-Feb-2020 3375.51 4010.67 55.79 5.00 283.91 2709.14
   02:52:21.461.24-Feb-2020 3375.51 4009.28 55.79 5.00 284.11 2709.14
   02:52:21.661.24-Feb-2020 3375.51 4009.28 55.79 5.00 284.31 2709.14
   02:52:21.861.24-Feb-2020 3375.51 4010.42 55.79 5.00 284.51 2709.14
   02:52:22.061.24-Feb-2020 3375.51 4011.80 55.79 5.00 284.71 2709.14
   02:52:22.261.24-Feb-2020 3375.51 4010.78 55.78 5.00 284.91 2709.14
   02:52:22.461.24-Feb-2020 3375.51 4009.99 55.78 5.00 285.11 2709.14
   02:52:22.662.24-Feb-2020 3375.51 4009.99 55.78 5.00 285.31 2709.14
   02:52:22.862.24-Feb-2020 3375.51 4142.12 55.78 5.00 285.51 2709.14
   02:52:23.062.24-Feb-2020 3375.51 4196.65 55.78 5.00 285.71 2709.14
   02:52:23.262.24-Feb-2020 3375.51 4202.20 55.78 5.00 285.91 2709.14
   02:52:23.462.24-Feb-2020 3375.51 4202.77 55.78 5.00 286.11 2709.14
   02:52:23.662.24-Feb-2020 3375.51 4202.77 55.78 5.00 286.31 2709.14
   02:52:23.862.24-Feb-2020 3375.51 4203.36 55.78 5.00 286.51 2709.14
   02:52:24.062.24-Feb-2020 3375.51 4203.02 55.78 5.00 286.71 2709.14
   02:52:24.262.24-Feb-2020 3375.51 4203.19 55.78 5.00 286.91 2709.14
   02:52:24.462.24-Feb-2020 3375.51 4203.15 55.78 5.00 287.11 2709.14
   02:52:24.662.24-Feb-2020 3375.51 4203.15 55.78 5.00 287.31 2709.14
   02:52:24.862.24-Feb-2020 3375.51 4203.74 55.78 5.00 287.52 2709.14
   02:52:25.063.24-Feb-2020 3375.51 4203.52 55.78 5.00 287.72 2709.14
   02:52:25.263.24-Feb-2020 3375.51 4203.24 55.78 5.00 287.92 2709.14
   02:52:25.463.24-Feb-2020 3375.51 4203.37 55.78 5.00 288.12 2709.14
   02:52:25.663.24-Feb-2020 3375.51 4203.37 55.78 5.00 288.32 2709.14
   02:52:25.863.24-Feb-2020 3375.51 4203.40 55.78 5.00 288.52 2709.14
   02:52:26.063.24-Feb-2020 3375.51 4203.44 55.78 5.00 288.72 2709.14
   02:52:26.263.24-Feb-2020 3375.51 4203.42 55.78 5.00 288.92 2709.14
   02:52:26.463.24-Feb-2020 3375.51 4203.47 55.78 5.00 289.12 2709.14
   02:52:26.663.24-Feb-2020 3375.51 4203.47 55.78 5.00 289.32 2709.14
   02:52:26.863.24-Feb-2020 3375.51 4203.48 55.78 5.00 289.52 2709.14
   02:52:27.063.24-Feb-2020 3375.51 4203.50 55.78 5.00 289.72 2709.14
   02:52:27.263.24-Feb-2020 3375.51 4203.52 55.78 5.00 289.92 2709.14
   02:52:27.463.24-Feb-2020 3375.51 4203.53 55.78 5.00 290.12 2709.14
   02:52:27.664.24-Feb-2020 3375.51 4203.53 55.78 5.00 290.32 2709.14
   02:52:27.864.24-Feb-2020 3375.51 4203.06 55.78 5.00 290.52 2709.14
   02:52:28.064.24-Feb-2020 3375.51 4203.99 55.78 5.00 290.72 2709.14
   02:52:28.264.24-Feb-2020 3375.51 4203.52 55.78 5.00 290.92 2709.14
   02:52:28.464.24-Feb-2020 3375.51 4203.58 55.78 5.00 291.12 2709.14
   02:52:28.664.24-Feb-2020 3375.51 4203.58 55.78 5.00 291.32 2709.14
   02:52:28.864.24-Feb-2020 3375.51 4203.50 55.78 5.00 291.52 2709.14
   02:52:29.064.24-Feb-2020 3375.51 4203.50 55.78 5.00 291.72 2709.14
   02:52:29.264.24-Feb-2020 3375.51 4203.55 55.78 5.00 291.92 2709.14
   02:52:29.464.24-Feb-2020 3375.51 4203.57 55.78 5.00 292.12 2709.14
   02:52:29.664.24-Feb-2020 3375.51 4203.57 55.78 5.00 292.32 2709.14
   02:52:29.864.24-Feb-2020 3375.51 4203.58 55.78 5.00 292.52 2709.14
   02:52:30.065.24-Feb-2020 3375.51 4203.49 55.78 5.00 292.72 2709.14
   02:52:30.265.24-Feb-2020 3375.51 4203.54 55.78 5.00 292.92 2709.14
   02:52:30.465.24-Feb-2020 3375.51 4203.58 55.78 5.00 293.12 2709.14
   02:52:30.665.24-Feb-2020 3375.51 4203.58 55.78 5.00 293.32 2709.14
   02:52:30.865.24-Feb-2020 3375.51 4203.58 55.78 5.00 293.52 2709.14
   02:52:31.065.24-Feb-2020 3375.51 4203.51 55.78 5.00 293.72 2709.14
   02:52:31.265.24-Feb-2020 3375.51 4203.60 55.78 5.00 293.92 2709.14
   02:52:31.465.24-Feb-2020 3375.51 4203.69 55.78 5.00 294.12 2709.14
   02:52:31.665.24-Feb-2020 3375.51 4203.69 55.78 5.00 294.32 2709.14
   02:52:31.865.24-Feb-2020 3375.51 4203.56 55.78 5.00 294.52 2709.14
   02:52:32.065.24-Feb-2020 3375.51 4203.57 55.78 5.00 294.72 2709.14
   02:52:32.265.24-Feb-2020 3375.51 4203.56 55.78 5.00 294.92 2709.14
   02:52:32.465.24-Feb-2020 3375.51 4203.55 55.78 5.00 295.12 2709.14
   02:52:32.666.24-Feb-2020 3375.51 4203.55 55.78 5.00 295.32 2709.14
   02:52:32.866.24-Feb-2020 3375.51 4203.74 55.78 5.00 295.52 2709.14
   02:52:33.066.24-Feb-2020 3375.51 4203.53 55.78 5.00 295.72 2709.14
   02:52:33.266.24-Feb-2020 3375.51 4203.17 55.78 5.00 295.92 2709.14
   02:52:33.466.24-Feb-2020 3375.51 4204.11 55.78 5.00 296.12 2709.14
   02:52:33.666.24-Feb-2020 3375.51 4204.11 55.78 5.00 296.32 2709.14
   02:52:33.866.24-Feb-2020 3375.51 4203.67 55.78 5.00 296.52 2709.14
   02:52:34.066.24-Feb-2020 3375.51 4203.64 55.78 5.00 296.72 2709.14
   02:52:34.266.24-Feb-2020 3375.51 4203.54 55.78 5.00 296.92 2709.14
   02:52:34.466.24-Feb-2020 3375.51 4203.19 55.78 5.00 297.12 2709.14
   02:52:34.666.24-Feb-2020 3375.51 4203.19 55.78 5.00 297.32 2709.14
   02:52:34.866.24-Feb-2020 3375.51 4203.56 55.78 5.00 297.52 2709.14
   02:52:35.067.24-Feb-2020 3375.51 4203.69 55.78 5.00 297.72 2709.14
   02:52:35.267.24-Feb-2020 3375.51 4203.60 55.78 5.00 297.92 2709.14
   02:52:35.467.24-Feb-2020 3375.51 4203.57 55.78 5.00 298.12 2709.14
   02:52:35.667.24-Feb-2020 3375.51 4203.57 55.78 5.00 298.32 2709.14
   02:52:35.867.24-Feb-2020 3375.51 4203.61 55.78 5.00 298.52 2709.14
   02:52:36.067.24-Feb-2020 3375.51 4203.59 55.78 5.00 298.72 2709.14
   02:52:36.267.24-Feb-2020 3375.51 4203.60 55.78 5.00 298.92 2709.14
