~Version Information
 VERS.                  2.0:   CWLS log ASCII Standard -VERSION 2.0
 WRAP.                   NO:   One line per depth step
~Well Information Block
#MNEM.UNIT     VALUE/NAME     DESCRIPTION
#---------     -----------    ---------------------------
 STRT.S             02:47:37 24-Feb-20: START TIME 02:47:37 24-Feb-20
 STOP.S             02:54:57 24-Feb-20: STOP TIME  02:54:57 24-Feb-20
 STEP.S                   0.00: STEP TIME
 NULL.                 -999.25: NULL VALUE
 JOBN.        AZ-XX-0905059384:  JOB TICKET NUMB
 PDAT.          Mean Sea Level:  PERMANENT DATUM
 UNIT.                     N/A:  LOGGING EQUIPMENT ID
 DCON.         Sperry Drilling:  DIRECTNL CONTR
 DOE .                     N/A:  DOE NUMBER
 RIG .             West Chirag:  RIG NAME
 WELL.                     J22:  WELL NAME
 MWDS.                    Baku:  MWD SHOP
 SRVC.     TURAN Drilling & Engineering:  CONTRACTOR
 FLD .                     ACG:  FIELD NAME
 CTRY.              Azerbaijan:  COUNTRY NAME
 PROV.                    Baku:  PROVINCE
 STAT.                    Baku:  STATE NAME
 REGN.                   EESSA:  REGION
 BASE.              Azerbaijan:  LOGGING EQUIPMENT BASE LOCATION
 UWI .                     N/A:  UNIQUE WELL IDENTIFIER
 API .                     N/A:  API NUMBER
 COMP.     BP Exploration (Caspian Sea) Ltd.:  COMPANY
 WTYP.                Deviated:  WELL TYPE
 MDS .        Operator Entered:  MAG DATA SOURCE
 SON .        AZ-XX-0905059384:  JOB NUMBER
 FTOP.          Formation Tops:  FORM TOPS DESC
 ILTD.               Lithology:  INTERP LTH DESC
 SVYD.                  Survey:  SURVEY DESC
 DMOD.             Drill Model:  DRILL MOD DESC
 HPTY.       Minimum Curvature:  HOLE POS TYPE
 NREF.                    Grid:  NORTH REFERENCE
 SPUD.               09-Jan-20:  SPUD DATE
 DATE.      14.04.48 07-Feb-20:  END TIME
 STIM.      07.00.00 09-Jan-20:  START TIME
 DMF .             Drill Floor:  DRILL MEAS FROM
 DFST.                        :  DIST FSL TEXT
 DFWT.                        :  DIST FWL TEXT
 CNTY.                        :  COUNTY
 LOC .                        :  LOCATION
 LMF .             Drill Floor:  LOG MEASURED FROM
 DEP .m                   0.00:  DEPTH
 VSNS.m                  10.28:  VERT SEC N/S
 VSEW.m                  -6.24:  VERT SEC E/W
 AGAP.m                  43.00:  AIR GAP
 APD .m                  43.00:  DEPTH ABOVE PD
 WDMS.m                 169.80:  WD ELEV
 EGL .m                   0.00:  GROUND ELEVATION
 EPD .m                   0.00:  ELEVATION
 AZTC.deg                 6.27:  AZM TOTAL CORR
 GRDC.deg                 0.15:  GRID CORRECTION
 MDEC.deg                 6.42:  MAGNETIC DECL
 MDIP.deg                59.56:  MAGNETIC DIP
 MFLD.nT              50277.00:  MAGNETIC FIELD
 GVFD.g                   1.00:  GRAVITY FIELD
 VSDR.deg               148.53:  VERT SEC DIRECT
 TDD .m                3473.01:  TOTAL DEPTH (DRILLER)
 SDEP.m                 364.00:  START DEPTH
 DFSL.m                   0.00:  DISTANCE FSL
 DFWL.m                   0.00:  DISTANCE FWL
 UTMY.m             4443793.85:  UTM Y
 UTMX.m              519005.06:  UTM X
 WHEW.m                  -6.24:  WELL HEAD E/W
 WHNS.m                  10.28:  WELL HEAD N/S
 LONG.deg                51.22:  LONGITUDE
 LATI.deg                40.13:  LATITUDE
 TVDS.m                  43.00:  TVDSS CORRECTN
 EKB .m                   0.00:  KB ELEVATION
 EDF .m                  43.00:  DF ELEVATION
 TDL .m                 254.00:  TOTAL DEPTH (LOGGER)
 MAGU.                 1850021:  MAGUTM CHECKSUM
 VSC .                       0:  VS TO CLOSURE
~Parameter Information Block
#MNEM.UNIT       Value        Description
#---------     -----------    ---------------------------
 AV  .mps                 0.50:  Ann Velocity 
 AVMX.mps                 1.40:  Max Ann Veloc 
 AZIF.deg               144.94:  Azm, Final 
 BHAT.        Rotary Steerable:  BHA Type 
 BROT.°/30m               0.23:  Build Rotating 
 BS  .in                  8.50:  Bit Size 
 BTPL.psig              264.00:  Bit Press Loss 
 CABU.                     Yes:  Customer Abuse 
 COMM.                     D
_:  Run Comments 1 
 TCS .hr                 87.30:  Time Ciculation Ended 
 CV  .mps                 2.45:  Crit Velocity 
 CVMX.mps                 2.74:  Max Crit Veloc 
 DD1 .             Aziz Aliyev:  Direct Drillr 1 
 DDSV.               Geo-Pilot:  DD Service 
 DEFF.%                 100.00:  % Det Eff 
 DLRX.°/30m               1.22:  Dogleg Rot Max 
 DLSO.°/30m               0.52:  Dogleg Oriented 
 DLSX.°/30m               1.22:  Dogleg Str Max 
 DRET.      12.59.00 23-Feb-20:  Drill End Time 
 DRST.      09.44.00 18-Feb-20:  Drill Start Tim 
 DTIM.hr                 23.03:  Time Drilling 
 EDEP.m                3473.01:  End Depth 
 ENG1.         Almaz Almadatov:  Engineer 1 
 ENG2.         Dair Mahammadov:  Engineer 2 
 ENG3.          Nazrin Asgarli:  Engineer 3 
 ETIM.      10.33.36 26-Feb-20:  End Time 
 FLOI.gpm               480.00:  Flow In 
 FLON.gpm               300.00:  Flow In Min 
 FLOS.cptm                1.00:  Fluid Loss 
 FLOX.gpm               550.00:  Flow In Max 
 HFLO.                      No:  High Flow 
 HPRE.                      No:  High Pressure 
 HTEM.                      No:  High Temp 
 HYDO.m                   1.80:  Hydro Offset 
 IFIN.deg                74.42:  Inc, Final 
 IMAX.deg                76.14:  Inc Max 
 IMIN.deg                74.42:  Inc Min 
 IMND.m                3462.72:  Inc Min Depth 
 IMXD.m                3235.69:  Inc Max Depth 
 JARR.                      No:  Jarring 
 LETM.      12.59.00 23-Feb-20:  Log End Time 
 LOST.hr                     0:  Lost Rig Time 
 LSTM.      09.44.00 18-Feb-20:  Log Start Time 
 MDCL.ppm             45000.00:  Mud Chlorides 
 MDES.     Inversion Oil/Synthetic:  Mud Desc 
 DFD .sg                  1.38:  Mud Density 
 MDMN.sg                  1.34:  Dens Mud Min 
 MDMX.sg                  1.49:  Dens Mud Max 
 MOIL.                      67:  Run Mud Oil % 
 MOWR.                   67:33:  Run Mud OWR 
 MSND.                    0.12:  Run Mud Sand % 
 MSOL.                      22:  Run Mud Solids% 
 DFV .spqt               81.00:  Mud Viscosity 
 MWOD.in                  6.75:  MWD Tool OD 
 MWSI.                      No:  Serv Intrp, MWD 
 OTIM.hr                231.44:  Time Operating 
 PCON.          Wear / Scratch:  Pad Condition 
 PMAX.psia             3400.00:  Press Op, Max 
 PV  .cP                 55.00:  Mud PV 
 RUN .                     800:  Run Number 
 ROPA.m/hr               12.00:  ROP Avg 
 ROPN.m/hr                5.00:  ROP Min 
 ROPX.m/hr               28.00:  ROP Max 
 RPMA.rpm               120.00:  RPM Surface Avg 
 RPMN.rpm                40.00:  RPM Surface Min 
 RPMX.rpm               130.00:  RPM Surface Max 
 RRUN.                    0800:  Rig Run Number 
 RTIM.hr                 45.00:  Time Reaming 
 SAZI.deg               145.38:  Azm, Start 
 SDEP.m                3219.01:  Start Depth 
 SIDD.                      No:  Serv Intrp, DD 
 SINC.deg                75.11:  Inc, Start 
 SPPA.psig             2400.00:  SPP Avg 
 SPPN.psig             2320.00:  SPP Min 
 SPPX.psig             3200.00:  SPP Max 
 STIM.      15.15.00 17-Feb-20:  Start Time 
 SVCS.                 DD, MWD:  Services 
 SVER.                    9.20:  Sperry Version 
 TDAT.m                 254.00:  Tot Depth Attmp 
 TDDF.                      No:  Trip for DD 
 TDLG.m                 254.00:  Tot Depth Loggd 
 TFF .                      No:  Trip for Fail 
 TQAA.f-kp               13.00:  Torque Abs Avg 
 TQAN.f-kp                7.00:  Torque Abs Min 
 TQAX.f-kp               15.00:  Torque Abs Max 
 TRRT.°/30m               0.21:  Turn Rotating 
 MRT .                  EWR-M5:  Maximum Recorded Temperature 
 TTMX.degC               64.00:  Max Tool Temp 
 VS01.                90586516:  Virtual Str1 SN 
 VS02.                90513691:  Virtual Str2 SN 
 VS03.                90586523:  Virtual Str3 SN 
 VS04.                90586520:  Virtual Str4 SN 
 VS05.                90590507:  Virtual Str5 SN 
 WBMN.klb                12.00:  WOB Min 
 WITN.           Rufat Babayev:  Customer Rep 2 
 WITN.         Alistair Sprott:  Customer Rep 
 WOBA.klb                18.00:  WOB Avg 
 WOBX.klb                30.00:  WOB Max 
 YP  .lhf2               41.00:  Yield Point 
~Curve Information Block
#MNEM.UNIT                 API CODE     Curve Description
#---------               -----------    ---------------------------
 TIME.HHMMSS            00 000 000 000:  GT Time & Date
 GTDEPTH.m              00 000 000 000:  GT Depth
 GTPQH.psia             00 000 000 000:  GT HR Quartz Pressure
 GTTQ.degC              00 000 000 000:  GT Quartz Temperature
 GTTN.NONE              00 000 000 000:  GT Test Number
 GTET.sec               00 000 000 000:  GT Elapsed Test Time
 GTTVD.m                00 000 000 000:  GT True Vertical Depth
#Other Information
#
#WARRANTY: Halliburton will use its best efforts to furnish customers with 
#accurate information and interpretations that are part of, and incident to, the services 
#provided.  However, Halliburton cannot and does not warrant the accuracy 
#or correctness of such information and interpretations.  Under no circumstances should any 
#such information or interpretation be relied upon as the sole basis for any drilling, 
#completion, production, or financial decision or any procedure involving any risk to the 
#safety of any drilling venture, drilling rig or its crew or any other third party.  The 
#Customer has full responsibility for all drilling, completion and production operation.  
#Halliburton makes no representations or warranties, either expressed or 
#implied, including, but not limited to, the implied warranties of merchantability or fitness 
#for a particular purpose, with respect to the services rendered.  In no event will 
#Halliburton be liable for failure to obtain any particular results or for 
#any damages, including, but not limited to, indirect, special or consequential damages, 
#resulting from the use of any information or interpretation provided by Halliburton.
#
~A           TIME           GTDEPTH  GTPQH  GTTQ  GTTN  GTET   GTTVD  
# ...
   02:54:08.504.24-Feb-2020 3375.51 5710.45 55.76 5.00 391.16 2709.14
   02:54:08.704.24-Feb-2020 3375.51 5709.02 55.76 5.00 391.36 2709.14
   02:54:08.904.24-Feb-2020 3375.51 5709.94 55.76 5.00 391.56 2709.14
   02:54:09.104.24-Feb-2020 3375.51 5711.07 55.76 5.00 391.76 2709.14
   02:54:09.304.24-Feb-2020 3375.51 5709.48 55.76 5.00 391.96 2709.14
   02:54:09.504.24-Feb-2020 3375.51 5711.63 55.76 5.00 392.16 2709.14
   02:54:09.704.24-Feb-2020 3375.51 5711.63 55.76 5.00 392.36 2709.14
   02:54:09.904.24-Feb-2020 3375.51 5710.36 55.76 5.00 392.56 2709.14
   02:54:10.105.24-Feb-2020 3375.51 5712.00 55.76 5.00 392.76 2709.14
   02:54:10.305.24-Feb-2020 3375.51 5709.40 55.76 5.00 392.96 2709.14
   02:54:10.505.24-Feb-2020 3375.51 5711.09 55.76 5.00 393.16 2709.14
   02:54:10.705.24-Feb-2020 3375.51 5711.09 55.76 5.00 393.36 2709.14
   02:54:10.905.24-Feb-2020 3375.51 5709.67 55.76 5.00 393.56 2709.14
   02:54:11.105.24-Feb-2020 3375.51 5710.24 55.76 5.00 393.76 2709.14
   02:54:11.305.24-Feb-2020 3375.51 5709.30 55.76 5.00 393.96 2709.14
   02:54:11.505.24-Feb-2020 3375.51 5709.36 55.76 5.00 394.16 2709.14
   02:54:11.705.24-Feb-2020 3375.51 5709.36 55.76 5.00 394.36 2709.14
   02:54:11.905.24-Feb-2020 3375.51 5709.39 55.76 5.00 394.56 2709.14
   02:54:12.105.24-Feb-2020 3375.51 5709.39 55.76 5.00 394.76 2709.14
   02:54:12.305.24-Feb-2020 3375.51 5709.38 55.76 5.00 394.96 2709.14
   02:54:12.506.24-Feb-2020 3375.51 5709.36 55.76 5.00 395.16 2709.14
   02:54:12.706.24-Feb-2020 3375.51 5709.36 55.76 5.00 395.36 2709.14
   02:54:12.906.24-Feb-2020 3375.51 5710.49 55.76 5.00 395.56 2709.14
   02:54:13.106.24-Feb-2020 3375.51 5710.75 55.76 5.00 395.76 2709.14
   02:54:13.306.24-Feb-2020 3375.51 5711.96 55.76 5.00 395.96 2709.14
   02:54:13.506.24-Feb-2020 3375.51 5708.88 55.76 5.00 396.16 2709.14
   02:54:13.706.24-Feb-2020 3375.51 5708.88 55.76 5.00 396.36 2709.14
   02:54:13.906.24-Feb-2020 3375.51 5709.53 55.76 5.00 396.56 2709.14
   02:54:14.106.24-Feb-2020 3375.51 5710.06 55.76 5.00 396.76 2709.14
   02:54:14.306.24-Feb-2020 3375.51 5710.16 55.76 5.00 396.96 2709.14
   02:54:14.506.24-Feb-2020 3375.51 5708.81 55.76 5.00 397.16 2709.14
   02:54:14.706.24-Feb-2020 3375.51 5708.81 55.76 5.00 397.36 2709.14
   02:54:14.906.24-Feb-2020 3375.51 5708.80 55.76 5.00 397.56 2709.14
   02:54:15.107.24-Feb-2020 3375.51 5709.52 55.76 5.00 397.76 2709.14
   02:54:15.307.24-Feb-2020 3375.51 5709.95 55.76 5.00 397.96 2709.14
   02:54:15.507.24-Feb-2020 3375.51 5709.56 55.76 5.00 398.16 2709.14
   02:54:15.707.24-Feb-2020 3375.51 5709.56 55.76 5.00 398.36 2709.14
   02:54:15.907.24-Feb-2020 3375.51 5708.78 55.76 5.00 398.56 2709.14
   02:54:16.107.24-Feb-2020 3375.51 5709.73 55.76 5.00 398.76 2709.14
   02:54:16.307.24-Feb-2020 3375.51 5710.12 55.76 5.00 398.96 2709.14
   02:54:16.507.24-Feb-2020 3375.51 5709.31 55.76 5.00 399.16 2709.14
   02:54:16.707.24-Feb-2020 3375.51 5709.31 55.76 5.00 399.36 2709.14
   02:54:16.907.24-Feb-2020 3375.51 5708.77 55.76 5.00 399.56 2709.14
   02:54:17.107.24-Feb-2020 3375.51 5710.52 55.76 5.00 399.76 2709.14
   02:54:17.307.24-Feb-2020 3375.51 5708.81 55.76 5.00 399.96 2709.14
   02:54:17.508.24-Feb-2020 3375.51 5710.87 55.76 5.00 400.16 2709.14
   02:54:17.708.24-Feb-2020 3375.51 5710.87 55.76 5.00 400.36 2709.14
   02:54:17.908.24-Feb-2020 3375.51 5710.43 55.76 5.00 400.56 2709.14
   02:54:18.108.24-Feb-2020 3375.51 5709.59 55.76 5.00 400.76 2709.14
   02:54:18.308.24-Feb-2020 3375.51 5709.14 55.76 5.00 400.96 2709.14
   02:54:18.508.24-Feb-2020 3375.51 5709.73 55.76 5.00 401.16 2709.14
   02:54:18.708.24-Feb-2020 3375.51 5709.73 55.76 5.00 401.36 2709.14
   02:54:18.908.24-Feb-2020 3375.51 5709.19 55.76 5.00 401.56 2709.14
   02:54:19.108.24-Feb-2020 3375.51 5711.29 55.76 5.00 401.76 2709.14
   02:54:19.308.24-Feb-2020 3375.51 5710.02 55.76 5.00 401.96 2709.14
   02:54:19.508.24-Feb-2020 3375.51 5711.91 55.76 5.00 402.16 2709.14
   02:54:19.708.24-Feb-2020 3375.51 5711.91 55.76 5.00 402.36 2709.14
   02:54:19.908.24-Feb-2020 3375.51 5710.70 55.76 5.00 402.56 2709.14
   02:54:20.109.24-Feb-2020 3375.51 5710.06 55.76 5.00 402.76 2709.14
   02:54:20.309.24-Feb-2020 3375.51 5709.16 55.76 5.00 402.96 2709.14
   02:54:20.509.24-Feb-2020 3375.51 5710.10 55.76 5.00 403.16 2709.14
   02:54:20.709.24-Feb-2020 3375.51 5710.10 55.76 5.00 403.36 2709.14
   02:54:20.909.24-Feb-2020 3375.51 5709.08 55.76 5.00 403.56 2709.14
   02:54:21.109.24-Feb-2020 3375.51 5709.17 55.76 5.00 403.76 2709.14
   02:54:21.309.24-Feb-2020 3375.51 5709.16 55.76 5.00 403.96 2709.14
   02:54:21.509.24-Feb-2020 3375.51 5709.17 55.76 5.00 404.16 2709.14
   02:54:21.709.24-Feb-2020 3375.51 5709.17 55.76 5.00 404.36 2709.14
   02:54:21.909.24-Feb-2020 3375.51 5709.31 55.76 5.00 404.56 2709.14
   02:54:22.109.24-Feb-2020 3375.51 5709.19 55.76 5.00 404.76 2709.14
   02:54:22.309.24-Feb-2020 3375.51 5709.54 55.76 5.00 404.96 2709.14
   02:54:22.510.24-Feb-2020 3375.51 5710.15 55.76 5.00 405.16 2709.14
   02:54:22.710.24-Feb-2020 3375.51 5710.15 55.76 5.00 405.36 2709.14
   02:54:22.910.24-Feb-2020 3375.51 5709.79 55.76 5.00 405.56 2709.14
   02:54:23.110.24-Feb-2020 3375.51 5710.94 55.76 5.00 405.76 2709.14
   02:54:23.310.24-Feb-2020 3375.51 5709.58 55.76 5.00 405.96 2709.14
   02:54:23.510.24-Feb-2020 3375.51 5709.85 55.76 5.00 406.16 2709.14
   02:54:23.710.24-Feb-2020 3375.51 5709.85 55.76 5.00 406.36 2709.14
   02:54:23.910.24-Feb-2020 3375.51 5709.21 55.76 5.00 406.56 2709.14
   02:54:24.110.24-Feb-2020 3375.51 5708.57 55.76 5.00 406.76 2709.14
   02:54:24.310.24-Feb-2020 3375.51 5708.39 55.76 5.00 406.96 2709.14
   02:54:24.510.24-Feb-2020 3375.51 5708.91 55.76 5.00 407.16 2709.14
   02:54:24.710.24-Feb-2020 3375.51 5708.91 55.76 5.00 407.36 2709.14
   02:54:24.910.24-Feb-2020 3375.51 5709.87 55.75 5.00 407.56 2709.14
   02:54:25.111.24-Feb-2020 3375.51 5708.72 55.75 5.00 407.76 2709.14
   02:54:25.311.24-Feb-2020 3375.51 5708.18 55.75 5.00 407.96 2709.14
   02:54:25.511.24-Feb-2020 3375.51 5709.37 55.75 5.00 408.16 2709.14
   02:54:25.711.24-Feb-2020 3375.51 5709.37 55.75 5.00 408.36 2709.14
   02:54:25.911.24-Feb-2020 3375.51 5709.52 55.75 5.00 408.56 2709.14
   02:54:26.111.24-Feb-2020 3375.51 5710.52 55.75 5.00 408.76 2709.14
   02:54:26.311.24-Feb-2020 3375.51 5708.86 55.75 5.00 408.96 2709.14
   02:54:26.511.24-Feb-2020 3375.51 5710.38 55.75 5.00 409.16 2709.14
   02:54:26.711.24-Feb-2020 3375.51 5710.38 55.75 5.00 409.36 2709.14
   02:54:26.911.24-Feb-2020 3375.51 5710.88 55.75 5.00 409.56 2709.14
   02:54:27.111.24-Feb-2020 3375.51 5709.28 55.75 5.00 409.76 2709.14
   02:54:27.311.24-Feb-2020 3375.51 5710.46 55.75 5.00 409.96 2709.14
   02:54:27.512.24-Feb-2020 3375.51 5709.70 55.75 5.00 410.16 2709.14
   02:54:27.712.24-Feb-2020 3375.51 5709.70 55.75 5.00 410.36 2709.14
   02:54:27.912.24-Feb-2020 3375.51 5709.92 55.75 5.00 410.56 2709.14
   02:54:28.112.24-Feb-2020 3375.51 5711.22 55.75 5.00 410.76 2709.14
   02:54:28.312.24-Feb-2020 3375.51 5709.51 55.75 5.00 410.96 2709.14
   02:54:28.512.24-Feb-2020 3375.51 5711.14 55.75 5.00 411.16 2709.14
   02:54:28.712.24-Feb-2020 3375.51 5711.14 55.75 5.00 411.36 2709.14
   02:54:28.912.24-Feb-2020 3375.51 5710.68 55.75 5.00 411.56 2709.14
   02:54:29.112.24-Feb-2020 3375.51 5712.06 55.75 5.00 411.76 2709.14
   02:54:29.312.24-Feb-2020 3375.51 5709.37 55.75 5.00 411.96 2709.14
   02:54:29.512.24-Feb-2020 3375.51 5711.02 55.75 5.00 412.16 2709.14
   02:54:29.712.24-Feb-2020 3375.51 5711.02 55.75 5.00 412.37 2709.14
   02:54:29.912.24-Feb-2020 3375.51 5709.75 55.75 5.00 412.57 2709.14
   02:54:30.113.24-Feb-2020 3375.51 5710.35 55.75 5.00 412.77 2709.14
   02:54:30.313.24-Feb-2020 3375.51 5709.36 55.75 5.00 412.97 2709.14
   02:54:30.513.24-Feb-2020 3375.51 5709.59 55.75 5.00 413.17 2709.14
   02:54:30.713.24-Feb-2020 3375.51 5709.59 55.75 5.00 413.37 2709.14
   02:54:30.913.24-Feb-2020 3375.51 5709.32 55.75 5.00 413.57 2709.14
   02:54:31.113.24-Feb-2020 3375.51 5709.65 55.75 5.00 413.77 2709.14
   02:54:31.313.24-Feb-2020 3375.51 5710.30 55.75 5.00 413.97 2709.14
