~Version Information
 VERS.                  2.0:   CWLS log ASCII Standard -VERSION 2.0
 WRAP.                   NO:   One line per depth step
~Well Information Block
#MNEM.UNIT     VALUE/NAME     DESCRIPTION
#---------     -----------    ---------------------------
 STRT.S             03:19:12 24-Feb-20: START TIME 03:19:12 24-Feb-20
 STOP.S             03:27:48 24-Feb-20: STOP TIME  03:27:48 24-Feb-20
 STEP.S                   0.00: STEP TIME
 NULL.                 -999.25: NULL VALUE
 JOBN.        AZ-XX-0905059384:  JOB TICKET NUMB
 PDAT.          Mean Sea Level:  PERMANENT DATUM
 UNIT.                     N/A:  LOGGING EQUIPMENT ID
 DCON.         Sperry Drilling:  DIRECTNL CONTR
 DOE .                     N/A:  DOE NUMBER
 RIG .             West Chirag:  RIG NAME
 WELL.                     J22:  WELL NAME
 MWDS.                    Baku:  MWD SHOP
 SRVC.     TURAN Drilling & Engineering:  CONTRACTOR
 FLD .                     ACG:  FIELD NAME
 CTRY.              Azerbaijan:  COUNTRY NAME
 PROV.                    Baku:  PROVINCE
 STAT.                    Baku:  STATE NAME
 REGN.                   EESSA:  REGION
 BASE.              Azerbaijan:  LOGGING EQUIPMENT BASE LOCATION
 UWI .                     N/A:  UNIQUE WELL IDENTIFIER
 API .                     N/A:  API NUMBER
 COMP.     BP Exploration (Caspian Sea) Ltd.:  COMPANY
 WTYP.                Deviated:  WELL TYPE
 MDS .        Operator Entered:  MAG DATA SOURCE
 SON .        AZ-XX-0905059384:  JOB NUMBER
 FTOP.          Formation Tops:  FORM TOPS DESC
 ILTD.               Lithology:  INTERP LTH DESC
 SVYD.                  Survey:  SURVEY DESC
 DMOD.             Drill Model:  DRILL MOD DESC
 HPTY.       Minimum Curvature:  HOLE POS TYPE
 NREF.                    Grid:  NORTH REFERENCE
 SPUD.               09-Jan-20:  SPUD DATE
 DATE.      14.04.48 07-Feb-20:  END TIME
 STIM.      07.00.00 09-Jan-20:  START TIME
 DMF .             Drill Floor:  DRILL MEAS FROM
 DFST.                        :  DIST FSL TEXT
 DFWT.                        :  DIST FWL TEXT
 CNTY.                        :  COUNTY
 LOC .                        :  LOCATION
 LMF .             Drill Floor:  LOG MEASURED FROM
 DEP .m                   0.00:  DEPTH
 VSNS.m                  10.28:  VERT SEC N/S
 VSEW.m                  -6.24:  VERT SEC E/W
 AGAP.m                  43.00:  AIR GAP
 APD .m                  43.00:  DEPTH ABOVE PD
 WDMS.m                 169.80:  WD ELEV
 EGL .m                   0.00:  GROUND ELEVATION
 EPD .m                   0.00:  ELEVATION
 AZTC.deg                 6.27:  AZM TOTAL CORR
 GRDC.deg                 0.15:  GRID CORRECTION
 MDEC.deg                 6.42:  MAGNETIC DECL
 MDIP.deg                59.56:  MAGNETIC DIP
 MFLD.nT              50277.00:  MAGNETIC FIELD
 GVFD.g                   1.00:  GRAVITY FIELD
 VSDR.deg               148.53:  VERT SEC DIRECT
 TDD .m                3473.01:  TOTAL DEPTH (DRILLER)
 SDEP.m                 364.00:  START DEPTH
 DFSL.m                   0.00:  DISTANCE FSL
 DFWL.m                   0.00:  DISTANCE FWL
 UTMY.m             4443793.85:  UTM Y
 UTMX.m              519005.06:  UTM X
 WHEW.m                  -6.24:  WELL HEAD E/W
 WHNS.m                  10.28:  WELL HEAD N/S
 LONG.deg                51.22:  LONGITUDE
 LATI.deg                40.13:  LATITUDE
 TVDS.m                  43.00:  TVDSS CORRECTN
 EKB .m                   0.00:  KB ELEVATION
 EDF .m                  43.00:  DF ELEVATION
 TDL .m                 254.00:  TOTAL DEPTH (LOGGER)
 MAGU.                 1850021:  MAGUTM CHECKSUM
 VSC .                       0:  VS TO CLOSURE
~Parameter Information Block
#MNEM.UNIT       Value        Description
#---------     -----------    ---------------------------
 AV  .mps                 0.50:  Ann Velocity 
 AVMX.mps                 1.40:  Max Ann Veloc 
 AZIF.deg               144.94:  Azm, Final 
 BHAT.        Rotary Steerable:  BHA Type 
 BROT.°/30m               0.23:  Build Rotating 
 BS  .in                  8.50:  Bit Size 
 BTPL.psig              264.00:  Bit Press Loss 
 CABU.                     Yes:  Customer Abuse 
 COMM.                     ´á{:  Run Comments 1 
 TCS .hr                 87.30:  Time Ciculation Ended 
 CV  .mps                 2.45:  Crit Velocity 
 CVMX.mps                 2.74:  Max Crit Veloc 
 DD1 .             Aziz Aliyev:  Direct Drillr 1 
 DDSV.               Geo-Pilot:  DD Service 
 DEFF.%                 100.00:  % Det Eff 
 DLRX.°/30m               1.22:  Dogleg Rot Max 
 DLSO.°/30m               0.52:  Dogleg Oriented 
 DLSX.°/30m               1.22:  Dogleg Str Max 
 DRET.      12.59.00 23-Feb-20:  Drill End Time 
 DRST.      09.44.00 18-Feb-20:  Drill Start Tim 
 DTIM.hr                 23.03:  Time Drilling 
 EDEP.m                3473.01:  End Depth 
 ENG1.         Almaz Almadatov:  Engineer 1 
 ENG2.         Dair Mahammadov:  Engineer 2 
 ENG3.          Nazrin Asgarli:  Engineer 3 
 ETIM.      10.33.36 26-Feb-20:  End Time 
 FLOI.gpm               480.00:  Flow In 
 FLON.gpm               300.00:  Flow In Min 
 FLOS.cptm                1.00:  Fluid Loss 
 FLOX.gpm               550.00:  Flow In Max 
 HFLO.                      No:  High Flow 
 HPRE.                      No:  High Pressure 
 HTEM.                      No:  High Temp 
 HYDO.m                   1.80:  Hydro Offset 
 IFIN.deg                74.42:  Inc, Final 
 IMAX.deg                76.14:  Inc Max 
 IMIN.deg                74.42:  Inc Min 
 IMND.m                3462.72:  Inc Min Depth 
 IMXD.m                3235.69:  Inc Max Depth 
 JARR.                      No:  Jarring 
 LETM.      12.59.00 23-Feb-20:  Log End Time 
 LOST.hr                     0:  Lost Rig Time 
 LSTM.      09.44.00 18-Feb-20:  Log Start Time 
 MDCL.ppm             45000.00:  Mud Chlorides 
 MDES.     Inversion Oil/Synthetic:  Mud Desc 
 DFD .sg                  1.38:  Mud Density 
 MDMN.sg                  1.34:  Dens Mud Min 
 MDMX.sg                  1.49:  Dens Mud Max 
 MOIL.                      67:  Run Mud Oil % 
 MOWR.                   67:33:  Run Mud OWR 
 MSND.                    0.12:  Run Mud Sand % 
 MSOL.                      22:  Run Mud Solids% 
 DFV .spqt               81.00:  Mud Viscosity 
 MWOD.in                  6.75:  MWD Tool OD 
 MWSI.                      No:  Serv Intrp, MWD 
 OTIM.hr                231.44:  Time Operating 
 PCON.          Wear / Scratch:  Pad Condition 
 PMAX.psia             3400.00:  Press Op, Max 
 PV  .cP                 55.00:  Mud PV 
 RUN .                     800:  Run Number 
 ROPA.m/hr               12.00:  ROP Avg 
 ROPN.m/hr                5.00:  ROP Min 
 ROPX.m/hr               28.00:  ROP Max 
 RPMA.rpm               120.00:  RPM Surface Avg 
 RPMN.rpm                40.00:  RPM Surface Min 
 RPMX.rpm               130.00:  RPM Surface Max 
 RRUN.                    0800:  Rig Run Number 
 RTIM.hr                 45.00:  Time Reaming 
 SAZI.deg               145.38:  Azm, Start 
 SDEP.m                3219.01:  Start Depth 
 SIDD.                      No:  Serv Intrp, DD 
 SINC.deg                75.11:  Inc, Start 
 SPPA.psig             2400.00:  SPP Avg 
 SPPN.psig             2320.00:  SPP Min 
 SPPX.psig             3200.00:  SPP Max 
 STIM.      15.15.00 17-Feb-20:  Start Time 
 SVCS.                 DD, MWD:  Services 
 SVER.                    9.20:  Sperry Version 
 TDAT.m                 254.00:  Tot Depth Attmp 
 TDDF.                      No:  Trip for DD 
 TDLG.m                 254.00:  Tot Depth Loggd 
 TFF .                      No:  Trip for Fail 
 TQAA.f-kp               13.00:  Torque Abs Avg 
 TQAN.f-kp                7.00:  Torque Abs Min 
 TQAX.f-kp               15.00:  Torque Abs Max 
 TRRT.°/30m               0.21:  Turn Rotating 
 MRT .                  EWR-M5:  Maximum Recorded Temperature 
 TTMX.degC               64.00:  Max Tool Temp 
 VS01.                90586516:  Virtual Str1 SN 
 VS02.                90513691:  Virtual Str2 SN 
 VS03.                90586523:  Virtual Str3 SN 
 VS04.                90586520:  Virtual Str4 SN 
 VS05.                90590507:  Virtual Str5 SN 
 WBMN.klb                12.00:  WOB Min 
 WITN.           Rufat Babayev:  Customer Rep 2 
 WITN.         Alistair Sprott:  Customer Rep 
 WOBA.klb                18.00:  WOB Avg 
 WOBX.klb                30.00:  WOB Max 
 YP  .lhf2               41.00:  Yield Point 
~Curve Information Block
#MNEM.UNIT                 API CODE     Curve Description
#---------               -----------    ---------------------------
 TIME.HHMMSS            00 000 000 000:  GT Time & Date
 GTDEPTH.m              00 000 000 000:  GT Depth
 GTPQH.psia             00 000 000 000:  GT HR Quartz Pressure
 GTTQ.degC              00 000 000 000:  GT Quartz Temperature
 GTTN.NONE              00 000 000 000:  GT Test Number
 GTET.sec               00 000 000 000:  GT Elapsed Test Time
 GTTVD.m                00 000 000 000:  GT True Vertical Depth
#Other Information
#
#WARRANTY: Halliburton will use its best efforts to furnish customers with 
#accurate information and interpretations that are part of, and incident to, the services 
#provided.  However, Halliburton cannot and does not warrant the accuracy 
#or correctness of such information and interpretations.  Under no circumstances should any 
#such information or interpretation be relied upon as the sole basis for any drilling, 
#completion, production, or financial decision or any procedure involving any risk to the 
#safety of any drilling venture, drilling rig or its crew or any other third party.  The 
#Customer has full responsibility for all drilling, completion and production operation.  
#Halliburton makes no representations or warranties, either expressed or 
#implied, including, but not limited to, the implied warranties of merchantability or fitness 
#for a particular purpose, with respect to the services rendered.  In no event will 
#Halliburton be liable for failure to obtain any particular results or for 
#any damages, including, but not limited to, indirect, special or consequential damages, 
#resulting from the use of any information or interpretation provided by Halliburton.
#
~A           TIME           GTDEPTH  GTPQH  GTTQ  GTTN  GTET   GTTVD  
# ...
   03:26:06.271.24-Feb-2020 3366.71 4429.05 55.04 6.00 414.17 2706.89
   03:26:06.471.24-Feb-2020 3366.71 4429.05 55.04 6.00 414.37 2706.89
   03:26:06.671.24-Feb-2020 3366.71 4428.97 55.04 6.00 414.57 2706.89
   03:26:06.872.24-Feb-2020 3366.71 4428.81 55.04 6.00 414.77 2706.89
   03:26:07.072.24-Feb-2020 3366.71 4428.88 55.04 6.00 414.97 2706.89
   03:26:07.272.24-Feb-2020 3366.71 4428.83 55.03 6.00 415.17 2706.89
   03:26:07.472.24-Feb-2020 3366.71 4428.83 55.03 6.00 415.37 2706.89
   03:26:07.672.24-Feb-2020 3366.71 4428.98 55.04 6.00 415.57 2706.89
   03:26:07.872.24-Feb-2020 3366.71 4428.98 55.03 6.00 415.77 2706.89
   03:26:08.072.24-Feb-2020 3366.71 4428.98 55.04 6.00 415.97 2706.89
   03:26:08.272.24-Feb-2020 3366.71 4427.91 55.03 6.00 416.17 2706.89
   03:26:08.472.24-Feb-2020 3366.71 4427.91 55.03 6.00 416.37 2706.89
   03:26:08.672.24-Feb-2020 3366.71 4429.51 55.03 6.00 416.57 2706.89
   03:26:08.872.24-Feb-2020 3366.71 4429.09 55.03 6.00 416.77 2706.89
   03:26:09.072.24-Feb-2020 3366.71 4428.11 55.03 6.00 416.97 2706.89
   03:26:09.273.24-Feb-2020 3366.71 4429.36 55.03 6.00 417.17 2706.89
   03:26:09.473.24-Feb-2020 3366.71 4429.36 55.03 6.00 417.37 2706.89
   03:26:09.673.24-Feb-2020 3366.71 4429.25 55.03 6.00 417.57 2706.89
   03:26:09.873.24-Feb-2020 3366.71 4429.18 55.03 6.00 417.77 2706.89
   03:26:10.073.24-Feb-2020 3366.71 4429.24 55.03 6.00 417.97 2706.89
   03:26:10.273.24-Feb-2020 3366.71 4428.24 55.03 6.00 418.17 2706.89
   03:26:10.473.24-Feb-2020 3366.71 4428.24 55.03 6.00 418.37 2706.89
   03:26:10.673.24-Feb-2020 3366.71 4429.87 55.03 6.00 418.57 2706.89
   03:26:10.873.24-Feb-2020 3366.71 4429.49 55.03 6.00 418.77 2706.89
   03:26:11.073.24-Feb-2020 3366.71 4429.40 55.03 6.00 418.97 2706.89
   03:26:11.273.24-Feb-2020 3366.71 4429.36 55.03 6.00 419.17 2706.89
   03:26:11.473.24-Feb-2020 3366.71 4429.36 55.03 6.00 419.37 2706.89
   03:26:11.673.24-Feb-2020 3366.71 4428.28 55.03 6.00 419.57 2706.89
   03:26:11.874.24-Feb-2020 3366.71 4429.47 55.03 6.00 419.77 2706.89
   03:26:12.074.24-Feb-2020 3366.71 4429.81 55.03 6.00 419.97 2706.89
   03:26:12.274.24-Feb-2020 3366.71 4429.33 55.03 6.00 420.17 2706.89
   03:26:12.474.24-Feb-2020 3366.71 4429.33 55.03 6.00 420.37 2706.89
   03:26:12.674.24-Feb-2020 3366.71 4429.34 55.03 6.00 420.57 2706.89
   03:26:12.874.24-Feb-2020 3366.71 4429.24 55.03 6.00 420.77 2706.89
   03:26:13.074.24-Feb-2020 3366.71 4429.17 55.03 6.00 420.97 2706.89
   03:26:13.274.24-Feb-2020 3366.71 4429.17 55.03 6.00 421.17 2706.89
   03:26:13.474.24-Feb-2020 3366.71 4429.17 55.03 6.00 421.37 2706.89
   03:26:13.674.24-Feb-2020 3366.71 4429.15 55.03 6.00 421.57 2706.89
   03:26:13.874.24-Feb-2020 3366.71 4429.17 55.03 6.00 421.77 2706.89
   03:26:14.074.24-Feb-2020 3366.71 4429.22 55.03 6.00 421.97 2706.89
   03:26:14.275.24-Feb-2020 3366.71 4429.23 55.03 6.00 422.17 2706.89
   03:26:14.475.24-Feb-2020 3366.71 4429.23 55.03 6.00 422.37 2706.89
   03:26:14.675.24-Feb-2020 3366.71 4429.09 55.03 6.00 422.57 2706.89
   03:26:14.875.24-Feb-2020 3366.71 4428.74 55.03 6.00 422.77 2706.89
   03:26:15.075.24-Feb-2020 3366.71 4429.61 55.03 6.00 422.97 2706.89
   03:26:15.275.24-Feb-2020 3366.71 4429.38 55.03 6.00 423.17 2706.89
   03:26:15.475.24-Feb-2020 3366.71 4429.38 55.03 6.00 423.37 2706.89
   03:26:15.675.24-Feb-2020 3366.71 4429.28 55.03 6.00 423.57 2706.89
   03:26:15.875.24-Feb-2020 3366.71 4429.15 55.03 6.00 423.77 2706.89
   03:26:16.075.24-Feb-2020 3366.71 4429.19 55.03 6.00 423.97 2706.89
   03:26:16.275.24-Feb-2020 3366.71 4429.25 55.03 6.00 424.17 2706.89
   03:26:16.475.24-Feb-2020 3366.71 4429.25 55.03 6.00 424.37 2706.89
   03:26:16.675.24-Feb-2020 3366.71 4429.01 55.03 6.00 424.57 2706.89
   03:26:16.876.24-Feb-2020 3366.71 4429.02 55.03 6.00 424.77 2706.89
   03:26:17.076.24-Feb-2020 3366.71 4429.06 55.03 6.00 424.97 2706.89
   03:26:17.276.24-Feb-2020 3366.71 4429.03 55.03 6.00 425.17 2706.89
   03:26:17.476.24-Feb-2020 3366.71 4429.03 55.03 6.00 425.37 2706.89
   03:26:17.676.24-Feb-2020 3366.71 4429.21 55.03 6.00 425.57 2706.89
   03:26:17.876.24-Feb-2020 3366.71 4429.21 55.03 6.00 425.77 2706.89
   03:26:18.076.24-Feb-2020 3366.71 4428.68 55.03 6.00 425.97 2706.89
   03:26:18.276.24-Feb-2020 3366.71 4429.04 55.03 6.00 426.17 2706.89
   03:26:18.476.24-Feb-2020 3366.71 4429.04 55.03 6.00 426.37 2706.89
   03:26:18.676.24-Feb-2020 3366.71 4429.28 55.03 6.00 426.57 2706.89
   03:26:18.876.24-Feb-2020 3366.71 4428.91 55.03 6.00 426.77 2706.89
   03:26:19.076.24-Feb-2020 3366.71 4429.17 55.03 6.00 426.97 2706.89
   03:26:19.277.24-Feb-2020 3366.71 4429.54 55.03 6.00 427.17 2706.89
   03:26:19.477.24-Feb-2020 3366.71 4429.54 55.03 6.00 427.37 2706.89
   03:26:19.677.24-Feb-2020 3366.71 4429.38 55.03 6.00 427.57 2706.89
   03:26:19.877.24-Feb-2020 3366.71 4429.35 55.03 6.00 427.77 2706.89
   03:26:20.077.24-Feb-2020 3366.71 4429.30 55.03 6.00 427.97 2706.89
   03:26:20.277.24-Feb-2020 3366.71 4428.80 55.03 6.00 428.17 2706.89
   03:26:20.477.24-Feb-2020 3366.71 4428.80 55.03 6.00 428.37 2706.89
   03:26:20.677.24-Feb-2020 3366.71 4429.56 55.03 6.00 428.57 2706.89
   03:26:20.877.24-Feb-2020 3366.71 4429.69 55.03 6.00 428.77 2706.89
   03:26:21.077.24-Feb-2020 3366.71 4429.53 55.03 6.00 428.97 2706.89
   03:26:21.277.24-Feb-2020 3366.71 4429.38 55.03 6.00 429.17 2706.89
   03:26:21.477.24-Feb-2020 3366.71 4429.38 55.03 6.00 429.37 2706.89
   03:26:21.677.24-Feb-2020 3366.71 4429.62 55.03 6.00 429.57 2706.89
   03:26:21.878.24-Feb-2020 3366.71 4430.00 55.03 6.00 429.77 2706.89
   03:26:22.078.24-Feb-2020 3366.71 4429.55 55.03 6.00 429.97 2706.89
   03:26:22.278.24-Feb-2020 3366.71 4429.46 55.03 6.00 430.17 2706.89
   03:26:22.478.24-Feb-2020 3366.71 4429.46 55.03 6.00 430.37 2706.89
   03:26:22.678.24-Feb-2020 3366.71 4429.40 55.03 6.00 430.57 2706.89
   03:26:22.878.24-Feb-2020 3366.71 4429.33 55.03 6.00 430.77 2706.89
   03:26:23.078.24-Feb-2020 3366.71 4429.29 55.03 6.00 430.97 2706.89
   03:26:23.278.24-Feb-2020 3366.71 4429.28 55.03 6.00 431.17 2706.89
   03:26:23.478.24-Feb-2020 3366.71 4429.28 55.03 6.00 431.37 2706.89
   03:26:23.678.24-Feb-2020 3366.71 4429.25 55.03 6.00 431.57 2706.89
   03:26:23.878.24-Feb-2020 3366.71 4429.32 55.03 6.00 431.77 2706.89
   03:26:24.078.24-Feb-2020 3366.71 4429.39 55.03 6.00 431.97 2706.89
   03:26:24.279.24-Feb-2020 3366.71 4429.37 55.03 6.00 432.17 2706.89
   03:26:24.479.24-Feb-2020 3366.71 4429.37 55.03 6.00 432.37 2706.89
   03:26:24.679.24-Feb-2020 3366.71 4428.86 55.03 6.00 432.57 2706.89
   03:26:24.879.24-Feb-2020 3366.71 4429.75 55.03 6.00 432.77 2706.89
   03:26:25.079.24-Feb-2020 3366.71 4429.51 55.03 6.00 432.97 2706.89
   03:26:25.279.24-Feb-2020 3366.71 4429.50 55.03 6.00 433.17 2706.89
   03:26:25.479.24-Feb-2020 3366.71 4429.50 55.03 6.00 433.37 2706.89
   03:26:25.679.24-Feb-2020 3366.71 4429.31 55.03 6.00 433.57 2706.89
   03:26:25.879.24-Feb-2020 3366.71 4429.32 55.03 6.00 433.77 2706.89
   03:26:26.079.24-Feb-2020 3366.71 4429.38 55.03 6.00 433.97 2706.89
   03:26:26.279.24-Feb-2020 3366.71 4429.35 55.03 6.00 434.17 2706.89
   03:26:26.479.24-Feb-2020 3366.71 4429.35 55.03 6.00 434.37 2706.89
   03:26:26.679.24-Feb-2020 3366.71 4429.13 55.03 6.00 434.57 2706.89
   03:26:26.880.24-Feb-2020 3366.71 4429.22 55.03 6.00 434.77 2706.89
   03:26:27.080.24-Feb-2020 3366.71 4429.22 55.03 6.00 434.97 2706.89
   03:26:27.280.24-Feb-2020 3366.71 4429.26 55.03 6.00 435.17 2706.89
   03:26:27.480.24-Feb-2020 3366.71 4429.26 55.03 6.00 435.37 2706.89
   03:26:27.680.24-Feb-2020 3366.71 4429.37 55.03 6.00 435.57 2706.89
   03:26:27.880.24-Feb-2020 3366.71 4428.81 55.03 6.00 435.77 2706.89
   03:26:28.080.24-Feb-2020 3366.71 4429.15 55.03 6.00 435.97 2706.89
   03:26:28.280.24-Feb-2020 3366.71 4429.53 55.03 6.00 436.17 2706.89
   03:26:28.480.24-Feb-2020 3366.71 4429.53 55.03 6.00 436.37 2706.89
   03:26:28.680.24-Feb-2020 3366.71 4429.01 55.03 6.00 436.57 2706.89
   03:26:28.880.24-Feb-2020 3366.71 4429.36 55.03 6.00 436.77 2706.89
   03:26:29.080.24-Feb-2020 3366.71 4429.67 55.03 6.00 436.97 2706.89
