~Version Information
 VERS.                  2.0:   CWLS log ASCII Standard -VERSION 2.0
 WRAP.                   NO:   One line per depth step
~Well Information Block
#MNEM.UNIT     VALUE/NAME     DESCRIPTION
#---------     -----------    ---------------------------
 STRT.S             06:21:10 24-Feb-20: START TIME 06:21:10 24-Feb-20
 STOP.S             06:29:09 24-Feb-20: STOP TIME  06:29:09 24-Feb-20
 STEP.S                   0.00: STEP TIME
 NULL.                 -999.25: NULL VALUE
 JOBN.        AZ-XX-0905059384:  JOB TICKET NUMB
 PDAT.          Mean Sea Level:  PERMANENT DATUM
 UNIT.                     N/A:  LOGGING EQUIPMENT ID
 DCON.         Sperry Drilling:  DIRECTNL CONTR
 DOE .                     N/A:  DOE NUMBER
 RIG .             West Chirag:  RIG NAME
 WELL.                     J22:  WELL NAME
 MWDS.                    Baku:  MWD SHOP
 SRVC.     TURAN Drilling & Engineering:  CONTRACTOR
 FLD .                     ACG:  FIELD NAME
 CTRY.              Azerbaijan:  COUNTRY NAME
 PROV.                    Baku:  PROVINCE
 STAT.                    Baku:  STATE NAME
 REGN.                   EESSA:  REGION
 BASE.              Azerbaijan:  LOGGING EQUIPMENT BASE LOCATION
 UWI .                     N/A:  UNIQUE WELL IDENTIFIER
 API .                     N/A:  API NUMBER
 COMP.     BP Exploration (Caspian Sea) Ltd.:  COMPANY
 WTYP.                Deviated:  WELL TYPE
 MDS .        Operator Entered:  MAG DATA SOURCE
 SON .        AZ-XX-0905059384:  JOB NUMBER
 FTOP.          Formation Tops:  FORM TOPS DESC
 ILTD.               Lithology:  INTERP LTH DESC
 SVYD.                  Survey:  SURVEY DESC
 DMOD.             Drill Model:  DRILL MOD DESC
 HPTY.       Minimum Curvature:  HOLE POS TYPE
 NREF.                    Grid:  NORTH REFERENCE
 SPUD.               09-Jan-20:  SPUD DATE
 DATE.      14.04.48 07-Feb-20:  END TIME
 STIM.      07.00.00 09-Jan-20:  START TIME
 DMF .             Drill Floor:  DRILL MEAS FROM
 DFST.                        :  DIST FSL TEXT
 DFWT.                        :  DIST FWL TEXT
 CNTY.                        :  COUNTY
 LOC .                        :  LOCATION
 LMF .             Drill Floor:  LOG MEASURED FROM
 DEP .m                   0.00:  DEPTH
 VSNS.m                  10.28:  VERT SEC N/S
 VSEW.m                  -6.24:  VERT SEC E/W
 AGAP.m                  43.00:  AIR GAP
 APD .m                  43.00:  DEPTH ABOVE PD
 WDMS.m                 169.80:  WD ELEV
 EGL .m                   0.00:  GROUND ELEVATION
 EPD .m                   0.00:  ELEVATION
 AZTC.deg                 6.27:  AZM TOTAL CORR
 GRDC.deg                 0.15:  GRID CORRECTION
 MDEC.deg                 6.42:  MAGNETIC DECL
 MDIP.deg                59.56:  MAGNETIC DIP
 MFLD.nT              50277.00:  MAGNETIC FIELD
 GVFD.g                   1.00:  GRAVITY FIELD
 VSDR.deg               148.53:  VERT SEC DIRECT
 TDD .m                3473.01:  TOTAL DEPTH (DRILLER)
 SDEP.m                 364.00:  START DEPTH
 DFSL.m                   0.00:  DISTANCE FSL
 DFWL.m                   0.00:  DISTANCE FWL
 UTMY.m             4443793.85:  UTM Y
 UTMX.m              519005.06:  UTM X
 WHEW.m                  -6.24:  WELL HEAD E/W
 WHNS.m                  10.28:  WELL HEAD N/S
 LONG.deg                51.22:  LONGITUDE
 LATI.deg                40.13:  LATITUDE
 TVDS.m                  43.00:  TVDSS CORRECTN
 EKB .m                   0.00:  KB ELEVATION
 EDF .m                  43.00:  DF ELEVATION
 TDL .m                 254.00:  TOTAL DEPTH (LOGGER)
 MAGU.                 1850021:  MAGUTM CHECKSUM
 VSC .                       0:  VS TO CLOSURE
~Parameter Information Block
#MNEM.UNIT       Value        Description
#---------     -----------    ---------------------------
 AV  .mps                 0.50:  Ann Velocity 
 AVMX.mps                 1.40:  Max Ann Veloc 
 AZIF.deg               144.94:  Azm, Final 
 BHAT.        Rotary Steerable:  BHA Type 
 BROT.°/30m               0.23:  Build Rotating 
 BS  .in                  8.50:  Bit Size 
 BTPL.psig              264.00:  Bit Press Loss 
 CABU.                     Yes:  Customer Abuse 
 COMM.                     î^:  Run Comments 1 
 TCS .hr                 87.30:  Time Ciculation Ended 
 CV  .mps                 2.45:  Crit Velocity 
 CVMX.mps                 2.74:  Max Crit Veloc 
 DD1 .             Aziz Aliyev:  Direct Drillr 1 
 DDSV.               Geo-Pilot:  DD Service 
 DEFF.%                 100.00:  % Det Eff 
 DLRX.°/30m               1.22:  Dogleg Rot Max 
 DLSO.°/30m               0.52:  Dogleg Oriented 
 DLSX.°/30m               1.22:  Dogleg Str Max 
 DRET.      12.59.00 23-Feb-20:  Drill End Time 
 DRST.      09.44.00 18-Feb-20:  Drill Start Tim 
 DTIM.hr                 23.03:  Time Drilling 
 EDEP.m                3473.01:  End Depth 
 ENG1.         Almaz Almadatov:  Engineer 1 
 ENG2.         Dair Mahammadov:  Engineer 2 
 ENG3.          Nazrin Asgarli:  Engineer 3 
 ETIM.      10.33.36 26-Feb-20:  End Time 
 FLOI.gpm               480.00:  Flow In 
 FLON.gpm               300.00:  Flow In Min 
 FLOS.cptm                1.00:  Fluid Loss 
 FLOX.gpm               550.00:  Flow In Max 
 HFLO.                      No:  High Flow 
 HPRE.                      No:  High Pressure 
 HTEM.                      No:  High Temp 
 HYDO.m                   1.80:  Hydro Offset 
 IFIN.deg                74.42:  Inc, Final 
 IMAX.deg                76.14:  Inc Max 
 IMIN.deg                74.42:  Inc Min 
 IMND.m                3462.72:  Inc Min Depth 
 IMXD.m                3235.69:  Inc Max Depth 
 JARR.                      No:  Jarring 
 LETM.      12.59.00 23-Feb-20:  Log End Time 
 LOST.hr                     0:  Lost Rig Time 
 LSTM.      09.44.00 18-Feb-20:  Log Start Time 
 MDCL.ppm             45000.00:  Mud Chlorides 
 MDES.     Inversion Oil/Synthetic:  Mud Desc 
 DFD .sg                  1.38:  Mud Density 
 MDMN.sg                  1.34:  Dens Mud Min 
 MDMX.sg                  1.49:  Dens Mud Max 
 MOIL.                      67:  Run Mud Oil % 
 MOWR.                   67:33:  Run Mud OWR 
 MSND.                    0.12:  Run Mud Sand % 
 MSOL.                      22:  Run Mud Solids% 
 DFV .spqt               81.00:  Mud Viscosity 
 MWOD.in                  6.75:  MWD Tool OD 
 MWSI.                      No:  Serv Intrp, MWD 
 OTIM.hr                231.44:  Time Operating 
 PCON.          Wear / Scratch:  Pad Condition 
 PMAX.psia             3400.00:  Press Op, Max 
 PV  .cP                 55.00:  Mud PV 
 RUN .                     800:  Run Number 
 ROPA.m/hr               12.00:  ROP Avg 
 ROPN.m/hr                5.00:  ROP Min 
 ROPX.m/hr               28.00:  ROP Max 
 RPMA.rpm               120.00:  RPM Surface Avg 
 RPMN.rpm                40.00:  RPM Surface Min 
 RPMX.rpm               130.00:  RPM Surface Max 
 RRUN.                    0800:  Rig Run Number 
 RTIM.hr                 45.00:  Time Reaming 
 SAZI.deg               145.38:  Azm, Start 
 SDEP.m                3219.01:  Start Depth 
 SIDD.                      No:  Serv Intrp, DD 
 SINC.deg                75.11:  Inc, Start 
 SPPA.psig             2400.00:  SPP Avg 
 SPPN.psig             2320.00:  SPP Min 
 SPPX.psig             3200.00:  SPP Max 
 STIM.      15.15.00 17-Feb-20:  Start Time 
 SVCS.                 DD, MWD:  Services 
 SVER.                    9.20:  Sperry Version 
 TDAT.m                 254.00:  Tot Depth Attmp 
 TDDF.                      No:  Trip for DD 
 TDLG.m                 254.00:  Tot Depth Loggd 
 TFF .                      No:  Trip for Fail 
 TQAA.f-kp               13.00:  Torque Abs Avg 
 TQAN.f-kp                7.00:  Torque Abs Min 
 TQAX.f-kp               15.00:  Torque Abs Max 
 TRRT.°/30m               0.21:  Turn Rotating 
 MRT .                  EWR-M5:  Maximum Recorded Temperature 
 TTMX.degC               64.00:  Max Tool Temp 
 VS01.                90586516:  Virtual Str1 SN 
 VS02.                90513691:  Virtual Str2 SN 
 VS03.                90586523:  Virtual Str3 SN 
 VS04.                90586520:  Virtual Str4 SN 
 VS05.                90590507:  Virtual Str5 SN 
 WBMN.klb                12.00:  WOB Min 
 WITN.           Rufat Babayev:  Customer Rep 2 
 WITN.         Alistair Sprott:  Customer Rep 
 WOBA.klb                18.00:  WOB Avg 
 WOBX.klb                30.00:  WOB Max 
 YP  .lhf2               41.00:  Yield Point 
~Curve Information Block
#MNEM.UNIT                 API CODE     Curve Description
#---------               -----------    ---------------------------
 TIME.HHMMSS            00 000 000 000:  GT Time & Date
 GTDEPTH.m              00 000 000 000:  GT Depth
 GTPQH.psia             00 000 000 000:  GT HR Quartz Pressure
 GTTQ.degC              00 000 000 000:  GT Quartz Temperature
 GTTN.NONE              00 000 000 000:  GT Test Number
 GTET.sec               00 000 000 000:  GT Elapsed Test Time
 GTTVD.m                00 000 000 000:  GT True Vertical Depth
#Other Information
#
#WARRANTY: Halliburton will use its best efforts to furnish customers with 
#accurate information and interpretations that are part of, and incident to, the services 
#provided.  However, Halliburton cannot and does not warrant the accuracy 
#or correctness of such information and interpretations.  Under no circumstances should any 
#such information or interpretation be relied upon as the sole basis for any drilling, 
#completion, production, or financial decision or any procedure involving any risk to the 
#safety of any drilling venture, drilling rig or its crew or any other third party.  The 
#Customer has full responsibility for all drilling, completion and production operation.  
#Halliburton makes no representations or warranties, either expressed or 
#implied, including, but not limited to, the implied warranties of merchantability or fitness 
#for a particular purpose, with respect to the services rendered.  In no event will 
#Halliburton be liable for failure to obtain any particular results or for 
#any damages, including, but not limited to, indirect, special or consequential damages, 
#resulting from the use of any information or interpretation provided by Halliburton.
#
~A           TIME           GTDEPTH  GTPQH  GTTQ  GTTN   GTET   GTTVD  
# ...
   06:22:40.828.24-Feb-2020 3290.51 5724.76 54.01 10.00  90.42 2687.65
   06:22:41.028.24-Feb-2020 3290.51 5727.20 54.01 10.00  90.62 2687.65
   06:22:41.228.24-Feb-2020 3290.51 5728.62 54.01 10.00  90.82 2687.65
   06:22:41.428.24-Feb-2020 3290.51 5729.97 54.01 10.00  91.02 2687.65
   06:22:41.628.24-Feb-2020 3290.51 5729.97 54.01 10.00  91.22 2687.65
   06:22:41.828.24-Feb-2020 3290.51 5733.37 54.01 10.00  91.42 2687.65
   06:22:42.028.24-Feb-2020 3290.51 5738.10 54.01 10.00  91.62 2687.65
   06:22:42.228.24-Feb-2020 3290.51 5742.11 54.01 10.00  91.82 2687.65
   06:22:42.428.24-Feb-2020 3290.51 5744.17 54.01 10.00  92.02 2687.65
   06:22:42.628.24-Feb-2020 3290.51 5744.17 54.01 10.00  92.22 2687.65
   06:22:42.828.24-Feb-2020 3290.51 5749.92 54.01 10.00  92.42 2687.65
   06:22:43.028.24-Feb-2020 3290.51 5752.57 54.01 10.00  92.62 2687.65
   06:22:43.228.24-Feb-2020 3290.51 5754.07 54.01 10.00  92.82 2687.65
   06:22:43.428.24-Feb-2020 3290.51 5755.52 54.01 10.00  93.02 2687.65
   06:22:43.628.24-Feb-2020 3290.51 5755.52 54.01 10.00  93.22 2687.65
   06:22:43.828.24-Feb-2020 3290.51 5763.00 54.01 10.00  93.42 2687.65
   06:22:44.028.24-Feb-2020 3290.51 5764.14 54.01 10.00  93.62 2687.65
   06:22:44.228.24-Feb-2020 3290.51 5765.14 54.01 10.00  93.82 2687.65
   06:22:44.429.24-Feb-2020 3290.51 5765.72 54.01 10.00  94.02 2687.65
   06:22:44.629.24-Feb-2020 3290.51 5765.72 54.01 10.00  94.22 2687.65
   06:22:44.829.24-Feb-2020 3290.51 5767.15 54.01 10.00  94.42 2687.65
   06:22:45.029.24-Feb-2020 3290.51 5767.97 54.01 10.00  94.62 2687.65
   06:22:45.229.24-Feb-2020 3290.51 5768.90 54.01 10.00  94.82 2687.65
   06:22:45.429.24-Feb-2020 3290.51 5769.86 54.01 10.00  95.02 2687.65
   06:22:45.629.24-Feb-2020 3290.51 5769.86 54.01 10.00  95.22 2687.65
   06:22:45.829.24-Feb-2020 3290.51 5771.80 54.01 10.00  95.42 2687.65
   06:22:46.029.24-Feb-2020 3290.51 5772.91 54.01 10.00  95.62 2687.65
   06:22:46.229.24-Feb-2020 3290.51 5773.77 54.01 10.00  95.82 2687.65
   06:22:46.429.24-Feb-2020 3290.51 5774.37 54.01 10.00  96.02 2687.65
   06:22:46.629.24-Feb-2020 3290.51 5774.37 54.01 10.00  96.22 2687.65
   06:22:46.829.24-Feb-2020 3290.51 5779.08 54.01 10.00  96.42 2687.65
   06:22:47.029.24-Feb-2020 3290.51 5781.22 54.01 10.00  96.62 2687.65
   06:22:47.229.24-Feb-2020 3290.51 5781.69 54.01 10.00  96.82 2687.65
   06:22:47.429.24-Feb-2020 3290.51 5782.11 54.01 10.00  97.02 2687.65
   06:22:47.629.24-Feb-2020 3290.51 5782.11 54.01 10.00  97.22 2687.65
   06:22:47.829.24-Feb-2020 3290.51 5783.49 54.01 10.00  97.42 2687.65
   06:22:48.029.24-Feb-2020 3290.51 5783.99 54.00 10.00  97.62 2687.65
   06:22:48.229.24-Feb-2020 3290.51 5784.74 54.01 10.00  97.82 2687.65
   06:22:48.429.24-Feb-2020 3290.51 5785.71 54.00 10.00  98.02 2687.65
   06:22:48.629.24-Feb-2020 3290.51 5786.56 54.00 10.00  98.22 2687.65
   06:22:48.830.24-Feb-2020 3290.51 5787.39 54.00 10.00  98.42 2687.65
   06:22:49.030.24-Feb-2020 3290.51 5788.11 54.00 10.00  98.62 2687.65
   06:22:49.230.24-Feb-2020 3290.51 5789.22 54.00 10.00  98.82 2687.65
   06:22:49.430.24-Feb-2020 3290.51 5790.01 54.00 10.00  99.02 2687.65
   06:22:49.630.24-Feb-2020 3290.51 5790.01 54.00 10.00  99.22 2687.65
   06:22:49.830.24-Feb-2020 3290.51 5791.25 54.00 10.00  99.42 2687.65
   06:22:50.030.24-Feb-2020 3290.51 5791.75 54.00 10.00  99.62 2687.65
   06:22:50.230.24-Feb-2020 3290.51 5794.96 54.00 10.00  99.82 2687.65
   06:22:50.430.24-Feb-2020 3290.51 5797.91 54.00 10.00 100.02 2687.65
   06:22:50.630.24-Feb-2020 3290.51 5797.91 54.00 10.00 100.22 2687.65
   06:22:50.830.24-Feb-2020 3290.51 5800.05 54.00 10.00 100.42 2687.65
   06:22:51.030.24-Feb-2020 3290.51 5804.69 54.00 10.00 100.62 2687.65
   06:22:51.230.24-Feb-2020 3290.51 5806.12 54.00 10.00 100.82 2687.65
   06:22:51.430.24-Feb-2020 3290.51 5807.09 54.00 10.00 101.02 2687.65
   06:22:51.630.24-Feb-2020 3290.51 5807.09 54.00 10.00 101.22 2687.65
   06:22:51.830.24-Feb-2020 3290.51 5807.64 54.00 10.00 101.42 2687.65
   06:22:52.030.24-Feb-2020 3290.51 5806.59 54.00 10.00 101.62 2687.65
   06:22:52.230.24-Feb-2020 3290.51 5808.03 54.00 10.00 101.82 2687.65
   06:22:52.430.24-Feb-2020 3290.51 5809.34 54.00 10.00 102.02 2687.65
   06:22:52.630.24-Feb-2020 3290.51 5809.43 54.00 10.00 102.22 2687.65
   06:22:52.830.24-Feb-2020 3290.51 5809.25 54.00 10.00 102.42 2687.65
   06:22:53.030.24-Feb-2020 3290.51 5808.44 54.00 10.00 102.62 2687.65
   06:22:53.230.24-Feb-2020 3290.51 5808.77 54.00 10.00 102.82 2687.65
   06:22:53.431.24-Feb-2020 3290.51 5808.62 54.00 10.00 103.02 2687.65
   06:22:53.631.24-Feb-2020 3290.51 5808.62 54.00 10.00 103.22 2687.65
   06:22:53.831.24-Feb-2020 3290.51 5809.12 54.00 10.00 103.42 2687.65
   06:22:54.031.24-Feb-2020 3290.51 5820.95 54.00 10.00 103.62 2687.65
   06:22:54.231.24-Feb-2020 3290.51 5664.68 54.00 10.00 103.82 2687.65
   06:22:54.431.24-Feb-2020 3290.51 5133.60 54.00 10.00 104.02 2687.65
   06:22:54.631.24-Feb-2020 3290.51 5133.60 54.00 10.00 104.22 2687.65
   06:22:54.831.24-Feb-2020 3290.51 3494.49 54.00 10.00 104.42 2687.65
   06:22:55.031.24-Feb-2020 3290.51 3169.47 54.00 10.00 104.62 2687.65
   06:22:55.231.24-Feb-2020 3290.51 2792.15 54.00 10.00 104.82 2687.65
   06:22:55.431.24-Feb-2020 3290.51 2360.71 54.00 10.00 105.02 2687.65
   06:22:55.631.24-Feb-2020 3290.51 2360.71 54.00 10.00 105.22 2687.65
   06:22:55.831.24-Feb-2020 3290.51 2021.63 54.00 10.00 105.42 2687.65
   06:22:56.031.24-Feb-2020 3290.51 1948.87 54.00 10.00 105.62 2687.65
   06:22:56.231.24-Feb-2020 3290.51 1870.74 54.00 10.00 105.82 2687.65
   06:22:56.431.24-Feb-2020 3290.51 1793.35 53.99 10.00 106.02 2687.65
   06:22:56.631.24-Feb-2020 3290.51 1853.36 53.99 10.00 106.22 2687.65
   06:22:56.831.24-Feb-2020 3290.51 1737.29 53.99 10.00 106.42 2687.65
   06:22:57.031.24-Feb-2020 3290.51 1676.81 53.99 10.00 106.62 2687.65
   06:22:57.231.24-Feb-2020 3290.51 1657.06 53.98 10.00 106.82 2687.65
   06:22:57.431.24-Feb-2020 3290.51 1665.60 53.98 10.00 107.02 2687.65
   06:22:57.631.24-Feb-2020 3290.51 1665.60 53.98 10.00 107.22 2687.65
   06:22:57.831.24-Feb-2020 3290.51 1795.19 53.98 10.00 107.42 2687.65
   06:22:58.032.24-Feb-2020 3290.51 2202.91 53.97 10.00 107.62 2687.65
   06:22:58.232.24-Feb-2020 3290.51 2863.50 53.97 10.00 107.82 2687.65
   06:22:58.432.24-Feb-2020 3290.51 3381.01 53.97 10.00 108.02 2687.65
   06:22:58.632.24-Feb-2020 3290.51 3381.01 53.97 10.00 108.22 2687.65
   06:22:58.832.24-Feb-2020 3290.51 3590.93 53.96 10.00 108.42 2687.65
   06:22:59.032.24-Feb-2020 3290.51 3607.28 53.96 10.00 108.62 2687.65
   06:22:59.232.24-Feb-2020 3290.51 3613.07 53.96 10.00 108.82 2687.65
   06:22:59.432.24-Feb-2020 3290.51 3612.27 53.96 10.00 109.02 2687.65
   06:22:59.632.24-Feb-2020 3290.51 3612.27 53.95 10.00 109.22 2687.65
   06:22:59.832.24-Feb-2020 3290.51 3606.37 53.95 10.00 109.42 2687.65
   06:23:00.032.24-Feb-2020 3290.51 3609.77 53.95 10.00 109.62 2687.65
   06:23:00.232.24-Feb-2020 3290.51 3615.36 53.95 10.00 109.82 2687.65
   06:23:00.432.24-Feb-2020 3290.51 3613.99 53.95 10.00 110.02 2687.65
   06:23:00.632.24-Feb-2020 3290.51 3611.34 53.95 10.00 110.22 2687.65
   06:23:00.832.24-Feb-2020 3290.51 3611.43 53.95 10.00 110.42 2687.65
   06:23:01.032.24-Feb-2020 3290.51 3603.99 53.95 10.00 110.62 2687.65
   06:23:01.232.24-Feb-2020 3290.51 3607.80 53.95 10.00 110.82 2687.65
   06:23:01.432.24-Feb-2020 3290.51 3607.44 53.95 10.00 111.02 2687.65
   06:23:01.632.24-Feb-2020 3290.51 3607.44 53.95 10.00 111.22 2687.65
   06:23:01.832.24-Feb-2020 3290.51 3606.34 53.95 10.00 111.42 2687.65
   06:23:02.032.24-Feb-2020 3290.51 3602.89 53.94 10.00 111.62 2687.65
   06:23:02.232.24-Feb-2020 3290.51 3602.01 53.94 10.00 111.82 2687.65
   06:23:02.432.24-Feb-2020 3290.51 3601.52 53.94 10.00 112.02 2687.65
   06:23:02.633.24-Feb-2020 3290.51 3601.52 53.94 10.00 112.22 2687.65
   06:23:02.833.24-Feb-2020 3290.51 3598.92 53.94 10.00 112.42 2687.65
   06:23:03.033.24-Feb-2020 3290.51 3600.03 53.94 10.00 112.62 2687.65
   06:23:03.233.24-Feb-2020 3290.51 3601.64 53.94 10.00 112.82 2687.65
