~Version Information
 VERS.                  2.0:   CWLS log ASCII Standard -VERSION 2.0
 WRAP.                   NO:   One line per depth step
~Well Information Block
#MNEM.UNIT     VALUE/NAME     DESCRIPTION
#---------     -----------    ---------------------------
 STRT.S             06:02:59 24-Feb-20: START TIME 06:02:59 24-Feb-20
 STOP.S             06:10:09 24-Feb-20: STOP TIME  06:10:09 24-Feb-20
 STEP.S                   0.00: STEP TIME
 NULL.                 -999.25: NULL VALUE
 JOBN.        AZ-XX-0905059384:  JOB TICKET NUMB
 PDAT.          Mean Sea Level:  PERMANENT DATUM
 UNIT.                     N/A:  LOGGING EQUIPMENT ID
 DCON.         Sperry Drilling:  DIRECTNL CONTR
 DOE .                     N/A:  DOE NUMBER
 RIG .             West Chirag:  RIG NAME
 WELL.                     J22:  WELL NAME
 MWDS.                    Baku:  MWD SHOP
 SRVC.     TURAN Drilling & Engineering:  CONTRACTOR
 FLD .                     ACG:  FIELD NAME
 CTRY.              Azerbaijan:  COUNTRY NAME
 PROV.                    Baku:  PROVINCE
 STAT.                    Baku:  STATE NAME
 REGN.                   EESSA:  REGION
 BASE.              Azerbaijan:  LOGGING EQUIPMENT BASE LOCATION
 UWI .                     N/A:  UNIQUE WELL IDENTIFIER
 API .                     N/A:  API NUMBER
 COMP.     BP Exploration (Caspian Sea) Ltd.:  COMPANY
 WTYP.                Deviated:  WELL TYPE
 MDS .        Operator Entered:  MAG DATA SOURCE
 SON .        AZ-XX-0905059384:  JOB NUMBER
 FTOP.          Formation Tops:  FORM TOPS DESC
 ILTD.               Lithology:  INTERP LTH DESC
 SVYD.                  Survey:  SURVEY DESC
 DMOD.             Drill Model:  DRILL MOD DESC
 HPTY.       Minimum Curvature:  HOLE POS TYPE
 NREF.                    Grid:  NORTH REFERENCE
 SPUD.               09-Jan-20:  SPUD DATE
 DATE.      14.04.48 07-Feb-20:  END TIME
 STIM.      07.00.00 09-Jan-20:  START TIME
 DMF .             Drill Floor:  DRILL MEAS FROM
 DFST.                        :  DIST FSL TEXT
 DFWT.                        :  DIST FWL TEXT
 CNTY.                        :  COUNTY
 LOC .                        :  LOCATION
 LMF .             Drill Floor:  LOG MEASURED FROM
 DEP .m                   0.00:  DEPTH
 VSNS.m                  10.28:  VERT SEC N/S
 VSEW.m                  -6.24:  VERT SEC E/W
 AGAP.m                  43.00:  AIR GAP
 APD .m                  43.00:  DEPTH ABOVE PD
 WDMS.m                 169.80:  WD ELEV
 EGL .m                   0.00:  GROUND ELEVATION
 EPD .m                   0.00:  ELEVATION
 AZTC.deg                 6.27:  AZM TOTAL CORR
 GRDC.deg                 0.15:  GRID CORRECTION
 MDEC.deg                 6.42:  MAGNETIC DECL
 MDIP.deg                59.56:  MAGNETIC DIP
 MFLD.nT              50277.00:  MAGNETIC FIELD
 GVFD.g                   1.00:  GRAVITY FIELD
 VSDR.deg               148.53:  VERT SEC DIRECT
 TDD .m                3473.01:  TOTAL DEPTH (DRILLER)
 SDEP.m                 364.00:  START DEPTH
 DFSL.m                   0.00:  DISTANCE FSL
 DFWL.m                   0.00:  DISTANCE FWL
 UTMY.m             4443793.85:  UTM Y
 UTMX.m              519005.06:  UTM X
 WHEW.m                  -6.24:  WELL HEAD E/W
 WHNS.m                  10.28:  WELL HEAD N/S
 LONG.deg                51.22:  LONGITUDE
 LATI.deg                40.13:  LATITUDE
 TVDS.m                  43.00:  TVDSS CORRECTN
 EKB .m                   0.00:  KB ELEVATION
 EDF .m                  43.00:  DF ELEVATION
 TDL .m                 254.00:  TOTAL DEPTH (LOGGER)
 MAGU.                 1850021:  MAGUTM CHECKSUM
 VSC .                       0:  VS TO CLOSURE
~Parameter Information Block
#MNEM.UNIT       Value        Description
#---------     -----------    ---------------------------
 AV  .mps                 0.50:  Ann Velocity 
 AVMX.mps                 1.40:  Max Ann Veloc 
 AZIF.deg               144.94:  Azm, Final 
 BHAT.        Rotary Steerable:  BHA Type 
 BROT.°/30m               0.23:  Build Rotating 
 BS  .in                  8.50:  Bit Size 
 BTPL.psig              264.00:  Bit Press Loss 
 CABU.                     Yes:  Customer Abuse 
 COMM.                     ä\:  Run Comments 1 
 TCS .hr                 87.30:  Time Ciculation Ended 
 CV  .mps                 2.45:  Crit Velocity 
 CVMX.mps                 2.74:  Max Crit Veloc 
 DD1 .             Aziz Aliyev:  Direct Drillr 1 
 DDSV.               Geo-Pilot:  DD Service 
 DEFF.%                 100.00:  % Det Eff 
 DLRX.°/30m               1.22:  Dogleg Rot Max 
 DLSO.°/30m               0.52:  Dogleg Oriented 
 DLSX.°/30m               1.22:  Dogleg Str Max 
 DRET.      12.59.00 23-Feb-20:  Drill End Time 
 DRST.      09.44.00 18-Feb-20:  Drill Start Tim 
 DTIM.hr                 23.03:  Time Drilling 
 EDEP.m                3473.01:  End Depth 
 ENG1.         Almaz Almadatov:  Engineer 1 
 ENG2.         Dair Mahammadov:  Engineer 2 
 ENG3.          Nazrin Asgarli:  Engineer 3 
 ETIM.      10.33.36 26-Feb-20:  End Time 
 FLOI.gpm               480.00:  Flow In 
 FLON.gpm               300.00:  Flow In Min 
 FLOS.cptm                1.00:  Fluid Loss 
 FLOX.gpm               550.00:  Flow In Max 
 HFLO.                      No:  High Flow 
 HPRE.                      No:  High Pressure 
 HTEM.                      No:  High Temp 
 HYDO.m                   1.80:  Hydro Offset 
 IFIN.deg                74.42:  Inc, Final 
 IMAX.deg                76.14:  Inc Max 
 IMIN.deg                74.42:  Inc Min 
 IMND.m                3462.72:  Inc Min Depth 
 IMXD.m                3235.69:  Inc Max Depth 
 JARR.                      No:  Jarring 
 LETM.      12.59.00 23-Feb-20:  Log End Time 
 LOST.hr                     0:  Lost Rig Time 
 LSTM.      09.44.00 18-Feb-20:  Log Start Time 
 MDCL.ppm             45000.00:  Mud Chlorides 
 MDES.     Inversion Oil/Synthetic:  Mud Desc 
 DFD .sg                  1.38:  Mud Density 
 MDMN.sg                  1.34:  Dens Mud Min 
 MDMX.sg                  1.49:  Dens Mud Max 
 MOIL.                      67:  Run Mud Oil % 
 MOWR.                   67:33:  Run Mud OWR 
 MSND.                    0.12:  Run Mud Sand % 
 MSOL.                      22:  Run Mud Solids% 
 DFV .spqt               81.00:  Mud Viscosity 
 MWOD.in                  6.75:  MWD Tool OD 
 MWSI.                      No:  Serv Intrp, MWD 
 OTIM.hr                231.44:  Time Operating 
 PCON.          Wear / Scratch:  Pad Condition 
 PMAX.psia             3400.00:  Press Op, Max 
 PV  .cP                 55.00:  Mud PV 
 RUN .                     800:  Run Number 
 ROPA.m/hr               12.00:  ROP Avg 
 ROPN.m/hr                5.00:  ROP Min 
 ROPX.m/hr               28.00:  ROP Max 
 RPMA.rpm               120.00:  RPM Surface Avg 
 RPMN.rpm                40.00:  RPM Surface Min 
 RPMX.rpm               130.00:  RPM Surface Max 
 RRUN.                    0800:  Rig Run Number 
 RTIM.hr                 45.00:  Time Reaming 
 SAZI.deg               145.38:  Azm, Start 
 SDEP.m                3219.01:  Start Depth 
 SIDD.                      No:  Serv Intrp, DD 
 SINC.deg                75.11:  Inc, Start 
 SPPA.psig             2400.00:  SPP Avg 
 SPPN.psig             2320.00:  SPP Min 
 SPPX.psig             3200.00:  SPP Max 
 STIM.      15.15.00 17-Feb-20:  Start Time 
 SVCS.                 DD, MWD:  Services 
 SVER.                    9.20:  Sperry Version 
 TDAT.m                 254.00:  Tot Depth Attmp 
 TDDF.                      No:  Trip for DD 
 TDLG.m                 254.00:  Tot Depth Loggd 
 TFF .                      No:  Trip for Fail 
 TQAA.f-kp               13.00:  Torque Abs Avg 
 TQAN.f-kp                7.00:  Torque Abs Min 
 TQAX.f-kp               15.00:  Torque Abs Max 
 TRRT.°/30m               0.21:  Turn Rotating 
 MRT .                  EWR-M5:  Maximum Recorded Temperature 
 TTMX.degC               64.00:  Max Tool Temp 
 VS01.                90586516:  Virtual Str1 SN 
 VS02.                90513691:  Virtual Str2 SN 
 VS03.                90586523:  Virtual Str3 SN 
 VS04.                90586520:  Virtual Str4 SN 
 VS05.                90590507:  Virtual Str5 SN 
 WBMN.klb                12.00:  WOB Min 
 WITN.           Rufat Babayev:  Customer Rep 2 
 WITN.         Alistair Sprott:  Customer Rep 
 WOBA.klb                18.00:  WOB Avg 
 WOBX.klb                30.00:  WOB Max 
 YP  .lhf2               41.00:  Yield Point 
~Curve Information Block
#MNEM.UNIT                 API CODE     Curve Description
#---------               -----------    ---------------------------
 TIME.HHMMSS            00 000 000 000:  GT Time & Date
 GTDEPTH.m              00 000 000 000:  GT Depth
 GTPQH.psia             00 000 000 000:  GT HR Quartz Pressure
 GTTQ.degC              00 000 000 000:  GT Quartz Temperature
 GTTN.NONE              00 000 000 000:  GT Test Number
 GTET.sec               00 000 000 000:  GT Elapsed Test Time
 GTTVD.m                00 000 000 000:  GT True Vertical Depth
#Other Information
#
#WARRANTY: Halliburton will use its best efforts to furnish customers with 
#accurate information and interpretations that are part of, and incident to, the services 
#provided.  However, Halliburton cannot and does not warrant the accuracy 
#or correctness of such information and interpretations.  Under no circumstances should any 
#such information or interpretation be relied upon as the sole basis for any drilling, 
#completion, production, or financial decision or any procedure involving any risk to the 
#safety of any drilling venture, drilling rig or its crew or any other third party.  The 
#Customer has full responsibility for all drilling, completion and production operation.  
#Halliburton makes no representations or warranties, either expressed or 
#implied, including, but not limited to, the implied warranties of merchantability or fitness 
#for a particular purpose, with respect to the services rendered.  In no event will 
#Halliburton be liable for failure to obtain any particular results or for 
#any damages, including, but not limited to, indirect, special or consequential damages, 
#resulting from the use of any information or interpretation provided by Halliburton.
#
~A           TIME           GTDEPTH  GTPQH  GTTQ  GTTN  GTET   GTTVD  
# ...
   06:06:49.220.24-Feb-2020 3290.31   25.68 54.58 9.00 230.05 2687.60
   06:06:49.420.24-Feb-2020 3290.31   25.68 54.58 9.00 230.25 2687.60
   06:06:49.620.24-Feb-2020 3290.31   25.71 54.58 9.00 230.45 2687.60
   06:06:49.820.24-Feb-2020 3290.31   25.73 54.58 9.00 230.65 2687.60
   06:06:50.020.24-Feb-2020 3290.31   25.74 54.58 9.00 230.85 2687.60
   06:06:50.220.24-Feb-2020 3290.31   25.76 54.58 9.00 231.05 2687.60
   06:06:50.420.24-Feb-2020 3290.31   25.77 54.58 9.00 231.25 2687.60
   06:06:50.620.24-Feb-2020 3290.31   25.79 54.58 9.00 231.45 2687.60
   06:06:50.820.24-Feb-2020 3290.31   25.81 54.58 9.00 231.65 2687.60
   06:06:51.020.24-Feb-2020 3290.31   25.82 54.58 9.00 231.85 2687.60
   06:06:51.220.24-Feb-2020 3290.31   25.84 54.58 9.00 232.05 2687.60
   06:06:51.420.24-Feb-2020 3290.31   25.84 54.58 9.00 232.25 2687.60
   06:06:51.620.24-Feb-2020 3290.31   25.87 54.58 9.00 232.45 2687.60
   06:06:51.820.24-Feb-2020 3290.31   25.88 54.58 9.00 232.65 2687.60
   06:06:52.020.24-Feb-2020 3290.31   25.91 54.58 9.00 232.85 2687.60
   06:06:52.220.24-Feb-2020 3290.31   25.91 54.58 9.00 233.05 2687.60
   06:06:52.420.24-Feb-2020 3290.31   25.91 54.58 9.00 233.25 2687.60
   06:06:52.620.24-Feb-2020 3290.31   25.95 54.58 9.00 233.45 2687.60
   06:06:52.820.24-Feb-2020 3290.31   25.96 54.58 9.00 233.65 2687.60
   06:06:53.021.24-Feb-2020 3290.31   25.98 54.58 9.00 233.85 2687.60
   06:06:53.221.24-Feb-2020 3290.31   25.99 54.58 9.00 234.05 2687.60
   06:06:53.421.24-Feb-2020 3290.31   25.99 54.58 9.00 234.25 2687.60
   06:06:53.621.24-Feb-2020 3290.31   26.02 54.58 9.00 234.45 2687.60
   06:06:53.821.24-Feb-2020 3290.31   26.05 54.58 9.00 234.65 2687.60
   06:06:54.021.24-Feb-2020 3290.31   26.06 54.58 9.00 234.85 2687.60
   06:06:54.221.24-Feb-2020 3290.31   26.08 54.58 9.00 235.05 2687.60
   06:06:54.421.24-Feb-2020 3290.31   26.09 54.58 9.00 235.25 2687.60
   06:06:54.621.24-Feb-2020 3290.31   26.11 54.58 9.00 235.45 2687.60
   06:06:54.821.24-Feb-2020 3290.31   26.12 54.58 9.00 235.65 2687.60
   06:06:55.021.24-Feb-2020 3290.31   26.14 54.58 9.00 235.85 2687.60
   06:06:55.221.24-Feb-2020 3290.31   26.14 54.58 9.00 236.05 2687.60
   06:06:55.421.24-Feb-2020 3290.31   26.14 54.58 9.00 236.25 2687.60
   06:06:55.621.24-Feb-2020 3290.31   26.18 54.58 9.00 236.45 2687.60
   06:06:55.821.24-Feb-2020 3290.31   26.19 54.57 9.00 236.65 2687.60
   06:06:56.021.24-Feb-2020 3290.31   26.21 54.57 9.00 236.85 2687.60
   06:06:56.221.24-Feb-2020 3290.31   26.23 54.57 9.00 237.05 2687.60
   06:06:56.421.24-Feb-2020 3290.31   26.23 54.57 9.00 237.25 2687.60
   06:06:56.621.24-Feb-2020 3290.31   26.26 54.57 9.00 237.45 2687.60
   06:06:56.821.24-Feb-2020 3290.31   26.27 54.57 9.00 237.65 2687.60
   06:06:57.021.24-Feb-2020 3290.31   26.28 54.57 9.00 237.85 2687.60
   06:06:57.221.24-Feb-2020 3290.31   26.30 54.57 9.00 238.05 2687.60
   06:06:57.421.24-Feb-2020 3290.31   26.30 54.57 9.00 238.25 2687.60
   06:06:57.622.24-Feb-2020 3290.31   26.33 54.57 9.00 238.45 2687.60
   06:06:57.822.24-Feb-2020 3290.31   26.35 54.57 9.00 238.65 2687.60
   06:06:58.022.24-Feb-2020 3290.31   26.36 54.57 9.00 238.85 2687.60
   06:06:58.222.24-Feb-2020 3290.31   26.38 54.57 9.00 239.05 2687.60
   06:06:58.422.24-Feb-2020 3290.31   26.39 54.57 9.00 239.25 2687.60
   06:06:58.622.24-Feb-2020 3290.31   26.41 54.57 9.00 239.45 2687.60
   06:06:58.822.24-Feb-2020 3290.31   26.42 54.57 9.00 239.65 2687.60
   06:06:59.022.24-Feb-2020 3290.31   26.44 54.57 9.00 239.85 2687.60
   06:06:59.222.24-Feb-2020 3290.31   26.45 54.57 9.00 240.05 2687.60
   06:06:59.422.24-Feb-2020 3290.31   26.45 54.57 9.00 240.25 2687.60
   06:06:59.622.24-Feb-2020 3290.31   26.48 54.57 9.00 240.45 2687.60
   06:06:59.822.24-Feb-2020 3290.31   26.50 54.57 9.00 240.65 2687.60
   06:07:00.022.24-Feb-2020 3290.31   26.51 54.57 9.00 240.85 2687.60
   06:07:00.222.24-Feb-2020 3290.31   26.53 54.57 9.00 241.05 2687.60
   06:07:00.422.24-Feb-2020 3290.31   26.53 54.57 9.00 241.25 2687.60
   06:07:00.622.24-Feb-2020 3290.31   26.55 54.57 9.00 241.45 2687.60
   06:07:00.822.24-Feb-2020 3290.31   26.58 54.57 9.00 241.65 2687.60
   06:07:01.022.24-Feb-2020 3290.31   26.58 54.57 9.00 241.85 2687.60
   06:07:01.222.24-Feb-2020 3290.31   26.61 54.57 9.00 242.05 2687.60
   06:07:01.422.24-Feb-2020 3290.31   26.61 54.57 9.00 242.25 2687.60
   06:07:01.622.24-Feb-2020 3290.31   26.63 54.57 9.00 242.45 2687.60
   06:07:01.822.24-Feb-2020 3290.31   26.65 54.57 9.00 242.65 2687.60
   06:07:02.023.24-Feb-2020 3290.31   26.66 54.57 9.00 242.85 2687.60
   06:07:02.223.24-Feb-2020 3290.31   26.69 54.57 9.00 243.05 2687.60
   06:07:02.423.24-Feb-2020 3290.31   26.70 54.57 9.00 243.25 2687.60
   06:07:02.623.24-Feb-2020 3290.31   26.71 54.57 9.00 243.45 2687.60
   06:07:02.823.24-Feb-2020 3290.31   26.73 54.57 9.00 243.65 2687.60
   06:07:03.023.24-Feb-2020 3290.31   26.75 54.57 9.00 243.85 2687.60
   06:07:03.223.24-Feb-2020 3290.31   26.76 54.57 9.00 244.05 2687.60
   06:07:03.423.24-Feb-2020 3290.31   26.76 54.57 9.00 244.25 2687.60
   06:07:03.623.24-Feb-2020 3290.31   26.78 54.57 9.00 244.45 2687.60
   06:07:03.823.24-Feb-2020 3290.31   26.80 54.57 9.00 244.65 2687.60
   06:07:04.023.24-Feb-2020 3290.31   26.82 54.57 9.00 244.85 2687.60
   06:07:04.223.24-Feb-2020 3290.31   26.82 54.57 9.00 245.05 2687.60
   06:07:04.423.24-Feb-2020 3290.31   26.82 54.57 9.00 245.25 2687.60
   06:07:04.623.24-Feb-2020 3290.31   26.85 54.57 9.00 245.45 2687.60
   06:07:04.823.24-Feb-2020 3290.31   26.87 54.57 9.00 245.65 2687.60
   06:07:05.023.24-Feb-2020 3290.31   26.88 54.57 9.00 245.85 2687.60
   06:07:05.223.24-Feb-2020 3290.31   26.90 54.57 9.00 246.05 2687.60
   06:07:05.423.24-Feb-2020 3290.31   26.90 54.57 9.00 246.25 2687.60
   06:07:05.623.24-Feb-2020 3290.31   26.92 54.57 9.00 246.45 2687.60
   06:07:05.823.24-Feb-2020 3290.31   26.93 54.57 9.00 246.65 2687.60
   06:07:06.023.24-Feb-2020 3290.31   26.95 54.57 9.00 246.85 2687.60
   06:07:06.223.24-Feb-2020 3290.31   26.97 54.57 9.00 247.05 2687.60
   06:07:06.423.24-Feb-2020 3290.31   26.98 54.57 9.00 247.25 2687.60
   06:07:06.624.24-Feb-2020 3290.31   26.99 54.57 9.00 247.45 2687.60
   06:07:06.824.24-Feb-2020 3290.31   27.01 54.57 9.00 247.65 2687.60
   06:07:07.024.24-Feb-2020 3290.31   27.02 54.57 9.00 247.85 2687.60
   06:07:07.224.24-Feb-2020 3290.31   27.03 54.57 9.00 248.05 2687.60
   06:07:07.424.24-Feb-2020 3290.31   27.03 54.57 9.00 248.25 2687.60
   06:07:07.624.24-Feb-2020 3290.31   27.06 54.57 9.00 248.45 2687.60
   06:07:07.824.24-Feb-2020 3290.31   27.07 54.57 9.00 248.65 2687.60
   06:07:08.024.24-Feb-2020 3290.31   27.08 54.57 9.00 248.85 2687.60
   06:07:08.224.24-Feb-2020 3290.31   27.10 54.57 9.00 249.05 2687.60
   06:07:08.424.24-Feb-2020 3290.31   27.10 54.57 9.00 249.25 2687.60
   06:07:08.624.24-Feb-2020 3290.31   27.12 54.57 9.00 249.45 2687.60
   06:07:08.824.24-Feb-2020 3290.31   27.14 54.57 9.00 249.65 2687.60
   06:07:09.024.24-Feb-2020 3290.31   27.15 54.57 9.00 249.85 2687.60
   06:07:09.224.24-Feb-2020 3290.31   27.16 54.57 9.00 250.05 2687.60
   06:07:09.424.24-Feb-2020 3290.31   27.16 54.57 9.00 250.25 2687.60
   06:07:09.624.24-Feb-2020 3290.31   27.19 54.57 9.00 250.45 2687.60
   06:07:09.824.24-Feb-2020 3290.31   27.20 54.57 9.00 250.65 2687.60
   06:07:10.024.24-Feb-2020 3290.31   27.21 54.57 9.00 250.85 2687.60
   06:07:10.224.24-Feb-2020 3290.31   27.23 54.57 9.00 251.05 2687.60
   06:07:10.424.24-Feb-2020 3290.31   27.24 54.57 9.00 251.25 2687.60
   06:07:10.624.24-Feb-2020 3290.31   27.25 54.57 9.00 251.45 2687.60
   06:07:10.824.24-Feb-2020 3290.31   27.27 54.57 9.00 251.66 2687.60
   06:07:11.024.24-Feb-2020 3290.31   27.27 54.57 9.00 251.86 2687.60
   06:07:11.225.24-Feb-2020 3290.31   27.29 54.57 9.00 252.06 2687.60
   06:07:11.425.24-Feb-2020 3290.31   27.29 54.57 9.00 252.26 2687.60
   06:07:11.625.24-Feb-2020 3290.31   27.32 54.57 9.00 252.46 2687.60
   06:07:11.825.24-Feb-2020 3290.31   27.32 54.57 9.00 252.66 2687.60
   06:07:12.025.24-Feb-2020 3290.31   27.34 54.57 9.00 252.86 2687.60
