~Version Information
 VERS.                  2.0:   CWLS log ASCII Standard -VERSION 2.0
 WRAP.                   NO:   One line per depth step
~Well Information Block
#MNEM.UNIT     VALUE/NAME     DESCRIPTION
#---------     -----------    ---------------------------
 STRT.S             06:02:59 24-Feb-20: START TIME 06:02:59 24-Feb-20
 STOP.S             06:10:09 24-Feb-20: STOP TIME  06:10:09 24-Feb-20
 STEP.S                   0.00: STEP TIME
 NULL.                 -999.25: NULL VALUE
 JOBN.        AZ-XX-0905059384:  JOB TICKET NUMB
 PDAT.          Mean Sea Level:  PERMANENT DATUM
 UNIT.                     N/A:  LOGGING EQUIPMENT ID
 DCON.         Sperry Drilling:  DIRECTNL CONTR
 DOE .                     N/A:  DOE NUMBER
 RIG .             West Chirag:  RIG NAME
 WELL.                     J22:  WELL NAME
 MWDS.                    Baku:  MWD SHOP
 SRVC.     TURAN Drilling & Engineering:  CONTRACTOR
 FLD .                     ACG:  FIELD NAME
 CTRY.              Azerbaijan:  COUNTRY NAME
 PROV.                    Baku:  PROVINCE
 STAT.                    Baku:  STATE NAME
 REGN.                   EESSA:  REGION
 BASE.              Azerbaijan:  LOGGING EQUIPMENT BASE LOCATION
 UWI .                     N/A:  UNIQUE WELL IDENTIFIER
 API .                     N/A:  API NUMBER
 COMP.     BP Exploration (Caspian Sea) Ltd.:  COMPANY
 WTYP.                Deviated:  WELL TYPE
 MDS .        Operator Entered:  MAG DATA SOURCE
 SON .        AZ-XX-0905059384:  JOB NUMBER
 FTOP.          Formation Tops:  FORM TOPS DESC
 ILTD.               Lithology:  INTERP LTH DESC
 SVYD.                  Survey:  SURVEY DESC
 DMOD.             Drill Model:  DRILL MOD DESC
 HPTY.       Minimum Curvature:  HOLE POS TYPE
 NREF.                    Grid:  NORTH REFERENCE
 SPUD.               09-Jan-20:  SPUD DATE
 DATE.      14.04.48 07-Feb-20:  END TIME
 STIM.      07.00.00 09-Jan-20:  START TIME
 DMF .             Drill Floor:  DRILL MEAS FROM
 DFST.                        :  DIST FSL TEXT
 DFWT.                        :  DIST FWL TEXT
 CNTY.                        :  COUNTY
 LOC .                        :  LOCATION
 LMF .             Drill Floor:  LOG MEASURED FROM
 DEP .m                   0.00:  DEPTH
 VSNS.m                  10.28:  VERT SEC N/S
 VSEW.m                  -6.24:  VERT SEC E/W
 AGAP.m                  43.00:  AIR GAP
 APD .m                  43.00:  DEPTH ABOVE PD
 WDMS.m                 169.80:  WD ELEV
 EGL .m                   0.00:  GROUND ELEVATION
 EPD .m                   0.00:  ELEVATION
 AZTC.deg                 6.27:  AZM TOTAL CORR
 GRDC.deg                 0.15:  GRID CORRECTION
 MDEC.deg                 6.42:  MAGNETIC DECL
 MDIP.deg                59.56:  MAGNETIC DIP
 MFLD.nT              50277.00:  MAGNETIC FIELD
 GVFD.g                   1.00:  GRAVITY FIELD
 VSDR.deg               148.53:  VERT SEC DIRECT
 TDD .m                3473.01:  TOTAL DEPTH (DRILLER)
 SDEP.m                 364.00:  START DEPTH
 DFSL.m                   0.00:  DISTANCE FSL
 DFWL.m                   0.00:  DISTANCE FWL
 UTMY.m             4443793.85:  UTM Y
 UTMX.m              519005.06:  UTM X
 WHEW.m                  -6.24:  WELL HEAD E/W
 WHNS.m                  10.28:  WELL HEAD N/S
 LONG.deg                51.22:  LONGITUDE
 LATI.deg                40.13:  LATITUDE
 TVDS.m                  43.00:  TVDSS CORRECTN
 EKB .m                   0.00:  KB ELEVATION
 EDF .m                  43.00:  DF ELEVATION
 TDL .m                 254.00:  TOTAL DEPTH (LOGGER)
 MAGU.                 1850021:  MAGUTM CHECKSUM
 VSC .                       0:  VS TO CLOSURE
~Parameter Information Block
#MNEM.UNIT       Value        Description
#---------     -----------    ---------------------------
 AV  .mps                 0.50:  Ann Velocity 
 AVMX.mps                 1.40:  Max Ann Veloc 
 AZIF.deg               144.94:  Azm, Final 
 BHAT.        Rotary Steerable:  BHA Type 
 BROT.°/30m               0.23:  Build Rotating 
 BS  .in                  8.50:  Bit Size 
 BTPL.psig              264.00:  Bit Press Loss 
 CABU.                     Yes:  Customer Abuse 
 COMM.                     ä\:  Run Comments 1 
 TCS .hr                 87.30:  Time Ciculation Ended 
 CV  .mps                 2.45:  Crit Velocity 
 CVMX.mps                 2.74:  Max Crit Veloc 
 DD1 .             Aziz Aliyev:  Direct Drillr 1 
 DDSV.               Geo-Pilot:  DD Service 
 DEFF.%                 100.00:  % Det Eff 
 DLRX.°/30m               1.22:  Dogleg Rot Max 
 DLSO.°/30m               0.52:  Dogleg Oriented 
 DLSX.°/30m               1.22:  Dogleg Str Max 
 DRET.      12.59.00 23-Feb-20:  Drill End Time 
 DRST.      09.44.00 18-Feb-20:  Drill Start Tim 
 DTIM.hr                 23.03:  Time Drilling 
 EDEP.m                3473.01:  End Depth 
 ENG1.         Almaz Almadatov:  Engineer 1 
 ENG2.         Dair Mahammadov:  Engineer 2 
 ENG3.          Nazrin Asgarli:  Engineer 3 
 ETIM.      10.33.36 26-Feb-20:  End Time 
 FLOI.gpm               480.00:  Flow In 
 FLON.gpm               300.00:  Flow In Min 
 FLOS.cptm                1.00:  Fluid Loss 
 FLOX.gpm               550.00:  Flow In Max 
 HFLO.                      No:  High Flow 
 HPRE.                      No:  High Pressure 
 HTEM.                      No:  High Temp 
 HYDO.m                   1.80:  Hydro Offset 
 IFIN.deg                74.42:  Inc, Final 
 IMAX.deg                76.14:  Inc Max 
 IMIN.deg                74.42:  Inc Min 
 IMND.m                3462.72:  Inc Min Depth 
 IMXD.m                3235.69:  Inc Max Depth 
 JARR.                      No:  Jarring 
 LETM.      12.59.00 23-Feb-20:  Log End Time 
 LOST.hr                     0:  Lost Rig Time 
 LSTM.      09.44.00 18-Feb-20:  Log Start Time 
 MDCL.ppm             45000.00:  Mud Chlorides 
 MDES.     Inversion Oil/Synthetic:  Mud Desc 
 DFD .sg                  1.38:  Mud Density 
 MDMN.sg                  1.34:  Dens Mud Min 
 MDMX.sg                  1.49:  Dens Mud Max 
 MOIL.                      67:  Run Mud Oil % 
 MOWR.                   67:33:  Run Mud OWR 
 MSND.                    0.12:  Run Mud Sand % 
 MSOL.                      22:  Run Mud Solids% 
 DFV .spqt               81.00:  Mud Viscosity 
 MWOD.in                  6.75:  MWD Tool OD 
 MWSI.                      No:  Serv Intrp, MWD 
 OTIM.hr                231.44:  Time Operating 
 PCON.          Wear / Scratch:  Pad Condition 
 PMAX.psia             3400.00:  Press Op, Max 
 PV  .cP                 55.00:  Mud PV 
 RUN .                     800:  Run Number 
 ROPA.m/hr               12.00:  ROP Avg 
 ROPN.m/hr                5.00:  ROP Min 
 ROPX.m/hr               28.00:  ROP Max 
 RPMA.rpm               120.00:  RPM Surface Avg 
 RPMN.rpm                40.00:  RPM Surface Min 
 RPMX.rpm               130.00:  RPM Surface Max 
 RRUN.                    0800:  Rig Run Number 
 RTIM.hr                 45.00:  Time Reaming 
 SAZI.deg               145.38:  Azm, Start 
 SDEP.m                3219.01:  Start Depth 
 SIDD.                      No:  Serv Intrp, DD 
 SINC.deg                75.11:  Inc, Start 
 SPPA.psig             2400.00:  SPP Avg 
 SPPN.psig             2320.00:  SPP Min 
 SPPX.psig             3200.00:  SPP Max 
 STIM.      15.15.00 17-Feb-20:  Start Time 
 SVCS.                 DD, MWD:  Services 
 SVER.                    9.20:  Sperry Version 
 TDAT.m                 254.00:  Tot Depth Attmp 
 TDDF.                      No:  Trip for DD 
 TDLG.m                 254.00:  Tot Depth Loggd 
 TFF .                      No:  Trip for Fail 
 TQAA.f-kp               13.00:  Torque Abs Avg 
 TQAN.f-kp                7.00:  Torque Abs Min 
 TQAX.f-kp               15.00:  Torque Abs Max 
 TRRT.°/30m               0.21:  Turn Rotating 
 MRT .                  EWR-M5:  Maximum Recorded Temperature 
 TTMX.degC               64.00:  Max Tool Temp 
 VS01.                90586516:  Virtual Str1 SN 
 VS02.                90513691:  Virtual Str2 SN 
 VS03.                90586523:  Virtual Str3 SN 
 VS04.                90586520:  Virtual Str4 SN 
 VS05.                90590507:  Virtual Str5 SN 
 WBMN.klb                12.00:  WOB Min 
 WITN.           Rufat Babayev:  Customer Rep 2 
 WITN.         Alistair Sprott:  Customer Rep 
 WOBA.klb                18.00:  WOB Avg 
 WOBX.klb                30.00:  WOB Max 
 YP  .lhf2               41.00:  Yield Point 
~Curve Information Block
#MNEM.UNIT                 API CODE     Curve Description
#---------               -----------    ---------------------------
 TIME.HHMMSS            00 000 000 000:  GT Time & Date
 GTDEPTH.m              00 000 000 000:  GT Depth
 GTPQH.psia             00 000 000 000:  GT HR Quartz Pressure
 GTTQ.degC              00 000 000 000:  GT Quartz Temperature
 GTTN.NONE              00 000 000 000:  GT Test Number
 GTET.sec               00 000 000 000:  GT Elapsed Test Time
 GTTVD.m                00 000 000 000:  GT True Vertical Depth
#Other Information
#
#WARRANTY: Halliburton will use its best efforts to furnish customers with 
#accurate information and interpretations that are part of, and incident to, the services 
#provided.  However, Halliburton cannot and does not warrant the accuracy 
#or correctness of such information and interpretations.  Under no circumstances should any 
#such information or interpretation be relied upon as the sole basis for any drilling, 
#completion, production, or financial decision or any procedure involving any risk to the 
#safety of any drilling venture, drilling rig or its crew or any other third party.  The 
#Customer has full responsibility for all drilling, completion and production operation.  
#Halliburton makes no representations or warranties, either expressed or 
#implied, including, but not limited to, the implied warranties of merchantability or fitness 
#for a particular purpose, with respect to the services rendered.  In no event will 
#Halliburton be liable for failure to obtain any particular results or for 
#any damages, including, but not limited to, indirect, special or consequential damages, 
#resulting from the use of any information or interpretation provided by Halliburton.
#
~A           TIME           GTDEPTH  GTPQH  GTTQ  GTTN  GTET   GTTVD  
# ...
   06:05:40.205.24-Feb-2020 3290.31   68.49 54.60 9.00 161.04 2687.60
   06:05:40.405.24-Feb-2020 3290.31   68.49 54.60 9.00 161.24 2687.60
   06:05:40.605.24-Feb-2020 3290.31   68.59 54.60 9.00 161.44 2687.60
   06:05:40.805.24-Feb-2020 3290.31   68.63 54.60 9.00 161.64 2687.60
   06:05:41.005.24-Feb-2020 3290.31   68.67 54.60 9.00 161.84 2687.60
   06:05:41.205.24-Feb-2020 3290.31   68.72 54.60 9.00 162.04 2687.60
   06:05:41.405.24-Feb-2020 3290.31   68.72 54.60 9.00 162.24 2687.60
   06:05:41.605.24-Feb-2020 3290.31   68.82 54.60 9.00 162.44 2687.60
   06:05:41.805.24-Feb-2020 3290.31   68.87 54.60 9.00 162.64 2687.60
   06:05:42.005.24-Feb-2020 3290.31   68.91 54.60 9.00 162.84 2687.60
   06:05:42.205.24-Feb-2020 3290.31   68.95 54.60 9.00 163.04 2687.60
   06:05:42.405.24-Feb-2020 3290.31   69.00 54.60 9.00 163.24 2687.60
   06:05:42.605.24-Feb-2020 3290.31   69.05 54.60 9.00 163.44 2687.60
   06:05:42.805.24-Feb-2020 3290.31   69.10 54.60 9.00 163.64 2687.60
   06:05:43.005.24-Feb-2020 3290.31   69.15 54.60 9.00 163.84 2687.60
   06:05:43.205.24-Feb-2020 3290.31   69.20 54.60 9.00 164.04 2687.60
   06:05:43.405.24-Feb-2020 3290.31   69.20 54.60 9.00 164.24 2687.60
   06:05:43.605.24-Feb-2020 3290.31   69.28 54.60 9.00 164.44 2687.60
   06:05:43.805.24-Feb-2020 3290.31   69.34 54.60 9.00 164.64 2687.60
   06:05:44.005.24-Feb-2020 3290.31   69.38 54.60 9.00 164.84 2687.60
   06:05:44.205.24-Feb-2020 3290.31   69.41 54.60 9.00 165.04 2687.60
   06:05:44.406.24-Feb-2020 3290.31   69.41 54.60 9.00 165.24 2687.60
   06:05:44.606.24-Feb-2020 3290.31   69.51 54.60 9.00 165.44 2687.60
   06:05:44.806.24-Feb-2020 3290.31   69.56 54.60 9.00 165.64 2687.60
   06:05:45.006.24-Feb-2020 3290.31   69.60 54.60 9.00 165.84 2687.60
   06:05:45.206.24-Feb-2020 3290.31   69.65 54.60 9.00 166.04 2687.60
   06:05:45.406.24-Feb-2020 3290.31   69.65 54.60 9.00 166.24 2687.60
   06:05:45.606.24-Feb-2020 3290.31   69.74 54.60 9.00 166.44 2687.60
   06:05:45.806.24-Feb-2020 3290.31   69.79 54.60 9.00 166.64 2687.60
   06:05:46.006.24-Feb-2020 3290.31   69.83 54.60 9.00 166.84 2687.60
   06:05:46.206.24-Feb-2020 3290.31   69.87 54.60 9.00 167.04 2687.60
   06:05:46.406.24-Feb-2020 3290.31   69.99 54.60 9.00 167.24 2687.60
   06:05:46.606.24-Feb-2020 3290.31   69.43 54.60 9.00 167.44 2687.60
   06:05:46.806.24-Feb-2020 3290.31   66.18 54.60 9.00 167.64 2687.60
   06:05:47.006.24-Feb-2020 3290.31   61.96 54.60 9.00 167.84 2687.60
   06:05:47.206.24-Feb-2020 3290.31   57.88 54.60 9.00 168.04 2687.60
   06:05:47.406.24-Feb-2020 3290.31   57.88 54.60 9.00 168.24 2687.60
   06:05:47.606.24-Feb-2020 3290.31   51.17 54.60 9.00 168.44 2687.60
   06:05:47.806.24-Feb-2020 3290.31   48.34 54.60 9.00 168.64 2687.60
   06:05:48.006.24-Feb-2020 3290.31   45.91 54.60 9.00 168.84 2687.60
   06:05:48.206.24-Feb-2020 3290.31   43.71 54.60 9.00 169.04 2687.60
   06:05:48.406.24-Feb-2020 3290.31   43.71 54.60 9.00 169.24 2687.60
   06:05:48.606.24-Feb-2020 3290.31   39.97 54.60 9.00 169.44 2687.60
   06:05:48.806.24-Feb-2020 3290.31   38.40 54.60 9.00 169.64 2687.60
   06:05:49.007.24-Feb-2020 3290.31   36.98 54.60 9.00 169.84 2687.60
   06:05:49.207.24-Feb-2020 3290.31   35.69 54.60 9.00 170.04 2687.60
   06:05:49.407.24-Feb-2020 3290.31   35.69 54.60 9.00 170.24 2687.60
   06:05:49.607.24-Feb-2020 3290.31   33.34 54.60 9.00 170.44 2687.60
   06:05:49.807.24-Feb-2020 3290.31   32.31 54.60 9.00 170.64 2687.60
   06:05:50.007.24-Feb-2020 3290.31   31.37 54.60 9.00 170.84 2687.60
   06:05:50.207.24-Feb-2020 3290.31   30.48 54.60 9.00 171.04 2687.60
   06:05:50.407.24-Feb-2020 3290.31   29.65 54.60 9.00 171.24 2687.60
   06:05:50.607.24-Feb-2020 3290.31   28.90 54.60 9.00 171.44 2687.60
   06:05:50.807.24-Feb-2020 3290.31   28.21 54.60 9.00 171.64 2687.60
   06:05:51.007.24-Feb-2020 3290.31   27.57 54.60 9.00 171.84 2687.60
   06:05:51.207.24-Feb-2020 3290.31   26.98 54.60 9.00 172.04 2687.60
   06:05:51.407.24-Feb-2020 3290.31   26.98 54.60 9.00 172.24 2687.60
   06:05:51.607.24-Feb-2020 3290.31   25.86 54.60 9.00 172.44 2687.60
   06:05:51.807.24-Feb-2020 3290.31   25.34 54.60 9.00 172.64 2687.60
   06:05:52.007.24-Feb-2020 3290.31   24.85 54.60 9.00 172.84 2687.60
   06:05:52.207.24-Feb-2020 3290.31   24.39 54.60 9.00 173.04 2687.60
   06:05:52.407.24-Feb-2020 3290.31   24.39 54.60 9.00 173.24 2687.60
   06:05:52.607.24-Feb-2020 3290.31   23.55 54.60 9.00 173.44 2687.60
   06:05:52.807.24-Feb-2020 3290.31   23.16 54.60 9.00 173.64 2687.60
   06:05:53.007.24-Feb-2020 3290.31   22.79 54.60 9.00 173.84 2687.60
   06:05:53.207.24-Feb-2020 3290.31   22.43 54.60 9.00 174.04 2687.60
   06:05:53.408.24-Feb-2020 3290.31   22.43 54.60 9.00 174.24 2687.60
   06:05:53.608.24-Feb-2020 3290.31   21.79 54.60 9.00 174.44 2687.60
   06:05:53.808.24-Feb-2020 3290.31   21.48 54.60 9.00 174.64 2687.60
   06:05:54.008.24-Feb-2020 3290.31   21.20 54.60 9.00 174.84 2687.60
   06:05:54.208.24-Feb-2020 3290.31   20.93 54.60 9.00 175.04 2687.60
   06:05:54.408.24-Feb-2020 3290.31   20.66 54.60 9.00 175.24 2687.60
   06:05:54.608.24-Feb-2020 3290.31   20.40 54.60 9.00 175.44 2687.60
   06:05:54.808.24-Feb-2020 3290.31   20.16 54.60 9.00 175.64 2687.60
   06:05:55.008.24-Feb-2020 3290.31   19.92 54.60 9.00 175.84 2687.60
   06:05:55.208.24-Feb-2020 3290.31   19.71 54.60 9.00 176.04 2687.60
   06:05:55.408.24-Feb-2020 3290.31   19.71 54.60 9.00 176.24 2687.60
   06:05:55.608.24-Feb-2020 3290.31   19.29 54.60 9.00 176.44 2687.60
   06:05:55.808.24-Feb-2020 3290.31   19.09 54.60 9.00 176.64 2687.60
   06:05:56.008.24-Feb-2020 3290.31   18.91 54.60 9.00 176.84 2687.60
   06:05:56.208.24-Feb-2020 3290.31   18.74 54.60 9.00 177.04 2687.60
   06:05:56.408.24-Feb-2020 3290.31   18.74 54.60 9.00 177.24 2687.60
   06:05:56.608.24-Feb-2020 3290.31   18.43 54.60 9.00 177.44 2687.60
   06:05:56.808.24-Feb-2020 3290.31   18.28 54.60 9.00 177.64 2687.60
   06:05:57.008.24-Feb-2020 3290.31   18.30 54.60 9.00 177.84 2687.60
   06:05:57.208.24-Feb-2020 3290.31   18.40 54.60 9.00 178.04 2687.60
   06:05:57.408.24-Feb-2020 3290.31   18.40 54.60 9.00 178.24 2687.60
   06:05:57.608.24-Feb-2020 3290.31   18.57 54.60 9.00 178.44 2687.60
   06:05:57.808.24-Feb-2020 3290.31   18.63 54.60 9.00 178.64 2687.60
   06:05:58.009.24-Feb-2020 3290.31   18.71 54.60 9.00 178.84 2687.60
   06:05:58.209.24-Feb-2020 3290.31   18.77 54.60 9.00 179.04 2687.60
   06:05:58.409.24-Feb-2020 3290.31   18.84 54.60 9.00 179.24 2687.60
   06:05:58.609.24-Feb-2020 3290.31   18.90 54.60 9.00 179.44 2687.60
   06:05:58.809.24-Feb-2020 3290.31   18.97 54.60 9.00 179.64 2687.60
   06:05:59.009.24-Feb-2020 3290.31   19.02 54.60 9.00 179.84 2687.60
   06:05:59.209.24-Feb-2020 3290.31   19.08 54.60 9.00 180.04 2687.60
   06:05:59.409.24-Feb-2020 3290.31   19.08 54.60 9.00 180.24 2687.60
   06:05:59.609.24-Feb-2020 3290.31   19.18 54.60 9.00 180.44 2687.60
   06:05:59.809.24-Feb-2020 3290.31   19.24 54.59 9.00 180.64 2687.60
   06:06:00.009.24-Feb-2020 3290.31   19.28 54.59 9.00 180.84 2687.60
   06:06:00.209.24-Feb-2020 3290.31   19.35 54.59 9.00 181.04 2687.60
   06:06:00.409.24-Feb-2020 3290.31   19.35 54.59 9.00 181.24 2687.60
   06:06:00.609.24-Feb-2020 3290.31   19.44 54.59 9.00 181.44 2687.60
   06:06:00.809.24-Feb-2020 3290.31   19.49 54.59 9.00 181.64 2687.60
   06:06:01.009.24-Feb-2020 3290.31   19.54 54.59 9.00 181.84 2687.60
   06:06:01.209.24-Feb-2020 3290.31   19.59 54.59 9.00 182.04 2687.60
   06:06:01.409.24-Feb-2020 3290.31   19.59 54.59 9.00 182.24 2687.60
   06:06:01.609.24-Feb-2020 3290.31   19.69 54.59 9.00 182.44 2687.60
   06:06:01.809.24-Feb-2020 3290.31   19.73 54.59 9.00 182.64 2687.60
   06:06:02.009.24-Feb-2020 3290.31   19.77 54.59 9.00 182.84 2687.60
   06:06:02.209.24-Feb-2020 3290.31   19.82 54.59 9.00 183.04 2687.60
   06:06:02.409.24-Feb-2020 3290.31   19.87 54.59 9.00 183.24 2687.60
   06:06:02.610.24-Feb-2020 3290.31   19.91 54.59 9.00 183.44 2687.60
   06:06:02.810.24-Feb-2020 3290.31   19.96 54.59 9.00 183.64 2687.60
   06:06:03.010.24-Feb-2020 3290.31   20.00 54.59 9.00 183.84 2687.60
