~Version Information
 VERS.                  2.0:   CWLS log ASCII Standard -VERSION 2.0
 WRAP.                   NO:   One line per depth step
~Well Information Block
#MNEM.UNIT     VALUE/NAME     DESCRIPTION
#---------     -----------    ---------------------------
 STRT.S             23:48:42 23-Feb-20: START TIME 23:48:42 23-Feb-20
 STOP.S             23:55:42 23-Feb-20: STOP TIME  23:55:42 23-Feb-20
 STEP.S                   0.00: STEP TIME
 NULL.                 -999.25: NULL VALUE
 JOBN.        AZ-XX-0905059384:  JOB TICKET NUMB
 PDAT.          Mean Sea Level:  PERMANENT DATUM
 UNIT.                     N/A:  LOGGING EQUIPMENT ID
 DCON.         Sperry Drilling:  DIRECTNL CONTR
 DOE .                     N/A:  DOE NUMBER
 RIG .             West Chirag:  RIG NAME
 WELL.                     J22:  WELL NAME
 MWDS.                    Baku:  MWD SHOP
 SRVC.     TURAN Drilling & Engineering:  CONTRACTOR
 FLD .                     ACG:  FIELD NAME
 CTRY.              Azerbaijan:  COUNTRY NAME
 PROV.                    Baku:  PROVINCE
 STAT.                    Baku:  STATE NAME
 REGN.                   EESSA:  REGION
 BASE.              Azerbaijan:  LOGGING EQUIPMENT BASE LOCATION
 UWI .                     N/A:  UNIQUE WELL IDENTIFIER
 API .                     N/A:  API NUMBER
 COMP.     BP Exploration (Caspian Sea) Ltd.:  COMPANY
 WTYP.                Deviated:  WELL TYPE
 MDS .        Operator Entered:  MAG DATA SOURCE
 SON .        AZ-XX-0905059384:  JOB NUMBER
 FTOP.          Formation Tops:  FORM TOPS DESC
 ILTD.               Lithology:  INTERP LTH DESC
 SVYD.                  Survey:  SURVEY DESC
 DMOD.             Drill Model:  DRILL MOD DESC
 HPTY.       Minimum Curvature:  HOLE POS TYPE
 NREF.                    Grid:  NORTH REFERENCE
 SPUD.               09-Jan-20:  SPUD DATE
 DATE.      14.04.48 07-Feb-20:  END TIME
 STIM.      07.00.00 09-Jan-20:  START TIME
 DMF .             Drill Floor:  DRILL MEAS FROM
 DFST.                        :  DIST FSL TEXT
 DFWT.                        :  DIST FWL TEXT
 CNTY.                        :  COUNTY
 LOC .                        :  LOCATION
 LMF .             Drill Floor:  LOG MEASURED FROM
 DEP .m                   0.00:  DEPTH
 VSNS.m                  10.28:  VERT SEC N/S
 VSEW.m                  -6.24:  VERT SEC E/W
 AGAP.m                  43.00:  AIR GAP
 APD .m                  43.00:  DEPTH ABOVE PD
 WDMS.m                 169.80:  WD ELEV
 EGL .m                   0.00:  GROUND ELEVATION
 EPD .m                   0.00:  ELEVATION
 AZTC.deg                 6.27:  AZM TOTAL CORR
 GRDC.deg                 0.15:  GRID CORRECTION
 MDEC.deg                 6.42:  MAGNETIC DECL
 MDIP.deg                59.56:  MAGNETIC DIP
 MFLD.nT              50277.00:  MAGNETIC FIELD
 GVFD.g                   1.00:  GRAVITY FIELD
 VSDR.deg               148.53:  VERT SEC DIRECT
 TDD .m                3473.01:  TOTAL DEPTH (DRILLER)
 SDEP.m                 364.00:  START DEPTH
 DFSL.m                   0.00:  DISTANCE FSL
 DFWL.m                   0.00:  DISTANCE FWL
 UTMY.m             4443793.85:  UTM Y
 UTMX.m              519005.06:  UTM X
 WHEW.m                  -6.24:  WELL HEAD E/W
 WHNS.m                  10.28:  WELL HEAD N/S
 LONG.deg                51.22:  LONGITUDE
 LATI.deg                40.13:  LATITUDE
 TVDS.m                  43.00:  TVDSS CORRECTN
 EKB .m                   0.00:  KB ELEVATION
 EDF .m                  43.00:  DF ELEVATION
 TDL .m                 254.00:  TOTAL DEPTH (LOGGER)
 MAGU.                 1850021:  MAGUTM CHECKSUM
 VSC .                       0:  VS TO CLOSURE
~Parameter Information Block
#MNEM.UNIT       Value        Description
#---------     -----------    ---------------------------
 AV  .mps                 0.50:  Ann Velocity 
 AVMX.mps                 1.40:  Max Ann Veloc 
 AZIF.deg               144.94:  Azm, Final 
 BHAT.        Rotary Steerable:  BHA Type 
 BROT.°/30m               0.23:  Build Rotating 
 BS  .in                  8.50:  Bit Size 
 BTPL.psig              264.00:  Bit Press Loss 
 CABU.                     Yes:  Customer Abuse 
 COMM.                     ¼ýd:  Run Comments 1 
 TCS .hr                 87.30:  Time Ciculation Ended 
 CV  .mps                 2.45:  Crit Velocity 
 CVMX.mps                 2.74:  Max Crit Veloc 
 DD1 .             Aziz Aliyev:  Direct Drillr 1 
 DDSV.               Geo-Pilot:  DD Service 
 DEFF.%                 100.00:  % Det Eff 
 DLRX.°/30m               1.22:  Dogleg Rot Max 
 DLSO.°/30m               0.52:  Dogleg Oriented 
 DLSX.°/30m               1.22:  Dogleg Str Max 
 DRET.      12.59.00 23-Feb-20:  Drill End Time 
 DRST.      09.44.00 18-Feb-20:  Drill Start Tim 
 DTIM.hr                 23.03:  Time Drilling 
 EDEP.m                3473.01:  End Depth 
 ENG1.         Almaz Almadatov:  Engineer 1 
 ENG2.         Dair Mahammadov:  Engineer 2 
 ENG3.          Nazrin Asgarli:  Engineer 3 
 ETIM.      10.33.36 26-Feb-20:  End Time 
 FLOI.gpm               480.00:  Flow In 
 FLON.gpm               300.00:  Flow In Min 
 FLOS.cptm                1.00:  Fluid Loss 
 FLOX.gpm               550.00:  Flow In Max 
 HFLO.                      No:  High Flow 
 HPRE.                      No:  High Pressure 
 HTEM.                      No:  High Temp 
 HYDO.m                   1.80:  Hydro Offset 
 IFIN.deg                74.42:  Inc, Final 
 IMAX.deg                76.14:  Inc Max 
 IMIN.deg                74.42:  Inc Min 
 IMND.m                3462.72:  Inc Min Depth 
 IMXD.m                3235.69:  Inc Max Depth 
 JARR.                      No:  Jarring 
 LETM.      12.59.00 23-Feb-20:  Log End Time 
 LOST.hr                     0:  Lost Rig Time 
 LSTM.      09.44.00 18-Feb-20:  Log Start Time 
 MDCL.ppm             45000.00:  Mud Chlorides 
 MDES.     Inversion Oil/Synthetic:  Mud Desc 
 DFD .sg                  1.38:  Mud Density 
 MDMN.sg                  1.34:  Dens Mud Min 
 MDMX.sg                  1.49:  Dens Mud Max 
 MOIL.                      67:  Run Mud Oil % 
 MOWR.                   67:33:  Run Mud OWR 
 MSND.                    0.12:  Run Mud Sand % 
 MSOL.                      22:  Run Mud Solids% 
 DFV .spqt               81.00:  Mud Viscosity 
 MWOD.in                  6.75:  MWD Tool OD 
 MWSI.                      No:  Serv Intrp, MWD 
 OTIM.hr                231.44:  Time Operating 
 PCON.          Wear / Scratch:  Pad Condition 
 PMAX.psia             3400.00:  Press Op, Max 
 PV  .cP                 55.00:  Mud PV 
 RUN .                     800:  Run Number 
 ROPA.m/hr               12.00:  ROP Avg 
 ROPN.m/hr                5.00:  ROP Min 
 ROPX.m/hr               28.00:  ROP Max 
 RPMA.rpm               120.00:  RPM Surface Avg 
 RPMN.rpm                40.00:  RPM Surface Min 
 RPMX.rpm               130.00:  RPM Surface Max 
 RRUN.                    0800:  Rig Run Number 
 RTIM.hr                 45.00:  Time Reaming 
 SAZI.deg               145.38:  Azm, Start 
 SDEP.m                3219.01:  Start Depth 
 SIDD.                      No:  Serv Intrp, DD 
 SINC.deg                75.11:  Inc, Start 
 SPPA.psig             2400.00:  SPP Avg 
 SPPN.psig             2320.00:  SPP Min 
 SPPX.psig             3200.00:  SPP Max 
 STIM.      15.15.00 17-Feb-20:  Start Time 
 SVCS.                 DD, MWD:  Services 
 SVER.                    9.20:  Sperry Version 
 TDAT.m                 254.00:  Tot Depth Attmp 
 TDDF.                      No:  Trip for DD 
 TDLG.m                 254.00:  Tot Depth Loggd 
 TFF .                      No:  Trip for Fail 
 TQAA.f-kp               13.00:  Torque Abs Avg 
 TQAN.f-kp                7.00:  Torque Abs Min 
 TQAX.f-kp               15.00:  Torque Abs Max 
 TRRT.°/30m               0.21:  Turn Rotating 
 MRT .                  EWR-M5:  Maximum Recorded Temperature 
 TTMX.degC               64.00:  Max Tool Temp 
 VS01.                90586516:  Virtual Str1 SN 
 VS02.                90513691:  Virtual Str2 SN 
 VS03.                90586523:  Virtual Str3 SN 
 VS04.                90586520:  Virtual Str4 SN 
 VS05.                90590507:  Virtual Str5 SN 
 WBMN.klb                12.00:  WOB Min 
 WITN.           Rufat Babayev:  Customer Rep 2 
 WITN.         Alistair Sprott:  Customer Rep 
 WOBA.klb                18.00:  WOB Avg 
 WOBX.klb                30.00:  WOB Max 
 YP  .lhf2               41.00:  Yield Point 
~Curve Information Block
#MNEM.UNIT                 API CODE     Curve Description
#---------               -----------    ---------------------------
 TIME.HHMMSS            00 000 000 000:  GT Time & Date
 GTDEPTH.m              00 000 000 000:  GT Depth
 GTPQH.psia             00 000 000 000:  GT HR Quartz Pressure
 GTTQ.degC              00 000 000 000:  GT Quartz Temperature
 GTTN.NONE              00 000 000 000:  GT Test Number
 GTET.sec               00 000 000 000:  GT Elapsed Test Time
 GTTVD.m                00 000 000 000:  GT True Vertical Depth
#Other Information
#
#WARRANTY: Halliburton will use its best efforts to furnish customers with 
#accurate information and interpretations that are part of, and incident to, the services 
#provided.  However, Halliburton cannot and does not warrant the accuracy 
#or correctness of such information and interpretations.  Under no circumstances should any 
#such information or interpretation be relied upon as the sole basis for any drilling, 
#completion, production, or financial decision or any procedure involving any risk to the 
#safety of any drilling venture, drilling rig or its crew or any other third party.  The 
#Customer has full responsibility for all drilling, completion and production operation.  
#Halliburton makes no representations or warranties, either expressed or 
#implied, including, but not limited to, the implied warranties of merchantability or fitness 
#for a particular purpose, with respect to the services rendered.  In no event will 
#Halliburton be liable for failure to obtain any particular results or for 
#any damages, including, but not limited to, indirect, special or consequential damages, 
#resulting from the use of any information or interpretation provided by Halliburton.
#
~A           TIME           GTDEPTH  GTPQH  GTTQ  GTTN  GTET   GTTVD  
# ...
   23:51:23.435.23-Feb-2020 3441.51 4209.16 56.59 1.00 161.02 2726.26
   23:51:23.635.23-Feb-2020 3441.51 4209.16 56.59 1.00 161.22 2726.26
   23:51:23.835.23-Feb-2020 3441.51 4209.15 56.59 1.00 161.42 2726.26
   23:51:24.035.23-Feb-2020 3441.51 4209.22 56.59 1.00 161.62 2726.26
   23:51:24.235.23-Feb-2020 3441.51 4209.19 56.59 1.00 161.82 2726.26
   23:51:24.435.23-Feb-2020 3441.51 4209.17 56.59 1.00 162.02 2726.26
   23:51:24.635.23-Feb-2020 3441.51 4209.17 56.59 1.00 162.22 2726.26
   23:51:24.835.23-Feb-2020 3441.51 4209.23 56.59 1.00 162.42 2726.26
   23:51:25.035.23-Feb-2020 3441.51 4209.22 56.59 1.00 162.62 2726.26
   23:51:25.235.23-Feb-2020 3441.51 4209.13 56.59 1.00 162.82 2726.26
   23:51:25.435.23-Feb-2020 3441.51 4209.81 56.59 1.00 163.02 2726.26
   23:51:25.635.23-Feb-2020 3441.51 4209.81 56.59 1.00 163.22 2726.26
   23:51:25.835.23-Feb-2020 3441.51 4209.40 56.59 1.00 163.42 2726.26
   23:51:26.035.23-Feb-2020 3441.51 4209.27 56.59 1.00 163.62 2726.26
   23:51:26.235.23-Feb-2020 3441.51 4209.18 56.59 1.00 163.82 2726.26
   23:51:26.435.23-Feb-2020 3441.51 4209.62 56.59 1.00 164.02 2726.26
   23:51:26.635.23-Feb-2020 3441.51 4209.62 56.59 1.00 164.22 2726.26
   23:51:26.835.23-Feb-2020 3441.51 4209.25 56.59 1.00 164.42 2726.26
   23:51:27.035.23-Feb-2020 3441.51 4209.56 56.59 1.00 164.62 2726.26
   23:51:27.235.23-Feb-2020 3441.51 4209.08 56.59 1.00 164.82 2726.26
   23:51:27.435.23-Feb-2020 3441.51 4209.54 56.59 1.00 165.02 2726.26
   23:51:27.635.23-Feb-2020 3441.51 4209.54 56.59 1.00 165.22 2726.26
   23:51:27.835.23-Feb-2020 3441.51 4209.84 56.59 1.00 165.42 2726.26
   23:51:28.035.23-Feb-2020 3441.51 4209.05 56.59 1.00 165.62 2726.26
   23:51:28.235.23-Feb-2020 3441.51 4209.34 56.59 1.00 165.82 2726.26
   23:51:28.435.23-Feb-2020 3441.51 4209.08 56.59 1.00 166.02 2726.26
   23:51:28.635.23-Feb-2020 3441.51 4209.08 56.59 1.00 166.22 2726.26
   23:51:28.835.23-Feb-2020 3441.51 4209.19 56.59 1.00 166.42 2726.26
   23:51:29.035.23-Feb-2020 3441.51 4209.22 56.59 1.00 166.62 2726.26
   23:51:29.235.23-Feb-2020 3441.51 4209.21 56.59 1.00 166.82 2726.26
   23:51:29.435.23-Feb-2020 3441.51 4209.20 56.59 1.00 167.02 2726.26
   23:51:29.635.23-Feb-2020 3441.51 4209.20 56.59 1.00 167.22 2726.26
   23:51:29.835.23-Feb-2020 3441.51 4209.22 56.59 1.00 167.42 2726.26
   23:51:30.035.23-Feb-2020 3441.51 4209.19 56.59 1.00 167.62 2726.26
   23:51:30.235.23-Feb-2020 3441.51 4209.23 56.59 1.00 167.82 2726.26
   23:51:30.436.23-Feb-2020 3441.51 4209.22 56.59 1.00 168.02 2726.26
   23:51:30.636.23-Feb-2020 3441.51 4209.22 56.59 1.00 168.22 2726.26
   23:51:30.836.23-Feb-2020 3441.51 4209.41 56.59 1.00 168.42 2726.26
   23:51:31.036.23-Feb-2020 3441.51 4209.08 56.59 1.00 168.62 2726.26
   23:51:31.236.23-Feb-2020 3441.51 4209.68 56.59 1.00 168.82 2726.26
   23:51:31.436.23-Feb-2020 3441.51 4209.11 56.59 1.00 169.02 2726.26
   23:51:31.636.23-Feb-2020 3441.51 4209.11 56.59 1.00 169.22 2726.26
   23:51:31.836.23-Feb-2020 3441.51 4209.17 56.59 1.00 169.42 2726.26
   23:51:32.036.23-Feb-2020 3441.51 4209.26 56.59 1.00 169.62 2726.26
   23:51:32.236.23-Feb-2020 3441.51 4209.23 56.59 1.00 169.82 2726.26
   23:51:32.436.23-Feb-2020 3441.51 4209.15 56.59 1.00 170.02 2726.26
   23:51:32.636.23-Feb-2020 3441.51 4209.21 56.59 1.00 170.22 2726.26
   23:51:32.836.23-Feb-2020 3441.51 4209.28 56.59 1.00 170.42 2726.26
   23:51:33.036.23-Feb-2020 3441.51 4209.18 56.59 1.00 170.62 2726.26
   23:51:33.236.23-Feb-2020 3441.51 4209.22 56.59 1.00 170.82 2726.26
   23:51:33.436.23-Feb-2020 3441.51 4209.19 56.59 1.00 171.02 2726.26
   23:51:33.636.23-Feb-2020 3441.51 4209.19 56.59 1.00 171.22 2726.26
   23:51:33.836.23-Feb-2020 3441.51 4209.23 56.59 1.00 171.42 2726.26
   23:51:34.036.23-Feb-2020 3441.51 4209.14 56.59 1.00 171.62 2726.26
   23:51:34.236.23-Feb-2020 3441.51 4209.70 56.59 1.00 171.82 2726.26
   23:51:34.436.23-Feb-2020 3441.51 4209.12 56.59 1.00 172.02 2726.26
   23:51:34.636.23-Feb-2020 3441.51 4209.12 56.59 1.00 172.22 2726.26
   23:51:34.836.23-Feb-2020 3441.51 4209.09 56.59 1.00 172.42 2726.26
   23:51:35.036.23-Feb-2020 3441.51 4209.50 56.59 1.00 172.62 2726.26
   23:51:35.236.23-Feb-2020 3441.51 4208.96 56.59 1.00 172.82 2726.26
   23:51:35.436.23-Feb-2020 3441.51 4209.69 56.59 1.00 173.02 2726.26
   23:51:35.636.23-Feb-2020 3441.51 4209.69 56.59 1.00 173.22 2726.26
   23:51:35.836.23-Feb-2020 3441.51 4209.28 56.59 1.00 173.42 2726.26
   23:51:36.036.23-Feb-2020 3441.51 4209.24 56.59 1.00 173.62 2726.26
   23:51:36.236.23-Feb-2020 3441.51 4209.18 56.59 1.00 173.82 2726.26
   23:51:36.436.23-Feb-2020 3441.51 4209.56 56.59 1.00 174.02 2726.26
   23:51:36.636.23-Feb-2020 3441.51 4209.56 56.59 1.00 174.22 2726.26
   23:51:36.836.23-Feb-2020 3441.51 4209.52 56.59 1.00 174.42 2726.26
   23:51:37.036.23-Feb-2020 3441.51 4208.91 56.59 1.00 174.62 2726.26
   23:51:37.236.23-Feb-2020 3441.51 4209.76 56.59 1.00 174.82 2726.26
   23:51:37.436.23-Feb-2020 3441.51 4209.00 56.59 1.00 175.02 2726.26
   23:51:37.636.23-Feb-2020 3441.51 4209.00 56.59 1.00 175.22 2726.26
   23:51:37.836.23-Feb-2020 3441.51 4209.09 56.59 1.00 175.42 2726.26
   23:51:38.036.23-Feb-2020 3441.51 4209.28 56.59 1.00 175.62 2726.26
   23:51:38.236.23-Feb-2020 3441.51 4209.17 56.59 1.00 175.82 2726.26
   23:51:38.436.23-Feb-2020 3441.51 4209.24 56.59 1.00 176.02 2726.26
   23:51:38.636.23-Feb-2020 3441.51 4209.24 56.59 1.00 176.22 2726.26
   23:51:38.836.23-Feb-2020 3441.51 4209.20 56.59 1.00 176.42 2726.26
   23:51:39.036.23-Feb-2020 3441.51 4209.22 56.59 1.00 176.62 2726.26
   23:51:39.237.23-Feb-2020 3441.51 4209.21 56.59 1.00 176.82 2726.26
   23:51:39.437.23-Feb-2020 3441.51 4209.19 56.59 1.00 177.02 2726.26
   23:51:39.637.23-Feb-2020 3441.51 4209.19 56.59 1.00 177.22 2726.26
   23:51:39.837.23-Feb-2020 3441.51 4209.22 56.59 1.00 177.42 2726.26
   23:51:40.037.23-Feb-2020 3441.51 4209.22 56.59 1.00 177.62 2726.26
   23:51:40.237.23-Feb-2020 3441.51 4209.38 56.59 1.00 177.82 2726.26
   23:51:40.437.23-Feb-2020 3441.51 4209.00 56.59 1.00 178.02 2726.26
   23:51:40.637.23-Feb-2020 3441.51 4209.00 56.59 1.00 178.22 2726.26
   23:51:40.837.23-Feb-2020 3441.51 4209.16 56.59 1.00 178.42 2726.26
   23:51:41.037.23-Feb-2020 3441.51 4209.28 56.59 1.00 178.62 2726.26
   23:51:41.237.23-Feb-2020 3441.51 4209.19 56.59 1.00 178.82 2726.26
   23:51:41.437.23-Feb-2020 3441.51 4209.19 56.59 1.00 179.02 2726.26
   23:51:41.637.23-Feb-2020 3441.51 4209.19 56.59 1.00 179.22 2726.26
   23:51:41.837.23-Feb-2020 3441.51 4209.20 56.59 1.00 179.42 2726.26
   23:51:42.037.23-Feb-2020 3441.51 4209.19 56.59 1.00 179.62 2726.26
   23:51:42.237.23-Feb-2020 3441.51 4209.25 56.59 1.00 179.82 2726.26
   23:51:42.437.23-Feb-2020 3441.51 4209.20 56.59 1.00 180.02 2726.26
   23:51:42.637.23-Feb-2020 3441.51 4209.20 56.59 1.00 180.22 2726.26
   23:51:42.837.23-Feb-2020 3441.51 4209.19 56.59 1.00 180.42 2726.26
   23:51:43.037.23-Feb-2020 3441.51 4209.23 56.59 1.00 180.62 2726.26
   23:51:43.237.23-Feb-2020 3441.51 4209.21 56.59 1.00 180.82 2726.26
   23:51:43.437.23-Feb-2020 3441.51 4209.14 56.59 1.00 181.02 2726.26
   23:51:43.637.23-Feb-2020 3441.51 4209.14 56.59 1.00 181.22 2726.26
   23:51:43.837.23-Feb-2020 3441.51 4209.09 56.59 1.00 181.42 2726.26
   23:51:44.037.23-Feb-2020 3441.51 4209.37 56.59 1.00 181.62 2726.26
   23:51:44.237.23-Feb-2020 3441.51 4209.08 56.59 1.00 181.82 2726.26
   23:51:44.437.23-Feb-2020 3441.51 4209.45 56.59 1.00 182.02 2726.26
   23:51:44.637.23-Feb-2020 3441.51 4209.45 56.59 1.00 182.22 2726.26
   23:51:44.837.23-Feb-2020 3441.51 4209.65 56.59 1.00 182.42 2726.26
   23:51:45.037.23-Feb-2020 3441.51 4209.07 56.59 1.00 182.62 2726.26
   23:51:45.237.23-Feb-2020 3441.51 4209.28 56.59 1.00 182.82 2726.26
   23:51:45.437.23-Feb-2020 3441.51 4209.23 56.59 1.00 183.02 2726.26
   23:51:45.637.23-Feb-2020 3441.51 4209.18 56.59 1.00 183.22 2726.26
   23:51:45.837.23-Feb-2020 3441.51 4209.53 56.59 1.00 183.42 2726.26
   23:51:46.037.23-Feb-2020 3441.51 4209.03 56.59 1.00 183.62 2726.26
   23:51:46.237.23-Feb-2020 3441.51 4209.52 56.59 1.00 183.82 2726.26
